{"last_updated":1751549056,"ttl":60,"version":"2.2","data":{"bikes":[{"bike_id":"3da29fb8-fc97-44c6-b9ac-31dd456b2fd4","system_id":"levelo_inurba_marseille","lat":43.33771,"lon":5.37424,"is_reserved":false,"is_disabled":true,"rental_uris":{"android":"levelo://app?vid=3da29fb8-fc97-44c6-b9ac-31dd456b2fd4","ios":"levelo://app?vid=3da29fb8-fc97-44c6-b9ac-31dd456b2fd4"},"vehicle_type_id":"4","last_reported":1751549056,"current_range_meters":0,"station_id":"","pricing_plan_id":"cebpf4jnsgd1na2vs0mg"},{"bike_id":"01861ad8-a8d7-4be6-816e-651927c87584","system_id":"levelo_inurba_marseille","lat":43.33751,"lon":5.37456,"is_reserved":false,"is_disabled":true,"rental_uris":{"android":"levelo://app?vid=01861ad8-a8d7-4be6-816e-651927c87584","ios":"levelo://app?vid=01861ad8-a8d7-4be6-816e-651927c87584"},"vehicle_type_id":"4","last_reported":1751549056,"current_range_meters":0,"station_id":"","pricing_plan_id":"cebpf4jnsgd1na2vs0mg"},{"bike_id":"45a36d42-3f75-4451-929c-2980bab85fb7","system_id":"levelo_inurba_marseille","lat":43.23163,"lon":5.43758,"is_reserved":false,"is_disabled":true,"rental_uris":{"android":"levelo://app?vid=45a36d42-3f75-4451-929c-2980bab85fb7","ios":"levelo://app?vid=45a36d42-3f75-4451-929c-2980bab85fb7"},"vehicle_type_id":"4","last_reported":1751549056,"current_range_meters":0,"station_id":"","pricing_plan_id":"cebpf4jnsgd1na2vs0mg"},{"bike_id":"6e5b5a4d-1ee5-4068-9613-fb44ab4d8a9a","system_id":"levelo_inurba_marseille","lat":43.34863,"lon":5.34688,"is_reserved":false,"is_disabled":true,"rental_uris":{"android":"levelo://app?vid=6e5b5a4d-1ee5-4068-9613-fb44ab4d8a9a","ios":"levelo://app?vid=6e5b5a4d-1ee5-4068-9613-fb44ab4d8a9a"},"vehicle_type_id":"4","last_reported":1751549056,"current_range_meters":0,"station_id":"","pricing_plan_id":"cebpf4jnsgd1na2vs0mg"},{"bike_id":"8e365e3c-559a-4ba6-a6c5-4c159e2434fc","system_id":"levelo_inurba_marseille","lat":43.21754,"lon":5.34614,"is_reserved":false,"is_disabled":true,"rental_uris":{"android":"levelo://app?vid=8e365e3c-559a-4ba6-a6c5-4c159e2434fc","ios":"levelo://app?vid=8e365e3c-559a-4ba6-a6c5-4c159e2434fc"},"vehicle_type_id":"4","last_reported":1751549056,"current_range_meters":0,"station_id":"","pricing_plan_id":"cebpf4jnsgd1na2vs0mg"},{"bike_id":"5fe1f33a-ebc4-4182-b521-7ef3eadc1773","system_id":"levelo_inurba_marseille","lat":43.26909,"lon":5.36879,"is_reserved":false,"is_disabled":true,"rental_uris":{"android":"levelo://app?vid=5fe1f33a-ebc4-4182-b521-7ef3eadc1773","ios":"levelo://app?vid=5fe1f33a-ebc4-4182-b521-7ef3eadc1773"},"vehicle_type_id":"4","last_reported":1751549056,"current_range_meters":0,"station_id":"","pricing_plan_id":"cebpf4jnsgd1na2vs0mg"},{"bike_id":"6b080ba5-452c-49c4-b998-16d8766a4311","system_id":"levelo_inurba_marseille","lat":43.3053,"lon":5.38424,"is_reserved":false,"is_disabled":true,"rental_uris":{"android":"levelo://app?vid=6b080ba5-452c-49c4-b998-16d8766a4311","ios":"levelo://app?vid=6b080ba5-452c-49c4-b998-16d8766a4311"},"vehicle_type_id":"4","last_reported":1751549056,"current_range_meters":0,"station_id":"ce4bgg92rcd13ifvqb30","pricing_plan_id":"cebpf4jnsgd1na2vs0mg"},{"bike_id":"c27ffa5c-8d74-4089-a8a5-575b5c8db811","system_id":"levelo_inurba_marseille","lat":43.30548,"lon":5.36543,"is_reserved":false,"is_disabled":true,"rental_uris":{"android":"levelo://app?vid=c27ffa5c-8d74-4089-a8a5-575b5c8db811","ios":"levelo://app?vid=c27ffa5c-8d74-4089-a8a5-575b5c8db811"},"vehicle_type_id":"4","last_reported":1751549056,"current_range_meters":0,"station_id":"ce4bgs12rcd13ifvqcag","pricing_plan_id":"cebpf4jnsgd1na2vs0mg"},{"bike_id":"76a100d9-4d35-421f-be53-2a50aecdcba0","system_id":"levelo_inurba_marseille","lat":43.31117,"lon":5.37762,"is_reserved":false,"is_disabled":true,"rental_uris":{"android":"levelo://app?vid=76a100d9-4d35-421f-be53-2a50aecdcba0","ios":"levelo://app?vid=76a100d9-4d35-421f-be53-2a50aecdcba0"},"vehicle_type_id":"4","last_reported":1751549056,"current_range_meters":0,"station_id":"ce4bgt92rcd13ifvqcg0","pricing_plan_id":"cebpf4jnsgd1na2vs0mg"},{"bike_id":"4f8c7826-ef00-4467-b0a9-56921dcbf3b3","system_id":"levelo_inurba_marseille","lat":43.31167,"lon":5.38721,"is_reserved":false,"is_disabled":true,"rental_uris":{"android":"levelo://app?vid=4f8c7826-ef00-4467-b0a9-56921dcbf3b3","ios":"levelo://app?vid=4f8c7826-ef00-4467-b0a9-56921dcbf3b3"},"vehicle_type_id":"4","last_reported":1751549056,"current_range_meters":0,"station_id":"ce4bgv12rcd13ifvqcp0","pricing_plan_id":"cebpf4jnsgd1na2vs0mg"},{"bike_id":"8e520791-f3c2-458c-9680-3acd4b41f812","system_id":"levelo_inurba_marseille","lat":43.31193,"lon":5.38732,"is_reserved":false,"is_disabled":true,"rental_uris":{"android":"levelo://app?vid=8e520791-f3c2-458c-9680-3acd4b41f812","ios":"levelo://app?vid=8e520791-f3c2-458c-9680-3acd4b41f812"},"vehicle_type_id":"4","last_reported":1751549056,"current_range_meters":0,"station_id":"ce4bgv12rcd13ifvqcp0","pricing_plan_id":"cebpf4jnsgd1na2vs0mg"},{"bike_id":"e198fdcc-cd13-4de1-8bde-5dc6dca16ab0","system_id":"levelo_inurba_marseille","lat":43.31081,"lon":5.38386,"is_reserved":false,"is_disabled":true,"rental_uris":{"android":"levelo://app?vid=e198fdcc-cd13-4de1-8bde-5dc6dca16ab0","ios":"levelo://app?vid=e198fdcc-cd13-4de1-8bde-5dc6dca16ab0"},"vehicle_type_id":"4","last_reported":1751549056,"current_range_meters":0,"station_id":"ce4bgv92rcd13ifvqcr0","pricing_plan_id":"cebpf4jnsgd1na2vs0mg"},{"bike_id":"c5d80c6e-0858-4061-a8b0-247bc84b1341","system_id":"levelo_inurba_marseille","lat":43.30647,"lon":5.40081,"is_reserved":false,"is_disabled":true,"rental_uris":{"android":"levelo://app?vid=c5d80c6e-0858-4061-a8b0-247bc84b1341","ios":"levelo://app?vid=c5d80c6e-0858-4061-a8b0-247bc84b1341"},"vehicle_type_id":"4","last_reported":1751549056,"current_range_meters":0,"station_id":"ce4bh112rcd13ifvqda0","pricing_plan_id":"cebpf4jnsgd1na2vs0mg"},{"bike_id":"3e2bc1b5-8528-43ce-b741-292be7a3fffe","system_id":"levelo_inurba_marseille","lat":43.30088,"lon":5.39077,"is_reserved":false,"is_disabled":true,"rental_uris":{"android":"levelo://app?vid=3e2bc1b5-8528-43ce-b741-292be7a3fffe","ios":"levelo://app?vid=3e2bc1b5-8528-43ce-b741-292be7a3fffe"},"vehicle_type_id":"4","last_reported":1751549056,"current_range_meters":0,"station_id":"ce4bh192rcd13ifvqdb0","pricing_plan_id":"cebpf4jnsgd1na2vs0mg"},{"bike_id":"6355f0e4-48ef-4b85-8b1b-6073e503efb5","system_id":"levelo_inurba_marseille","lat":43.29282,"lon":5.40127,"is_reserved":false,"is_disabled":true,"rental_uris":{"android":"levelo://app?vid=6355f0e4-48ef-4b85-8b1b-6073e503efb5","ios":"levelo://app?vid=6355f0e4-48ef-4b85-8b1b-6073e503efb5"},"vehicle_type_id":"4","last_reported":1751549056,"current_range_meters":0,"station_id":"ce4bh312rcd13ifvqdk0","pricing_plan_id":"cebpf4jnsgd1na2vs0mg"},{"bike_id":"84893065-6fc3-418c-9969-a03f8d7fccc1","system_id":"levelo_inurba_marseille","lat":43.28669,"lon":5.38664,"is_reserved":false,"is_disabled":true,"rental_uris":{"android":"levelo://app?vid=84893065-6fc3-418c-9969-a03f8d7fccc1","ios":"levelo://app?vid=84893065-6fc3-418c-9969-a03f8d7fccc1"},"vehicle_type_id":"4","last_reported":1751549056,"current_range_meters":0,"station_id":"ce4bh492rcd13ifvqdug","pricing_plan_id":"cebpf4jnsgd1na2vs0mg"},{"bike_id":"cf5d7add-347a-4dd5-b134-b9d8ea2b073f","system_id":"levelo_inurba_marseille","lat":43.2919,"lon":5.35795,"is_reserved":false,"is_disabled":true,"rental_uris":{"android":"levelo://app?vid=cf5d7add-347a-4dd5-b134-b9d8ea2b073f","ios":"levelo://app?vid=cf5d7add-347a-4dd5-b134-b9d8ea2b073f"},"vehicle_type_id":"4","last_reported":1751549056,"current_range_meters":0,"station_id":"ce4bhb12rcd13ifvqel0","pricing_plan_id":"cebpf4jnsgd1na2vs0mg"},{"bike_id":"18844c1c-8531-43a2-b2ea-aadf005acca1","system_id":"levelo_inurba_marseille","lat":43.284105,"lon":5.34989,"is_reserved":false,"is_disabled":true,"rental_uris":{"android":"levelo://app?vid=18844c1c-8531-43a2-b2ea-aadf005acca1","ios":"levelo://app?vid=18844c1c-8531-43a2-b2ea-aadf005acca1"},"vehicle_type_id":"4","last_reported":1751549056,"current_range_meters":0,"station_id":"ce4bhbh2rcd13ifvqepg","pricing_plan_id":"cebpf4jnsgd1na2vs0mg"},{"bike_id":"304ee351-55cb-4d94-8e20-4b979196c4f2","system_id":"levelo_inurba_marseille","lat":43.28413,"lon":5.34992,"is_reserved":false,"is_disabled":true,"rental_uris":{"android":"levelo://app?vid=304ee351-55cb-4d94-8e20-4b979196c4f2","ios":"levelo://app?vid=304ee351-55cb-4d94-8e20-4b979196c4f2"},"vehicle_type_id":"4","last_reported":1751549056,"current_range_meters":0,"station_id":"ce4bhbh2rcd13ifvqepg","pricing_plan_id":"cebpf4jnsgd1na2vs0mg"},{"bike_id":"844ef6dd-5d81-4609-9db2-87fc3c3703d8","system_id":"levelo_inurba_marseille","lat":43.29228,"lon":5.36069,"is_reserved":false,"is_disabled":true,"rental_uris":{"android":"levelo://app?vid=844ef6dd-5d81-4609-9db2-87fc3c3703d8","ios":"levelo://app?vid=844ef6dd-5d81-4609-9db2-87fc3c3703d8"},"vehicle_type_id":"4","last_reported":1751549056,"current_range_meters":0,"station_id":"ce4bhbh2rcd13ifvqeqg","pricing_plan_id":"cebpf4jnsgd1na2vs0mg"},{"bike_id":"9623bd3f-49e6-4b6d-bbff-b223382f407f","system_id":"levelo_inurba_marseille","lat":43.27177,"lon":5.40997,"is_reserved":false,"is_disabled":true,"rental_uris":{"android":"levelo://app?vid=9623bd3f-49e6-4b6d-bbff-b223382f407f","ios":"levelo://app?vid=9623bd3f-49e6-4b6d-bbff-b223382f407f"},"vehicle_type_id":"4","last_reported":1751549056,"current_range_meters":0,"station_id":"ce4bhl12rcd13ifvqgf0","pricing_plan_id":"cebpf4jnsgd1na2vs0mg"},{"bike_id":"7e39ea07-3ec1-4f66-8d21-89c3fc316912","system_id":"levelo_inurba_marseille","lat":43.31745,"lon":5.42419,"is_reserved":false,"is_disabled":true,"rental_uris":{"android":"levelo://app?vid=7e39ea07-3ec1-4f66-8d21-89c3fc316912","ios":"levelo://app?vid=7e39ea07-3ec1-4f66-8d21-89c3fc316912"},"vehicle_type_id":"4","last_reported":1751549056,"current_range_meters":0,"station_id":"ce4bhp92rcd13ifvqhbg","pricing_plan_id":"cebpf4jnsgd1na2vs0mg"},{"bike_id":"74048b68-e069-4d0c-8b6b-30443c3a8faa","system_id":"levelo_inurba_marseille","lat":43.32044,"lon":5.41562,"is_reserved":false,"is_disabled":true,"rental_uris":{"android":"levelo://app?vid=74048b68-e069-4d0c-8b6b-30443c3a8faa","ios":"levelo://app?vid=74048b68-e069-4d0c-8b6b-30443c3a8faa"},"vehicle_type_id":"4","last_reported":1751549056,"current_range_meters":0,"station_id":"ce4bhq92rcd13ifvqhkg","pricing_plan_id":"cebpf4jnsgd1na2vs0mg"},{"bike_id":"e9115894-320f-4bfb-bee3-9d863c7aa0d7","system_id":"levelo_inurba_marseille","lat":43.31779,"lon":5.39002,"is_reserved":false,"is_disabled":true,"rental_uris":{"android":"levelo://app?vid=e9115894-320f-4bfb-bee3-9d863c7aa0d7","ios":"levelo://app?vid=e9115894-320f-4bfb-bee3-9d863c7aa0d7"},"vehicle_type_id":"4","last_reported":1751549056,"current_range_meters":0,"station_id":"ce4bhqp2rcd13ifvqhng","pricing_plan_id":"cebpf4jnsgd1na2vs0mg"},{"bike_id":"0ceedb97-b379-4d71-a0a5-a7aacfec8efe","system_id":"levelo_inurba_marseille","lat":43.23187,"lon":5.35561,"is_reserved":false,"is_disabled":true,"rental_uris":{"android":"levelo://app?vid=0ceedb97-b379-4d71-a0a5-a7aacfec8efe","ios":"levelo://app?vid=0ceedb97-b379-4d71-a0a5-a7aacfec8efe"},"vehicle_type_id":"4","last_reported":1751549056,"current_range_meters":0,"station_id":"ce4bhu92rcd13ifvqi70","pricing_plan_id":"cebpf4jnsgd1na2vs0mg"},{"bike_id":"34525e0e-88eb-4fe8-be83-e19f0f1185d3","system_id":"levelo_inurba_marseille","lat":43.22515,"lon":5.34783,"is_reserved":false,"is_disabled":true,"rental_uris":{"android":"levelo://app?vid=34525e0e-88eb-4fe8-be83-e19f0f1185d3","ios":"levelo://app?vid=34525e0e-88eb-4fe8-be83-e19f0f1185d3"},"vehicle_type_id":"4","last_reported":1751549056,"current_range_meters":0,"station_id":"st_cvj5dfep6f1abm77gieg","pricing_plan_id":"cebpf4jnsgd1na2vs0mg"},{"bike_id":"9795e511-4f68-494d-9846-41f87f5dd923","system_id":"levelo_inurba_marseille","lat":43.225072,"lon":5.347866,"is_reserved":false,"is_disabled":true,"rental_uris":{"android":"levelo://app?vid=9795e511-4f68-494d-9846-41f87f5dd923","ios":"levelo://app?vid=9795e511-4f68-494d-9846-41f87f5dd923"},"vehicle_type_id":"4","last_reported":1751549056,"current_range_meters":0,"station_id":"st_cvj5dfep6f1abm77gieg","pricing_plan_id":"cebpf4jnsgd1na2vs0mg"},{"bike_id":"7750661e-3127-4501-aa76-1d7cb6be5070","system_id":"levelo_inurba_marseille","lat":43.21753,"lon":5.34608,"is_reserved":false,"is_disabled":true,"rental_uris":{"android":"levelo://app?vid=7750661e-3127-4501-aa76-1d7cb6be5070","ios":"levelo://app?vid=7750661e-3127-4501-aa76-1d7cb6be5070"},"vehicle_type_id":"4","last_reported":1751549056,"current_range_meters":0,"station_id":"st_cvj6r9ubvosntc0bgbag","pricing_plan_id":"cebpf4jnsgd1na2vs0mg"},{"bike_id":"0fa2ac89-b27e-41bf-aad7-4d553b0f63c0","system_id":"levelo_inurba_marseille","lat":43.30285,"lon":5.37706,"is_reserved":false,"is_disabled":true,"rental_uris":{"android":"levelo://app?vid=0fa2ac89-b27e-41bf-aad7-4d553b0f63c0","ios":"levelo://app?vid=0fa2ac89-b27e-41bf-aad7-4d553b0f63c0"},"vehicle_type_id":"4","last_reported":1751549056,"current_range_meters":800,"station_id":"ce4bguh2rcd13ifvqcj0","pricing_plan_id":"cebpf4jnsgd1na2vs0mg"},{"bike_id":"f27f0445-c1e9-41de-a8e1-76b26c6c3570","system_id":"levelo_inurba_marseille","lat":43.31323,"lon":5.39713,"is_reserved":false,"is_disabled":true,"rental_uris":{"android":"levelo://app?vid=f27f0445-c1e9-41de-a8e1-76b26c6c3570","ios":"levelo://app?vid=f27f0445-c1e9-41de-a8e1-76b26c6c3570"},"vehicle_type_id":"4","last_reported":1751549056,"current_range_meters":800,"station_id":"ce4bgvp2rcd13ifvqcu0","pricing_plan_id":"cebpf4jnsgd1na2vs0mg"},{"bike_id":"259d73eb-8183-4b01-98fb-27bb0900a583","system_id":"levelo_inurba_marseille","lat":43.24389,"lon":5.37062,"is_reserved":false,"is_disabled":true,"rental_uris":{"android":"levelo://app?vid=259d73eb-8183-4b01-98fb-27bb0900a583","ios":"levelo://app?vid=259d73eb-8183-4b01-98fb-27bb0900a583"},"vehicle_type_id":"4","last_reported":1751549056,"current_range_meters":800,"station_id":"ce4bhhh2rcd13ifvqfk0","pricing_plan_id":"cebpf4jnsgd1na2vs0mg"},{"bike_id":"6b2edc63-6c5e-4589-a9fc-7a2dc05df168","system_id":"levelo_inurba_marseille","lat":43.24181,"lon":5.39728,"is_reserved":false,"is_disabled":true,"rental_uris":{"android":"levelo://app?vid=6b2edc63-6c5e-4589-a9fc-7a2dc05df168","ios":"levelo://app?vid=6b2edc63-6c5e-4589-a9fc-7a2dc05df168"},"vehicle_type_id":"4","last_reported":1751549056,"current_range_meters":800,"station_id":"ce4bhn12rcd13ifvqgpg","pricing_plan_id":"cebpf4jnsgd1na2vs0mg"},{"bike_id":"75d0a17c-d0c5-45e5-9632-3722a87e82d5","system_id":"levelo_inurba_marseille","lat":43.32108,"lon":5.36763,"is_reserved":false,"is_disabled":true,"rental_uris":{"android":"levelo://app?vid=75d0a17c-d0c5-45e5-9632-3722a87e82d5","ios":"levelo://app?vid=75d0a17c-d0c5-45e5-9632-3722a87e82d5"},"vehicle_type_id":"4","last_reported":1751549056,"current_range_meters":800,"station_id":"ce4bhrh2rcd13ifvqhug","pricing_plan_id":"cebpf4jnsgd1na2vs0mg"},{"bike_id":"777a685b-d914-4be5-a9c1-75b636d667ad","system_id":"levelo_inurba_marseille","lat":43.26583,"lon":5.39238,"is_reserved":false,"is_disabled":true,"rental_uris":{"android":"levelo://app?vid=777a685b-d914-4be5-a9c1-75b636d667ad","ios":"levelo://app?vid=777a685b-d914-4be5-a9c1-75b636d667ad"},"vehicle_type_id":"4","last_reported":1751549056,"current_range_meters":1200,"station_id":"","pricing_plan_id":"cebpf4jnsgd1na2vs0mg"},{"bike_id":"41efbfe1-0ea2-4b7a-b749-9b7425043992","system_id":"levelo_inurba_marseille","lat":43.30306,"lon":5.39211,"is_reserved":false,"is_disabled":true,"rental_uris":{"android":"levelo://app?vid=41efbfe1-0ea2-4b7a-b749-9b7425043992","ios":"levelo://app?vid=41efbfe1-0ea2-4b7a-b749-9b7425043992"},"vehicle_type_id":"4","last_reported":1751549056,"current_range_meters":1200,"station_id":"ce4bgkh2rcd13ifvqbk0","pricing_plan_id":"cebpf4jnsgd1na2vs0mg"},{"bike_id":"b92f819d-38c6-460b-bd64-54a7292238b4","system_id":"levelo_inurba_marseille","lat":43.31225,"lon":5.36855,"is_reserved":false,"is_disabled":true,"rental_uris":{"android":"levelo://app?vid=b92f819d-38c6-460b-bd64-54a7292238b4","ios":"levelo://app?vid=b92f819d-38c6-460b-bd64-54a7292238b4"},"vehicle_type_id":"4","last_reported":1751549056,"current_range_meters":1200,"station_id":"ce4bgl92rcd13ifvqbq0","pricing_plan_id":"cebpf4jnsgd1na2vs0mg"},{"bike_id":"6f6738da-baf4-40b1-823c-0ca8eb70b266","system_id":"levelo_inurba_marseille","lat":43.28412,"lon":5.37514,"is_reserved":false,"is_disabled":true,"rental_uris":{"android":"levelo://app?vid=6f6738da-baf4-40b1-823c-0ca8eb70b266","ios":"levelo://app?vid=6f6738da-baf4-40b1-823c-0ca8eb70b266"},"vehicle_type_id":"4","last_reported":1751549056,"current_range_meters":1200,"station_id":"ce4bh412rcd13ifvqds0","pricing_plan_id":"cebpf4jnsgd1na2vs0mg"},{"bike_id":"2cf91cbf-a4e0-4fdf-863e-c05f03b2eff2","system_id":"levelo_inurba_marseille","lat":43.28622,"lon":5.35092,"is_reserved":false,"is_disabled":true,"rental_uris":{"android":"levelo://app?vid=2cf91cbf-a4e0-4fdf-863e-c05f03b2eff2","ios":"levelo://app?vid=2cf91cbf-a4e0-4fdf-863e-c05f03b2eff2"},"vehicle_type_id":"4","last_reported":1751549056,"current_range_meters":1200,"station_id":"ce4bhch2rcd13ifvqeug","pricing_plan_id":"cebpf4jnsgd1na2vs0mg"},{"bike_id":"4a84c7af-2f04-4a73-9e20-f6a74b359fc4","system_id":"levelo_inurba_marseille","lat":43.30412,"lon":5.38873,"is_reserved":false,"is_disabled":true,"rental_uris":{"android":"levelo://app?vid=4a84c7af-2f04-4a73-9e20-f6a74b359fc4","ios":"levelo://app?vid=4a84c7af-2f04-4a73-9e20-f6a74b359fc4"},"vehicle_type_id":"4","last_reported":1751549056,"current_range_meters":1600,"station_id":"ce4bgk12rcd13ifvqbi0","pricing_plan_id":"cebpf4jnsgd1na2vs0mg"},{"bike_id":"ab2648c0-c100-42c0-b0f2-e69ecdb266ca","system_id":"levelo_inurba_marseille","lat":43.284186,"lon":5.349951,"is_reserved":false,"is_disabled":true,"rental_uris":{"android":"levelo://app?vid=ab2648c0-c100-42c0-b0f2-e69ecdb266ca","ios":"levelo://app?vid=ab2648c0-c100-42c0-b0f2-e69ecdb266ca"},"vehicle_type_id":"4","last_reported":1751549056,"current_range_meters":1600,"station_id":"ce4bhbh2rcd13ifvqeqg","pricing_plan_id":"cebpf4jnsgd1na2vs0mg"},{"bike_id":"a85a78cd-f599-4afd-b7bd-9b4fd7b7c939","system_id":"levelo_inurba_marseille","lat":43.28259,"lon":5.35074,"is_reserved":false,"is_disabled":true,"rental_uris":{"android":"levelo://app?vid=a85a78cd-f599-4afd-b7bd-9b4fd7b7c939","ios":"levelo://app?vid=a85a78cd-f599-4afd-b7bd-9b4fd7b7c939"},"vehicle_type_id":"4","last_reported":1751549056,"current_range_meters":1600,"station_id":"ce4bhbp2rcd13ifvqerg","pricing_plan_id":"cebpf4jnsgd1na2vs0mg"},{"bike_id":"a480ffaa-c5b5-4802-a751-fb4017a20116","system_id":"levelo_inurba_marseille","lat":43.2319,"lon":5.3556,"is_reserved":false,"is_disabled":true,"rental_uris":{"android":"levelo://app?vid=a480ffaa-c5b5-4802-a751-fb4017a20116","ios":"levelo://app?vid=a480ffaa-c5b5-4802-a751-fb4017a20116"},"vehicle_type_id":"4","last_reported":1751549056,"current_range_meters":1600,"station_id":"ce4bhu92rcd13ifvqi70","pricing_plan_id":"cebpf4jnsgd1na2vs0mg"},{"bike_id":"b4413c1f-b115-435e-bb7e-ba9367abaa4a","system_id":"levelo_inurba_marseille","lat":43.31495,"lon":5.37312,"is_reserved":false,"is_disabled":true,"rental_uris":{"android":"levelo://app?vid=b4413c1f-b115-435e-bb7e-ba9367abaa4a","ios":"levelo://app?vid=b4413c1f-b115-435e-bb7e-ba9367abaa4a"},"vehicle_type_id":"4","last_reported":1751549056,"current_range_meters":2000,"station_id":"ce4bgt12rcd13ifvqcd0","pricing_plan_id":"cebpf4jnsgd1na2vs0mg"},{"bike_id":"5791c176-fc1b-4dac-85cd-3c94dc58863b","system_id":"levelo_inurba_marseille","lat":43.28981,"lon":5.3783,"is_reserved":false,"is_disabled":true,"rental_uris":{"android":"levelo://app?vid=5791c176-fc1b-4dac-85cd-3c94dc58863b","ios":"levelo://app?vid=5791c176-fc1b-4dac-85cd-3c94dc58863b"},"vehicle_type_id":"4","last_reported":1751549056,"current_range_meters":2000,"station_id":"ce4bh9p2rcd13ifvqed0","pricing_plan_id":"cebpf4jnsgd1na2vs0mg"},{"bike_id":"f415de39-2725-4635-89c3-9897e754dcaa","system_id":"levelo_inurba_marseille","lat":43.26681,"lon":5.38274,"is_reserved":false,"is_disabled":false,"rental_uris":{"android":"levelo://app?vid=f415de39-2725-4635-89c3-9897e754dcaa","ios":"levelo://app?vid=f415de39-2725-4635-89c3-9897e754dcaa"},"vehicle_type_id":"4","last_reported":1751549056,"current_range_meters":2000,"station_id":"ce4bhg92rcd13ifvqf90","pricing_plan_id":"cebpf4jnsgd1na2vs0mg"},{"bike_id":"e418c519-f08b-4421-84c1-8ea16b5c982d","system_id":"levelo_inurba_marseille","lat":43.31351,"lon":5.36704,"is_reserved":false,"is_disabled":false,"rental_uris":{"android":"levelo://app?vid=e418c519-f08b-4421-84c1-8ea16b5c982d","ios":"levelo://app?vid=e418c519-f08b-4421-84c1-8ea16b5c982d"},"vehicle_type_id":"4","last_reported":1751549056,"current_range_meters":2800,"station_id":"ce4bgr92rcd13ifvqc6g","pricing_plan_id":"cebpf4jnsgd1na2vs0mg"},{"bike_id":"d4d5fa1c-c309-47d8-922a-a61c6b598ca9","system_id":"levelo_inurba_marseille","lat":43.21736,"lon":5.34637,"is_reserved":false,"is_disabled":false,"rental_uris":{"android":"levelo://app?vid=d4d5fa1c-c309-47d8-922a-a61c6b598ca9","ios":"levelo://app?vid=d4d5fa1c-c309-47d8-922a-a61c6b598ca9"},"vehicle_type_id":"4","last_reported":1751549056,"current_range_meters":2800,"station_id":"st_cvj6r9ubvosntc0bgbag","pricing_plan_id":"cebpf4jnsgd1na2vs0mg"},{"bike_id":"c7791428-c58f-4ffa-a95d-149fee989573","system_id":"levelo_inurba_marseille","lat":43.29846,"lon":5.3628,"is_reserved":false,"is_disabled":false,"rental_uris":{"android":"levelo://app?vid=c7791428-c58f-4ffa-a95d-149fee989573","ios":"levelo://app?vid=c7791428-c58f-4ffa-a95d-149fee989573"},"vehicle_type_id":"4","last_reported":1751549056,"current_range_meters":3200,"station_id":"ce4bgpp2rcd13ifvqc3g","pricing_plan_id":"cebpf4jnsgd1na2vs0mg"},{"bike_id":"8b4a0154-ad89-491f-bb20-87fdb17ce435","system_id":"levelo_inurba_marseille","lat":43.255,"lon":5.37651,"is_reserved":false,"is_disabled":false,"rental_uris":{"android":"levelo://app?vid=8b4a0154-ad89-491f-bb20-87fdb17ce435","ios":"levelo://app?vid=8b4a0154-ad89-491f-bb20-87fdb17ce435"},"vehicle_type_id":"4","last_reported":1751549056,"current_range_meters":3200,"station_id":"ce4bhh12rcd13ifvqff0","pricing_plan_id":"cebpf4jnsgd1na2vs0mg"},{"bike_id":"30d0e176-b580-462b-b4ae-cf93eb1518b7","system_id":"levelo_inurba_marseille","lat":43.30878,"lon":5.39644,"is_reserved":false,"is_disabled":false,"rental_uris":{"android":"levelo://app?vid=30d0e176-b580-462b-b4ae-cf93eb1518b7","ios":"levelo://app?vid=30d0e176-b580-462b-b4ae-cf93eb1518b7"},"vehicle_type_id":"4","last_reported":1751549056,"current_range_meters":3600,"station_id":"ce4bh012rcd13ifvqcv0","pricing_plan_id":"cebpf4jnsgd1na2vs0mg"},{"bike_id":"b9a4301d-e721-4c64-943b-9b01bd5e9216","system_id":"levelo_inurba_marseille","lat":43.24806,"lon":5.37456,"is_reserved":false,"is_disabled":false,"rental_uris":{"android":"levelo://app?vid=b9a4301d-e721-4c64-943b-9b01bd5e9216","ios":"levelo://app?vid=b9a4301d-e721-4c64-943b-9b01bd5e9216"},"vehicle_type_id":"4","last_reported":1751549056,"current_range_meters":3600,"station_id":"ce4bhgh2rcd13ifvqfb0","pricing_plan_id":"cebpf4jnsgd1na2vs0mg"},{"bike_id":"bfcf9218-3c78-4797-a21c-2ba5458d166a","system_id":"levelo_inurba_marseille","lat":43.27072,"lon":5.42278,"is_reserved":false,"is_disabled":false,"rental_uris":{"android":"levelo://app?vid=bfcf9218-3c78-4797-a21c-2ba5458d166a","ios":"levelo://app?vid=bfcf9218-3c78-4797-a21c-2ba5458d166a"},"vehicle_type_id":"4","last_reported":1751549056,"current_range_meters":3600,"station_id":"ce4bhk92rcd13ifvqgb0","pricing_plan_id":"cebpf4jnsgd1na2vs0mg"},{"bike_id":"f01bc8f1-adbd-4ce7-b1a0-7a0fa10b7efb","system_id":"levelo_inurba_marseille","lat":43.33027,"lon":5.39058,"is_reserved":false,"is_disabled":false,"rental_uris":{"android":"levelo://app?vid=f01bc8f1-adbd-4ce7-b1a0-7a0fa10b7efb","ios":"levelo://app?vid=f01bc8f1-adbd-4ce7-b1a0-7a0fa10b7efb"},"vehicle_type_id":"4","last_reported":1751549056,"current_range_meters":3600,"station_id":"ce4bhr92rcd13ifvqhrg","pricing_plan_id":"cebpf4jnsgd1na2vs0mg"},{"bike_id":"9046715e-bdc0-4cc3-93ef-5ce6920c35f0","system_id":"levelo_inurba_marseille","lat":43.308917,"lon":5.396488,"is_reserved":false,"is_disabled":false,"rental_uris":{"android":"levelo://app?vid=9046715e-bdc0-4cc3-93ef-5ce6920c35f0","ios":"levelo://app?vid=9046715e-bdc0-4cc3-93ef-5ce6920c35f0"},"vehicle_type_id":"4","last_reported":1751549056,"current_range_meters":4000,"station_id":"ce4bh012rcd13ifvqcv0","pricing_plan_id":"cebpf4jnsgd1na2vs0mg"},{"bike_id":"353fd189-9bd0-4d5d-b3ec-fcad192ce7d3","system_id":"levelo_inurba_marseille","lat":43.31117,"lon":5.37761,"is_reserved":false,"is_disabled":false,"rental_uris":{"android":"levelo://app?vid=353fd189-9bd0-4d5d-b3ec-fcad192ce7d3","ios":"levelo://app?vid=353fd189-9bd0-4d5d-b3ec-fcad192ce7d3"},"vehicle_type_id":"4","last_reported":1751549056,"current_range_meters":4400,"station_id":"ce4bgt92rcd13ifvqcg0","pricing_plan_id":"cebpf4jnsgd1na2vs0mg"},{"bike_id":"92934aac-6d24-4ee6-8e4a-95b6ed0cd3f6","system_id":"levelo_inurba_marseille","lat":43.30951,"lon":5.39039,"is_reserved":false,"is_disabled":false,"rental_uris":{"android":"levelo://app?vid=92934aac-6d24-4ee6-8e4a-95b6ed0cd3f6","ios":"levelo://app?vid=92934aac-6d24-4ee6-8e4a-95b6ed0cd3f6"},"vehicle_type_id":"4","last_reported":1751549056,"current_range_meters":4400,"station_id":"ce4bgup2rcd13ifvqco0","pricing_plan_id":"cebpf4jnsgd1na2vs0mg"},{"bike_id":"9208d3b8-cc4b-4259-a25e-810f69cace4c","system_id":"levelo_inurba_marseille","lat":43.28269,"lon":5.35063,"is_reserved":false,"is_disabled":false,"rental_uris":{"android":"levelo://app?vid=9208d3b8-cc4b-4259-a25e-810f69cace4c","ios":"levelo://app?vid=9208d3b8-cc4b-4259-a25e-810f69cace4c"},"vehicle_type_id":"4","last_reported":1751549056,"current_range_meters":4400,"station_id":"ce4bhbp2rcd13ifvqerg","pricing_plan_id":"cebpf4jnsgd1na2vs0mg"},{"bike_id":"4792b17c-c917-4b11-a8f3-6466f0a03dc8","system_id":"levelo_inurba_marseille","lat":43.23156,"lon":5.43744,"is_reserved":false,"is_disabled":false,"rental_uris":{"android":"levelo://app?vid=4792b17c-c917-4b11-a8f3-6466f0a03dc8","ios":"levelo://app?vid=4792b17c-c917-4b11-a8f3-6466f0a03dc8"},"vehicle_type_id":"4","last_reported":1751549056,"current_range_meters":4400,"station_id":"ce4bhmp2rcd13ifvqgog","pricing_plan_id":"cebpf4jnsgd1na2vs0mg"},{"bike_id":"8becf1b9-b72c-4763-a062-bbd587ae45bf","system_id":"levelo_inurba_marseille","lat":43.32614,"lon":5.42572,"is_reserved":false,"is_disabled":false,"rental_uris":{"android":"levelo://app?vid=8becf1b9-b72c-4763-a062-bbd587ae45bf","ios":"levelo://app?vid=8becf1b9-b72c-4763-a062-bbd587ae45bf"},"vehicle_type_id":"4","last_reported":1751549056,"current_range_meters":4800,"station_id":"","pricing_plan_id":"cebpf4jnsgd1na2vs0mg"},{"bike_id":"88f0d88a-1dec-4977-a19a-71293da7fba4","system_id":"levelo_inurba_marseille","lat":43.323603,"lon":5.367451,"is_reserved":false,"is_disabled":false,"rental_uris":{"android":"levelo://app?vid=88f0d88a-1dec-4977-a19a-71293da7fba4","ios":"levelo://app?vid=88f0d88a-1dec-4977-a19a-71293da7fba4"},"vehicle_type_id":"4","last_reported":1751549056,"current_range_meters":4800,"station_id":"ce4bhsh2rcd13ifvqi2g","pricing_plan_id":"cebpf4jnsgd1na2vs0mg"},{"bike_id":"cba5b54b-79c5-4b17-abe0-2f4e94c57b41","system_id":"levelo_inurba_marseille","lat":43.28079,"lon":5.34802,"is_reserved":false,"is_disabled":false,"rental_uris":{"android":"levelo://app?vid=cba5b54b-79c5-4b17-abe0-2f4e94c57b41","ios":"levelo://app?vid=cba5b54b-79c5-4b17-abe0-2f4e94c57b41"},"vehicle_type_id":"4","last_reported":1751549056,"current_range_meters":5600,"station_id":"","pricing_plan_id":"cebpf4jnsgd1na2vs0mg"},{"bike_id":"32fd921e-04ed-41ad-8264-034ed4655a0f","system_id":"levelo_inurba_marseille","lat":43.295319,"lon":5.38539,"is_reserved":false,"is_disabled":true,"rental_uris":{"android":"levelo://app?vid=32fd921e-04ed-41ad-8264-034ed4655a0f","ios":"levelo://app?vid=32fd921e-04ed-41ad-8264-034ed4655a0f"},"vehicle_type_id":"4","last_reported":1751549056,"current_range_meters":5600,"station_id":"ce4bgih2rcd13ifvqba0","pricing_plan_id":"cebpf4jnsgd1na2vs0mg"},{"bike_id":"ec5f19fa-8543-464d-9aa9-719638fdbe7f","system_id":"levelo_inurba_marseille","lat":43.28729,"lon":5.36089,"is_reserved":false,"is_disabled":false,"rental_uris":{"android":"levelo://app?vid=ec5f19fa-8543-464d-9aa9-719638fdbe7f","ios":"levelo://app?vid=ec5f19fa-8543-464d-9aa9-719638fdbe7f"},"vehicle_type_id":"4","last_reported":1751549056,"current_range_meters":5600,"station_id":"cki0cbj6b192h4jlfktg","pricing_plan_id":"cebpf4jnsgd1na2vs0mg"},{"bike_id":"705b5a5f-7194-4d75-8d05-d66fa896012a","system_id":"levelo_inurba_marseille","lat":43.28475,"lon":5.38555,"is_reserved":false,"is_disabled":false,"rental_uris":{"android":"levelo://app?vid=705b5a5f-7194-4d75-8d05-d66fa896012a","ios":"levelo://app?vid=705b5a5f-7194-4d75-8d05-d66fa896012a"},"vehicle_type_id":"4","last_reported":1751549056,"current_range_meters":6000,"station_id":"ce4bh8p2rcd13ifvqeb0","pricing_plan_id":"cebpf4jnsgd1na2vs0mg"},{"bike_id":"3fbceb20-d877-411e-a90d-f13a05e02fc6","system_id":"levelo_inurba_marseille","lat":43.3037,"lon":5.37923,"is_reserved":false,"is_disabled":false,"rental_uris":{"android":"levelo://app?vid=3fbceb20-d877-411e-a90d-f13a05e02fc6","ios":"levelo://app?vid=3fbceb20-d877-411e-a90d-f13a05e02fc6"},"vehicle_type_id":"4","last_reported":1751549056,"current_range_meters":6400,"station_id":"","pricing_plan_id":"cebpf4jnsgd1na2vs0mg"},{"bike_id":"3f722d8d-7577-463c-85b5-1949a10e1f17","system_id":"levelo_inurba_marseille","lat":43.30787,"lon":5.37654,"is_reserved":false,"is_disabled":false,"rental_uris":{"android":"levelo://app?vid=3f722d8d-7577-463c-85b5-1949a10e1f17","ios":"levelo://app?vid=3f722d8d-7577-463c-85b5-1949a10e1f17"},"vehicle_type_id":"4","last_reported":1751549056,"current_range_meters":6400,"station_id":"ce4bgv92rcd13ifvqcq0","pricing_plan_id":"cebpf4jnsgd1na2vs0mg"},{"bike_id":"4ef27fec-1716-44d4-aabb-3c6267b763ac","system_id":"levelo_inurba_marseille","lat":43.27414,"lon":5.36283,"is_reserved":false,"is_disabled":false,"rental_uris":{"android":"levelo://app?vid=4ef27fec-1716-44d4-aabb-3c6267b763ac","ios":"levelo://app?vid=4ef27fec-1716-44d4-aabb-3c6267b763ac"},"vehicle_type_id":"4","last_reported":1751549056,"current_range_meters":6400,"station_id":"ce4bhbh2rcd13ifvqeo0","pricing_plan_id":"cebpf4jnsgd1na2vs0mg"},{"bike_id":"64dfe78c-ab08-44a9-a257-4af84de3756b","system_id":"levelo_inurba_marseille","lat":43.28268,"lon":5.3506,"is_reserved":false,"is_disabled":false,"rental_uris":{"android":"levelo://app?vid=64dfe78c-ab08-44a9-a257-4af84de3756b","ios":"levelo://app?vid=64dfe78c-ab08-44a9-a257-4af84de3756b"},"vehicle_type_id":"4","last_reported":1751549056,"current_range_meters":6400,"station_id":"ce4bhbp2rcd13ifvqerg","pricing_plan_id":"cebpf4jnsgd1na2vs0mg"},{"bike_id":"baa7527d-81a0-4d9d-b3cb-9aea41bb5dd8","system_id":"levelo_inurba_marseille","lat":43.29931,"lon":5.3655,"is_reserved":false,"is_disabled":false,"rental_uris":{"android":"levelo://app?vid=baa7527d-81a0-4d9d-b3cb-9aea41bb5dd8","ios":"levelo://app?vid=baa7527d-81a0-4d9d-b3cb-9aea41bb5dd8"},"vehicle_type_id":"4","last_reported":1751549056,"current_range_meters":6800,"station_id":"ce4bgm92rcd13ifvqbr0","pricing_plan_id":"cebpf4jnsgd1na2vs0mg"},{"bike_id":"b15a7d4e-dfb8-4993-919b-405f7bc04e6f","system_id":"levelo_inurba_marseille","lat":43.26029,"lon":5.37548,"is_reserved":false,"is_disabled":false,"rental_uris":{"android":"levelo://app?vid=b15a7d4e-dfb8-4993-919b-405f7bc04e6f","ios":"levelo://app?vid=b15a7d4e-dfb8-4993-919b-405f7bc04e6f"},"vehicle_type_id":"4","last_reported":1751549056,"current_range_meters":6800,"station_id":"ce4bhgh2rcd13ifvqfa0","pricing_plan_id":"cebpf4jnsgd1na2vs0mg"},{"bike_id":"39d65606-5ca8-4d96-9cdd-de24bdc99e11","system_id":"levelo_inurba_marseille","lat":43.25951,"lon":5.40891,"is_reserved":false,"is_disabled":false,"rental_uris":{"android":"levelo://app?vid=39d65606-5ca8-4d96-9cdd-de24bdc99e11","ios":"levelo://app?vid=39d65606-5ca8-4d96-9cdd-de24bdc99e11"},"vehicle_type_id":"4","last_reported":1751549056,"current_range_meters":6800,"station_id":"ce4bhm92rcd13ifvqglg","pricing_plan_id":"cebpf4jnsgd1na2vs0mg"},{"bike_id":"f2d32fa6-d194-47ad-88a3-e286f6a984ac","system_id":"levelo_inurba_marseille","lat":43.29864,"lon":5.39735,"is_reserved":false,"is_disabled":false,"rental_uris":{"android":"levelo://app?vid=f2d32fa6-d194-47ad-88a3-e286f6a984ac","ios":"levelo://app?vid=f2d32fa6-d194-47ad-88a3-e286f6a984ac"},"vehicle_type_id":"4","last_reported":1751549056,"current_range_meters":7200,"station_id":"ce4bh0h2rcd13ifvqd50","pricing_plan_id":"cebpf4jnsgd1na2vs0mg"},{"bike_id":"5360846c-d4a5-4113-8e86-b641b2ef40c4","system_id":"levelo_inurba_marseille","lat":43.27376,"lon":5.36251,"is_reserved":false,"is_disabled":false,"rental_uris":{"android":"levelo://app?vid=5360846c-d4a5-4113-8e86-b641b2ef40c4","ios":"levelo://app?vid=5360846c-d4a5-4113-8e86-b641b2ef40c4"},"vehicle_type_id":"4","last_reported":1751549056,"current_range_meters":7200,"station_id":"ce4bhbh2rcd13ifvqeo0","pricing_plan_id":"cebpf4jnsgd1na2vs0mg"},{"bike_id":"54ae2bb7-31ce-4a28-b78c-c29761962121","system_id":"levelo_inurba_marseille","lat":43.27377,"lon":5.36259,"is_reserved":false,"is_disabled":false,"rental_uris":{"android":"levelo://app?vid=54ae2bb7-31ce-4a28-b78c-c29761962121","ios":"levelo://app?vid=54ae2bb7-31ce-4a28-b78c-c29761962121"},"vehicle_type_id":"4","last_reported":1751549056,"current_range_meters":7200,"station_id":"ce4bhbh2rcd13ifvqeo0","pricing_plan_id":"cebpf4jnsgd1na2vs0mg"},{"bike_id":"97827b03-6a7a-4ca0-bc36-915c95b902f2","system_id":"levelo_inurba_marseille","lat":43.25001,"lon":5.38922,"is_reserved":false,"is_disabled":false,"rental_uris":{"android":"levelo://app?vid=97827b03-6a7a-4ca0-bc36-915c95b902f2","ios":"levelo://app?vid=97827b03-6a7a-4ca0-bc36-915c95b902f2"},"vehicle_type_id":"4","last_reported":1751549056,"current_range_meters":7200,"station_id":"ce4bhgp2rcd13ifvqfd0","pricing_plan_id":"cebpf4jnsgd1na2vs0mg"},{"bike_id":"de3d3d25-7354-49cb-8fa4-5acf1471cb8d","system_id":"levelo_inurba_marseille","lat":43.2119,"lon":5.35072,"is_reserved":false,"is_disabled":false,"rental_uris":{"android":"levelo://app?vid=de3d3d25-7354-49cb-8fa4-5acf1471cb8d","ios":"levelo://app?vid=de3d3d25-7354-49cb-8fa4-5acf1471cb8d"},"vehicle_type_id":"4","last_reported":1751549056,"current_range_meters":7200,"station_id":"st_cvj6sg6p6f1abm77japg","pricing_plan_id":"cebpf4jnsgd1na2vs0mg"},{"bike_id":"da921d92-526f-401b-95dc-b12109d1091d","system_id":"levelo_inurba_marseille","lat":43.36362,"lon":5.35031,"is_reserved":false,"is_disabled":false,"rental_uris":{"android":"levelo://app?vid=da921d92-526f-401b-95dc-b12109d1091d","ios":"levelo://app?vid=da921d92-526f-401b-95dc-b12109d1091d"},"vehicle_type_id":"4","last_reported":1751549056,"current_range_meters":8000,"station_id":"","pricing_plan_id":"cebpf4jnsgd1na2vs0mg"},{"bike_id":"57f6a7f6-20fb-4c64-9282-2e072a10c9c5","system_id":"levelo_inurba_marseille","lat":43.31114,"lon":5.37777,"is_reserved":false,"is_disabled":false,"rental_uris":{"android":"levelo://app?vid=57f6a7f6-20fb-4c64-9282-2e072a10c9c5","ios":"levelo://app?vid=57f6a7f6-20fb-4c64-9282-2e072a10c9c5"},"vehicle_type_id":"4","last_reported":1751549056,"current_range_meters":8000,"station_id":"ce4bgt92rcd13ifvqcg0","pricing_plan_id":"cebpf4jnsgd1na2vs0mg"},{"bike_id":"a62a0ef6-babe-44d3-9278-a9bccd58a7db","system_id":"levelo_inurba_marseille","lat":43.29556,"lon":5.42282,"is_reserved":false,"is_disabled":false,"rental_uris":{"android":"levelo://app?vid=a62a0ef6-babe-44d3-9278-a9bccd58a7db","ios":"levelo://app?vid=a62a0ef6-babe-44d3-9278-a9bccd58a7db"},"vehicle_type_id":"4","last_reported":1751549056,"current_range_meters":8000,"station_id":"ce4bhph2rcd13ifvqhdg","pricing_plan_id":"cebpf4jnsgd1na2vs0mg"},{"bike_id":"a4f75d50-8014-4f5f-b56e-2bd2d9498e6c","system_id":"levelo_inurba_marseille","lat":43.29514,"lon":5.37508,"is_reserved":false,"is_disabled":false,"rental_uris":{"android":"levelo://app?vid=a4f75d50-8014-4f5f-b56e-2bd2d9498e6c","ios":"levelo://app?vid=a4f75d50-8014-4f5f-b56e-2bd2d9498e6c"},"vehicle_type_id":"4","last_reported":1751549056,"current_range_meters":8400,"station_id":"ce4bgkp2rcd13ifvqbmg","pricing_plan_id":"cebpf4jnsgd1na2vs0mg"},{"bike_id":"438c4a69-9386-430d-a938-bbfd58fab64f","system_id":"levelo_inurba_marseille","lat":43.28035,"lon":5.36945,"is_reserved":false,"is_disabled":false,"rental_uris":{"android":"levelo://app?vid=438c4a69-9386-430d-a938-bbfd58fab64f","ios":"levelo://app?vid=438c4a69-9386-430d-a938-bbfd58fab64f"},"vehicle_type_id":"4","last_reported":1751549056,"current_range_meters":8400,"station_id":"ce4bha12rcd13ifvqef0","pricing_plan_id":"cebpf4jnsgd1na2vs0mg"},{"bike_id":"6b5f2251-5553-4d29-b6c6-2d7bc1acfca1","system_id":"levelo_inurba_marseille","lat":43.309565,"lon":5.390429,"is_reserved":false,"is_disabled":false,"rental_uris":{"android":"levelo://app?vid=6b5f2251-5553-4d29-b6c6-2d7bc1acfca1","ios":"levelo://app?vid=6b5f2251-5553-4d29-b6c6-2d7bc1acfca1"},"vehicle_type_id":"4","last_reported":1751549056,"current_range_meters":8800,"station_id":"ce4bgup2rcd13ifvqco0","pricing_plan_id":"cebpf4jnsgd1na2vs0mg"},{"bike_id":"b369f055-cd22-4fb6-a728-69430ded506c","system_id":"levelo_inurba_marseille","lat":43.21736,"lon":5.34599,"is_reserved":false,"is_disabled":false,"rental_uris":{"android":"levelo://app?vid=b369f055-cd22-4fb6-a728-69430ded506c","ios":"levelo://app?vid=b369f055-cd22-4fb6-a728-69430ded506c"},"vehicle_type_id":"4","last_reported":1751549056,"current_range_meters":9200,"station_id":"","pricing_plan_id":"cebpf4jnsgd1na2vs0mg"},{"bike_id":"671676bc-dbe8-4afb-82db-f3c6ab8c47af","system_id":"levelo_inurba_marseille","lat":43.29376,"lon":5.3785,"is_reserved":false,"is_disabled":false,"rental_uris":{"android":"levelo://app?vid=671676bc-dbe8-4afb-82db-f3c6ab8c47af","ios":"levelo://app?vid=671676bc-dbe8-4afb-82db-f3c6ab8c47af"},"vehicle_type_id":"4","last_reported":1751549056,"current_range_meters":9200,"station_id":"ce4bgjh2rcd13ifvqbf0","pricing_plan_id":"cebpf4jnsgd1na2vs0mg"},{"bike_id":"3e405b37-1006-4dbc-94b5-ffc8771b36ee","system_id":"levelo_inurba_marseille","lat":43.30133,"lon":5.37424,"is_reserved":false,"is_disabled":false,"rental_uris":{"android":"levelo://app?vid=3e405b37-1006-4dbc-94b5-ffc8771b36ee","ios":"levelo://app?vid=3e405b37-1006-4dbc-94b5-ffc8771b36ee"},"vehicle_type_id":"4","last_reported":1751549056,"current_range_meters":9200,"station_id":"ce4bgs92rcd13ifvqcc0","pricing_plan_id":"cebpf4jnsgd1na2vs0mg"},{"bike_id":"847de083-6931-42d7-b8a8-4ea56dbcfeff","system_id":"levelo_inurba_marseille","lat":43.305864,"lon":5.393525,"is_reserved":false,"is_disabled":false,"rental_uris":{"android":"levelo://app?vid=847de083-6931-42d7-b8a8-4ea56dbcfeff","ios":"levelo://app?vid=847de083-6931-42d7-b8a8-4ea56dbcfeff"},"vehicle_type_id":"4","last_reported":1751549056,"current_range_meters":9200,"station_id":"ce4bh0p2rcd13ifvqd80","pricing_plan_id":"cebpf4jnsgd1na2vs0mg"},{"bike_id":"3e471ecc-7674-4b9e-bcd3-66055c0928f2","system_id":"levelo_inurba_marseille","lat":43.23183,"lon":5.39985,"is_reserved":false,"is_disabled":false,"rental_uris":{"android":"levelo://app?vid=3e471ecc-7674-4b9e-bcd3-66055c0928f2","ios":"levelo://app?vid=3e471ecc-7674-4b9e-bcd3-66055c0928f2"},"vehicle_type_id":"4","last_reported":1751549056,"current_range_meters":9200,"station_id":"ce4bhn12rcd13ifvqgqg","pricing_plan_id":"cebpf4jnsgd1na2vs0mg"},{"bike_id":"2fadb885-634d-45cb-82e4-8d54ddbb1141","system_id":"levelo_inurba_marseille","lat":43.23053,"lon":5.35497,"is_reserved":false,"is_disabled":false,"rental_uris":{"android":"levelo://app?vid=2fadb885-634d-45cb-82e4-8d54ddbb1141","ios":"levelo://app?vid=2fadb885-634d-45cb-82e4-8d54ddbb1141"},"vehicle_type_id":"4","last_reported":1751549056,"current_range_meters":9200,"station_id":"cpo3342slgdg3j2ifvpg","pricing_plan_id":"cebpf4jnsgd1na2vs0mg"},{"bike_id":"9a7d342a-ff8e-46c4-af1e-6e0519bd67dc","system_id":"levelo_inurba_marseille","lat":43.291433,"lon":5.355899,"is_reserved":false,"is_disabled":false,"rental_uris":{"android":"levelo://app?vid=9a7d342a-ff8e-46c4-af1e-6e0519bd67dc","ios":"levelo://app?vid=9a7d342a-ff8e-46c4-af1e-6e0519bd67dc"},"vehicle_type_id":"4","last_reported":1751549056,"current_range_meters":9600,"station_id":"","pricing_plan_id":"cebpf4jnsgd1na2vs0mg"},{"bike_id":"7e62b058-a7ed-4634-80f1-04d3de596de7","system_id":"levelo_inurba_marseille","lat":43.298441,"lon":5.368155,"is_reserved":false,"is_disabled":false,"rental_uris":{"android":"levelo://app?vid=7e62b058-a7ed-4634-80f1-04d3de596de7","ios":"levelo://app?vid=7e62b058-a7ed-4634-80f1-04d3de596de7"},"vehicle_type_id":"4","last_reported":1751549056,"current_range_meters":9600,"station_id":"","pricing_plan_id":"cebpf4jnsgd1na2vs0mg"},{"bike_id":"bf00a211-3496-4df0-8e4e-99767047ca09","system_id":"levelo_inurba_marseille","lat":43.29966,"lon":5.375947,"is_reserved":false,"is_disabled":false,"rental_uris":{"android":"levelo://app?vid=bf00a211-3496-4df0-8e4e-99767047ca09","ios":"levelo://app?vid=bf00a211-3496-4df0-8e4e-99767047ca09"},"vehicle_type_id":"4","last_reported":1751549056,"current_range_meters":9600,"station_id":"","pricing_plan_id":"cebpf4jnsgd1na2vs0mg"},{"bike_id":"4c193f7d-7602-4b8f-b948-dfb73b918f9d","system_id":"levelo_inurba_marseille","lat":43.30439,"lon":5.38891,"is_reserved":false,"is_disabled":false,"rental_uris":{"android":"levelo://app?vid=4c193f7d-7602-4b8f-b948-dfb73b918f9d","ios":"levelo://app?vid=4c193f7d-7602-4b8f-b948-dfb73b918f9d"},"vehicle_type_id":"4","last_reported":1751549056,"current_range_meters":9600,"station_id":"ce4bgk12rcd13ifvqbi0","pricing_plan_id":"cebpf4jnsgd1na2vs0mg"},{"bike_id":"0f540ef0-1d23-4fb3-b709-ea1577028837","system_id":"levelo_inurba_marseille","lat":43.28413,"lon":5.37514,"is_reserved":false,"is_disabled":false,"rental_uris":{"android":"levelo://app?vid=0f540ef0-1d23-4fb3-b709-ea1577028837","ios":"levelo://app?vid=0f540ef0-1d23-4fb3-b709-ea1577028837"},"vehicle_type_id":"4","last_reported":1751549056,"current_range_meters":9600,"station_id":"ce4bh412rcd13ifvqds0","pricing_plan_id":"cebpf4jnsgd1na2vs0mg"},{"bike_id":"8e8060a2-eded-40ee-8a4b-52d824e3ced3","system_id":"levelo_inurba_marseille","lat":43.27814,"lon":5.40711,"is_reserved":false,"is_disabled":false,"rental_uris":{"android":"levelo://app?vid=8e8060a2-eded-40ee-8a4b-52d824e3ced3","ios":"levelo://app?vid=8e8060a2-eded-40ee-8a4b-52d824e3ced3"},"vehicle_type_id":"4","last_reported":1751549056,"current_range_meters":9600,"station_id":"ce4bhnh2rcd13ifvqgtg","pricing_plan_id":"cebpf4jnsgd1na2vs0mg"},{"bike_id":"b44c5f08-ff86-44db-a0f4-3b801f7529e3","system_id":"levelo_inurba_marseille","lat":43.32039,"lon":5.41552,"is_reserved":false,"is_disabled":false,"rental_uris":{"android":"levelo://app?vid=b44c5f08-ff86-44db-a0f4-3b801f7529e3","ios":"levelo://app?vid=b44c5f08-ff86-44db-a0f4-3b801f7529e3"},"vehicle_type_id":"4","last_reported":1751549056,"current_range_meters":9600,"station_id":"ce4bhq92rcd13ifvqhkg","pricing_plan_id":"cebpf4jnsgd1na2vs0mg"},{"bike_id":"22c65f34-5b9a-4ce8-b3b0-5a1a52b259a2","system_id":"levelo_inurba_marseille","lat":43.2971,"lon":5.40185,"is_reserved":false,"is_disabled":false,"rental_uris":{"android":"levelo://app?vid=22c65f34-5b9a-4ce8-b3b0-5a1a52b259a2","ios":"levelo://app?vid=22c65f34-5b9a-4ce8-b3b0-5a1a52b259a2"},"vehicle_type_id":"4","last_reported":1751549056,"current_range_meters":10000,"station_id":"","pricing_plan_id":"cebpf4jnsgd1na2vs0mg"},{"bike_id":"e26ba497-efc7-4420-b8c5-9fa5e27f2ce4","system_id":"levelo_inurba_marseille","lat":43.31358,"lon":5.3707,"is_reserved":false,"is_disabled":false,"rental_uris":{"android":"levelo://app?vid=e26ba497-efc7-4420-b8c5-9fa5e27f2ce4","ios":"levelo://app?vid=e26ba497-efc7-4420-b8c5-9fa5e27f2ce4"},"vehicle_type_id":"4","last_reported":1751549056,"current_range_meters":10000,"station_id":"","pricing_plan_id":"cebpf4jnsgd1na2vs0mg"},{"bike_id":"056654e5-843c-44b0-90c1-eb3f04d9022a","system_id":"levelo_inurba_marseille","lat":43.24836,"lon":5.37464,"is_reserved":false,"is_disabled":false,"rental_uris":{"android":"levelo://app?vid=056654e5-843c-44b0-90c1-eb3f04d9022a","ios":"levelo://app?vid=056654e5-843c-44b0-90c1-eb3f04d9022a"},"vehicle_type_id":"4","last_reported":1751549056,"current_range_meters":10000,"station_id":"","pricing_plan_id":"cebpf4jnsgd1na2vs0mg"},{"bike_id":"d36326d8-e081-4c29-ab78-eb73e8f5b0c2","system_id":"levelo_inurba_marseille","lat":43.30542,"lon":5.36702,"is_reserved":false,"is_disabled":false,"rental_uris":{"android":"levelo://app?vid=d36326d8-e081-4c29-ab78-eb73e8f5b0c2","ios":"levelo://app?vid=d36326d8-e081-4c29-ab78-eb73e8f5b0c2"},"vehicle_type_id":"4","last_reported":1751549056,"current_range_meters":10000,"station_id":"ce4bgrp2rcd13ifvqc9g","pricing_plan_id":"cebpf4jnsgd1na2vs0mg"},{"bike_id":"b54bef8d-87a2-406a-80c9-95d05b68e2ee","system_id":"levelo_inurba_marseille","lat":43.30568,"lon":5.36545,"is_reserved":false,"is_disabled":false,"rental_uris":{"android":"levelo://app?vid=b54bef8d-87a2-406a-80c9-95d05b68e2ee","ios":"levelo://app?vid=b54bef8d-87a2-406a-80c9-95d05b68e2ee"},"vehicle_type_id":"4","last_reported":1751549056,"current_range_meters":10000,"station_id":"ce4bgs12rcd13ifvqcag","pricing_plan_id":"cebpf4jnsgd1na2vs0mg"},{"bike_id":"89fe474e-a07e-4ab9-b9c4-31bdcc2a04c5","system_id":"levelo_inurba_marseille","lat":43.28267,"lon":5.35064,"is_reserved":false,"is_disabled":false,"rental_uris":{"android":"levelo://app?vid=89fe474e-a07e-4ab9-b9c4-31bdcc2a04c5","ios":"levelo://app?vid=89fe474e-a07e-4ab9-b9c4-31bdcc2a04c5"},"vehicle_type_id":"4","last_reported":1751549056,"current_range_meters":10000,"station_id":"ce4bhbp2rcd13ifvqerg","pricing_plan_id":"cebpf4jnsgd1na2vs0mg"},{"bike_id":"957f7b44-f46f-4d00-b617-0523ca307f1a","system_id":"levelo_inurba_marseille","lat":43.29571,"lon":5.37497,"is_reserved":false,"is_disabled":false,"rental_uris":{"android":"levelo://app?vid=957f7b44-f46f-4d00-b617-0523ca307f1a","ios":"levelo://app?vid=957f7b44-f46f-4d00-b617-0523ca307f1a"},"vehicle_type_id":"4","last_reported":1751549056,"current_range_meters":10800,"station_id":"ce4bgh92rcd13ifvqb50","pricing_plan_id":"cebpf4jnsgd1na2vs0mg"},{"bike_id":"6c8cc2b1-2c9d-40a3-b138-1ba433dbd652","system_id":"levelo_inurba_marseille","lat":43.296295,"lon":5.377101,"is_reserved":false,"is_disabled":false,"rental_uris":{"android":"levelo://app?vid=6c8cc2b1-2c9d-40a3-b138-1ba433dbd652","ios":"levelo://app?vid=6c8cc2b1-2c9d-40a3-b138-1ba433dbd652"},"vehicle_type_id":"4","last_reported":1751549056,"current_range_meters":10800,"station_id":"ce4bgi92rcd13ifvqb90","pricing_plan_id":"cebpf4jnsgd1na2vs0mg"},{"bike_id":"afc263f7-1fa4-4f95-83ef-54521145c0e0","system_id":"levelo_inurba_marseille","lat":43.30535,"lon":5.36541,"is_reserved":false,"is_disabled":false,"rental_uris":{"android":"levelo://app?vid=afc263f7-1fa4-4f95-83ef-54521145c0e0","ios":"levelo://app?vid=afc263f7-1fa4-4f95-83ef-54521145c0e0"},"vehicle_type_id":"4","last_reported":1751549056,"current_range_meters":10800,"station_id":"ce4bgs12rcd13ifvqcag","pricing_plan_id":"cebpf4jnsgd1na2vs0mg"},{"bike_id":"2d659fe1-36b2-4981-bcd7-0c6fca4b3667","system_id":"levelo_inurba_marseille","lat":43.30133,"lon":5.3804,"is_reserved":false,"is_disabled":false,"rental_uris":{"android":"levelo://app?vid=2d659fe1-36b2-4981-bcd7-0c6fca4b3667","ios":"levelo://app?vid=2d659fe1-36b2-4981-bcd7-0c6fca4b3667"},"vehicle_type_id":"4","last_reported":1751549056,"current_range_meters":10800,"station_id":"ce4bh012rcd13ifvqcv0","pricing_plan_id":"cebpf4jnsgd1na2vs0mg"},{"bike_id":"8d369015-8f7a-4c4e-9314-9afb37d03ed3","system_id":"levelo_inurba_marseille","lat":43.29231,"lon":5.36075,"is_reserved":false,"is_disabled":false,"rental_uris":{"android":"levelo://app?vid=8d369015-8f7a-4c4e-9314-9afb37d03ed3","ios":"levelo://app?vid=8d369015-8f7a-4c4e-9314-9afb37d03ed3"},"vehicle_type_id":"4","last_reported":1751549056,"current_range_meters":10800,"station_id":"ce4bhbh2rcd13ifvqeqg","pricing_plan_id":"cebpf4jnsgd1na2vs0mg"},{"bike_id":"7061b9b1-81ab-4bf2-8fe1-c4653fa3c2fc","system_id":"levelo_inurba_marseille","lat":43.24385,"lon":5.37056,"is_reserved":false,"is_disabled":false,"rental_uris":{"android":"levelo://app?vid=7061b9b1-81ab-4bf2-8fe1-c4653fa3c2fc","ios":"levelo://app?vid=7061b9b1-81ab-4bf2-8fe1-c4653fa3c2fc"},"vehicle_type_id":"4","last_reported":1751549056,"current_range_meters":10800,"station_id":"ce4bhhh2rcd13ifvqfk0","pricing_plan_id":"cebpf4jnsgd1na2vs0mg"},{"bike_id":"673524a2-2dea-4bf6-a3a6-cde551ff20b8","system_id":"levelo_inurba_marseille","lat":43.321157,"lon":5.367743,"is_reserved":false,"is_disabled":false,"rental_uris":{"android":"levelo://app?vid=673524a2-2dea-4bf6-a3a6-cde551ff20b8","ios":"levelo://app?vid=673524a2-2dea-4bf6-a3a6-cde551ff20b8"},"vehicle_type_id":"4","last_reported":1751549056,"current_range_meters":10800,"station_id":"ce4bhrh2rcd13ifvqhug","pricing_plan_id":"cebpf4jnsgd1na2vs0mg"},{"bike_id":"ef50a132-c502-4afc-a8c2-7de6a0df1152","system_id":"levelo_inurba_marseille","lat":43.225081,"lon":5.34786,"is_reserved":false,"is_disabled":false,"rental_uris":{"android":"levelo://app?vid=ef50a132-c502-4afc-a8c2-7de6a0df1152","ios":"levelo://app?vid=ef50a132-c502-4afc-a8c2-7de6a0df1152"},"vehicle_type_id":"4","last_reported":1751549056,"current_range_meters":10800,"station_id":"st_cvj5dfep6f1abm77gieg","pricing_plan_id":"cebpf4jnsgd1na2vs0mg"},{"bike_id":"bcfd0eda-b9ab-4bec-9ca3-3f2b86617415","system_id":"levelo_inurba_marseille","lat":43.21202,"lon":5.35058,"is_reserved":false,"is_disabled":false,"rental_uris":{"android":"levelo://app?vid=bcfd0eda-b9ab-4bec-9ca3-3f2b86617415","ios":"levelo://app?vid=bcfd0eda-b9ab-4bec-9ca3-3f2b86617415"},"vehicle_type_id":"4","last_reported":1751549056,"current_range_meters":10800,"station_id":"st_cvj6sg6p6f1abm77japg","pricing_plan_id":"cebpf4jnsgd1na2vs0mg"},{"bike_id":"78467677-4526-4746-9335-de244e76b45a","system_id":"levelo_inurba_marseille","lat":43.297187,"lon":5.377138,"is_reserved":false,"is_disabled":false,"rental_uris":{"android":"levelo://app?vid=78467677-4526-4746-9335-de244e76b45a","ios":"levelo://app?vid=78467677-4526-4746-9335-de244e76b45a"},"vehicle_type_id":"4","last_reported":1751549056,"current_range_meters":11200,"station_id":"","pricing_plan_id":"cebpf4jnsgd1na2vs0mg"},{"bike_id":"163f19c4-3e82-44a5-b3a6-28f99bd40702","system_id":"levelo_inurba_marseille","lat":43.2396,"lon":5.36615,"is_reserved":false,"is_disabled":false,"rental_uris":{"android":"levelo://app?vid=163f19c4-3e82-44a5-b3a6-28f99bd40702","ios":"levelo://app?vid=163f19c4-3e82-44a5-b3a6-28f99bd40702"},"vehicle_type_id":"4","last_reported":1751549056,"current_range_meters":11200,"station_id":"ce4bhi12rcd13ifvqfp0","pricing_plan_id":"cebpf4jnsgd1na2vs0mg"},{"bike_id":"e36eeb04-35cc-4a52-97d7-6ba58bfe555b","system_id":"levelo_inurba_marseille","lat":43.29557,"lon":5.42278,"is_reserved":false,"is_disabled":false,"rental_uris":{"android":"levelo://app?vid=e36eeb04-35cc-4a52-97d7-6ba58bfe555b","ios":"levelo://app?vid=e36eeb04-35cc-4a52-97d7-6ba58bfe555b"},"vehicle_type_id":"4","last_reported":1751549056,"current_range_meters":11200,"station_id":"ce4bhph2rcd13ifvqhdg","pricing_plan_id":"cebpf4jnsgd1na2vs0mg"},{"bike_id":"f1bfb814-a0e1-4f33-a70f-c593fcd3595a","system_id":"levelo_inurba_marseille","lat":43.2175,"lon":5.34606,"is_reserved":false,"is_disabled":false,"rental_uris":{"android":"levelo://app?vid=f1bfb814-a0e1-4f33-a70f-c593fcd3595a","ios":"levelo://app?vid=f1bfb814-a0e1-4f33-a70f-c593fcd3595a"},"vehicle_type_id":"4","last_reported":1751549056,"current_range_meters":11200,"station_id":"st_cvj6r9ubvosntc0bgbag","pricing_plan_id":"cebpf4jnsgd1na2vs0mg"},{"bike_id":"16a8afe6-e43e-4d1b-a7bd-ed83d113735a","system_id":"levelo_inurba_marseille","lat":43.32436,"lon":5.41185,"is_reserved":false,"is_disabled":false,"rental_uris":{"android":"levelo://app?vid=16a8afe6-e43e-4d1b-a7bd-ed83d113735a","ios":"levelo://app?vid=16a8afe6-e43e-4d1b-a7bd-ed83d113735a"},"vehicle_type_id":"4","last_reported":1751549056,"current_range_meters":11600,"station_id":"","pricing_plan_id":"cebpf4jnsgd1na2vs0mg"},{"bike_id":"959e6f20-8ed0-4d36-bc1d-3efb82d6190b","system_id":"levelo_inurba_marseille","lat":43.21181,"lon":5.35101,"is_reserved":false,"is_disabled":false,"rental_uris":{"android":"levelo://app?vid=959e6f20-8ed0-4d36-bc1d-3efb82d6190b","ios":"levelo://app?vid=959e6f20-8ed0-4d36-bc1d-3efb82d6190b"},"vehicle_type_id":"4","last_reported":1751549056,"current_range_meters":11600,"station_id":"st_cvj6sg6p6f1abm77japg","pricing_plan_id":"cebpf4jnsgd1na2vs0mg"},{"bike_id":"64bb485e-0856-48ce-befe-bde5a394f93d","system_id":"levelo_inurba_marseille","lat":43.27618,"lon":5.38885,"is_reserved":false,"is_disabled":false,"rental_uris":{"android":"levelo://app?vid=64bb485e-0856-48ce-befe-bde5a394f93d","ios":"levelo://app?vid=64bb485e-0856-48ce-befe-bde5a394f93d"},"vehicle_type_id":"4","last_reported":1751549056,"current_range_meters":12000,"station_id":"","pricing_plan_id":"cebpf4jnsgd1na2vs0mg"},{"bike_id":"dd67424e-b6b5-448d-be23-23114be709a9","system_id":"levelo_inurba_marseille","lat":43.30947,"lon":5.39061,"is_reserved":false,"is_disabled":false,"rental_uris":{"android":"levelo://app?vid=dd67424e-b6b5-448d-be23-23114be709a9","ios":"levelo://app?vid=dd67424e-b6b5-448d-be23-23114be709a9"},"vehicle_type_id":"4","last_reported":1751549056,"current_range_meters":12000,"station_id":"ce4bgup2rcd13ifvqco0","pricing_plan_id":"cebpf4jnsgd1na2vs0mg"},{"bike_id":"02ef8374-2cca-46e9-a86c-fa0437827fa3","system_id":"levelo_inurba_marseille","lat":43.23143,"lon":5.43719,"is_reserved":false,"is_disabled":false,"rental_uris":{"android":"levelo://app?vid=02ef8374-2cca-46e9-a86c-fa0437827fa3","ios":"levelo://app?vid=02ef8374-2cca-46e9-a86c-fa0437827fa3"},"vehicle_type_id":"4","last_reported":1751549056,"current_range_meters":12000,"station_id":"ce4bhmp2rcd13ifvqgog","pricing_plan_id":"cebpf4jnsgd1na2vs0mg"},{"bike_id":"208f3ca8-5ae1-4afa-bf93-2fb945fa389b","system_id":"levelo_inurba_marseille","lat":43.23061,"lon":5.35486,"is_reserved":false,"is_disabled":false,"rental_uris":{"android":"levelo://app?vid=208f3ca8-5ae1-4afa-bf93-2fb945fa389b","ios":"levelo://app?vid=208f3ca8-5ae1-4afa-bf93-2fb945fa389b"},"vehicle_type_id":"4","last_reported":1751549056,"current_range_meters":12000,"station_id":"cpo3342slgdg3j2ifvpg","pricing_plan_id":"cebpf4jnsgd1na2vs0mg"},{"bike_id":"0e030323-4386-4e72-9a0d-0f6a2ff539de","system_id":"levelo_inurba_marseille","lat":43.29716,"lon":5.40504,"is_reserved":false,"is_disabled":false,"rental_uris":{"android":"levelo://app?vid=0e030323-4386-4e72-9a0d-0f6a2ff539de","ios":"levelo://app?vid=0e030323-4386-4e72-9a0d-0f6a2ff539de"},"vehicle_type_id":"4","last_reported":1751549056,"current_range_meters":12400,"station_id":"","pricing_plan_id":"cebpf4jnsgd1na2vs0mg"},{"bike_id":"06470b82-e5cd-4759-ac3e-56c7d0234286","system_id":"levelo_inurba_marseille","lat":43.30321,"lon":5.38592,"is_reserved":false,"is_disabled":false,"rental_uris":{"android":"levelo://app?vid=06470b82-e5cd-4759-ac3e-56c7d0234286","ios":"levelo://app?vid=06470b82-e5cd-4759-ac3e-56c7d0234286"},"vehicle_type_id":"4","last_reported":1751549056,"current_range_meters":12400,"station_id":"ce4bgg92rcd13ifvqb30","pricing_plan_id":"cebpf4jnsgd1na2vs0mg"},{"bike_id":"73590fc5-c540-4518-9c4c-593204f8c228","system_id":"levelo_inurba_marseille","lat":43.25004,"lon":5.38922,"is_reserved":false,"is_disabled":false,"rental_uris":{"android":"levelo://app?vid=73590fc5-c540-4518-9c4c-593204f8c228","ios":"levelo://app?vid=73590fc5-c540-4518-9c4c-593204f8c228"},"vehicle_type_id":"4","last_reported":1751549056,"current_range_meters":12400,"station_id":"ce4bhgp2rcd13ifvqfd0","pricing_plan_id":"cebpf4jnsgd1na2vs0mg"},{"bike_id":"59fcc669-a12e-4bad-9b07-6f97c23f6ab1","system_id":"levelo_inurba_marseille","lat":43.32478,"lon":5.36566,"is_reserved":false,"is_disabled":false,"rental_uris":{"android":"levelo://app?vid=59fcc669-a12e-4bad-9b07-6f97c23f6ab1","ios":"levelo://app?vid=59fcc669-a12e-4bad-9b07-6f97c23f6ab1"},"vehicle_type_id":"4","last_reported":1751549056,"current_range_meters":12400,"station_id":"ce4bhs12rcd13ifvqhvg","pricing_plan_id":"cebpf4jnsgd1na2vs0mg"},{"bike_id":"b30e31d7-58a6-4ca8-84c8-7339151a0883","system_id":"levelo_inurba_marseille","lat":43.24162,"lon":5.36401,"is_reserved":false,"is_disabled":false,"rental_uris":{"android":"levelo://app?vid=b30e31d7-58a6-4ca8-84c8-7339151a0883","ios":"levelo://app?vid=b30e31d7-58a6-4ca8-84c8-7339151a0883"},"vehicle_type_id":"4","last_reported":1751549056,"current_range_meters":12400,"station_id":"cpo36qri1sfpv3e86is0","pricing_plan_id":"cebpf4jnsgd1na2vs0mg"},{"bike_id":"b1242795-0576-4e4d-a89f-9d7f8310ff08","system_id":"levelo_inurba_marseille","lat":43.24164,"lon":5.36406,"is_reserved":false,"is_disabled":false,"rental_uris":{"android":"levelo://app?vid=b1242795-0576-4e4d-a89f-9d7f8310ff08","ios":"levelo://app?vid=b1242795-0576-4e4d-a89f-9d7f8310ff08"},"vehicle_type_id":"4","last_reported":1751549056,"current_range_meters":12400,"station_id":"cpo36qri1sfpv3e86is0","pricing_plan_id":"cebpf4jnsgd1na2vs0mg"},{"bike_id":"fb399454-75d2-4a50-b82f-b58938edd612","system_id":"levelo_inurba_marseille","lat":43.27615,"lon":5.36118,"is_reserved":false,"is_disabled":false,"rental_uris":{"android":"levelo://app?vid=fb399454-75d2-4a50-b82f-b58938edd612","ios":"levelo://app?vid=fb399454-75d2-4a50-b82f-b58938edd612"},"vehicle_type_id":"4","last_reported":1751549056,"current_range_meters":12800,"station_id":"ce4bgj92rcd13ifvqbe0","pricing_plan_id":"cebpf4jnsgd1na2vs0mg"},{"bike_id":"747d8997-2d6d-49b4-bb13-decae52ff2de","system_id":"levelo_inurba_marseille","lat":43.28701,"lon":5.37386,"is_reserved":false,"is_disabled":false,"rental_uris":{"android":"levelo://app?vid=747d8997-2d6d-49b4-bb13-decae52ff2de","ios":"levelo://app?vid=747d8997-2d6d-49b4-bb13-decae52ff2de"},"vehicle_type_id":"4","last_reported":1751549056,"current_range_meters":12800,"station_id":"ce4bh3p2rcd13ifvqdq0","pricing_plan_id":"cebpf4jnsgd1na2vs0mg"},{"bike_id":"c8fc986e-8d02-4d31-bde3-ee9a797331e5","system_id":"levelo_inurba_marseille","lat":43.28928,"lon":5.38402,"is_reserved":false,"is_disabled":false,"rental_uris":{"android":"levelo://app?vid=c8fc986e-8d02-4d31-bde3-ee9a797331e5","ios":"levelo://app?vid=c8fc986e-8d02-4d31-bde3-ee9a797331e5"},"vehicle_type_id":"4","last_reported":1751549056,"current_range_meters":12800,"station_id":"ce4bh612rcd13ifvqe6g","pricing_plan_id":"cebpf4jnsgd1na2vs0mg"},{"bike_id":"51d37cd9-7da5-4e3d-a2ad-7c2c9a88b723","system_id":"levelo_inurba_marseille","lat":43.28033,"lon":5.36936,"is_reserved":false,"is_disabled":false,"rental_uris":{"android":"levelo://app?vid=51d37cd9-7da5-4e3d-a2ad-7c2c9a88b723","ios":"levelo://app?vid=51d37cd9-7da5-4e3d-a2ad-7c2c9a88b723"},"vehicle_type_id":"4","last_reported":1751549056,"current_range_meters":12800,"station_id":"ce4bha12rcd13ifvqef0","pricing_plan_id":"cebpf4jnsgd1na2vs0mg"},{"bike_id":"dfb985ba-4b04-4a74-8bf5-6483d9a51859","system_id":"levelo_inurba_marseille","lat":43.31752,"lon":5.39026,"is_reserved":false,"is_disabled":false,"rental_uris":{"android":"levelo://app?vid=dfb985ba-4b04-4a74-8bf5-6483d9a51859","ios":"levelo://app?vid=dfb985ba-4b04-4a74-8bf5-6483d9a51859"},"vehicle_type_id":"4","last_reported":1751549056,"current_range_meters":12800,"station_id":"ce4bhqp2rcd13ifvqhng","pricing_plan_id":"cebpf4jnsgd1na2vs0mg"},{"bike_id":"4a089d35-179c-4d1f-9ef8-4307dc63b9cc","system_id":"levelo_inurba_marseille","lat":43.30542,"lon":5.36559,"is_reserved":false,"is_disabled":false,"rental_uris":{"android":"levelo://app?vid=4a089d35-179c-4d1f-9ef8-4307dc63b9cc","ios":"levelo://app?vid=4a089d35-179c-4d1f-9ef8-4307dc63b9cc"},"vehicle_type_id":"4","last_reported":1751549056,"current_range_meters":13600,"station_id":"ce4bgs12rcd13ifvqcag","pricing_plan_id":"cebpf4jnsgd1na2vs0mg"},{"bike_id":"06478bcf-f5f1-4cba-b82a-41641402ed2b","system_id":"levelo_inurba_marseille","lat":43.32357,"lon":5.36745,"is_reserved":false,"is_disabled":false,"rental_uris":{"android":"levelo://app?vid=06478bcf-f5f1-4cba-b82a-41641402ed2b","ios":"levelo://app?vid=06478bcf-f5f1-4cba-b82a-41641402ed2b"},"vehicle_type_id":"4","last_reported":1751549056,"current_range_meters":13600,"station_id":"ce4bhsh2rcd13ifvqi2g","pricing_plan_id":"cebpf4jnsgd1na2vs0mg"},{"bike_id":"f4ec7cdf-07e1-45ef-b9a0-9719d9d3492c","system_id":"levelo_inurba_marseille","lat":43.23065,"lon":5.35497,"is_reserved":false,"is_disabled":false,"rental_uris":{"android":"levelo://app?vid=f4ec7cdf-07e1-45ef-b9a0-9719d9d3492c","ios":"levelo://app?vid=f4ec7cdf-07e1-45ef-b9a0-9719d9d3492c"},"vehicle_type_id":"4","last_reported":1751549056,"current_range_meters":13600,"station_id":"cpo3342slgdg3j2ifvpg","pricing_plan_id":"cebpf4jnsgd1na2vs0mg"},{"bike_id":"912d67f3-78e7-48fd-8929-37f0572cfee4","system_id":"levelo_inurba_marseille","lat":43.26392,"lon":5.37396,"is_reserved":false,"is_disabled":false,"rental_uris":{"android":"levelo://app?vid=912d67f3-78e7-48fd-8929-37f0572cfee4","ios":"levelo://app?vid=912d67f3-78e7-48fd-8929-37f0572cfee4"},"vehicle_type_id":"4","last_reported":1751549056,"current_range_meters":14000,"station_id":"","pricing_plan_id":"cebpf4jnsgd1na2vs0mg"},{"bike_id":"a588469b-12ca-41c6-8c6f-3f3bda5b7f15","system_id":"levelo_inurba_marseille","lat":43.31539,"lon":5.38398,"is_reserved":false,"is_disabled":false,"rental_uris":{"android":"levelo://app?vid=a588469b-12ca-41c6-8c6f-3f3bda5b7f15","ios":"levelo://app?vid=a588469b-12ca-41c6-8c6f-3f3bda5b7f15"},"vehicle_type_id":"4","last_reported":1751549056,"current_range_meters":14000,"station_id":"","pricing_plan_id":"cebpf4jnsgd1na2vs0mg"},{"bike_id":"f85e4f4f-ebc0-48bf-bc0b-5dd4877ac835","system_id":"levelo_inurba_marseille","lat":43.28268,"lon":5.35061,"is_reserved":false,"is_disabled":false,"rental_uris":{"android":"levelo://app?vid=f85e4f4f-ebc0-48bf-bc0b-5dd4877ac835","ios":"levelo://app?vid=f85e4f4f-ebc0-48bf-bc0b-5dd4877ac835"},"vehicle_type_id":"4","last_reported":1751549056,"current_range_meters":14000,"station_id":"ce4bhbp2rcd13ifvqerg","pricing_plan_id":"cebpf4jnsgd1na2vs0mg"},{"bike_id":"9568202d-996f-448e-a195-a3c1d7ff7d5f","system_id":"levelo_inurba_marseille","lat":43.28262,"lon":5.35062,"is_reserved":false,"is_disabled":false,"rental_uris":{"android":"levelo://app?vid=9568202d-996f-448e-a195-a3c1d7ff7d5f","ios":"levelo://app?vid=9568202d-996f-448e-a195-a3c1d7ff7d5f"},"vehicle_type_id":"4","last_reported":1751549056,"current_range_meters":14000,"station_id":"ce4bhbp2rcd13ifvqerg","pricing_plan_id":"cebpf4jnsgd1na2vs0mg"},{"bike_id":"e6ace702-1449-41e3-97f3-2e3a48f345d9","system_id":"levelo_inurba_marseille","lat":43.24648,"lon":5.38897,"is_reserved":false,"is_disabled":false,"rental_uris":{"android":"levelo://app?vid=e6ace702-1449-41e3-97f3-2e3a48f345d9","ios":"levelo://app?vid=e6ace702-1449-41e3-97f3-2e3a48f345d9"},"vehicle_type_id":"4","last_reported":1751549056,"current_range_meters":14000,"station_id":"ce4bhg12rcd13ifvqf60","pricing_plan_id":"cebpf4jnsgd1na2vs0mg"},{"bike_id":"ffc4ee84-d1be-4ebc-8ebf-1a1ca37b8401","system_id":"levelo_inurba_marseille","lat":43.30885,"lon":5.37382,"is_reserved":false,"is_disabled":false,"rental_uris":{"android":"levelo://app?vid=ffc4ee84-d1be-4ebc-8ebf-1a1ca37b8401","ios":"levelo://app?vid=ffc4ee84-d1be-4ebc-8ebf-1a1ca37b8401"},"vehicle_type_id":"4","last_reported":1751549056,"current_range_meters":14400,"station_id":"","pricing_plan_id":"cebpf4jnsgd1na2vs0mg"},{"bike_id":"d35e7a31-a782-42b3-a694-d93b212baaac","system_id":"levelo_inurba_marseille","lat":43.29929,"lon":5.37503,"is_reserved":false,"is_disabled":false,"rental_uris":{"android":"levelo://app?vid=d35e7a31-a782-42b3-a694-d93b212baaac","ios":"levelo://app?vid=d35e7a31-a782-42b3-a694-d93b212baaac"},"vehicle_type_id":"4","last_reported":1751549056,"current_range_meters":14400,"station_id":"","pricing_plan_id":"cebpf4jnsgd1na2vs0mg"},{"bike_id":"52ff3d7a-32ed-48ca-b1ef-8582a610276b","system_id":"levelo_inurba_marseille","lat":43.28269,"lon":5.35061,"is_reserved":false,"is_disabled":false,"rental_uris":{"android":"levelo://app?vid=52ff3d7a-32ed-48ca-b1ef-8582a610276b","ios":"levelo://app?vid=52ff3d7a-32ed-48ca-b1ef-8582a610276b"},"vehicle_type_id":"4","last_reported":1751549056,"current_range_meters":14400,"station_id":"ce4bhbp2rcd13ifvqerg","pricing_plan_id":"cebpf4jnsgd1na2vs0mg"},{"bike_id":"0dd4315e-7281-4bd8-994f-507343375658","system_id":"levelo_inurba_marseille","lat":43.2466,"lon":5.3817,"is_reserved":false,"is_disabled":false,"rental_uris":{"android":"levelo://app?vid=0dd4315e-7281-4bd8-994f-507343375658","ios":"levelo://app?vid=0dd4315e-7281-4bd8-994f-507343375658"},"vehicle_type_id":"4","last_reported":1751549056,"current_range_meters":14400,"station_id":"ce4bhih2rcd13ifvqfr0","pricing_plan_id":"cebpf4jnsgd1na2vs0mg"},{"bike_id":"d3d10cf1-dbf1-4c61-aeb8-a70311c53ecf","system_id":"levelo_inurba_marseille","lat":43.28267,"lon":5.35066,"is_reserved":false,"is_disabled":false,"rental_uris":{"android":"levelo://app?vid=d3d10cf1-dbf1-4c61-aeb8-a70311c53ecf","ios":"levelo://app?vid=d3d10cf1-dbf1-4c61-aeb8-a70311c53ecf"},"vehicle_type_id":"4","last_reported":1751549056,"current_range_meters":14800,"station_id":"ce4bhbp2rcd13ifvqerg","pricing_plan_id":"cebpf4jnsgd1na2vs0mg"},{"bike_id":"cbab8e8e-76d8-4b25-9f75-190c476c076a","system_id":"levelo_inurba_marseille","lat":43.33628,"lon":5.41037,"is_reserved":false,"is_disabled":false,"rental_uris":{"android":"levelo://app?vid=cbab8e8e-76d8-4b25-9f75-190c476c076a","ios":"levelo://app?vid=cbab8e8e-76d8-4b25-9f75-190c476c076a"},"vehicle_type_id":"4","last_reported":1751549056,"current_range_meters":14800,"station_id":"ce4bhqh2rcd13ifvqhmg","pricing_plan_id":"cebpf4jnsgd1na2vs0mg"},{"bike_id":"051b4fc3-c8ec-45e0-ae0f-7cff543c01ab","system_id":"levelo_inurba_marseille","lat":43.27623,"lon":5.36112,"is_reserved":false,"is_disabled":false,"rental_uris":{"android":"levelo://app?vid=051b4fc3-c8ec-45e0-ae0f-7cff543c01ab","ios":"levelo://app?vid=051b4fc3-c8ec-45e0-ae0f-7cff543c01ab"},"vehicle_type_id":"4","last_reported":1751549056,"current_range_meters":15200,"station_id":"ce4bgj92rcd13ifvqbe0","pricing_plan_id":"cebpf4jnsgd1na2vs0mg"},{"bike_id":"563ffdfd-6654-4ebe-8b35-0cfb1f3835c7","system_id":"levelo_inurba_marseille","lat":43.31163,"lon":5.38717,"is_reserved":false,"is_disabled":false,"rental_uris":{"android":"levelo://app?vid=563ffdfd-6654-4ebe-8b35-0cfb1f3835c7","ios":"levelo://app?vid=563ffdfd-6654-4ebe-8b35-0cfb1f3835c7"},"vehicle_type_id":"4","last_reported":1751549056,"current_range_meters":15200,"station_id":"ce4bgv12rcd13ifvqcp0","pricing_plan_id":"cebpf4jnsgd1na2vs0mg"},{"bike_id":"e4e046fb-789e-41df-95b5-b547bfea0b84","system_id":"levelo_inurba_marseille","lat":43.26029,"lon":5.3755,"is_reserved":false,"is_disabled":false,"rental_uris":{"android":"levelo://app?vid=e4e046fb-789e-41df-95b5-b547bfea0b84","ios":"levelo://app?vid=e4e046fb-789e-41df-95b5-b547bfea0b84"},"vehicle_type_id":"4","last_reported":1751549056,"current_range_meters":15200,"station_id":"ce4bhgh2rcd13ifvqfa0","pricing_plan_id":"cebpf4jnsgd1na2vs0mg"},{"bike_id":"9fa7c5d2-7e8d-478f-a3da-47a13ec7c661","system_id":"levelo_inurba_marseille","lat":43.31997,"lon":5.38163,"is_reserved":false,"is_disabled":false,"rental_uris":{"android":"levelo://app?vid=9fa7c5d2-7e8d-478f-a3da-47a13ec7c661","ios":"levelo://app?vid=9fa7c5d2-7e8d-478f-a3da-47a13ec7c661"},"vehicle_type_id":"4","last_reported":1751549056,"current_range_meters":15200,"station_id":"ce4bhr12rcd13ifvqhpg","pricing_plan_id":"cebpf4jnsgd1na2vs0mg"},{"bike_id":"ba154a12-11bd-42a5-958a-5992f5d043d1","system_id":"levelo_inurba_marseille","lat":43.3048,"lon":5.37044,"is_reserved":false,"is_disabled":false,"rental_uris":{"android":"levelo://app?vid=ba154a12-11bd-42a5-958a-5992f5d043d1","ios":"levelo://app?vid=ba154a12-11bd-42a5-958a-5992f5d043d1"},"vehicle_type_id":"4","last_reported":1751549056,"current_range_meters":16000,"station_id":"","pricing_plan_id":"cebpf4jnsgd1na2vs0mg"},{"bike_id":"f08dac9b-efe2-4638-9d3f-0be8074fabbe","system_id":"levelo_inurba_marseille","lat":43.29623,"lon":5.37719,"is_reserved":false,"is_disabled":false,"rental_uris":{"android":"levelo://app?vid=f08dac9b-efe2-4638-9d3f-0be8074fabbe","ios":"levelo://app?vid=f08dac9b-efe2-4638-9d3f-0be8074fabbe"},"vehicle_type_id":"4","last_reported":1751549056,"current_range_meters":16000,"station_id":"ce4bgi92rcd13ifvqb90","pricing_plan_id":"cebpf4jnsgd1na2vs0mg"},{"bike_id":"63d345d3-233b-4f1f-ac9e-d5877e987f8c","system_id":"levelo_inurba_marseille","lat":43.306,"lon":5.37232,"is_reserved":false,"is_disabled":false,"rental_uris":{"android":"levelo://app?vid=63d345d3-233b-4f1f-ac9e-d5877e987f8c","ios":"levelo://app?vid=63d345d3-233b-4f1f-ac9e-d5877e987f8c"},"vehicle_type_id":"4","last_reported":1751549056,"current_range_meters":16000,"station_id":"ce4bgqh2rcd13ifvqc4g","pricing_plan_id":"cebpf4jnsgd1na2vs0mg"},{"bike_id":"f8b42013-1bb5-4854-b480-f4d6c9e5d5e9","system_id":"levelo_inurba_marseille","lat":43.30538,"lon":5.36533,"is_reserved":false,"is_disabled":false,"rental_uris":{"android":"levelo://app?vid=f8b42013-1bb5-4854-b480-f4d6c9e5d5e9","ios":"levelo://app?vid=f8b42013-1bb5-4854-b480-f4d6c9e5d5e9"},"vehicle_type_id":"4","last_reported":1751549056,"current_range_meters":16000,"station_id":"ce4bgs12rcd13ifvqcag","pricing_plan_id":"cebpf4jnsgd1na2vs0mg"},{"bike_id":"d4a349db-f22d-4680-8253-fdaa0586ff9a","system_id":"levelo_inurba_marseille","lat":43.27374,"lon":5.36262,"is_reserved":false,"is_disabled":false,"rental_uris":{"android":"levelo://app?vid=d4a349db-f22d-4680-8253-fdaa0586ff9a","ios":"levelo://app?vid=d4a349db-f22d-4680-8253-fdaa0586ff9a"},"vehicle_type_id":"4","last_reported":1751549056,"current_range_meters":16000,"station_id":"ce4bhbh2rcd13ifvqeo0","pricing_plan_id":"cebpf4jnsgd1na2vs0mg"},{"bike_id":"c6e6ce6e-9513-4837-afa5-98e6df35ba7f","system_id":"levelo_inurba_marseille","lat":43.2622,"lon":5.37439,"is_reserved":false,"is_disabled":false,"rental_uris":{"android":"levelo://app?vid=c6e6ce6e-9513-4837-afa5-98e6df35ba7f","ios":"levelo://app?vid=c6e6ce6e-9513-4837-afa5-98e6df35ba7f"},"vehicle_type_id":"4","last_reported":1751549056,"current_range_meters":16000,"station_id":"ce4bhgp2rcd13ifvqfc0","pricing_plan_id":"cebpf4jnsgd1na2vs0mg"},{"bike_id":"c5be3ec2-213f-45f8-bc35-24e6a1c22180","system_id":"levelo_inurba_marseille","lat":43.32066,"lon":5.41571,"is_reserved":false,"is_disabled":false,"rental_uris":{"android":"levelo://app?vid=c5be3ec2-213f-45f8-bc35-24e6a1c22180","ios":"levelo://app?vid=c5be3ec2-213f-45f8-bc35-24e6a1c22180"},"vehicle_type_id":"4","last_reported":1751549056,"current_range_meters":16000,"station_id":"ce4bhq92rcd13ifvqhkg","pricing_plan_id":"cebpf4jnsgd1na2vs0mg"},{"bike_id":"37b84a38-055a-4a6e-a56a-8ff3d0c1b2ec","system_id":"levelo_inurba_marseille","lat":43.21198,"lon":5.35076,"is_reserved":false,"is_disabled":false,"rental_uris":{"android":"levelo://app?vid=37b84a38-055a-4a6e-a56a-8ff3d0c1b2ec","ios":"levelo://app?vid=37b84a38-055a-4a6e-a56a-8ff3d0c1b2ec"},"vehicle_type_id":"4","last_reported":1751549056,"current_range_meters":16000,"station_id":"st_cvj6sg6p6f1abm77japg","pricing_plan_id":"cebpf4jnsgd1na2vs0mg"},{"bike_id":"c25799b8-5279-4cf5-a4e2-4f79ac50d194","system_id":"levelo_inurba_marseille","lat":43.337444,"lon":5.374475,"is_reserved":false,"is_disabled":false,"rental_uris":{"android":"levelo://app?vid=c25799b8-5279-4cf5-a4e2-4f79ac50d194","ios":"levelo://app?vid=c25799b8-5279-4cf5-a4e2-4f79ac50d194"},"vehicle_type_id":"4","last_reported":1751549056,"current_range_meters":16400,"station_id":"","pricing_plan_id":"cebpf4jnsgd1na2vs0mg"},{"bike_id":"d6a97fc8-7c5d-4b77-9d38-d22003db8fe5","system_id":"levelo_inurba_marseille","lat":43.34721,"lon":5.36602,"is_reserved":false,"is_disabled":false,"rental_uris":{"android":"levelo://app?vid=d6a97fc8-7c5d-4b77-9d38-d22003db8fe5","ios":"levelo://app?vid=d6a97fc8-7c5d-4b77-9d38-d22003db8fe5"},"vehicle_type_id":"4","last_reported":1751549056,"current_range_meters":16400,"station_id":"","pricing_plan_id":"cebpf4jnsgd1na2vs0mg"},{"bike_id":"44a9443d-3135-4a25-856d-9bda0e293f4a","system_id":"levelo_inurba_marseille","lat":43.28412,"lon":5.34999,"is_reserved":false,"is_disabled":false,"rental_uris":{"android":"levelo://app?vid=44a9443d-3135-4a25-856d-9bda0e293f4a","ios":"levelo://app?vid=44a9443d-3135-4a25-856d-9bda0e293f4a"},"vehicle_type_id":"4","last_reported":1751549056,"current_range_meters":16400,"station_id":"ce4bhbh2rcd13ifvqepg","pricing_plan_id":"cebpf4jnsgd1na2vs0mg"},{"bike_id":"301f9cdc-5b2a-4701-aae8-08283c8b94c6","system_id":"levelo_inurba_marseille","lat":43.292115,"lon":5.359438,"is_reserved":false,"is_disabled":false,"rental_uris":{"android":"levelo://app?vid=301f9cdc-5b2a-4701-aae8-08283c8b94c6","ios":"levelo://app?vid=301f9cdc-5b2a-4701-aae8-08283c8b94c6"},"vehicle_type_id":"4","last_reported":1751549056,"current_range_meters":16400,"station_id":"ce4bhbp2rcd13ifvqerg","pricing_plan_id":"cebpf4jnsgd1na2vs0mg"},{"bike_id":"429fa18c-0d06-4a5d-a9f7-cd69cbe19891","system_id":"levelo_inurba_marseille","lat":43.25485,"lon":5.37704,"is_reserved":false,"is_disabled":false,"rental_uris":{"android":"levelo://app?vid=429fa18c-0d06-4a5d-a9f7-cd69cbe19891","ios":"levelo://app?vid=429fa18c-0d06-4a5d-a9f7-cd69cbe19891"},"vehicle_type_id":"4","last_reported":1751549056,"current_range_meters":16400,"station_id":"ce4bhh12rcd13ifvqff0","pricing_plan_id":"cebpf4jnsgd1na2vs0mg"},{"bike_id":"7c67e7dd-7a7f-426b-9249-641f91643932","system_id":"levelo_inurba_marseille","lat":43.24167,"lon":5.36415,"is_reserved":false,"is_disabled":false,"rental_uris":{"android":"levelo://app?vid=7c67e7dd-7a7f-426b-9249-641f91643932","ios":"levelo://app?vid=7c67e7dd-7a7f-426b-9249-641f91643932"},"vehicle_type_id":"4","last_reported":1751549056,"current_range_meters":16400,"station_id":"cpo36qri1sfpv3e86is0","pricing_plan_id":"cebpf4jnsgd1na2vs0mg"},{"bike_id":"4d4995e7-0bba-4ac2-a238-afd84a5e99b5","system_id":"levelo_inurba_marseille","lat":43.304848,"lon":5.398345,"is_reserved":false,"is_disabled":false,"rental_uris":{"android":"levelo://app?vid=4d4995e7-0bba-4ac2-a238-afd84a5e99b5","ios":"levelo://app?vid=4d4995e7-0bba-4ac2-a238-afd84a5e99b5"},"vehicle_type_id":"4","last_reported":1751549056,"current_range_meters":16800,"station_id":"","pricing_plan_id":"cebpf4jnsgd1na2vs0mg"},{"bike_id":"0c4b7fdb-b39e-49b3-a2b0-ae3d0f43e89d","system_id":"levelo_inurba_marseille","lat":43.32898,"lon":5.40577,"is_reserved":false,"is_disabled":false,"rental_uris":{"android":"levelo://app?vid=0c4b7fdb-b39e-49b3-a2b0-ae3d0f43e89d","ios":"levelo://app?vid=0c4b7fdb-b39e-49b3-a2b0-ae3d0f43e89d"},"vehicle_type_id":"4","last_reported":1751549056,"current_range_meters":16800,"station_id":"","pricing_plan_id":"cebpf4jnsgd1na2vs0mg"},{"bike_id":"175513bb-dce2-48e2-83c8-1e9f1cb23cd0","system_id":"levelo_inurba_marseille","lat":43.286255,"lon":5.412651,"is_reserved":false,"is_disabled":false,"rental_uris":{"android":"levelo://app?vid=175513bb-dce2-48e2-83c8-1e9f1cb23cd0","ios":"levelo://app?vid=175513bb-dce2-48e2-83c8-1e9f1cb23cd0"},"vehicle_type_id":"4","last_reported":1751549056,"current_range_meters":16800,"station_id":"","pricing_plan_id":"cebpf4jnsgd1na2vs0mg"},{"bike_id":"3aa961e2-37ff-4909-89b9-43d0009ca3cc","system_id":"levelo_inurba_marseille","lat":43.25718,"lon":5.41034,"is_reserved":false,"is_disabled":false,"rental_uris":{"android":"levelo://app?vid=3aa961e2-37ff-4909-89b9-43d0009ca3cc","ios":"levelo://app?vid=3aa961e2-37ff-4909-89b9-43d0009ca3cc"},"vehicle_type_id":"4","last_reported":1751549056,"current_range_meters":16800,"station_id":"","pricing_plan_id":"cebpf4jnsgd1na2vs0mg"},{"bike_id":"88c17fea-2899-4c10-9a79-262e0a7bd935","system_id":"levelo_inurba_marseille","lat":43.29569,"lon":5.37505,"is_reserved":false,"is_disabled":false,"rental_uris":{"android":"levelo://app?vid=88c17fea-2899-4c10-9a79-262e0a7bd935","ios":"levelo://app?vid=88c17fea-2899-4c10-9a79-262e0a7bd935"},"vehicle_type_id":"4","last_reported":1751549056,"current_range_meters":16800,"station_id":"ce4bgh92rcd13ifvqb50","pricing_plan_id":"cebpf4jnsgd1na2vs0mg"},{"bike_id":"6f393c71-3892-40f5-b0f5-7ddebd9a0b92","system_id":"levelo_inurba_marseille","lat":43.30303,"lon":5.36888,"is_reserved":false,"is_disabled":false,"rental_uris":{"android":"levelo://app?vid=6f393c71-3892-40f5-b0f5-7ddebd9a0b92","ios":"levelo://app?vid=6f393c71-3892-40f5-b0f5-7ddebd9a0b92"},"vehicle_type_id":"4","last_reported":1751549056,"current_range_meters":16800,"station_id":"ce4bgqh2rcd13ifvqc5g","pricing_plan_id":"cebpf4jnsgd1na2vs0mg"},{"bike_id":"81e7dd56-3dc7-43c0-8b5d-d15c075039c6","system_id":"levelo_inurba_marseille","lat":43.30267,"lon":5.37711,"is_reserved":false,"is_disabled":false,"rental_uris":{"android":"levelo://app?vid=81e7dd56-3dc7-43c0-8b5d-d15c075039c6","ios":"levelo://app?vid=81e7dd56-3dc7-43c0-8b5d-d15c075039c6"},"vehicle_type_id":"4","last_reported":1751549056,"current_range_meters":16800,"station_id":"ce4bguh2rcd13ifvqcj0","pricing_plan_id":"cebpf4jnsgd1na2vs0mg"},{"bike_id":"9734061e-b382-4363-8163-5ea1d3070ab0","system_id":"levelo_inurba_marseille","lat":43.31325,"lon":5.39701,"is_reserved":false,"is_disabled":false,"rental_uris":{"android":"levelo://app?vid=9734061e-b382-4363-8163-5ea1d3070ab0","ios":"levelo://app?vid=9734061e-b382-4363-8163-5ea1d3070ab0"},"vehicle_type_id":"4","last_reported":1751549056,"current_range_meters":16800,"station_id":"ce4bgvp2rcd13ifvqcu0","pricing_plan_id":"cebpf4jnsgd1na2vs0mg"},{"bike_id":"9dc27b77-eb7c-4464-aff0-1790492d10b3","system_id":"levelo_inurba_marseille","lat":43.28362,"lon":5.38638,"is_reserved":false,"is_disabled":false,"rental_uris":{"android":"levelo://app?vid=9dc27b77-eb7c-4464-aff0-1790492d10b3","ios":"levelo://app?vid=9dc27b77-eb7c-4464-aff0-1790492d10b3"},"vehicle_type_id":"4","last_reported":1751549056,"current_range_meters":16800,"station_id":"ce4bh492rcd13ifvqdvg","pricing_plan_id":"cebpf4jnsgd1na2vs0mg"},{"bike_id":"80a421f9-82c6-43e6-aaa0-88dda18c110c","system_id":"levelo_inurba_marseille","lat":43.28414,"lon":5.34994,"is_reserved":false,"is_disabled":false,"rental_uris":{"android":"levelo://app?vid=80a421f9-82c6-43e6-aaa0-88dda18c110c","ios":"levelo://app?vid=80a421f9-82c6-43e6-aaa0-88dda18c110c"},"vehicle_type_id":"4","last_reported":1751549056,"current_range_meters":16800,"station_id":"ce4bhbh2rcd13ifvqepg","pricing_plan_id":"cebpf4jnsgd1na2vs0mg"},{"bike_id":"1b3560cd-fa89-47a8-a68c-be52a28f38d8","system_id":"levelo_inurba_marseille","lat":43.28282,"lon":5.35062,"is_reserved":false,"is_disabled":false,"rental_uris":{"android":"levelo://app?vid=1b3560cd-fa89-47a8-a68c-be52a28f38d8","ios":"levelo://app?vid=1b3560cd-fa89-47a8-a68c-be52a28f38d8"},"vehicle_type_id":"4","last_reported":1751549056,"current_range_meters":16800,"station_id":"ce4bhbp2rcd13ifvqerg","pricing_plan_id":"cebpf4jnsgd1na2vs0mg"},{"bike_id":"2596bf02-4b4e-4a73-96c0-306657fb5dc9","system_id":"levelo_inurba_marseille","lat":43.26212,"lon":5.37452,"is_reserved":false,"is_disabled":false,"rental_uris":{"android":"levelo://app?vid=2596bf02-4b4e-4a73-96c0-306657fb5dc9","ios":"levelo://app?vid=2596bf02-4b4e-4a73-96c0-306657fb5dc9"},"vehicle_type_id":"4","last_reported":1751549056,"current_range_meters":16800,"station_id":"ce4bhgp2rcd13ifvqfc0","pricing_plan_id":"cebpf4jnsgd1na2vs0mg"},{"bike_id":"47c7e6b6-def5-455b-8707-d3cbebfd8666","system_id":"levelo_inurba_marseille","lat":43.26207,"lon":5.37441,"is_reserved":false,"is_disabled":false,"rental_uris":{"android":"levelo://app?vid=47c7e6b6-def5-455b-8707-d3cbebfd8666","ios":"levelo://app?vid=47c7e6b6-def5-455b-8707-d3cbebfd8666"},"vehicle_type_id":"4","last_reported":1751549056,"current_range_meters":16800,"station_id":"ce4bhgp2rcd13ifvqfc0","pricing_plan_id":"cebpf4jnsgd1na2vs0mg"},{"bike_id":"085a9b83-3f84-40f5-9e64-5af9b3d60f63","system_id":"levelo_inurba_marseille","lat":43.29898,"lon":5.43661,"is_reserved":false,"is_disabled":false,"rental_uris":{"android":"levelo://app?vid=085a9b83-3f84-40f5-9e64-5af9b3d60f63","ios":"levelo://app?vid=085a9b83-3f84-40f5-9e64-5af9b3d60f63"},"vehicle_type_id":"4","last_reported":1751549056,"current_range_meters":16800,"station_id":"ce4bhpp2rcd13ifvqhfg","pricing_plan_id":"cebpf4jnsgd1na2vs0mg"},{"bike_id":"a6715104-7492-4ec6-a996-23050baf8551","system_id":"levelo_inurba_marseille","lat":43.22519,"lon":5.34778,"is_reserved":false,"is_disabled":false,"rental_uris":{"android":"levelo://app?vid=a6715104-7492-4ec6-a996-23050baf8551","ios":"levelo://app?vid=a6715104-7492-4ec6-a996-23050baf8551"},"vehicle_type_id":"4","last_reported":1751549056,"current_range_meters":16800,"station_id":"st_cvj5dfep6f1abm77gieg","pricing_plan_id":"cebpf4jnsgd1na2vs0mg"},{"bike_id":"b19cea31-4713-475e-adff-68764a256fc0","system_id":"levelo_inurba_marseille","lat":43.30528,"lon":5.36738,"is_reserved":false,"is_disabled":false,"rental_uris":{"android":"levelo://app?vid=b19cea31-4713-475e-adff-68764a256fc0","ios":"levelo://app?vid=b19cea31-4713-475e-adff-68764a256fc0"},"vehicle_type_id":"4","last_reported":1751549056,"current_range_meters":17200,"station_id":"ce4bgrp2rcd13ifvqc9g","pricing_plan_id":"cebpf4jnsgd1na2vs0mg"},{"bike_id":"efd39573-3e62-4943-bd41-7a5e046acff7","system_id":"levelo_inurba_marseille","lat":43.27373,"lon":5.36253,"is_reserved":false,"is_disabled":false,"rental_uris":{"android":"levelo://app?vid=efd39573-3e62-4943-bd41-7a5e046acff7","ios":"levelo://app?vid=efd39573-3e62-4943-bd41-7a5e046acff7"},"vehicle_type_id":"4","last_reported":1751549056,"current_range_meters":17200,"station_id":"ce4bhbh2rcd13ifvqeo0","pricing_plan_id":"cebpf4jnsgd1na2vs0mg"},{"bike_id":"603f229c-09b9-4145-9510-d250a8eff49b","system_id":"levelo_inurba_marseille","lat":43.286103,"lon":5.350997,"is_reserved":false,"is_disabled":false,"rental_uris":{"android":"levelo://app?vid=603f229c-09b9-4145-9510-d250a8eff49b","ios":"levelo://app?vid=603f229c-09b9-4145-9510-d250a8eff49b"},"vehicle_type_id":"4","last_reported":1751549056,"current_range_meters":17200,"station_id":"ce4bhch2rcd13ifvqeug","pricing_plan_id":"cebpf4jnsgd1na2vs0mg"},{"bike_id":"57e84e33-8ef2-49b0-9c52-2dd89adcc82a","system_id":"levelo_inurba_marseille","lat":43.23146,"lon":5.43724,"is_reserved":false,"is_disabled":false,"rental_uris":{"android":"levelo://app?vid=57e84e33-8ef2-49b0-9c52-2dd89adcc82a","ios":"levelo://app?vid=57e84e33-8ef2-49b0-9c52-2dd89adcc82a"},"vehicle_type_id":"4","last_reported":1751549056,"current_range_meters":17200,"station_id":"ce4bhmp2rcd13ifvqgog","pricing_plan_id":"cebpf4jnsgd1na2vs0mg"},{"bike_id":"b2ce53ca-166b-417e-9d70-9bee393f75bb","system_id":"levelo_inurba_marseille","lat":43.21219,"lon":5.35082,"is_reserved":false,"is_disabled":false,"rental_uris":{"android":"levelo://app?vid=b2ce53ca-166b-417e-9d70-9bee393f75bb","ios":"levelo://app?vid=b2ce53ca-166b-417e-9d70-9bee393f75bb"},"vehicle_type_id":"4","last_reported":1751549056,"current_range_meters":17200,"station_id":"st_cvj6sg6p6f1abm77japg","pricing_plan_id":"cebpf4jnsgd1na2vs0mg"},{"bike_id":"0c5e46df-9adb-4aa5-842c-17a1961c0106","system_id":"levelo_inurba_marseille","lat":43.279698,"lon":5.407121,"is_reserved":false,"is_disabled":false,"rental_uris":{"android":"levelo://app?vid=0c5e46df-9adb-4aa5-842c-17a1961c0106","ios":"levelo://app?vid=0c5e46df-9adb-4aa5-842c-17a1961c0106"},"vehicle_type_id":"4","last_reported":1751549056,"current_range_meters":17600,"station_id":"","pricing_plan_id":"cebpf4jnsgd1na2vs0mg"},{"bike_id":"bb39d0b6-e00f-4663-8cd7-3a21acb08297","system_id":"levelo_inurba_marseille","lat":43.27905,"lon":5.38013,"is_reserved":false,"is_disabled":false,"rental_uris":{"android":"levelo://app?vid=bb39d0b6-e00f-4663-8cd7-3a21acb08297","ios":"levelo://app?vid=bb39d0b6-e00f-4663-8cd7-3a21acb08297"},"vehicle_type_id":"4","last_reported":1751549056,"current_range_meters":17600,"station_id":"ce4bhf92rcd13ifvqf50","pricing_plan_id":"cebpf4jnsgd1na2vs0mg"},{"bike_id":"9e407ba8-2841-4932-8f97-01cd9325a67e","system_id":"levelo_inurba_marseille","lat":43.257403,"lon":5.411091,"is_reserved":false,"is_disabled":false,"rental_uris":{"android":"levelo://app?vid=9e407ba8-2841-4932-8f97-01cd9325a67e","ios":"levelo://app?vid=9e407ba8-2841-4932-8f97-01cd9325a67e"},"vehicle_type_id":"4","last_reported":1751549056,"current_range_meters":17600,"station_id":"ce4bhkp2rcd13ifvqgd0","pricing_plan_id":"cebpf4jnsgd1na2vs0mg"},{"bike_id":"072c1623-0cde-4bde-882e-9ebd9afe837d","system_id":"levelo_inurba_marseille","lat":43.23136,"lon":5.43737,"is_reserved":false,"is_disabled":false,"rental_uris":{"android":"levelo://app?vid=072c1623-0cde-4bde-882e-9ebd9afe837d","ios":"levelo://app?vid=072c1623-0cde-4bde-882e-9ebd9afe837d"},"vehicle_type_id":"4","last_reported":1751549056,"current_range_meters":17600,"station_id":"ce4bhmp2rcd13ifvqgog","pricing_plan_id":"cebpf4jnsgd1na2vs0mg"},{"bike_id":"5e197122-e8ec-4f01-b370-6bbfc10c6950","system_id":"levelo_inurba_marseille","lat":43.2118,"lon":5.35066,"is_reserved":false,"is_disabled":false,"rental_uris":{"android":"levelo://app?vid=5e197122-e8ec-4f01-b370-6bbfc10c6950","ios":"levelo://app?vid=5e197122-e8ec-4f01-b370-6bbfc10c6950"},"vehicle_type_id":"4","last_reported":1751549056,"current_range_meters":17600,"station_id":"st_cvj6sg6p6f1abm77japg","pricing_plan_id":"cebpf4jnsgd1na2vs0mg"},{"bike_id":"7e21e8f2-09c8-4cc5-8113-278ebd23888d","system_id":"levelo_inurba_marseille","lat":43.21213,"lon":5.35079,"is_reserved":false,"is_disabled":false,"rental_uris":{"android":"levelo://app?vid=7e21e8f2-09c8-4cc5-8113-278ebd23888d","ios":"levelo://app?vid=7e21e8f2-09c8-4cc5-8113-278ebd23888d"},"vehicle_type_id":"4","last_reported":1751549056,"current_range_meters":17600,"station_id":"st_cvj6sg6p6f1abm77japg","pricing_plan_id":"cebpf4jnsgd1na2vs0mg"},{"bike_id":"cc04118e-9312-4bf8-9106-d64e829afbaa","system_id":"levelo_inurba_marseille","lat":43.212026,"lon":5.350709,"is_reserved":false,"is_disabled":false,"rental_uris":{"android":"levelo://app?vid=cc04118e-9312-4bf8-9106-d64e829afbaa","ios":"levelo://app?vid=cc04118e-9312-4bf8-9106-d64e829afbaa"},"vehicle_type_id":"4","last_reported":1751549056,"current_range_meters":17600,"station_id":"st_cvj6sg6p6f1abm77japg","pricing_plan_id":"cebpf4jnsgd1na2vs0mg"},{"bike_id":"1c8ab180-05fd-405f-9922-b2b2c2d5142f","system_id":"levelo_inurba_marseille","lat":43.33832,"lon":5.38154,"is_reserved":false,"is_disabled":false,"rental_uris":{"android":"levelo://app?vid=1c8ab180-05fd-405f-9922-b2b2c2d5142f","ios":"levelo://app?vid=1c8ab180-05fd-405f-9922-b2b2c2d5142f"},"vehicle_type_id":"4","last_reported":1751549056,"current_range_meters":18000,"station_id":"","pricing_plan_id":"cebpf4jnsgd1na2vs0mg"},{"bike_id":"b35c913a-6b27-4cc6-9ebb-fdd74d5d7c59","system_id":"levelo_inurba_marseille","lat":43.28423,"lon":5.35001,"is_reserved":false,"is_disabled":false,"rental_uris":{"android":"levelo://app?vid=b35c913a-6b27-4cc6-9ebb-fdd74d5d7c59","ios":"levelo://app?vid=b35c913a-6b27-4cc6-9ebb-fdd74d5d7c59"},"vehicle_type_id":"4","last_reported":1751549056,"current_range_meters":18000,"station_id":"ce4bhbh2rcd13ifvqepg","pricing_plan_id":"cebpf4jnsgd1na2vs0mg"},{"bike_id":"55aa929b-2db6-4ab6-8121-df233a47781a","system_id":"levelo_inurba_marseille","lat":43.262149,"lon":5.374404,"is_reserved":false,"is_disabled":false,"rental_uris":{"android":"levelo://app?vid=55aa929b-2db6-4ab6-8121-df233a47781a","ios":"levelo://app?vid=55aa929b-2db6-4ab6-8121-df233a47781a"},"vehicle_type_id":"4","last_reported":1751549056,"current_range_meters":18000,"station_id":"ce4bhgp2rcd13ifvqfc0","pricing_plan_id":"cebpf4jnsgd1na2vs0mg"},{"bike_id":"046a7880-e7ac-4e6a-a802-d0f574715c6b","system_id":"levelo_inurba_marseille","lat":43.33004,"lon":5.39025,"is_reserved":false,"is_disabled":false,"rental_uris":{"android":"levelo://app?vid=046a7880-e7ac-4e6a-a802-d0f574715c6b","ios":"levelo://app?vid=046a7880-e7ac-4e6a-a802-d0f574715c6b"},"vehicle_type_id":"4","last_reported":1751549056,"current_range_meters":18000,"station_id":"ce4bhr92rcd13ifvqhrg","pricing_plan_id":"cebpf4jnsgd1na2vs0mg"},{"bike_id":"36b6eec1-5603-4659-9dfa-05697c9ee354","system_id":"levelo_inurba_marseille","lat":43.23066,"lon":5.35501,"is_reserved":false,"is_disabled":false,"rental_uris":{"android":"levelo://app?vid=36b6eec1-5603-4659-9dfa-05697c9ee354","ios":"levelo://app?vid=36b6eec1-5603-4659-9dfa-05697c9ee354"},"vehicle_type_id":"4","last_reported":1751549056,"current_range_meters":18000,"station_id":"cpo3342slgdg3j2ifvpg","pricing_plan_id":"cebpf4jnsgd1na2vs0mg"},{"bike_id":"04e6c422-f573-4b46-85ae-d31c2fc5977b","system_id":"levelo_inurba_marseille","lat":43.24157,"lon":5.36392,"is_reserved":false,"is_disabled":false,"rental_uris":{"android":"levelo://app?vid=04e6c422-f573-4b46-85ae-d31c2fc5977b","ios":"levelo://app?vid=04e6c422-f573-4b46-85ae-d31c2fc5977b"},"vehicle_type_id":"4","last_reported":1751549056,"current_range_meters":18000,"station_id":"cpo36qri1sfpv3e86is0","pricing_plan_id":"cebpf4jnsgd1na2vs0mg"},{"bike_id":"83bbf632-529a-4b6b-b8d2-81366a01c9c0","system_id":"levelo_inurba_marseille","lat":43.30313,"lon":5.36891,"is_reserved":false,"is_disabled":false,"rental_uris":{"android":"levelo://app?vid=83bbf632-529a-4b6b-b8d2-81366a01c9c0","ios":"levelo://app?vid=83bbf632-529a-4b6b-b8d2-81366a01c9c0"},"vehicle_type_id":"4","last_reported":1751549056,"current_range_meters":18800,"station_id":"","pricing_plan_id":"cebpf4jnsgd1na2vs0mg"},{"bike_id":"cb68f024-4961-46ff-bedf-2745e26745e5","system_id":"levelo_inurba_marseille","lat":43.29613,"lon":5.3772,"is_reserved":false,"is_disabled":false,"rental_uris":{"android":"levelo://app?vid=cb68f024-4961-46ff-bedf-2745e26745e5","ios":"levelo://app?vid=cb68f024-4961-46ff-bedf-2745e26745e5"},"vehicle_type_id":"4","last_reported":1751549056,"current_range_meters":18800,"station_id":"ce4bgi92rcd13ifvqb90","pricing_plan_id":"cebpf4jnsgd1na2vs0mg"},{"bike_id":"e9d26c79-d78f-4002-bc79-c4aa63e66364","system_id":"levelo_inurba_marseille","lat":43.31185,"lon":5.38717,"is_reserved":false,"is_disabled":false,"rental_uris":{"android":"levelo://app?vid=e9d26c79-d78f-4002-bc79-c4aa63e66364","ios":"levelo://app?vid=e9d26c79-d78f-4002-bc79-c4aa63e66364"},"vehicle_type_id":"4","last_reported":1751549056,"current_range_meters":18800,"station_id":"ce4bgv12rcd13ifvqcp0","pricing_plan_id":"cebpf4jnsgd1na2vs0mg"},{"bike_id":"bc63b8a0-5ae3-49f8-995e-a8f756420d3e","system_id":"levelo_inurba_marseille","lat":43.30943,"lon":5.40161,"is_reserved":false,"is_disabled":false,"rental_uris":{"android":"levelo://app?vid=bc63b8a0-5ae3-49f8-995e-a8f756420d3e","ios":"levelo://app?vid=bc63b8a0-5ae3-49f8-995e-a8f756420d3e"},"vehicle_type_id":"4","last_reported":1751549056,"current_range_meters":18800,"station_id":"ce4bgvp2rcd13ifvqct0","pricing_plan_id":"cebpf4jnsgd1na2vs0mg"},{"bike_id":"1d428c7d-8f7c-497b-ae1f-c7c661923e5c","system_id":"levelo_inurba_marseille","lat":43.309288,"lon":5.401355,"is_reserved":false,"is_disabled":false,"rental_uris":{"android":"levelo://app?vid=1d428c7d-8f7c-497b-ae1f-c7c661923e5c","ios":"levelo://app?vid=1d428c7d-8f7c-497b-ae1f-c7c661923e5c"},"vehicle_type_id":"4","last_reported":1751549056,"current_range_meters":18800,"station_id":"ce4bgvp2rcd13ifvqct0","pricing_plan_id":"cebpf4jnsgd1na2vs0mg"},{"bike_id":"fb1d61c7-27cd-4e93-9bf3-cd8109f66519","system_id":"levelo_inurba_marseille","lat":43.28677,"lon":5.38657,"is_reserved":false,"is_disabled":false,"rental_uris":{"android":"levelo://app?vid=fb1d61c7-27cd-4e93-9bf3-cd8109f66519","ios":"levelo://app?vid=fb1d61c7-27cd-4e93-9bf3-cd8109f66519"},"vehicle_type_id":"4","last_reported":1751549056,"current_range_meters":18800,"station_id":"ce4bh492rcd13ifvqdug","pricing_plan_id":"cebpf4jnsgd1na2vs0mg"},{"bike_id":"a985f2f4-6a3b-46ba-a738-e84bc568026c","system_id":"levelo_inurba_marseille","lat":43.29099,"lon":5.38143,"is_reserved":false,"is_disabled":false,"rental_uris":{"android":"levelo://app?vid=a985f2f4-6a3b-46ba-a738-e84bc568026c","ios":"levelo://app?vid=a985f2f4-6a3b-46ba-a738-e84bc568026c"},"vehicle_type_id":"4","last_reported":1751549056,"current_range_meters":18800,"station_id":"ce4bh512rcd13ifvqe2g","pricing_plan_id":"cebpf4jnsgd1na2vs0mg"},{"bike_id":"df2ad5da-c9c7-4100-b825-8bb9694e84cb","system_id":"levelo_inurba_marseille","lat":43.26211,"lon":5.3744,"is_reserved":false,"is_disabled":false,"rental_uris":{"android":"levelo://app?vid=df2ad5da-c9c7-4100-b825-8bb9694e84cb","ios":"levelo://app?vid=df2ad5da-c9c7-4100-b825-8bb9694e84cb"},"vehicle_type_id":"4","last_reported":1751549056,"current_range_meters":18800,"station_id":"ce4bhgp2rcd13ifvqfc0","pricing_plan_id":"cebpf4jnsgd1na2vs0mg"},{"bike_id":"056af450-c844-4aa9-81ab-66d6390103b6","system_id":"levelo_inurba_marseille","lat":43.276745,"lon":5.388754,"is_reserved":false,"is_disabled":false,"rental_uris":{"android":"levelo://app?vid=056af450-c844-4aa9-81ab-66d6390103b6","ios":"levelo://app?vid=056af450-c844-4aa9-81ab-66d6390103b6"},"vehicle_type_id":"4","last_reported":1751549056,"current_range_meters":18800,"station_id":"ce4bhi12rcd13ifvqfo0","pricing_plan_id":"cebpf4jnsgd1na2vs0mg"},{"bike_id":"5e7c28ce-c1e0-45f8-9aa8-e38a3d89ec30","system_id":"levelo_inurba_marseille","lat":43.32539,"lon":5.41429,"is_reserved":false,"is_disabled":false,"rental_uris":{"android":"levelo://app?vid=5e7c28ce-c1e0-45f8-9aa8-e38a3d89ec30","ios":"levelo://app?vid=5e7c28ce-c1e0-45f8-9aa8-e38a3d89ec30"},"vehicle_type_id":"4","last_reported":1751549056,"current_range_meters":18800,"station_id":"ce4bhq12rcd13ifvqhhg","pricing_plan_id":"cebpf4jnsgd1na2vs0mg"},{"bike_id":"5ecbe7d9-b835-47e3-87d6-0fd67017673c","system_id":"levelo_inurba_marseille","lat":43.321112,"lon":5.367759,"is_reserved":false,"is_disabled":false,"rental_uris":{"android":"levelo://app?vid=5ecbe7d9-b835-47e3-87d6-0fd67017673c","ios":"levelo://app?vid=5ecbe7d9-b835-47e3-87d6-0fd67017673c"},"vehicle_type_id":"4","last_reported":1751549056,"current_range_meters":18800,"station_id":"ce4bhrh2rcd13ifvqhug","pricing_plan_id":"cebpf4jnsgd1na2vs0mg"},{"bike_id":"d3bdb41c-8b0a-446d-98af-e6de2988fc13","system_id":"levelo_inurba_marseille","lat":43.22508,"lon":5.34794,"is_reserved":false,"is_disabled":false,"rental_uris":{"android":"levelo://app?vid=d3bdb41c-8b0a-446d-98af-e6de2988fc13","ios":"levelo://app?vid=d3bdb41c-8b0a-446d-98af-e6de2988fc13"},"vehicle_type_id":"4","last_reported":1751549056,"current_range_meters":18800,"station_id":"st_cvj5dfep6f1abm77gieg","pricing_plan_id":"cebpf4jnsgd1na2vs0mg"},{"bike_id":"5f1e5526-9ff8-4075-8194-48a897f058b4","system_id":"levelo_inurba_marseille","lat":43.211994,"lon":5.350836,"is_reserved":false,"is_disabled":false,"rental_uris":{"android":"levelo://app?vid=5f1e5526-9ff8-4075-8194-48a897f058b4","ios":"levelo://app?vid=5f1e5526-9ff8-4075-8194-48a897f058b4"},"vehicle_type_id":"4","last_reported":1751549056,"current_range_meters":18800,"station_id":"st_cvj6sg6p6f1abm77japg","pricing_plan_id":"cebpf4jnsgd1na2vs0mg"},{"bike_id":"5ca573f7-adce-4e65-a0a5-8aecba433aef","system_id":"levelo_inurba_marseille","lat":43.30942,"lon":5.39093,"is_reserved":false,"is_disabled":false,"rental_uris":{"android":"levelo://app?vid=5ca573f7-adce-4e65-a0a5-8aecba433aef","ios":"levelo://app?vid=5ca573f7-adce-4e65-a0a5-8aecba433aef"},"vehicle_type_id":"4","last_reported":1751549056,"current_range_meters":19200,"station_id":"","pricing_plan_id":"cebpf4jnsgd1na2vs0mg"},{"bike_id":"e2912bb2-42ce-4656-919b-0339a703d5b5","system_id":"levelo_inurba_marseille","lat":43.29617,"lon":5.37713,"is_reserved":false,"is_disabled":false,"rental_uris":{"android":"levelo://app?vid=e2912bb2-42ce-4656-919b-0339a703d5b5","ios":"levelo://app?vid=e2912bb2-42ce-4656-919b-0339a703d5b5"},"vehicle_type_id":"4","last_reported":1751549056,"current_range_meters":19200,"station_id":"ce4bgi92rcd13ifvqb90","pricing_plan_id":"cebpf4jnsgd1na2vs0mg"},{"bike_id":"c60ed6a8-6c40-439d-a416-37da5c24c7cc","system_id":"levelo_inurba_marseille","lat":43.30605,"lon":5.3723,"is_reserved":false,"is_disabled":false,"rental_uris":{"android":"levelo://app?vid=c60ed6a8-6c40-439d-a416-37da5c24c7cc","ios":"levelo://app?vid=c60ed6a8-6c40-439d-a416-37da5c24c7cc"},"vehicle_type_id":"4","last_reported":1751549056,"current_range_meters":19200,"station_id":"ce4bgqh2rcd13ifvqc4g","pricing_plan_id":"cebpf4jnsgd1na2vs0mg"},{"bike_id":"4633dddb-5e37-408f-98f0-056572dc2cd0","system_id":"levelo_inurba_marseille","lat":43.30145,"lon":5.37418,"is_reserved":false,"is_disabled":false,"rental_uris":{"android":"levelo://app?vid=4633dddb-5e37-408f-98f0-056572dc2cd0","ios":"levelo://app?vid=4633dddb-5e37-408f-98f0-056572dc2cd0"},"vehicle_type_id":"4","last_reported":1751549056,"current_range_meters":19200,"station_id":"ce4bgs92rcd13ifvqcc0","pricing_plan_id":"cebpf4jnsgd1na2vs0mg"},{"bike_id":"03b2e043-1035-4c63-9aad-797b1fe9c288","system_id":"levelo_inurba_marseille","lat":43.289004,"lon":5.354113,"is_reserved":false,"is_disabled":false,"rental_uris":{"android":"levelo://app?vid=03b2e043-1035-4c63-9aad-797b1fe9c288","ios":"levelo://app?vid=03b2e043-1035-4c63-9aad-797b1fe9c288"},"vehicle_type_id":"4","last_reported":1751549056,"current_range_meters":19200,"station_id":"ce4bhbp2rcd13ifvqerg","pricing_plan_id":"cebpf4jnsgd1na2vs0mg"},{"bike_id":"32c0fc37-6823-41d0-9497-8d1eea24742c","system_id":"levelo_inurba_marseille","lat":43.241701,"lon":5.364011,"is_reserved":false,"is_disabled":false,"rental_uris":{"android":"levelo://app?vid=32c0fc37-6823-41d0-9497-8d1eea24742c","ios":"levelo://app?vid=32c0fc37-6823-41d0-9497-8d1eea24742c"},"vehicle_type_id":"4","last_reported":1751549056,"current_range_meters":19200,"station_id":"cpo36qri1sfpv3e86is0","pricing_plan_id":"cebpf4jnsgd1na2vs0mg"},{"bike_id":"ba926bfc-9632-4680-b0ed-32a040d6fb83","system_id":"levelo_inurba_marseille","lat":43.21753,"lon":5.34621,"is_reserved":false,"is_disabled":false,"rental_uris":{"android":"levelo://app?vid=ba926bfc-9632-4680-b0ed-32a040d6fb83","ios":"levelo://app?vid=ba926bfc-9632-4680-b0ed-32a040d6fb83"},"vehicle_type_id":"4","last_reported":1751549056,"current_range_meters":19200,"station_id":"st_cvj6r9ubvosntc0bgbag","pricing_plan_id":"cebpf4jnsgd1na2vs0mg"},{"bike_id":"b13877a6-4825-4d82-b46b-67fa8ad66c5d","system_id":"levelo_inurba_marseille","lat":43.21194,"lon":5.35076,"is_reserved":false,"is_disabled":false,"rental_uris":{"android":"levelo://app?vid=b13877a6-4825-4d82-b46b-67fa8ad66c5d","ios":"levelo://app?vid=b13877a6-4825-4d82-b46b-67fa8ad66c5d"},"vehicle_type_id":"4","last_reported":1751549056,"current_range_meters":19200,"station_id":"st_cvj6sg6p6f1abm77japg","pricing_plan_id":"cebpf4jnsgd1na2vs0mg"},{"bike_id":"7712491c-e18b-4b09-bb79-30880b357c07","system_id":"levelo_inurba_marseille","lat":43.21198,"lon":5.35081,"is_reserved":false,"is_disabled":false,"rental_uris":{"android":"levelo://app?vid=7712491c-e18b-4b09-bb79-30880b357c07","ios":"levelo://app?vid=7712491c-e18b-4b09-bb79-30880b357c07"},"vehicle_type_id":"4","last_reported":1751549056,"current_range_meters":19200,"station_id":"st_cvj6sg6p6f1abm77japg","pricing_plan_id":"cebpf4jnsgd1na2vs0mg"},{"bike_id":"8b3755fc-2284-401e-bc3a-14d8474e8e49","system_id":"levelo_inurba_marseille","lat":43.289559,"lon":5.383888,"is_reserved":false,"is_disabled":false,"rental_uris":{"android":"levelo://app?vid=8b3755fc-2284-401e-bc3a-14d8474e8e49","ios":"levelo://app?vid=8b3755fc-2284-401e-bc3a-14d8474e8e49"},"vehicle_type_id":"4","last_reported":1751549056,"current_range_meters":19600,"station_id":"","pricing_plan_id":"cebpf4jnsgd1na2vs0mg"},{"bike_id":"ee778d44-532f-4043-bb81-f83a2c6b4fb8","system_id":"levelo_inurba_marseille","lat":43.30151,"lon":5.38091,"is_reserved":false,"is_disabled":false,"rental_uris":{"android":"levelo://app?vid=ee778d44-532f-4043-bb81-f83a2c6b4fb8","ios":"levelo://app?vid=ee778d44-532f-4043-bb81-f83a2c6b4fb8"},"vehicle_type_id":"4","last_reported":1751549056,"current_range_meters":19600,"station_id":"ce4bgjp2rcd13ifvqbh0","pricing_plan_id":"cebpf4jnsgd1na2vs0mg"},