{"last_updated":1692540270,"ttl":30,"version":"2.2","data":{"bikes":[{"bike_id":"f22ca441-4e4e-4660-b824-b2f46943e54d","system_id":"levelo_inurba_marseille","lat":43.312239,"lon":5.368562,"is_reserved":false,"is_disabled":false,"rental_uris":{"android":"levelo://app?vid=f22ca441-4e4e-4660-b824-b2f46943e54d","ios":"levelo://app?vid=f22ca441-4e4e-4660-b824-b2f46943e54d"},"vehicle_type_id":"4","last_reported":1692540271,"current_range_meters":31200,"station_id":"ce4bgl92rcd13ifvqbq0","pricing_plan_id":"free"},{"bike_id":"2f361e1e-fca9-4f20-9612-09fd38e9dfe9","system_id":"levelo_inurba_marseille","lat":43.312239,"lon":5.368562,"is_reserved":false,"is_disabled":false,"rental_uris":{"android":"levelo://app?vid=2f361e1e-fca9-4f20-9612-09fd38e9dfe9","ios":"levelo://app?vid=2f361e1e-fca9-4f20-9612-09fd38e9dfe9"},"vehicle_type_id":"4","last_reported":1692540271,"current_range_meters":29600,"station_id":"ce4bgl92rcd13ifvqbq0","pricing_plan_id":"free"},{"bike_id":"0a2ead55-2676-40bc-861d-5f9c518bdb41","system_id":"levelo_inurba_marseille","lat":43.309076,"lon":5.368465,"is_reserved":false,"is_disabled":false,"rental_uris":{"android":"levelo://app?vid=0a2ead55-2676-40bc-861d-5f9c518bdb41","ios":"levelo://app?vid=0a2ead55-2676-40bc-861d-5f9c518bdb41"},"vehicle_type_id":"4","last_reported":1692540271,"current_range_meters":31200,"station_id":"ce4bgn92rcd13ifvqbvg","pricing_plan_id":"free"},{"bike_id":"5c7089d6-0553-43cb-802f-ae6b5dcc0d02","system_id":"levelo_inurba_marseille","lat":43.305712,"lon":5.365641,"is_reserved":false,"is_disabled":false,"rental_uris":{"android":"levelo://app?vid=5c7089d6-0553-43cb-802f-ae6b5dcc0d02","ios":"levelo://app?vid=5c7089d6-0553-43cb-802f-ae6b5dcc0d02"},"vehicle_type_id":"4","last_reported":1692540271,"current_range_meters":1600,"station_id":"ce4bgs12rcd13ifvqcag","pricing_plan_id":"free"},{"bike_id":"386ed8e3-b71e-4f68-86af-202c5b76503e","system_id":"levelo_inurba_marseille","lat":43.30539,"lon":5.36709,"is_reserved":false,"is_disabled":false,"rental_uris":{"android":"levelo://app?vid=386ed8e3-b71e-4f68-86af-202c5b76503e","ios":"levelo://app?vid=386ed8e3-b71e-4f68-86af-202c5b76503e"},"vehicle_type_id":"4","last_reported":1692540271,"current_range_meters":20000,"station_id":"ce4bgrp2rcd13ifvqc9g","pricing_plan_id":"free"},{"bike_id":"9fbe6e18-d192-44c2-98b5-cafb68b41aa4","system_id":"levelo_inurba_marseille","lat":43.3054,"lon":5.36538,"is_reserved":false,"is_disabled":false,"rental_uris":{"android":"levelo://app?vid=9fbe6e18-d192-44c2-98b5-cafb68b41aa4","ios":"levelo://app?vid=9fbe6e18-d192-44c2-98b5-cafb68b41aa4"},"vehicle_type_id":"4","last_reported":1692540271,"current_range_meters":6400,"station_id":"ce4bgs12rcd13ifvqcag","pricing_plan_id":"free"},{"bike_id":"84799fef-8148-4e39-9884-d41242461c8c","system_id":"levelo_inurba_marseille","lat":43.305989,"lon":5.37225,"is_reserved":false,"is_disabled":false,"rental_uris":{"android":"levelo://app?vid=84799fef-8148-4e39-9884-d41242461c8c","ios":"levelo://app?vid=84799fef-8148-4e39-9884-d41242461c8c"},"vehicle_type_id":"4","last_reported":1692540271,"current_range_meters":6800,"station_id":"ce4bgqh2rcd13ifvqc4g","pricing_plan_id":"free"},{"bike_id":"f777f920-10e5-4c32-89f9-a46d6c7e9793","system_id":"levelo_inurba_marseille","lat":43.307945,"lon":5.376487,"is_reserved":false,"is_disabled":false,"rental_uris":{"android":"levelo://app?vid=f777f920-10e5-4c32-89f9-a46d6c7e9793","ios":"levelo://app?vid=f777f920-10e5-4c32-89f9-a46d6c7e9793"},"vehicle_type_id":"4","last_reported":1692540271,"current_range_meters":18800,"station_id":"ce4bgv92rcd13ifvqcq0","pricing_plan_id":"free"},{"bike_id":"ae5a7781-65e8-4046-8346-407ccd6a1f01","system_id":"levelo_inurba_marseille","lat":43.315293,"lon":5.380349,"is_reserved":false,"is_disabled":false,"rental_uris":{"android":"levelo://app?vid=ae5a7781-65e8-4046-8346-407ccd6a1f01","ios":"levelo://app?vid=ae5a7781-65e8-4046-8346-407ccd6a1f01"},"vehicle_type_id":"4","last_reported":1692540271,"current_range_meters":20400,"station_id":"ce4bhsp2rcd13ifvqi50","pricing_plan_id":"free"},{"bike_id":"9e51e4a1-262d-431e-a251-430bb28e8092","system_id":"levelo_inurba_marseille","lat":43.301939,"lon":5.366286,"is_reserved":false,"is_disabled":false,"rental_uris":{"android":"levelo://app?vid=9e51e4a1-262d-431e-a251-430bb28e8092","ios":"levelo://app?vid=9e51e4a1-262d-431e-a251-430bb28e8092"},"vehicle_type_id":"4","last_reported":1692540271,"current_range_meters":22800,"station_id":"ce4bgrh2rcd13ifvqc8g","pricing_plan_id":"free"},{"bike_id":"3520665f-ba87-4c12-af34-e86939c7bb26","system_id":"levelo_inurba_marseille","lat":43.304606,"lon":5.379026,"is_reserved":false,"is_disabled":false,"rental_uris":{"android":"levelo://app?vid=3520665f-ba87-4c12-af34-e86939c7bb26","ios":"levelo://app?vid=3520665f-ba87-4c12-af34-e86939c7bb26"},"vehicle_type_id":"4","last_reported":1692540271,"current_range_meters":11200,"station_id":"ce4bgup2rcd13ifvqcn0","pricing_plan_id":"free"},{"bike_id":"2cedacc6-bc05-461d-adbd-648851af497a","system_id":"levelo_inurba_marseille","lat":43.298433,"lon":5.362774,"is_reserved":false,"is_disabled":false,"rental_uris":{"android":"levelo://app?vid=2cedacc6-bc05-461d-adbd-648851af497a","ios":"levelo://app?vid=2cedacc6-bc05-461d-adbd-648851af497a"},"vehicle_type_id":"4","last_reported":1692540271,"current_range_meters":29600,"station_id":"ce4bgpp2rcd13ifvqc3g","pricing_plan_id":"free"},{"bike_id":"2a47a5b9-b779-4127-a4c1-7daf3cad2085","system_id":"levelo_inurba_marseille","lat":43.311722,"lon":5.387247,"is_reserved":false,"is_disabled":false,"rental_uris":{"android":"levelo://app?vid=2a47a5b9-b779-4127-a4c1-7daf3cad2085","ios":"levelo://app?vid=2a47a5b9-b779-4127-a4c1-7daf3cad2085"},"vehicle_type_id":"4","last_reported":1692540271,"current_range_meters":27200,"station_id":"ce4bgv12rcd13ifvqcp0","pricing_plan_id":"free"},{"bike_id":"b885f463-e8c5-42cc-902f-7152167ce1c7","system_id":"levelo_inurba_marseille","lat":43.299243,"lon":5.374807,"is_reserved":false,"is_disabled":false,"rental_uris":{"android":"levelo://app?vid=b885f463-e8c5-42cc-902f-7152167ce1c7","ios":"levelo://app?vid=b885f463-e8c5-42cc-902f-7152167ce1c7"},"vehicle_type_id":"4","last_reported":1692540271,"current_range_meters":31200,"station_id":"ce4bgjh2rcd13ifvqbg0","pricing_plan_id":"free"},{"bike_id":"7bd2a3e8-c4c3-4b57-a9a0-26b0eabf5cde","system_id":"levelo_inurba_marseille","lat":43.311722,"lon":5.387247,"is_reserved":false,"is_disabled":false,"rental_uris":{"android":"levelo://app?vid=7bd2a3e8-c4c3-4b57-a9a0-26b0eabf5cde","ios":"levelo://app?vid=7bd2a3e8-c4c3-4b57-a9a0-26b0eabf5cde"},"vehicle_type_id":"4","last_reported":1692540271,"current_range_meters":24000,"station_id":"ce4bgv12rcd13ifvqcp0","pricing_plan_id":"free"},{"bike_id":"16e300b5-8561-4df5-99f4-557bccfd0912","system_id":"levelo_inurba_marseille","lat":43.311722,"lon":5.387247,"is_reserved":false,"is_disabled":false,"rental_uris":{"android":"levelo://app?vid=16e300b5-8561-4df5-99f4-557bccfd0912","ios":"levelo://app?vid=16e300b5-8561-4df5-99f4-557bccfd0912"},"vehicle_type_id":"4","last_reported":1692540271,"current_range_meters":18400,"station_id":"ce4bgv12rcd13ifvqcp0","pricing_plan_id":"free"},{"bike_id":"37653408-c6e7-4532-b69d-734366b510c8","system_id":"levelo_inurba_marseille","lat":43.311722,"lon":5.387247,"is_reserved":false,"is_disabled":false,"rental_uris":{"android":"levelo://app?vid=37653408-c6e7-4532-b69d-734366b510c8","ios":"levelo://app?vid=37653408-c6e7-4532-b69d-734366b510c8"},"vehicle_type_id":"4","last_reported":1692540271,"current_range_meters":31200,"station_id":"ce4bgv12rcd13ifvqcp0","pricing_plan_id":"free"},{"bike_id":"14e639ba-5281-4a54-88d7-56fdc55cc10e","system_id":"levelo_inurba_marseille","lat":43.311722,"lon":5.387247,"is_reserved":false,"is_disabled":false,"rental_uris":{"android":"levelo://app?vid=14e639ba-5281-4a54-88d7-56fdc55cc10e","ios":"levelo://app?vid=14e639ba-5281-4a54-88d7-56fdc55cc10e"},"vehicle_type_id":"4","last_reported":1692540271,"current_range_meters":31200,"station_id":"ce4bgv12rcd13ifvqcp0","pricing_plan_id":"free"},{"bike_id":"a1f7b084-f437-4e0c-8b20-334f54c48d59","system_id":"levelo_inurba_marseille","lat":43.32289,"lon":5.38267,"is_reserved":false,"is_disabled":false,"rental_uris":{"android":"levelo://app?vid=a1f7b084-f437-4e0c-8b20-334f54c48d59","ios":"levelo://app?vid=a1f7b084-f437-4e0c-8b20-334f54c48d59"},"vehicle_type_id":"4","last_reported":1692540271,"current_range_meters":14000,"station_id":"ce4bhr12rcd13ifvqhqg","pricing_plan_id":"free"},{"bike_id":"5b5c8cae-b425-4976-9ba8-5ae205664d6b","system_id":"levelo_inurba_marseille","lat":43.32291,"lon":5.38265,"is_reserved":false,"is_disabled":false,"rental_uris":{"android":"levelo://app?vid=5b5c8cae-b425-4976-9ba8-5ae205664d6b","ios":"levelo://app?vid=5b5c8cae-b425-4976-9ba8-5ae205664d6b"},"vehicle_type_id":"4","last_reported":1692540271,"current_range_meters":14000,"station_id":"ce4bhr12rcd13ifvqhqg","pricing_plan_id":"free"},{"bike_id":"4b1e5a15-508d-4fb7-a8a2-bcc30db12d85","system_id":"levelo_inurba_marseille","lat":43.32297,"lon":5.38259,"is_reserved":false,"is_disabled":false,"rental_uris":{"android":"levelo://app?vid=4b1e5a15-508d-4fb7-a8a2-bcc30db12d85","ios":"levelo://app?vid=4b1e5a15-508d-4fb7-a8a2-bcc30db12d85"},"vehicle_type_id":"4","last_reported":1692540271,"current_range_meters":11200,"station_id":"ce4bhr12rcd13ifvqhqg","pricing_plan_id":"free"},{"bike_id":"110bd150-ae2d-4085-890c-a8f4481980e0","system_id":"levelo_inurba_marseille","lat":43.32291,"lon":5.38275,"is_reserved":false,"is_disabled":false,"rental_uris":{"android":"levelo://app?vid=110bd150-ae2d-4085-890c-a8f4481980e0","ios":"levelo://app?vid=110bd150-ae2d-4085-890c-a8f4481980e0"},"vehicle_type_id":"4","last_reported":1692540271,"current_range_meters":25600,"station_id":"ce4bhr12rcd13ifvqhqg","pricing_plan_id":"free"},{"bike_id":"b9784bc4-a1f4-4e7b-a996-3746dcc4c656","system_id":"levelo_inurba_marseille","lat":43.32295,"lon":5.38274,"is_reserved":false,"is_disabled":false,"rental_uris":{"android":"levelo://app?vid=b9784bc4-a1f4-4e7b-a996-3746dcc4c656","ios":"levelo://app?vid=b9784bc4-a1f4-4e7b-a996-3746dcc4c656"},"vehicle_type_id":"4","last_reported":1692540271,"current_range_meters":5600,"station_id":"ce4bhr12rcd13ifvqhqg","pricing_plan_id":"free"},{"bike_id":"0f135836-946e-4e91-9b15-72b385cbdf04","system_id":"levelo_inurba_marseille","lat":43.328371,"lon":5.366909,"is_reserved":false,"is_disabled":false,"rental_uris":{"android":"levelo://app?vid=0f135836-946e-4e91-9b15-72b385cbdf04","ios":"levelo://app?vid=0f135836-946e-4e91-9b15-72b385cbdf04"},"vehicle_type_id":"4","last_reported":1692540271,"current_range_meters":29200,"station_id":"ce4bhs92rcd13ifvqi0g","pricing_plan_id":"free"},{"bike_id":"2ab2c619-9cfb-4da7-9f78-cfb4995f9eec","system_id":"levelo_inurba_marseille","lat":43.32825,"lon":5.36679,"is_reserved":false,"is_disabled":false,"rental_uris":{"android":"levelo://app?vid=2ab2c619-9cfb-4da7-9f78-cfb4995f9eec","ios":"levelo://app?vid=2ab2c619-9cfb-4da7-9f78-cfb4995f9eec"},"vehicle_type_id":"4","last_reported":1692540271,"current_range_meters":3600,"station_id":"ce4bhs92rcd13ifvqi0g","pricing_plan_id":"free"},{"bike_id":"cb6c408c-56b3-4aaa-8904-aaf9a843fb9a","system_id":"levelo_inurba_marseille","lat":43.3283,"lon":5.36674,"is_reserved":false,"is_disabled":false,"rental_uris":{"android":"levelo://app?vid=cb6c408c-56b3-4aaa-8904-aaf9a843fb9a","ios":"levelo://app?vid=cb6c408c-56b3-4aaa-8904-aaf9a843fb9a"},"vehicle_type_id":"4","last_reported":1692540271,"current_range_meters":19200,"station_id":"ce4bhs92rcd13ifvqi0g","pricing_plan_id":"free"},{"bike_id":"8789418c-5fcb-45bc-8570-a5a919b55c11","system_id":"levelo_inurba_marseille","lat":43.32832,"lon":5.36678,"is_reserved":false,"is_disabled":false,"rental_uris":{"android":"levelo://app?vid=8789418c-5fcb-45bc-8570-a5a919b55c11","ios":"levelo://app?vid=8789418c-5fcb-45bc-8570-a5a919b55c11"},"vehicle_type_id":"4","last_reported":1692540271,"current_range_meters":9200,"station_id":"ce4bhs92rcd13ifvqi0g","pricing_plan_id":"free"},{"bike_id":"dd789220-e7b5-42c1-b9dc-dc4243148021","system_id":"levelo_inurba_marseille","lat":43.297163,"lon":5.365866,"is_reserved":false,"is_disabled":false,"rental_uris":{"android":"levelo://app?vid=dd789220-e7b5-42c1-b9dc-dc4243148021","ios":"levelo://app?vid=dd789220-e7b5-42c1-b9dc-dc4243148021"},"vehicle_type_id":"4","last_reported":1692540271,"current_range_meters":31200,"station_id":"ce4bgn12rcd13ifvqbt0","pricing_plan_id":"free"},{"bike_id":"8d62a8d8-7c3b-4dc1-b2cc-fae7f39be987","system_id":"levelo_inurba_marseille","lat":43.32834,"lon":5.3669,"is_reserved":false,"is_disabled":false,"rental_uris":{"android":"levelo://app?vid=8d62a8d8-7c3b-4dc1-b2cc-fae7f39be987","ios":"levelo://app?vid=8d62a8d8-7c3b-4dc1-b2cc-fae7f39be987"},"vehicle_type_id":"4","last_reported":1692540271,"current_range_meters":21600,"station_id":"ce4bhs92rcd13ifvqi0g","pricing_plan_id":"free"},{"bike_id":"6f72f044-334d-4fd4-88e3-3fadd7c929f8","system_id":"levelo_inurba_marseille","lat":43.32835,"lon":5.36683,"is_reserved":false,"is_disabled":false,"rental_uris":{"android":"levelo://app?vid=6f72f044-334d-4fd4-88e3-3fadd7c929f8","ios":"levelo://app?vid=6f72f044-334d-4fd4-88e3-3fadd7c929f8"},"vehicle_type_id":"4","last_reported":1692540271,"current_range_meters":11200,"station_id":"ce4bhs92rcd13ifvqi0g","pricing_plan_id":"free"},{"bike_id":"2f158e3f-3dc1-4e9f-959d-b1e36676910a","system_id":"levelo_inurba_marseille","lat":43.32794,"lon":5.37411,"is_reserved":false,"is_disabled":false,"rental_uris":{"android":"levelo://app?vid=2f158e3f-3dc1-4e9f-959d-b1e36676910a","ios":"levelo://app?vid=2f158e3f-3dc1-4e9f-959d-b1e36676910a"},"vehicle_type_id":"4","last_reported":1692540271,"current_range_meters":30400,"station_id":"","pricing_plan_id":"free"},{"bike_id":"2241bce1-ebf9-4d91-b7e5-fe08a6544f42","system_id":"levelo_inurba_marseille","lat":43.32794,"lon":5.37414,"is_reserved":false,"is_disabled":false,"rental_uris":{"android":"levelo://app?vid=2241bce1-ebf9-4d91-b7e5-fe08a6544f42","ios":"levelo://app?vid=2241bce1-ebf9-4d91-b7e5-fe08a6544f42"},"vehicle_type_id":"4","last_reported":1692540271,"current_range_meters":30400,"station_id":"","pricing_plan_id":"free"},{"bike_id":"bb155e93-116e-494a-9911-2df351c7dae8","system_id":"levelo_inurba_marseille","lat":43.296131,"lon":5.370773,"is_reserved":false,"is_disabled":false,"rental_uris":{"android":"levelo://app?vid=bb155e93-116e-494a-9911-2df351c7dae8","ios":"levelo://app?vid=bb155e93-116e-494a-9911-2df351c7dae8"},"vehicle_type_id":"4","last_reported":1692540271,"current_range_meters":28400,"station_id":"ce4bgnh2rcd13ifvqc0g","pricing_plan_id":"free"},{"bike_id":"d3139180-8ba9-4c91-b6e4-8baae3c22113","system_id":"levelo_inurba_marseille","lat":43.29609,"lon":5.37191,"is_reserved":false,"is_disabled":false,"rental_uris":{"android":"levelo://app?vid=d3139180-8ba9-4c91-b6e4-8baae3c22113","ios":"levelo://app?vid=d3139180-8ba9-4c91-b6e4-8baae3c22113"},"vehicle_type_id":"4","last_reported":1692540271,"current_range_meters":30000,"station_id":"","pricing_plan_id":"free"},{"bike_id":"64116388-432a-4f44-8456-cbcb7933bf65","system_id":"levelo_inurba_marseille","lat":43.309589,"lon":5.390258,"is_reserved":false,"is_disabled":false,"rental_uris":{"android":"levelo://app?vid=64116388-432a-4f44-8456-cbcb7933bf65","ios":"levelo://app?vid=64116388-432a-4f44-8456-cbcb7933bf65"},"vehicle_type_id":"4","last_reported":1692540271,"current_range_meters":24000,"station_id":"ce4bgup2rcd13ifvqco0","pricing_plan_id":"free"},{"bike_id":"a4df99ce-0488-49dd-a888-94686f562e88","system_id":"levelo_inurba_marseille","lat":43.295748,"lon":5.37522,"is_reserved":false,"is_disabled":false,"rental_uris":{"android":"levelo://app?vid=a4df99ce-0488-49dd-a888-94686f562e88","ios":"levelo://app?vid=a4df99ce-0488-49dd-a888-94686f562e88"},"vehicle_type_id":"4","last_reported":1692540271,"current_range_meters":29200,"station_id":"ce4bgh92rcd13ifvqb50","pricing_plan_id":"free"},{"bike_id":"35e31da0-acdd-4db1-910d-c04098784b7a","system_id":"levelo_inurba_marseille","lat":43.304274,"lon":5.388873,"is_reserved":false,"is_disabled":false,"rental_uris":{"android":"levelo://app?vid=35e31da0-acdd-4db1-910d-c04098784b7a","ios":"levelo://app?vid=35e31da0-acdd-4db1-910d-c04098784b7a"},"vehicle_type_id":"4","last_reported":1692540271,"current_range_meters":16400,"station_id":"ce4bgk12rcd13ifvqbi0","pricing_plan_id":"free"},{"bike_id":"443e88db-798b-419c-ba5f-436c3b88976f","system_id":"levelo_inurba_marseille","lat":43.299724,"lon":5.384848,"is_reserved":false,"is_disabled":false,"rental_uris":{"android":"levelo://app?vid=443e88db-798b-419c-ba5f-436c3b88976f","ios":"levelo://app?vid=443e88db-798b-419c-ba5f-436c3b88976f"},"vehicle_type_id":"4","last_reported":1692540271,"current_range_meters":13600,"station_id":"ce4bgj92rcd13ifvqbd0","pricing_plan_id":"free"},{"bike_id":"23d61178-fcaa-4ba4-aee4-746c25e5b4bf","system_id":"levelo_inurba_marseille","lat":43.33082,"lon":5.37465,"is_reserved":false,"is_disabled":false,"rental_uris":{"android":"levelo://app?vid=23d61178-fcaa-4ba4-aee4-746c25e5b4bf","ios":"levelo://app?vid=23d61178-fcaa-4ba4-aee4-746c25e5b4bf"},"vehicle_type_id":"4","last_reported":1692540271,"current_range_meters":25600,"station_id":"","pricing_plan_id":"free"},{"bike_id":"00883cd9-a56a-4720-bb55-237d0136a4a1","system_id":"levelo_inurba_marseille","lat":43.32367,"lon":5.388836,"is_reserved":false,"is_disabled":false,"rental_uris":{"android":"levelo://app?vid=00883cd9-a56a-4720-bb55-237d0136a4a1","ios":"levelo://app?vid=00883cd9-a56a-4720-bb55-237d0136a4a1"},"vehicle_type_id":"4","last_reported":1692540271,"current_range_meters":22400,"station_id":"ce4bhqp2rcd13ifvqhog","pricing_plan_id":"free"},{"bike_id":"85236cd1-d49b-4aab-9470-0b6612b4cfce","system_id":"levelo_inurba_marseille","lat":43.32364,"lon":5.38876,"is_reserved":false,"is_disabled":false,"rental_uris":{"android":"levelo://app?vid=85236cd1-d49b-4aab-9470-0b6612b4cfce","ios":"levelo://app?vid=85236cd1-d49b-4aab-9470-0b6612b4cfce"},"vehicle_type_id":"4","last_reported":1692540271,"current_range_meters":23200,"station_id":"ce4bhqp2rcd13ifvqhog","pricing_plan_id":"free"},{"bike_id":"671eafe7-c5cf-4a41-bd64-c9c5a48b0742","system_id":"levelo_inurba_marseille","lat":43.32366,"lon":5.38877,"is_reserved":false,"is_disabled":false,"rental_uris":{"android":"levelo://app?vid=671eafe7-c5cf-4a41-bd64-c9c5a48b0742","ios":"levelo://app?vid=671eafe7-c5cf-4a41-bd64-c9c5a48b0742"},"vehicle_type_id":"4","last_reported":1692540271,"current_range_meters":30400,"station_id":"ce4bhqp2rcd13ifvqhog","pricing_plan_id":"free"},{"bike_id":"e15ef0a5-8186-4707-84b8-fc141a9cf97b","system_id":"levelo_inurba_marseille","lat":43.32366,"lon":5.38879,"is_reserved":false,"is_disabled":false,"rental_uris":{"android":"levelo://app?vid=e15ef0a5-8186-4707-84b8-fc141a9cf97b","ios":"levelo://app?vid=e15ef0a5-8186-4707-84b8-fc141a9cf97b"},"vehicle_type_id":"4","last_reported":1692540271,"current_range_meters":21600,"station_id":"ce4bhqp2rcd13ifvqhog","pricing_plan_id":"free"},{"bike_id":"1c89dc2a-28b0-491f-bfd7-0dbe14155f7d","system_id":"levelo_inurba_marseille","lat":43.32363,"lon":5.38883,"is_reserved":false,"is_disabled":false,"rental_uris":{"android":"levelo://app?vid=1c89dc2a-28b0-491f-bfd7-0dbe14155f7d","ios":"levelo://app?vid=1c89dc2a-28b0-491f-bfd7-0dbe14155f7d"},"vehicle_type_id":"4","last_reported":1692540271,"current_range_meters":28800,"station_id":"ce4bhqp2rcd13ifvqhog","pricing_plan_id":"free"},{"bike_id":"7c710cc9-19ca-45ca-a52e-f81159a89b49","system_id":"levelo_inurba_marseille","lat":43.32367,"lon":5.388836,"is_reserved":false,"is_disabled":false,"rental_uris":{"android":"levelo://app?vid=7c710cc9-19ca-45ca-a52e-f81159a89b49","ios":"levelo://app?vid=7c710cc9-19ca-45ca-a52e-f81159a89b49"},"vehicle_type_id":"4","last_reported":1692540271,"current_range_meters":15200,"station_id":"ce4bhqp2rcd13ifvqhog","pricing_plan_id":"free"},{"bike_id":"3c99606a-cfd1-4b08-a5da-392aa4b30abe","system_id":"levelo_inurba_marseille","lat":43.32367,"lon":5.38881,"is_reserved":false,"is_disabled":false,"rental_uris":{"android":"levelo://app?vid=3c99606a-cfd1-4b08-a5da-392aa4b30abe","ios":"levelo://app?vid=3c99606a-cfd1-4b08-a5da-392aa4b30abe"},"vehicle_type_id":"4","last_reported":1692540271,"current_range_meters":18800,"station_id":"","pricing_plan_id":"free"},{"bike_id":"2d15ae2a-1f08-4d8f-a1e2-dad55546eb97","system_id":"levelo_inurba_marseille","lat":43.32359,"lon":5.38891,"is_reserved":false,"is_disabled":false,"rental_uris":{"android":"levelo://app?vid=2d15ae2a-1f08-4d8f-a1e2-dad55546eb97","ios":"levelo://app?vid=2d15ae2a-1f08-4d8f-a1e2-dad55546eb97"},"vehicle_type_id":"4","last_reported":1692540271,"current_range_meters":19200,"station_id":"ce4bhqp2rcd13ifvqhog","pricing_plan_id":"free"},{"bike_id":"618b5c07-76c5-4e33-9eea-d8cf240b56ea","system_id":"levelo_inurba_marseille","lat":43.3237,"lon":5.38881,"is_reserved":false,"is_disabled":false,"rental_uris":{"android":"levelo://app?vid=618b5c07-76c5-4e33-9eea-d8cf240b56ea","ios":"levelo://app?vid=618b5c07-76c5-4e33-9eea-d8cf240b56ea"},"vehicle_type_id":"4","last_reported":1692540271,"current_range_meters":24800,"station_id":"ce4bhqp2rcd13ifvqhog","pricing_plan_id":"free"},{"bike_id":"6b6cba89-d2b8-44bb-8454-5df08cf65f67","system_id":"levelo_inurba_marseille","lat":43.32366,"lon":5.38886,"is_reserved":false,"is_disabled":false,"rental_uris":{"android":"levelo://app?vid=6b6cba89-d2b8-44bb-8454-5df08cf65f67","ios":"levelo://app?vid=6b6cba89-d2b8-44bb-8454-5df08cf65f67"},"vehicle_type_id":"4","last_reported":1692540271,"current_range_meters":8400,"station_id":"ce4bhqp2rcd13ifvqhog","pricing_plan_id":"free"},{"bike_id":"38fef587-7cc5-4800-b069-87b8f296a10a","system_id":"levelo_inurba_marseille","lat":43.293009,"lon":5.374584,"is_reserved":false,"is_disabled":false,"rental_uris":{"android":"levelo://app?vid=38fef587-7cc5-4800-b069-87b8f296a10a","ios":"levelo://app?vid=38fef587-7cc5-4800-b069-87b8f296a10a"},"vehicle_type_id":"4","last_reported":1692540271,"current_range_meters":31200,"station_id":"ce4bgi12rcd13ifvqb70","pricing_plan_id":"free"},{"bike_id":"0724f352-a262-45b7-9b71-9a09ff17d945","system_id":"levelo_inurba_marseille","lat":43.303002,"lon":5.392142,"is_reserved":false,"is_disabled":false,"rental_uris":{"android":"levelo://app?vid=0724f352-a262-45b7-9b71-9a09ff17d945","ios":"levelo://app?vid=0724f352-a262-45b7-9b71-9a09ff17d945"},"vehicle_type_id":"4","last_reported":1692540271,"current_range_meters":20000,"station_id":"ce4bgkh2rcd13ifvqbk0","pricing_plan_id":"free"},{"bike_id":"4ac39933-f5fd-448b-be99-22da92a73644","system_id":"levelo_inurba_marseille","lat":43.29529,"lon":5.385581,"is_reserved":false,"is_disabled":false,"rental_uris":{"android":"levelo://app?vid=4ac39933-f5fd-448b-be99-22da92a73644","ios":"levelo://app?vid=4ac39933-f5fd-448b-be99-22da92a73644"},"vehicle_type_id":"4","last_reported":1692540271,"current_range_meters":18400,"station_id":"ce4bgih2rcd13ifvqba0","pricing_plan_id":"free"},{"bike_id":"f29ed9f1-0532-4d20-908d-bf80e7b1edf9","system_id":"levelo_inurba_marseille","lat":43.291675,"lon":5.371583,"is_reserved":false,"is_disabled":false,"rental_uris":{"android":"levelo://app?vid=f29ed9f1-0532-4d20-908d-bf80e7b1edf9","ios":"levelo://app?vid=f29ed9f1-0532-4d20-908d-bf80e7b1edf9"},"vehicle_type_id":"4","last_reported":1692540271,"current_range_meters":16400,"station_id":"ce4bha92rcd13ifvqeh0","pricing_plan_id":"free"},{"bike_id":"a81bce0b-0cb9-469e-9bce-2af234e54ac5","system_id":"levelo_inurba_marseille","lat":43.291994,"lon":5.357886,"is_reserved":false,"is_disabled":false,"rental_uris":{"android":"levelo://app?vid=a81bce0b-0cb9-469e-9bce-2af234e54ac5","ios":"levelo://app?vid=a81bce0b-0cb9-469e-9bce-2af234e54ac5"},"vehicle_type_id":"4","last_reported":1692540271,"current_range_meters":16800,"station_id":"ce4bhb12rcd13ifvqel0","pricing_plan_id":"free"},{"bike_id":"9654d887-3d45-45c8-94b3-fec54cefb4cf","system_id":"levelo_inurba_marseille","lat":43.31327,"lon":5.39694,"is_reserved":false,"is_disabled":false,"rental_uris":{"android":"levelo://app?vid=9654d887-3d45-45c8-94b3-fec54cefb4cf","ios":"levelo://app?vid=9654d887-3d45-45c8-94b3-fec54cefb4cf"},"vehicle_type_id":"4","last_reported":1692540271,"current_range_meters":5600,"station_id":"ce4bgvp2rcd13ifvqcu0","pricing_plan_id":"free"},{"bike_id":"bf5a00a5-f100-4e5e-9965-2bb93ebed735","system_id":"levelo_inurba_marseille","lat":43.291896,"lon":5.357678,"is_reserved":false,"is_disabled":false,"rental_uris":{"android":"levelo://app?vid=bf5a00a5-f100-4e5e-9965-2bb93ebed735","ios":"levelo://app?vid=bf5a00a5-f100-4e5e-9965-2bb93ebed735"},"vehicle_type_id":"4","last_reported":1692540271,"current_range_meters":21200,"station_id":"","pricing_plan_id":"free"},{"bike_id":"237f6e58-bb3c-4edb-b86d-8d9719628ca4","system_id":"levelo_inurba_marseille","lat":43.29411,"lon":5.38628,"is_reserved":false,"is_disabled":false,"rental_uris":{"android":"levelo://app?vid=237f6e58-bb3c-4edb-b86d-8d9719628ca4","ios":"levelo://app?vid=237f6e58-bb3c-4edb-b86d-8d9719628ca4"},"vehicle_type_id":"4","last_reported":1692540271,"current_range_meters":25600,"station_id":"ce4bh2h2rcd13ifvqdh0","pricing_plan_id":"free"},{"bike_id":"70576a93-fbdb-4696-908e-c08c0f1995f8","system_id":"levelo_inurba_marseille","lat":43.33045,"lon":5.38908,"is_reserved":false,"is_disabled":false,"rental_uris":{"android":"levelo://app?vid=70576a93-fbdb-4696-908e-c08c0f1995f8","ios":"levelo://app?vid=70576a93-fbdb-4696-908e-c08c0f1995f8"},"vehicle_type_id":"4","last_reported":1692540271,"current_range_meters":23200,"station_id":"ce4bhr92rcd13ifvqhrg","pricing_plan_id":"free"},{"bike_id":"f7005a11-f4b8-40eb-a1e9-6d3833ad8114","system_id":"levelo_inurba_marseille","lat":43.33038,"lon":5.38919,"is_reserved":false,"is_disabled":false,"rental_uris":{"android":"levelo://app?vid=f7005a11-f4b8-40eb-a1e9-6d3833ad8114","ios":"levelo://app?vid=f7005a11-f4b8-40eb-a1e9-6d3833ad8114"},"vehicle_type_id":"4","last_reported":1692540271,"current_range_meters":26800,"station_id":"ce4bhr92rcd13ifvqhrg","pricing_plan_id":"free"},{"bike_id":"5036c72a-6252-47f4-a9fb-50fd514d506a","system_id":"levelo_inurba_marseille","lat":43.33039,"lon":5.38918,"is_reserved":false,"is_disabled":false,"rental_uris":{"android":"levelo://app?vid=5036c72a-6252-47f4-a9fb-50fd514d506a","ios":"levelo://app?vid=5036c72a-6252-47f4-a9fb-50fd514d506a"},"vehicle_type_id":"4","last_reported":1692540271,"current_range_meters":20000,"station_id":"ce4bhr92rcd13ifvqhrg","pricing_plan_id":"free"},{"bike_id":"331b6e0a-8cfc-4305-9eef-0266cde03da7","system_id":"levelo_inurba_marseille","lat":43.3304,"lon":5.38921,"is_reserved":false,"is_disabled":false,"rental_uris":{"android":"levelo://app?vid=331b6e0a-8cfc-4305-9eef-0266cde03da7","ios":"levelo://app?vid=331b6e0a-8cfc-4305-9eef-0266cde03da7"},"vehicle_type_id":"4","last_reported":1692540271,"current_range_meters":12800,"station_id":"ce4bhr92rcd13ifvqhrg","pricing_plan_id":"free"},{"bike_id":"de450cac-4370-4660-9455-3e94463307a2","system_id":"levelo_inurba_marseille","lat":43.3304,"lon":5.38922,"is_reserved":false,"is_disabled":false,"rental_uris":{"android":"levelo://app?vid=de450cac-4370-4660-9455-3e94463307a2","ios":"levelo://app?vid=de450cac-4370-4660-9455-3e94463307a2"},"vehicle_type_id":"4","last_reported":1692540271,"current_range_meters":14800,"station_id":"ce4bhr92rcd13ifvqhrg","pricing_plan_id":"free"},{"bike_id":"a5d7998c-4c76-4390-bbcf-8c2a2abd7eba","system_id":"levelo_inurba_marseille","lat":43.3304,"lon":5.38923,"is_reserved":false,"is_disabled":false,"rental_uris":{"android":"levelo://app?vid=a5d7998c-4c76-4390-bbcf-8c2a2abd7eba","ios":"levelo://app?vid=a5d7998c-4c76-4390-bbcf-8c2a2abd7eba"},"vehicle_type_id":"4","last_reported":1692540271,"current_range_meters":28800,"station_id":"ce4bhr92rcd13ifvqhrg","pricing_plan_id":"free"},{"bike_id":"c8619c93-5f6a-45f4-8e07-c81fcc1e21be","system_id":"levelo_inurba_marseille","lat":43.33044,"lon":5.38919,"is_reserved":false,"is_disabled":false,"rental_uris":{"android":"levelo://app?vid=c8619c93-5f6a-45f4-8e07-c81fcc1e21be","ios":"levelo://app?vid=c8619c93-5f6a-45f4-8e07-c81fcc1e21be"},"vehicle_type_id":"4","last_reported":1692540271,"current_range_meters":24000,"station_id":"ce4bhr92rcd13ifvqhrg","pricing_plan_id":"free"},{"bike_id":"86eac789-1e56-496d-abfa-705e29d378c7","system_id":"levelo_inurba_marseille","lat":43.33043,"lon":5.38921,"is_reserved":false,"is_disabled":false,"rental_uris":{"android":"levelo://app?vid=86eac789-1e56-496d-abfa-705e29d378c7","ios":"levelo://app?vid=86eac789-1e56-496d-abfa-705e29d378c7"},"vehicle_type_id":"4","last_reported":1692540271,"current_range_meters":27200,"station_id":"ce4bhr92rcd13ifvqhrg","pricing_plan_id":"free"},{"bike_id":"7d19a255-9f7a-4d0e-beba-2bfebb3c7b5e","system_id":"levelo_inurba_marseille","lat":43.33045,"lon":5.38918,"is_reserved":false,"is_disabled":false,"rental_uris":{"android":"levelo://app?vid=7d19a255-9f7a-4d0e-beba-2bfebb3c7b5e","ios":"levelo://app?vid=7d19a255-9f7a-4d0e-beba-2bfebb3c7b5e"},"vehicle_type_id":"4","last_reported":1692540271,"current_range_meters":19600,"station_id":"ce4bhr92rcd13ifvqhrg","pricing_plan_id":"free"},{"bike_id":"d2b15eb2-4474-4e56-aace-fe335ab0092e","system_id":"levelo_inurba_marseille","lat":43.33039,"lon":5.38927,"is_reserved":false,"is_disabled":false,"rental_uris":{"android":"levelo://app?vid=d2b15eb2-4474-4e56-aace-fe335ab0092e","ios":"levelo://app?vid=d2b15eb2-4474-4e56-aace-fe335ab0092e"},"vehicle_type_id":"4","last_reported":1692540271,"current_range_meters":12400,"station_id":"ce4bhr92rcd13ifvqhrg","pricing_plan_id":"free"},{"bike_id":"9e24a65c-fe1e-45dc-88b9-dd0cad85064c","system_id":"levelo_inurba_marseille","lat":43.33046,"lon":5.38917,"is_reserved":false,"is_disabled":false,"rental_uris":{"android":"levelo://app?vid=9e24a65c-fe1e-45dc-88b9-dd0cad85064c","ios":"levelo://app?vid=9e24a65c-fe1e-45dc-88b9-dd0cad85064c"},"vehicle_type_id":"4","last_reported":1692540271,"current_range_meters":27200,"station_id":"ce4bhr92rcd13ifvqhrg","pricing_plan_id":"free"},{"bike_id":"3b3e7c42-cded-4bde-b175-99650afa4f17","system_id":"levelo_inurba_marseille","lat":43.33046,"lon":5.38918,"is_reserved":false,"is_disabled":false,"rental_uris":{"android":"levelo://app?vid=3b3e7c42-cded-4bde-b175-99650afa4f17","ios":"levelo://app?vid=3b3e7c42-cded-4bde-b175-99650afa4f17"},"vehicle_type_id":"4","last_reported":1692540271,"current_range_meters":21600,"station_id":"ce4bhr92rcd13ifvqhrg","pricing_plan_id":"free"},{"bike_id":"708f7f21-b221-4c14-94b6-b5d8e3289350","system_id":"levelo_inurba_marseille","lat":43.33045,"lon":5.3892,"is_reserved":false,"is_disabled":false,"rental_uris":{"android":"levelo://app?vid=708f7f21-b221-4c14-94b6-b5d8e3289350","ios":"levelo://app?vid=708f7f21-b221-4c14-94b6-b5d8e3289350"},"vehicle_type_id":"4","last_reported":1692540271,"current_range_meters":18400,"station_id":"ce4bhr92rcd13ifvqhrg","pricing_plan_id":"free"},{"bike_id":"c65152a1-dca7-4ee4-9864-308587d5ed74","system_id":"levelo_inurba_marseille","lat":43.3304,"lon":5.38928,"is_reserved":false,"is_disabled":false,"rental_uris":{"android":"levelo://app?vid=c65152a1-dca7-4ee4-9864-308587d5ed74","ios":"levelo://app?vid=c65152a1-dca7-4ee4-9864-308587d5ed74"},"vehicle_type_id":"4","last_reported":1692540271,"current_range_meters":20000,"station_id":"ce4bhr92rcd13ifvqhrg","pricing_plan_id":"free"},{"bike_id":"eb950724-6c95-4fb2-915f-35b08a8cfd23","system_id":"levelo_inurba_marseille","lat":43.33048,"lon":5.38919,"is_reserved":false,"is_disabled":false,"rental_uris":{"android":"levelo://app?vid=eb950724-6c95-4fb2-915f-35b08a8cfd23","ios":"levelo://app?vid=eb950724-6c95-4fb2-915f-35b08a8cfd23"},"vehicle_type_id":"4","last_reported":1692540271,"current_range_meters":16800,"station_id":"ce4bhr92rcd13ifvqhrg","pricing_plan_id":"free"},{"bike_id":"52662068-d06a-40c1-bfee-ce6664dc3a83","system_id":"levelo_inurba_marseille","lat":43.33048,"lon":5.3892,"is_reserved":false,"is_disabled":false,"rental_uris":{"android":"levelo://app?vid=52662068-d06a-40c1-bfee-ce6664dc3a83","ios":"levelo://app?vid=52662068-d06a-40c1-bfee-ce6664dc3a83"},"vehicle_type_id":"4","last_reported":1692540271,"current_range_meters":400,"station_id":"ce4bhr92rcd13ifvqhrg","pricing_plan_id":"free"},{"bike_id":"bf4c5344-f926-4a50-bef8-3e86c045d538","system_id":"levelo_inurba_marseille","lat":43.290995,"lon":5.381361,"is_reserved":false,"is_disabled":false,"rental_uris":{"android":"levelo://app?vid=bf4c5344-f926-4a50-bef8-3e86c045d538","ios":"levelo://app?vid=bf4c5344-f926-4a50-bef8-3e86c045d538"},"vehicle_type_id":"4","last_reported":1692540271,"current_range_meters":25200,"station_id":"ce4bh512rcd13ifvqe2g","pricing_plan_id":"free"},{"bike_id":"f280e653-62e4-48a2-b980-d2529b246cc2","system_id":"levelo_inurba_marseille","lat":43.301117,"lon":5.398795,"is_reserved":false,"is_disabled":false,"rental_uris":{"android":"levelo://app?vid=f280e653-62e4-48a2-b980-d2529b246cc2","ios":"levelo://app?vid=f280e653-62e4-48a2-b980-d2529b246cc2"},"vehicle_type_id":"4","last_reported":1692540271,"current_range_meters":19200,"station_id":"ce4bh0h2rcd13ifvqd40","pricing_plan_id":"free"},{"bike_id":"76e0bc7c-0d39-4a8e-865e-05964e0c0ba4","system_id":"levelo_inurba_marseille","lat":43.286961,"lon":5.373785,"is_reserved":false,"is_disabled":false,"rental_uris":{"android":"levelo://app?vid=76e0bc7c-0d39-4a8e-865e-05964e0c0ba4","ios":"levelo://app?vid=76e0bc7c-0d39-4a8e-865e-05964e0c0ba4"},"vehicle_type_id":"4","last_reported":1692540271,"current_range_meters":28800,"station_id":"ce4bh3p2rcd13ifvqdq0","pricing_plan_id":"free"},{"bike_id":"75199276-b705-4ad7-b6a9-49aeaa84628a","system_id":"levelo_inurba_marseille","lat":43.286591,"lon":5.363346,"is_reserved":false,"is_disabled":false,"rental_uris":{"android":"levelo://app?vid=75199276-b705-4ad7-b6a9-49aeaa84628a","ios":"levelo://app?vid=75199276-b705-4ad7-b6a9-49aeaa84628a"},"vehicle_type_id":"4","last_reported":1692540271,"current_range_meters":30800,"station_id":"ce4bhah2rcd13ifvqej0","pricing_plan_id":"free"},{"bike_id":"41643748-7dab-4474-8680-bd48062ac198","system_id":"levelo_inurba_marseille","lat":43.304188,"lon":5.412904,"is_reserved":false,"is_disabled":false,"rental_uris":{"android":"levelo://app?vid=41643748-7dab-4474-8680-bd48062ac198","ios":"levelo://app?vid=41643748-7dab-4474-8680-bd48062ac198"},"vehicle_type_id":"4","last_reported":1692540271,"current_range_meters":25600,"station_id":"ce4bhop2rcd13ifvqh8g","pricing_plan_id":"free"},{"bike_id":"ed78cb20-ea16-4b78-bcf8-1c7a5420d8ff","system_id":"levelo_inurba_marseille","lat":43.286961,"lon":5.373785,"is_reserved":false,"is_disabled":false,"rental_uris":{"android":"levelo://app?vid=ed78cb20-ea16-4b78-bcf8-1c7a5420d8ff","ios":"levelo://app?vid=ed78cb20-ea16-4b78-bcf8-1c7a5420d8ff"},"vehicle_type_id":"4","last_reported":1692540271,"current_range_meters":31200,"station_id":"ce4bh3p2rcd13ifvqdq0","pricing_plan_id":"free"},{"bike_id":"20713dc3-7005-4654-b279-94fe67c5ba36","system_id":"levelo_inurba_marseille","lat":43.287185,"lon":5.379373,"is_reserved":false,"is_disabled":false,"rental_uris":{"android":"levelo://app?vid=20713dc3-7005-4654-b279-94fe67c5ba36","ios":"levelo://app?vid=20713dc3-7005-4654-b279-94fe67c5ba36"},"vehicle_type_id":"4","last_reported":1692540271,"current_range_meters":30000,"station_id":"ce4bh9p2rcd13ifvqec0","pricing_plan_id":"free"},{"bike_id":"7da9e437-1e79-4b5f-9ab0-65254ac17dd7","system_id":"levelo_inurba_marseille","lat":43.31647,"lon":5.40439,"is_reserved":false,"is_disabled":false,"rental_uris":{"android":"levelo://app?vid=7da9e437-1e79-4b5f-9ab0-65254ac17dd7","ios":"levelo://app?vid=7da9e437-1e79-4b5f-9ab0-65254ac17dd7"},"vehicle_type_id":"4","last_reported":1692540271,"current_range_meters":21600,"station_id":"ce4bh012rcd13ifvqd00","pricing_plan_id":"free"},{"bike_id":"ab04b84a-500b-484f-b60d-c5c72eeeaeac","system_id":"levelo_inurba_marseille","lat":43.284538,"lon":5.358657,"is_reserved":false,"is_disabled":false,"rental_uris":{"android":"levelo://app?vid=ab04b84a-500b-484f-b60d-c5c72eeeaeac","ios":"levelo://app?vid=ab04b84a-500b-484f-b60d-c5c72eeeaeac"},"vehicle_type_id":"4","last_reported":1692540271,"current_range_meters":5200,"station_id":"ce4bhah2rcd13ifvqei0","pricing_plan_id":"free"},{"bike_id":"1eee69a0-6fe2-445b-9d6e-98965be0aee8","system_id":"levelo_inurba_marseille","lat":43.284538,"lon":5.358657,"is_reserved":false,"is_disabled":false,"rental_uris":{"android":"levelo://app?vid=1eee69a0-6fe2-445b-9d6e-98965be0aee8","ios":"levelo://app?vid=1eee69a0-6fe2-445b-9d6e-98965be0aee8"},"vehicle_type_id":"4","last_reported":1692540271,"current_range_meters":2000,"station_id":"ce4bhah2rcd13ifvqei0","pricing_plan_id":"free"},{"bike_id":"e1f56f2a-2204-4003-9228-51767fa60b19","system_id":"levelo_inurba_marseille","lat":43.28456,"lon":5.35897,"is_reserved":false,"is_disabled":false,"rental_uris":{"android":"levelo://app?vid=e1f56f2a-2204-4003-9228-51767fa60b19","ios":"levelo://app?vid=e1f56f2a-2204-4003-9228-51767fa60b19"},"vehicle_type_id":"4","last_reported":1692540271,"current_range_meters":31200,"station_id":"ce4bhah2rcd13ifvqei0","pricing_plan_id":"free"},{"bike_id":"b561692a-1525-41af-9261-53b6c3e1ec71","system_id":"levelo_inurba_marseille","lat":43.284534,"lon":5.358662,"is_reserved":false,"is_disabled":false,"rental_uris":{"android":"levelo://app?vid=b561692a-1525-41af-9261-53b6c3e1ec71","ios":"levelo://app?vid=b561692a-1525-41af-9261-53b6c3e1ec71"},"vehicle_type_id":"4","last_reported":1692540271,"current_range_meters":3200,"station_id":"ce4bhah2rcd13ifvqei0","pricing_plan_id":"free"},{"bike_id":"57cce66a-140e-4986-8efb-e77f7ec305d6","system_id":"levelo_inurba_marseille","lat":43.2862,"lon":5.35105,"is_reserved":false,"is_disabled":false,"rental_uris":{"android":"levelo://app?vid=57cce66a-140e-4986-8efb-e77f7ec305d6","ios":"levelo://app?vid=57cce66a-140e-4986-8efb-e77f7ec305d6"},"vehicle_type_id":"4","last_reported":1692540271,"current_range_meters":25600,"station_id":"ce4bhch2rcd13ifvqeug","pricing_plan_id":"free"},{"bike_id":"856fa79f-37f3-4a7f-b191-6c3bfc2f6261","system_id":"levelo_inurba_marseille","lat":43.28619,"lon":5.35108,"is_reserved":false,"is_disabled":false,"rental_uris":{"android":"levelo://app?vid=856fa79f-37f3-4a7f-b191-6c3bfc2f6261","ios":"levelo://app?vid=856fa79f-37f3-4a7f-b191-6c3bfc2f6261"},"vehicle_type_id":"4","last_reported":1692540271,"current_range_meters":25600,"station_id":"ce4bhch2rcd13ifvqeug","pricing_plan_id":"free"},{"bike_id":"7f7b55c1-4ef7-487a-98a2-e4413282b47e","system_id":"levelo_inurba_marseille","lat":43.28621,"lon":5.35101,"is_reserved":false,"is_disabled":false,"rental_uris":{"android":"levelo://app?vid=7f7b55c1-4ef7-487a-98a2-e4413282b47e","ios":"levelo://app?vid=7f7b55c1-4ef7-487a-98a2-e4413282b47e"},"vehicle_type_id":"4","last_reported":1692540271,"current_range_meters":29200,"station_id":"ce4bhch2rcd13ifvqeug","pricing_plan_id":"free"},{"bike_id":"7af48b42-dc1d-4269-8f7d-ed21861529d7","system_id":"levelo_inurba_marseille","lat":43.285856,"lon":5.350771,"is_reserved":false,"is_disabled":false,"rental_uris":{"android":"levelo://app?vid=7af48b42-dc1d-4269-8f7d-ed21861529d7","ios":"levelo://app?vid=7af48b42-dc1d-4269-8f7d-ed21861529d7"},"vehicle_type_id":"4","last_reported":1692540271,"current_range_meters":31200,"station_id":"ce4bhch2rcd13ifvqeug","pricing_plan_id":"free"},{"bike_id":"2ef5ec5b-9cdd-49ca-887d-6e7374f138ab","system_id":"levelo_inurba_marseille","lat":43.2862,"lon":5.35101,"is_reserved":false,"is_disabled":false,"rental_uris":{"android":"levelo://app?vid=2ef5ec5b-9cdd-49ca-887d-6e7374f138ab","ios":"levelo://app?vid=2ef5ec5b-9cdd-49ca-887d-6e7374f138ab"},"vehicle_type_id":"4","last_reported":1692540271,"current_range_meters":28000,"station_id":"ce4bhch2rcd13ifvqeug","pricing_plan_id":"free"},{"bike_id":"ca255c63-d115-4e2e-bdb5-7a90e1ab720d","system_id":"levelo_inurba_marseille","lat":43.28619,"lon":5.35104,"is_reserved":false,"is_disabled":false,"rental_uris":{"android":"levelo://app?vid=ca255c63-d115-4e2e-bdb5-7a90e1ab720d","ios":"levelo://app?vid=ca255c63-d115-4e2e-bdb5-7a90e1ab720d"},"vehicle_type_id":"4","last_reported":1692540271,"current_range_meters":22800,"station_id":"ce4bhch2rcd13ifvqeug","pricing_plan_id":"free"},{"bike_id":"9b7f8da7-a870-4827-9006-82cdf830a3e9","system_id":"levelo_inurba_marseille","lat":43.28618,"lon":5.35106,"is_reserved":false,"is_disabled":false,"rental_uris":{"android":"levelo://app?vid=9b7f8da7-a870-4827-9006-82cdf830a3e9","ios":"levelo://app?vid=9b7f8da7-a870-4827-9006-82cdf830a3e9"},"vehicle_type_id":"4","last_reported":1692540271,"current_range_meters":21600,"station_id":"ce4bhch2rcd13ifvqeug","pricing_plan_id":"free"},{"bike_id":"10e260c4-181b-47cc-9831-1a6e4c196dfc","system_id":"levelo_inurba_marseille","lat":43.28618,"lon":5.35104,"is_reserved":false,"is_disabled":false,"rental_uris":{"android":"levelo://app?vid=10e260c4-181b-47cc-9831-1a6e4c196dfc","ios":"levelo://app?vid=10e260c4-181b-47cc-9831-1a6e4c196dfc"},"vehicle_type_id":"4","last_reported":1692540271,"current_range_meters":30400,"station_id":"ce4bhch2rcd13ifvqeug","pricing_plan_id":"free"},{"bike_id":"3d0fd122-9d5f-4f34-9493-8b8e9ac20308","system_id":"levelo_inurba_marseille","lat":43.28618,"lon":5.35102,"is_reserved":false,"is_disabled":false,"rental_uris":{"android":"levelo://app?vid=3d0fd122-9d5f-4f34-9493-8b8e9ac20308","ios":"levelo://app?vid=3d0fd122-9d5f-4f34-9493-8b8e9ac20308"},"vehicle_type_id":"4","last_reported":1692540271,"current_range_meters":23600,"station_id":"ce4bhch2rcd13ifvqeug","pricing_plan_id":"free"},{"bike_id":"e8ff56f5-3624-4687-b422-b33e9a3cb88e","system_id":"levelo_inurba_marseille","lat":43.28618,"lon":5.35101,"is_reserved":false,"is_disabled":false,"rental_uris":{"android":"levelo://app?vid=e8ff56f5-3624-4687-b422-b33e9a3cb88e","ios":"levelo://app?vid=e8ff56f5-3624-4687-b422-b33e9a3cb88e"},"vehicle_type_id":"4","last_reported":1692540271,"current_range_meters":18000,"station_id":"ce4bhch2rcd13ifvqeug","pricing_plan_id":"free"},{"bike_id":"92648c9f-d68f-4643-bbf5-d8685ec2b8ba","system_id":"levelo_inurba_marseille","lat":43.28617,"lon":5.35104,"is_reserved":false,"is_disabled":false,"rental_uris":{"android":"levelo://app?vid=92648c9f-d68f-4643-bbf5-d8685ec2b8ba","ios":"levelo://app?vid=92648c9f-d68f-4643-bbf5-d8685ec2b8ba"},"vehicle_type_id":"4","last_reported":1692540271,"current_range_meters":21600,"station_id":"ce4bhch2rcd13ifvqeug","pricing_plan_id":"free"},{"bike_id":"ce6c11cd-9622-4c6e-8dc3-2e0fa8f09a86","system_id":"levelo_inurba_marseille","lat":43.28616,"lon":5.35107,"is_reserved":false,"is_disabled":false,"rental_uris":{"android":"levelo://app?vid=ce6c11cd-9622-4c6e-8dc3-2e0fa8f09a86","ios":"levelo://app?vid=ce6c11cd-9622-4c6e-8dc3-2e0fa8f09a86"},"vehicle_type_id":"4","last_reported":1692540271,"current_range_meters":24000,"station_id":"ce4bhch2rcd13ifvqeug","pricing_plan_id":"free"},{"bike_id":"e5e6125e-23ea-41e6-9ceb-ba12b73faf56","system_id":"levelo_inurba_marseille","lat":43.28616,"lon":5.35107,"is_reserved":false,"is_disabled":false,"rental_uris":{"android":"levelo://app?vid=e5e6125e-23ea-41e6-9ceb-ba12b73faf56","ios":"levelo://app?vid=e5e6125e-23ea-41e6-9ceb-ba12b73faf56"},"vehicle_type_id":"4","last_reported":1692540271,"current_range_meters":4400,"station_id":"ce4bhch2rcd13ifvqeug","pricing_plan_id":"free"},{"bike_id":"c5300d0d-ca1a-4b0b-8dda-776a57fbe5a3","system_id":"levelo_inurba_marseille","lat":43.28617,"lon":5.35103,"is_reserved":false,"is_disabled":false,"rental_uris":{"android":"levelo://app?vid=c5300d0d-ca1a-4b0b-8dda-776a57fbe5a3","ios":"levelo://app?vid=c5300d0d-ca1a-4b0b-8dda-776a57fbe5a3"},"vehicle_type_id":"4","last_reported":1692540271,"current_range_meters":23600,"station_id":"ce4bhch2rcd13ifvqeug","pricing_plan_id":"free"},{"bike_id":"490f218c-cb4f-4fc2-a802-725a7fa2065d","system_id":"levelo_inurba_marseille","lat":43.28618,"lon":5.35099,"is_reserved":false,"is_disabled":false,"rental_uris":{"android":"levelo://app?vid=490f218c-cb4f-4fc2-a802-725a7fa2065d","ios":"levelo://app?vid=490f218c-cb4f-4fc2-a802-725a7fa2065d"},"vehicle_type_id":"4","last_reported":1692540271,"current_range_meters":19200,"station_id":"ce4bhch2rcd13ifvqeug","pricing_plan_id":"free"},{"bike_id":"28c1ccf7-8e8d-4587-8e97-d39a1468663e","system_id":"levelo_inurba_marseille","lat":43.285856,"lon":5.350771,"is_reserved":false,"is_disabled":false,"rental_uris":{"android":"levelo://app?vid=28c1ccf7-8e8d-4587-8e97-d39a1468663e","ios":"levelo://app?vid=28c1ccf7-8e8d-4587-8e97-d39a1468663e"},"vehicle_type_id":"4","last_reported":1692540271,"current_range_meters":23600,"station_id":"ce4bhch2rcd13ifvqeug","pricing_plan_id":"free"},{"bike_id":"5d7f21eb-9d10-410a-92c1-2d94b56d037c","system_id":"levelo_inurba_marseille","lat":43.28616,"lon":5.35105,"is_reserved":false,"is_disabled":false,"rental_uris":{"android":"levelo://app?vid=5d7f21eb-9d10-410a-92c1-2d94b56d037c","ios":"levelo://app?vid=5d7f21eb-9d10-410a-92c1-2d94b56d037c"},"vehicle_type_id":"4","last_reported":1692540271,"current_range_meters":0,"station_id":"ce4bhch2rcd13ifvqeug","pricing_plan_id":"free"},{"bike_id":"d0984c5c-af4b-43e2-abf0-7429241166e6","system_id":"levelo_inurba_marseille","lat":43.285856,"lon":5.350771,"is_reserved":false,"is_disabled":false,"rental_uris":{"android":"levelo://app?vid=d0984c5c-af4b-43e2-abf0-7429241166e6","ios":"levelo://app?vid=d0984c5c-af4b-43e2-abf0-7429241166e6"},"vehicle_type_id":"4","last_reported":1692540271,"current_range_meters":16400,"station_id":"ce4bhch2rcd13ifvqeug","pricing_plan_id":"free"},{"bike_id":"5b2ebe2b-43eb-425d-bbe5-0ac1d1992703","system_id":"levelo_inurba_marseille","lat":43.28615,"lon":5.35104,"is_reserved":false,"is_disabled":false,"rental_uris":{"android":"levelo://app?vid=5b2ebe2b-43eb-425d-bbe5-0ac1d1992703","ios":"levelo://app?vid=5b2ebe2b-43eb-425d-bbe5-0ac1d1992703"},"vehicle_type_id":"4","last_reported":1692540271,"current_range_meters":18800,"station_id":"ce4bhch2rcd13ifvqeug","pricing_plan_id":"free"},{"bike_id":"a1140165-35d7-415a-adfc-7c0e2be94fed","system_id":"levelo_inurba_marseille","lat":43.28615,"lon":5.35102,"is_reserved":false,"is_disabled":false,"rental_uris":{"android":"levelo://app?vid=a1140165-35d7-415a-adfc-7c0e2be94fed","ios":"levelo://app?vid=a1140165-35d7-415a-adfc-7c0e2be94fed"},"vehicle_type_id":"4","last_reported":1692540271,"current_range_meters":11200,"station_id":"ce4bhch2rcd13ifvqeug","pricing_plan_id":"free"},{"bike_id":"c9db8386-c8fe-43e5-b039-f237193b813e","system_id":"levelo_inurba_marseille","lat":43.28616,"lon":5.35098,"is_reserved":false,"is_disabled":false,"rental_uris":{"android":"levelo://app?vid=c9db8386-c8fe-43e5-b039-f237193b813e","ios":"levelo://app?vid=c9db8386-c8fe-43e5-b039-f237193b813e"},"vehicle_type_id":"4","last_reported":1692540271,"current_range_meters":31200,"station_id":"ce4bhch2rcd13ifvqeug","pricing_plan_id":"free"},{"bike_id":"13d056e7-e3cb-4fd3-a5bc-f0b619506c44","system_id":"levelo_inurba_marseille","lat":43.28615,"lon":5.35101,"is_reserved":false,"is_disabled":false,"rental_uris":{"android":"levelo://app?vid=13d056e7-e3cb-4fd3-a5bc-f0b619506c44","ios":"levelo://app?vid=13d056e7-e3cb-4fd3-a5bc-f0b619506c44"},"vehicle_type_id":"4","last_reported":1692540271,"current_range_meters":21600,"station_id":"ce4bhch2rcd13ifvqeug","pricing_plan_id":"free"},{"bike_id":"35eec3a1-aa54-4990-8eb4-78e6c0dd24d0","system_id":"levelo_inurba_marseille","lat":43.28615,"lon":5.351,"is_reserved":false,"is_disabled":false,"rental_uris":{"android":"levelo://app?vid=35eec3a1-aa54-4990-8eb4-78e6c0dd24d0","ios":"levelo://app?vid=35eec3a1-aa54-4990-8eb4-78e6c0dd24d0"},"vehicle_type_id":"4","last_reported":1692540271,"current_range_meters":29600,"station_id":"ce4bhch2rcd13ifvqeug","pricing_plan_id":"free"},{"bike_id":"8128df5c-dd63-4f00-8cfe-97b21f9b7c85","system_id":"levelo_inurba_marseille","lat":43.28613,"lon":5.35105,"is_reserved":false,"is_disabled":false,"rental_uris":{"android":"levelo://app?vid=8128df5c-dd63-4f00-8cfe-97b21f9b7c85","ios":"levelo://app?vid=8128df5c-dd63-4f00-8cfe-97b21f9b7c85"},"vehicle_type_id":"4","last_reported":1692540271,"current_range_meters":31200,"station_id":"ce4bhch2rcd13ifvqeug","pricing_plan_id":"free"},{"bike_id":"c55c0c5e-3295-46f4-ba50-c24a7a85e4bc","system_id":"levelo_inurba_marseille","lat":43.28614,"lon":5.35101,"is_reserved":false,"is_disabled":false,"rental_uris":{"android":"levelo://app?vid=c55c0c5e-3295-46f4-ba50-c24a7a85e4bc","ios":"levelo://app?vid=c55c0c5e-3295-46f4-ba50-c24a7a85e4bc"},"vehicle_type_id":"4","last_reported":1692540271,"current_range_meters":31200,"station_id":"ce4bhch2rcd13ifvqeug","pricing_plan_id":"free"},{"bike_id":"b98702f3-0e54-4fb5-990c-0cb8a8efe915","system_id":"levelo_inurba_marseille","lat":43.28613,"lon":5.35099,"is_reserved":false,"is_disabled":false,"rental_uris":{"android":"levelo://app?vid=b98702f3-0e54-4fb5-990c-0cb8a8efe915","ios":"levelo://app?vid=b98702f3-0e54-4fb5-990c-0cb8a8efe915"},"vehicle_type_id":"4","last_reported":1692540271,"current_range_meters":16800,"station_id":"ce4bhch2rcd13ifvqeug","pricing_plan_id":"free"},{"bike_id":"388d5bc3-8789-4951-8707-1cde2ba92267","system_id":"levelo_inurba_marseille","lat":43.285856,"lon":5.350771,"is_reserved":false,"is_disabled":false,"rental_uris":{"android":"levelo://app?vid=388d5bc3-8789-4951-8707-1cde2ba92267","ios":"levelo://app?vid=388d5bc3-8789-4951-8707-1cde2ba92267"},"vehicle_type_id":"4","last_reported":1692540271,"current_range_meters":27200,"station_id":"ce4bhch2rcd13ifvqeug","pricing_plan_id":"free"},{"bike_id":"a6e54fff-9a58-4092-92a6-ace8f9818483","system_id":"levelo_inurba_marseille","lat":43.28612,"lon":5.35098,"is_reserved":false,"is_disabled":false,"rental_uris":{"android":"levelo://app?vid=a6e54fff-9a58-4092-92a6-ace8f9818483","ios":"levelo://app?vid=a6e54fff-9a58-4092-92a6-ace8f9818483"},"vehicle_type_id":"4","last_reported":1692540271,"current_range_meters":30400,"station_id":"ce4bhch2rcd13ifvqeug","pricing_plan_id":"free"},{"bike_id":"6092f776-65d5-4a2e-87a3-2d94818de070","system_id":"levelo_inurba_marseille","lat":43.28612,"lon":5.35095,"is_reserved":false,"is_disabled":false,"rental_uris":{"android":"levelo://app?vid=6092f776-65d5-4a2e-87a3-2d94818de070","ios":"levelo://app?vid=6092f776-65d5-4a2e-87a3-2d94818de070"},"vehicle_type_id":"4","last_reported":1692540271,"current_range_meters":20000,"station_id":"ce4bhch2rcd13ifvqeug","pricing_plan_id":"free"},{"bike_id":"bd1798b0-cfd5-4797-9f79-d24a0fe3975a","system_id":"levelo_inurba_marseille","lat":43.28606,"lon":5.35111,"is_reserved":false,"is_disabled":false,"rental_uris":{"android":"levelo://app?vid=bd1798b0-cfd5-4797-9f79-d24a0fe3975a","ios":"levelo://app?vid=bd1798b0-cfd5-4797-9f79-d24a0fe3975a"},"vehicle_type_id":"4","last_reported":1692540271,"current_range_meters":25200,"station_id":"ce4bhch2rcd13ifvqeug","pricing_plan_id":"free"},{"bike_id":"58a0be37-f7bd-4b82-9576-fd71333162fa","system_id":"levelo_inurba_marseille","lat":43.285856,"lon":5.350771,"is_reserved":false,"is_disabled":false,"rental_uris":{"android":"levelo://app?vid=58a0be37-f7bd-4b82-9576-fd71333162fa","ios":"levelo://app?vid=58a0be37-f7bd-4b82-9576-fd71333162fa"},"vehicle_type_id":"4","last_reported":1692540271,"current_range_meters":21200,"station_id":"ce4bhch2rcd13ifvqeug","pricing_plan_id":"free"},{"bike_id":"f1536ed0-8d90-4d9a-9372-3c087e5e7ef4","system_id":"levelo_inurba_marseille","lat":43.28609,"lon":5.35101,"is_reserved":false,"is_disabled":false,"rental_uris":{"android":"levelo://app?vid=f1536ed0-8d90-4d9a-9372-3c087e5e7ef4","ios":"levelo://app?vid=f1536ed0-8d90-4d9a-9372-3c087e5e7ef4"},"vehicle_type_id":"4","last_reported":1692540271,"current_range_meters":19600,"station_id":"ce4bhch2rcd13ifvqeug","pricing_plan_id":"free"},{"bike_id":"2363d3b5-6c15-401a-a59c-ee80bd4af927","system_id":"levelo_inurba_marseille","lat":43.28415,"lon":5.37522,"is_reserved":false,"is_disabled":false,"rental_uris":{"android":"levelo://app?vid=2363d3b5-6c15-401a-a59c-ee80bd4af927","ios":"levelo://app?vid=2363d3b5-6c15-401a-a59c-ee80bd4af927"},"vehicle_type_id":"4","last_reported":1692540271,"current_range_meters":16800,"station_id":"ce4bh412rcd13ifvqds0","pricing_plan_id":"free"},{"bike_id":"bdc3f47b-e1d1-4a3a-b0c1-e8a91d4b0833","system_id":"levelo_inurba_marseille","lat":43.31888,"lon":5.40724,"is_reserved":false,"is_disabled":false,"rental_uris":{"android":"levelo://app?vid=bdc3f47b-e1d1-4a3a-b0c1-e8a91d4b0833","ios":"levelo://app?vid=bdc3f47b-e1d1-4a3a-b0c1-e8a91d4b0833"},"vehicle_type_id":"4","last_reported":1692540271,"current_range_meters":16800,"station_id":"","pricing_plan_id":"free"},{"bike_id":"e63a24e9-4d9d-4b90-829e-bb9789271d21","system_id":"levelo_inurba_marseille","lat":43.31885,"lon":5.40731,"is_reserved":false,"is_disabled":false,"rental_uris":{"android":"levelo://app?vid=e63a24e9-4d9d-4b90-829e-bb9789271d21","ios":"levelo://app?vid=e63a24e9-4d9d-4b90-829e-bb9789271d21"},"vehicle_type_id":"4","last_reported":1692540271,"current_range_meters":22800,"station_id":"ce4bhq12rcd13ifvqhig","pricing_plan_id":"free"},{"bike_id":"855acbf9-2903-41c2-b6c4-78f7052618a0","system_id":"levelo_inurba_marseille","lat":43.31878,"lon":5.40739,"is_reserved":false,"is_disabled":false,"rental_uris":{"android":"levelo://app?vid=855acbf9-2903-41c2-b6c4-78f7052618a0","ios":"levelo://app?vid=855acbf9-2903-41c2-b6c4-78f7052618a0"},"vehicle_type_id":"4","last_reported":1692540271,"current_range_meters":400,"station_id":"","pricing_plan_id":"free"},{"bike_id":"efe8b264-ad35-4139-b98d-40041f267f16","system_id":"levelo_inurba_marseille","lat":43.33721,"lon":5.3918,"is_reserved":false,"is_disabled":false,"rental_uris":{"android":"levelo://app?vid=efe8b264-ad35-4139-b98d-40041f267f16","ios":"levelo://app?vid=efe8b264-ad35-4139-b98d-40041f267f16"},"vehicle_type_id":"4","last_reported":1692540271,"current_range_meters":23200,"station_id":"ce4bhr92rcd13ifvqhsg","pricing_plan_id":"free"},{"bike_id":"7d2969ab-a065-4a23-b19e-667095d799c9","system_id":"levelo_inurba_marseille","lat":43.33716,"lon":5.3919,"is_reserved":false,"is_disabled":false,"rental_uris":{"android":"levelo://app?vid=7d2969ab-a065-4a23-b19e-667095d799c9","ios":"levelo://app?vid=7d2969ab-a065-4a23-b19e-667095d799c9"},"vehicle_type_id":"4","last_reported":1692540271,"current_range_meters":6400,"station_id":"ce4bhr92rcd13ifvqhsg","pricing_plan_id":"free"},{"bike_id":"4458971a-1e42-4d51-8e96-a944048bc368","system_id":"levelo_inurba_marseille","lat":43.33721,"lon":5.39181,"is_reserved":false,"is_disabled":false,"rental_uris":{"android":"levelo://app?vid=4458971a-1e42-4d51-8e96-a944048bc368","ios":"levelo://app?vid=4458971a-1e42-4d51-8e96-a944048bc368"},"vehicle_type_id":"4","last_reported":1692540271,"current_range_meters":28400,"station_id":"ce4bhr92rcd13ifvqhsg","pricing_plan_id":"free"},{"bike_id":"2b3f06e0-8f2d-4133-9563-f19f57fe46e5","system_id":"levelo_inurba_marseille","lat":43.33724,"lon":5.39178,"is_reserved":false,"is_disabled":false,"rental_uris":{"android":"levelo://app?vid=2b3f06e0-8f2d-4133-9563-f19f57fe46e5","ios":"levelo://app?vid=2b3f06e0-8f2d-4133-9563-f19f57fe46e5"},"vehicle_type_id":"4","last_reported":1692540271,"current_range_meters":6400,"station_id":"ce4bhr92rcd13ifvqhsg","pricing_plan_id":"free"},{"bike_id":"17105054-6fd8-493b-b0be-1ed88688055c","system_id":"levelo_inurba_marseille","lat":43.33724,"lon":5.3918,"is_reserved":false,"is_disabled":false,"rental_uris":{"android":"levelo://app?vid=17105054-6fd8-493b-b0be-1ed88688055c","ios":"levelo://app?vid=17105054-6fd8-493b-b0be-1ed88688055c"},"vehicle_type_id":"4","last_reported":1692540271,"current_range_meters":26000,"station_id":"ce4bhr92rcd13ifvqhsg","pricing_plan_id":"free"},{"bike_id":"72fc020d-a1d4-460a-a3d1-6187a1ea65d2","system_id":"levelo_inurba_marseille","lat":43.33724,"lon":5.39181,"is_reserved":false,"is_disabled":false,"rental_uris":{"android":"levelo://app?vid=72fc020d-a1d4-460a-a3d1-6187a1ea65d2","ios":"levelo://app?vid=72fc020d-a1d4-460a-a3d1-6187a1ea65d2"},"vehicle_type_id":"4","last_reported":1692540271,"current_range_meters":23200,"station_id":"ce4bhr92rcd13ifvqhsg","pricing_plan_id":"free"},{"bike_id":"97d0f90d-ac9d-480b-8250-a663b55e35e8","system_id":"levelo_inurba_marseille","lat":43.33725,"lon":5.39182,"is_reserved":false,"is_disabled":false,"rental_uris":{"android":"levelo://app?vid=97d0f90d-ac9d-480b-8250-a663b55e35e8","ios":"levelo://app?vid=97d0f90d-ac9d-480b-8250-a663b55e35e8"},"vehicle_type_id":"4","last_reported":1692540271,"current_range_meters":25600,"station_id":"ce4bhr92rcd13ifvqhsg","pricing_plan_id":"free"},{"bike_id":"0dda2562-498f-4f90-abfb-f3c666db2d2e","system_id":"levelo_inurba_marseille","lat":43.33722,"lon":5.39188,"is_reserved":false,"is_disabled":false,"rental_uris":{"android":"levelo://app?vid=0dda2562-498f-4f90-abfb-f3c666db2d2e","ios":"levelo://app?vid=0dda2562-498f-4f90-abfb-f3c666db2d2e"},"vehicle_type_id":"4","last_reported":1692540271,"current_range_meters":19600,"station_id":"ce4bhr92rcd13ifvqhsg","pricing_plan_id":"free"},{"bike_id":"e45012d8-673a-4bd6-93d3-a427f767a00d","system_id":"levelo_inurba_marseille","lat":43.33723,"lon":5.39187,"is_reserved":false,"is_disabled":false,"rental_uris":{"android":"levelo://app?vid=e45012d8-673a-4bd6-93d3-a427f767a00d","ios":"levelo://app?vid=e45012d8-673a-4bd6-93d3-a427f767a00d"},"vehicle_type_id":"4","last_reported":1692540271,"current_range_meters":23600,"station_id":"ce4bhr92rcd13ifvqhsg","pricing_plan_id":"free"},{"bike_id":"12c0f407-4ac2-49d3-b1e8-783bd26a8644","system_id":"levelo_inurba_marseille","lat":43.33721,"lon":5.39191,"is_reserved":false,"is_disabled":false,"rental_uris":{"android":"levelo://app?vid=12c0f407-4ac2-49d3-b1e8-783bd26a8644","ios":"levelo://app?vid=12c0f407-4ac2-49d3-b1e8-783bd26a8644"},"vehicle_type_id":"4","last_reported":1692540271,"current_range_meters":25200,"station_id":"ce4bhr92rcd13ifvqhsg","pricing_plan_id":"free"},{"bike_id":"01f563c5-7ac0-4d44-b1b3-0549f3b949f3","system_id":"levelo_inurba_marseille","lat":43.33722,"lon":5.3919,"is_reserved":false,"is_disabled":false,"rental_uris":{"android":"levelo://app?vid=01f563c5-7ac0-4d44-b1b3-0549f3b949f3","ios":"levelo://app?vid=01f563c5-7ac0-4d44-b1b3-0549f3b949f3"},"vehicle_type_id":"4","last_reported":1692540271,"current_range_meters":26000,"station_id":"ce4bhr92rcd13ifvqhsg","pricing_plan_id":"free"},{"bike_id":"3d3979f0-a28e-4760-847b-c6d9bae4866b","system_id":"levelo_inurba_marseille","lat":43.33729,"lon":5.39179,"is_reserved":false,"is_disabled":false,"rental_uris":{"android":"levelo://app?vid=3d3979f0-a28e-4760-847b-c6d9bae4866b","ios":"levelo://app?vid=3d3979f0-a28e-4760-847b-c6d9bae4866b"},"vehicle_type_id":"4","last_reported":1692540271,"current_range_meters":31200,"station_id":"ce4bhr92rcd13ifvqhsg","pricing_plan_id":"free"},{"bike_id":"c24cecf2-0503-470c-b3d3-fc37f377f710","system_id":"levelo_inurba_marseille","lat":43.33729,"lon":5.39183,"is_reserved":false,"is_disabled":false,"rental_uris":{"android":"levelo://app?vid=c24cecf2-0503-470c-b3d3-fc37f377f710","ios":"levelo://app?vid=c24cecf2-0503-470c-b3d3-fc37f377f710"},"vehicle_type_id":"4","last_reported":1692540271,"current_range_meters":24800,"station_id":"ce4bhr92rcd13ifvqhsg","pricing_plan_id":"free"},{"bike_id":"02f29c2d-847e-4148-9200-bdb4c19acc46","system_id":"levelo_inurba_marseille","lat":43.33728,"lon":5.39186,"is_reserved":false,"is_disabled":false,"rental_uris":{"android":"levelo://app?vid=02f29c2d-847e-4148-9200-bdb4c19acc46","ios":"levelo://app?vid=02f29c2d-847e-4148-9200-bdb4c19acc46"},"vehicle_type_id":"4","last_reported":1692540271,"current_range_meters":25600,"station_id":"ce4bhr92rcd13ifvqhsg","pricing_plan_id":"free"},{"bike_id":"186ddf38-a5ca-44a9-9dd3-9bfe2a53544b","system_id":"levelo_inurba_marseille","lat":43.33727,"lon":5.3919,"is_reserved":false,"is_disabled":false,"rental_uris":{"android":"levelo://app?vid=186ddf38-a5ca-44a9-9dd3-9bfe2a53544b","ios":"levelo://app?vid=186ddf38-a5ca-44a9-9dd3-9bfe2a53544b"},"vehicle_type_id":"4","last_reported":1692540271,"current_range_meters":24800,"station_id":"ce4bhr92rcd13ifvqhsg","pricing_plan_id":"free"},{"bike_id":"8bd09c71-02ae-4371-8b55-ce1e7e2bf2df","system_id":"levelo_inurba_marseille","lat":43.33728,"lon":5.39194,"is_reserved":false,"is_disabled":false,"rental_uris":{"android":"levelo://app?vid=8bd09c71-02ae-4371-8b55-ce1e7e2bf2df","ios":"levelo://app?vid=8bd09c71-02ae-4371-8b55-ce1e7e2bf2df"},"vehicle_type_id":"4","last_reported":1692540271,"current_range_meters":26000,"station_id":"ce4bhr92rcd13ifvqhsg","pricing_plan_id":"free"},{"bike_id":"f24d321f-ba10-47bf-b834-145a0b92ec46","system_id":"levelo_inurba_marseille","lat":43.337297,"lon":5.391924,"is_reserved":false,"is_disabled":false,"rental_uris":{"android":"levelo://app?vid=f24d321f-ba10-47bf-b834-145a0b92ec46","ios":"levelo://app?vid=f24d321f-ba10-47bf-b834-145a0b92ec46"},"vehicle_type_id":"4","last_reported":1692540271,"current_range_meters":18000,"station_id":"ce4bhr92rcd13ifvqhsg","pricing_plan_id":"free"},{"bike_id":"d3d51bb6-bc69-4c27-ad21-f94192e963cf","system_id":"levelo_inurba_marseille","lat":43.284793,"lon":5.384119,"is_reserved":false,"is_disabled":false,"rental_uris":{"android":"levelo://app?vid=d3d51bb6-bc69-4c27-ad21-f94192e963cf","ios":"levelo://app?vid=d3d51bb6-bc69-4c27-ad21-f94192e963cf"},"vehicle_type_id":"4","last_reported":1692540271,"current_range_meters":17200,"station_id":"ce4bh512rcd13ifvqe3g","pricing_plan_id":"free"},{"bike_id":"4e372815-112a-4b87-8e87-07f758f85f70","system_id":"levelo_inurba_marseille","lat":43.288501,"lon":5.393087,"is_reserved":false,"is_disabled":false,"rental_uris":{"android":"levelo://app?vid=4e372815-112a-4b87-8e87-07f758f85f70","ios":"levelo://app?vid=4e372815-112a-4b87-8e87-07f758f85f70"},"vehicle_type_id":"4","last_reported":1692540271,"current_range_meters":28400,"station_id":"ce4bh2p2rcd13ifvqdi0","pricing_plan_id":"free"},{"bike_id":"5eeb3aa1-e793-449b-bc37-7778a23b541f","system_id":"levelo_inurba_marseille","lat":43.283498,"lon":5.380948,"is_reserved":false,"is_disabled":false,"rental_uris":{"android":"levelo://app?vid=5eeb3aa1-e793-449b-bc37-7778a23b541f","ios":"levelo://app?vid=5eeb3aa1-e793-449b-bc37-7778a23b541f"},"vehicle_type_id":"4","last_reported":1692540271,"current_range_meters":26800,"station_id":"ce4bh412rcd13ifvqdr0","pricing_plan_id":"free"},{"bike_id":"ada18415-0660-40f5-9043-4e3f2c7c0777","system_id":"levelo_inurba_marseille","lat":43.284219,"lon":5.3497,"is_reserved":false,"is_disabled":false,"rental_uris":{"android":"levelo://app?vid=ada18415-0660-40f5-9043-4e3f2c7c0777","ios":"levelo://app?vid=ada18415-0660-40f5-9043-4e3f2c7c0777"},"vehicle_type_id":"4","last_reported":1692540271,"current_range_meters":14400,"station_id":"ce4bhbh2rcd13ifvqepg","pricing_plan_id":"free"},{"bike_id":"acdbe6c7-467c-480f-ae65-f57a291750aa","system_id":"levelo_inurba_marseille","lat":43.284219,"lon":5.3497,"is_reserved":false,"is_disabled":false,"rental_uris":{"android":"levelo://app?vid=acdbe6c7-467c-480f-ae65-f57a291750aa","ios":"levelo://app?vid=acdbe6c7-467c-480f-ae65-f57a291750aa"},"vehicle_type_id":"4","last_reported":1692540271,"current_range_meters":22800,"station_id":"ce4bhbh2rcd13ifvqepg","pricing_plan_id":"free"},{"bike_id":"ff8b57ed-f10b-4184-8ad9-2001dcf2795e","system_id":"levelo_inurba_marseille","lat":43.284219,"lon":5.3497,"is_reserved":false,"is_disabled":false,"rental_uris":{"android":"levelo://app?vid=ff8b57ed-f10b-4184-8ad9-2001dcf2795e","ios":"levelo://app?vid=ff8b57ed-f10b-4184-8ad9-2001dcf2795e"},"vehicle_type_id":"4","last_reported":1692540271,"current_range_meters":14400,"station_id":"ce4bhbh2rcd13ifvqepg","pricing_plan_id":"free"},{"bike_id":"af5969d4-4493-4a0e-a09a-bb4d639951ea","system_id":"levelo_inurba_marseille","lat":43.284217,"lon":5.349697,"is_reserved":false,"is_disabled":false,"rental_uris":{"android":"levelo://app?vid=af5969d4-4493-4a0e-a09a-bb4d639951ea","ios":"levelo://app?vid=af5969d4-4493-4a0e-a09a-bb4d639951ea"},"vehicle_type_id":"4","last_reported":1692540271,"current_range_meters":16800,"station_id":"ce4bhbh2rcd13ifvqepg","pricing_plan_id":"free"},{"bike_id":"0c4b6542-aeb1-4ff5-b556-5dc03a8c9046","system_id":"levelo_inurba_marseille","lat":43.28426,"lon":5.34981,"is_reserved":false,"is_disabled":false,"rental_uris":{"android":"levelo://app?vid=0c4b6542-aeb1-4ff5-b556-5dc03a8c9046","ios":"levelo://app?vid=0c4b6542-aeb1-4ff5-b556-5dc03a8c9046"},"vehicle_type_id":"4","last_reported":1692540271,"current_range_meters":23600,"station_id":"ce4bhbh2rcd13ifvqepg","pricing_plan_id":"free"},{"bike_id":"41af440f-a7d2-4210-92d2-be86f580e45c","system_id":"levelo_inurba_marseille","lat":43.284219,"lon":5.3497,"is_reserved":false,"is_disabled":false,"rental_uris":{"android":"levelo://app?vid=41af440f-a7d2-4210-92d2-be86f580e45c","ios":"levelo://app?vid=41af440f-a7d2-4210-92d2-be86f580e45c"},"vehicle_type_id":"4","last_reported":1692540271,"current_range_meters":23200,"station_id":"ce4bhbh2rcd13ifvqepg","pricing_plan_id":"free"},{"bike_id":"4e450f5e-1c05-4f97-b6de-c06390b35761","system_id":"levelo_inurba_marseille","lat":43.28422,"lon":5.34991,"is_reserved":false,"is_disabled":false,"rental_uris":{"android":"levelo://app?vid=4e450f5e-1c05-4f97-b6de-c06390b35761","ios":"levelo://app?vid=4e450f5e-1c05-4f97-b6de-c06390b35761"},"vehicle_type_id":"4","last_reported":1692540271,"current_range_meters":29600,"station_id":"ce4bhbh2rcd13ifvqepg","pricing_plan_id":"free"},{"bike_id":"d344a979-9bb2-4fb3-85e8-fa06e04956be","system_id":"levelo_inurba_marseille","lat":43.284219,"lon":5.3497,"is_reserved":false,"is_disabled":false,"rental_uris":{"android":"levelo://app?vid=d344a979-9bb2-4fb3-85e8-fa06e04956be","ios":"levelo://app?vid=d344a979-9bb2-4fb3-85e8-fa06e04956be"},"vehicle_type_id":"4","last_reported":1692540271,"current_range_meters":11200,"station_id":"ce4bhbh2rcd13ifvqepg","pricing_plan_id":"free"},{"bike_id":"3a78b823-185c-439d-af78-03f7e0b4a6ce","system_id":"levelo_inurba_marseille","lat":43.28417,"lon":5.35003,"is_reserved":false,"is_disabled":false,"rental_uris":{"android":"levelo://app?vid=3a78b823-185c-439d-af78-03f7e0b4a6ce","ios":"levelo://app?vid=3a78b823-185c-439d-af78-03f7e0b4a6ce"},"vehicle_type_id":"4","last_reported":1692540271,"current_range_meters":26000,"station_id":"ce4bhbh2rcd13ifvqepg","pricing_plan_id":"free"},{"bike_id":"a31e86b3-ea18-43f9-b1f7-dd803fc797fc","system_id":"levelo_inurba_marseille","lat":43.2842,"lon":5.34991,"is_reserved":false,"is_disabled":false,"rental_uris":{"android":"levelo://app?vid=a31e86b3-ea18-43f9-b1f7-dd803fc797fc","ios":"levelo://app?vid=a31e86b3-ea18-43f9-b1f7-dd803fc797fc"},"vehicle_type_id":"4","last_reported":1692540271,"current_range_meters":23600,"station_id":"ce4bhbh2rcd13ifvqepg","pricing_plan_id":"free"},{"bike_id":"31b1dcb5-c40b-4a91-9930-69518c97bfc1","system_id":"levelo_inurba_marseille","lat":43.28423,"lon":5.34978,"is_reserved":false,"is_disabled":false,"rental_uris":{"android":"levelo://app?vid=31b1dcb5-c40b-4a91-9930-69518c97bfc1","ios":"levelo://app?vid=31b1dcb5-c40b-4a91-9930-69518c97bfc1"},"vehicle_type_id":"4","last_reported":1692540271,"current_range_meters":25200,"station_id":"ce4bhbh2rcd13ifvqepg","pricing_plan_id":"free"},{"bike_id":"a0b4d391-e169-4cb5-bd1c-90095e4e3a4e","system_id":"levelo_inurba_marseille","lat":43.284217,"lon":5.349697,"is_reserved":false,"is_disabled":false,"rental_uris":{"android":"levelo://app?vid=a0b4d391-e169-4cb5-bd1c-90095e4e3a4e","ios":"levelo://app?vid=a0b4d391-e169-4cb5-bd1c-90095e4e3a4e"},"vehicle_type_id":"4","last_reported":1692540271,"current_range_meters":18400,"station_id":"ce4bhbh2rcd13ifvqepg","pricing_plan_id":"free"},{"bike_id":"c494bf2c-01c6-44a1-99f1-4faca26891d8","system_id":"levelo_inurba_marseille","lat":43.2842,"lon":5.34986,"is_reserved":false,"is_disabled":false,"rental_uris":{"android":"levelo://app?vid=c494bf2c-01c6-44a1-99f1-4faca26891d8","ios":"levelo://app?vid=c494bf2c-01c6-44a1-99f1-4faca26891d8"},"vehicle_type_id":"4","last_reported":1692540271,"current_range_meters":25200,"station_id":"ce4bhbh2rcd13ifvqepg","pricing_plan_id":"free"},{"bike_id":"ded535db-8116-47d9-9076-0aa3e207106a","system_id":"levelo_inurba_marseille","lat":43.28418,"lon":5.34992,"is_reserved":false,"is_disabled":false,"rental_uris":{"android":"levelo://app?vid=ded535db-8116-47d9-9076-0aa3e207106a","ios":"levelo://app?vid=ded535db-8116-47d9-9076-0aa3e207106a"},"vehicle_type_id":"4","last_reported":1692540271,"current_range_meters":22800,"station_id":"ce4bhbh2rcd13ifvqepg","pricing_plan_id":"free"},{"bike_id":"449275bc-2a78-49c5-b2b8-5f6c36b963d0","system_id":"levelo_inurba_marseille","lat":43.28417,"lon":5.34993,"is_reserved":false,"is_disabled":false,"rental_uris":{"android":"levelo://app?vid=449275bc-2a78-49c5-b2b8-5f6c36b963d0","ios":"levelo://app?vid=449275bc-2a78-49c5-b2b8-5f6c36b963d0"},"vehicle_type_id":"4","last_reported":1692540271,"current_range_meters":17200,"station_id":"ce4bhbh2rcd13ifvqepg","pricing_plan_id":"free"},{"bike_id":"66139586-765e-4df4-852b-17d508c1991d","system_id":"levelo_inurba_marseille","lat":43.28417,"lon":5.3499,"is_reserved":false,"is_disabled":false,"rental_uris":{"android":"levelo://app?vid=66139586-765e-4df4-852b-17d508c1991d","ios":"levelo://app?vid=66139586-765e-4df4-852b-17d508c1991d"},"vehicle_type_id":"4","last_reported":1692540271,"current_range_meters":12800,"station_id":"ce4bhbh2rcd13ifvqepg","pricing_plan_id":"free"},{"bike_id":"10402b9e-9e40-42fc-bd9f-f6fff853fd73","system_id":"levelo_inurba_marseille","lat":43.28415,"lon":5.34996,"is_reserved":false,"is_disabled":false,"rental_uris":{"android":"levelo://app?vid=10402b9e-9e40-42fc-bd9f-f6fff853fd73","ios":"levelo://app?vid=10402b9e-9e40-42fc-bd9f-f6fff853fd73"},"vehicle_type_id":"4","last_reported":1692540271,"current_range_meters":27200,"station_id":"ce4bhbh2rcd13ifvqepg","pricing_plan_id":"free"},{"bike_id":"8f6893bb-ec38-4728-b8d9-d234ff347755","system_id":"levelo_inurba_marseille","lat":43.28415,"lon":5.34995,"is_reserved":false,"is_disabled":false,"rental_uris":{"android":"levelo://app?vid=8f6893bb-ec38-4728-b8d9-d234ff347755","ios":"levelo://app?vid=8f6893bb-ec38-4728-b8d9-d234ff347755"},"vehicle_type_id":"4","last_reported":1692540271,"current_range_meters":23200,"station_id":"ce4bhbh2rcd13ifvqepg","pricing_plan_id":"free"},{"bike_id":"c1dc4575-362f-46fc-9f43-48964d5c8ac6","system_id":"levelo_inurba_marseille","lat":43.2842,"lon":5.34979,"is_reserved":false,"is_disabled":false,"rental_uris":{"android":"levelo://app?vid=c1dc4575-362f-46fc-9f43-48964d5c8ac6","ios":"levelo://app?vid=c1dc4575-362f-46fc-9f43-48964d5c8ac6"},"vehicle_type_id":"4","last_reported":1692540271,"current_range_meters":1200,"station_id":"ce4bhbh2rcd13ifvqepg","pricing_plan_id":"free"},{"bike_id":"9b4b587b-24f8-4427-a599-ca521fbb0882","system_id":"levelo_inurba_marseille","lat":43.28417,"lon":5.34987,"is_reserved":false,"is_disabled":false,"rental_uris":{"android":"levelo://app?vid=9b4b587b-24f8-4427-a599-ca521fbb0882","ios":"levelo://app?vid=9b4b587b-24f8-4427-a599-ca521fbb0882"},"vehicle_type_id":"4","last_reported":1692540271,"current_range_meters":26400,"station_id":"ce4bhbh2rcd13ifvqepg","pricing_plan_id":"free"},{"bike_id":"a778facd-db26-4d11-9924-c852e503cd99","system_id":"levelo_inurba_marseille","lat":43.28416,"lon":5.3499,"is_reserved":false,"is_disabled":false,"rental_uris":{"android":"levelo://app?vid=a778facd-db26-4d11-9924-c852e503cd99","ios":"levelo://app?vid=a778facd-db26-4d11-9924-c852e503cd99"},"vehicle_type_id":"4","last_reported":1692540271,"current_range_meters":20000,"station_id":"ce4bhbh2rcd13ifvqepg","pricing_plan_id":"free"},{"bike_id":"d469c425-9fe3-4880-bc9e-6ab171e4a129","system_id":"levelo_inurba_marseille","lat":43.284217,"lon":5.349697,"is_reserved":false,"is_disabled":false,"rental_uris":{"android":"levelo://app?vid=d469c425-9fe3-4880-bc9e-6ab171e4a129","ios":"levelo://app?vid=d469c425-9fe3-4880-bc9e-6ab171e4a129"},"vehicle_type_id":"4","last_reported":1692540271,"current_range_meters":31200,"station_id":"ce4bhbh2rcd13ifvqepg","pricing_plan_id":"free"},{"bike_id":"ba3691b5-3c59-476d-a171-f578ef6422e2","system_id":"levelo_inurba_marseille","lat":43.28415,"lon":5.34988,"is_reserved":false,"is_disabled":false,"rental_uris":{"android":"levelo://app?vid=ba3691b5-3c59-476d-a171-f578ef6422e2","ios":"levelo://app?vid=ba3691b5-3c59-476d-a171-f578ef6422e2"},"vehicle_type_id":"4","last_reported":1692540271,"current_range_meters":25600,"station_id":"ce4bhbh2rcd13ifvqepg","pricing_plan_id":"free"},{"bike_id":"bf590359-a6e5-40e1-b4ac-dd91551bde50","system_id":"levelo_inurba_marseille","lat":43.28414,"lon":5.3499,"is_reserved":false,"is_disabled":false,"rental_uris":{"android":"levelo://app?vid=bf590359-a6e5-40e1-b4ac-dd91551bde50","ios":"levelo://app?vid=bf590359-a6e5-40e1-b4ac-dd91551bde50"},"vehicle_type_id":"4","last_reported":1692540271,"current_range_meters":23600,"station_id":"ce4bhbh2rcd13ifvqepg","pricing_plan_id":"free"},{"bike_id":"1c51d1d5-ab99-47e6-a431-bb9337f29bb3","system_id":"levelo_inurba_marseille","lat":43.28415,"lon":5.34986,"is_reserved":false,"is_disabled":false,"rental_uris":{"android":"levelo://app?vid=1c51d1d5-ab99-47e6-a431-bb9337f29bb3","ios":"levelo://app?vid=1c51d1d5-ab99-47e6-a431-bb9337f29bb3"},"vehicle_type_id":"4","last_reported":1692540271,"current_range_meters":24400,"station_id":"ce4bhbh2rcd13ifvqepg","pricing_plan_id":"free"},{"bike_id":"9e2cc02c-a705-4060-9eaf-1b318d132dda","system_id":"levelo_inurba_marseille","lat":43.284217,"lon":5.349697,"is_reserved":false,"is_disabled":false,"rental_uris":{"android":"levelo://app?vid=9e2cc02c-a705-4060-9eaf-1b318d132dda","ios":"levelo://app?vid=9e2cc02c-a705-4060-9eaf-1b318d132dda"},"vehicle_type_id":"4","last_reported":1692540271,"current_range_meters":25600,"station_id":"ce4bhbh2rcd13ifvqepg","pricing_plan_id":"free"},{"bike_id":"6f59593a-a7a2-4f12-99bc-468eae9a35cb","system_id":"levelo_inurba_marseille","lat":43.284217,"lon":5.349697,"is_reserved":false,"is_disabled":false,"rental_uris":{"android":"levelo://app?vid=6f59593a-a7a2-4f12-99bc-468eae9a35cb","ios":"levelo://app?vid=6f59593a-a7a2-4f12-99bc-468eae9a35cb"},"vehicle_type_id":"4","last_reported":1692540271,"current_range_meters":13600,"station_id":"ce4bhbh2rcd13ifvqepg","pricing_plan_id":"free"},{"bike_id":"1eeb51f9-4b42-45be-b69e-90d11c587f78","system_id":"levelo_inurba_marseille","lat":43.284217,"lon":5.349697,"is_reserved":false,"is_disabled":false,"rental_uris":{"android":"levelo://app?vid=1eeb51f9-4b42-45be-b69e-90d11c587f78","ios":"levelo://app?vid=1eeb51f9-4b42-45be-b69e-90d11c587f78"},"vehicle_type_id":"4","last_reported":1692540271,"current_range_meters":26800,"station_id":"ce4bhbh2rcd13ifvqepg","pricing_plan_id":"free"},{"bike_id":"f7e4ee91-d841-4871-b720-634b8a3aa3b3","system_id":"levelo_inurba_marseille","lat":43.284217,"lon":5.349697,"is_reserved":false,"is_disabled":false,"rental_uris":{"android":"levelo://app?vid=f7e4ee91-d841-4871-b720-634b8a3aa3b3","ios":"levelo://app?vid=f7e4ee91-d841-4871-b720-634b8a3aa3b3"},"vehicle_type_id":"4","last_reported":1692540271,"current_range_meters":10000,"station_id":"ce4bhbh2rcd13ifvqepg","pricing_plan_id":"free"},{"bike_id":"cbab3a93-0879-405f-8af0-54bff1d5bbc5","system_id":"levelo_inurba_marseille","lat":43.284217,"lon":5.349697,"is_reserved":false,"is_disabled":false,"rental_uris":{"android":"levelo://app?vid=cbab3a93-0879-405f-8af0-54bff1d5bbc5","ios":"levelo://app?vid=cbab3a93-0879-405f-8af0-54bff1d5bbc5"},"vehicle_type_id":"4","last_reported":1692540271,"current_range_meters":27600,"station_id":"ce4bhbh2rcd13ifvqepg","pricing_plan_id":"free"},{"bike_id":"cb38a159-6ed3-4430-892d-95dc4c9f513a","system_id":"levelo_inurba_marseille","lat":43.284217,"lon":5.349697,"is_reserved":false,"is_disabled":false,"rental_uris":{"android":"levelo://app?vid=cb38a159-6ed3-4430-892d-95dc4c9f513a","ios":"levelo://app?vid=cb38a159-6ed3-4430-892d-95dc4c9f513a"},"vehicle_type_id":"4","last_reported":1692540271,"current_range_meters":18000,"station_id":"ce4bhbh2rcd13ifvqepg","pricing_plan_id":"free"},{"bike_id":"50877f9c-1af7-4652-8915-c103f79cc58f","system_id":"levelo_inurba_marseille","lat":43.284217,"lon":5.349697,"is_reserved":false,"is_disabled":false,"rental_uris":{"android":"levelo://app?vid=50877f9c-1af7-4652-8915-c103f79cc58f","ios":"levelo://app?vid=50877f9c-1af7-4652-8915-c103f79cc58f"},"vehicle_type_id":"4","last_reported":1692540271,"current_range_meters":27600,"station_id":"ce4bhbh2rcd13ifvqepg","pricing_plan_id":"free"},{"bike_id":"05c0ea99-3bc7-454e-8314-ea424bcbf8f9","system_id":"levelo_inurba_marseille","lat":43.284217,"lon":5.349697,"is_reserved":false,"is_disabled":false,"rental_uris":{"android":"levelo://app?vid=05c0ea99-3bc7-454e-8314-ea424bcbf8f9","ios":"levelo://app?vid=05c0ea99-3bc7-454e-8314-ea424bcbf8f9"},"vehicle_type_id":"4","last_reported":1692540271,"current_range_meters":31200,"station_id":"ce4bhbh2rcd13ifvqepg","pricing_plan_id":"free"},{"bike_id":"c3692c95-2731-4e56-a1b4-467058e09aba","system_id":"levelo_inurba_marseille","lat":43.284145,"lon":5.349757,"is_reserved":false,"is_disabled":false,"rental_uris":{"android":"levelo://app?vid=c3692c95-2731-4e56-a1b4-467058e09aba","ios":"levelo://app?vid=c3692c95-2731-4e56-a1b4-467058e09aba"},"vehicle_type_id":"4","last_reported":1692540271,"current_range_meters":14000,"station_id":"ce4bhbh2rcd13ifvqepg","pricing_plan_id":"free"},{"bike_id":"d8e0f08d-5d04-4166-9c19-4ca03a40f463","system_id":"levelo_inurba_marseille","lat":43.2841,"lon":5.34989,"is_reserved":false,"is_disabled":false,"rental_uris":{"android":"levelo://app?vid=d8e0f08d-5d04-4166-9c19-4ca03a40f463","ios":"levelo://app?vid=d8e0f08d-5d04-4166-9c19-4ca03a40f463"},"vehicle_type_id":"4","last_reported":1692540271,"current_range_meters":20800,"station_id":"ce4bhbh2rcd13ifvqepg","pricing_plan_id":"free"},{"bike_id":"f50aca5f-cf5b-4020-925f-826a2e34874f","system_id":"levelo_inurba_marseille","lat":43.289363,"lon":5.396322,"is_reserved":false,"is_disabled":false,"rental_uris":{"android":"levelo://app?vid=f50aca5f-cf5b-4020-925f-826a2e34874f","ios":"levelo://app?vid=f50aca5f-cf5b-4020-925f-826a2e34874f"},"vehicle_type_id":"4","last_reported":1692540271,"current_range_meters":30000,"station_id":"ce4bh3h2rcd13ifvqdn0","pricing_plan_id":"free"},{"bike_id":"5cec26ac-344f-432b-af34-450b75305b9b","system_id":"levelo_inurba_marseille","lat":43.292724,"lon":5.401131,"is_reserved":false,"is_disabled":false,"rental_uris":{"android":"levelo://app?vid=5cec26ac-344f-432b-af34-450b75305b9b","ios":"levelo://app?vid=5cec26ac-344f-432b-af34-450b75305b9b"},"vehicle_type_id":"4","last_reported":1692540271,"current_range_meters":31200,"station_id":"ce4bh312rcd13ifvqdk0","pricing_plan_id":"free"},{"bike_id":"ec85e96e-a6d8-4422-a888-439b62e61cbf","system_id":"levelo_inurba_marseille","lat":43.28277,"lon":5.35068,"is_reserved":false,"is_disabled":false,"rental_uris":{"android":"levelo://app?vid=ec85e96e-a6d8-4422-a888-439b62e61cbf","ios":"levelo://app?vid=ec85e96e-a6d8-4422-a888-439b62e61cbf"},"vehicle_type_id":"4","last_reported":1692540271,"current_range_meters":20400,"station_id":"ce4bhbp2rcd13ifvqerg","pricing_plan_id":"free"},{"bike_id":"f07c8dad-3098-4cf0-ad05-12e4713d8af5","system_id":"levelo_inurba_marseille","lat":43.28275,"lon":5.35068,"is_reserved":false,"is_disabled":false,"rental_uris":{"android":"levelo://app?vid=f07c8dad-3098-4cf0-ad05-12e4713d8af5","ios":"levelo://app?vid=f07c8dad-3098-4cf0-ad05-12e4713d8af5"},"vehicle_type_id":"4","last_reported":1692540271,"current_range_meters":12400,"station_id":"ce4bhbp2rcd13ifvqerg","pricing_plan_id":"free"},{"bike_id":"ee08d7de-aee6-4f6e-8ea1-5124642f13bb","system_id":"levelo_inurba_marseille","lat":43.282754,"lon":5.350519,"is_reserved":false,"is_disabled":false,"rental_uris":{"android":"levelo://app?vid=ee08d7de-aee6-4f6e-8ea1-5124642f13bb","ios":"levelo://app?vid=ee08d7de-aee6-4f6e-8ea1-5124642f13bb"},"vehicle_type_id":"4","last_reported":1692540271,"current_range_meters":21600,"station_id":"ce4bhbp2rcd13ifvqerg","pricing_plan_id":"free"},{"bike_id":"88940920-727e-47f8-bee6-24feedff1167","system_id":"levelo_inurba_marseille","lat":43.282744,"lon":5.350533,"is_reserved":false,"is_disabled":false,"rental_uris":{"android":"levelo://app?vid=88940920-727e-47f8-bee6-24feedff1167","ios":"levelo://app?vid=88940920-727e-47f8-bee6-24feedff1167"},"vehicle_type_id":"4","last_reported":1692540271,"current_range_meters":30000,"station_id":"ce4bhbp2rcd13ifvqerg","pricing_plan_id":"free"},{"bike_id":"cfb0f194-45ac-4876-a896-65539c958816","system_id":"levelo_inurba_marseille","lat":43.282754,"lon":5.350519,"is_reserved":false,"is_disabled":false,"rental_uris":{"android":"levelo://app?vid=cfb0f194-45ac-4876-a896-65539c958816","ios":"levelo://app?vid=cfb0f194-45ac-4876-a896-65539c958816"},"vehicle_type_id":"4","last_reported":1692540271,"current_range_meters":31200,"station_id":"ce4bhbp2rcd13ifvqerg","pricing_plan_id":"free"},{"bike_id":"b034ba69-a764-4f4f-8988-008b6912a5a1","system_id":"levelo_inurba_marseille","lat":43.28268,"lon":5.35069,"is_reserved":false,"is_disabled":false,"rental_uris":{"android":"levelo://app?vid=b034ba69-a764-4f4f-8988-008b6912a5a1","ios":"levelo://app?vid=b034ba69-a764-4f4f-8988-008b6912a5a1"},"vehicle_type_id":"4","last_reported":1692540271,"current_range_meters":31200,"station_id":"ce4bhbp2rcd13ifvqerg","pricing_plan_id":"free"},{"bike_id":"3e54afbe-9dae-4dbc-b335-4a8f80dac08b","system_id":"levelo_inurba_marseille","lat":43.28267,"lon":5.35069,"is_reserved":false,"is_disabled":false,"rental_uris":{"android":"levelo://app?vid=3e54afbe-9dae-4dbc-b335-4a8f80dac08b","ios":"levelo://app?vid=3e54afbe-9dae-4dbc-b335-4a8f80dac08b"},"vehicle_type_id":"4","last_reported":1692540271,"current_range_meters":31200,"station_id":"ce4bhbp2rcd13ifvqerg","pricing_plan_id":"free"},{"bike_id":"f6796a18-d847-4b00-a90e-8190ef21bbdc","system_id":"levelo_inurba_marseille","lat":43.282754,"lon":5.350519,"is_reserved":false,"is_disabled":false,"rental_uris":{"android":"levelo://app?vid=f6796a18-d847-4b00-a90e-8190ef21bbdc","ios":"levelo://app?vid=f6796a18-d847-4b00-a90e-8190ef21bbdc"},"vehicle_type_id":"4","last_reported":1692540271,"current_range_meters":28000,"station_id":"ce4bhbp2rcd13ifvqerg","pricing_plan_id":"free"},{"bike_id":"9f46cfde-4f76-4076-bade-5765c2d3d473","system_id":"levelo_inurba_marseille","lat":43.28039,"lon":5.369297,"is_reserved":false,"is_disabled":false,"rental_uris":{"android":"levelo://app?vid=9f46cfde-4f76-4076-bade-5765c2d3d473","ios":"levelo://app?vid=9f46cfde-4f76-4076-bade-5765c2d3d473"},"vehicle_type_id":"4","last_reported":1692540271,"current_range_meters":31600,"station_id":"ce4bha12rcd13ifvqef0","pricing_plan_id":"free"},{"bike_id":"3bf869b8-c242-4630-817c-6b26b618cc33","system_id":"levelo_inurba_marseille","lat":43.284462,"lon":5.392121,"is_reserved":false,"is_disabled":false,"rental_uris":{"android":"levelo://app?vid=3bf869b8-c242-4630-817c-6b26b618cc33","ios":"levelo://app?vid=3bf869b8-c242-4630-817c-6b26b618cc33"},"vehicle_type_id":"4","last_reported":1692540271,"current_range_meters":12800,"station_id":"ce4bhoh2rcd13ifvqh5g","pricing_plan_id":"free"},{"bike_id":"f8ef4f78-badc-40d1-a4a9-077301466e56","system_id":"levelo_inurba_marseille","lat":43.32662,"lon":5.40978,"is_reserved":false,"is_disabled":false,"rental_uris":{"android":"levelo://app?vid=f8ef4f78-badc-40d1-a4a9-077301466e56","ios":"levelo://app?vid=f8ef4f78-badc-40d1-a4a9-077301466e56"},"vehicle_type_id":"4","last_reported":1692540271,"current_range_meters":8800,"station_id":"ce4bhpp2rcd13ifvqhgg","pricing_plan_id":"free"},{"bike_id":"1c141dfe-179c-44c3-9873-a7faf120ed73","system_id":"levelo_inurba_marseille","lat":43.279087,"lon":5.380114,"is_reserved":false,"is_disabled":false,"rental_uris":{"android":"levelo://app?vid=1c141dfe-179c-44c3-9873-a7faf120ed73","ios":"levelo://app?vid=1c141dfe-179c-44c3-9873-a7faf120ed73"},"vehicle_type_id":"4","last_reported":1692540271,"current_range_meters":27600,"station_id":"ce4bhf92rcd13ifvqf50","pricing_plan_id":"free"},{"bike_id":"c327718a-8fe6-4791-a349-aba0f8f94e82","system_id":"levelo_inurba_marseille","lat":43.279742,"lon":5.38744,"is_reserved":false,"is_disabled":false,"rental_uris":{"android":"levelo://app?vid=c327718a-8fe6-4791-a349-aba0f8f94e82","ios":"levelo://app?vid=c327718a-8fe6-4791-a349-aba0f8f94e82"},"vehicle_type_id":"4","last_reported":1692540271,"current_range_meters":25600,"station_id":"ce4bhg12rcd13ifvqf80","pricing_plan_id":"free"},{"bike_id":"6289839e-e5e8-4b2b-b447-7e41d00a0cb9","system_id":"levelo_inurba_marseille","lat":43.279742,"lon":5.38744,"is_reserved":false,"is_disabled":false,"rental_uris":{"android":"levelo://app?vid=6289839e-e5e8-4b2b-b447-7e41d00a0cb9","ios":"levelo://app?vid=6289839e-e5e8-4b2b-b447-7e41d00a0cb9"},"vehicle_type_id":"4","last_reported":1692540271,"current_range_meters":18000,"station_id":"ce4bhg12rcd13ifvqf80","pricing_plan_id":"free"},{"bike_id":"6dc4a6d6-f862-4405-9dd3-c5976a6f60f1","system_id":"levelo_inurba_marseille","lat":43.32539,"lon":5.41443,"is_reserved":false,"is_disabled":false,"rental_uris":{"android":"levelo://app?vid=6dc4a6d6-f862-4405-9dd3-c5976a6f60f1","ios":"levelo://app?vid=6dc4a6d6-f862-4405-9dd3-c5976a6f60f1"},"vehicle_type_id":"4","last_reported":1692540271,"current_range_meters":8400,"station_id":"ce4bhq12rcd13ifvqhhg","pricing_plan_id":"free"},{"bike_id":"18775127-fd27-467e-8751-1eb9914c1c0e","system_id":"levelo_inurba_marseille","lat":43.32544,"lon":5.4145,"is_reserved":false,"is_disabled":false,"rental_uris":{"android":"levelo://app?vid=18775127-fd27-467e-8751-1eb9914c1c0e","ios":"levelo://app?vid=18775127-fd27-467e-8751-1eb9914c1c0e"},"vehicle_type_id":"4","last_reported":1692540271,"current_range_meters":25200,"station_id":"ce4bhq12rcd13ifvqhhg","pricing_plan_id":"free"},{"bike_id":"521d01f6-264d-4855-af85-75ee1fb3b4be","system_id":"levelo_inurba_marseille","lat":43.280784,"lon":5.396622,"is_reserved":false,"is_disabled":false,"rental_uris":{"android":"levelo://app?vid=521d01f6-264d-4855-af85-75ee1fb3b4be","ios":"levelo://app?vid=521d01f6-264d-4855-af85-75ee1fb3b4be"},"vehicle_type_id":"4","last_reported":1692540271,"current_range_meters":4400,"station_id":"ce4bho12rcd13ifvqh2g","pricing_plan_id":"free"},{"bike_id":"d90d9ef6-5421-4932-bb6f-50a3d88f5ac6","system_id":"levelo_inurba_marseille","lat":43.273613,"lon":5.362705,"is_reserved":false,"is_disabled":false,"rental_uris":{"android":"levelo://app?vid=d90d9ef6-5421-4932-bb6f-50a3d88f5ac6","ios":"levelo://app?vid=d90d9ef6-5421-4932-bb6f-50a3d88f5ac6"},"vehicle_type_id":"4","last_reported":1692540271,"current_range_meters":31200,"station_id":"ce4bhbh2rcd13ifvqeo0","pricing_plan_id":"free"},{"bike_id":"14abb32e-2ba4-4306-830a-4b262b253bb0","system_id":"levelo_inurba_marseille","lat":43.273613,"lon":5.362705,"is_reserved":false,"is_disabled":false,"rental_uris":{"android":"levelo://app?vid=14abb32e-2ba4-4306-830a-4b262b253bb0","ios":"levelo://app?vid=14abb32e-2ba4-4306-830a-4b262b253bb0"},"vehicle_type_id":"4","last_reported":1692540271,"current_range_meters":20400,"station_id":"ce4bhbh2rcd13ifvqeo0","pricing_plan_id":"free"},{"bike_id":"140a16c9-b22e-4e46-8011-17c5ba850611","system_id":"levelo_inurba_marseille","lat":43.273613,"lon":5.362705,"is_reserved":false,"is_disabled":false,"rental_uris":{"android":"levelo://app?vid=140a16c9-b22e-4e46-8011-17c5ba850611","ios":"levelo://app?vid=140a16c9-b22e-4e46-8011-17c5ba850611"},"vehicle_type_id":"4","last_reported":1692540271,"current_range_meters":31200,"station_id":"ce4bhbh2rcd13ifvqeo0","pricing_plan_id":"free"},{"bike_id":"70cfb178-cb4a-4358-b5cf-99e1c26814b3","system_id":"levelo_inurba_marseille","lat":43.273613,"lon":5.362705,"is_reserved":false,"is_disabled":false,"rental_uris":{"android":"levelo://app?vid=70cfb178-cb4a-4358-b5cf-99e1c26814b3","ios":"levelo://app?vid=70cfb178-cb4a-4358-b5cf-99e1c26814b3"},"vehicle_type_id":"4","last_reported":1692540271,"current_range_meters":12800,"station_id":"ce4bhbh2rcd13ifvqeo0","pricing_plan_id":"free"},{"bike_id":"9eb3a4b8-0363-4a2f-8971-6944a29ef46b","system_id":"levelo_inurba_marseille","lat":43.273609,"lon":5.362708,"is_reserved":false,"is_disabled":false,"rental_uris":{"android":"levelo://app?vid=9eb3a4b8-0363-4a2f-8971-6944a29ef46b","ios":"levelo://app?vid=9eb3a4b8-0363-4a2f-8971-6944a29ef46b"},"vehicle_type_id":"4","last_reported":1692540271,"current_range_meters":16800,"station_id":"ce4bhbh2rcd13ifvqeo0","pricing_plan_id":"free"},{"bike_id":"3910ee09-3524-4037-aff0-a49672fe1992","system_id":"levelo_inurba_marseille","lat":43.273613,"lon":5.362705,"is_reserved":false,"is_disabled":false,"rental_uris":{"android":"levelo://app?vid=3910ee09-3524-4037-aff0-a49672fe1992","ios":"levelo://app?vid=3910ee09-3524-4037-aff0-a49672fe1992"},"vehicle_type_id":"4","last_reported":1692540271,"current_range_meters":31200,"station_id":"ce4bhbh2rcd13ifvqeo0","pricing_plan_id":"free"},{"bike_id":"63aaecfd-7c5a-4af9-b494-7454593838f5","system_id":"levelo_inurba_marseille","lat":43.273609,"lon":5.362708,"is_reserved":false,"is_disabled":false,"rental_uris":{"android":"levelo://app?vid=63aaecfd-7c5a-4af9-b494-7454593838f5","ios":"levelo://app?vid=63aaecfd-7c5a-4af9-b494-7454593838f5"},"vehicle_type_id":"4","last_reported":1692540271,"current_range_meters":23600,"station_id":"ce4bhbh2rcd13ifvqeo0","pricing_plan_id":"free"},{"bike_id":"40df8b3f-819d-46cf-97d8-c811ee418232","system_id":"levelo_inurba_marseille","lat":43.273609,"lon":5.362708,"is_reserved":false,"is_disabled":false,"rental_uris":{"android":"levelo://app?vid=40df8b3f-819d-46cf-97d8-c811ee418232","ios":"levelo://app?vid=40df8b3f-819d-46cf-97d8-c811ee418232"},"vehicle_type_id":"4","last_reported":1692540271,"current_range_meters":30400,"station_id":"ce4bhbh2rcd13ifvqeo0","pricing_plan_id":"free"},{"bike_id":"b2712ce6-59b8-44f7-82f4-4de849670a35","system_id":"levelo_inurba_marseille","lat":43.273613,"lon":5.362705,"is_reserved":false,"is_disabled":false,"rental_uris":{"android":"levelo://app?vid=b2712ce6-59b8-44f7-82f4-4de849670a35","ios":"levelo://app?vid=b2712ce6-59b8-44f7-82f4-4de849670a35"},"vehicle_type_id":"4","last_reported":1692540271,"current_range_meters":31600,"station_id":"ce4bhbh2rcd13ifvqeo0","pricing_plan_id":"free"},{"bike_id":"bd6424dc-eb2c-457b-bfe5-529bfe26598c","system_id":"levelo_inurba_marseille","lat":43.273613,"lon":5.362705,"is_reserved":false,"is_disabled":false,"rental_uris":{"android":"levelo://app?vid=bd6424dc-eb2c-457b-bfe5-529bfe26598c","ios":"levelo://app?vid=bd6424dc-eb2c-457b-bfe5-529bfe26598c"},"vehicle_type_id":"4","last_reported":1692540271,"current_range_meters":31600,"station_id":"ce4bhbh2rcd13ifvqeo0","pricing_plan_id":"free"},{"bike_id":"a8ff39ba-fe50-4deb-a06a-17cabfe4821d","system_id":"levelo_inurba_marseille","lat":43.273613,"lon":5.362705,"is_reserved":false,"is_disabled":false,"rental_uris":{"android":"levelo://app?vid=a8ff39ba-fe50-4deb-a06a-17cabfe4821d","ios":"levelo://app?vid=a8ff39ba-fe50-4deb-a06a-17cabfe4821d"},"vehicle_type_id":"4","last_reported":1692540271,"current_range_meters":22800,"station_id":"ce4bhbh2rcd13ifvqeo0","pricing_plan_id":"free"},{"bike_id":"5451c957-baaa-4f3c-b532-a62223c8898e","system_id":"levelo_inurba_marseille","lat":43.273613,"lon":5.362705,"is_reserved":false,"is_disabled":false,"rental_uris":{"android":"levelo://app?vid=5451c957-baaa-4f3c-b532-a62223c8898e","ios":"levelo://app?vid=5451c957-baaa-4f3c-b532-a62223c8898e"},"vehicle_type_id":"4","last_reported":1692540271,"current_range_meters":15200,"station_id":"ce4bhbh2rcd13ifvqeo0","pricing_plan_id":"free"},{"bike_id":"32a721a2-51e2-4144-a680-a8dddb20bb6c","system_id":"levelo_inurba_marseille","lat":43.273613,"lon":5.362705,"is_reserved":false,"is_disabled":false,"rental_uris":{"android":"levelo://app?vid=32a721a2-51e2-4144-a680-a8dddb20bb6c","ios":"levelo://app?vid=32a721a2-51e2-4144-a680-a8dddb20bb6c"},"vehicle_type_id":"4","last_reported":1692540271,"current_range_meters":16800,"station_id":"ce4bhbh2rcd13ifvqeo0","pricing_plan_id":"free"},{"bike_id":"b607e455-2acf-4bc1-90f5-b81f33d11f87","system_id":"levelo_inurba_marseille","lat":43.273613,"lon":5.362705,"is_reserved":false,"is_disabled":false,"rental_uris":{"android":"levelo://app?vid=b607e455-2acf-4bc1-90f5-b81f33d11f87","ios":"levelo://app?vid=b607e455-2acf-4bc1-90f5-b81f33d11f87"},"vehicle_type_id":"4","last_reported":1692540271,"current_range_meters":31200,"station_id":"ce4bhbh2rcd13ifvqeo0","pricing_plan_id":"free"},{"bike_id":"ba453cc9-a51e-4ebd-81ba-d7ba44384063","system_id":"levelo_inurba_marseille","lat":43.273613,"lon":5.362705,"is_reserved":false,"is_disabled":false,"rental_uris":{"android":"levelo://app?vid=ba453cc9-a51e-4ebd-81ba-d7ba44384063","ios":"levelo://app?vid=ba453cc9-a51e-4ebd-81ba-d7ba44384063"},"vehicle_type_id":"4","last_reported":1692540271,"current_range_meters":24000,"station_id":"ce4bhbh2rcd13ifvqeo0","pricing_plan_id":"free"},{"bike_id":"e6317c89-849b-4f46-9d68-6b5c5027bd7c","system_id":"levelo_inurba_marseille","lat":43.273613,"lon":5.362705,"is_reserved":false,"is_disabled":false,"rental_uris":{"android":"levelo://app?vid=e6317c89-849b-4f46-9d68-6b5c5027bd7c","ios":"levelo://app?vid=e6317c89-849b-4f46-9d68-6b5c5027bd7c"},"vehicle_type_id":"4","last_reported":1692540271,"current_range_meters":19600,"station_id":"ce4bhbh2rcd13ifvqeo0","pricing_plan_id":"free"},{"bike_id":"14251694-5f0e-4841-b57e-311fb4cfa8d9","system_id":"levelo_inurba_marseille","lat":43.273613,"lon":5.362705,"is_reserved":false,"is_disabled":false,"rental_uris":{"android":"levelo://app?vid=14251694-5f0e-4841-b57e-311fb4cfa8d9","ios":"levelo://app?vid=14251694-5f0e-4841-b57e-311fb4cfa8d9"},"vehicle_type_id":"4","last_reported":1692540271,"current_range_meters":32000,"station_id":"ce4bhbh2rcd13ifvqeo0","pricing_plan_id":"free"},{"bike_id":"91851225-a291-4850-a92e-465bfebb3f41","system_id":"levelo_inurba_marseille","lat":43.273609,"lon":5.362708,"is_reserved":false,"is_disabled":false,"rental_uris":{"android":"levelo://app?vid=91851225-a291-4850-a92e-465bfebb3f41","ios":"levelo://app?vid=91851225-a291-4850-a92e-465bfebb3f41"},"vehicle_type_id":"4","last_reported":1692540271,"current_range_meters":21200,"station_id":"ce4bhbh2rcd13ifvqeo0","pricing_plan_id":"free"},{"bike_id":"2ba06fb3-b9f4-47ba-b9a6-8cf0b4abcbae","system_id":"levelo_inurba_marseille","lat":43.273613,"lon":5.362705,"is_reserved":false,"is_disabled":false,"rental_uris":{"android":"levelo://app?vid=2ba06fb3-b9f4-47ba-b9a6-8cf0b4abcbae","ios":"levelo://app?vid=2ba06fb3-b9f4-47ba-b9a6-8cf0b4abcbae"},"vehicle_type_id":"4","last_reported":1692540271,"current_range_meters":31600,"station_id":"ce4bhbh2rcd13ifvqeo0","pricing_plan_id":"free"},{"bike_id":"35d269bd-0f83-4870-a0a4-30165806870f","system_id":"levelo_inurba_marseille","lat":43.273609,"lon":5.362708,"is_reserved":false,"is_disabled":false,"rental_uris":{"android":"levelo://app?vid=35d269bd-0f83-4870-a0a4-30165806870f","ios":"levelo://app?vid=35d269bd-0f83-4870-a0a4-30165806870f"},"vehicle_type_id":"4","last_reported":1692540271,"current_range_meters":24000,"station_id":"ce4bhbh2rcd13ifvqeo0","pricing_plan_id":"free"},{"bike_id":"f393f626-4d9d-4ec7-8db9-6f16143cd006","system_id":"levelo_inurba_marseille","lat":43.273613,"lon":5.362705,"is_reserved":false,"is_disabled":false,"rental_uris":{"android":"levelo://app?vid=f393f626-4d9d-4ec7-8db9-6f16143cd006","ios":"levelo://app?vid=f393f626-4d9d-4ec7-8db9-6f16143cd006"},"vehicle_type_id":"4","last_reported":1692540271,"current_range_meters":31600,"station_id":"ce4bhbh2rcd13ifvqeo0","pricing_plan_id":"free"},{"bike_id":"757b2cdf-b087-4807-8332-5f213be06aa7","system_id":"levelo_inurba_marseille","lat":43.273613,"lon":5.362705,"is_reserved":false,"is_disabled":false,"rental_uris":{"android":"levelo://app?vid=757b2cdf-b087-4807-8332-5f213be06aa7","ios":"levelo://app?vid=757b2cdf-b087-4807-8332-5f213be06aa7"},"vehicle_type_id":"4","last_reported":1692540271,"current_range_meters":31200,"station_id":"ce4bhbh2rcd13ifvqeo0","pricing_plan_id":"free"},{"bike_id":"d8ed17e3-0405-401f-aaa3-3eb01aaa1b27","system_id":"levelo_inurba_marseille","lat":43.273609,"lon":5.362708,"is_reserved":false,"is_disabled":false,"rental_uris":{"android":"levelo://app?vid=d8ed17e3-0405-401f-aaa3-3eb01aaa1b27","ios":"levelo://app?vid=d8ed17e3-0405-401f-aaa3-3eb01aaa1b27"},"vehicle_type_id":"4","last_reported":1692540271,"current_range_meters":31600,"station_id":"ce4bhbh2rcd13ifvqeo0","pricing_plan_id":"free"},{"bike_id":"0692863e-62a7-429f-9f01-78b5a0a2c0f4","system_id":"levelo_inurba_marseille","lat":43.33612,"lon":5.410321,"is_reserved":false,"is_disabled":false,"rental_uris":{"android":"levelo://app?vid=0692863e-62a7-429f-9f01-78b5a0a2c0f4","ios":"levelo://app?vid=0692863e-62a7-429f-9f01-78b5a0a2c0f4"},"vehicle_type_id":"4","last_reported":1692540271,"current_range_meters":31200,"station_id":"ce4bhqh2rcd13ifvqhmg","pricing_plan_id":"free"},{"bike_id":"70bed432-7d5a-4975-8cf7-b27d2bcaeea6","system_id":"levelo_inurba_marseille","lat":43.273613,"lon":5.362705,"is_reserved":false,"is_disabled":false,"rental_uris":{"android":"levelo://app?vid=70bed432-7d5a-4975-8cf7-b27d2bcaeea6","ios":"levelo://app?vid=70bed432-7d5a-4975-8cf7-b27d2bcaeea6"},"vehicle_type_id":"4","last_reported":1692540271,"current_range_meters":26800,"station_id":"ce4bhbh2rcd13ifvqeo0","pricing_plan_id":"free"},{"bike_id":"be247c11-900d-4765-a370-e7adab8eb039","system_id":"levelo_inurba_marseille","lat":43.273609,"lon":5.362708,"is_reserved":false,"is_disabled":false,"rental_uris":{"android":"levelo://app?vid=be247c11-900d-4765-a370-e7adab8eb039","ios":"levelo://app?vid=be247c11-900d-4765-a370-e7adab8eb039"},"vehicle_type_id":"4","last_reported":1692540271,"current_range_meters":22000,"station_id":"ce4bhbh2rcd13ifvqeo0","pricing_plan_id":"free"},{"bike_id":"b1247e8e-cea6-4634-9713-bc433ae187a7","system_id":"levelo_inurba_marseille","lat":43.273609,"lon":5.362708,"is_reserved":false,"is_disabled":false,"rental_uris":{"android":"levelo://app?vid=b1247e8e-cea6-4634-9713-bc433ae187a7","ios":"levelo://app?vid=b1247e8e-cea6-4634-9713-bc433ae187a7"},"vehicle_type_id":"4","last_reported":1692540271,"current_range_meters":28000,"station_id":"ce4bhbh2rcd13ifvqeo0","pricing_plan_id":"free"},{"bike_id":"785a7f8c-a4f3-485e-b832-981016d6c422","system_id":"levelo_inurba_marseille","lat":43.273613,"lon":5.362705,"is_reserved":false,"is_disabled":false,"rental_uris":{"android":"levelo://app?vid=785a7f8c-a4f3-485e-b832-981016d6c422","ios":"levelo://app?vid=785a7f8c-a4f3-485e-b832-981016d6c422"},"vehicle_type_id":"4","last_reported":1692540271,"current_range_meters":25200,"station_id":"ce4bhbh2rcd13ifvqeo0","pricing_plan_id":"free"},{"bike_id":"099323ae-fd36-42c9-9078-68be2e3dad2d","system_id":"levelo_inurba_marseille","lat":43.275625,"lon":5.384392,"is_reserved":false,"is_disabled":false,"rental_uris":{"android":"levelo://app?vid=099323ae-fd36-42c9-9078-68be2e3dad2d","ios":"levelo://app?vid=099323ae-fd36-42c9-9078-68be2e3dad2d"},"vehicle_type_id":"4","last_reported":1692540271,"current_range_meters":12000,"station_id":"ce4bhh92rcd13ifvqfi0","pricing_plan_id":"free"},{"bike_id":"87751c2e-92ec-4f3b-b020-b5827f2266e4","system_id":"levelo_inurba_marseille","lat":43.273613,"lon":5.362705,"is_reserved":false,"is_disabled":false,"rental_uris":{"android":"levelo://app?vid=87751c2e-92ec-4f3b-b020-b5827f2266e4","ios":"levelo://app?vid=87751c2e-92ec-4f3b-b020-b5827f2266e4"},"vehicle_type_id":"4","last_reported":1692540271,"current_range_meters":31600,"station_id":"ce4bhbh2rcd13ifvqeo0","pricing_plan_id":"free"},{"bike_id":"c07ba326-a9df-45d2-a8f1-36dd0b1925e8","system_id":"levelo_inurba_marseille","lat":43.336134,"lon":5.410341,"is_reserved":false,"is_disabled":false,"rental_uris":{"android":"levelo://app?vid=c07ba326-a9df-45d2-a8f1-36dd0b1925e8","ios":"levelo://app?vid=c07ba326-a9df-45d2-a8f1-36dd0b1925e8"},"vehicle_type_id":"4","last_reported":1692540271,"current_range_meters":24000,"station_id":"ce4bhqh2rcd13ifvqhmg","pricing_plan_id":"free"},