{"last_updated":1745396070,"ttl":60,"version":"2.2","data":{"bikes":[{"bike_id":"2b78763e-2fa7-49ae-bc5f-b009c1875538","system_id":"levelo_inurba_marseille","lat":43.33606,"lon":5.41032,"is_reserved":false,"is_disabled":false,"rental_uris":{"android":"levelo://app?vid=2b78763e-2fa7-49ae-bc5f-b009c1875538","ios":"levelo://app?vid=2b78763e-2fa7-49ae-bc5f-b009c1875538"},"vehicle_type_id":"4","last_reported":1745396071,"current_range_meters":2800,"station_id":"ce4bhqh2rcd13ifvqhmg","pricing_plan_id":"cebpf4jnsgd1na2vs0mg"},{"bike_id":"a17fba98-9b12-4bfd-8d28-046cc31f4f36","system_id":"levelo_inurba_marseille","lat":43.33605,"lon":5.41005,"is_reserved":false,"is_disabled":false,"rental_uris":{"android":"levelo://app?vid=a17fba98-9b12-4bfd-8d28-046cc31f4f36","ios":"levelo://app?vid=a17fba98-9b12-4bfd-8d28-046cc31f4f36"},"vehicle_type_id":"4","last_reported":1745396071,"current_range_meters":3200,"station_id":"ce4bhqh2rcd13ifvqhmg","pricing_plan_id":"cebpf4jnsgd1na2vs0mg"},{"bike_id":"91f6efee-1c2a-49e3-be41-7582867cbfec","system_id":"levelo_inurba_marseille","lat":43.32348,"lon":5.42077,"is_reserved":false,"is_disabled":false,"rental_uris":{"android":"levelo://app?vid=91f6efee-1c2a-49e3-be41-7582867cbfec","ios":"levelo://app?vid=91f6efee-1c2a-49e3-be41-7582867cbfec"},"vehicle_type_id":"4","last_reported":1745396071,"current_range_meters":3200,"station_id":"","pricing_plan_id":"cebpf4jnsgd1na2vs0mg"},{"bike_id":"d5619893-9ad4-46d0-94a8-738b7e8de40d","system_id":"levelo_inurba_marseille","lat":43.2417,"lon":5.39681,"is_reserved":false,"is_disabled":false,"rental_uris":{"android":"levelo://app?vid=d5619893-9ad4-46d0-94a8-738b7e8de40d","ios":"levelo://app?vid=d5619893-9ad4-46d0-94a8-738b7e8de40d"},"vehicle_type_id":"4","last_reported":1745396071,"current_range_meters":3200,"station_id":"ce4bhn12rcd13ifvqgpg","pricing_plan_id":"cebpf4jnsgd1na2vs0mg"},{"bike_id":"2256eb66-227e-485a-92c8-0bdb4da79453","system_id":"levelo_inurba_marseille","lat":43.31175,"lon":5.38722,"is_reserved":false,"is_disabled":false,"rental_uris":{"android":"levelo://app?vid=2256eb66-227e-485a-92c8-0bdb4da79453","ios":"levelo://app?vid=2256eb66-227e-485a-92c8-0bdb4da79453"},"vehicle_type_id":"4","last_reported":1745396071,"current_range_meters":3600,"station_id":"ce4bgv12rcd13ifvqcp0","pricing_plan_id":"cebpf4jnsgd1na2vs0mg"},{"bike_id":"fe9353af-0db9-4688-84b0-7d58bdce9daf","system_id":"levelo_inurba_marseille","lat":43.3017,"lon":5.38097,"is_reserved":false,"is_disabled":false,"rental_uris":{"android":"levelo://app?vid=fe9353af-0db9-4688-84b0-7d58bdce9daf","ios":"levelo://app?vid=fe9353af-0db9-4688-84b0-7d58bdce9daf"},"vehicle_type_id":"4","last_reported":1745396071,"current_range_meters":3600,"station_id":"ce4bgjp2rcd13ifvqbh0","pricing_plan_id":"cebpf4jnsgd1na2vs0mg"},{"bike_id":"4de92fcb-5cae-4f4e-a6fa-7c761de0b676","system_id":"levelo_inurba_marseille","lat":43.3001,"lon":5.36731,"is_reserved":false,"is_disabled":false,"rental_uris":{"android":"levelo://app?vid=4de92fcb-5cae-4f4e-a6fa-7c761de0b676","ios":"levelo://app?vid=4de92fcb-5cae-4f4e-a6fa-7c761de0b676"},"vehicle_type_id":"4","last_reported":1745396071,"current_range_meters":4000,"station_id":"","pricing_plan_id":"cebpf4jnsgd1na2vs0mg"},{"bike_id":"0ec2c2f9-1786-4e37-bb38-4b5f4aeb25a1","system_id":"levelo_inurba_marseille","lat":43.30141,"lon":5.37416,"is_reserved":false,"is_disabled":false,"rental_uris":{"android":"levelo://app?vid=0ec2c2f9-1786-4e37-bb38-4b5f4aeb25a1","ios":"levelo://app?vid=0ec2c2f9-1786-4e37-bb38-4b5f4aeb25a1"},"vehicle_type_id":"4","last_reported":1745396071,"current_range_meters":4000,"station_id":"ce4bgs92rcd13ifvqcc0","pricing_plan_id":"cebpf4jnsgd1na2vs0mg"},{"bike_id":"8d5d7cd5-e12f-4baa-824c-3739f9cf306e","system_id":"levelo_inurba_marseille","lat":43.26934,"lon":5.38922,"is_reserved":false,"is_disabled":false,"rental_uris":{"android":"levelo://app?vid=8d5d7cd5-e12f-4baa-824c-3739f9cf306e","ios":"levelo://app?vid=8d5d7cd5-e12f-4baa-824c-3739f9cf306e"},"vehicle_type_id":"4","last_reported":1745396071,"current_range_meters":4000,"station_id":"ce4bhhh2rcd13ifvqfl0","pricing_plan_id":"cebpf4jnsgd1na2vs0mg"},{"bike_id":"dca0e529-c53d-45fd-a2dc-0c115f280ca0","system_id":"levelo_inurba_marseille","lat":43.23195,"lon":5.35551,"is_reserved":false,"is_disabled":false,"rental_uris":{"android":"levelo://app?vid=dca0e529-c53d-45fd-a2dc-0c115f280ca0","ios":"levelo://app?vid=dca0e529-c53d-45fd-a2dc-0c115f280ca0"},"vehicle_type_id":"4","last_reported":1745396071,"current_range_meters":4400,"station_id":"ce4bhu92rcd13ifvqi70","pricing_plan_id":"cebpf4jnsgd1na2vs0mg"},{"bike_id":"1c755526-7610-4241-9257-348acde561d3","system_id":"levelo_inurba_marseille","lat":43.24855,"lon":5.382077,"is_reserved":false,"is_disabled":false,"rental_uris":{"android":"levelo://app?vid=1c755526-7610-4241-9257-348acde561d3","ios":"levelo://app?vid=1c755526-7610-4241-9257-348acde561d3"},"vehicle_type_id":"4","last_reported":1745396071,"current_range_meters":4800,"station_id":"","pricing_plan_id":"cebpf4jnsgd1na2vs0mg"},{"bike_id":"9bd61b02-5576-4fa1-b312-1a19400639c0","system_id":"levelo_inurba_marseille","lat":43.29171,"lon":5.37162,"is_reserved":false,"is_disabled":false,"rental_uris":{"android":"levelo://app?vid=9bd61b02-5576-4fa1-b312-1a19400639c0","ios":"levelo://app?vid=9bd61b02-5576-4fa1-b312-1a19400639c0"},"vehicle_type_id":"4","last_reported":1745396071,"current_range_meters":4800,"station_id":"ce4bha92rcd13ifvqeh0","pricing_plan_id":"cebpf4jnsgd1na2vs0mg"},{"bike_id":"a31c72b0-6780-45b6-9285-3abcb7bee567","system_id":"levelo_inurba_marseille","lat":43.25721,"lon":5.4112,"is_reserved":false,"is_disabled":false,"rental_uris":{"android":"levelo://app?vid=a31c72b0-6780-45b6-9285-3abcb7bee567","ios":"levelo://app?vid=a31c72b0-6780-45b6-9285-3abcb7bee567"},"vehicle_type_id":"4","last_reported":1745396071,"current_range_meters":4400,"station_id":"ce4bhkp2rcd13ifvqgd0","pricing_plan_id":"cebpf4jnsgd1na2vs0mg"},{"bike_id":"13efdc15-f194-4209-9fe8-0e7bb6f886f0","system_id":"levelo_inurba_marseille","lat":43.25037,"lon":5.38883,"is_reserved":false,"is_disabled":false,"rental_uris":{"android":"levelo://app?vid=13efdc15-f194-4209-9fe8-0e7bb6f886f0","ios":"levelo://app?vid=13efdc15-f194-4209-9fe8-0e7bb6f886f0"},"vehicle_type_id":"4","last_reported":1745396071,"current_range_meters":4800,"station_id":"ce4bhgp2rcd13ifvqfd0","pricing_plan_id":"cebpf4jnsgd1na2vs0mg"},{"bike_id":"12bf1785-a0f7-4eec-85ac-f01d615cb39b","system_id":"levelo_inurba_marseille","lat":43.28714,"lon":5.37932,"is_reserved":false,"is_disabled":false,"rental_uris":{"android":"levelo://app?vid=12bf1785-a0f7-4eec-85ac-f01d615cb39b","ios":"levelo://app?vid=12bf1785-a0f7-4eec-85ac-f01d615cb39b"},"vehicle_type_id":"4","last_reported":1745396071,"current_range_meters":5600,"station_id":"ce4bh9p2rcd13ifvqec0","pricing_plan_id":"cebpf4jnsgd1na2vs0mg"},{"bike_id":"20611ec2-8d4a-49f4-9f9a-918fd90543bb","system_id":"levelo_inurba_marseille","lat":43.29037,"lon":5.39964,"is_reserved":false,"is_disabled":false,"rental_uris":{"android":"levelo://app?vid=20611ec2-8d4a-49f4-9f9a-918fd90543bb","ios":"levelo://app?vid=20611ec2-8d4a-49f4-9f9a-918fd90543bb"},"vehicle_type_id":"4","last_reported":1745396071,"current_range_meters":6000,"station_id":"ce4bh392rcd13ifvqdm0","pricing_plan_id":"cebpf4jnsgd1na2vs0mg"},{"bike_id":"8b037de5-d203-4d12-9897-603009a12ace","system_id":"levelo_inurba_marseille","lat":43.30936,"lon":5.40135,"is_reserved":false,"is_disabled":false,"rental_uris":{"android":"levelo://app?vid=8b037de5-d203-4d12-9897-603009a12ace","ios":"levelo://app?vid=8b037de5-d203-4d12-9897-603009a12ace"},"vehicle_type_id":"4","last_reported":1745396071,"current_range_meters":6000,"station_id":"ce4bgvp2rcd13ifvqct0","pricing_plan_id":"cebpf4jnsgd1na2vs0mg"},{"bike_id":"0082f8d2-799d-4b4c-b968-785f46e0e504","system_id":"levelo_inurba_marseille","lat":43.2841,"lon":5.37516,"is_reserved":false,"is_disabled":false,"rental_uris":{"android":"levelo://app?vid=0082f8d2-799d-4b4c-b968-785f46e0e504","ios":"levelo://app?vid=0082f8d2-799d-4b4c-b968-785f46e0e504"},"vehicle_type_id":"4","last_reported":1745396071,"current_range_meters":6000,"station_id":"ce4bh412rcd13ifvqds0","pricing_plan_id":"cebpf4jnsgd1na2vs0mg"},{"bike_id":"f85f7a91-884c-4871-948b-723a9bf28cd7","system_id":"levelo_inurba_marseille","lat":43.24086,"lon":5.37751,"is_reserved":false,"is_disabled":false,"rental_uris":{"android":"levelo://app?vid=f85f7a91-884c-4871-948b-723a9bf28cd7","ios":"levelo://app?vid=f85f7a91-884c-4871-948b-723a9bf28cd7"},"vehicle_type_id":"4","last_reported":1745396071,"current_range_meters":6000,"station_id":"ce4bhnp2rcd13ifvqgvg","pricing_plan_id":"cebpf4jnsgd1na2vs0mg"},{"bike_id":"a4e56601-41c2-4846-bfaf-a552863d8bba","system_id":"levelo_inurba_marseille","lat":43.301282,"lon":5.387753,"is_reserved":false,"is_disabled":false,"rental_uris":{"android":"levelo://app?vid=a4e56601-41c2-4846-bfaf-a552863d8bba","ios":"levelo://app?vid=a4e56601-41c2-4846-bfaf-a552863d8bba"},"vehicle_type_id":"4","last_reported":1745396071,"current_range_meters":5600,"station_id":"ce4bghh2rcd13ifvqb60","pricing_plan_id":"cebpf4jnsgd1na2vs0mg"},{"bike_id":"812167a7-afd5-4edc-bf10-be9f547fc037","system_id":"levelo_inurba_marseille","lat":43.273206,"lon":5.390681,"is_reserved":false,"is_disabled":false,"rental_uris":{"android":"levelo://app?vid=812167a7-afd5-4edc-bf10-be9f547fc037","ios":"levelo://app?vid=812167a7-afd5-4edc-bf10-be9f547fc037"},"vehicle_type_id":"4","last_reported":1745396071,"current_range_meters":6400,"station_id":"","pricing_plan_id":"cebpf4jnsgd1na2vs0mg"},{"bike_id":"0f75b2d9-5716-4beb-a336-8d2207a2b74c","system_id":"levelo_inurba_marseille","lat":43.2397,"lon":5.36631,"is_reserved":false,"is_disabled":false,"rental_uris":{"android":"levelo://app?vid=0f75b2d9-5716-4beb-a336-8d2207a2b74c","ios":"levelo://app?vid=0f75b2d9-5716-4beb-a336-8d2207a2b74c"},"vehicle_type_id":"4","last_reported":1745396071,"current_range_meters":6000,"station_id":"ce4bhi12rcd13ifvqfp0","pricing_plan_id":"cebpf4jnsgd1na2vs0mg"},{"bike_id":"28dbeddd-838b-456e-82ff-c5881d62245f","system_id":"levelo_inurba_marseille","lat":43.2294,"lon":5.35376,"is_reserved":false,"is_disabled":false,"rental_uris":{"android":"levelo://app?vid=28dbeddd-838b-456e-82ff-c5881d62245f","ios":"levelo://app?vid=28dbeddd-838b-456e-82ff-c5881d62245f"},"vehicle_type_id":"4","last_reported":1745396071,"current_range_meters":6400,"station_id":"cpo3532slgdg3j2ikp40","pricing_plan_id":"cebpf4jnsgd1na2vs0mg"},{"bike_id":"1d69148a-3697-41e1-8a99-8502f810a09d","system_id":"levelo_inurba_marseille","lat":43.27497,"lon":5.42448,"is_reserved":false,"is_disabled":false,"rental_uris":{"android":"levelo://app?vid=1d69148a-3697-41e1-8a99-8502f810a09d","ios":"levelo://app?vid=1d69148a-3697-41e1-8a99-8502f810a09d"},"vehicle_type_id":"4","last_reported":1745396071,"current_range_meters":6400,"station_id":"ce4bhn92rcd13ifvqgrg","pricing_plan_id":"cebpf4jnsgd1na2vs0mg"},{"bike_id":"fb4295a7-4e4f-4eb6-8442-338aafdcde0d","system_id":"levelo_inurba_marseille","lat":43.25959,"lon":5.40866,"is_reserved":false,"is_disabled":false,"rental_uris":{"android":"levelo://app?vid=fb4295a7-4e4f-4eb6-8442-338aafdcde0d","ios":"levelo://app?vid=fb4295a7-4e4f-4eb6-8442-338aafdcde0d"},"vehicle_type_id":"4","last_reported":1745396071,"current_range_meters":6800,"station_id":"ce4bhm92rcd13ifvqglg","pricing_plan_id":"cebpf4jnsgd1na2vs0mg"},{"bike_id":"a7c56ddd-dc7f-4667-9942-e86115f07c9e","system_id":"levelo_inurba_marseille","lat":43.24081,"lon":5.37747,"is_reserved":false,"is_disabled":false,"rental_uris":{"android":"levelo://app?vid=a7c56ddd-dc7f-4667-9942-e86115f07c9e","ios":"levelo://app?vid=a7c56ddd-dc7f-4667-9942-e86115f07c9e"},"vehicle_type_id":"4","last_reported":1745396071,"current_range_meters":6800,"station_id":"ce4bhnp2rcd13ifvqgvg","pricing_plan_id":"cebpf4jnsgd1na2vs0mg"},{"bike_id":"b74100ec-2ebe-4d0f-bc2e-73a63b38fda8","system_id":"levelo_inurba_marseille","lat":43.3134,"lon":5.36721,"is_reserved":false,"is_disabled":false,"rental_uris":{"android":"levelo://app?vid=b74100ec-2ebe-4d0f-bc2e-73a63b38fda8","ios":"levelo://app?vid=b74100ec-2ebe-4d0f-bc2e-73a63b38fda8"},"vehicle_type_id":"4","last_reported":1745396071,"current_range_meters":6800,"station_id":"ce4bgr92rcd13ifvqc6g","pricing_plan_id":"cebpf4jnsgd1na2vs0mg"},{"bike_id":"9fb26005-bd6f-4751-b1a2-27ccd7bae8ab","system_id":"levelo_inurba_marseille","lat":43.26551,"lon":5.37261,"is_reserved":false,"is_disabled":false,"rental_uris":{"android":"levelo://app?vid=9fb26005-bd6f-4751-b1a2-27ccd7bae8ab","ios":"levelo://app?vid=9fb26005-bd6f-4751-b1a2-27ccd7bae8ab"},"vehicle_type_id":"4","last_reported":1745396071,"current_range_meters":9200,"station_id":"ce4bhg12rcd13ifvqf70","pricing_plan_id":"cebpf4jnsgd1na2vs0mg"},{"bike_id":"e59fb337-a086-40ef-bc91-27164c4a7d9e","system_id":"levelo_inurba_marseille","lat":43.25923,"lon":5.40879,"is_reserved":false,"is_disabled":false,"rental_uris":{"android":"levelo://app?vid=e59fb337-a086-40ef-bc91-27164c4a7d9e","ios":"levelo://app?vid=e59fb337-a086-40ef-bc91-27164c4a7d9e"},"vehicle_type_id":"4","last_reported":1745396071,"current_range_meters":7200,"station_id":"ce4bhm92rcd13ifvqglg","pricing_plan_id":"cebpf4jnsgd1na2vs0mg"},{"bike_id":"20bbb2a3-0655-449c-87f0-1da237dcc665","system_id":"levelo_inurba_marseille","lat":43.24654,"lon":5.38891,"is_reserved":false,"is_disabled":false,"rental_uris":{"android":"levelo://app?vid=20bbb2a3-0655-449c-87f0-1da237dcc665","ios":"levelo://app?vid=20bbb2a3-0655-449c-87f0-1da237dcc665"},"vehicle_type_id":"4","last_reported":1745396071,"current_range_meters":7200,"station_id":"ce4bhg12rcd13ifvqf60","pricing_plan_id":"cebpf4jnsgd1na2vs0mg"},{"bike_id":"2f3444c3-3dfc-441a-ac98-9768e99525a1","system_id":"levelo_inurba_marseille","lat":43.266163,"lon":5.372677,"is_reserved":false,"is_disabled":false,"rental_uris":{"android":"levelo://app?vid=2f3444c3-3dfc-441a-ac98-9768e99525a1","ios":"levelo://app?vid=2f3444c3-3dfc-441a-ac98-9768e99525a1"},"vehicle_type_id":"4","last_reported":1745396071,"current_range_meters":8000,"station_id":"ce4bhih2rcd13ifvqfs0","pricing_plan_id":"cebpf4jnsgd1na2vs0mg"},{"bike_id":"2bb4dbbf-21b8-43cb-ab86-b7d00e702a08","system_id":"levelo_inurba_marseille","lat":43.33031,"lon":5.39052,"is_reserved":false,"is_disabled":false,"rental_uris":{"android":"levelo://app?vid=2bb4dbbf-21b8-43cb-ab86-b7d00e702a08","ios":"levelo://app?vid=2bb4dbbf-21b8-43cb-ab86-b7d00e702a08"},"vehicle_type_id":"4","last_reported":1745396071,"current_range_meters":8000,"station_id":"ce4bhr92rcd13ifvqhrg","pricing_plan_id":"cebpf4jnsgd1na2vs0mg"},{"bike_id":"7d5da642-ae78-4ff3-8098-08224e6d627f","system_id":"levelo_inurba_marseille","lat":43.30423,"lon":5.41281,"is_reserved":false,"is_disabled":false,"rental_uris":{"android":"levelo://app?vid=7d5da642-ae78-4ff3-8098-08224e6d627f","ios":"levelo://app?vid=7d5da642-ae78-4ff3-8098-08224e6d627f"},"vehicle_type_id":"4","last_reported":1745396071,"current_range_meters":8000,"station_id":"ce4bhop2rcd13ifvqh8g","pricing_plan_id":"cebpf4jnsgd1na2vs0mg"},{"bike_id":"70671536-b2e1-456c-8bd8-7804b348f9fc","system_id":"levelo_inurba_marseille","lat":43.31197,"lon":5.41597,"is_reserved":false,"is_disabled":false,"rental_uris":{"android":"levelo://app?vid=70671536-b2e1-456c-8bd8-7804b348f9fc","ios":"levelo://app?vid=70671536-b2e1-456c-8bd8-7804b348f9fc"},"vehicle_type_id":"4","last_reported":1745396071,"current_range_meters":8000,"station_id":"","pricing_plan_id":"cebpf4jnsgd1na2vs0mg"},{"bike_id":"dbeae62b-a41e-49ff-93df-b7e87496b28f","system_id":"levelo_inurba_marseille","lat":43.24076,"lon":5.3776,"is_reserved":false,"is_disabled":false,"rental_uris":{"android":"levelo://app?vid=dbeae62b-a41e-49ff-93df-b7e87496b28f","ios":"levelo://app?vid=dbeae62b-a41e-49ff-93df-b7e87496b28f"},"vehicle_type_id":"4","last_reported":1745396071,"current_range_meters":8000,"station_id":"ce4bhnp2rcd13ifvqgvg","pricing_plan_id":"cebpf4jnsgd1na2vs0mg"},{"bike_id":"d8d27387-fb66-4c0a-90dc-eef7a69dc87d","system_id":"levelo_inurba_marseille","lat":43.21219,"lon":5.35063,"is_reserved":false,"is_disabled":false,"rental_uris":{"android":"levelo://app?vid=d8d27387-fb66-4c0a-90dc-eef7a69dc87d","ios":"levelo://app?vid=d8d27387-fb66-4c0a-90dc-eef7a69dc87d"},"vehicle_type_id":"4","last_reported":1745396071,"current_range_meters":8000,"station_id":"ce4bgh92rcd13ifvqb40","pricing_plan_id":"cebpf4jnsgd1na2vs0mg"},{"bike_id":"f839ea02-d04f-4ac7-b87c-b8863fad54dd","system_id":"levelo_inurba_marseille","lat":43.26193,"lon":5.37447,"is_reserved":false,"is_disabled":false,"rental_uris":{"android":"levelo://app?vid=f839ea02-d04f-4ac7-b87c-b8863fad54dd","ios":"levelo://app?vid=f839ea02-d04f-4ac7-b87c-b8863fad54dd"},"vehicle_type_id":"4","last_reported":1745396071,"current_range_meters":8400,"station_id":"ce4bhgp2rcd13ifvqfc0","pricing_plan_id":"cebpf4jnsgd1na2vs0mg"},{"bike_id":"0d1ebedd-3512-4ce4-87fe-745c17edfd96","system_id":"levelo_inurba_marseille","lat":43.27892,"lon":5.35438,"is_reserved":false,"is_disabled":true,"rental_uris":{"android":"levelo://app?vid=0d1ebedd-3512-4ce4-87fe-745c17edfd96","ios":"levelo://app?vid=0d1ebedd-3512-4ce4-87fe-745c17edfd96"},"vehicle_type_id":"4","last_reported":1745396071,"current_range_meters":8400,"station_id":"","pricing_plan_id":"cebpf4jnsgd1na2vs0mg"},{"bike_id":"46775f0e-8570-4e76-baa2-284adf905909","system_id":"levelo_inurba_marseille","lat":43.289732,"lon":5.366218,"is_reserved":false,"is_disabled":false,"rental_uris":{"android":"levelo://app?vid=46775f0e-8570-4e76-baa2-284adf905909","ios":"levelo://app?vid=46775f0e-8570-4e76-baa2-284adf905909"},"vehicle_type_id":"4","last_reported":1745396071,"current_range_meters":8400,"station_id":"ce4bhch2rcd13ifvqeug","pricing_plan_id":"cebpf4jnsgd1na2vs0mg"},{"bike_id":"e3814f44-15e6-4193-821c-e7b048f847c4","system_id":"levelo_inurba_marseille","lat":43.2872,"lon":5.37927,"is_reserved":false,"is_disabled":false,"rental_uris":{"android":"levelo://app?vid=e3814f44-15e6-4193-821c-e7b048f847c4","ios":"levelo://app?vid=e3814f44-15e6-4193-821c-e7b048f847c4"},"vehicle_type_id":"4","last_reported":1745396071,"current_range_meters":8400,"station_id":"ce4bh9p2rcd13ifvqec0","pricing_plan_id":"cebpf4jnsgd1na2vs0mg"},{"bike_id":"00f791b3-0448-4fb6-a61d-87ad238478b1","system_id":"levelo_inurba_marseille","lat":43.30918,"lon":5.36862,"is_reserved":false,"is_disabled":false,"rental_uris":{"android":"levelo://app?vid=00f791b3-0448-4fb6-a61d-87ad238478b1","ios":"levelo://app?vid=00f791b3-0448-4fb6-a61d-87ad238478b1"},"vehicle_type_id":"4","last_reported":1745396071,"current_range_meters":8400,"station_id":"ce4bgn92rcd13ifvqbvg","pricing_plan_id":"cebpf4jnsgd1na2vs0mg"},{"bike_id":"f416d0ef-f853-49ab-9358-9525a7ed6c57","system_id":"levelo_inurba_marseille","lat":43.32003,"lon":5.38148,"is_reserved":false,"is_disabled":false,"rental_uris":{"android":"levelo://app?vid=f416d0ef-f853-49ab-9358-9525a7ed6c57","ios":"levelo://app?vid=f416d0ef-f853-49ab-9358-9525a7ed6c57"},"vehicle_type_id":"4","last_reported":1745396071,"current_range_meters":8400,"station_id":"ce4bhr12rcd13ifvqhpg","pricing_plan_id":"cebpf4jnsgd1na2vs0mg"},{"bike_id":"92500e5e-65ee-40ea-8df2-a3c295596657","system_id":"levelo_inurba_marseille","lat":43.29859,"lon":5.3627,"is_reserved":false,"is_disabled":false,"rental_uris":{"android":"levelo://app?vid=92500e5e-65ee-40ea-8df2-a3c295596657","ios":"levelo://app?vid=92500e5e-65ee-40ea-8df2-a3c295596657"},"vehicle_type_id":"4","last_reported":1745396071,"current_range_meters":8400,"station_id":"ce4bgpp2rcd13ifvqc3g","pricing_plan_id":"cebpf4jnsgd1na2vs0mg"},{"bike_id":"7a0fc6c3-5aef-495d-a23c-f31506be2b39","system_id":"levelo_inurba_marseille","lat":43.257263,"lon":5.411129,"is_reserved":false,"is_disabled":false,"rental_uris":{"android":"levelo://app?vid=7a0fc6c3-5aef-495d-a23c-f31506be2b39","ios":"levelo://app?vid=7a0fc6c3-5aef-495d-a23c-f31506be2b39"},"vehicle_type_id":"4","last_reported":1745396071,"current_range_meters":8400,"station_id":"ce4bhkp2rcd13ifvqgd0","pricing_plan_id":"cebpf4jnsgd1na2vs0mg"},{"bike_id":"75d2052b-a47d-4fa3-8025-a8442b8a96fd","system_id":"levelo_inurba_marseille","lat":43.311676,"lon":5.387175,"is_reserved":false,"is_disabled":false,"rental_uris":{"android":"levelo://app?vid=75d2052b-a47d-4fa3-8025-a8442b8a96fd","ios":"levelo://app?vid=75d2052b-a47d-4fa3-8025-a8442b8a96fd"},"vehicle_type_id":"4","last_reported":1745396071,"current_range_meters":8400,"station_id":"ce4bgv12rcd13ifvqcp0","pricing_plan_id":"cebpf4jnsgd1na2vs0mg"},{"bike_id":"f1300840-291d-4ece-a09c-172514b0678c","system_id":"levelo_inurba_marseille","lat":43.29427,"lon":5.3975,"is_reserved":false,"is_disabled":true,"rental_uris":{"android":"levelo://app?vid=f1300840-291d-4ece-a09c-172514b0678c","ios":"levelo://app?vid=f1300840-291d-4ece-a09c-172514b0678c"},"vehicle_type_id":"4","last_reported":1745396071,"current_range_meters":8800,"station_id":"ce4bh3h2rcd13ifvqdo0","pricing_plan_id":"cebpf4jnsgd1na2vs0mg"},{"bike_id":"cb7cbd63-9930-410a-9a53-110589ad3377","system_id":"levelo_inurba_marseille","lat":43.32356,"lon":5.36754,"is_reserved":false,"is_disabled":false,"rental_uris":{"android":"levelo://app?vid=cb7cbd63-9930-410a-9a53-110589ad3377","ios":"levelo://app?vid=cb7cbd63-9930-410a-9a53-110589ad3377"},"vehicle_type_id":"4","last_reported":1745396071,"current_range_meters":8800,"station_id":"ce4bhsh2rcd13ifvqi2g","pricing_plan_id":"cebpf4jnsgd1na2vs0mg"},{"bike_id":"9d85f42c-a2a0-4fe8-9e71-604ae30f7729","system_id":"levelo_inurba_marseille","lat":43.24049,"lon":5.3772,"is_reserved":false,"is_disabled":false,"rental_uris":{"android":"levelo://app?vid=9d85f42c-a2a0-4fe8-9e71-604ae30f7729","ios":"levelo://app?vid=9d85f42c-a2a0-4fe8-9e71-604ae30f7729"},"vehicle_type_id":"4","last_reported":1745396071,"current_range_meters":8800,"station_id":"ce4bhnp2rcd13ifvqgvg","pricing_plan_id":"cebpf4jnsgd1na2vs0mg"},{"bike_id":"644b4e0f-1ccf-4011-b770-5f7cf083b9cb","system_id":"levelo_inurba_marseille","lat":43.29439,"lon":5.39747,"is_reserved":false,"is_disabled":false,"rental_uris":{"android":"levelo://app?vid=644b4e0f-1ccf-4011-b770-5f7cf083b9cb","ios":"levelo://app?vid=644b4e0f-1ccf-4011-b770-5f7cf083b9cb"},"vehicle_type_id":"4","last_reported":1745396071,"current_range_meters":8400,"station_id":"ce4bh3h2rcd13ifvqdo0","pricing_plan_id":"cebpf4jnsgd1na2vs0mg"},{"bike_id":"28fdd909-fc25-4548-9f74-9ad46d259413","system_id":"levelo_inurba_marseille","lat":43.34142,"lon":5.40906,"is_reserved":false,"is_disabled":false,"rental_uris":{"android":"levelo://app?vid=28fdd909-fc25-4548-9f74-9ad46d259413","ios":"levelo://app?vid=28fdd909-fc25-4548-9f74-9ad46d259413"},"vehicle_type_id":"4","last_reported":1745396071,"current_range_meters":8400,"station_id":"ce4bhqh2rcd13ifvqhlg","pricing_plan_id":"cebpf4jnsgd1na2vs0mg"},{"bike_id":"d5c22dfd-9b83-448a-8f86-41a4127af319","system_id":"levelo_inurba_marseille","lat":43.29897,"lon":5.4367,"is_reserved":false,"is_disabled":false,"rental_uris":{"android":"levelo://app?vid=d5c22dfd-9b83-448a-8f86-41a4127af319","ios":"levelo://app?vid=d5c22dfd-9b83-448a-8f86-41a4127af319"},"vehicle_type_id":"4","last_reported":1745396071,"current_range_meters":8800,"station_id":"ce4bhpp2rcd13ifvqhfg","pricing_plan_id":"cebpf4jnsgd1na2vs0mg"},{"bike_id":"fef2f90e-d651-492a-9661-35ed43b5a9cc","system_id":"levelo_inurba_marseille","lat":43.30294,"lon":5.36889,"is_reserved":false,"is_disabled":false,"rental_uris":{"android":"levelo://app?vid=fef2f90e-d651-492a-9661-35ed43b5a9cc","ios":"levelo://app?vid=fef2f90e-d651-492a-9661-35ed43b5a9cc"},"vehicle_type_id":"4","last_reported":1745396071,"current_range_meters":8800,"station_id":"ce4bgqh2rcd13ifvqc5g","pricing_plan_id":"cebpf4jnsgd1na2vs0mg"},{"bike_id":"17ba1340-25b1-421e-b07b-fea4f7f8d3c3","system_id":"levelo_inurba_marseille","lat":43.30884,"lon":5.396465,"is_reserved":false,"is_disabled":false,"rental_uris":{"android":"levelo://app?vid=17ba1340-25b1-421e-b07b-fea4f7f8d3c3","ios":"levelo://app?vid=17ba1340-25b1-421e-b07b-fea4f7f8d3c3"},"vehicle_type_id":"4","last_reported":1745396071,"current_range_meters":9600,"station_id":"ce4bh012rcd13ifvqcv0","pricing_plan_id":"cebpf4jnsgd1na2vs0mg"},{"bike_id":"abcdb708-5905-4153-aed5-c8e9944ecc13","system_id":"levelo_inurba_marseille","lat":43.31499,"lon":5.37311,"is_reserved":false,"is_disabled":false,"rental_uris":{"android":"levelo://app?vid=abcdb708-5905-4153-aed5-c8e9944ecc13","ios":"levelo://app?vid=abcdb708-5905-4153-aed5-c8e9944ecc13"},"vehicle_type_id":"4","last_reported":1745396071,"current_range_meters":9200,"station_id":"ce4bgt12rcd13ifvqcd0","pricing_plan_id":"cebpf4jnsgd1na2vs0mg"},{"bike_id":"afa0aa2a-82c1-4837-9b7d-23b8676f0ff3","system_id":"levelo_inurba_marseille","lat":43.29517,"lon":5.37521,"is_reserved":false,"is_disabled":false,"rental_uris":{"android":"levelo://app?vid=afa0aa2a-82c1-4837-9b7d-23b8676f0ff3","ios":"levelo://app?vid=afa0aa2a-82c1-4837-9b7d-23b8676f0ff3"},"vehicle_type_id":"4","last_reported":1745396071,"current_range_meters":9600,"station_id":"ce4bgkp2rcd13ifvqbmg","pricing_plan_id":"cebpf4jnsgd1na2vs0mg"},{"bike_id":"8da45441-0f39-4665-ba43-cdfddf67fe67","system_id":"levelo_inurba_marseille","lat":43.33,"lon":5.43847,"is_reserved":false,"is_disabled":false,"rental_uris":{"android":"levelo://app?vid=8da45441-0f39-4665-ba43-cdfddf67fe67","ios":"levelo://app?vid=8da45441-0f39-4665-ba43-cdfddf67fe67"},"vehicle_type_id":"4","last_reported":1745396071,"current_range_meters":9600,"station_id":"","pricing_plan_id":"cebpf4jnsgd1na2vs0mg"},{"bike_id":"a756bae3-49c1-4d6c-89e8-fcb7b0e7d2e2","system_id":"levelo_inurba_marseille","lat":43.29023,"lon":5.3592,"is_reserved":false,"is_disabled":true,"rental_uris":{"android":"levelo://app?vid=a756bae3-49c1-4d6c-89e8-fcb7b0e7d2e2","ios":"levelo://app?vid=a756bae3-49c1-4d6c-89e8-fcb7b0e7d2e2"},"vehicle_type_id":"4","last_reported":1745396071,"current_range_meters":9600,"station_id":"ce4bha92rcd13ifvqeg0","pricing_plan_id":"cebpf4jnsgd1na2vs0mg"},{"bike_id":"546076dc-951e-4fe0-b46d-14bdc8dc6da0","system_id":"levelo_inurba_marseille","lat":43.23202,"lon":5.3556,"is_reserved":false,"is_disabled":false,"rental_uris":{"android":"levelo://app?vid=546076dc-951e-4fe0-b46d-14bdc8dc6da0","ios":"levelo://app?vid=546076dc-951e-4fe0-b46d-14bdc8dc6da0"},"vehicle_type_id":"4","last_reported":1745396071,"current_range_meters":9600,"station_id":"ce4bhu92rcd13ifvqi70","pricing_plan_id":"cebpf4jnsgd1na2vs0mg"},{"bike_id":"2fd8c6d6-2984-4dd2-92b3-ae291d0ae0da","system_id":"levelo_inurba_marseille","lat":43.30476,"lon":5.37907,"is_reserved":false,"is_disabled":false,"rental_uris":{"android":"levelo://app?vid=2fd8c6d6-2984-4dd2-92b3-ae291d0ae0da","ios":"levelo://app?vid=2fd8c6d6-2984-4dd2-92b3-ae291d0ae0da"},"vehicle_type_id":"4","last_reported":1745396071,"current_range_meters":9600,"station_id":"ce4bgup2rcd13ifvqcn0","pricing_plan_id":"cebpf4jnsgd1na2vs0mg"},{"bike_id":"3f4ce14a-b97c-45b4-8990-bafe9aac152d","system_id":"levelo_inurba_marseille","lat":43.30907,"lon":5.36909,"is_reserved":false,"is_disabled":false,"rental_uris":{"android":"levelo://app?vid=3f4ce14a-b97c-45b4-8990-bafe9aac152d","ios":"levelo://app?vid=3f4ce14a-b97c-45b4-8990-bafe9aac152d"},"vehicle_type_id":"4","last_reported":1745396071,"current_range_meters":9600,"station_id":"ce4bgn92rcd13ifvqbvg","pricing_plan_id":"cebpf4jnsgd1na2vs0mg"},{"bike_id":"9ae17a2f-dcb5-4013-9372-b33fbc0f8127","system_id":"levelo_inurba_marseille","lat":43.30246,"lon":5.40057,"is_reserved":false,"is_disabled":false,"rental_uris":{"android":"levelo://app?vid=9ae17a2f-dcb5-4013-9372-b33fbc0f8127","ios":"levelo://app?vid=9ae17a2f-dcb5-4013-9372-b33fbc0f8127"},"vehicle_type_id":"4","last_reported":1745396071,"current_range_meters":9600,"station_id":"ce4bgvh2rcd13ifvqcs0","pricing_plan_id":"cebpf4jnsgd1na2vs0mg"},{"bike_id":"3f18191e-7a45-404a-b52e-958003f19597","system_id":"levelo_inurba_marseille","lat":43.31251,"lon":5.36873,"is_reserved":false,"is_disabled":true,"rental_uris":{"android":"levelo://app?vid=3f18191e-7a45-404a-b52e-958003f19597","ios":"levelo://app?vid=3f18191e-7a45-404a-b52e-958003f19597"},"vehicle_type_id":"4","last_reported":1745396071,"current_range_meters":10000,"station_id":"ce4bgl92rcd13ifvqbq0","pricing_plan_id":"cebpf4jnsgd1na2vs0mg"},{"bike_id":"b101f8a5-861d-41d6-abc7-c01955f8f9ff","system_id":"levelo_inurba_marseille","lat":43.26785,"lon":5.39417,"is_reserved":false,"is_disabled":false,"rental_uris":{"android":"levelo://app?vid=b101f8a5-861d-41d6-abc7-c01955f8f9ff","ios":"levelo://app?vid=b101f8a5-861d-41d6-abc7-c01955f8f9ff"},"vehicle_type_id":"4","last_reported":1745396071,"current_range_meters":10000,"station_id":"ce4bhh12rcd13ifvqfg0","pricing_plan_id":"cebpf4jnsgd1na2vs0mg"},{"bike_id":"49c0f902-eac7-4a79-adf0-d142aff51e11","system_id":"levelo_inurba_marseille","lat":43.24171,"lon":5.36402,"is_reserved":false,"is_disabled":false,"rental_uris":{"android":"levelo://app?vid=49c0f902-eac7-4a79-adf0-d142aff51e11","ios":"levelo://app?vid=49c0f902-eac7-4a79-adf0-d142aff51e11"},"vehicle_type_id":"4","last_reported":1745396071,"current_range_meters":10000,"station_id":"cpo36qri1sfpv3e86is0","pricing_plan_id":"cebpf4jnsgd1na2vs0mg"},{"bike_id":"728b7169-2c34-494f-ac43-6fdd418034b4","system_id":"levelo_inurba_marseille","lat":43.23158,"lon":5.4372,"is_reserved":false,"is_disabled":false,"rental_uris":{"android":"levelo://app?vid=728b7169-2c34-494f-ac43-6fdd418034b4","ios":"levelo://app?vid=728b7169-2c34-494f-ac43-6fdd418034b4"},"vehicle_type_id":"4","last_reported":1745396071,"current_range_meters":10800,"station_id":"ce4bhmp2rcd13ifvqgog","pricing_plan_id":"cebpf4jnsgd1na2vs0mg"},{"bike_id":"2f0638e4-6b1b-4fd3-80ff-b967dff5ac68","system_id":"levelo_inurba_marseille","lat":43.28448,"lon":5.3589,"is_reserved":false,"is_disabled":false,"rental_uris":{"android":"levelo://app?vid=2f0638e4-6b1b-4fd3-80ff-b967dff5ac68","ios":"levelo://app?vid=2f0638e4-6b1b-4fd3-80ff-b967dff5ac68"},"vehicle_type_id":"4","last_reported":1745396071,"current_range_meters":10800,"station_id":"ce4bhah2rcd13ifvqei0","pricing_plan_id":"cebpf4jnsgd1na2vs0mg"},{"bike_id":"16301855-4422-4905-883e-5e3563f2928d","system_id":"levelo_inurba_marseille","lat":43.27495,"lon":5.42453,"is_reserved":false,"is_disabled":false,"rental_uris":{"android":"levelo://app?vid=16301855-4422-4905-883e-5e3563f2928d","ios":"levelo://app?vid=16301855-4422-4905-883e-5e3563f2928d"},"vehicle_type_id":"4","last_reported":1745396071,"current_range_meters":10800,"station_id":"ce4bhn92rcd13ifvqgrg","pricing_plan_id":"cebpf4jnsgd1na2vs0mg"},{"bike_id":"9993bd35-7c82-4dc3-9a1b-c60d93b18258","system_id":"levelo_inurba_marseille","lat":43.23145,"lon":5.43725,"is_reserved":false,"is_disabled":false,"rental_uris":{"android":"levelo://app?vid=9993bd35-7c82-4dc3-9a1b-c60d93b18258","ios":"levelo://app?vid=9993bd35-7c82-4dc3-9a1b-c60d93b18258"},"vehicle_type_id":"4","last_reported":1745396071,"current_range_meters":10800,"station_id":"ce4bhmp2rcd13ifvqgog","pricing_plan_id":"cebpf4jnsgd1na2vs0mg"},{"bike_id":"4d635c25-b855-4f73-8a73-055420da109a","system_id":"levelo_inurba_marseille","lat":43.295857,"lon":5.367397,"is_reserved":false,"is_disabled":false,"rental_uris":{"android":"levelo://app?vid=4d635c25-b855-4f73-8a73-055420da109a","ios":"levelo://app?vid=4d635c25-b855-4f73-8a73-055420da109a"},"vehicle_type_id":"4","last_reported":1745396071,"current_range_meters":10000,"station_id":"ce4bgph2rcd13ifvqc2g","pricing_plan_id":"cebpf4jnsgd1na2vs0mg"},{"bike_id":"352b22fd-34ad-40b2-931e-af71fad0a0bf","system_id":"levelo_inurba_marseille","lat":43.30959,"lon":5.3905,"is_reserved":false,"is_disabled":false,"rental_uris":{"android":"levelo://app?vid=352b22fd-34ad-40b2-931e-af71fad0a0bf","ios":"levelo://app?vid=352b22fd-34ad-40b2-931e-af71fad0a0bf"},"vehicle_type_id":"4","last_reported":1745396071,"current_range_meters":11200,"station_id":"ce4bgup2rcd13ifvqco0","pricing_plan_id":"cebpf4jnsgd1na2vs0mg"},{"bike_id":"caccf6b1-eff9-41fc-9278-5e6f421f5468","system_id":"levelo_inurba_marseille","lat":43.28421,"lon":5.34983,"is_reserved":false,"is_disabled":true,"rental_uris":{"android":"levelo://app?vid=caccf6b1-eff9-41fc-9278-5e6f421f5468","ios":"levelo://app?vid=caccf6b1-eff9-41fc-9278-5e6f421f5468"},"vehicle_type_id":"4","last_reported":1745396071,"current_range_meters":11200,"station_id":"ce4bhbh2rcd13ifvqepg","pricing_plan_id":"cebpf4jnsgd1na2vs0mg"},{"bike_id":"9be19171-2b5c-4246-a6fd-c0919eecfb86","system_id":"levelo_inurba_marseille","lat":43.32496,"lon":5.36566,"is_reserved":false,"is_disabled":false,"rental_uris":{"android":"levelo://app?vid=9be19171-2b5c-4246-a6fd-c0919eecfb86","ios":"levelo://app?vid=9be19171-2b5c-4246-a6fd-c0919eecfb86"},"vehicle_type_id":"4","last_reported":1745396071,"current_range_meters":11200,"station_id":"ce4bhs12rcd13ifvqhvg","pricing_plan_id":"cebpf4jnsgd1na2vs0mg"},{"bike_id":"6ee9ffdf-3f66-4df4-bfbe-df8fdfd87ac5","system_id":"levelo_inurba_marseille","lat":43.30312,"lon":5.36909,"is_reserved":false,"is_disabled":false,"rental_uris":{"android":"levelo://app?vid=6ee9ffdf-3f66-4df4-bfbe-df8fdfd87ac5","ios":"levelo://app?vid=6ee9ffdf-3f66-4df4-bfbe-df8fdfd87ac5"},"vehicle_type_id":"4","last_reported":1745396071,"current_range_meters":11200,"station_id":"ce4bgqh2rcd13ifvqc5g","pricing_plan_id":"cebpf4jnsgd1na2vs0mg"},{"bike_id":"4bc4cd93-e9bd-4431-9aba-4a53a5a1a94b","system_id":"levelo_inurba_marseille","lat":43.3054,"lon":5.36707,"is_reserved":false,"is_disabled":false,"rental_uris":{"android":"levelo://app?vid=4bc4cd93-e9bd-4431-9aba-4a53a5a1a94b","ios":"levelo://app?vid=4bc4cd93-e9bd-4431-9aba-4a53a5a1a94b"},"vehicle_type_id":"4","last_reported":1745396071,"current_range_meters":11200,"station_id":"ce4bgrp2rcd13ifvqc9g","pricing_plan_id":"cebpf4jnsgd1na2vs0mg"},{"bike_id":"d349dd17-144c-479f-b2c1-b1d6e5d696d3","system_id":"levelo_inurba_marseille","lat":43.29574,"lon":5.37505,"is_reserved":false,"is_disabled":false,"rental_uris":{"android":"levelo://app?vid=d349dd17-144c-479f-b2c1-b1d6e5d696d3","ios":"levelo://app?vid=d349dd17-144c-479f-b2c1-b1d6e5d696d3"},"vehicle_type_id":"4","last_reported":1745396071,"current_range_meters":11600,"station_id":"ce4bgh92rcd13ifvqb50","pricing_plan_id":"cebpf4jnsgd1na2vs0mg"},{"bike_id":"29557cd6-e30c-4193-97f9-eb19785da0d9","system_id":"levelo_inurba_marseille","lat":43.30905,"lon":5.36873,"is_reserved":false,"is_disabled":false,"rental_uris":{"android":"levelo://app?vid=29557cd6-e30c-4193-97f9-eb19785da0d9","ios":"levelo://app?vid=29557cd6-e30c-4193-97f9-eb19785da0d9"},"vehicle_type_id":"4","last_reported":1745396071,"current_range_meters":11600,"station_id":"ce4bgn92rcd13ifvqbvg","pricing_plan_id":"cebpf4jnsgd1na2vs0mg"},{"bike_id":"71f0438f-b546-4840-ba6d-b06924add683","system_id":"levelo_inurba_marseille","lat":43.33094,"lon":5.41904,"is_reserved":false,"is_disabled":true,"rental_uris":{"android":"levelo://app?vid=71f0438f-b546-4840-ba6d-b06924add683","ios":"levelo://app?vid=71f0438f-b546-4840-ba6d-b06924add683"},"vehicle_type_id":"4","last_reported":1745396071,"current_range_meters":11600,"station_id":"","pricing_plan_id":"cebpf4jnsgd1na2vs0mg"},{"bike_id":"3491c7a7-76ee-45fa-94fa-ae18f9247cc0","system_id":"levelo_inurba_marseille","lat":43.33603,"lon":5.40997,"is_reserved":false,"is_disabled":false,"rental_uris":{"android":"levelo://app?vid=3491c7a7-76ee-45fa-94fa-ae18f9247cc0","ios":"levelo://app?vid=3491c7a7-76ee-45fa-94fa-ae18f9247cc0"},"vehicle_type_id":"4","last_reported":1745396071,"current_range_meters":12000,"station_id":"ce4bhqh2rcd13ifvqhmg","pricing_plan_id":"cebpf4jnsgd1na2vs0mg"},{"bike_id":"41386a75-315f-418f-b6c9-d56e48590a3e","system_id":"levelo_inurba_marseille","lat":43.336,"lon":5.40985,"is_reserved":false,"is_disabled":false,"rental_uris":{"android":"levelo://app?vid=41386a75-315f-418f-b6c9-d56e48590a3e","ios":"levelo://app?vid=41386a75-315f-418f-b6c9-d56e48590a3e"},"vehicle_type_id":"4","last_reported":1745396071,"current_range_meters":12000,"station_id":"ce4bhqh2rcd13ifvqhmg","pricing_plan_id":"cebpf4jnsgd1na2vs0mg"},{"bike_id":"761ae269-6b1f-4092-8e33-c55e4d5d8dff","system_id":"levelo_inurba_marseille","lat":43.22932,"lon":5.35374,"is_reserved":false,"is_disabled":false,"rental_uris":{"android":"levelo://app?vid=761ae269-6b1f-4092-8e33-c55e4d5d8dff","ios":"levelo://app?vid=761ae269-6b1f-4092-8e33-c55e4d5d8dff"},"vehicle_type_id":"4","last_reported":1745396071,"current_range_meters":12000,"station_id":"cpo3532slgdg3j2ikp40","pricing_plan_id":"cebpf4jnsgd1na2vs0mg"},{"bike_id":"b0e8a2c8-af71-46b6-869f-03c9ce2ca907","system_id":"levelo_inurba_marseille","lat":43.2594,"lon":5.40885,"is_reserved":false,"is_disabled":false,"rental_uris":{"android":"levelo://app?vid=b0e8a2c8-af71-46b6-869f-03c9ce2ca907","ios":"levelo://app?vid=b0e8a2c8-af71-46b6-869f-03c9ce2ca907"},"vehicle_type_id":"4","last_reported":1745396071,"current_range_meters":12400,"station_id":"ce4bhm92rcd13ifvqglg","pricing_plan_id":"cebpf4jnsgd1na2vs0mg"},{"bike_id":"895e2774-83ed-45d3-ac91-c323553e326f","system_id":"levelo_inurba_marseille","lat":43.27479,"lon":5.42393,"is_reserved":false,"is_disabled":false,"rental_uris":{"android":"levelo://app?vid=895e2774-83ed-45d3-ac91-c323553e326f","ios":"levelo://app?vid=895e2774-83ed-45d3-ac91-c323553e326f"},"vehicle_type_id":"4","last_reported":1745396071,"current_range_meters":12400,"station_id":"ce4bhn92rcd13ifvqgrg","pricing_plan_id":"cebpf4jnsgd1na2vs0mg"},{"bike_id":"1d7664a9-64c1-4824-939e-2ece1942c3ec","system_id":"levelo_inurba_marseille","lat":43.26227,"lon":5.40448,"is_reserved":false,"is_disabled":false,"rental_uris":{"android":"levelo://app?vid=1d7664a9-64c1-4824-939e-2ece1942c3ec","ios":"levelo://app?vid=1d7664a9-64c1-4824-939e-2ece1942c3ec"},"vehicle_type_id":"4","last_reported":1745396071,"current_range_meters":12800,"station_id":"ce4bhmh2rcd13ifvqgmg","pricing_plan_id":"cebpf4jnsgd1na2vs0mg"},{"bike_id":"a2832b2f-f5e2-4efc-a54b-c971a1f1c20a","system_id":"levelo_inurba_marseille","lat":43.31342,"lon":5.36706,"is_reserved":false,"is_disabled":false,"rental_uris":{"android":"levelo://app?vid=a2832b2f-f5e2-4efc-a54b-c971a1f1c20a","ios":"levelo://app?vid=a2832b2f-f5e2-4efc-a54b-c971a1f1c20a"},"vehicle_type_id":"4","last_reported":1745396071,"current_range_meters":12800,"station_id":"","pricing_plan_id":"cebpf4jnsgd1na2vs0mg"},{"bike_id":"97a3c613-4961-43c8-be1b-2f86b9a327e8","system_id":"levelo_inurba_marseille","lat":43.25931,"lon":5.40888,"is_reserved":false,"is_disabled":false,"rental_uris":{"android":"levelo://app?vid=97a3c613-4961-43c8-be1b-2f86b9a327e8","ios":"levelo://app?vid=97a3c613-4961-43c8-be1b-2f86b9a327e8"},"vehicle_type_id":"4","last_reported":1745396071,"current_range_meters":12800,"station_id":"ce4bhm92rcd13ifvqglg","pricing_plan_id":"cebpf4jnsgd1na2vs0mg"},{"bike_id":"b3eda9de-81c7-4713-ba18-927a82dd580e","system_id":"levelo_inurba_marseille","lat":43.27217,"lon":5.39181,"is_reserved":false,"is_disabled":false,"rental_uris":{"android":"levelo://app?vid=b3eda9de-81c7-4713-ba18-927a82dd580e","ios":"levelo://app?vid=b3eda9de-81c7-4713-ba18-927a82dd580e"},"vehicle_type_id":"4","last_reported":1745396071,"current_range_meters":12800,"station_id":"ce4bhhp2rcd13ifvqfm0","pricing_plan_id":"cebpf4jnsgd1na2vs0mg"},{"bike_id":"f36d089e-788c-4bd3-9198-e8cacf91e002","system_id":"levelo_inurba_marseille","lat":43.31221,"lon":5.36881,"is_reserved":false,"is_disabled":false,"rental_uris":{"android":"levelo://app?vid=f36d089e-788c-4bd3-9198-e8cacf91e002","ios":"levelo://app?vid=f36d089e-788c-4bd3-9198-e8cacf91e002"},"vehicle_type_id":"4","last_reported":1745396071,"current_range_meters":12800,"station_id":"ce4bgl92rcd13ifvqbq0","pricing_plan_id":"cebpf4jnsgd1na2vs0mg"},{"bike_id":"632cb5ef-34b2-480f-95a8-9412cf1a6861","system_id":"levelo_inurba_marseille","lat":43.24072,"lon":5.37763,"is_reserved":false,"is_disabled":false,"rental_uris":{"android":"levelo://app?vid=632cb5ef-34b2-480f-95a8-9412cf1a6861","ios":"levelo://app?vid=632cb5ef-34b2-480f-95a8-9412cf1a6861"},"vehicle_type_id":"4","last_reported":1745396071,"current_range_meters":13600,"station_id":"ce4bhnp2rcd13ifvqgvg","pricing_plan_id":"cebpf4jnsgd1na2vs0mg"},{"bike_id":"1b97176a-be21-4cdc-8314-8a0111f70862","system_id":"levelo_inurba_marseille","lat":43.23153,"lon":5.43707,"is_reserved":false,"is_disabled":true,"rental_uris":{"android":"levelo://app?vid=1b97176a-be21-4cdc-8314-8a0111f70862","ios":"levelo://app?vid=1b97176a-be21-4cdc-8314-8a0111f70862"},"vehicle_type_id":"4","last_reported":1745396071,"current_range_meters":13600,"station_id":"ce4bhmp2rcd13ifvqgog","pricing_plan_id":"cebpf4jnsgd1na2vs0mg"},{"bike_id":"abd226a8-d003-4133-b9d2-b7c952b7ead1","system_id":"levelo_inurba_marseille","lat":43.23026,"lon":5.35479,"is_reserved":false,"is_disabled":false,"rental_uris":{"android":"levelo://app?vid=abd226a8-d003-4133-b9d2-b7c952b7ead1","ios":"levelo://app?vid=abd226a8-d003-4133-b9d2-b7c952b7ead1"},"vehicle_type_id":"4","last_reported":1745396071,"current_range_meters":13600,"station_id":"cpo3342slgdg3j2ifvpg","pricing_plan_id":"cebpf4jnsgd1na2vs0mg"},{"bike_id":"a2f407dc-7fa5-4d61-bbb5-5e7c2043ecfd","system_id":"levelo_inurba_marseille","lat":43.336123,"lon":5.410373,"is_reserved":false,"is_disabled":false,"rental_uris":{"android":"levelo://app?vid=a2f407dc-7fa5-4d61-bbb5-5e7c2043ecfd","ios":"levelo://app?vid=a2f407dc-7fa5-4d61-bbb5-5e7c2043ecfd"},"vehicle_type_id":"4","last_reported":1745396071,"current_range_meters":12800,"station_id":"ce4bhqh2rcd13ifvqhmg","pricing_plan_id":"cebpf4jnsgd1na2vs0mg"},{"bike_id":"8fb19393-ec8c-4845-babd-8e7c589b20bf","system_id":"levelo_inurba_marseille","lat":43.28712,"lon":5.37936,"is_reserved":false,"is_disabled":false,"rental_uris":{"android":"levelo://app?vid=8fb19393-ec8c-4845-babd-8e7c589b20bf","ios":"levelo://app?vid=8fb19393-ec8c-4845-babd-8e7c589b20bf"},"vehicle_type_id":"4","last_reported":1745396071,"current_range_meters":13600,"station_id":"ce4bh9p2rcd13ifvqec0","pricing_plan_id":"cebpf4jnsgd1na2vs0mg"},{"bike_id":"bac72351-a88e-4107-b318-edd11bc8f783","system_id":"levelo_inurba_marseille","lat":43.25888,"lon":5.40909,"is_reserved":false,"is_disabled":false,"rental_uris":{"android":"levelo://app?vid=bac72351-a88e-4107-b318-edd11bc8f783","ios":"levelo://app?vid=bac72351-a88e-4107-b318-edd11bc8f783"},"vehicle_type_id":"4","last_reported":1745396071,"current_range_meters":13600,"station_id":"ce4bhm92rcd13ifvqglg","pricing_plan_id":"cebpf4jnsgd1na2vs0mg"},{"bike_id":"7c110556-51f7-4ebc-a93b-d3e946a92a50","system_id":"levelo_inurba_marseille","lat":43.31716,"lon":5.437,"is_reserved":false,"is_disabled":true,"rental_uris":{"android":"levelo://app?vid=7c110556-51f7-4ebc-a93b-d3e946a92a50","ios":"levelo://app?vid=7c110556-51f7-4ebc-a93b-d3e946a92a50"},"vehicle_type_id":"4","last_reported":1745396071,"current_range_meters":13600,"station_id":"ce4bhp92rcd13ifvqhcg","pricing_plan_id":"cebpf4jnsgd1na2vs0mg"},{"bike_id":"9e6f664d-d758-4b88-973b-a221371ef847","system_id":"levelo_inurba_marseille","lat":43.31337,"lon":5.36727,"is_reserved":false,"is_disabled":false,"rental_uris":{"android":"levelo://app?vid=9e6f664d-d758-4b88-973b-a221371ef847","ios":"levelo://app?vid=9e6f664d-d758-4b88-973b-a221371ef847"},"vehicle_type_id":"4","last_reported":1745396071,"current_range_meters":13600,"station_id":"ce4bgr92rcd13ifvqc6g","pricing_plan_id":"cebpf4jnsgd1na2vs0mg"},{"bike_id":"4fa4d262-cd0f-4819-a50d-363140c0ebb1","system_id":"levelo_inurba_marseille","lat":43.27812,"lon":5.40714,"is_reserved":false,"is_disabled":false,"rental_uris":{"android":"levelo://app?vid=4fa4d262-cd0f-4819-a50d-363140c0ebb1","ios":"levelo://app?vid=4fa4d262-cd0f-4819-a50d-363140c0ebb1"},"vehicle_type_id":"4","last_reported":1745396071,"current_range_meters":13600,"station_id":"ce4bhnh2rcd13ifvqgtg","pricing_plan_id":"cebpf4jnsgd1na2vs0mg"},{"bike_id":"9ec49457-910a-4a25-9cd0-b82d5625cff5","system_id":"levelo_inurba_marseille","lat":43.23151,"lon":5.43716,"is_reserved":false,"is_disabled":false,"rental_uris":{"android":"levelo://app?vid=9ec49457-910a-4a25-9cd0-b82d5625cff5","ios":"levelo://app?vid=9ec49457-910a-4a25-9cd0-b82d5625cff5"},"vehicle_type_id":"4","last_reported":1745396071,"current_range_meters":13600,"station_id":"ce4bhmp2rcd13ifvqgog","pricing_plan_id":"cebpf4jnsgd1na2vs0mg"},{"bike_id":"32ee3ae0-7117-4882-b627-a1555f3106f8","system_id":"levelo_inurba_marseille","lat":43.288462,"lon":5.392749,"is_reserved":false,"is_disabled":false,"rental_uris":{"android":"levelo://app?vid=32ee3ae0-7117-4882-b627-a1555f3106f8","ios":"levelo://app?vid=32ee3ae0-7117-4882-b627-a1555f3106f8"},"vehicle_type_id":"4","last_reported":1745396071,"current_range_meters":14000,"station_id":"ce4bh2p2rcd13ifvqdi0","pricing_plan_id":"cebpf4jnsgd1na2vs0mg"},{"bike_id":"646143b9-0af8-41a7-9efd-95e5528bc556","system_id":"levelo_inurba_marseille","lat":43.24085,"lon":5.3775,"is_reserved":false,"is_disabled":false,"rental_uris":{"android":"levelo://app?vid=646143b9-0af8-41a7-9efd-95e5528bc556","ios":"levelo://app?vid=646143b9-0af8-41a7-9efd-95e5528bc556"},"vehicle_type_id":"4","last_reported":1745396071,"current_range_meters":14000,"station_id":"ce4bhnp2rcd13ifvqgvg","pricing_plan_id":"cebpf4jnsgd1na2vs0mg"},{"bike_id":"b96d48d5-fc65-423b-9a30-5d2c864e8939","system_id":"levelo_inurba_marseille","lat":43.22521,"lon":5.34769,"is_reserved":false,"is_disabled":true,"rental_uris":{"android":"levelo://app?vid=b96d48d5-fc65-423b-9a30-5d2c864e8939","ios":"levelo://app?vid=b96d48d5-fc65-423b-9a30-5d2c864e8939"},"vehicle_type_id":"4","last_reported":1745396071,"current_range_meters":14000,"station_id":"st_cvj5dfep6f1abm77gieg","pricing_plan_id":"cebpf4jnsgd1na2vs0mg"},{"bike_id":"fee7f00b-4d93-4319-8cf3-bdfe01ae5751","system_id":"levelo_inurba_marseille","lat":43.337444,"lon":5.374475,"is_reserved":false,"is_disabled":false,"rental_uris":{"android":"levelo://app?vid=fee7f00b-4d93-4319-8cf3-bdfe01ae5751","ios":"levelo://app?vid=fee7f00b-4d93-4319-8cf3-bdfe01ae5751"},"vehicle_type_id":"4","last_reported":1745396071,"current_range_meters":14000,"station_id":"","pricing_plan_id":"cebpf4jnsgd1na2vs0mg"},{"bike_id":"398936bf-83ab-47f5-84e9-a2bb713f6e36","system_id":"levelo_inurba_marseille","lat":43.24079,"lon":5.37762,"is_reserved":false,"is_disabled":false,"rental_uris":{"android":"levelo://app?vid=398936bf-83ab-47f5-84e9-a2bb713f6e36","ios":"levelo://app?vid=398936bf-83ab-47f5-84e9-a2bb713f6e36"},"vehicle_type_id":"4","last_reported":1745396071,"current_range_meters":14000,"station_id":"ce4bhnp2rcd13ifvqgvg","pricing_plan_id":"cebpf4jnsgd1na2vs0mg"},{"bike_id":"d3f211aa-741d-4922-9d00-0aa8ee7227fc","system_id":"levelo_inurba_marseille","lat":43.30964,"lon":5.39044,"is_reserved":false,"is_disabled":false,"rental_uris":{"android":"levelo://app?vid=d3f211aa-741d-4922-9d00-0aa8ee7227fc","ios":"levelo://app?vid=d3f211aa-741d-4922-9d00-0aa8ee7227fc"},"vehicle_type_id":"4","last_reported":1745396071,"current_range_meters":14000,"station_id":"ce4bgup2rcd13ifvqco0","pricing_plan_id":"cebpf4jnsgd1na2vs0mg"},{"bike_id":"6345beec-02f9-47f8-bf88-c8c041de60c2","system_id":"levelo_inurba_marseille","lat":43.29519,"lon":5.37497,"is_reserved":false,"is_disabled":false,"rental_uris":{"android":"levelo://app?vid=6345beec-02f9-47f8-bf88-c8c041de60c2","ios":"levelo://app?vid=6345beec-02f9-47f8-bf88-c8c041de60c2"},"vehicle_type_id":"4","last_reported":1745396071,"current_range_meters":13600,"station_id":"ce4bgkp2rcd13ifvqbmg","pricing_plan_id":"cebpf4jnsgd1na2vs0mg"},{"bike_id":"1b903b38-38de-4714-9a2c-59836acfa168","system_id":"levelo_inurba_marseille","lat":43.31717,"lon":5.43691,"is_reserved":false,"is_disabled":true,"rental_uris":{"android":"levelo://app?vid=1b903b38-38de-4714-9a2c-59836acfa168","ios":"levelo://app?vid=1b903b38-38de-4714-9a2c-59836acfa168"},"vehicle_type_id":"4","last_reported":1745396071,"current_range_meters":14000,"station_id":"ce4bhp92rcd13ifvqhcg","pricing_plan_id":"cebpf4jnsgd1na2vs0mg"},{"bike_id":"378d59fa-5c4d-475a-ab80-86c54755eb3c","system_id":"levelo_inurba_marseille","lat":43.304675,"lon":5.379206,"is_reserved":false,"is_disabled":false,"rental_uris":{"android":"levelo://app?vid=378d59fa-5c4d-475a-ab80-86c54755eb3c","ios":"levelo://app?vid=378d59fa-5c4d-475a-ab80-86c54755eb3c"},"vehicle_type_id":"4","last_reported":1745396071,"current_range_meters":14400,"station_id":"ce4bgup2rcd13ifvqcn0","pricing_plan_id":"cebpf4jnsgd1na2vs0mg"},{"bike_id":"413f4d9d-b034-4a62-9dd5-fb1e57ec700a","system_id":"levelo_inurba_marseille","lat":43.23155,"lon":5.43712,"is_reserved":false,"is_disabled":false,"rental_uris":{"android":"levelo://app?vid=413f4d9d-b034-4a62-9dd5-fb1e57ec700a","ios":"levelo://app?vid=413f4d9d-b034-4a62-9dd5-fb1e57ec700a"},"vehicle_type_id":"4","last_reported":1745396071,"current_range_meters":14400,"station_id":"ce4bhmp2rcd13ifvqgog","pricing_plan_id":"cebpf4jnsgd1na2vs0mg"},{"bike_id":"b321b7a9-437e-4b5b-a4d2-56b65dc8d970","system_id":"levelo_inurba_marseille","lat":43.24074,"lon":5.37758,"is_reserved":false,"is_disabled":false,"rental_uris":{"android":"levelo://app?vid=b321b7a9-437e-4b5b-a4d2-56b65dc8d970","ios":"levelo://app?vid=b321b7a9-437e-4b5b-a4d2-56b65dc8d970"},"vehicle_type_id":"4","last_reported":1745396071,"current_range_meters":14400,"station_id":"ce4bhnp2rcd13ifvqgvg","pricing_plan_id":"cebpf4jnsgd1na2vs0mg"},{"bike_id":"d5fa6a7e-ae6f-48cd-8dc8-6ec1473fc099","system_id":"levelo_inurba_marseille","lat":43.31335,"lon":5.367325,"is_reserved":false,"is_disabled":false,"rental_uris":{"android":"levelo://app?vid=d5fa6a7e-ae6f-48cd-8dc8-6ec1473fc099","ios":"levelo://app?vid=d5fa6a7e-ae6f-48cd-8dc8-6ec1473fc099"},"vehicle_type_id":"4","last_reported":1745396071,"current_range_meters":14400,"station_id":"ce4bgr92rcd13ifvqc6g","pricing_plan_id":"cebpf4jnsgd1na2vs0mg"},{"bike_id":"1aa656ae-0dd8-48ec-9f42-95c2db273681","system_id":"levelo_inurba_marseille","lat":43.30538,"lon":5.36707,"is_reserved":false,"is_disabled":false,"rental_uris":{"android":"levelo://app?vid=1aa656ae-0dd8-48ec-9f42-95c2db273681","ios":"levelo://app?vid=1aa656ae-0dd8-48ec-9f42-95c2db273681"},"vehicle_type_id":"4","last_reported":1745396071,"current_range_meters":14000,"station_id":"ce4bgrp2rcd13ifvqc9g","pricing_plan_id":"cebpf4jnsgd1na2vs0mg"},{"bike_id":"d8ef3988-002f-42dc-b706-ecebe9835e72","system_id":"levelo_inurba_marseille","lat":43.29903,"lon":5.43671,"is_reserved":false,"is_disabled":false,"rental_uris":{"android":"levelo://app?vid=d8ef3988-002f-42dc-b706-ecebe9835e72","ios":"levelo://app?vid=d8ef3988-002f-42dc-b706-ecebe9835e72"},"vehicle_type_id":"4","last_reported":1745396071,"current_range_meters":14800,"station_id":"ce4bhpp2rcd13ifvqhfg","pricing_plan_id":"cebpf4jnsgd1na2vs0mg"},{"bike_id":"ef7b4785-fa2b-49c3-8f9c-177a53d7e716","system_id":"levelo_inurba_marseille","lat":43.30316,"lon":5.369,"is_reserved":false,"is_disabled":false,"rental_uris":{"android":"levelo://app?vid=ef7b4785-fa2b-49c3-8f9c-177a53d7e716","ios":"levelo://app?vid=ef7b4785-fa2b-49c3-8f9c-177a53d7e716"},"vehicle_type_id":"4","last_reported":1745396071,"current_range_meters":14400,"station_id":"ce4bgqh2rcd13ifvqc5g","pricing_plan_id":"cebpf4jnsgd1na2vs0mg"},{"bike_id":"3e8f0127-96fd-4fdd-97f2-be6e836f9523","system_id":"levelo_inurba_marseille","lat":43.33766,"lon":5.37421,"is_reserved":false,"is_disabled":false,"rental_uris":{"android":"levelo://app?vid=3e8f0127-96fd-4fdd-97f2-be6e836f9523","ios":"levelo://app?vid=3e8f0127-96fd-4fdd-97f2-be6e836f9523"},"vehicle_type_id":"4","last_reported":1745396071,"current_range_meters":14800,"station_id":"","pricing_plan_id":"cebpf4jnsgd1na2vs0mg"},{"bike_id":"395606c0-e8d9-4d79-af26-75522d75b8a5","system_id":"levelo_inurba_marseille","lat":43.25876,"lon":5.39901,"is_reserved":false,"is_disabled":false,"rental_uris":{"android":"levelo://app?vid=395606c0-e8d9-4d79-af26-75522d75b8a5","ios":"levelo://app?vid=395606c0-e8d9-4d79-af26-75522d75b8a5"},"vehicle_type_id":"4","last_reported":1745396071,"current_range_meters":1200,"station_id":"ce4bhbh2rcd13ifvqeo0","pricing_plan_id":"cebpf4jnsgd1na2vs0mg"},{"bike_id":"a69aab5a-697e-4765-85ac-e157ca120168","system_id":"levelo_inurba_marseille","lat":43.29855,"lon":5.36301,"is_reserved":false,"is_disabled":false,"rental_uris":{"android":"levelo://app?vid=a69aab5a-697e-4765-85ac-e157ca120168","ios":"levelo://app?vid=a69aab5a-697e-4765-85ac-e157ca120168"},"vehicle_type_id":"4","last_reported":1745396071,"current_range_meters":14800,"station_id":"ce4bgpp2rcd13ifvqc3g","pricing_plan_id":"cebpf4jnsgd1na2vs0mg"},{"bike_id":"a1835b16-9e05-4b53-baf5-10eeb04320bb","system_id":"levelo_inurba_marseille","lat":43.28699,"lon":5.37389,"is_reserved":false,"is_disabled":true,"rental_uris":{"android":"levelo://app?vid=a1835b16-9e05-4b53-baf5-10eeb04320bb","ios":"levelo://app?vid=a1835b16-9e05-4b53-baf5-10eeb04320bb"},"vehicle_type_id":"4","last_reported":1745396071,"current_range_meters":15200,"station_id":"ce4bh3p2rcd13ifvqdq0","pricing_plan_id":"cebpf4jnsgd1na2vs0mg"},{"bike_id":"7aff8d0f-f894-4401-bbd9-9c6ef2d66104","system_id":"levelo_inurba_marseille","lat":43.30461,"lon":5.37914,"is_reserved":false,"is_disabled":false,"rental_uris":{"android":"levelo://app?vid=7aff8d0f-f894-4401-bbd9-9c6ef2d66104","ios":"levelo://app?vid=7aff8d0f-f894-4401-bbd9-9c6ef2d66104"},"vehicle_type_id":"4","last_reported":1745396071,"current_range_meters":15200,"station_id":"ce4bgup2rcd13ifvqcn0","pricing_plan_id":"cebpf4jnsgd1na2vs0mg"},{"bike_id":"afc41356-a2b6-4fcb-a539-c3caa81c24b2","system_id":"levelo_inurba_marseille","lat":43.27493,"lon":5.42462,"is_reserved":false,"is_disabled":false,"rental_uris":{"android":"levelo://app?vid=afc41356-a2b6-4fcb-a539-c3caa81c24b2","ios":"levelo://app?vid=afc41356-a2b6-4fcb-a539-c3caa81c24b2"},"vehicle_type_id":"4","last_reported":1745396071,"current_range_meters":16000,"station_id":"ce4bhn92rcd13ifvqgrg","pricing_plan_id":"cebpf4jnsgd1na2vs0mg"},{"bike_id":"fdcbc50b-1a51-497d-85b0-4b0b25e5eaa4","system_id":"levelo_inurba_marseille","lat":43.29375,"lon":5.3783,"is_reserved":false,"is_disabled":false,"rental_uris":{"android":"levelo://app?vid=fdcbc50b-1a51-497d-85b0-4b0b25e5eaa4","ios":"levelo://app?vid=fdcbc50b-1a51-497d-85b0-4b0b25e5eaa4"},"vehicle_type_id":"4","last_reported":1745396071,"current_range_meters":16000,"station_id":"","pricing_plan_id":"cebpf4jnsgd1na2vs0mg"},{"bike_id":"bceb8cba-0252-464f-a7c9-f9b4548f7a27","system_id":"levelo_inurba_marseille","lat":43.28065,"lon":5.39648,"is_reserved":false,"is_disabled":true,"rental_uris":{"android":"levelo://app?vid=bceb8cba-0252-464f-a7c9-f9b4548f7a27","ios":"levelo://app?vid=bceb8cba-0252-464f-a7c9-f9b4548f7a27"},"vehicle_type_id":"4","last_reported":1745396071,"current_range_meters":16400,"station_id":"ce4bho12rcd13ifvqh2g","pricing_plan_id":"cebpf4jnsgd1na2vs0mg"},{"bike_id":"34d18faf-fe69-46ed-a4a9-9e404cad30f2","system_id":"levelo_inurba_marseille","lat":43.30919,"lon":5.36849,"is_reserved":false,"is_disabled":false,"rental_uris":{"android":"levelo://app?vid=34d18faf-fe69-46ed-a4a9-9e404cad30f2","ios":"levelo://app?vid=34d18faf-fe69-46ed-a4a9-9e404cad30f2"},"vehicle_type_id":"4","last_reported":1745396071,"current_range_meters":16400,"station_id":"ce4bgn92rcd13ifvqbvg","pricing_plan_id":"cebpf4jnsgd1na2vs0mg"},{"bike_id":"3fdc5404-718b-483d-9373-e556b91483f0","system_id":"levelo_inurba_marseille","lat":43.30264,"lon":5.40079,"is_reserved":false,"is_disabled":false,"rental_uris":{"android":"levelo://app?vid=3fdc5404-718b-483d-9373-e556b91483f0","ios":"levelo://app?vid=3fdc5404-718b-483d-9373-e556b91483f0"},"vehicle_type_id":"4","last_reported":1745396071,"current_range_meters":16400,"station_id":"ce4bgvh2rcd13ifvqcs0","pricing_plan_id":"cebpf4jnsgd1na2vs0mg"},{"bike_id":"7a2dfee4-f3fd-4c46-a944-3680c2560594","system_id":"levelo_inurba_marseille","lat":43.24074,"lon":5.37744,"is_reserved":false,"is_disabled":false,"rental_uris":{"android":"levelo://app?vid=7a2dfee4-f3fd-4c46-a944-3680c2560594","ios":"levelo://app?vid=7a2dfee4-f3fd-4c46-a944-3680c2560594"},"vehicle_type_id":"4","last_reported":1745396071,"current_range_meters":16400,"station_id":"ce4bhnp2rcd13ifvqgvg","pricing_plan_id":"cebpf4jnsgd1na2vs0mg"},{"bike_id":"02a40b03-b567-43bf-a8de-5120621bb488","system_id":"levelo_inurba_marseille","lat":43.23038,"lon":5.3553,"is_reserved":false,"is_disabled":false,"rental_uris":{"android":"levelo://app?vid=02a40b03-b567-43bf-a8de-5120621bb488","ios":"levelo://app?vid=02a40b03-b567-43bf-a8de-5120621bb488"},"vehicle_type_id":"4","last_reported":1745396071,"current_range_meters":16400,"station_id":"cpo3342slgdg3j2ifvpg","pricing_plan_id":"cebpf4jnsgd1na2vs0mg"},{"bike_id":"8e09a13a-fcf6-407d-8b3b-c4009e053453","system_id":"levelo_inurba_marseille","lat":43.26683,"lon":5.38269,"is_reserved":false,"is_disabled":false,"rental_uris":{"android":"levelo://app?vid=8e09a13a-fcf6-407d-8b3b-c4009e053453","ios":"levelo://app?vid=8e09a13a-fcf6-407d-8b3b-c4009e053453"},"vehicle_type_id":"4","last_reported":1745396071,"current_range_meters":16400,"station_id":"ce4bhg92rcd13ifvqf90","pricing_plan_id":"cebpf4jnsgd1na2vs0mg"},{"bike_id":"db6c3ea9-7917-44bd-958f-99f8a50fb72d","system_id":"levelo_inurba_marseille","lat":43.30924,"lon":5.3685,"is_reserved":false,"is_disabled":false,"rental_uris":{"android":"levelo://app?vid=db6c3ea9-7917-44bd-958f-99f8a50fb72d","ios":"levelo://app?vid=db6c3ea9-7917-44bd-958f-99f8a50fb72d"},"vehicle_type_id":"4","last_reported":1745396071,"current_range_meters":16400,"station_id":"ce4bgn92rcd13ifvqbvg","pricing_plan_id":"cebpf4jnsgd1na2vs0mg"},{"bike_id":"52d4d96c-558b-4a10-af2f-b888d80f0b1a","system_id":"levelo_inurba_marseille","lat":43.26192,"lon":5.3745,"is_reserved":false,"is_disabled":false,"rental_uris":{"android":"levelo://app?vid=52d4d96c-558b-4a10-af2f-b888d80f0b1a","ios":"levelo://app?vid=52d4d96c-558b-4a10-af2f-b888d80f0b1a"},"vehicle_type_id":"4","last_reported":1745396071,"current_range_meters":16400,"station_id":"ce4bhgp2rcd13ifvqfc0","pricing_plan_id":"cebpf4jnsgd1na2vs0mg"},{"bike_id":"0fc45f9b-42c0-417a-adc3-1ca1da8782a7","system_id":"levelo_inurba_marseille","lat":43.337581,"lon":5.374852,"is_reserved":false,"is_disabled":false,"rental_uris":{"android":"levelo://app?vid=0fc45f9b-42c0-417a-adc3-1ca1da8782a7","ios":"levelo://app?vid=0fc45f9b-42c0-417a-adc3-1ca1da8782a7"},"vehicle_type_id":"4","last_reported":1745396071,"current_range_meters":17200,"station_id":"","pricing_plan_id":"cebpf4jnsgd1na2vs0mg"},{"bike_id":"b5d609bf-0c9b-49e3-9426-ce02cb8383b8","system_id":"levelo_inurba_marseille","lat":43.34137,"lon":5.40904,"is_reserved":false,"is_disabled":true,"rental_uris":{"android":"levelo://app?vid=b5d609bf-0c9b-49e3-9426-ce02cb8383b8","ios":"levelo://app?vid=b5d609bf-0c9b-49e3-9426-ce02cb8383b8"},"vehicle_type_id":"4","last_reported":1745396071,"current_range_meters":16800,"station_id":"ce4bhqh2rcd13ifvqhlg","pricing_plan_id":"cebpf4jnsgd1na2vs0mg"},{"bike_id":"46374c49-3adc-4c5a-8966-e00f056c0d57","system_id":"levelo_inurba_marseille","lat":43.27846,"lon":5.35442,"is_reserved":false,"is_disabled":false,"rental_uris":{"android":"levelo://app?vid=46374c49-3adc-4c5a-8966-e00f056c0d57","ios":"levelo://app?vid=46374c49-3adc-4c5a-8966-e00f056c0d57"},"vehicle_type_id":"4","last_reported":1745396071,"current_range_meters":17200,"station_id":"","pricing_plan_id":"cebpf4jnsgd1na2vs0mg"},{"bike_id":"1dd2ac2a-4c94-4464-a499-c31d4cd58712","system_id":"levelo_inurba_marseille","lat":43.30143,"lon":5.37408,"is_reserved":false,"is_disabled":false,"rental_uris":{"android":"levelo://app?vid=1dd2ac2a-4c94-4464-a499-c31d4cd58712","ios":"levelo://app?vid=1dd2ac2a-4c94-4464-a499-c31d4cd58712"},"vehicle_type_id":"4","last_reported":1745396071,"current_range_meters":17200,"station_id":"ce4bgs92rcd13ifvqcc0","pricing_plan_id":"cebpf4jnsgd1na2vs0mg"},{"bike_id":"ae89a269-45b8-4043-83b2-1d3576b3fac5","system_id":"levelo_inurba_marseille","lat":43.29781,"lon":5.37106,"is_reserved":false,"is_disabled":false,"rental_uris":{"android":"levelo://app?vid=ae89a269-45b8-4043-83b2-1d3576b3fac5","ios":"levelo://app?vid=ae89a269-45b8-4043-83b2-1d3576b3fac5"},"vehicle_type_id":"4","last_reported":1745396071,"current_range_meters":16800,"station_id":"ce4bgop2rcd13ifvqc1g","pricing_plan_id":"cebpf4jnsgd1na2vs0mg"},{"bike_id":"96b0f47a-df73-4c76-a290-a8c86dfa6161","system_id":"levelo_inurba_marseille","lat":43.32562,"lon":5.41472,"is_reserved":false,"is_disabled":false,"rental_uris":{"android":"levelo://app?vid=96b0f47a-df73-4c76-a290-a8c86dfa6161","ios":"levelo://app?vid=96b0f47a-df73-4c76-a290-a8c86dfa6161"},"vehicle_type_id":"4","last_reported":1745396071,"current_range_meters":17200,"station_id":"ce4bhq12rcd13ifvqhhg","pricing_plan_id":"cebpf4jnsgd1na2vs0mg"},{"bike_id":"3065a843-6c0d-41dc-b2da-42e990e5583b","system_id":"levelo_inurba_marseille","lat":43.33598,"lon":5.41012,"is_reserved":false,"is_disabled":false,"rental_uris":{"android":"levelo://app?vid=3065a843-6c0d-41dc-b2da-42e990e5583b","ios":"levelo://app?vid=3065a843-6c0d-41dc-b2da-42e990e5583b"},"vehicle_type_id":"4","last_reported":1745396071,"current_range_meters":17200,"station_id":"ce4bhqh2rcd13ifvqhmg","pricing_plan_id":"cebpf4jnsgd1na2vs0mg"},{"bike_id":"de90ff7b-341c-4694-a053-b21e82ea5353","system_id":"levelo_inurba_marseille","lat":43.27425,"lon":5.39414,"is_reserved":false,"is_disabled":false,"rental_uris":{"android":"levelo://app?vid=de90ff7b-341c-4694-a053-b21e82ea5353","ios":"levelo://app?vid=de90ff7b-341c-4694-a053-b21e82ea5353"},"vehicle_type_id":"4","last_reported":1745396071,"current_range_meters":17200,"station_id":"ce4bhdp2rcd13ifvqf20","pricing_plan_id":"cebpf4jnsgd1na2vs0mg"},{"bike_id":"32f4fde7-f9bb-48cf-850f-4f6df8e3f810","system_id":"levelo_inurba_marseille","lat":43.29844,"lon":5.36268,"is_reserved":false,"is_disabled":false,"rental_uris":{"android":"levelo://app?vid=32f4fde7-f9bb-48cf-850f-4f6df8e3f810","ios":"levelo://app?vid=32f4fde7-f9bb-48cf-850f-4f6df8e3f810"},"vehicle_type_id":"4","last_reported":1745396071,"current_range_meters":17200,"station_id":"ce4bgpp2rcd13ifvqc3g","pricing_plan_id":"cebpf4jnsgd1na2vs0mg"},{"bike_id":"ae5d327f-5620-42de-8ddf-d3ae78b63b26","system_id":"levelo_inurba_marseille","lat":43.30285,"lon":5.37702,"is_reserved":false,"is_disabled":false,"rental_uris":{"android":"levelo://app?vid=ae5d327f-5620-42de-8ddf-d3ae78b63b26","ios":"levelo://app?vid=ae5d327f-5620-42de-8ddf-d3ae78b63b26"},"vehicle_type_id":"4","last_reported":1745396071,"current_range_meters":17200,"station_id":"ce4bguh2rcd13ifvqcj0","pricing_plan_id":"cebpf4jnsgd1na2vs0mg"},{"bike_id":"58739a59-40a4-4b4c-8074-3b3b445971ef","system_id":"levelo_inurba_marseille","lat":43.23156,"lon":5.43721,"is_reserved":false,"is_disabled":false,"rental_uris":{"android":"levelo://app?vid=58739a59-40a4-4b4c-8074-3b3b445971ef","ios":"levelo://app?vid=58739a59-40a4-4b4c-8074-3b3b445971ef"},"vehicle_type_id":"4","last_reported":1745396071,"current_range_meters":17200,"station_id":"ce4bhmp2rcd13ifvqgog","pricing_plan_id":"cebpf4jnsgd1na2vs0mg"},{"bike_id":"ee6abf3a-de63-4f34-8c94-cc1d6db0ba2f","system_id":"levelo_inurba_marseille","lat":43.30894,"lon":5.3683,"is_reserved":false,"is_disabled":true,"rental_uris":{"android":"levelo://app?vid=ee6abf3a-de63-4f34-8c94-cc1d6db0ba2f","ios":"levelo://app?vid=ee6abf3a-de63-4f34-8c94-cc1d6db0ba2f"},"vehicle_type_id":"4","last_reported":1745396071,"current_range_meters":17600,"station_id":"ce4bgn92rcd13ifvqbvg","pricing_plan_id":"cebpf4jnsgd1na2vs0mg"},{"bike_id":"9d97d0df-f87a-4236-a116-dbbd35b1dc70","system_id":"levelo_inurba_marseille","lat":43.264926,"lon":5.395416,"is_reserved":false,"is_disabled":false,"rental_uris":{"android":"levelo://app?vid=9d97d0df-f87a-4236-a116-dbbd35b1dc70","ios":"levelo://app?vid=9d97d0df-f87a-4236-a116-dbbd35b1dc70"},"vehicle_type_id":"4","last_reported":1745396071,"current_range_meters":17600,"station_id":"ce4bhi12rcd13ifvqfq0","pricing_plan_id":"cebpf4jnsgd1na2vs0mg"},{"bike_id":"9966e2c4-c438-4020-9570-af75c54f7699","system_id":"levelo_inurba_marseille","lat":43.25122,"lon":5.40321,"is_reserved":false,"is_disabled":false,"rental_uris":{"android":"levelo://app?vid=9966e2c4-c438-4020-9570-af75c54f7699","ios":"levelo://app?vid=9966e2c4-c438-4020-9570-af75c54f7699"},"vehicle_type_id":"4","last_reported":1745396071,"current_range_meters":17600,"station_id":"ce4bhlh2rcd13ifvqgig","pricing_plan_id":"cebpf4jnsgd1na2vs0mg"},{"bike_id":"181f2e36-9289-4d76-a922-142b60676678","system_id":"levelo_inurba_marseille","lat":43.29986,"lon":5.37171,"is_reserved":false,"is_disabled":false,"rental_uris":{"android":"levelo://app?vid=181f2e36-9289-4d76-a922-142b60676678","ios":"levelo://app?vid=181f2e36-9289-4d76-a922-142b60676678"},"vehicle_type_id":"4","last_reported":1745396071,"current_range_meters":17200,"station_id":"ce4bgr92rcd13ifvqc7g","pricing_plan_id":"cebpf4jnsgd1na2vs0mg"},{"bike_id":"b244cdd7-891e-41d3-bbdf-d6e3de24d190","system_id":"levelo_inurba_marseille","lat":43.29216,"lon":5.35805,"is_reserved":false,"is_disabled":true,"rental_uris":{"android":"levelo://app?vid=b244cdd7-891e-41d3-bbdf-d6e3de24d190","ios":"levelo://app?vid=b244cdd7-891e-41d3-bbdf-d6e3de24d190"},"vehicle_type_id":"4","last_reported":1745396071,"current_range_meters":18000,"station_id":"ce4bhb12rcd13ifvqel0","pricing_plan_id":"cebpf4jnsgd1na2vs0mg"},{"bike_id":"34092322-88d5-49d6-98c0-54da3aae8180","system_id":"levelo_inurba_marseille","lat":43.30364,"lon":5.42526,"is_reserved":false,"is_disabled":false,"rental_uris":{"android":"levelo://app?vid=34092322-88d5-49d6-98c0-54da3aae8180","ios":"levelo://app?vid=34092322-88d5-49d6-98c0-54da3aae8180"},"vehicle_type_id":"4","last_reported":1745396071,"current_range_meters":18000,"station_id":"ce4bhoh2rcd13ifvqh6g","pricing_plan_id":"cebpf4jnsgd1na2vs0mg"},{"bike_id":"05b52890-16eb-4e8f-bc2a-4f82f1dd05e4","system_id":"levelo_inurba_marseille","lat":43.28463,"lon":5.35883,"is_reserved":false,"is_disabled":false,"rental_uris":{"android":"levelo://app?vid=05b52890-16eb-4e8f-bc2a-4f82f1dd05e4","ios":"levelo://app?vid=05b52890-16eb-4e8f-bc2a-4f82f1dd05e4"},"vehicle_type_id":"4","last_reported":1745396071,"current_range_meters":18000,"station_id":"ce4bhah2rcd13ifvqei0","pricing_plan_id":"cebpf4jnsgd1na2vs0mg"},{"bike_id":"2c210749-934e-4075-8f69-64b44da87771","system_id":"levelo_inurba_marseille","lat":43.30302,"lon":5.39202,"is_reserved":false,"is_disabled":true,"rental_uris":{"android":"levelo://app?vid=2c210749-934e-4075-8f69-64b44da87771","ios":"levelo://app?vid=2c210749-934e-4075-8f69-64b44da87771"},"vehicle_type_id":"4","last_reported":1745396071,"current_range_meters":18000,"station_id":"ce4bgkh2rcd13ifvqbk0","pricing_plan_id":"cebpf4jnsgd1na2vs0mg"},{"bike_id":"f14e05df-6b48-48e9-a4b2-0a922790be98","system_id":"levelo_inurba_marseille","lat":43.29275,"lon":5.36853,"is_reserved":false,"is_disabled":false,"rental_uris":{"android":"levelo://app?vid=f14e05df-6b48-48e9-a4b2-0a922790be98","ios":"levelo://app?vid=f14e05df-6b48-48e9-a4b2-0a922790be98"},"vehicle_type_id":"4","last_reported":1745396071,"current_range_meters":18000,"station_id":"ce4bhbp2rcd13ifvqesg","pricing_plan_id":"cebpf4jnsgd1na2vs0mg"},{"bike_id":"0a19e66b-6692-451e-b60a-94056cc8c1b1","system_id":"levelo_inurba_marseille","lat":43.29627,"lon":5.37162,"is_reserved":false,"is_disabled":false,"rental_uris":{"android":"levelo://app?vid=0a19e66b-6692-451e-b60a-94056cc8c1b1","ios":"levelo://app?vid=0a19e66b-6692-451e-b60a-94056cc8c1b1"},"vehicle_type_id":"4","last_reported":1745396071,"current_range_meters":18000,"station_id":"ce4bgnh2rcd13ifvqc0g","pricing_plan_id":"cebpf4jnsgd1na2vs0mg"},{"bike_id":"f09ebbcd-838a-42b2-8598-ee41aedecc62","system_id":"levelo_inurba_marseille","lat":43.24548,"lon":5.39521,"is_reserved":false,"is_disabled":false,"rental_uris":{"android":"levelo://app?vid=f09ebbcd-838a-42b2-8598-ee41aedecc62","ios":"levelo://app?vid=f09ebbcd-838a-42b2-8598-ee41aedecc62"},"vehicle_type_id":"4","last_reported":1745396071,"current_range_meters":18000,"station_id":"ce4bhlp2rcd13ifvqgjg","pricing_plan_id":"cebpf4jnsgd1na2vs0mg"},{"bike_id":"012877b6-e9c9-482d-997f-6a78ad0ac83b","system_id":"levelo_inurba_marseille","lat":43.30381,"lon":5.36495,"is_reserved":false,"is_disabled":false,"rental_uris":{"android":"levelo://app?vid=012877b6-e9c9-482d-997f-6a78ad0ac83b","ios":"levelo://app?vid=012877b6-e9c9-482d-997f-6a78ad0ac83b"},"vehicle_type_id":"4","last_reported":1745396071,"current_range_meters":18000,"station_id":"","pricing_plan_id":"cebpf4jnsgd1na2vs0mg"},{"bike_id":"6eefc99d-8db8-40d1-b867-e66893ab6dc0","system_id":"levelo_inurba_marseille","lat":43.31698,"lon":5.40476,"is_reserved":false,"is_disabled":false,"rental_uris":{"android":"levelo://app?vid=6eefc99d-8db8-40d1-b867-e66893ab6dc0","ios":"levelo://app?vid=6eefc99d-8db8-40d1-b867-e66893ab6dc0"},"vehicle_type_id":"4","last_reported":1745396071,"current_range_meters":18000,"station_id":"ce4bh012rcd13ifvqd00","pricing_plan_id":"cebpf4jnsgd1na2vs0mg"},{"bike_id":"c74c4806-b340-4b33-a8ef-ae1db8d6c100","system_id":"levelo_inurba_marseille","lat":43.24082,"lon":5.37742,"is_reserved":false,"is_disabled":false,"rental_uris":{"android":"levelo://app?vid=c74c4806-b340-4b33-a8ef-ae1db8d6c100","ios":"levelo://app?vid=c74c4806-b340-4b33-a8ef-ae1db8d6c100"},"vehicle_type_id":"4","last_reported":1745396071,"current_range_meters":18800,"station_id":"ce4bhnp2rcd13ifvqgvg","pricing_plan_id":"cebpf4jnsgd1na2vs0mg"},{"bike_id":"2f59be3e-9234-4f82-9cf4-b2ffa9e9f3bd","system_id":"levelo_inurba_marseille","lat":43.23144,"lon":5.43701,"is_reserved":false,"is_disabled":false,"rental_uris":{"android":"levelo://app?vid=2f59be3e-9234-4f82-9cf4-b2ffa9e9f3bd","ios":"levelo://app?vid=2f59be3e-9234-4f82-9cf4-b2ffa9e9f3bd"},"vehicle_type_id":"4","last_reported":1745396071,"current_range_meters":18800,"station_id":"ce4bhmp2rcd13ifvqgog","pricing_plan_id":"cebpf4jnsgd1na2vs0mg"},{"bike_id":"548a676c-6329-4f1b-a15f-51e09f419043","system_id":"levelo_inurba_marseille","lat":43.269467,"lon":5.386537,"is_reserved":false,"is_disabled":true,"rental_uris":{"android":"levelo://app?vid=548a676c-6329-4f1b-a15f-51e09f419043","ios":"levelo://app?vid=548a676c-6329-4f1b-a15f-51e09f419043"},"vehicle_type_id":"4","last_reported":1745396071,"current_range_meters":18800,"station_id":"ce4bhh92rcd13ifvqfh0","pricing_plan_id":"cebpf4jnsgd1na2vs0mg"},{"bike_id":"d2a2dc66-78aa-4dd0-9a8e-c0a60c88865b","system_id":"levelo_inurba_marseille","lat":43.29684,"lon":5.3729,"is_reserved":false,"is_disabled":false,"rental_uris":{"android":"levelo://app?vid=d2a2dc66-78aa-4dd0-9a8e-c0a60c88865b","ios":"levelo://app?vid=d2a2dc66-78aa-4dd0-9a8e-c0a60c88865b"},"vehicle_type_id":"4","last_reported":1745396071,"current_range_meters":18000,"station_id":"ce4bgk12rcd13ifvqbj0","pricing_plan_id":"cebpf4jnsgd1na2vs0mg"},{"bike_id":"44617fc3-5d5a-4ee1-a625-af845d68231c","system_id":"levelo_inurba_marseille","lat":43.294174,"lon":5.386114,"is_reserved":false,"is_disabled":false,"rental_uris":{"android":"levelo://app?vid=44617fc3-5d5a-4ee1-a625-af845d68231c","ios":"levelo://app?vid=44617fc3-5d5a-4ee1-a625-af845d68231c"},"vehicle_type_id":"4","last_reported":1745396071,"current_range_meters":18800,"station_id":"ce4bh2h2rcd13ifvqdh0","pricing_plan_id":"cebpf4jnsgd1na2vs0mg"},{"bike_id":"0ea362ce-4354-4f0f-acc7-962b146816c7","system_id":"levelo_inurba_marseille","lat":43.25864,"lon":5.39935,"is_reserved":false,"is_disabled":true,"rental_uris":{"android":"levelo://app?vid=0ea362ce-4354-4f0f-acc7-962b146816c7","ios":"levelo://app?vid=0ea362ce-4354-4f0f-acc7-962b146816c7"},"vehicle_type_id":"4","last_reported":1745396071,"current_range_meters":19200,"station_id":"ce4bhl92rcd13ifvqghg","pricing_plan_id":"cebpf4jnsgd1na2vs0mg"},{"bike_id":"1f5ab074-1d30-4020-a5fc-8600877a1626","system_id":"levelo_inurba_marseille","lat":43.2959,"lon":5.37704,"is_reserved":false,"is_disabled":true,"rental_uris":{"android":"levelo://app?vid=1f5ab074-1d30-4020-a5fc-8600877a1626","ios":"levelo://app?vid=1f5ab074-1d30-4020-a5fc-8600877a1626"},"vehicle_type_id":"4","last_reported":1745396071,"current_range_meters":19200,"station_id":"ce4bgi92rcd13ifvqb90","pricing_plan_id":"cebpf4jnsgd1na2vs0mg"},{"bike_id":"7bda5196-b22a-4d62-8cbb-997368bea13c","system_id":"levelo_inurba_marseille","lat":43.30334,"lon":5.36916,"is_reserved":false,"is_disabled":false,"rental_uris":{"android":"levelo://app?vid=7bda5196-b22a-4d62-8cbb-997368bea13c","ios":"levelo://app?vid=7bda5196-b22a-4d62-8cbb-997368bea13c"},"vehicle_type_id":"4","last_reported":1745396071,"current_range_meters":16800,"station_id":"ce4bgqh2rcd13ifvqc5g","pricing_plan_id":"cebpf4jnsgd1na2vs0mg"},{"bike_id":"f9e03743-d133-4ab7-a384-4df5473e2e58","system_id":"levelo_inurba_marseille","lat":43.31341,"lon":5.36706,"is_reserved":false,"is_disabled":false,"rental_uris":{"android":"levelo://app?vid=f9e03743-d133-4ab7-a384-4df5473e2e58","ios":"levelo://app?vid=f9e03743-d133-4ab7-a384-4df5473e2e58"},"vehicle_type_id":"4","last_reported":1745396071,"current_range_meters":19200,"station_id":"","pricing_plan_id":"cebpf4jnsgd1na2vs0mg"},{"bike_id":"c54120d8-8a96-4ca5-a3cf-5a8618347747","system_id":"levelo_inurba_marseille","lat":43.3169,"lon":5.40474,"is_reserved":false,"is_disabled":false,"rental_uris":{"android":"levelo://app?vid=c54120d8-8a96-4ca5-a3cf-5a8618347747","ios":"levelo://app?vid=c54120d8-8a96-4ca5-a3cf-5a8618347747"},"vehicle_type_id":"4","last_reported":1745396071,"current_range_meters":19200,"station_id":"ce4bh012rcd13ifvqd00","pricing_plan_id":"cebpf4jnsgd1na2vs0mg"},{"bike_id":"b80022cb-a29e-4744-b1c0-16d659917ee2","system_id":"levelo_inurba_marseille","lat":43.29842,"lon":5.36261,"is_reserved":false,"is_disabled":false,"rental_uris":{"android":"levelo://app?vid=b80022cb-a29e-4744-b1c0-16d659917ee2","ios":"levelo://app?vid=b80022cb-a29e-4744-b1c0-16d659917ee2"},"vehicle_type_id":"4","last_reported":1745396071,"current_range_meters":19200,"station_id":"ce4bgpp2rcd13ifvqc3g","pricing_plan_id":"cebpf4jnsgd1na2vs0mg"},{"bike_id":"7d4191fd-24bf-432e-8513-3c1fae46956e","system_id":"levelo_inurba_marseille","lat":43.29372,"lon":5.37844,"is_reserved":false,"is_disabled":false,"rental_uris":{"android":"levelo://app?vid=7d4191fd-24bf-432e-8513-3c1fae46956e","ios":"levelo://app?vid=7d4191fd-24bf-432e-8513-3c1fae46956e"},"vehicle_type_id":"4","last_reported":1745396071,"current_range_meters":19200,"station_id":"ce4bgjh2rcd13ifvqbf0","pricing_plan_id":"cebpf4jnsgd1na2vs0mg"},{"bike_id":"ef731f68-4f9b-4309-a878-72324d5e4f24","system_id":"levelo_inurba_marseille","lat":43.30129,"lon":5.37405,"is_reserved":false,"is_disabled":false,"rental_uris":{"android":"levelo://app?vid=ef731f68-4f9b-4309-a878-72324d5e4f24","ios":"levelo://app?vid=ef731f68-4f9b-4309-a878-72324d5e4f24"},"vehicle_type_id":"4","last_reported":1745396071,"current_range_meters":19200,"station_id":"ce4bgs92rcd13ifvqcc0","pricing_plan_id":"cebpf4jnsgd1na2vs0mg"},{"bike_id":"226e6333-fb0d-4627-90a8-ba0a8a90ba08","system_id":"levelo_inurba_marseille","lat":43.29635,"lon":5.37165,"is_reserved":false,"is_disabled":false,"rental_uris":{"android":"levelo://app?vid=226e6333-fb0d-4627-90a8-ba0a8a90ba08","ios":"levelo://app?vid=226e6333-fb0d-4627-90a8-ba0a8a90ba08"},"vehicle_type_id":"4","last_reported":1745396071,"current_range_meters":19200,"station_id":"ce4bgnh2rcd13ifvqc0g","pricing_plan_id":"cebpf4jnsgd1na2vs0mg"},{"bike_id":"996046b0-ff39-4ce4-8979-a60dca7b9bfc","system_id":"levelo_inurba_marseille","lat":43.31273,"lon":5.36851,"is_reserved":false,"is_disabled":false,"rental_uris":{"android":"levelo://app?vid=996046b0-ff39-4ce4-8979-a60dca7b9bfc","ios":"levelo://app?vid=996046b0-ff39-4ce4-8979-a60dca7b9bfc"},"vehicle_type_id":"4","last_reported":1745396071,"current_range_meters":19600,"station_id":"","pricing_plan_id":"cebpf4jnsgd1na2vs0mg"},{"bike_id":"f39a5ed8-2be4-4254-916e-d88677df50a0","system_id":"levelo_inurba_marseille","lat":43.27501,"lon":5.42455,"is_reserved":false,"is_disabled":false,"rental_uris":{"android":"levelo://app?vid=f39a5ed8-2be4-4254-916e-d88677df50a0","ios":"levelo://app?vid=f39a5ed8-2be4-4254-916e-d88677df50a0"},"vehicle_type_id":"4","last_reported":1745396071,"current_range_meters":19600,"station_id":"ce4bhn92rcd13ifvqgrg","pricing_plan_id":"cebpf4jnsgd1na2vs0mg"},{"bike_id":"a50c0add-04db-4008-88e1-60ef015df2b9","system_id":"levelo_inurba_marseille","lat":43.33612,"lon":5.41032,"is_reserved":false,"is_disabled":false,"rental_uris":{"android":"levelo://app?vid=a50c0add-04db-4008-88e1-60ef015df2b9","ios":"levelo://app?vid=a50c0add-04db-4008-88e1-60ef015df2b9"},"vehicle_type_id":"4","last_reported":1745396071,"current_range_meters":19600,"station_id":"ce4bhqh2rcd13ifvqhmg","pricing_plan_id":"cebpf4jnsgd1na2vs0mg"},{"bike_id":"38299ba6-02ad-47ac-8cde-e2f13f63dd8b","system_id":"levelo_inurba_marseille","lat":43.30542,"lon":5.36539,"is_reserved":false,"is_disabled":false,"rental_uris":{"android":"levelo://app?vid=38299ba6-02ad-47ac-8cde-e2f13f63dd8b","ios":"levelo://app?vid=38299ba6-02ad-47ac-8cde-e2f13f63dd8b"},"vehicle_type_id":"4","last_reported":1745396071,"current_range_meters":19600,"station_id":"ce4bgs12rcd13ifvqcag","pricing_plan_id":"cebpf4jnsgd1na2vs0mg"},{"bike_id":"99a764d9-c775-4ca6-a51a-b13cec54798f","system_id":"levelo_inurba_marseille","lat":43.30466,"lon":5.37897,"is_reserved":false,"is_disabled":false,"rental_uris":{"android":"levelo://app?vid=99a764d9-c775-4ca6-a51a-b13cec54798f","ios":"levelo://app?vid=99a764d9-c775-4ca6-a51a-b13cec54798f"},"vehicle_type_id":"4","last_reported":1745396071,"current_range_meters":19600,"station_id":"ce4bgup2rcd13ifvqcn0","pricing_plan_id":"cebpf4jnsgd1na2vs0mg"},{"bike_id":"d094f750-52b0-465a-86d2-2596eef1132c","system_id":"levelo_inurba_marseille","lat":43.23064,"lon":5.35489,"is_reserved":false,"is_disabled":false,"rental_uris":{"android":"levelo://app?vid=d094f750-52b0-465a-86d2-2596eef1132c","ios":"levelo://app?vid=d094f750-52b0-465a-86d2-2596eef1132c"},"vehicle_type_id":"4","last_reported":1745396071,"current_range_meters":19600,"station_id":"cpo3342slgdg3j2ifvpg","pricing_plan_id":"cebpf4jnsgd1na2vs0mg"},{"bike_id":"675a939b-d753-43ff-a709-52593e152734","system_id":"levelo_inurba_marseille","lat":43.31679,"lon":5.40471,"is_reserved":false,"is_disabled":false,"rental_uris":{"android":"levelo://app?vid=675a939b-d753-43ff-a709-52593e152734","ios":"levelo://app?vid=675a939b-d753-43ff-a709-52593e152734"},"vehicle_type_id":"4","last_reported":1745396071,"current_range_meters":19600,"station_id":"ce4bh012rcd13ifvqd00","pricing_plan_id":"cebpf4jnsgd1na2vs0mg"},{"bike_id":"6e0b1c01-6a8d-44fd-a45a-7c53164ee423","system_id":"levelo_inurba_marseille","lat":43.24177,"lon":5.39735,"is_reserved":false,"is_disabled":false,"rental_uris":{"android":"levelo://app?vid=6e0b1c01-6a8d-44fd-a45a-7c53164ee423","ios":"levelo://app?vid=6e0b1c01-6a8d-44fd-a45a-7c53164ee423"},"vehicle_type_id":"4","last_reported":1745396071,"current_range_meters":20000,"station_id":"ce4bhn12rcd13ifvqgpg","pricing_plan_id":"cebpf4jnsgd1na2vs0mg"},{"bike_id":"88f6c99a-43ba-416e-ba6a-2f58169b8954","system_id":"levelo_inurba_marseille","lat":43.31336,"lon":5.36687,"is_reserved":false,"is_disabled":false,"rental_uris":{"android":"levelo://app?vid=88f6c99a-43ba-416e-ba6a-2f58169b8954","ios":"levelo://app?vid=88f6c99a-43ba-416e-ba6a-2f58169b8954"},"vehicle_type_id":"4","last_reported":1745396071,"current_range_meters":20000,"station_id":"","pricing_plan_id":"cebpf4jnsgd1na2vs0mg"},{"bike_id":"41ac0398-3fd7-4835-b1f2-196994e522cc","system_id":"levelo_inurba_marseille","lat":43.30463,"lon":5.37903,"is_reserved":false,"is_disabled":false,"rental_uris":{"android":"levelo://app?vid=41ac0398-3fd7-4835-b1f2-196994e522cc","ios":"levelo://app?vid=41ac0398-3fd7-4835-b1f2-196994e522cc"},"vehicle_type_id":"4","last_reported":1745396071,"current_range_meters":20000,"station_id":"ce4bgup2rcd13ifvqcn0","pricing_plan_id":"cebpf4jnsgd1na2vs0mg"},{"bike_id":"7b99710d-8323-4195-a5fe-19e4a02b11e8","system_id":"levelo_inurba_marseille","lat":43.31334,"lon":5.36733,"is_reserved":false,"is_disabled":false,"rental_uris":{"android":"levelo://app?vid=7b99710d-8323-4195-a5fe-19e4a02b11e8","ios":"levelo://app?vid=7b99710d-8323-4195-a5fe-19e4a02b11e8"},"vehicle_type_id":"4","last_reported":1745396071,"current_range_meters":20000,"station_id":"ce4bgr92rcd13ifvqc6g","pricing_plan_id":"cebpf4jnsgd1na2vs0mg"},{"bike_id":"7f4c3b02-135e-4c8b-ae41-58f43c6a5eeb","system_id":"levelo_inurba_marseille","lat":43.3248,"lon":5.36556,"is_reserved":false,"is_disabled":false,"rental_uris":{"android":"levelo://app?vid=7f4c3b02-135e-4c8b-ae41-58f43c6a5eeb","ios":"levelo://app?vid=7f4c3b02-135e-4c8b-ae41-58f43c6a5eeb"},"vehicle_type_id":"4","last_reported":1745396071,"current_range_meters":20000,"station_id":"ce4bhs12rcd13ifvqhvg","pricing_plan_id":"cebpf4jnsgd1na2vs0mg"},{"bike_id":"d2a28930-2ffc-48c1-8de0-6b2bb8b98a01","system_id":"levelo_inurba_marseille","lat":43.30913,"lon":5.36848,"is_reserved":false,"is_disabled":false,"rental_uris":{"android":"levelo://app?vid=d2a28930-2ffc-48c1-8de0-6b2bb8b98a01","ios":"levelo://app?vid=d2a28930-2ffc-48c1-8de0-6b2bb8b98a01"},"vehicle_type_id":"4","last_reported":1745396071,"current_range_meters":20000,"station_id":"ce4bgn92rcd13ifvqbvg","pricing_plan_id":"cebpf4jnsgd1na2vs0mg"},{"bike_id":"e469bb32-1ec6-4782-b05c-25fb74c40373","system_id":"levelo_inurba_marseille","lat":43.25005,"lon":5.38926,"is_reserved":false,"is_disabled":false,"rental_uris":{"android":"levelo://app?vid=e469bb32-1ec6-4782-b05c-25fb74c40373","ios":"levelo://app?vid=e469bb32-1ec6-4782-b05c-25fb74c40373"},"vehicle_type_id":"4","last_reported":1745396071,"current_range_meters":20000,"station_id":"ce4bhgp2rcd13ifvqfd0","pricing_plan_id":"cebpf4jnsgd1na2vs0mg"},{"bike_id":"7993698a-d13b-4b53-a8ad-ad982a6911b1","system_id":"levelo_inurba_marseille","lat":43.26569,"lon":5.39014,"is_reserved":false,"is_disabled":false,"rental_uris":{"android":"levelo://app?vid=7993698a-d13b-4b53-a8ad-ad982a6911b1","ios":"levelo://app?vid=7993698a-d13b-4b53-a8ad-ad982a6911b1"},"vehicle_type_id":"4","last_reported":1745396071,"current_range_meters":20000,"station_id":"ce4bhe12rcd13ifvqf30","pricing_plan_id":"cebpf4jnsgd1na2vs0mg"},{"bike_id":"b8fb165a-8bde-4bbe-a3eb-ad74c528b8d4","system_id":"levelo_inurba_marseille","lat":43.22946,"lon":5.35375,"is_reserved":false,"is_disabled":false,"rental_uris":{"android":"levelo://app?vid=b8fb165a-8bde-4bbe-a3eb-ad74c528b8d4","ios":"levelo://app?vid=b8fb165a-8bde-4bbe-a3eb-ad74c528b8d4"},"vehicle_type_id":"4","last_reported":1745396071,"current_range_meters":20000,"station_id":"cpo3532slgdg3j2ikp40","pricing_plan_id":"cebpf4jnsgd1na2vs0mg"},{"bike_id":"07b14182-8779-4928-b983-efe5e73214b2","system_id":"levelo_inurba_marseille","lat":43.30891,"lon":5.39649,"is_reserved":false,"is_disabled":false,"rental_uris":{"android":"levelo://app?vid=07b14182-8779-4928-b983-efe5e73214b2","ios":"levelo://app?vid=07b14182-8779-4928-b983-efe5e73214b2"},"vehicle_type_id":"4","last_reported":1745396071,"current_range_meters":20000,"station_id":"ce4bh012rcd13ifvqcv0","pricing_plan_id":"cebpf4jnsgd1na2vs0mg"},{"bike_id":"7049f559-46ea-469f-b042-655207f67349","system_id":"levelo_inurba_marseille","lat":43.231964,"lon":5.437155,"is_reserved":false,"is_disabled":false,"rental_uris":{"android":"levelo://app?vid=7049f559-46ea-469f-b042-655207f67349","ios":"levelo://app?vid=7049f559-46ea-469f-b042-655207f67349"},"vehicle_type_id":"4","last_reported":1745396071,"current_range_meters":20400,"station_id":"ce4bhmp2rcd13ifvqgog","pricing_plan_id":"cebpf4jnsgd1na2vs0mg"},{"bike_id":"ee9a2647-e4ee-4117-a8d6-a2811f0c8a0c","system_id":"levelo_inurba_marseille","lat":43.29008,"lon":5.35598,"is_reserved":false,"is_disabled":true,"rental_uris":{"android":"levelo://app?vid=ee9a2647-e4ee-4117-a8d6-a2811f0c8a0c","ios":"levelo://app?vid=ee9a2647-e4ee-4117-a8d6-a2811f0c8a0c"},"vehicle_type_id":"4","last_reported":1745396071,"current_range_meters":20000,"station_id":"ce4bhb92rcd13ifvqen0","pricing_plan_id":"cebpf4jnsgd1na2vs0mg"},{"bike_id":"93542953-d1d0-43fd-8155-12e5232f1f95","system_id":"levelo_inurba_marseille","lat":43.23192,"lon":5.35547,"is_reserved":false,"is_disabled":false,"rental_uris":{"android":"levelo://app?vid=93542953-d1d0-43fd-8155-12e5232f1f95","ios":"levelo://app?vid=93542953-d1d0-43fd-8155-12e5232f1f95"},"vehicle_type_id":"4","last_reported":1745396071,"current_range_meters":20000,"station_id":"ce4bhu92rcd13ifvqi70","pricing_plan_id":"cebpf4jnsgd1na2vs0mg"},{"bike_id":"22b71ad1-c401-4789-9ec2-380b9066ec85","system_id":"levelo_inurba_marseille","lat":43.26006,"lon":5.41607,"is_reserved":false,"is_disabled":false,"rental_uris":{"android":"levelo://app?vid=22b71ad1-c401-4789-9ec2-380b9066ec85","ios":"levelo://app?vid=22b71ad1-c401-4789-9ec2-380b9066ec85"},"vehicle_type_id":"4","last_reported":1745396071,"current_range_meters":20400,"station_id":"","pricing_plan_id":"cebpf4jnsgd1na2vs0mg"},{"bike_id":"13329899-2a7f-4eeb-9448-7dbe833503c9","system_id":"levelo_inurba_marseille","lat":43.27073,"lon":5.42277,"is_reserved":false,"is_disabled":false,"rental_uris":{"android":"levelo://app?vid=13329899-2a7f-4eeb-9448-7dbe833503c9","ios":"levelo://app?vid=13329899-2a7f-4eeb-9448-7dbe833503c9"},"vehicle_type_id":"4","last_reported":1745396071,"current_range_meters":20000,"station_id":"ce4bhk92rcd13ifvqgb0","pricing_plan_id":"cebpf4jnsgd1na2vs0mg"},{"bike_id":"376281fa-382e-412f-a72f-91bccca84266","system_id":"levelo_inurba_marseille","lat":43.30958,"lon":5.39063,"is_reserved":false,"is_disabled":false,"rental_uris":{"android":"levelo://app?vid=376281fa-382e-412f-a72f-91bccca84266","ios":"levelo://app?vid=376281fa-382e-412f-a72f-91bccca84266"},"vehicle_type_id":"4","last_reported":1745396071,"current_range_meters":20400,"station_id":"ce4bgup2rcd13ifvqco0","pricing_plan_id":"cebpf4jnsgd1na2vs0mg"},{"bike_id":"262a976b-72e6-4c5f-94df-55d494e7a1e6","system_id":"levelo_inurba_marseille","lat":43.26193,"lon":5.3745,"is_reserved":false,"is_disabled":false,"rental_uris":{"android":"levelo://app?vid=262a976b-72e6-4c5f-94df-55d494e7a1e6","ios":"levelo://app?vid=262a976b-72e6-4c5f-94df-55d494e7a1e6"},"vehicle_type_id":"4","last_reported":1745396071,"current_range_meters":20400,"station_id":"ce4bhgp2rcd13ifvqfc0","pricing_plan_id":"cebpf4jnsgd1na2vs0mg"},{"bike_id":"894b8530-885f-4d4d-a2ae-913958cbbe2f","system_id":"levelo_inurba_marseille","lat":43.25931,"lon":5.40861,"is_reserved":false,"is_disabled":true,"rental_uris":{"android":"levelo://app?vid=894b8530-885f-4d4d-a2ae-913958cbbe2f","ios":"levelo://app?vid=894b8530-885f-4d4d-a2ae-913958cbbe2f"},"vehicle_type_id":"4","last_reported":1745396071,"current_range_meters":20400,"station_id":"ce4bhm92rcd13ifvqglg","pricing_plan_id":"cebpf4jnsgd1na2vs0mg"},{"bike_id":"811c61e7-4dbf-4666-968e-a8d6b7c0cacc","system_id":"levelo_inurba_marseille","lat":43.30923,"lon":5.36893,"is_reserved":false,"is_disabled":false,"rental_uris":{"android":"levelo://app?vid=811c61e7-4dbf-4666-968e-a8d6b7c0cacc","ios":"levelo://app?vid=811c61e7-4dbf-4666-968e-a8d6b7c0cacc"},"vehicle_type_id":"4","last_reported":1745396071,"current_range_meters":20400,"station_id":"ce4bgn92rcd13ifvqbvg","pricing_plan_id":"cebpf4jnsgd1na2vs0mg"},{"bike_id":"ac3405e4-48d4-48c6-be85-0fcd13a4e0fa","system_id":"levelo_inurba_marseille","lat":43.24078,"lon":5.37726,"is_reserved":false,"is_disabled":false,"rental_uris":{"android":"levelo://app?vid=ac3405e4-48d4-48c6-be85-0fcd13a4e0fa","ios":"levelo://app?vid=ac3405e4-48d4-48c6-be85-0fcd13a4e0fa"},"vehicle_type_id":"4","last_reported":1745396071,"current_range_meters":20400,"station_id":"ce4bhnp2rcd13ifvqgvg","pricing_plan_id":"cebpf4jnsgd1na2vs0mg"},{"bike_id":"2bdf03a8-003d-4fa3-a85d-33448ab28e22","system_id":"levelo_inurba_marseille","lat":43.31683,"lon":5.4047,"is_reserved":false,"is_disabled":false,"rental_uris":{"android":"levelo://app?vid=2bdf03a8-003d-4fa3-a85d-33448ab28e22","ios":"levelo://app?vid=2bdf03a8-003d-4fa3-a85d-33448ab28e22"},"vehicle_type_id":"4","last_reported":1745396071,"current_range_meters":20000,"station_id":"ce4bh012rcd13ifvqd00","pricing_plan_id":"cebpf4jnsgd1na2vs0mg"},{"bike_id":"8b13a928-cf73-4379-a0db-2b466786b7d8","system_id":"levelo_inurba_marseille","lat":43.33775,"lon":5.37434,"is_reserved":false,"is_disabled":false,"rental_uris":{"android":"levelo://app?vid=8b13a928-cf73-4379-a0db-2b466786b7d8","ios":"levelo://app?vid=8b13a928-cf73-4379-a0db-2b466786b7d8"},"vehicle_type_id":"4","last_reported":1745396071,"current_range_meters":20800,"station_id":"","pricing_plan_id":"cebpf4jnsgd1na2vs0mg"},{"bike_id":"fb5046f1-c321-4121-b53a-0d381702f091","system_id":"levelo_inurba_marseille","lat":43.32664,"lon":5.36712,"is_reserved":false,"is_disabled":false,"rental_uris":{"android":"levelo://app?vid=fb5046f1-c321-4121-b53a-0d381702f091","ios":"levelo://app?vid=fb5046f1-c321-4121-b53a-0d381702f091"},"vehicle_type_id":"4","last_reported":1745396071,"current_range_meters":20800,"station_id":"","pricing_plan_id":"cebpf4jnsgd1na2vs0mg"},{"bike_id":"70946ed7-4927-4bf5-865f-45243b2b71e5","system_id":"levelo_inurba_marseille","lat":43.30462,"lon":5.37902,"is_reserved":false,"is_disabled":false,"rental_uris":{"android":"levelo://app?vid=70946ed7-4927-4bf5-865f-45243b2b71e5","ios":"levelo://app?vid=70946ed7-4927-4bf5-865f-45243b2b71e5"},"vehicle_type_id":"4","last_reported":1745396071,"current_range_meters":20800,"station_id":"ce4bgup2rcd13ifvqcn0","pricing_plan_id":"cebpf4jnsgd1na2vs0mg"},{"bike_id":"6e6404fa-d648-468e-9bd0-f1245981c88c","system_id":"levelo_inurba_marseille","lat":43.30532,"lon":5.36546,"is_reserved":false,"is_disabled":false,"rental_uris":{"android":"levelo://app?vid=6e6404fa-d648-468e-9bd0-f1245981c88c","ios":"levelo://app?vid=6e6404fa-d648-468e-9bd0-f1245981c88c"},"vehicle_type_id":"4","last_reported":1745396071,"current_range_meters":21600,"station_id":"ce4bgs12rcd13ifvqcag","pricing_plan_id":"cebpf4jnsgd1na2vs0mg"},{"bike_id":"ea5124ab-9237-4816-8f91-28aee546fe60","system_id":"levelo_inurba_marseille","lat":43.29965,"lon":5.37155,"is_reserved":false,"is_disabled":false,"rental_uris":{"android":"levelo://app?vid=ea5124ab-9237-4816-8f91-28aee546fe60","ios":"levelo://app?vid=ea5124ab-9237-4816-8f91-28aee546fe60"},"vehicle_type_id":"4","last_reported":1745396071,"current_range_meters":21600,"station_id":"ce4bgr92rcd13ifvqc7g","pricing_plan_id":"cebpf4jnsgd1na2vs0mg"},{"bike_id":"953cde9d-d636-4cfd-ad95-9ad57dc27179","system_id":"levelo_inurba_marseille","lat":43.29935,"lon":5.3654,"is_reserved":false,"is_disabled":false,"rental_uris":{"android":"levelo://app?vid=953cde9d-d636-4cfd-ad95-9ad57dc27179","ios":"levelo://app?vid=953cde9d-d636-4cfd-ad95-9ad57dc27179"},"vehicle_type_id":"4","last_reported":1745396071,"current_range_meters":21600,"station_id":"ce4bgm92rcd13ifvqbr0","pricing_plan_id":"cebpf4jnsgd1na2vs0mg"},{"bike_id":"153544ce-04e1-41a3-af7d-f398163a9eef","system_id":"levelo_inurba_marseille","lat":43.30533,"lon":5.3655,"is_reserved":false,"is_disabled":false,"rental_uris":{"android":"levelo://app?vid=153544ce-04e1-41a3-af7d-f398163a9eef","ios":"levelo://app?vid=153544ce-04e1-41a3-af7d-f398163a9eef"},"vehicle_type_id":"4","last_reported":1745396071,"current_range_meters":21600,"station_id":"ce4bgs12rcd13ifvqcag","pricing_plan_id":"cebpf4jnsgd1na2vs0mg"},{"bike_id":"bbb8d086-293b-467e-a4dd-57f0af946ec2","system_id":"levelo_inurba_marseille","lat":43.30138,"lon":5.38782,"is_reserved":false,"is_disabled":false,"rental_uris":{"android":"levelo://app?vid=bbb8d086-293b-467e-a4dd-57f0af946ec2","ios":"levelo://app?vid=bbb8d086-293b-467e-a4dd-57f0af946ec2"},"vehicle_type_id":"4","last_reported":1745396071,"current_range_meters":22000,"station_id":"ce4bghh2rcd13ifvqb60","pricing_plan_id":"cebpf4jnsgd1na2vs0mg"},{"bike_id":"8f83e5e0-2ab2-4d00-be36-004e3cf89343","system_id":"levelo_inurba_marseille","lat":43.30959,"lon":5.39043,"is_reserved":false,"is_disabled":false,"rental_uris":{"android":"levelo://app?vid=8f83e5e0-2ab2-4d00-be36-004e3cf89343","ios":"levelo://app?vid=8f83e5e0-2ab2-4d00-be36-004e3cf89343"},"vehicle_type_id":"4","last_reported":1745396071,"current_range_meters":22000,"station_id":"ce4bgup2rcd13ifvqco0","pricing_plan_id":"cebpf4jnsgd1na2vs0mg"},{"bike_id":"17c6dccc-0c03-4f0f-a447-9b4c63889909","system_id":"levelo_inurba_marseille","lat":43.29604,"lon":5.38101,"is_reserved":false,"is_disabled":false,"rental_uris":{"android":"levelo://app?vid=17c6dccc-0c03-4f0f-a447-9b4c63889909","ios":"levelo://app?vid=17c6dccc-0c03-4f0f-a447-9b4c63889909"},"vehicle_type_id":"4","last_reported":1745396071,"current_range_meters":22000,"station_id":"ce4bgl12rcd13ifvqbo0","pricing_plan_id":"cebpf4jnsgd1na2vs0mg"},{"bike_id":"f833d503-12b8-4936-91fd-3d6ad89b5d4a","system_id":"levelo_inurba_marseille","lat":43.2668,"lon":5.38278,"is_reserved":false,"is_disabled":false,"rental_uris":{"android":"levelo://app?vid=f833d503-12b8-4936-91fd-3d6ad89b5d4a","ios":"levelo://app?vid=f833d503-12b8-4936-91fd-3d6ad89b5d4a"},"vehicle_type_id":"4","last_reported":1745396071,"current_range_meters":22000,"station_id":"ce4bhg92rcd13ifvqf90","pricing_plan_id":"cebpf4jnsgd1na2vs0mg"},{"bike_id":"3b797bec-c003-4dd4-af94-8246f54839c6","system_id":"levelo_inurba_marseille","lat":43.27055,"lon":5.40264,"is_reserved":false,"is_disabled":false,"rental_uris":{"android":"levelo://app?vid=3b797bec-c003-4dd4-af94-8246f54839c6","ios":"levelo://app?vid=3b797bec-c003-4dd4-af94-8246f54839c6"},"vehicle_type_id":"4","last_reported":1745396071,"current_range_meters":18800,"station_id":"ce4bhk92rcd13ifvqgc0","pricing_plan_id":"cebpf4jnsgd1na2vs0mg"},{"bike_id":"11f4ee4a-7fa1-4c62-b378-a96e1722a902","system_id":"levelo_inurba_marseille","lat":43.30606,"lon":5.36721,"is_reserved":false,"is_disabled":true,"rental_uris":{"android":"levelo://app?vid=11f4ee4a-7fa1-4c62-b378-a96e1722a902","ios":"levelo://app?vid=11f4ee4a-7fa1-4c62-b378-a96e1722a902"},"vehicle_type_id":"4","last_reported":1745396071,"current_range_meters":22400,"station_id":"ce4bgrp2rcd13ifvqc9g","pricing_plan_id":"cebpf4jnsgd1na2vs0mg"},{"bike_id":"214bbde7-aa65-480a-8046-2c18c1efb04d","system_id":"levelo_inurba_marseille","lat":43.29792,"lon":5.38087,"is_reserved":false,"is_disabled":true,"rental_uris":{"android":"levelo://app?vid=214bbde7-aa65-480a-8046-2c18c1efb04d","ios":"levelo://app?vid=214bbde7-aa65-480a-8046-2c18c1efb04d"},"vehicle_type_id":"4","last_reported":1745396071,"current_range_meters":22400,"station_id":"ce4bgip2rcd13ifvqbb0","pricing_plan_id":"cebpf4jnsgd1na2vs0mg"},{"bike_id":"8a716f10-6abe-4f80-94ce-4c02fac0f570","system_id":"levelo_inurba_marseille","lat":43.250077,"lon":5.389277,"is_reserved":false,"is_disabled":false,"rental_uris":{"android":"levelo://app?vid=8a716f10-6abe-4f80-94ce-4c02fac0f570","ios":"levelo://app?vid=8a716f10-6abe-4f80-94ce-4c02fac0f570"},"vehicle_type_id":"4","last_reported":1745396071,"current_range_meters":22400,"station_id":"ce4bhgp2rcd13ifvqfd0","pricing_plan_id":"cebpf4jnsgd1na2vs0mg"},{"bike_id":"29e979ef-9800-4cb9-87ac-63a3555cbb2c","system_id":"levelo_inurba_marseille","lat":43.30919,"lon":5.36865,"is_reserved":false,"is_disabled":false,"rental_uris":{"android":"levelo://app?vid=29e979ef-9800-4cb9-87ac-63a3555cbb2c","ios":"levelo://app?vid=29e979ef-9800-4cb9-87ac-63a3555cbb2c"},"vehicle_type_id":"4","last_reported":1745396071,"current_range_meters":22400,"station_id":"ce4bgn92rcd13ifvqbvg","pricing_plan_id":"cebpf4jnsgd1na2vs0mg"},{"bike_id":"9bfa32a1-2fca-43a3-97cb-00b0c4dc0c22","system_id":"levelo_inurba_marseille","lat":43.30937,"lon":5.40152,"is_reserved":false,"is_disabled":false,"rental_uris":{"android":"levelo://app?vid=9bfa32a1-2fca-43a3-97cb-00b0c4dc0c22","ios":"levelo://app?vid=9bfa32a1-2fca-43a3-97cb-00b0c4dc0c22"},"vehicle_type_id":"4","last_reported":1745396071,"current_range_meters":22000,"station_id":"ce4bgvp2rcd13ifvqct0","pricing_plan_id":"cebpf4jnsgd1na2vs0mg"},{"bike_id":"8b43b1fb-5cab-4db8-ae05-f66514d8855e","system_id":"levelo_inurba_marseille","lat":43.312784,"lon":5.372978,"is_reserved":false,"is_disabled":false,"rental_uris":{"android":"levelo://app?vid=8b43b1fb-5cab-4db8-ae05-f66514d8855e","ios":"levelo://app?vid=8b43b1fb-5cab-4db8-ae05-f66514d8855e"},"vehicle_type_id":"4","last_reported":1745396071,"current_range_meters":22400,"station_id":"","pricing_plan_id":"cebpf4jnsgd1na2vs0mg"},{"bike_id":"ab8406b2-4f8d-4381-8821-3db52b0a4d4d","system_id":"levelo_inurba_marseille","lat":43.27348,"lon":5.37831,"is_reserved":false,"is_disabled":false,"rental_uris":{"android":"levelo://app?vid=ab8406b2-4f8d-4381-8821-3db52b0a4d4d","ios":"levelo://app?vid=ab8406b2-4f8d-4381-8821-3db52b0a4d4d"},"vehicle_type_id":"4","last_reported":1745396071,"current_range_meters":22400,"station_id":"","pricing_plan_id":"cebpf4jnsgd1na2vs0mg"},{"bike_id":"230eae56-6890-4c96-b49e-c6cd4245a0cb","system_id":"levelo_inurba_marseille","lat":43.30535,"lon":5.3669,"is_reserved":false,"is_disabled":false,"rental_uris":{"android":"levelo://app?vid=230eae56-6890-4c96-b49e-c6cd4245a0cb","ios":"levelo://app?vid=230eae56-6890-4c96-b49e-c6cd4245a0cb"},"vehicle_type_id":"4","last_reported":1745396071,"current_range_meters":22400,"station_id":"ce4bgrp2rcd13ifvqc9g","pricing_plan_id":"cebpf4jnsgd1na2vs0mg"},{"bike_id":"31ad3109-4cf5-4cc5-b72f-e396c65494f1","system_id":"levelo_inurba_marseille","lat":43.295288,"lon":5.385443,"is_reserved":false,"is_disabled":false,"rental_uris":{"android":"levelo://app?vid=31ad3109-4cf5-4cc5-b72f-e396c65494f1","ios":"levelo://app?vid=31ad3109-4cf5-4cc5-b72f-e396c65494f1"},"vehicle_type_id":"4","last_reported":1745396071,"current_range_meters":22400,"station_id":"ce4bgih2rcd13ifvqba0","pricing_plan_id":"cebpf4jnsgd1na2vs0mg"},{"bike_id":"5b69f3f7-7c84-4a11-807e-413e990bc4b9","system_id":"levelo_inurba_marseille","lat":43.286607,"lon":5.386681,"is_reserved":false,"is_disabled":false,"rental_uris":{"android":"levelo://app?vid=5b69f3f7-7c84-4a11-807e-413e990bc4b9","ios":"levelo://app?vid=5b69f3f7-7c84-4a11-807e-413e990bc4b9"},"vehicle_type_id":"4","last_reported":1745396071,"current_range_meters":22800,"station_id":"ce4bh492rcd13ifvqdug","pricing_plan_id":"cebpf4jnsgd1na2vs0mg"},{"bike_id":"813f5dbf-3dde-449f-b2ef-eb7b3d44bcab","system_id":"levelo_inurba_marseille","lat":43.2321,"lon":5.3555,"is_reserved":false,"is_disabled":false,"rental_uris":{"android":"levelo://app?vid=813f5dbf-3dde-449f-b2ef-eb7b3d44bcab","ios":"levelo://app?vid=813f5dbf-3dde-449f-b2ef-eb7b3d44bcab"},"vehicle_type_id":"4","last_reported":1745396071,"current_range_meters":22800,"station_id":"ce4bhu92rcd13ifvqi70","pricing_plan_id":"cebpf4jnsgd1na2vs0mg"},{"bike_id":"73b54c58-6236-44f3-8812-61e251b3b227","system_id":"levelo_inurba_marseille","lat":43.28412,"lon":5.34972,"is_reserved":false,"is_disabled":false,"rental_uris":{"android":"levelo://app?vid=73b54c58-6236-44f3-8812-61e251b3b227","ios":"levelo://app?vid=73b54c58-6236-44f3-8812-61e251b3b227"},"vehicle_type_id":"4","last_reported":1745396071,"current_range_meters":22800,"station_id":"ce4bhbh2rcd13ifvqepg","pricing_plan_id":"cebpf4jnsgd1na2vs0mg"},{"bike_id":"a5856b95-9e19-4436-b973-344e5d5dcbd8","system_id":"levelo_inurba_marseille","lat":43.24165,"lon":5.36399,"is_reserved":false,"is_disabled":false,"rental_uris":{"android":"levelo://app?vid=a5856b95-9e19-4436-b973-344e5d5dcbd8","ios":"levelo://app?vid=a5856b95-9e19-4436-b973-344e5d5dcbd8"},"vehicle_type_id":"4","last_reported":1745396071,"current_range_meters":22800,"station_id":"cpo36qri1sfpv3e86is0","pricing_plan_id":"cebpf4jnsgd1na2vs0mg"},{"bike_id":"dfc424fb-3a80-47f5-acb6-71c55bf4dcf6","system_id":"levelo_inurba_marseille","lat":43.31492,"lon":5.37299,"is_reserved":false,"is_disabled":false,"rental_uris":{"android":"levelo://app?vid=dfc424fb-3a80-47f5-acb6-71c55bf4dcf6","ios":"levelo://app?vid=dfc424fb-3a80-47f5-acb6-71c55bf4dcf6"},"vehicle_type_id":"4","last_reported":1745396071,"current_range_meters":22800,"station_id":"ce4bgt12rcd13ifvqcd0","pricing_plan_id":"cebpf4jnsgd1na2vs0mg"},{"bike_id":"90eaa391-a9c0-4b15-9fd5-0323236000d6","system_id":"levelo_inurba_marseille","lat":43.33611,"lon":5.41027,"is_reserved":false,"is_disabled":false,"rental_uris":{"android":"levelo://app?vid=90eaa391-a9c0-4b15-9fd5-0323236000d6","ios":"levelo://app?vid=90eaa391-a9c0-4b15-9fd5-0323236000d6"},