{"last_updated":1746562325,"ttl":60,"version":"2.2","data":{"bikes":[{"bike_id":"a5e9cf50-1e3e-4372-b512-f7bf82491a9d","system_id":"levelo_inurba_marseille","lat":43.273348,"lon":5.390588,"is_reserved":false,"is_disabled":false,"rental_uris":{"android":"levelo://app?vid=a5e9cf50-1e3e-4372-b512-f7bf82491a9d","ios":"levelo://app?vid=a5e9cf50-1e3e-4372-b512-f7bf82491a9d"},"vehicle_type_id":"4","last_reported":1746562325,"current_range_meters":2800,"station_id":"ce4bhgp2rcd13ifvqfe0","pricing_plan_id":"cebpf4jnsgd1na2vs0mg"},{"bike_id":"d2c05400-9b31-4cc8-aafc-701277b0cf79","system_id":"levelo_inurba_marseille","lat":43.29795,"lon":5.38093,"is_reserved":false,"is_disabled":false,"rental_uris":{"android":"levelo://app?vid=d2c05400-9b31-4cc8-aafc-701277b0cf79","ios":"levelo://app?vid=d2c05400-9b31-4cc8-aafc-701277b0cf79"},"vehicle_type_id":"4","last_reported":1746562325,"current_range_meters":2800,"station_id":"ce4bgip2rcd13ifvqbb0","pricing_plan_id":"cebpf4jnsgd1na2vs0mg"},{"bike_id":"57080614-ae11-44bc-86e2-e8daf805b60b","system_id":"levelo_inurba_marseille","lat":43.28616,"lon":5.35098,"is_reserved":false,"is_disabled":true,"rental_uris":{"android":"levelo://app?vid=57080614-ae11-44bc-86e2-e8daf805b60b","ios":"levelo://app?vid=57080614-ae11-44bc-86e2-e8daf805b60b"},"vehicle_type_id":"4","last_reported":1746562325,"current_range_meters":2800,"station_id":"ce4bhch2rcd13ifvqeug","pricing_plan_id":"cebpf4jnsgd1na2vs0mg"},{"bike_id":"e0d3785e-389c-486f-aeee-62b7bfd6f777","system_id":"levelo_inurba_marseille","lat":43.29525,"lon":5.39045,"is_reserved":false,"is_disabled":false,"rental_uris":{"android":"levelo://app?vid=e0d3785e-389c-486f-aeee-62b7bfd6f777","ios":"levelo://app?vid=e0d3785e-389c-486f-aeee-62b7bfd6f777"},"vehicle_type_id":"4","last_reported":1746562325,"current_range_meters":3200,"station_id":"ce4bh3p2rcd13ifvqdp0","pricing_plan_id":"cebpf4jnsgd1na2vs0mg"},{"bike_id":"7922a503-fdff-44a5-b624-95e6d0214995","system_id":"levelo_inurba_marseille","lat":43.23965,"lon":5.36634,"is_reserved":false,"is_disabled":false,"rental_uris":{"android":"levelo://app?vid=7922a503-fdff-44a5-b624-95e6d0214995","ios":"levelo://app?vid=7922a503-fdff-44a5-b624-95e6d0214995"},"vehicle_type_id":"4","last_reported":1746562325,"current_range_meters":3200,"station_id":"ce4bhi12rcd13ifvqfp0","pricing_plan_id":"cebpf4jnsgd1na2vs0mg"},{"bike_id":"482344f1-460c-48ea-83dd-01b9a385e5cf","system_id":"levelo_inurba_marseille","lat":43.30674,"lon":5.36875,"is_reserved":false,"is_disabled":false,"rental_uris":{"android":"levelo://app?vid=482344f1-460c-48ea-83dd-01b9a385e5cf","ios":"levelo://app?vid=482344f1-460c-48ea-83dd-01b9a385e5cf"},"vehicle_type_id":"4","last_reported":1746562325,"current_range_meters":3600,"station_id":"","pricing_plan_id":"cebpf4jnsgd1na2vs0mg"},{"bike_id":"e5ae5959-0f8a-4a89-8099-ccd729ffba3d","system_id":"levelo_inurba_marseille","lat":43.23113,"lon":5.43715,"is_reserved":false,"is_disabled":false,"rental_uris":{"android":"levelo://app?vid=e5ae5959-0f8a-4a89-8099-ccd729ffba3d","ios":"levelo://app?vid=e5ae5959-0f8a-4a89-8099-ccd729ffba3d"},"vehicle_type_id":"4","last_reported":1746562325,"current_range_meters":3600,"station_id":"ce4bhmp2rcd13ifvqgog","pricing_plan_id":"cebpf4jnsgd1na2vs0mg"},{"bike_id":"3fb0cbd7-e14c-483c-a3ca-3961140f7c01","system_id":"levelo_inurba_marseille","lat":43.31234,"lon":5.36862,"is_reserved":false,"is_disabled":false,"rental_uris":{"android":"levelo://app?vid=3fb0cbd7-e14c-483c-a3ca-3961140f7c01","ios":"levelo://app?vid=3fb0cbd7-e14c-483c-a3ca-3961140f7c01"},"vehicle_type_id":"4","last_reported":1746562325,"current_range_meters":4000,"station_id":"ce4bgl92rcd13ifvqbq0","pricing_plan_id":"cebpf4jnsgd1na2vs0mg"},{"bike_id":"8d9ea486-319b-4c63-90f2-19e1c009150e","system_id":"levelo_inurba_marseille","lat":43.25823,"lon":5.39438,"is_reserved":false,"is_disabled":false,"rental_uris":{"android":"levelo://app?vid=8d9ea486-319b-4c63-90f2-19e1c009150e","ios":"levelo://app?vid=8d9ea486-319b-4c63-90f2-19e1c009150e"},"vehicle_type_id":"4","last_reported":1746562325,"current_range_meters":4000,"station_id":"ce4bhip2rcd13ifvqft0","pricing_plan_id":"cebpf4jnsgd1na2vs0mg"},{"bike_id":"9afdaa32-5437-40bb-b5dc-0e42f55a33ee","system_id":"levelo_inurba_marseille","lat":43.25377,"lon":5.41888,"is_reserved":false,"is_disabled":false,"rental_uris":{"android":"levelo://app?vid=9afdaa32-5437-40bb-b5dc-0e42f55a33ee","ios":"levelo://app?vid=9afdaa32-5437-40bb-b5dc-0e42f55a33ee"},"vehicle_type_id":"4","last_reported":1746562325,"current_range_meters":4400,"station_id":"","pricing_plan_id":"cebpf4jnsgd1na2vs0mg"},{"bike_id":"d802429b-fbe4-4966-926a-6af3f1d98ff2","system_id":"levelo_inurba_marseille","lat":43.29551,"lon":5.42293,"is_reserved":false,"is_disabled":false,"rental_uris":{"android":"levelo://app?vid=d802429b-fbe4-4966-926a-6af3f1d98ff2","ios":"levelo://app?vid=d802429b-fbe4-4966-926a-6af3f1d98ff2"},"vehicle_type_id":"4","last_reported":1746562325,"current_range_meters":4800,"station_id":"ce4bhph2rcd13ifvqhdg","pricing_plan_id":"cebpf4jnsgd1na2vs0mg"},{"bike_id":"9bffa5bc-ad24-428d-96d2-69f95cd3b10a","system_id":"levelo_inurba_marseille","lat":43.29257,"lon":5.37625,"is_reserved":false,"is_disabled":false,"rental_uris":{"android":"levelo://app?vid=9bffa5bc-ad24-428d-96d2-69f95cd3b10a","ios":"levelo://app?vid=9bffa5bc-ad24-428d-96d2-69f95cd3b10a"},"vehicle_type_id":"4","last_reported":1746562325,"current_range_meters":4800,"station_id":"ce4bgi12rcd13ifvqb80","pricing_plan_id":"cebpf4jnsgd1na2vs0mg"},{"bike_id":"3b6d0d5a-ef6d-4dae-ab94-89e2c820cc2f","system_id":"levelo_inurba_marseille","lat":43.28499,"lon":5.38534,"is_reserved":false,"is_disabled":true,"rental_uris":{"android":"levelo://app?vid=3b6d0d5a-ef6d-4dae-ab94-89e2c820cc2f","ios":"levelo://app?vid=3b6d0d5a-ef6d-4dae-ab94-89e2c820cc2f"},"vehicle_type_id":"4","last_reported":1746562325,"current_range_meters":4800,"station_id":"ce4bh8p2rcd13ifvqeb0","pricing_plan_id":"cebpf4jnsgd1na2vs0mg"},{"bike_id":"b4fb5917-65cd-4586-99be-5ddc06be1cf6","system_id":"levelo_inurba_marseille","lat":43.30786,"lon":5.4351,"is_reserved":false,"is_disabled":false,"rental_uris":{"android":"levelo://app?vid=b4fb5917-65cd-4586-99be-5ddc06be1cf6","ios":"levelo://app?vid=b4fb5917-65cd-4586-99be-5ddc06be1cf6"},"vehicle_type_id":"4","last_reported":1746562325,"current_range_meters":5600,"station_id":"ce4bhph2rcd13ifvqheg","pricing_plan_id":"cebpf4jnsgd1na2vs0mg"},{"bike_id":"a38c2d49-7988-4ef8-83e8-42a2504085da","system_id":"levelo_inurba_marseille","lat":43.24532,"lon":5.41222,"is_reserved":false,"is_disabled":false,"rental_uris":{"android":"levelo://app?vid=a38c2d49-7988-4ef8-83e8-42a2504085da","ios":"levelo://app?vid=a38c2d49-7988-4ef8-83e8-42a2504085da"},"vehicle_type_id":"4","last_reported":1746562325,"current_range_meters":5600,"station_id":"","pricing_plan_id":"cebpf4jnsgd1na2vs0mg"},{"bike_id":"c411e786-be02-4243-b07b-051832b5987a","system_id":"levelo_inurba_marseille","lat":43.28654,"lon":5.36352,"is_reserved":false,"is_disabled":true,"rental_uris":{"android":"levelo://app?vid=c411e786-be02-4243-b07b-051832b5987a","ios":"levelo://app?vid=c411e786-be02-4243-b07b-051832b5987a"},"vehicle_type_id":"4","last_reported":1746562325,"current_range_meters":5600,"station_id":"ce4bhah2rcd13ifvqej0","pricing_plan_id":"cebpf4jnsgd1na2vs0mg"},{"bike_id":"416f578b-a76d-4698-b5ca-69135ef4b579","system_id":"levelo_inurba_marseille","lat":43.2416,"lon":5.36399,"is_reserved":false,"is_disabled":false,"rental_uris":{"android":"levelo://app?vid=416f578b-a76d-4698-b5ca-69135ef4b579","ios":"levelo://app?vid=416f578b-a76d-4698-b5ca-69135ef4b579"},"vehicle_type_id":"4","last_reported":1746562325,"current_range_meters":5600,"station_id":"cpo36qri1sfpv3e86is0","pricing_plan_id":"cebpf4jnsgd1na2vs0mg"},{"bike_id":"83cc1842-773c-46bc-8be1-caa63d83c3c2","system_id":"levelo_inurba_marseille","lat":43.25893,"lon":5.39483,"is_reserved":false,"is_disabled":false,"rental_uris":{"android":"levelo://app?vid=83cc1842-773c-46bc-8be1-caa63d83c3c2","ios":"levelo://app?vid=83cc1842-773c-46bc-8be1-caa63d83c3c2"},"vehicle_type_id":"4","last_reported":1746562325,"current_range_meters":5600,"station_id":"","pricing_plan_id":"cebpf4jnsgd1na2vs0mg"},{"bike_id":"e7adc2c2-6808-4c63-a1b1-cceeef4a062c","system_id":"levelo_inurba_marseille","lat":43.31134,"lon":5.37276,"is_reserved":false,"is_disabled":false,"rental_uris":{"android":"levelo://app?vid=e7adc2c2-6808-4c63-a1b1-cceeef4a062c","ios":"levelo://app?vid=e7adc2c2-6808-4c63-a1b1-cceeef4a062c"},"vehicle_type_id":"4","last_reported":1746562325,"current_range_meters":6000,"station_id":"","pricing_plan_id":"cebpf4jnsgd1na2vs0mg"},{"bike_id":"33ed38e7-22ea-4db8-b3f6-45cd544d2906","system_id":"levelo_inurba_marseille","lat":43.24799,"lon":5.37454,"is_reserved":false,"is_disabled":false,"rental_uris":{"android":"levelo://app?vid=33ed38e7-22ea-4db8-b3f6-45cd544d2906","ios":"levelo://app?vid=33ed38e7-22ea-4db8-b3f6-45cd544d2906"},"vehicle_type_id":"4","last_reported":1746562325,"current_range_meters":6000,"station_id":"","pricing_plan_id":"cebpf4jnsgd1na2vs0mg"},{"bike_id":"ef16d92b-b2e4-4b60-a587-d2cb93b03901","system_id":"levelo_inurba_marseille","lat":43.28967,"lon":5.39618,"is_reserved":false,"is_disabled":false,"rental_uris":{"android":"levelo://app?vid=ef16d92b-b2e4-4b60-a587-d2cb93b03901","ios":"levelo://app?vid=ef16d92b-b2e4-4b60-a587-d2cb93b03901"},"vehicle_type_id":"4","last_reported":1746562325,"current_range_meters":6000,"station_id":"ce4bh3h2rcd13ifvqdn0","pricing_plan_id":"cebpf4jnsgd1na2vs0mg"},{"bike_id":"a54190a1-1d56-46b5-baf5-0ca213f0cff7","system_id":"levelo_inurba_marseille","lat":43.26957,"lon":5.38623,"is_reserved":false,"is_disabled":false,"rental_uris":{"android":"levelo://app?vid=a54190a1-1d56-46b5-baf5-0ca213f0cff7","ios":"levelo://app?vid=a54190a1-1d56-46b5-baf5-0ca213f0cff7"},"vehicle_type_id":"4","last_reported":1746562325,"current_range_meters":6800,"station_id":"ce4bhh92rcd13ifvqfh0","pricing_plan_id":"cebpf4jnsgd1na2vs0mg"},{"bike_id":"f58e2bf4-1fef-49a3-99e4-4f5bba038ba7","system_id":"levelo_inurba_marseille","lat":43.29722,"lon":5.36882,"is_reserved":false,"is_disabled":false,"rental_uris":{"android":"levelo://app?vid=f58e2bf4-1fef-49a3-99e4-4f5bba038ba7","ios":"levelo://app?vid=f58e2bf4-1fef-49a3-99e4-4f5bba038ba7"},"vehicle_type_id":"4","last_reported":1746562325,"current_range_meters":6800,"station_id":"","pricing_plan_id":"cebpf4jnsgd1na2vs0mg"},{"bike_id":"9e9814d3-bfed-4449-9d33-d6668052a7d4","system_id":"levelo_inurba_marseille","lat":43.29268,"lon":5.37622,"is_reserved":false,"is_disabled":false,"rental_uris":{"android":"levelo://app?vid=9e9814d3-bfed-4449-9d33-d6668052a7d4","ios":"levelo://app?vid=9e9814d3-bfed-4449-9d33-d6668052a7d4"},"vehicle_type_id":"4","last_reported":1746562325,"current_range_meters":6800,"station_id":"ce4bgi12rcd13ifvqb80","pricing_plan_id":"cebpf4jnsgd1na2vs0mg"},{"bike_id":"709618cb-d407-443d-bbd3-af4ff4c03d0e","system_id":"levelo_inurba_marseille","lat":43.29703,"lon":5.36614,"is_reserved":false,"is_disabled":false,"rental_uris":{"android":"levelo://app?vid=709618cb-d407-443d-bbd3-af4ff4c03d0e","ios":"levelo://app?vid=709618cb-d407-443d-bbd3-af4ff4c03d0e"},"vehicle_type_id":"4","last_reported":1746562325,"current_range_meters":7200,"station_id":"ce4bgn12rcd13ifvqbt0","pricing_plan_id":"cebpf4jnsgd1na2vs0mg"},{"bike_id":"56b911ec-d1c1-4ea7-8f7c-e870a47647ed","system_id":"levelo_inurba_marseille","lat":43.28112,"lon":5.35162,"is_reserved":false,"is_disabled":false,"rental_uris":{"android":"levelo://app?vid=56b911ec-d1c1-4ea7-8f7c-e870a47647ed","ios":"levelo://app?vid=56b911ec-d1c1-4ea7-8f7c-e870a47647ed"},"vehicle_type_id":"4","last_reported":1746562325,"current_range_meters":7200,"station_id":"","pricing_plan_id":"cebpf4jnsgd1na2vs0mg"},{"bike_id":"e128951a-0fad-4822-879b-c6a9fc59cc73","system_id":"levelo_inurba_marseille","lat":43.279652,"lon":5.410446,"is_reserved":false,"is_disabled":false,"rental_uris":{"android":"levelo://app?vid=e128951a-0fad-4822-879b-c6a9fc59cc73","ios":"levelo://app?vid=e128951a-0fad-4822-879b-c6a9fc59cc73"},"vehicle_type_id":"4","last_reported":1746562325,"current_range_meters":7200,"station_id":"ce4bhnp2rcd13ifvqh0g","pricing_plan_id":"cebpf4jnsgd1na2vs0mg"},{"bike_id":"6e2c21db-0baa-4ede-8c9b-539f044fc0a6","system_id":"levelo_inurba_marseille","lat":43.2808,"lon":5.39653,"is_reserved":false,"is_disabled":false,"rental_uris":{"android":"levelo://app?vid=6e2c21db-0baa-4ede-8c9b-539f044fc0a6","ios":"levelo://app?vid=6e2c21db-0baa-4ede-8c9b-539f044fc0a6"},"vehicle_type_id":"4","last_reported":1746562325,"current_range_meters":7200,"station_id":"ce4bho12rcd13ifvqh2g","pricing_plan_id":"cebpf4jnsgd1na2vs0mg"},{"bike_id":"38cf03a6-2822-4730-aa4d-efeefdd75177","system_id":"levelo_inurba_marseille","lat":43.295897,"lon":5.380907,"is_reserved":false,"is_disabled":false,"rental_uris":{"android":"levelo://app?vid=38cf03a6-2822-4730-aa4d-efeefdd75177","ios":"levelo://app?vid=38cf03a6-2822-4730-aa4d-efeefdd75177"},"vehicle_type_id":"4","last_reported":1746562325,"current_range_meters":7200,"station_id":"ce4bgl12rcd13ifvqbo0","pricing_plan_id":"cebpf4jnsgd1na2vs0mg"},{"bike_id":"3118edfb-fff6-4b02-bb72-72bd5f1798aa","system_id":"levelo_inurba_marseille","lat":43.27814,"lon":5.40718,"is_reserved":false,"is_disabled":false,"rental_uris":{"android":"levelo://app?vid=3118edfb-fff6-4b02-bb72-72bd5f1798aa","ios":"levelo://app?vid=3118edfb-fff6-4b02-bb72-72bd5f1798aa"},"vehicle_type_id":"4","last_reported":1746562325,"current_range_meters":8000,"station_id":"ce4bhnh2rcd13ifvqgtg","pricing_plan_id":"cebpf4jnsgd1na2vs0mg"},{"bike_id":"9f785001-05b7-4f3b-a2b4-ebf27005fa4a","system_id":"levelo_inurba_marseille","lat":43.29279,"lon":5.36827,"is_reserved":false,"is_disabled":true,"rental_uris":{"android":"levelo://app?vid=9f785001-05b7-4f3b-a2b4-ebf27005fa4a","ios":"levelo://app?vid=9f785001-05b7-4f3b-a2b4-ebf27005fa4a"},"vehicle_type_id":"4","last_reported":1746562325,"current_range_meters":8000,"station_id":"ce4bhbp2rcd13ifvqesg","pricing_plan_id":"cebpf4jnsgd1na2vs0mg"},{"bike_id":"6d57f894-f75b-4b63-9790-72146d9ac89e","system_id":"levelo_inurba_marseille","lat":43.27819,"lon":5.40723,"is_reserved":false,"is_disabled":false,"rental_uris":{"android":"levelo://app?vid=6d57f894-f75b-4b63-9790-72146d9ac89e","ios":"levelo://app?vid=6d57f894-f75b-4b63-9790-72146d9ac89e"},"vehicle_type_id":"4","last_reported":1746562325,"current_range_meters":8000,"station_id":"ce4bhnh2rcd13ifvqgtg","pricing_plan_id":"cebpf4jnsgd1na2vs0mg"},{"bike_id":"9d8f73eb-df09-4699-86a7-d631e2319093","system_id":"levelo_inurba_marseille","lat":43.2627,"lon":5.37452,"is_reserved":false,"is_disabled":false,"rental_uris":{"android":"levelo://app?vid=9d8f73eb-df09-4699-86a7-d631e2319093","ios":"levelo://app?vid=9d8f73eb-df09-4699-86a7-d631e2319093"},"vehicle_type_id":"4","last_reported":1746562325,"current_range_meters":8000,"station_id":"","pricing_plan_id":"cebpf4jnsgd1na2vs0mg"},{"bike_id":"7613d477-6ba2-43c9-9aa4-104e5b079d98","system_id":"levelo_inurba_marseille","lat":43.29516,"lon":5.39053,"is_reserved":false,"is_disabled":false,"rental_uris":{"android":"levelo://app?vid=7613d477-6ba2-43c9-9aa4-104e5b079d98","ios":"levelo://app?vid=7613d477-6ba2-43c9-9aa4-104e5b079d98"},"vehicle_type_id":"4","last_reported":1746562325,"current_range_meters":8000,"station_id":"ce4bh3p2rcd13ifvqdp0","pricing_plan_id":"cebpf4jnsgd1na2vs0mg"},{"bike_id":"aa048b98-548a-4d76-b0b3-979708e484e4","system_id":"levelo_inurba_marseille","lat":43.27547,"lon":5.38411,"is_reserved":false,"is_disabled":false,"rental_uris":{"android":"levelo://app?vid=aa048b98-548a-4d76-b0b3-979708e484e4","ios":"levelo://app?vid=aa048b98-548a-4d76-b0b3-979708e484e4"},"vehicle_type_id":"4","last_reported":1746562325,"current_range_meters":8000,"station_id":"ce4bhh92rcd13ifvqfi0","pricing_plan_id":"cebpf4jnsgd1na2vs0mg"},{"bike_id":"bc303945-6678-4274-a47d-4c68703574ba","system_id":"levelo_inurba_marseille","lat":43.28071,"lon":5.39642,"is_reserved":false,"is_disabled":false,"rental_uris":{"android":"levelo://app?vid=bc303945-6678-4274-a47d-4c68703574ba","ios":"levelo://app?vid=bc303945-6678-4274-a47d-4c68703574ba"},"vehicle_type_id":"4","last_reported":1746562325,"current_range_meters":8000,"station_id":"ce4bho12rcd13ifvqh2g","pricing_plan_id":"cebpf4jnsgd1na2vs0mg"},{"bike_id":"e0958a16-a452-4b60-a67a-6763663068b7","system_id":"levelo_inurba_marseille","lat":43.26229,"lon":5.4045,"is_reserved":false,"is_disabled":false,"rental_uris":{"android":"levelo://app?vid=e0958a16-a452-4b60-a67a-6763663068b7","ios":"levelo://app?vid=e0958a16-a452-4b60-a67a-6763663068b7"},"vehicle_type_id":"4","last_reported":1746562325,"current_range_meters":8000,"station_id":"ce4bhmh2rcd13ifvqgmg","pricing_plan_id":"cebpf4jnsgd1na2vs0mg"},{"bike_id":"a14a79a2-44d9-4f60-9a83-ed06adbbe1a2","system_id":"levelo_inurba_marseille","lat":43.29774,"lon":5.38119,"is_reserved":false,"is_disabled":true,"rental_uris":{"android":"levelo://app?vid=a14a79a2-44d9-4f60-9a83-ed06adbbe1a2","ios":"levelo://app?vid=a14a79a2-44d9-4f60-9a83-ed06adbbe1a2"},"vehicle_type_id":"4","last_reported":1746562325,"current_range_meters":8400,"station_id":"ce4bgip2rcd13ifvqbb0","pricing_plan_id":"cebpf4jnsgd1na2vs0mg"},{"bike_id":"47956ac4-b384-4e4d-8f86-d31ccfb14679","system_id":"levelo_inurba_marseille","lat":43.26198,"lon":5.37481,"is_reserved":false,"is_disabled":true,"rental_uris":{"android":"levelo://app?vid=47956ac4-b384-4e4d-8f86-d31ccfb14679","ios":"levelo://app?vid=47956ac4-b384-4e4d-8f86-d31ccfb14679"},"vehicle_type_id":"4","last_reported":1746562325,"current_range_meters":8400,"station_id":"ce4bhgp2rcd13ifvqfc0","pricing_plan_id":"cebpf4jnsgd1na2vs0mg"},{"bike_id":"41527ab0-126c-43ae-ad9b-0e4ed93c5ca3","system_id":"levelo_inurba_marseille","lat":43.289978,"lon":5.356126,"is_reserved":false,"is_disabled":false,"rental_uris":{"android":"levelo://app?vid=41527ab0-126c-43ae-ad9b-0e4ed93c5ca3","ios":"levelo://app?vid=41527ab0-126c-43ae-ad9b-0e4ed93c5ca3"},"vehicle_type_id":"4","last_reported":1746562325,"current_range_meters":8400,"station_id":"ce4bhb92rcd13ifvqen0","pricing_plan_id":"cebpf4jnsgd1na2vs0mg"},{"bike_id":"c2fff035-6128-402a-b38b-ebc94261b3d8","system_id":"levelo_inurba_marseille","lat":43.211908,"lon":5.350717,"is_reserved":false,"is_disabled":false,"rental_uris":{"android":"levelo://app?vid=c2fff035-6128-402a-b38b-ebc94261b3d8","ios":"levelo://app?vid=c2fff035-6128-402a-b38b-ebc94261b3d8"},"vehicle_type_id":"4","last_reported":1746562325,"current_range_meters":8400,"station_id":"st_cvj6sg6p6f1abm77japg","pricing_plan_id":"cebpf4jnsgd1na2vs0mg"},{"bike_id":"6e3c6a7f-22fc-4508-b06d-ebb3d18f9191","system_id":"levelo_inurba_marseille","lat":43.3099,"lon":5.41723,"is_reserved":false,"is_disabled":false,"rental_uris":{"android":"levelo://app?vid=6e3c6a7f-22fc-4508-b06d-ebb3d18f9191","ios":"levelo://app?vid=6e3c6a7f-22fc-4508-b06d-ebb3d18f9191"},"vehicle_type_id":"4","last_reported":1746562325,"current_range_meters":8400,"station_id":"","pricing_plan_id":"cebpf4jnsgd1na2vs0mg"},{"bike_id":"bdc233ec-d0fe-4fdf-a797-c6a6ad6ae4b9","system_id":"levelo_inurba_marseille","lat":43.29866,"lon":5.39726,"is_reserved":false,"is_disabled":false,"rental_uris":{"android":"levelo://app?vid=bdc233ec-d0fe-4fdf-a797-c6a6ad6ae4b9","ios":"levelo://app?vid=bdc233ec-d0fe-4fdf-a797-c6a6ad6ae4b9"},"vehicle_type_id":"4","last_reported":1746562325,"current_range_meters":8400,"station_id":"ce4bh0h2rcd13ifvqd50","pricing_plan_id":"cebpf4jnsgd1na2vs0mg"},{"bike_id":"503569af-07db-461f-918e-29f89d0c1c24","system_id":"levelo_inurba_marseille","lat":43.22509,"lon":5.3478,"is_reserved":false,"is_disabled":false,"rental_uris":{"android":"levelo://app?vid=503569af-07db-461f-918e-29f89d0c1c24","ios":"levelo://app?vid=503569af-07db-461f-918e-29f89d0c1c24"},"vehicle_type_id":"4","last_reported":1746562325,"current_range_meters":8400,"station_id":"st_cvj5dfep6f1abm77gieg","pricing_plan_id":"cebpf4jnsgd1na2vs0mg"},{"bike_id":"2cf86696-983d-4f5b-a4cb-606d4883a4aa","system_id":"levelo_inurba_marseille","lat":43.28941,"lon":5.36629,"is_reserved":false,"is_disabled":false,"rental_uris":{"android":"levelo://app?vid=2cf86696-983d-4f5b-a4cb-606d4883a4aa","ios":"levelo://app?vid=2cf86696-983d-4f5b-a4cb-606d4883a4aa"},"vehicle_type_id":"4","last_reported":1746562325,"current_range_meters":8400,"station_id":"ce4bhap2rcd13ifvqek0","pricing_plan_id":"cebpf4jnsgd1na2vs0mg"},{"bike_id":"47e1b345-ebed-40ed-9942-b5135b61ffc3","system_id":"levelo_inurba_marseille","lat":43.33719,"lon":5.39187,"is_reserved":false,"is_disabled":false,"rental_uris":{"android":"levelo://app?vid=47e1b345-ebed-40ed-9942-b5135b61ffc3","ios":"levelo://app?vid=47e1b345-ebed-40ed-9942-b5135b61ffc3"},"vehicle_type_id":"4","last_reported":1746562325,"current_range_meters":8800,"station_id":"ce4bhr92rcd13ifvqhsg","pricing_plan_id":"cebpf4jnsgd1na2vs0mg"},{"bike_id":"baa819ed-6c62-4637-8cd5-16e9cb19c879","system_id":"levelo_inurba_marseille","lat":43.25868,"lon":5.39904,"is_reserved":false,"is_disabled":false,"rental_uris":{"android":"levelo://app?vid=baa819ed-6c62-4637-8cd5-16e9cb19c879","ios":"levelo://app?vid=baa819ed-6c62-4637-8cd5-16e9cb19c879"},"vehicle_type_id":"4","last_reported":1746562325,"current_range_meters":8800,"station_id":"ce4bhl92rcd13ifvqghg","pricing_plan_id":"cebpf4jnsgd1na2vs0mg"},{"bike_id":"8518895d-e505-4635-8463-a83b14baaa2f","system_id":"levelo_inurba_marseille","lat":43.3106,"lon":5.38348,"is_reserved":false,"is_disabled":false,"rental_uris":{"android":"levelo://app?vid=8518895d-e505-4635-8463-a83b14baaa2f","ios":"levelo://app?vid=8518895d-e505-4635-8463-a83b14baaa2f"},"vehicle_type_id":"4","last_reported":1746562325,"current_range_meters":8800,"station_id":"ce4bgv92rcd13ifvqcr0","pricing_plan_id":"cebpf4jnsgd1na2vs0mg"},{"bike_id":"21467e1f-9652-43ef-8d38-195aa628bdb7","system_id":"levelo_inurba_marseille","lat":43.3201,"lon":5.38155,"is_reserved":false,"is_disabled":false,"rental_uris":{"android":"levelo://app?vid=21467e1f-9652-43ef-8d38-195aa628bdb7","ios":"levelo://app?vid=21467e1f-9652-43ef-8d38-195aa628bdb7"},"vehicle_type_id":"4","last_reported":1746562325,"current_range_meters":8800,"station_id":"ce4bhr12rcd13ifvqhpg","pricing_plan_id":"cebpf4jnsgd1na2vs0mg"},{"bike_id":"0c377d9d-9a3a-47a7-9944-6039314b5e15","system_id":"levelo_inurba_marseille","lat":43.24589,"lon":5.40494,"is_reserved":false,"is_disabled":false,"rental_uris":{"android":"levelo://app?vid=0c377d9d-9a3a-47a7-9944-6039314b5e15","ios":"levelo://app?vid=0c377d9d-9a3a-47a7-9944-6039314b5e15"},"vehicle_type_id":"4","last_reported":1746562325,"current_range_meters":8800,"station_id":"","pricing_plan_id":"cebpf4jnsgd1na2vs0mg"},{"bike_id":"98609b7c-d943-4324-8793-f1c4dca58fb8","system_id":"levelo_inurba_marseille","lat":43.29056,"lon":5.3591,"is_reserved":false,"is_disabled":false,"rental_uris":{"android":"levelo://app?vid=98609b7c-d943-4324-8793-f1c4dca58fb8","ios":"levelo://app?vid=98609b7c-d943-4324-8793-f1c4dca58fb8"},"vehicle_type_id":"4","last_reported":1746562325,"current_range_meters":8800,"station_id":"ce4bha92rcd13ifvqeg0","pricing_plan_id":"cebpf4jnsgd1na2vs0mg"},{"bike_id":"c0c7870e-2213-499b-a0dd-f4dee7072a93","system_id":"levelo_inurba_marseille","lat":43.26495,"lon":5.39557,"is_reserved":false,"is_disabled":false,"rental_uris":{"android":"levelo://app?vid=c0c7870e-2213-499b-a0dd-f4dee7072a93","ios":"levelo://app?vid=c0c7870e-2213-499b-a0dd-f4dee7072a93"},"vehicle_type_id":"4","last_reported":1746562325,"current_range_meters":9200,"station_id":"ce4bhi12rcd13ifvqfq0","pricing_plan_id":"cebpf4jnsgd1na2vs0mg"},{"bike_id":"bab57e29-1b43-40e7-87ee-968e5ea56319","system_id":"levelo_inurba_marseille","lat":43.32369,"lon":5.38875,"is_reserved":false,"is_disabled":false,"rental_uris":{"android":"levelo://app?vid=bab57e29-1b43-40e7-87ee-968e5ea56319","ios":"levelo://app?vid=bab57e29-1b43-40e7-87ee-968e5ea56319"},"vehicle_type_id":"4","last_reported":1746562325,"current_range_meters":9200,"station_id":"ce4bhqp2rcd13ifvqhog","pricing_plan_id":"cebpf4jnsgd1na2vs0mg"},{"bike_id":"1d1842c4-9c2e-4727-8820-327a2572190d","system_id":"levelo_inurba_marseille","lat":43.29265,"lon":5.38452,"is_reserved":false,"is_disabled":false,"rental_uris":{"android":"levelo://app?vid=1d1842c4-9c2e-4727-8820-327a2572190d","ios":"levelo://app?vid=1d1842c4-9c2e-4727-8820-327a2572190d"},"vehicle_type_id":"4","last_reported":1746562325,"current_range_meters":9200,"station_id":"ce4bh692rcd13ifvqea0","pricing_plan_id":"cebpf4jnsgd1na2vs0mg"},{"bike_id":"2d1ec930-cf55-44c6-b4e1-1bc8f3669849","system_id":"levelo_inurba_marseille","lat":43.31078,"lon":5.38348,"is_reserved":false,"is_disabled":false,"rental_uris":{"android":"levelo://app?vid=2d1ec930-cf55-44c6-b4e1-1bc8f3669849","ios":"levelo://app?vid=2d1ec930-cf55-44c6-b4e1-1bc8f3669849"},"vehicle_type_id":"4","last_reported":1746562325,"current_range_meters":9200,"station_id":"ce4bgv92rcd13ifvqcr0","pricing_plan_id":"cebpf4jnsgd1na2vs0mg"},{"bike_id":"943d0601-5d73-468b-922c-7ef604961a21","system_id":"levelo_inurba_marseille","lat":43.21188,"lon":5.35079,"is_reserved":false,"is_disabled":false,"rental_uris":{"android":"levelo://app?vid=943d0601-5d73-468b-922c-7ef604961a21","ios":"levelo://app?vid=943d0601-5d73-468b-922c-7ef604961a21"},"vehicle_type_id":"4","last_reported":1746562325,"current_range_meters":9200,"station_id":"st_cvj6sg6p6f1abm77japg","pricing_plan_id":"cebpf4jnsgd1na2vs0mg"},{"bike_id":"934592e9-d06e-4c95-8d4e-847b06115897","system_id":"levelo_inurba_marseille","lat":43.2969,"lon":5.36607,"is_reserved":false,"is_disabled":false,"rental_uris":{"android":"levelo://app?vid=934592e9-d06e-4c95-8d4e-847b06115897","ios":"levelo://app?vid=934592e9-d06e-4c95-8d4e-847b06115897"},"vehicle_type_id":"4","last_reported":1746562325,"current_range_meters":9200,"station_id":"ce4bgn12rcd13ifvqbt0","pricing_plan_id":"cebpf4jnsgd1na2vs0mg"},{"bike_id":"63d47356-dd9a-4684-a110-ebfcdc1131dc","system_id":"levelo_inurba_marseille","lat":43.286056,"lon":5.350976,"is_reserved":false,"is_disabled":false,"rental_uris":{"android":"levelo://app?vid=63d47356-dd9a-4684-a110-ebfcdc1131dc","ios":"levelo://app?vid=63d47356-dd9a-4684-a110-ebfcdc1131dc"},"vehicle_type_id":"4","last_reported":1746562325,"current_range_meters":9200,"station_id":"ce4bhch2rcd13ifvqeug","pricing_plan_id":"cebpf4jnsgd1na2vs0mg"},{"bike_id":"bb16c97a-a7c9-43a9-96c7-1c51215ec312","system_id":"levelo_inurba_marseille","lat":43.28713,"lon":5.39991,"is_reserved":false,"is_disabled":false,"rental_uris":{"android":"levelo://app?vid=bb16c97a-a7c9-43a9-96c7-1c51215ec312","ios":"levelo://app?vid=bb16c97a-a7c9-43a9-96c7-1c51215ec312"},"vehicle_type_id":"4","last_reported":1746562325,"current_range_meters":9600,"station_id":"ce4bho92rcd13ifvqh3g","pricing_plan_id":"cebpf4jnsgd1na2vs0mg"},{"bike_id":"5e64a698-d714-4d99-8261-db4d12b9f278","system_id":"levelo_inurba_marseille","lat":43.307291,"lon":5.371881,"is_reserved":false,"is_disabled":false,"rental_uris":{"android":"levelo://app?vid=5e64a698-d714-4d99-8261-db4d12b9f278","ios":"levelo://app?vid=5e64a698-d714-4d99-8261-db4d12b9f278"},"vehicle_type_id":"4","last_reported":1746562325,"current_range_meters":9600,"station_id":"","pricing_plan_id":"cebpf4jnsgd1na2vs0mg"},{"bike_id":"fc453207-e37b-4b13-ae20-4430b65eb533","system_id":"levelo_inurba_marseille","lat":43.32442,"lon":5.39127,"is_reserved":false,"is_disabled":true,"rental_uris":{"android":"levelo://app?vid=fc453207-e37b-4b13-ae20-4430b65eb533","ios":"levelo://app?vid=fc453207-e37b-4b13-ae20-4430b65eb533"},"vehicle_type_id":"4","last_reported":1746562325,"current_range_meters":9600,"station_id":"","pricing_plan_id":"cebpf4jnsgd1na2vs0mg"},{"bike_id":"c9592205-9409-4f74-aed1-7c4141a58caa","system_id":"levelo_inurba_marseille","lat":43.27136,"lon":5.36361,"is_reserved":false,"is_disabled":false,"rental_uris":{"android":"levelo://app?vid=c9592205-9409-4f74-aed1-7c4141a58caa","ios":"levelo://app?vid=c9592205-9409-4f74-aed1-7c4141a58caa"},"vehicle_type_id":"4","last_reported":1746562325,"current_range_meters":9600,"station_id":"","pricing_plan_id":"cebpf4jnsgd1na2vs0mg"},{"bike_id":"437cd84a-682e-40e7-aa53-0d5da2e1c64c","system_id":"levelo_inurba_marseille","lat":43.27807,"lon":5.40701,"is_reserved":false,"is_disabled":false,"rental_uris":{"android":"levelo://app?vid=437cd84a-682e-40e7-aa53-0d5da2e1c64c","ios":"levelo://app?vid=437cd84a-682e-40e7-aa53-0d5da2e1c64c"},"vehicle_type_id":"4","last_reported":1746562325,"current_range_meters":9600,"station_id":"ce4bhnh2rcd13ifvqgtg","pricing_plan_id":"cebpf4jnsgd1na2vs0mg"},{"bike_id":"649b4abe-a3c4-407a-9b87-787e203e0b85","system_id":"levelo_inurba_marseille","lat":43.31756,"lon":5.3901,"is_reserved":false,"is_disabled":false,"rental_uris":{"android":"levelo://app?vid=649b4abe-a3c4-407a-9b87-787e203e0b85","ios":"levelo://app?vid=649b4abe-a3c4-407a-9b87-787e203e0b85"},"vehicle_type_id":"4","last_reported":1746562325,"current_range_meters":9600,"station_id":"ce4bhqp2rcd13ifvqhng","pricing_plan_id":"cebpf4jnsgd1na2vs0mg"},{"bike_id":"b1f906fb-b80f-4138-9fb4-7aacfd3e5498","system_id":"levelo_inurba_marseille","lat":43.28941,"lon":5.3663,"is_reserved":false,"is_disabled":false,"rental_uris":{"android":"levelo://app?vid=b1f906fb-b80f-4138-9fb4-7aacfd3e5498","ios":"levelo://app?vid=b1f906fb-b80f-4138-9fb4-7aacfd3e5498"},"vehicle_type_id":"4","last_reported":1746562325,"current_range_meters":9600,"station_id":"ce4bhap2rcd13ifvqek0","pricing_plan_id":"cebpf4jnsgd1na2vs0mg"},{"bike_id":"3029db95-9878-4455-82e0-702bdd2a6f8e","system_id":"levelo_inurba_marseille","lat":43.314484,"lon":5.373785,"is_reserved":false,"is_disabled":false,"rental_uris":{"android":"levelo://app?vid=3029db95-9878-4455-82e0-702bdd2a6f8e","ios":"levelo://app?vid=3029db95-9878-4455-82e0-702bdd2a6f8e"},"vehicle_type_id":"4","last_reported":1746562325,"current_range_meters":10000,"station_id":"","pricing_plan_id":"cebpf4jnsgd1na2vs0mg"},{"bike_id":"de6711b8-a383-48a6-a36c-a83aea16c0e7","system_id":"levelo_inurba_marseille","lat":43.28941,"lon":5.36638,"is_reserved":false,"is_disabled":false,"rental_uris":{"android":"levelo://app?vid=de6711b8-a383-48a6-a36c-a83aea16c0e7","ios":"levelo://app?vid=de6711b8-a383-48a6-a36c-a83aea16c0e7"},"vehicle_type_id":"4","last_reported":1746562325,"current_range_meters":10000,"station_id":"ce4bhap2rcd13ifvqek0","pricing_plan_id":"cebpf4jnsgd1na2vs0mg"},{"bike_id":"c044905a-9276-4403-a037-39adb827ffc7","system_id":"levelo_inurba_marseille","lat":43.2835,"lon":5.38647,"is_reserved":false,"is_disabled":false,"rental_uris":{"android":"levelo://app?vid=c044905a-9276-4403-a037-39adb827ffc7","ios":"levelo://app?vid=c044905a-9276-4403-a037-39adb827ffc7"},"vehicle_type_id":"4","last_reported":1746562325,"current_range_meters":10000,"station_id":"ce4bh492rcd13ifvqdvg","pricing_plan_id":"cebpf4jnsgd1na2vs0mg"},{"bike_id":"963aeaaf-16ab-4ca6-896c-a412c968ec60","system_id":"levelo_inurba_marseille","lat":43.28938,"lon":5.36395,"is_reserved":false,"is_disabled":true,"rental_uris":{"android":"levelo://app?vid=963aeaaf-16ab-4ca6-896c-a412c968ec60","ios":"levelo://app?vid=963aeaaf-16ab-4ca6-896c-a412c968ec60"},"vehicle_type_id":"4","last_reported":1746562325,"current_range_meters":10000,"station_id":"ce4bhc92rcd13ifvqetg","pricing_plan_id":"cebpf4jnsgd1na2vs0mg"},{"bike_id":"6e6a02ad-474a-4718-8c8a-cca97c129ebe","system_id":"levelo_inurba_marseille","lat":43.29786,"lon":5.39333,"is_reserved":false,"is_disabled":false,"rental_uris":{"android":"levelo://app?vid=6e6a02ad-474a-4718-8c8a-cca97c129ebe","ios":"levelo://app?vid=6e6a02ad-474a-4718-8c8a-cca97c129ebe"},"vehicle_type_id":"4","last_reported":1746562325,"current_range_meters":10000,"station_id":"chh1huq6cuj3fo74tm60","pricing_plan_id":"cebpf4jnsgd1na2vs0mg"},{"bike_id":"3f84d55c-f7b3-443f-a8ba-1f83ba8291a2","system_id":"levelo_inurba_marseille","lat":43.21188,"lon":5.35087,"is_reserved":false,"is_disabled":false,"rental_uris":{"android":"levelo://app?vid=3f84d55c-f7b3-443f-a8ba-1f83ba8291a2","ios":"levelo://app?vid=3f84d55c-f7b3-443f-a8ba-1f83ba8291a2"},"vehicle_type_id":"4","last_reported":1746562325,"current_range_meters":10000,"station_id":"st_cvj6sg6p6f1abm77japg","pricing_plan_id":"cebpf4jnsgd1na2vs0mg"},{"bike_id":"63c3f49b-0878-46d3-83cc-897089abae50","system_id":"levelo_inurba_marseille","lat":43.29519,"lon":5.39404,"is_reserved":false,"is_disabled":false,"rental_uris":{"android":"levelo://app?vid=63c3f49b-0878-46d3-83cc-897089abae50","ios":"levelo://app?vid=63c3f49b-0878-46d3-83cc-897089abae50"},"vehicle_type_id":"4","last_reported":1746562325,"current_range_meters":10000,"station_id":"ce4bh292rcd13ifvqdf0","pricing_plan_id":"cebpf4jnsgd1na2vs0mg"},{"bike_id":"bc0631ed-8e5a-4a7a-a924-e66c5efc3e6b","system_id":"levelo_inurba_marseille","lat":43.3107,"lon":5.38365,"is_reserved":false,"is_disabled":false,"rental_uris":{"android":"levelo://app?vid=bc0631ed-8e5a-4a7a-a924-e66c5efc3e6b","ios":"levelo://app?vid=bc0631ed-8e5a-4a7a-a924-e66c5efc3e6b"},"vehicle_type_id":"4","last_reported":1746562325,"current_range_meters":10800,"station_id":"ce4bgv92rcd13ifvqcr0","pricing_plan_id":"cebpf4jnsgd1na2vs0mg"},{"bike_id":"1e6ef1b5-4779-4cb6-b6c7-5c78c344b341","system_id":"levelo_inurba_marseille","lat":43.23191,"lon":5.39984,"is_reserved":false,"is_disabled":false,"rental_uris":{"android":"levelo://app?vid=1e6ef1b5-4779-4cb6-b6c7-5c78c344b341","ios":"levelo://app?vid=1e6ef1b5-4779-4cb6-b6c7-5c78c344b341"},"vehicle_type_id":"4","last_reported":1746562325,"current_range_meters":10800,"station_id":"ce4bhn12rcd13ifvqgqg","pricing_plan_id":"cebpf4jnsgd1na2vs0mg"},{"bike_id":"54b46741-8284-4ace-92ab-407b5aa505d3","system_id":"levelo_inurba_marseille","lat":43.28734,"lon":5.36101,"is_reserved":false,"is_disabled":false,"rental_uris":{"android":"levelo://app?vid=54b46741-8284-4ace-92ab-407b5aa505d3","ios":"levelo://app?vid=54b46741-8284-4ace-92ab-407b5aa505d3"},"vehicle_type_id":"4","last_reported":1746562325,"current_range_meters":10800,"station_id":"cki0cbj6b192h4jlfktg","pricing_plan_id":"cebpf4jnsgd1na2vs0mg"},{"bike_id":"01fcec95-3428-4909-8b09-3e9bffa7dbcf","system_id":"levelo_inurba_marseille","lat":43.24824,"lon":5.3744,"is_reserved":false,"is_disabled":false,"rental_uris":{"android":"levelo://app?vid=01fcec95-3428-4909-8b09-3e9bffa7dbcf","ios":"levelo://app?vid=01fcec95-3428-4909-8b09-3e9bffa7dbcf"},"vehicle_type_id":"4","last_reported":1746562325,"current_range_meters":10800,"station_id":"ce4bhgh2rcd13ifvqfb0","pricing_plan_id":"cebpf4jnsgd1na2vs0mg"},{"bike_id":"5bca7523-1029-4617-8127-9d50cb240d8b","system_id":"levelo_inurba_marseille","lat":43.2998,"lon":5.37177,"is_reserved":false,"is_disabled":false,"rental_uris":{"android":"levelo://app?vid=5bca7523-1029-4617-8127-9d50cb240d8b","ios":"levelo://app?vid=5bca7523-1029-4617-8127-9d50cb240d8b"},"vehicle_type_id":"4","last_reported":1746562325,"current_range_meters":10800,"station_id":"ce4bgr92rcd13ifvqc7g","pricing_plan_id":"cebpf4jnsgd1na2vs0mg"},{"bike_id":"2f9869ca-0c03-451a-9ef5-f4dfb1f32f83","system_id":"levelo_inurba_marseille","lat":43.27916,"lon":5.39578,"is_reserved":false,"is_disabled":false,"rental_uris":{"android":"levelo://app?vid=2f9869ca-0c03-451a-9ef5-f4dfb1f32f83","ios":"levelo://app?vid=2f9869ca-0c03-451a-9ef5-f4dfb1f32f83"},"vehicle_type_id":"4","last_reported":1746562325,"current_range_meters":10800,"station_id":"ce4bhf92rcd13ifvqf40","pricing_plan_id":"cebpf4jnsgd1na2vs0mg"},{"bike_id":"aa0ff8ba-f75a-4963-8e38-b1ad71967fad","system_id":"levelo_inurba_marseille","lat":43.26505,"lon":5.39547,"is_reserved":false,"is_disabled":false,"rental_uris":{"android":"levelo://app?vid=aa0ff8ba-f75a-4963-8e38-b1ad71967fad","ios":"levelo://app?vid=aa0ff8ba-f75a-4963-8e38-b1ad71967fad"},"vehicle_type_id":"4","last_reported":1746562325,"current_range_meters":11200,"station_id":"ce4bhi12rcd13ifvqfq0","pricing_plan_id":"cebpf4jnsgd1na2vs0mg"},{"bike_id":"b9d889a1-6f8f-4145-8432-407a3df656c7","system_id":"levelo_inurba_marseille","lat":43.24173,"lon":5.36391,"is_reserved":false,"is_disabled":false,"rental_uris":{"android":"levelo://app?vid=b9d889a1-6f8f-4145-8432-407a3df656c7","ios":"levelo://app?vid=b9d889a1-6f8f-4145-8432-407a3df656c7"},"vehicle_type_id":"4","last_reported":1746562325,"current_range_meters":11200,"station_id":"cpo36qri1sfpv3e86is0","pricing_plan_id":"cebpf4jnsgd1na2vs0mg"},{"bike_id":"df997565-14e1-4c63-88de-58fa1bd201da","system_id":"levelo_inurba_marseille","lat":43.30434,"lon":5.39742,"is_reserved":false,"is_disabled":false,"rental_uris":{"android":"levelo://app?vid=df997565-14e1-4c63-88de-58fa1bd201da","ios":"levelo://app?vid=df997565-14e1-4c63-88de-58fa1bd201da"},"vehicle_type_id":"4","last_reported":1746562325,"current_range_meters":11200,"station_id":"ce4bh092rcd13ifvqd20","pricing_plan_id":"cebpf4jnsgd1na2vs0mg"},{"bike_id":"4d41f66c-f615-49b2-a6d7-735e22d421fb","system_id":"levelo_inurba_marseille","lat":43.23186,"lon":5.39982,"is_reserved":false,"is_disabled":false,"rental_uris":{"android":"levelo://app?vid=4d41f66c-f615-49b2-a6d7-735e22d421fb","ios":"levelo://app?vid=4d41f66c-f615-49b2-a6d7-735e22d421fb"},"vehicle_type_id":"4","last_reported":1746562325,"current_range_meters":11200,"station_id":"ce4bhn12rcd13ifvqgqg","pricing_plan_id":"cebpf4jnsgd1na2vs0mg"},{"bike_id":"e6d678b1-43d1-4bd2-a3a6-50b6e78581fe","system_id":"levelo_inurba_marseille","lat":43.30145,"lon":5.3741,"is_reserved":false,"is_disabled":false,"rental_uris":{"android":"levelo://app?vid=e6d678b1-43d1-4bd2-a3a6-50b6e78581fe","ios":"levelo://app?vid=e6d678b1-43d1-4bd2-a3a6-50b6e78581fe"},"vehicle_type_id":"4","last_reported":1746562325,"current_range_meters":11200,"station_id":"ce4bgs92rcd13ifvqcc0","pricing_plan_id":"cebpf4jnsgd1na2vs0mg"},{"bike_id":"54a0dee5-838f-4021-b04a-eef13294abac","system_id":"levelo_inurba_marseille","lat":43.31221,"lon":5.36861,"is_reserved":false,"is_disabled":false,"rental_uris":{"android":"levelo://app?vid=54a0dee5-838f-4021-b04a-eef13294abac","ios":"levelo://app?vid=54a0dee5-838f-4021-b04a-eef13294abac"},"vehicle_type_id":"4","last_reported":1746562325,"current_range_meters":11200,"station_id":"ce4bgl92rcd13ifvqbq0","pricing_plan_id":"cebpf4jnsgd1na2vs0mg"},{"bike_id":"b4bac287-3615-423a-bca2-a11fb80cb066","system_id":"levelo_inurba_marseille","lat":43.2306,"lon":5.35502,"is_reserved":false,"is_disabled":false,"rental_uris":{"android":"levelo://app?vid=b4bac287-3615-423a-bca2-a11fb80cb066","ios":"levelo://app?vid=b4bac287-3615-423a-bca2-a11fb80cb066"},"vehicle_type_id":"4","last_reported":1746562325,"current_range_meters":11600,"station_id":"cpo3342slgdg3j2ifvpg","pricing_plan_id":"cebpf4jnsgd1na2vs0mg"},{"bike_id":"4299d56b-86ca-4649-92be-f3e730bb6d61","system_id":"levelo_inurba_marseille","lat":43.30118,"lon":5.39884,"is_reserved":false,"is_disabled":false,"rental_uris":{"android":"levelo://app?vid=4299d56b-86ca-4649-92be-f3e730bb6d61","ios":"levelo://app?vid=4299d56b-86ca-4649-92be-f3e730bb6d61"},"vehicle_type_id":"4","last_reported":1746562325,"current_range_meters":11600,"station_id":"ce4bh0h2rcd13ifvqd40","pricing_plan_id":"cebpf4jnsgd1na2vs0mg"},{"bike_id":"8339e15d-d555-43fe-bbce-728e35b1f55e","system_id":"levelo_inurba_marseille","lat":43.292399,"lon":5.36623,"is_reserved":false,"is_disabled":false,"rental_uris":{"android":"levelo://app?vid=8339e15d-d555-43fe-bbce-728e35b1f55e","ios":"levelo://app?vid=8339e15d-d555-43fe-bbce-728e35b1f55e"},"vehicle_type_id":"4","last_reported":1746562325,"current_range_meters":12000,"station_id":"","pricing_plan_id":"cebpf4jnsgd1na2vs0mg"},{"bike_id":"2d34c47c-7e86-4bb4-ab5f-8da030cb95d8","system_id":"levelo_inurba_marseille","lat":43.26245,"lon":5.40412,"is_reserved":false,"is_disabled":false,"rental_uris":{"android":"levelo://app?vid=2d34c47c-7e86-4bb4-ab5f-8da030cb95d8","ios":"levelo://app?vid=2d34c47c-7e86-4bb4-ab5f-8da030cb95d8"},"vehicle_type_id":"4","last_reported":1746562325,"current_range_meters":12000,"station_id":"ce4bhmh2rcd13ifvqgmg","pricing_plan_id":"cebpf4jnsgd1na2vs0mg"},{"bike_id":"065dfa79-5129-4665-ba10-4a802102a715","system_id":"levelo_inurba_marseille","lat":43.31722,"lon":5.42409,"is_reserved":false,"is_disabled":false,"rental_uris":{"android":"levelo://app?vid=065dfa79-5129-4665-ba10-4a802102a715","ios":"levelo://app?vid=065dfa79-5129-4665-ba10-4a802102a715"},"vehicle_type_id":"4","last_reported":1746562325,"current_range_meters":12000,"station_id":"ce4bhp92rcd13ifvqhbg","pricing_plan_id":"cebpf4jnsgd1na2vs0mg"},{"bike_id":"971f0407-6520-42bd-a553-96af86cafd7e","system_id":"levelo_inurba_marseille","lat":43.31081,"lon":5.3834,"is_reserved":false,"is_disabled":false,"rental_uris":{"android":"levelo://app?vid=971f0407-6520-42bd-a553-96af86cafd7e","ios":"levelo://app?vid=971f0407-6520-42bd-a553-96af86cafd7e"},"vehicle_type_id":"4","last_reported":1746562325,"current_range_meters":12000,"station_id":"ce4bgv92rcd13ifvqcr0","pricing_plan_id":"cebpf4jnsgd1na2vs0mg"},{"bike_id":"084e446d-94e6-48a4-8a45-501eaaf97335","system_id":"levelo_inurba_marseille","lat":43.29785,"lon":5.39357,"is_reserved":false,"is_disabled":false,"rental_uris":{"android":"levelo://app?vid=084e446d-94e6-48a4-8a45-501eaaf97335","ios":"levelo://app?vid=084e446d-94e6-48a4-8a45-501eaaf97335"},"vehicle_type_id":"4","last_reported":1746562325,"current_range_meters":12000,"station_id":"chh1huq6cuj3fo74tm60","pricing_plan_id":"cebpf4jnsgd1na2vs0mg"},{"bike_id":"a6360162-9249-4ffa-8aff-4b37e3643b14","system_id":"levelo_inurba_marseille","lat":43.30606,"lon":5.37221,"is_reserved":false,"is_disabled":false,"rental_uris":{"android":"levelo://app?vid=a6360162-9249-4ffa-8aff-4b37e3643b14","ios":"levelo://app?vid=a6360162-9249-4ffa-8aff-4b37e3643b14"},"vehicle_type_id":"4","last_reported":1746562325,"current_range_meters":12400,"station_id":"ce4bgqh2rcd13ifvqc4g","pricing_plan_id":"cebpf4jnsgd1na2vs0mg"},{"bike_id":"5484723d-26e9-4c4c-8250-c0beb9196464","system_id":"levelo_inurba_marseille","lat":43.29375,"lon":5.37848,"is_reserved":false,"is_disabled":false,"rental_uris":{"android":"levelo://app?vid=5484723d-26e9-4c4c-8250-c0beb9196464","ios":"levelo://app?vid=5484723d-26e9-4c4c-8250-c0beb9196464"},"vehicle_type_id":"4","last_reported":1746562325,"current_range_meters":12400,"station_id":"ce4bgjh2rcd13ifvqbf0","pricing_plan_id":"cebpf4jnsgd1na2vs0mg"},{"bike_id":"cbb5eb6d-ce39-47b4-a4cb-03cd47241b3f","system_id":"levelo_inurba_marseille","lat":43.29792,"lon":5.39336,"is_reserved":false,"is_disabled":false,"rental_uris":{"android":"levelo://app?vid=cbb5eb6d-ce39-47b4-a4cb-03cd47241b3f","ios":"levelo://app?vid=cbb5eb6d-ce39-47b4-a4cb-03cd47241b3f"},"vehicle_type_id":"4","last_reported":1746562325,"current_range_meters":12400,"station_id":"chh1huq6cuj3fo74tm60","pricing_plan_id":"cebpf4jnsgd1na2vs0mg"},{"bike_id":"8a5554a2-b62f-4371-8d49-519ad97fb9f1","system_id":"levelo_inurba_marseille","lat":43.33019,"lon":5.39042,"is_reserved":false,"is_disabled":false,"rental_uris":{"android":"levelo://app?vid=8a5554a2-b62f-4371-8d49-519ad97fb9f1","ios":"levelo://app?vid=8a5554a2-b62f-4371-8d49-519ad97fb9f1"},"vehicle_type_id":"4","last_reported":1746562325,"current_range_meters":12400,"station_id":"ce4bhr92rcd13ifvqhrg","pricing_plan_id":"cebpf4jnsgd1na2vs0mg"},{"bike_id":"73b5c333-97cd-43b6-9d08-007bad2ca597","system_id":"levelo_inurba_marseille","lat":43.32288,"lon":5.38279,"is_reserved":false,"is_disabled":false,"rental_uris":{"android":"levelo://app?vid=73b5c333-97cd-43b6-9d08-007bad2ca597","ios":"levelo://app?vid=73b5c333-97cd-43b6-9d08-007bad2ca597"},"vehicle_type_id":"4","last_reported":1746562325,"current_range_meters":12400,"station_id":"ce4bhr12rcd13ifvqhqg","pricing_plan_id":"cebpf4jnsgd1na2vs0mg"},{"bike_id":"7e81e686-6eb0-40aa-9213-54295cea165c","system_id":"levelo_inurba_marseille","lat":43.27071,"lon":5.4228,"is_reserved":false,"is_disabled":false,"rental_uris":{"android":"levelo://app?vid=7e81e686-6eb0-40aa-9213-54295cea165c","ios":"levelo://app?vid=7e81e686-6eb0-40aa-9213-54295cea165c"},"vehicle_type_id":"4","last_reported":1746562325,"current_range_meters":12800,"station_id":"ce4bhk92rcd13ifvqgb0","pricing_plan_id":"cebpf4jnsgd1na2vs0mg"},{"bike_id":"4b717f06-ead9-4d1e-afdc-d51ea5fbfe8b","system_id":"levelo_inurba_marseille","lat":43.278083,"lon":5.407106,"is_reserved":false,"is_disabled":false,"rental_uris":{"android":"levelo://app?vid=4b717f06-ead9-4d1e-afdc-d51ea5fbfe8b","ios":"levelo://app?vid=4b717f06-ead9-4d1e-afdc-d51ea5fbfe8b"},"vehicle_type_id":"4","last_reported":1746562325,"current_range_meters":12800,"station_id":"ce4bhnh2rcd13ifvqgtg","pricing_plan_id":"cebpf4jnsgd1na2vs0mg"},{"bike_id":"552631fc-3eee-4f6f-a0a9-1c1f3a9d5cf9","system_id":"levelo_inurba_marseille","lat":43.30295,"lon":5.3922,"is_reserved":false,"is_disabled":false,"rental_uris":{"android":"levelo://app?vid=552631fc-3eee-4f6f-a0a9-1c1f3a9d5cf9","ios":"levelo://app?vid=552631fc-3eee-4f6f-a0a9-1c1f3a9d5cf9"},"vehicle_type_id":"4","last_reported":1746562325,"current_range_meters":12800,"station_id":"ce4bgkh2rcd13ifvqbk0","pricing_plan_id":"cebpf4jnsgd1na2vs0mg"},{"bike_id":"a05d1bfa-bfc1-47d1-8efb-8d18bc9fbf7a","system_id":"levelo_inurba_marseille","lat":43.29578,"lon":5.36746,"is_reserved":false,"is_disabled":false,"rental_uris":{"android":"levelo://app?vid=a05d1bfa-bfc1-47d1-8efb-8d18bc9fbf7a","ios":"levelo://app?vid=a05d1bfa-bfc1-47d1-8efb-8d18bc9fbf7a"},"vehicle_type_id":"4","last_reported":1746562325,"current_range_meters":12800,"station_id":"ce4bgph2rcd13ifvqc2g","pricing_plan_id":"cebpf4jnsgd1na2vs0mg"},{"bike_id":"f1442852-f71a-448f-b6c6-c6128acec5d3","system_id":"levelo_inurba_marseille","lat":43.30658,"lon":5.40092,"is_reserved":false,"is_disabled":true,"rental_uris":{"android":"levelo://app?vid=f1442852-f71a-448f-b6c6-c6128acec5d3","ios":"levelo://app?vid=f1442852-f71a-448f-b6c6-c6128acec5d3"},"vehicle_type_id":"4","last_reported":1746562325,"current_range_meters":13600,"station_id":"ce4bh112rcd13ifvqda0","pricing_plan_id":"cebpf4jnsgd1na2vs0mg"},{"bike_id":"5ca0cdd3-986b-405d-a3f7-122ee59b5450","system_id":"levelo_inurba_marseille","lat":43.2868,"lon":5.36373,"is_reserved":false,"is_disabled":false,"rental_uris":{"android":"levelo://app?vid=5ca0cdd3-986b-405d-a3f7-122ee59b5450","ios":"levelo://app?vid=5ca0cdd3-986b-405d-a3f7-122ee59b5450"},"vehicle_type_id":"4","last_reported":1746562325,"current_range_meters":13600,"station_id":"ce4bhah2rcd13ifvqej0","pricing_plan_id":"cebpf4jnsgd1na2vs0mg"},{"bike_id":"a72b9f11-2337-45cd-934a-1a5dcb26adef","system_id":"levelo_inurba_marseille","lat":43.30243,"lon":5.40049,"is_reserved":false,"is_disabled":false,"rental_uris":{"android":"levelo://app?vid=a72b9f11-2337-45cd-934a-1a5dcb26adef","ios":"levelo://app?vid=a72b9f11-2337-45cd-934a-1a5dcb26adef"},"vehicle_type_id":"4","last_reported":1746562325,"current_range_meters":13600,"station_id":"ce4bgvh2rcd13ifvqcs0","pricing_plan_id":"cebpf4jnsgd1na2vs0mg"},{"bike_id":"741922f7-49ff-4751-a228-5a73f2c8c24d","system_id":"levelo_inurba_marseille","lat":43.24169,"lon":5.36436,"is_reserved":false,"is_disabled":false,"rental_uris":{"android":"levelo://app?vid=741922f7-49ff-4751-a228-5a73f2c8c24d","ios":"levelo://app?vid=741922f7-49ff-4751-a228-5a73f2c8c24d"},"vehicle_type_id":"4","last_reported":1746562325,"current_range_meters":13600,"station_id":"cpo36qri1sfpv3e86is0","pricing_plan_id":"cebpf4jnsgd1na2vs0mg"},{"bike_id":"c65b64f5-a38f-4b33-a48f-6bb6c6b32a53","system_id":"levelo_inurba_marseille","lat":43.21194,"lon":5.35099,"is_reserved":false,"is_disabled":false,"rental_uris":{"android":"levelo://app?vid=c65b64f5-a38f-4b33-a48f-6bb6c6b32a53","ios":"levelo://app?vid=c65b64f5-a38f-4b33-a48f-6bb6c6b32a53"},"vehicle_type_id":"4","last_reported":1746562325,"current_range_meters":13600,"station_id":"st_cvj6sg6p6f1abm77japg","pricing_plan_id":"cebpf4jnsgd1na2vs0mg"},{"bike_id":"61625491-7390-4697-b133-ef867961da7d","system_id":"levelo_inurba_marseille","lat":43.283626,"lon":5.386446,"is_reserved":false,"is_disabled":false,"rental_uris":{"android":"levelo://app?vid=61625491-7390-4697-b133-ef867961da7d","ios":"levelo://app?vid=61625491-7390-4697-b133-ef867961da7d"},"vehicle_type_id":"4","last_reported":1746562325,"current_range_meters":13600,"station_id":"ce4bh492rcd13ifvqdvg","pricing_plan_id":"cebpf4jnsgd1na2vs0mg"},{"bike_id":"c0c9b625-2ed9-4025-8036-243e1cf4c3d6","system_id":"levelo_inurba_marseille","lat":43.25112,"lon":5.40351,"is_reserved":false,"is_disabled":false,"rental_uris":{"android":"levelo://app?vid=c0c9b625-2ed9-4025-8036-243e1cf4c3d6","ios":"levelo://app?vid=c0c9b625-2ed9-4025-8036-243e1cf4c3d6"},"vehicle_type_id":"4","last_reported":1746562325,"current_range_meters":13600,"station_id":"ce4bhlh2rcd13ifvqgig","pricing_plan_id":"cebpf4jnsgd1na2vs0mg"},{"bike_id":"e59eba90-f9cb-4e90-bc33-bd1f3c14fa0e","system_id":"levelo_inurba_marseille","lat":43.28458,"lon":5.35895,"is_reserved":false,"is_disabled":false,"rental_uris":{"android":"levelo://app?vid=e59eba90-f9cb-4e90-bc33-bd1f3c14fa0e","ios":"levelo://app?vid=e59eba90-f9cb-4e90-bc33-bd1f3c14fa0e"},"vehicle_type_id":"4","last_reported":1746562325,"current_range_meters":13600,"station_id":"ce4bhah2rcd13ifvqei0","pricing_plan_id":"cebpf4jnsgd1na2vs0mg"},{"bike_id":"a05355ba-20e8-4b74-94f0-7822cc1f1c02","system_id":"levelo_inurba_marseille","lat":43.27496,"lon":5.42445,"is_reserved":false,"is_disabled":false,"rental_uris":{"android":"levelo://app?vid=a05355ba-20e8-4b74-94f0-7822cc1f1c02","ios":"levelo://app?vid=a05355ba-20e8-4b74-94f0-7822cc1f1c02"},"vehicle_type_id":"4","last_reported":1746562325,"current_range_meters":13600,"station_id":"ce4bhn92rcd13ifvqgrg","pricing_plan_id":"cebpf4jnsgd1na2vs0mg"},{"bike_id":"5d072de5-6e26-44c1-bf10-91deefd526a7","system_id":"levelo_inurba_marseille","lat":43.29012,"lon":5.38623,"is_reserved":false,"is_disabled":false,"rental_uris":{"android":"levelo://app?vid=5d072de5-6e26-44c1-bf10-91deefd526a7","ios":"levelo://app?vid=5d072de5-6e26-44c1-bf10-91deefd526a7"},"vehicle_type_id":"4","last_reported":1746562325,"current_range_meters":14000,"station_id":"ce4bh4p2rcd13ifvqe0g","pricing_plan_id":"cebpf4jnsgd1na2vs0mg"},{"bike_id":"4e059f28-5b78-467d-bfb5-2f01b141c686","system_id":"levelo_inurba_marseille","lat":43.27961,"lon":5.38702,"is_reserved":false,"is_disabled":false,"rental_uris":{"android":"levelo://app?vid=4e059f28-5b78-467d-bfb5-2f01b141c686","ios":"levelo://app?vid=4e059f28-5b78-467d-bfb5-2f01b141c686"},"vehicle_type_id":"4","last_reported":1746562325,"current_range_meters":14000,"station_id":"ce4bhg12rcd13ifvqf80","pricing_plan_id":"cebpf4jnsgd1na2vs0mg"},{"bike_id":"43fec331-5dbe-4fa7-9b37-9757078cd140","system_id":"levelo_inurba_marseille","lat":43.2885,"lon":5.35857,"is_reserved":false,"is_disabled":true,"rental_uris":{"android":"levelo://app?vid=43fec331-5dbe-4fa7-9b37-9757078cd140","ios":"levelo://app?vid=43fec331-5dbe-4fa7-9b37-9757078cd140"},"vehicle_type_id":"4","last_reported":1746562325,"current_range_meters":14000,"station_id":"ce4bhb12rcd13ifvqem0","pricing_plan_id":"cebpf4jnsgd1na2vs0mg"},{"bike_id":"05a7761b-bdf5-4382-8595-fc353aee62ed","system_id":"levelo_inurba_marseille","lat":43.29162,"lon":5.37171,"is_reserved":false,"is_disabled":false,"rental_uris":{"android":"levelo://app?vid=05a7761b-bdf5-4382-8595-fc353aee62ed","ios":"levelo://app?vid=05a7761b-bdf5-4382-8595-fc353aee62ed"},"vehicle_type_id":"4","last_reported":1746562325,"current_range_meters":14000,"station_id":"ce4bha92rcd13ifvqeh0","pricing_plan_id":"cebpf4jnsgd1na2vs0mg"},{"bike_id":"5dd49a4b-c5a6-42ca-959f-169b5030fba2","system_id":"levelo_inurba_marseille","lat":43.29025,"lon":5.38637,"is_reserved":false,"is_disabled":false,"rental_uris":{"android":"levelo://app?vid=5dd49a4b-c5a6-42ca-959f-169b5030fba2","ios":"levelo://app?vid=5dd49a4b-c5a6-42ca-959f-169b5030fba2"},"vehicle_type_id":"4","last_reported":1746562325,"current_range_meters":14000,"station_id":"ce4bh4p2rcd13ifvqe0g","pricing_plan_id":"cebpf4jnsgd1na2vs0mg"},{"bike_id":"1e60d451-9e51-4146-9423-5e85f4175d1b","system_id":"levelo_inurba_marseille","lat":43.29041,"lon":5.35917,"is_reserved":false,"is_disabled":false,"rental_uris":{"android":"levelo://app?vid=1e60d451-9e51-4146-9423-5e85f4175d1b","ios":"levelo://app?vid=1e60d451-9e51-4146-9423-5e85f4175d1b"},"vehicle_type_id":"4","last_reported":1746562325,"current_range_meters":14400,"station_id":"ce4bha92rcd13ifvqeg0","pricing_plan_id":"cebpf4jnsgd1na2vs0mg"},{"bike_id":"dc35c703-bc73-49f4-8bf2-4e2793651c3a","system_id":"levelo_inurba_marseille","lat":43.29783,"lon":5.37114,"is_reserved":false,"is_disabled":false,"rental_uris":{"android":"levelo://app?vid=dc35c703-bc73-49f4-8bf2-4e2793651c3a","ios":"levelo://app?vid=dc35c703-bc73-49f4-8bf2-4e2793651c3a"},"vehicle_type_id":"4","last_reported":1746562325,"current_range_meters":14400,"station_id":"ce4bgop2rcd13ifvqc1g","pricing_plan_id":"cebpf4jnsgd1na2vs0mg"},{"bike_id":"06b0d7b1-b175-4d54-877f-46f59b0c932d","system_id":"levelo_inurba_marseille","lat":43.28104,"lon":5.37849,"is_reserved":false,"is_disabled":false,"rental_uris":{"android":"levelo://app?vid=06b0d7b1-b175-4d54-877f-46f59b0c932d","ios":"levelo://app?vid=06b0d7b1-b175-4d54-877f-46f59b0c932d"},"vehicle_type_id":"4","last_reported":1746562325,"current_range_meters":14400,"station_id":"ce4bha12rcd13ifvqee0","pricing_plan_id":"cebpf4jnsgd1na2vs0mg"},{"bike_id":"71e48244-0e9e-472c-97f4-fee8eab9f6eb","system_id":"levelo_inurba_marseille","lat":43.27069,"lon":5.42284,"is_reserved":false,"is_disabled":false,"rental_uris":{"android":"levelo://app?vid=71e48244-0e9e-472c-97f4-fee8eab9f6eb","ios":"levelo://app?vid=71e48244-0e9e-472c-97f4-fee8eab9f6eb"},"vehicle_type_id":"4","last_reported":1746562325,"current_range_meters":14400,"station_id":"ce4bhk92rcd13ifvqgb0","pricing_plan_id":"cebpf4jnsgd1na2vs0mg"},{"bike_id":"7a917c71-5842-4d65-ab75-d50cc46af138","system_id":"levelo_inurba_marseille","lat":43.28098,"lon":5.37837,"is_reserved":false,"is_disabled":false,"rental_uris":{"android":"levelo://app?vid=7a917c71-5842-4d65-ab75-d50cc46af138","ios":"levelo://app?vid=7a917c71-5842-4d65-ab75-d50cc46af138"},"vehicle_type_id":"4","last_reported":1746562325,"current_range_meters":14400,"station_id":"ce4bha12rcd13ifvqee0","pricing_plan_id":"cebpf4jnsgd1na2vs0mg"},{"bike_id":"506baeeb-4372-4d6d-bc2c-4e09c47f8b63","system_id":"levelo_inurba_marseille","lat":43.33621,"lon":5.40998,"is_reserved":false,"is_disabled":false,"rental_uris":{"android":"levelo://app?vid=506baeeb-4372-4d6d-bc2c-4e09c47f8b63","ios":"levelo://app?vid=506baeeb-4372-4d6d-bc2c-4e09c47f8b63"},"vehicle_type_id":"4","last_reported":1746562325,"current_range_meters":14800,"station_id":"ce4bhqh2rcd13ifvqhmg","pricing_plan_id":"cebpf4jnsgd1na2vs0mg"},{"bike_id":"99384b63-988c-4f51-9128-c6b177fc3d65","system_id":"levelo_inurba_marseille","lat":43.28709,"lon":5.37384,"is_reserved":false,"is_disabled":false,"rental_uris":{"android":"levelo://app?vid=99384b63-988c-4f51-9128-c6b177fc3d65","ios":"levelo://app?vid=99384b63-988c-4f51-9128-c6b177fc3d65"},"vehicle_type_id":"4","last_reported":1746562325,"current_range_meters":14800,"station_id":"ce4bh3p2rcd13ifvqdq0","pricing_plan_id":"cebpf4jnsgd1na2vs0mg"},{"bike_id":"70e9affb-ae2b-41a9-b8f4-5c105ea25fa4","system_id":"levelo_inurba_marseille","lat":43.3374,"lon":5.39175,"is_reserved":false,"is_disabled":false,"rental_uris":{"android":"levelo://app?vid=70e9affb-ae2b-41a9-b8f4-5c105ea25fa4","ios":"levelo://app?vid=70e9affb-ae2b-41a9-b8f4-5c105ea25fa4"},"vehicle_type_id":"4","last_reported":1746562325,"current_range_meters":14800,"station_id":"ce4bhr92rcd13ifvqhsg","pricing_plan_id":"cebpf4jnsgd1na2vs0mg"},{"bike_id":"6f783098-ef72-4044-9ec6-09b510d07edd","system_id":"levelo_inurba_marseille","lat":43.28409,"lon":5.37536,"is_reserved":false,"is_disabled":false,"rental_uris":{"android":"levelo://app?vid=6f783098-ef72-4044-9ec6-09b510d07edd","ios":"levelo://app?vid=6f783098-ef72-4044-9ec6-09b510d07edd"},"vehicle_type_id":"4","last_reported":1746562325,"current_range_meters":14800,"station_id":"ce4bh412rcd13ifvqds0","pricing_plan_id":"cebpf4jnsgd1na2vs0mg"},{"bike_id":"194be5b5-54d4-4406-b149-edce556ddcbd","system_id":"levelo_inurba_marseille","lat":43.30215,"lon":5.39472,"is_reserved":false,"is_disabled":false,"rental_uris":{"android":"levelo://app?vid=194be5b5-54d4-4406-b149-edce556ddcbd","ios":"levelo://app?vid=194be5b5-54d4-4406-b149-edce556ddcbd"},"vehicle_type_id":"4","last_reported":1746562325,"current_range_meters":15200,"station_id":"ce4bh0p2rcd13ifvqd70","pricing_plan_id":"cebpf4jnsgd1na2vs0mg"},{"bike_id":"bfe26aff-b52c-4015-ba43-736a10d29ef2","system_id":"levelo_inurba_marseille","lat":43.30339,"lon":5.40447,"is_reserved":false,"is_disabled":false,"rental_uris":{"android":"levelo://app?vid=bfe26aff-b52c-4015-ba43-736a10d29ef2","ios":"levelo://app?vid=bfe26aff-b52c-4015-ba43-736a10d29ef2"},"vehicle_type_id":"4","last_reported":1746562325,"current_range_meters":15200,"station_id":"ce4bh012rcd13ifvqd10","pricing_plan_id":"cebpf4jnsgd1na2vs0mg"},{"bike_id":"3916ac97-5c80-429e-a8d8-f22eac2e38e9","system_id":"levelo_inurba_marseille","lat":43.28725,"lon":5.36088,"is_reserved":false,"is_disabled":false,"rental_uris":{"android":"levelo://app?vid=3916ac97-5c80-429e-a8d8-f22eac2e38e9","ios":"levelo://app?vid=3916ac97-5c80-429e-a8d8-f22eac2e38e9"},"vehicle_type_id":"4","last_reported":1746562325,"current_range_meters":15200,"station_id":"cki0cbj6b192h4jlfktg","pricing_plan_id":"cebpf4jnsgd1na2vs0mg"},{"bike_id":"201ae14e-efd1-4d5a-a94b-68dcafe91e28","system_id":"levelo_inurba_marseille","lat":43.30935,"lon":5.40139,"is_reserved":false,"is_disabled":false,"rental_uris":{"android":"levelo://app?vid=201ae14e-efd1-4d5a-a94b-68dcafe91e28","ios":"levelo://app?vid=201ae14e-efd1-4d5a-a94b-68dcafe91e28"},"vehicle_type_id":"4","last_reported":1746562325,"current_range_meters":15200,"station_id":"ce4bgvp2rcd13ifvqct0","pricing_plan_id":"cebpf4jnsgd1na2vs0mg"},{"bike_id":"05777be0-d2e1-4b71-8c20-31bdf8bdaa36","system_id":"levelo_inurba_marseille","lat":43.29273,"lon":5.37641,"is_reserved":false,"is_disabled":false,"rental_uris":{"android":"levelo://app?vid=05777be0-d2e1-4b71-8c20-31bdf8bdaa36","ios":"levelo://app?vid=05777be0-d2e1-4b71-8c20-31bdf8bdaa36"},"vehicle_type_id":"4","last_reported":1746562325,"current_range_meters":15200,"station_id":"ce4bgi12rcd13ifvqb80","pricing_plan_id":"cebpf4jnsgd1na2vs0mg"},{"bike_id":"c761457c-43c6-4500-9aec-e5e2c152850c","system_id":"levelo_inurba_marseille","lat":43.31535,"lon":5.38039,"is_reserved":false,"is_disabled":true,"rental_uris":{"android":"levelo://app?vid=c761457c-43c6-4500-9aec-e5e2c152850c","ios":"levelo://app?vid=c761457c-43c6-4500-9aec-e5e2c152850c"},"vehicle_type_id":"4","last_reported":1746562325,"current_range_meters":16000,"station_id":"ce4bhsp2rcd13ifvqi50","pricing_plan_id":"cebpf4jnsgd1na2vs0mg"},{"bike_id":"2aafffed-4328-4075-9f15-17ebd1ed13c7","system_id":"levelo_inurba_marseille","lat":43.29905,"lon":5.38139,"is_reserved":false,"is_disabled":false,"rental_uris":{"android":"levelo://app?vid=2aafffed-4328-4075-9f15-17ebd1ed13c7","ios":"levelo://app?vid=2aafffed-4328-4075-9f15-17ebd1ed13c7"},"vehicle_type_id":"4","last_reported":1746562325,"current_range_meters":16000,"station_id":"ce4bgj12rcd13ifvqbc0","pricing_plan_id":"cebpf4jnsgd1na2vs0mg"},{"bike_id":"259f3af3-79c9-447f-9ddf-4ef9f2059b0b","system_id":"levelo_inurba_marseille","lat":43.283463,"lon":5.381103,"is_reserved":false,"is_disabled":false,"rental_uris":{"android":"levelo://app?vid=259f3af3-79c9-447f-9ddf-4ef9f2059b0b","ios":"levelo://app?vid=259f3af3-79c9-447f-9ddf-4ef9f2059b0b"},"vehicle_type_id":"4","last_reported":1746562325,"current_range_meters":16000,"station_id":"ce4bh412rcd13ifvqdr0","pricing_plan_id":"cebpf4jnsgd1na2vs0mg"},{"bike_id":"2714f713-c769-4f6a-ac44-441a635e9cba","system_id":"levelo_inurba_marseille","lat":43.21618,"lon":5.34209,"is_reserved":false,"is_disabled":false,"rental_uris":{"android":"levelo://app?vid=2714f713-c769-4f6a-ac44-441a635e9cba","ios":"levelo://app?vid=2714f713-c769-4f6a-ac44-441a635e9cba"},"vehicle_type_id":"4","last_reported":1746562325,"current_range_meters":16000,"station_id":"","pricing_plan_id":"cebpf4jnsgd1na2vs0mg"},{"bike_id":"9ca898e2-58aa-4a6b-b98c-56b6e5fbd4ff","system_id":"levelo_inurba_marseille","lat":43.28357,"lon":5.38617,"is_reserved":false,"is_disabled":false,"rental_uris":{"android":"levelo://app?vid=9ca898e2-58aa-4a6b-b98c-56b6e5fbd4ff","ios":"levelo://app?vid=9ca898e2-58aa-4a6b-b98c-56b6e5fbd4ff"},"vehicle_type_id":"4","last_reported":1746562325,"current_range_meters":16000,"station_id":"ce4bh492rcd13ifvqdvg","pricing_plan_id":"cebpf4jnsgd1na2vs0mg"},{"bike_id":"47d2fd70-6980-4296-bfaf-01fe22c02520","system_id":"levelo_inurba_marseille","lat":43.30809,"lon":5.43524,"is_reserved":false,"is_disabled":false,"rental_uris":{"android":"levelo://app?vid=47d2fd70-6980-4296-bfaf-01fe22c02520","ios":"levelo://app?vid=47d2fd70-6980-4296-bfaf-01fe22c02520"},"vehicle_type_id":"4","last_reported":1746562325,"current_range_meters":16400,"station_id":"ce4bhph2rcd13ifvqheg","pricing_plan_id":"cebpf4jnsgd1na2vs0mg"},{"bike_id":"49adf419-1d44-4ce4-8e45-39dfe254ee3e","system_id":"levelo_inurba_marseille","lat":43.28703,"lon":5.36127,"is_reserved":false,"is_disabled":false,"rental_uris":{"android":"levelo://app?vid=49adf419-1d44-4ce4-8e45-39dfe254ee3e","ios":"levelo://app?vid=49adf419-1d44-4ce4-8e45-39dfe254ee3e"},"vehicle_type_id":"4","last_reported":1746562325,"current_range_meters":16400,"station_id":"cki0cbj6b192h4jlfktg","pricing_plan_id":"cebpf4jnsgd1na2vs0mg"},{"bike_id":"b1a97ec7-993f-4a2d-83e7-6ed722a41c26","system_id":"levelo_inurba_marseille","lat":43.27841,"lon":5.392,"is_reserved":false,"is_disabled":true,"rental_uris":{"android":"levelo://app?vid=b1a97ec7-993f-4a2d-83e7-6ed722a41c26","ios":"levelo://app?vid=b1a97ec7-993f-4a2d-83e7-6ed722a41c26"},"vehicle_type_id":"4","last_reported":1746562325,"current_range_meters":16400,"station_id":"ce4bhjp2rcd13ifvqga0","pricing_plan_id":"cebpf4jnsgd1na2vs0mg"},{"bike_id":"2fb01456-c52c-45c7-a15e-7735d881c948","system_id":"levelo_inurba_marseille","lat":43.29789,"lon":5.37073,"is_reserved":false,"is_disabled":false,"rental_uris":{"android":"levelo://app?vid=2fb01456-c52c-45c7-a15e-7735d881c948","ios":"levelo://app?vid=2fb01456-c52c-45c7-a15e-7735d881c948"},"vehicle_type_id":"4","last_reported":1746562325,"current_range_meters":16400,"station_id":"ce4bgop2rcd13ifvqc1g","pricing_plan_id":"cebpf4jnsgd1na2vs0mg"},{"bike_id":"5ae12bf9-6b11-4154-bca2-a2d5bd34ff43","system_id":"levelo_inurba_marseille","lat":43.28674,"lon":5.38659,"is_reserved":false,"is_disabled":false,"rental_uris":{"android":"levelo://app?vid=5ae12bf9-6b11-4154-bca2-a2d5bd34ff43","ios":"levelo://app?vid=5ae12bf9-6b11-4154-bca2-a2d5bd34ff43"},"vehicle_type_id":"4","last_reported":1746562325,"current_range_meters":16400,"station_id":"ce4bh492rcd13ifvqdug","pricing_plan_id":"cebpf4jnsgd1na2vs0mg"},{"bike_id":"858eaade-540f-4e6d-90c6-0b267365dd5c","system_id":"levelo_inurba_marseille","lat":43.27999,"lon":5.40016,"is_reserved":false,"is_disabled":false,"rental_uris":{"android":"levelo://app?vid=858eaade-540f-4e6d-90c6-0b267365dd5c","ios":"levelo://app?vid=858eaade-540f-4e6d-90c6-0b267365dd5c"},"vehicle_type_id":"4","last_reported":1746562325,"current_range_meters":16400,"station_id":"ce4bho92rcd13ifvqh4g","pricing_plan_id":"cebpf4jnsgd1na2vs0mg"},{"bike_id":"1899f93c-ba11-4eca-9275-d2c455d2f3ce","system_id":"levelo_inurba_marseille","lat":43.2896,"lon":5.36418,"is_reserved":false,"is_disabled":false,"rental_uris":{"android":"levelo://app?vid=1899f93c-ba11-4eca-9275-d2c455d2f3ce","ios":"levelo://app?vid=1899f93c-ba11-4eca-9275-d2c455d2f3ce"},"vehicle_type_id":"4","last_reported":1746562325,"current_range_meters":16400,"station_id":"ce4bhc92rcd13ifvqetg","pricing_plan_id":"cebpf4jnsgd1na2vs0mg"},{"bike_id":"be3b7425-bcc2-4ca3-a722-2c4244d300b0","system_id":"levelo_inurba_marseille","lat":43.28722,"lon":5.37944,"is_reserved":false,"is_disabled":false,"rental_uris":{"android":"levelo://app?vid=be3b7425-bcc2-4ca3-a722-2c4244d300b0","ios":"levelo://app?vid=be3b7425-bcc2-4ca3-a722-2c4244d300b0"},"vehicle_type_id":"4","last_reported":1746562325,"current_range_meters":16400,"station_id":"ce4bh9p2rcd13ifvqec0","pricing_plan_id":"cebpf4jnsgd1na2vs0mg"},{"bike_id":"b02dd700-e1d0-4736-93d7-81d9f5d4b73b","system_id":"levelo_inurba_marseille","lat":43.25122,"lon":5.40332,"is_reserved":false,"is_disabled":false,"rental_uris":{"android":"levelo://app?vid=b02dd700-e1d0-4736-93d7-81d9f5d4b73b","ios":"levelo://app?vid=b02dd700-e1d0-4736-93d7-81d9f5d4b73b"},"vehicle_type_id":"4","last_reported":1746562325,"current_range_meters":16400,"station_id":"ce4bhlh2rcd13ifvqgig","pricing_plan_id":"cebpf4jnsgd1na2vs0mg"},{"bike_id":"387a6276-06fd-4748-9222-63df581f8ac6","system_id":"levelo_inurba_marseille","lat":43.29543,"lon":5.38546,"is_reserved":false,"is_disabled":true,"rental_uris":{"android":"levelo://app?vid=387a6276-06fd-4748-9222-63df581f8ac6","ios":"levelo://app?vid=387a6276-06fd-4748-9222-63df581f8ac6"},"vehicle_type_id":"4","last_reported":1746562325,"current_range_meters":16400,"station_id":"ce4bgih2rcd13ifvqba0","pricing_plan_id":"cebpf4jnsgd1na2vs0mg"},{"bike_id":"e2d95a62-27f2-483b-871e-05c84b46aaa8","system_id":"levelo_inurba_marseille","lat":43.30785,"lon":5.43537,"is_reserved":false,"is_disabled":false,"rental_uris":{"android":"levelo://app?vid=e2d95a62-27f2-483b-871e-05c84b46aaa8","ios":"levelo://app?vid=e2d95a62-27f2-483b-871e-05c84b46aaa8"},"vehicle_type_id":"4","last_reported":1746562325,"current_range_meters":16400,"station_id":"ce4bhph2rcd13ifvqheg","pricing_plan_id":"cebpf4jnsgd1na2vs0mg"},{"bike_id":"d5f4d6c7-d4ff-495e-aff8-7b3ac9e49ed5","system_id":"levelo_inurba_marseille","lat":43.28102,"lon":5.37842,"is_reserved":false,"is_disabled":false,"rental_uris":{"android":"levelo://app?vid=d5f4d6c7-d4ff-495e-aff8-7b3ac9e49ed5","ios":"levelo://app?vid=d5f4d6c7-d4ff-495e-aff8-7b3ac9e49ed5"},"vehicle_type_id":"4","last_reported":1746562325,"current_range_meters":16800,"station_id":"ce4bha12rcd13ifvqee0","pricing_plan_id":"cebpf4jnsgd1na2vs0mg"},{"bike_id":"c1ea240d-5dfc-4daf-8645-5bad5952f855","system_id":"levelo_inurba_marseille","lat":43.28642,"lon":5.35111,"is_reserved":false,"is_disabled":false,"rental_uris":{"android":"levelo://app?vid=c1ea240d-5dfc-4daf-8645-5bad5952f855","ios":"levelo://app?vid=c1ea240d-5dfc-4daf-8645-5bad5952f855"},"vehicle_type_id":"4","last_reported":1746562325,"current_range_meters":16800,"station_id":"ce4bhch2rcd13ifvqeug","pricing_plan_id":"cebpf4jnsgd1na2vs0mg"},{"bike_id":"c52a7478-d4d3-4f4f-b33c-5ec6af3327f7","system_id":"levelo_inurba_marseille","lat":43.28275,"lon":5.35071,"is_reserved":false,"is_disabled":false,"rental_uris":{"android":"levelo://app?vid=c52a7478-d4d3-4f4f-b33c-5ec6af3327f7","ios":"levelo://app?vid=c52a7478-d4d3-4f4f-b33c-5ec6af3327f7"},"vehicle_type_id":"4","last_reported":1746562325,"current_range_meters":16800,"station_id":"ce4bhbp2rcd13ifvqerg","pricing_plan_id":"cebpf4jnsgd1na2vs0mg"},{"bike_id":"8846df0e-6229-4ff4-8b0f-0a168920729a","system_id":"levelo_inurba_marseille","lat":43.2621,"lon":5.40454,"is_reserved":false,"is_disabled":false,"rental_uris":{"android":"levelo://app?vid=8846df0e-6229-4ff4-8b0f-0a168920729a","ios":"levelo://app?vid=8846df0e-6229-4ff4-8b0f-0a168920729a"},"vehicle_type_id":"4","last_reported":1746562325,"current_range_meters":16800,"station_id":"ce4bhmh2rcd13ifvqgmg","pricing_plan_id":"cebpf4jnsgd1na2vs0mg"},{"bike_id":"0bea8e56-fe44-47ea-807c-3f60a9a6cc0a","system_id":"levelo_inurba_marseille","lat":43.25861,"lon":5.399,"is_reserved":false,"is_disabled":false,"rental_uris":{"android":"levelo://app?vid=0bea8e56-fe44-47ea-807c-3f60a9a6cc0a","ios":"levelo://app?vid=0bea8e56-fe44-47ea-807c-3f60a9a6cc0a"},"vehicle_type_id":"4","last_reported":1746562325,"current_range_meters":16800,"station_id":"ce4bhl92rcd13ifvqghg","pricing_plan_id":"cebpf4jnsgd1na2vs0mg"},{"bike_id":"11abe94b-e85e-478a-9094-6d825b77d58b","system_id":"levelo_inurba_marseille","lat":43.32029,"lon":5.38096,"is_reserved":false,"is_disabled":false,"rental_uris":{"android":"levelo://app?vid=11abe94b-e85e-478a-9094-6d825b77d58b","ios":"levelo://app?vid=11abe94b-e85e-478a-9094-6d825b77d58b"},"vehicle_type_id":"4","last_reported":1746562325,"current_range_meters":16800,"station_id":"","pricing_plan_id":"cebpf4jnsgd1na2vs0mg"},{"bike_id":"a3ff32c8-23b7-4fe1-b550-48c630d647d6","system_id":"levelo_inurba_marseille","lat":43.30122,"lon":5.39909,"is_reserved":false,"is_disabled":false,"rental_uris":{"android":"levelo://app?vid=a3ff32c8-23b7-4fe1-b550-48c630d647d6","ios":"levelo://app?vid=a3ff32c8-23b7-4fe1-b550-48c630d647d6"},"vehicle_type_id":"4","last_reported":1746562325,"current_range_meters":16800,"station_id":"ce4bh0h2rcd13ifvqd40","pricing_plan_id":"cebpf4jnsgd1na2vs0mg"},{"bike_id":"cab3fb7b-47c3-404c-a8dc-80f54b39d4cd","system_id":"levelo_inurba_marseille","lat":43.29533,"lon":5.3902,"is_reserved":false,"is_disabled":true,"rental_uris":{"android":"levelo://app?vid=cab3fb7b-47c3-404c-a8dc-80f54b39d4cd","ios":"levelo://app?vid=cab3fb7b-47c3-404c-a8dc-80f54b39d4cd"},"vehicle_type_id":"4","last_reported":1746562325,"current_range_meters":16800,"station_id":"ce4bh3p2rcd13ifvqdp0","pricing_plan_id":"cebpf4jnsgd1na2vs0mg"},{"bike_id":"d225b036-ceb2-4e04-9c1c-ca069da40902","system_id":"levelo_inurba_marseille","lat":43.30332,"lon":5.40451,"is_reserved":false,"is_disabled":false,"rental_uris":{"android":"levelo://app?vid=d225b036-ceb2-4e04-9c1c-ca069da40902","ios":"levelo://app?vid=d225b036-ceb2-4e04-9c1c-ca069da40902"},"vehicle_type_id":"4","last_reported":1746562325,"current_range_meters":16800,"station_id":"ce4bh012rcd13ifvqd10","pricing_plan_id":"cebpf4jnsgd1na2vs0mg"},{"bike_id":"99eeff29-fc2f-4687-8dc7-d8505cafdca3","system_id":"levelo_inurba_marseille","lat":43.28077,"lon":5.39674,"is_reserved":false,"is_disabled":false,"rental_uris":{"android":"levelo://app?vid=99eeff29-fc2f-4687-8dc7-d8505cafdca3","ios":"levelo://app?vid=99eeff29-fc2f-4687-8dc7-d8505cafdca3"},"vehicle_type_id":"4","last_reported":1746562325,"current_range_meters":17200,"station_id":"ce4bho12rcd13ifvqh2g","pricing_plan_id":"cebpf4jnsgd1na2vs0mg"},{"bike_id":"1632e515-d2c2-4b1a-b02c-8e13bad98299","system_id":"levelo_inurba_marseille","lat":43.29603,"lon":5.381,"is_reserved":false,"is_disabled":false,"rental_uris":{"android":"levelo://app?vid=1632e515-d2c2-4b1a-b02c-8e13bad98299","ios":"levelo://app?vid=1632e515-d2c2-4b1a-b02c-8e13bad98299"},"vehicle_type_id":"4","last_reported":1746562325,"current_range_meters":17200,"station_id":"ce4bgl12rcd13ifvqbo0","pricing_plan_id":"cebpf4jnsgd1na2vs0mg"},{"bike_id":"e8641800-b5a4-4856-b1c9-d97480f023ee","system_id":"levelo_inurba_marseille","lat":43.27669,"lon":5.38879,"is_reserved":false,"is_disabled":false,"rental_uris":{"android":"levelo://app?vid=e8641800-b5a4-4856-b1c9-d97480f023ee","ios":"levelo://app?vid=e8641800-b5a4-4856-b1c9-d97480f023ee"},"vehicle_type_id":"4","last_reported":1746562325,"current_range_meters":17200,"station_id":"ce4bhi12rcd13ifvqfo0","pricing_plan_id":"cebpf4jnsgd1na2vs0mg"},{"bike_id":"fdf6e58c-1804-4551-a077-0288af349026","system_id":"levelo_inurba_marseille","lat":43.30467,"lon":5.39696,"is_reserved":false,"is_disabled":false,"rental_uris":{"android":"levelo://app?vid=fdf6e58c-1804-4551-a077-0288af349026","ios":"levelo://app?vid=fdf6e58c-1804-4551-a077-0288af349026"},"vehicle_type_id":"4","last_reported":1746562325,"current_range_meters":17200,"station_id":"ce4bh092rcd13ifvqd20","pricing_plan_id":"cebpf4jnsgd1na2vs0mg"},{"bike_id":"2219bbd0-95e5-45eb-9f51-892d1f2b9e9e","system_id":"levelo_inurba_marseille","lat":43.31083,"lon":5.4243,"is_reserved":false,"is_disabled":false,"rental_uris":{"android":"levelo://app?vid=2219bbd0-95e5-45eb-9f51-892d1f2b9e9e","ios":"levelo://app?vid=2219bbd0-95e5-45eb-9f51-892d1f2b9e9e"},"vehicle_type_id":"4","last_reported":1746562325,"current_range_meters":17200,"station_id":"ce4bhp92rcd13ifvqhag","pricing_plan_id":"cebpf4jnsgd1na2vs0mg"},{"bike_id":"ac700e2e-c129-4f82-a3c3-f628077933a6","system_id":"levelo_inurba_marseille","lat":43.21202,"lon":5.35069,"is_reserved":false,"is_disabled":false,"rental_uris":{"android":"levelo://app?vid=ac700e2e-c129-4f82-a3c3-f628077933a6","ios":"levelo://app?vid=ac700e2e-c129-4f82-a3c3-f628077933a6"},"vehicle_type_id":"4","last_reported":1746562325,"current_range_meters":17200,"station_id":"st_cvj6sg6p6f1abm77japg","pricing_plan_id":"cebpf4jnsgd1na2vs0mg"},{"bike_id":"17fe3a36-b6c1-421e-8f2b-5e1423fd32bb","system_id":"levelo_inurba_marseille","lat":43.29522,"lon":5.3904,"is_reserved":false,"is_disabled":false,"rental_uris":{"android":"levelo://app?vid=17fe3a36-b6c1-421e-8f2b-5e1423fd32bb","ios":"levelo://app?vid=17fe3a36-b6c1-421e-8f2b-5e1423fd32bb"},"vehicle_type_id":"4","last_reported":1746562325,"current_range_meters":17600,"station_id":"ce4bh3p2rcd13ifvqdp0","pricing_plan_id":"cebpf4jnsgd1na2vs0mg"},{"bike_id":"ea0384f6-cdb1-4645-82e4-aed10e1105db","system_id":"levelo_inurba_marseille","lat":43.27893,"lon":5.38013,"is_reserved":false,"is_disabled":false,"rental_uris":{"android":"levelo://app?vid=ea0384f6-cdb1-4645-82e4-aed10e1105db","ios":"levelo://app?vid=ea0384f6-cdb1-4645-82e4-aed10e1105db"},"vehicle_type_id":"4","last_reported":1746562325,"current_range_meters":17600,"station_id":"ce4bhf92rcd13ifvqf50","pricing_plan_id":"cebpf4jnsgd1na2vs0mg"},{"bike_id":"c01da6e5-a67b-43da-9bf4-9c34b9326ad0","system_id":"levelo_inurba_marseille","lat":43.29294,"lon":5.36825,"is_reserved":false,"is_disabled":true,"rental_uris":{"android":"levelo://app?vid=c01da6e5-a67b-43da-9bf4-9c34b9326ad0","ios":"levelo://app?vid=c01da6e5-a67b-43da-9bf4-9c34b9326ad0"},"vehicle_type_id":"4","last_reported":1746562325,"current_range_meters":17600,"station_id":"ce4bhbp2rcd13ifvqesg","pricing_plan_id":"cebpf4jnsgd1na2vs0mg"},{"bike_id":"cb349f0e-4ffd-48c0-8e50-21cbad52f9e1","system_id":"levelo_inurba_marseille","lat":43.30418,"lon":5.38873,"is_reserved":false,"is_disabled":false,"rental_uris":{"android":"levelo://app?vid=cb349f0e-4ffd-48c0-8e50-21cbad52f9e1","ios":"levelo://app?vid=cb349f0e-4ffd-48c0-8e50-21cbad52f9e1"},"vehicle_type_id":"4","last_reported":1746562325,"current_range_meters":17600,"station_id":"ce4bgk12rcd13ifvqbi0","pricing_plan_id":"cebpf4jnsgd1na2vs0mg"},{"bike_id":"8811a298-f7d3-480e-90e6-393f3b83a0a5","system_id":"levelo_inurba_marseille","lat":43.29909,"lon":5.38137,"is_reserved":false,"is_disabled":false,"rental_uris":{"android":"levelo://app?vid=8811a298-f7d3-480e-90e6-393f3b83a0a5","ios":"levelo://app?vid=8811a298-f7d3-480e-90e6-393f3b83a0a5"},"vehicle_type_id":"4","last_reported":1746562325,"current_range_meters":17600,"station_id":"ce4bgj12rcd13ifvqbc0","pricing_plan_id":"cebpf4jnsgd1na2vs0mg"},{"bike_id":"2d3705dd-b1ef-406f-9d4f-efae5a05e415","system_id":"levelo_inurba_marseille","lat":43.27969,"lon":5.38736,"is_reserved":false,"is_disabled":false,"rental_uris":{"android":"levelo://app?vid=2d3705dd-b1ef-406f-9d4f-efae5a05e415","ios":"levelo://app?vid=2d3705dd-b1ef-406f-9d4f-efae5a05e415"},"vehicle_type_id":"4","last_reported":1746562325,"current_range_meters":17600,"station_id":"ce4bhg12rcd13ifvqf80","pricing_plan_id":"cebpf4jnsgd1na2vs0mg"},{"bike_id":"3944ecc6-be28-4638-8e42-14d3740edc12","system_id":"levelo_inurba_marseille","lat":43.28469,"lon":5.38424,"is_reserved":false,"is_disabled":false,"rental_uris":{"android":"levelo://app?vid=3944ecc6-be28-4638-8e42-14d3740edc12","ios":"levelo://app?vid=3944ecc6-be28-4638-8e42-14d3740edc12"},"vehicle_type_id":"4","last_reported":1746562325,"current_range_meters":17600,"station_id":"ce4bh512rcd13ifvqe3g","pricing_plan_id":"cebpf4jnsgd1na2vs0mg"},{"bike_id":"cad73dbd-538c-461e-8f5d-9f9cb63b32c3","system_id":"levelo_inurba_marseille","lat":43.21191,"lon":5.35106,"is_reserved":false,"is_disabled":true,"rental_uris":{"android":"levelo://app?vid=cad73dbd-538c-461e-8f5d-9f9cb63b32c3","ios":"levelo://app?vid=cad73dbd-538c-461e-8f5d-9f9cb63b32c3"},"vehicle_type_id":"4","last_reported":1746562325,"current_range_meters":17600,"station_id":"st_cvj6sg6p6f1abm77japg","pricing_plan_id":"cebpf4jnsgd1na2vs0mg"},{"bike_id":"f45321ad-a54b-404d-981b-802d3c9e0607","system_id":"levelo_inurba_marseille","lat":43.21206,"lon":5.35081,"is_reserved":false,"is_disabled":true,"rental_uris":{"android":"levelo://app?vid=f45321ad-a54b-404d-981b-802d3c9e0607","ios":"levelo://app?vid=f45321ad-a54b-404d-981b-802d3c9e0607"},"vehicle_type_id":"4","last_reported":1746562325,"current_range_meters":18000,"station_id":"st_cvj6sg6p6f1abm77japg","pricing_plan_id":"cebpf4jnsgd1na2vs0mg"},{"bike_id":"c4ceeb31-6969-47f9-be42-1403afe3c0f7","system_id":"levelo_inurba_marseille","lat":43.33737,"lon":5.39189,"is_reserved":false,"is_disabled":false,"rental_uris":{"android":"levelo://app?vid=c4ceeb31-6969-47f9-be42-1403afe3c0f7","ios":"levelo://app?vid=c4ceeb31-6969-47f9-be42-1403afe3c0f7"},"vehicle_type_id":"4","last_reported":1746562325,"current_range_meters":18000,"station_id":"ce4bhr92rcd13ifvqhsg","pricing_plan_id":"cebpf4jnsgd1na2vs0mg"},{"bike_id":"d5100ce8-dc7c-4305-896a-12a1cb76d6ad","system_id":"levelo_inurba_marseille","lat":43.298777,"lon":5.39726,"is_reserved":false,"is_disabled":false,"rental_uris":{"android":"levelo://app?vid=d5100ce8-dc7c-4305-896a-12a1cb76d6ad","ios":"levelo://app?vid=d5100ce8-dc7c-4305-896a-12a1cb76d6ad"},"vehicle_type_id":"4","last_reported":1746562325,"current_range_meters":18000,"station_id":"ce4bh0h2rcd13ifvqd50","pricing_plan_id":"cebpf4jnsgd1na2vs0mg"},{"bike_id":"1929d82c-7d56-45b6-bc9f-656b8fd07b9a","system_id":"levelo_inurba_marseille","lat":43.29418,"lon":5.38626,"is_reserved":false,"is_disabled":false,"rental_uris":{"android":"levelo://app?vid=1929d82c-7d56-45b6-bc9f-656b8fd07b9a","ios":"levelo://app?vid=1929d82c-7d56-45b6-bc9f-656b8fd07b9a"},"vehicle_type_id":"4","last_reported":1746562325,"current_range_meters":18000,"station_id":"ce4bh2h2rcd13ifvqdh0","pricing_plan_id":"cebpf4jnsgd1na2vs0mg"},{"bike_id":"4fa44a4d-c738-41bc-9022-213fbeae4065","system_id":"levelo_inurba_marseille","lat":43.23186,"lon":5.40005,"is_reserved":false,"is_disabled":false,"rental_uris":{"android":"levelo://app?vid=4fa44a4d-c738-41bc-9022-213fbeae4065","ios":"levelo://app?vid=4fa44a4d-c738-41bc-9022-213fbeae4065"},"vehicle_type_id":"4","last_reported":1746562325,"current_range_meters":18000,"station_id":"ce4bhn12rcd13ifvqgqg","pricing_plan_id":"cebpf4jnsgd1na2vs0mg"},{"bike_id":"5b7c813e-8a01-4cab-bedc-2fef8b455485","system_id":"levelo_inurba_marseille","lat":43.29437,"lon":5.386,"is_reserved":false,"is_disabled":true,"rental_uris":{"android":"levelo://app?vid=5b7c813e-8a01-4cab-bedc-2fef8b455485","ios":"levelo://app?vid=5b7c813e-8a01-4cab-bedc-2fef8b455485"},"vehicle_type_id":"4","last_reported":1746562325,"current_range_meters":18800,"station_id":"ce4bh2h2rcd13ifvqdh0","pricing_plan_id":"cebpf4jnsgd1na2vs0mg"},{"bike_id":"fd76d4ca-f3ad-4fc8-b8d8-1513582aff5f","system_id":"levelo_inurba_marseille","lat":43.2293,"lon":5.35379,"is_reserved":false,"is_disabled":false,"rental_uris":{"android":"levelo://app?vid=fd76d4ca-f3ad-4fc8-b8d8-1513582aff5f","ios":"levelo://app?vid=fd76d4ca-f3ad-4fc8-b8d8-1513582aff5f"},"vehicle_type_id":"4","last_reported":1746562325,"current_range_meters":18800,"station_id":"cpo3532slgdg3j2ikp40","pricing_plan_id":"cebpf4jnsgd1na2vs0mg"},{"bike_id":"86aac975-5efa-4471-b431-8ed509ade609","system_id":"levelo_inurba_marseille","lat":43.28621,"lon":5.35099,"is_reserved":false,"is_disabled":false,"rental_uris":{"android":"levelo://app?vid=86aac975-5efa-4471-b431-8ed509ade609","ios":"levelo://app?vid=86aac975-5efa-4471-b431-8ed509ade609"},"vehicle_type_id":"4","last_reported":1746562325,"current_range_meters":19200,"station_id":"ce4bhch2rcd13ifvqeug","pricing_plan_id":"cebpf4jnsgd1na2vs0mg"},{"bike_id":"034f535c-17b3-4796-a376-287b2ebee2bc","system_id":"levelo_inurba_marseille","lat":43.24665,"lon":5.38167,"is_reserved":false,"is_disabled":false,"rental_uris":{"android":"levelo://app?vid=034f535c-17b3-4796-a376-287b2ebee2bc","ios":"levelo://app?vid=034f535c-17b3-4796-a376-287b2ebee2bc"},"vehicle_type_id":"4","last_reported":1746562325,"current_range_meters":19200,"station_id":"ce4bhih2rcd13ifvqfr0","pricing_plan_id":"cebpf4jnsgd1na2vs0mg"},{"bike_id":"45e935bb-12b3-487a-8c03-8e3cc190c27e","system_id":"levelo_inurba_marseille","lat":43.29781,"lon":5.39359,"is_reserved":false,"is_disabled":false,"rental_uris":{"android":"levelo://app?vid=45e935bb-12b3-487a-8c03-8e3cc190c27e","ios":"levelo://app?vid=45e935bb-12b3-487a-8c03-8e3cc190c27e"},"vehicle_type_id":"4","last_reported":1746562325,"current_range_meters":19600,"station_id":"chh1huq6cuj3fo74tm60","pricing_plan_id":"cebpf4jnsgd1na2vs0mg"},{"bike_id":"27a2e3a4-31c5-4dc4-9c3a-4d305aecb48c","system_id":"levelo_inurba_marseille","lat":43.29364,"lon":5.37847,"is_reserved":false,"is_disabled":false,"rental_uris":{"android":"levelo://app?vid=27a2e3a4-31c5-4dc4-9c3a-4d305aecb48c","ios":"levelo://app?vid=27a2e3a4-31c5-4dc4-9c3a-4d305aecb48c"},"vehicle_type_id":"4","last_reported":1746562325,"current_range_meters":19200,"station_id":"ce4bgjh2rcd13ifvqbf0","pricing_plan_id":"cebpf4jnsgd1na2vs0mg"},{"bike_id":"4717f207-ccd5-4fee-9457-32d745bce925","system_id":"levelo_inurba_marseille","lat":43.30125,"lon":5.39866,"is_reserved":false,"is_disabled":false,"rental_uris":{"android":"levelo://app?vid=4717f207-ccd5-4fee-9457-32d745bce925","ios":"levelo://app?vid=4717f207-ccd5-4fee-9457-32d745bce925"},"vehicle_type_id":"4","last_reported":1746562325,"current_range_meters":19600,"station_id":"ce4bh0h2rcd13ifvqd40","pricing_plan_id":"cebpf4jnsgd1na2vs0mg"},{"bike_id":"7e450b57-8cdc-4dbc-8780-1123f3427ded","system_id":"levelo_inurba_marseille","lat":43.24647,"lon":5.38901,"is_reserved":false,"is_disabled":false,"rental_uris":{"android":"levelo://app?vid=7e450b57-8cdc-4dbc-8780-1123f3427ded","ios":"levelo://app?vid=7e450b57-8cdc-4dbc-8780-1123f3427ded"},"vehicle_type_id":"4","last_reported":1746562325,"current_range_meters":19600,"station_id":"ce4bhg12rcd13ifvqf60","pricing_plan_id":"cebpf4jnsgd1na2vs0mg"},{"bike_id":"7254baed-a185-47a1-ad5c-684a201e2779","system_id":"levelo_inurba_marseille","lat":43.30138,"lon":5.39863,"is_reserved":false,"is_disabled":false,"rental_uris":{"android":"levelo://app?vid=7254baed-a185-47a1-ad5c-684a201e2779","ios":"levelo://app?vid=7254baed-a185-47a1-ad5c-684a201e2779"},"vehicle_type_id":"4","last_reported":1746562325,"current_range_meters":19600,"station_id":"ce4bh0h2rcd13ifvqd40","pricing_plan_id":"cebpf4jnsgd1na2vs0mg"},{"bike_id":"42f527a4-0cef-4960-9a55-02afb057f1ee","system_id":"levelo_inurba_marseille","lat":43.294253,"lon":5.386205,"is_reserved":false,"is_disabled":false,"rental_uris":{"android":"levelo://app?vid=42f527a4-0cef-4960-9a55-02afb057f1ee","ios":"levelo://app?vid=42f527a4-0cef-4960-9a55-02afb057f1ee"},"vehicle_type_id":"4","last_reported":1746562325,"current_range_meters":19600,"station_id":"ce4bh2h2rcd13ifvqdh0","pricing_plan_id":"cebpf4jnsgd1na2vs0mg"},{"bike_id":"ba8e483a-c928-43cd-90f5-5ffddcfdf70d","system_id":"levelo_inurba_marseille","lat":43.28362,"lon":5.38098,"is_reserved":false,"is_disabled":false,"rental_uris":{"android":"levelo://app?vid=ba8e483a-c928-43cd-90f5-5ffddcfdf70d","ios":"levelo://app?vid=ba8e483a-c928-43cd-90f5-5ffddcfdf70d"},"vehicle_type_id":"4","last_reported":1746562325,"current_range_meters":20000,"station_id":"ce4bh412rcd13ifvqdr0","pricing_plan_id":"cebpf4jnsgd1na2vs0mg"},{"bike_id":"0230824f-40df-4ce5-9fa0-65ba63192f07","system_id":"levelo_inurba_marseille","lat":43.23195,"lon":5.35553,"is_reserved":false,"is_disabled":false,"rental_uris":{"android":"levelo://app?vid=0230824f-40df-4ce5-9fa0-65ba63192f07","ios":"levelo://app?vid=0230824f-40df-4ce5-9fa0-65ba63192f07"},"vehicle_type_id":"4","last_reported":1746562325,"current_range_meters":20000,"station_id":"ce4bhu92rcd13ifvqi70","pricing_plan_id":"cebpf4jnsgd1na2vs0mg"},{"bike_id":"6be6cac9-6e3f-4178-8a9c-2937360a3faa","system_id":"levelo_inurba_marseille","lat":43.30887,"lon":5.39657,"is_reserved":false,"is_disabled":false,"rental_uris":{"android":"levelo://app?vid=6be6cac9-6e3f-4178-8a9c-2937360a3faa","ios":"levelo://app?vid=6be6cac9-6e3f-4178-8a9c-2937360a3faa"},"vehicle_type_id":"4","last_reported":1746562325,"current_range_meters":20000,"station_id":"ce4bh012rcd13ifvqcv0","pricing_plan_id":"cebpf4jnsgd1na2vs0mg"},{"bike_id":"dcb156cb-d9f2-4dc1-9364-38b7fa9ff290","system_id":"levelo_inurba_marseille","lat":43.32287,"lon":5.38279,"is_reserved":false,"is_disabled":false,"rental_uris":{"android":"levelo://app?vid=dcb156cb-d9f2-4dc1-9364-38b7fa9ff290","ios":"levelo://app?vid=dcb156cb-d9f2-4dc1-9364-38b7fa9ff290"},"vehicle_type_id":"4","last_reported":1746562325,"current_range_meters":20000,"station_id":"ce4bhr12rcd13ifvqhqg","pricing_plan_id":"cebpf4jnsgd1na2vs0mg"},{"bike_id":"c7105b3e-81f0-4cc5-a710-2e71caa60471","system_id":"levelo_inurba_marseille","lat":43.29439,"lon":5.39756,"is_reserved":false,"is_disabled":true,"rental_uris":{"android":"levelo://app?vid=c7105b3e-81f0-4cc5-a710-2e71caa60471","ios":"levelo://app?vid=c7105b3e-81f0-4cc5-a710-2e71caa60471"},"vehicle_type_id":"4","last_reported":1746562325,"current_range_meters":20000,"station_id":"ce4bh3h2rcd13ifvqdo0","pricing_plan_id":"cebpf4jnsgd1na2vs0mg"},{"bike_id":"87854bf8-c812-4587-986d-742111c0adb4","system_id":"levelo_inurba_marseille","lat":43.30928,"lon":5.40145,"is_reserved":false,"is_disabled":false,"rental_uris":{"android":"levelo://app?vid=87854bf8-c812-4587-986d-742111c0adb4","ios":"levelo://app?vid=87854bf8-c812-4587-986d-742111c0adb4"},"vehicle_type_id":"4","last_reported":1746562325,"current_range_meters":20400,"station_id":"ce4bgvp2rcd13ifvqct0","pricing_plan_id":"cebpf4jnsgd1na2vs0mg"},{"bike_id":"3488de24-d248-4ccb-be5b-0f7cd36a3f68","system_id":"levelo_inurba_marseille","lat":43.2468,"lon":5.38167,"is_reserved":false,"is_disabled":false,"rental_uris":{"android":"levelo://app?vid=3488de24-d248-4ccb-be5b-0f7cd36a3f68","ios":"levelo://app?vid=3488de24-d248-4ccb-be5b-0f7cd36a3f68"},"vehicle_type_id":"4","last_reported":1746562325,"current_range_meters":20400,"station_id":"ce4bhih2rcd13ifvqfr0","pricing_plan_id":"cebpf4jnsgd1na2vs0mg"},{"bike_id":"63af6f78-57d5-4f3d-9494-a6d72ff84dc1","system_id":"levelo_inurba_marseille","lat":43.21188,"lon":5.35079,"is_reserved":false,"is_disabled":false,"rental_uris":{"android":"levelo://app?vid=63af6f78-57d5-4f3d-9494-a6d72ff84dc1","ios":"levelo://app?vid=63af6f78-57d5-4f3d-9494-a6d72ff84dc1"},"vehicle_type_id":"4","last_reported":1746562325,"current_range_meters":20400,"station_id":"st_cvj6sg6p6f1abm77japg","pricing_plan_id":"cebpf4jnsgd1na2vs0mg"},{"bike_id":"747da85d-16f7-46ac-bee6-c3f3a0c126c7","system_id":"levelo_inurba_marseille","lat":43.31533,"lon":5.38031,"is_reserved":false,"is_disabled":false,"rental_uris":{"android":"levelo://app?vid=747da85d-16f7-46ac-bee6-c3f3a0c126c7","ios":"levelo://app?vid=747da85d-16f7-46ac-bee6-c3f3a0c126c7"},"vehicle_type_id":"4","last_reported":1746562325,"current_range_meters":20400,"station_id":"ce4bhsp2rcd13ifvqi50","pricing_plan_id":"cebpf4jnsgd1na2vs0mg"},{"bike_id":"742142f8-c2e6-4841-9392-af99db622c07","system_id":"levelo_inurba_marseille","lat":43.29104,"lon":5.38173,"is_reserved":false,"is_disabled":false,"rental_uris":{"android":"levelo://app?vid=742142f8-c2e6-4841-9392-af99db622c07","ios":"levelo://app?vid=742142f8-c2e6-4841-9392-af99db622c07"},"vehicle_type_id":"4","last_reported":1746562325,"current_range_meters":20400,"station_id":"ce4bh512rcd13ifvqe2g","pricing_plan_id":"cebpf4jnsgd1na2vs0mg"},{"bike_id":"32ee8b05-a6ca-4fb9-b7d4-b1ac37eaade4","system_id":"levelo_inurba_marseille","lat":43.27941,"lon":5.41053,"is_reserved":false,"is_disabled":false,"rental_uris":{"android":"levelo://app?vid=32ee8b05-a6ca-4fb9-b7d4-b1ac37eaade4","ios":"levelo://app?vid=32ee8b05-a6ca-4fb9-b7d4-b1ac37eaade4"},"vehicle_type_id":"4","last_reported":1746562325,"current_range_meters":20400,"station_id":"ce4bhnp2rcd13ifvqh0g","pricing_plan_id":"cebpf4jnsgd1na2vs0mg"},{"bike_id":"4a734033-5540-4dbe-af34-d701958d9d43","system_id":"levelo_inurba_marseille","lat":43.2978,"lon":5.39353,"is_reserved":false,"is_disabled":false,"rental_uris":{"android":"levelo://app?vid=4a734033-5540-4dbe-af34-d701958d9d43","ios":"levelo://app?vid=4a734033-5540-4dbe-af34-d701958d9d43"},"vehicle_type_id":"4","last_reported":1746562325,"current_range_meters":20400,"station_id":"chh1huq6cuj3fo74tm60","pricing_plan_id":"cebpf4jnsgd1na2vs0mg"},{"bike_id":"4d4a19f0-3f3c-4767-9a4d-275e0e20e723","system_id":"levelo_inurba_marseille","lat":43.29788,"lon":5.39329,"is_reserved":false,"is_disabled":false,"rental_uris":{"android":"levelo://app?vid=4d4a19f0-3f3c-4767-9a4d-275e0e20e723","ios":"levelo://app?vid=4d4a19f0-3f3c-4767-9a4d-275e0e20e723"},"vehicle_type_id":"4","last_reported":1746562325,"current_range_meters":20800,"station_id":"chh1huq6cuj3fo74tm60","pricing_plan_id":"cebpf4jnsgd1na2vs0mg"},{"bike_id":"c44042a3-ec10-4032-ac24-3c36f0f1f95b","system_id":"levelo_inurba_marseille","lat":43.28723,"lon":5.37923,"is_reserved":false,"is_disabled":false,"rental_uris":{"android":"levelo://app?vid=c44042a3-ec10-4032-ac24-3c36f0f1f95b","ios":"levelo://app?vid=c44042a3-ec10-4032-ac24-3c36f0f1f95b"},"vehicle_type_id":"4","last_reported":1746562325,"current_range_meters":20800,"station_id":"ce4bh9p2rcd13ifvqec0","pricing_plan_id":"cebpf4jnsgd1na2vs0mg"},{"bike_id":"8a8fd79a-1a57-4265-824d-bac8064bcc57","system_id":"levelo_inurba_marseille","lat":43.30416,"lon":5.39751,"is_reserved":false,"is_disabled":false,"rental_uris":{"android":"levelo://app?vid=8a8fd79a-1a57-4265-824d-bac8064bcc57","ios":"levelo://app?vid=8a8fd79a-1a57-4265-824d-bac8064bcc57"},"vehicle_type_id":"4","last_reported":1746562325,"current_range_meters":20800,"station_id":"ce4bh092rcd13ifvqd20","pricing_plan_id":"cebpf4jnsgd1na2vs0mg"},{"bike_id":"528ceadf-bfe5-4830-a82a-61aba43b864d","system_id":"levelo_inurba_marseille","lat":43.28347,"lon":5.38101,"is_reserved":false,"is_disabled":false,"rental_uris":{"android":"levelo://app?vid=528ceadf-bfe5-4830-a82a-61aba43b864d","ios":"levelo://app?vid=528ceadf-bfe5-4830-a82a-61aba43b864d"},"vehicle_type_id":"4","last_reported":1746562325,"current_range_meters":20800,"station_id":"ce4bh412rcd13ifvqdr0","pricing_plan_id":"cebpf4jnsgd1na2vs0mg"},{"bike_id":"60689545-5d60-47bd-8c83-dfeb87ae92a6","system_id":"levelo_inurba_marseille","lat":43.23071,"lon":5.35491,"is_reserved":false,"is_disabled":false,"rental_uris":{"android":"levelo://app?vid=60689545-5d60-47bd-8c83-dfeb87ae92a6","ios":"levelo://app?vid=60689545-5d60-47bd-8c83-dfeb87ae92a6"},"vehicle_type_id":"4","last_reported":1746562325,"current_range_meters":20800,"station_id":"cpo3342slgdg3j2ifvpg","pricing_plan_id":"cebpf4jnsgd1na2vs0mg"},{"bike_id":"5fde9f8f-7bfd-45cd-99fd-4f6020eb1e3f","system_id":"levelo_inurba_marseille","lat":43.30797,"lon":5.435361,"is_reserved":false,"is_disabled":false,"rental_uris":{"android":"levelo://app?vid=5fde9f8f-7bfd-45cd-99fd-4f6020eb1e3f","ios":"levelo://app?vid=5fde9f8f-7bfd-45cd-99fd-4f6020eb1e3f"},"vehicle_type_id":"4","last_reported":1746562325,"current_range_meters":20800,"station_id":"ce4bhph2rcd13ifvqheg","pricing_plan_id":"cebpf4jnsgd1na2vs0mg"},{"bike_id":"a6687c7d-c2ee-493b-bc4e-3975bcd3050e","system_id":"levelo_inurba_marseille","lat":43.30932,"lon":5.4014,"is_reserved":false,"is_disabled":false,"rental_uris":{"android":"levelo://app?vid=a6687c7d-c2ee-493b-bc4e-3975bcd3050e","ios":"levelo://app?vid=a6687c7d-c2ee-493b-bc4e-3975bcd3050e"},"vehicle_type_id":"4","last_reported":1746562325,"current_range_meters":20800,"station_id":"ce4bgvp2rcd13ifvqct0","pricing_plan_id":"cebpf4jnsgd1na2vs0mg"},{"bike_id":"455f0b36-09e9-4ada-91ed-a0349c078341","system_id":"levelo_inurba_marseille","lat":43.24652,"lon":5.38896,"is_reserved":false,"is_disabled":false,"rental_uris":{"android":"levelo://app?vid=455f0b36-09e9-4ada-91ed-a0349c078341","ios":"levelo://app?vid=455f0b36-09e9-4ada-91ed-a0349c078341"},"vehicle_type_id":"4","last_reported":1746562325,"current_range_meters":21600,"station_id":"ce4bhg12rcd13ifvqf60","pricing_plan_id":"cebpf4jnsgd1na2vs0mg"},{"bike_id":"d9460a93-d03a-4f86-b0a8-f4536e1168ba","system_id":"levelo_inurba_marseille","lat":43.28844,"lon":5.35861,"is_reserved":false,"is_disabled":false,"rental_uris":{"android":"levelo://app?vid=d9460a93-d03a-4f86-b0a8-f4536e1168ba","ios":"levelo://app?vid=d9460a93-d03a-4f86-b0a8-f4536e1168ba"},"vehicle_type_id":"4","last_reported":1746562325,"current_range_meters":21600,"station_id":"ce4bhb12rcd13ifvqem0","pricing_plan_id":"cebpf4jnsgd1na2vs0mg"},{"bike_id":"81245349-092f-4aaf-a908-4b656a270d55","system_id":"levelo_inurba_marseille","lat":43.30133,"lon":5.39867,"is_reserved":false,"is_disabled":false,"rental_uris":{"android":"levelo://app?vid=81245349-092f-4aaf-a908-4b656a270d55","ios":"levelo://app?vid=81245349-092f-4aaf-a908-4b656a270d55"},"vehicle_type_id":"4","last_reported":1746562325,"current_range_meters":21600,"station_id":"ce4bh0h2rcd13ifvqd40","pricing_plan_id":"cebpf4jnsgd1na2vs0mg"},{"bike_id":"5d5c641c-76e8-4f2b-8904-d98863a077d6","system_id":"levelo_inurba_marseille","lat":43.29425,"lon":5.386106,"is_reserved":false,"is_disabled":true,"rental_uris":{"android":"levelo://app?vid=5d5c641c-76e8-4f2b-8904-d98863a077d6","ios":"levelo://app?vid=5d5c641c-76e8-4f2b-8904-d98863a077d6"},"vehicle_type_id":"4","last_reported":1746562325,"current_range_meters":21600,"station_id":"ce4bh2h2rcd13ifvqdh0","pricing_plan_id":"cebpf4jnsgd1na2vs0mg"},{"bike_id":"a534a9eb-32a5-4cba-a529-c32c5b5d5455","system_id":"levelo_inurba_marseille","lat":43.24803,"lon":5.37454,"is_reserved":false,"is_disabled":false,"rental_uris":{"android":"levelo://app?vid=a534a9eb-32a5-4cba-a529-c32c5b5d5455","ios":"levelo://app?vid=a534a9eb-32a5-4cba-a529-c32c5b5d5455"},"vehicle_type_id":"4","last_reported":1746562325,"current_range_meters":22000,"station_id":"ce4bhgh2rcd13ifvqfb0","pricing_plan_id":"cebpf4jnsgd1na2vs0mg"},{"bike_id":"8204c5a0-45e3-4d5a-bd73-644bd3d970c1","system_id":"levelo_inurba_marseille","lat":43.2866,"lon":5.36353,"is_reserved":false,"is_disabled":false,"rental_uris":{"android":"levelo://app?vid=8204c5a0-45e3-4d5a-bd73-644bd3d970c1","ios":"levelo://app?vid=8204c5a0-45e3-4d5a-bd73-644bd3d970c1"},"vehicle_type_id":"4","last_reported":1746562325,"current_range_meters":22000,"station_id":"ce4bhah2rcd13ifvqej0","pricing_plan_id":"cebpf4jnsgd1na2vs0mg"},{"bike_id":"ac71d482-f6e4-4c92-9b38-3ad13bb22f6d","system_id":"levelo_inurba_marseille","lat":43.29918,"lon":5.37469,"is_reserved":false,"is_disabled":false,"rental_uris":{"android":"levelo://app?vid=ac71d482-f6e4-4c92-9b38-3ad13bb22f6d","ios":"levelo://app?vid=ac71d482-f6e4-4c92-9b38-3ad13bb22f6d"},"vehicle_type_id":"4","last_reported":1746562325,"current_range_meters":22000,"station_id":"ce4bgjh2rcd13ifvqbg0","pricing_plan_id":"cebpf4jnsgd1na2vs0mg"},{"bike_id":"8458efce-0c2b-4a47-882f-6a6c0ea88d73","system_id":"levelo_inurba_marseille","lat":43.29859,"lon":5.38963,"is_reserved":false,"is_disabled":true,"rental_uris":{"android":"levelo://app?vid=8458efce-0c2b-4a47-882f-6a6c0ea88d73","ios":"levelo://app?vid=8458efce-0c2b-4a47-882f-6a6c0ea88d73"},"vehicle_type_id":"4","last_reported":1746562325,"current_range_meters":22400,"station_id":"ce4bh392rcd13ifvqdl0","pricing_plan_id":"cebpf4jnsgd1na2vs0mg"},{"bike_id":"04e54ba0-5fea-4083-b676-1ec16a471605","system_id":"levelo_inurba_marseille","lat":43.24818,"lon":5.37458,"is_reserved":false,"is_disabled":true,"rental_uris":{"android":"levelo://app?vid=04e54ba0-5fea-4083-b676-1ec16a471605","ios":"levelo://app?vid=04e54ba0-5fea-4083-b676-1ec16a471605"},"vehicle_type_id":"4","last_reported":1746562325,"current_range_meters":22400,"station_id":"ce4bhgh2rcd13ifvqfb0","pricing_plan_id":"cebpf4jnsgd1na2vs0mg"},{"bike_id":"3039e0a7-1100-48bd-bae7-a364b5371ad5","system_id":"levelo_inurba_marseille","lat":43.29793,"lon":5.38098,"is_reserved":false,"is_disabled":false,"rental_uris":{"android":"levelo://app?vid=3039e0a7-1100-48bd-bae7-a364b5371ad5","ios":"levelo://app?vid=3039e0a7-1100-48bd-bae7-a364b5371ad5"},"vehicle_type_id":"4","last_reported":1746562325,"current_range_meters":22400,"station_id":"ce4bgip2rcd13ifvqbb0","pricing_plan_id":"cebpf4jnsgd1na2vs0mg"},{"bike_id":"16d1f11f-dfc3-4d5d-b028-3cfbf0842c9a","system_id":"levelo_inurba_marseille","lat":43.30924,"lon":5.40137,"is_reserved":false,"is_disabled":false,"rental_uris":{"android":"levelo://app?vid=16d1f11f-dfc3-4d5d-b028-3cfbf0842c9a","ios":"levelo://app?vid=16d1f11f-dfc3-4d5d-b028-3cfbf0842c9a"},"vehicle_type_id":"4","last_reported":1746562325,"current_range_meters":22800,"station_id":"ce4bgvp2rcd13ifvqct0","pricing_plan_id":"cebpf4jnsgd1na2vs0mg"},{"bike_id":"68e79dbd-c0ba-4570-bd6f-7be0206f4e2f","system_id":"levelo_inurba_marseille","lat":43.2834,"lon":5.38106,"is_reserved":false,"is_disabled":false,"rental_uris":{"android":"levelo://app?vid=68e79dbd-c0ba-4570-bd6f-7be0206f4e2f","ios":"levelo://app?vid=68e79dbd-c0ba-4570-bd6f-7be0206f4e2f"},"vehicle_type_id":"4","last_reported":1746562325,"current_range_meters":22800,"station_id":"ce4bh412rcd13ifvqdr0","pricing_plan_id":"cebpf4jnsgd1na2vs0mg"},{"bike_id":"ba89b47f-3fff-4ba5-94cc-5d0d333f6e5b","system_id":"levelo_inurba_marseille","lat":43.290405,"lon":5.359098,"is_reserved":false,"is_disabled":false,"rental_uris":{"android":"levelo://app?vid=ba89b47f-3fff-4ba5-94cc-5d0d333f6e5b","ios":"levelo://app?vid=ba89b47f-3fff-4ba5-94cc-5d0d333f6e5b"},"vehicle_type_id":"4","last_reported":1746562325,"current_range_meters":22800,"station_id":"ce4bha92rcd13ifvqeg0","pricing_plan_id":"cebpf4jnsgd1na2vs0mg"},{"bike_id":"8afa21a8-d8a4-4bf7-868e-605bb75db5cd","system_id":"levelo_inurba_marseille","lat":43.30431,"lon":5.38877,"is_reserved":false,"is_disabled":false,"rental_uris":{"android":"levelo://app?vid=8afa21a8-d8a4-4bf7-868e-605bb75db5cd","ios":"levelo://app?vid=8afa21a8-d8a4-4bf7-868e-605bb75db5cd"},"vehicle_type_id":"4","last_reported":1746562325,"current_range_meters":22800,"station_id":"ce4bgk12rcd13ifvqbi0","pricing_plan_id":"cebpf4jnsgd1na2vs0mg"},{"bike_id":"cc330a67-93ec-42aa-a6a1-316e0188c175","system_id":"levelo_inurba_marseille","lat":43.27997,"lon":5.40015,"is_reserved":false,"is_disabled":false,"rental_uris":{"android":"levelo://app?vid=cc330a67-93ec-42aa-a6a1-316e0188c175","ios":"levelo://app?vid=cc330a67-93ec-42aa-a6a1-316e0188c175"},"vehicle_type_id":"4","last_reported":1746562325,"current_range_meters":22800,"station_id":"ce4bho92rcd13ifvqh4g","pricing_plan_id":"cebpf4jnsgd1na2vs0mg"},{"bike_id":"3b3e2d4c-308e-4b45-bd52-4133da97876d","system_id":"levelo_inurba_marseille","lat":43.29873,"lon":5.39729,"is_reserved":false,"is_disabled":false,"rental_uris":{"android":"levelo://app?vid=3b3e2d4c-308e-4b45-bd52-4133da97876d","ios":"levelo://app?vid=3b3e2d4c-308e-4b45-bd52-4133da97876d"},"vehicle_type_id":"4","last_reported":1746562325,"current_range_meters":22800,"station_id":"ce4bh0h2rcd13ifvqd50","pricing_plan_id":"cebpf4jnsgd1na2vs0mg"},{"bike_id":"0979447d-5079-43c7-89ae-867ea4b6aa61","system_id":"levelo_inurba_marseille","lat":43.30806,"lon":5.37652,"is_reserved":false,"is_disabled":false,"rental_uris":{"android":"levelo://app?vid=0979447d-5079-43c7-89ae-867ea4b6aa61","ios":"levelo://app?vid=0979447d-5079-43c7-89ae-867ea4b6aa61"},"vehicle_type_id":"4","last_reported":1746562325,"current_range_meters":22800,"station_id":"ce4bgv92rcd13ifvqcq0","pricing_plan_id":"cebpf4jnsgd1na2vs0mg"},{"bike_id":"75a03e5d-04c5-4a8a-be7e-296ec61e69ac","system_id":"levelo_inurba_marseille","lat":43.29918,"lon":5.37475,"is_reserved":false,"is_disabled":false,"rental_uris":{"android":"levelo://app?vid=75a03e5d-04c5-4a8a-be7e-296ec61e69ac","ios":"levelo://app?vid=75a03e5d-04c5-4a8a-be7e-296ec61e69ac"},"vehicle_type_id":"4","last_reported":1746562325,"current_range_meters":22800,"station_id":"ce4bgjh2rcd13ifvqbg0","pricing_plan_id":"cebpf4jnsgd1na2vs0mg"},