{"last_updated":1742691245,"ttl":60,"version":"2.2","data":{"bikes":[{"bike_id":"86eee6a7-1df8-4733-8c2b-58bb36e7d1e1","system_id":"levelo_inurba_marseille","lat":43.26069,"lon":5.39396,"is_reserved":false,"is_disabled":true,"rental_uris":{"android":"levelo://app?vid=86eee6a7-1df8-4733-8c2b-58bb36e7d1e1","ios":"levelo://app?vid=86eee6a7-1df8-4733-8c2b-58bb36e7d1e1"},"vehicle_type_id":"4","last_reported":1742691245,"current_range_meters":2800,"station_id":"ce4bhh92rcd13ifvqfj0","pricing_plan_id":"cebpf4jnsgd1na2vs0mg"},{"bike_id":"eed57d98-2495-4e44-9840-319c4e41a279","system_id":"levelo_inurba_marseille","lat":43.30273,"lon":5.37713,"is_reserved":false,"is_disabled":false,"rental_uris":{"android":"levelo://app?vid=eed57d98-2495-4e44-9840-319c4e41a279","ios":"levelo://app?vid=eed57d98-2495-4e44-9840-319c4e41a279"},"vehicle_type_id":"4","last_reported":1742691245,"current_range_meters":4000,"station_id":"ce4bguh2rcd13ifvqcj0","pricing_plan_id":"cebpf4jnsgd1na2vs0mg"},{"bike_id":"e347fcd1-fecb-4bc4-8bd0-1841f88cba91","system_id":"levelo_inurba_marseille","lat":43.26096,"lon":5.39377,"is_reserved":false,"is_disabled":true,"rental_uris":{"android":"levelo://app?vid=e347fcd1-fecb-4bc4-8bd0-1841f88cba91","ios":"levelo://app?vid=e347fcd1-fecb-4bc4-8bd0-1841f88cba91"},"vehicle_type_id":"4","last_reported":1742691245,"current_range_meters":4000,"station_id":"ce4bhh92rcd13ifvqfj0","pricing_plan_id":"cebpf4jnsgd1na2vs0mg"},{"bike_id":"a25bc692-3427-450b-8e85-76a49579a07d","system_id":"levelo_inurba_marseille","lat":43.28668,"lon":5.36348,"is_reserved":false,"is_disabled":false,"rental_uris":{"android":"levelo://app?vid=a25bc692-3427-450b-8e85-76a49579a07d","ios":"levelo://app?vid=a25bc692-3427-450b-8e85-76a49579a07d"},"vehicle_type_id":"4","last_reported":1742691245,"current_range_meters":4000,"station_id":"ce4bhah2rcd13ifvqej0","pricing_plan_id":"cebpf4jnsgd1na2vs0mg"},{"bike_id":"ba72ec81-4368-4ade-8488-da0a4470d9f7","system_id":"levelo_inurba_marseille","lat":43.27078,"lon":5.40278,"is_reserved":false,"is_disabled":false,"rental_uris":{"android":"levelo://app?vid=ba72ec81-4368-4ade-8488-da0a4470d9f7","ios":"levelo://app?vid=ba72ec81-4368-4ade-8488-da0a4470d9f7"},"vehicle_type_id":"4","last_reported":1742691245,"current_range_meters":4400,"station_id":"ce4bhk92rcd13ifvqgc0","pricing_plan_id":"cebpf4jnsgd1na2vs0mg"},{"bike_id":"346a7fe4-ae0a-44b9-8858-9247c1bdffb0","system_id":"levelo_inurba_marseille","lat":43.291687,"lon":5.375251,"is_reserved":false,"is_disabled":false,"rental_uris":{"android":"levelo://app?vid=346a7fe4-ae0a-44b9-8858-9247c1bdffb0","ios":"levelo://app?vid=346a7fe4-ae0a-44b9-8858-9247c1bdffb0"},"vehicle_type_id":"4","last_reported":1742691245,"current_range_meters":4400,"station_id":"ce4bgi12rcd13ifvqb70","pricing_plan_id":"cebpf4jnsgd1na2vs0mg"},{"bike_id":"527463a9-7cf9-462b-b20a-c7ac15f97e4b","system_id":"levelo_inurba_marseille","lat":43.296,"lon":5.36746,"is_reserved":false,"is_disabled":true,"rental_uris":{"android":"levelo://app?vid=527463a9-7cf9-462b-b20a-c7ac15f97e4b","ios":"levelo://app?vid=527463a9-7cf9-462b-b20a-c7ac15f97e4b"},"vehicle_type_id":"4","last_reported":1742691245,"current_range_meters":4400,"station_id":"ce4bgph2rcd13ifvqc2g","pricing_plan_id":"cebpf4jnsgd1na2vs0mg"},{"bike_id":"10704609-abf7-40a1-934f-2604f5b70bb4","system_id":"levelo_inurba_marseille","lat":43.31166,"lon":5.38729,"is_reserved":false,"is_disabled":false,"rental_uris":{"android":"levelo://app?vid=10704609-abf7-40a1-934f-2604f5b70bb4","ios":"levelo://app?vid=10704609-abf7-40a1-934f-2604f5b70bb4"},"vehicle_type_id":"4","last_reported":1742691245,"current_range_meters":4400,"station_id":"ce4bgv12rcd13ifvqcp0","pricing_plan_id":"cebpf4jnsgd1na2vs0mg"},{"bike_id":"c6d5a9a7-87fc-43ad-a6bb-b96f9bcf688e","system_id":"levelo_inurba_marseille","lat":43.26221,"lon":5.40449,"is_reserved":false,"is_disabled":false,"rental_uris":{"android":"levelo://app?vid=c6d5a9a7-87fc-43ad-a6bb-b96f9bcf688e","ios":"levelo://app?vid=c6d5a9a7-87fc-43ad-a6bb-b96f9bcf688e"},"vehicle_type_id":"4","last_reported":1742691245,"current_range_meters":4400,"station_id":"ce4bhmh2rcd13ifvqgmg","pricing_plan_id":"cebpf4jnsgd1na2vs0mg"},{"bike_id":"b2ec9637-6793-47ee-89a5-5ce3090d1890","system_id":"levelo_inurba_marseille","lat":43.27958,"lon":5.3874,"is_reserved":false,"is_disabled":false,"rental_uris":{"android":"levelo://app?vid=b2ec9637-6793-47ee-89a5-5ce3090d1890","ios":"levelo://app?vid=b2ec9637-6793-47ee-89a5-5ce3090d1890"},"vehicle_type_id":"4","last_reported":1742691245,"current_range_meters":4400,"station_id":"ce4bhm12rcd13ifvqgkg","pricing_plan_id":"cebpf4jnsgd1na2vs0mg"},{"bike_id":"7eebf937-0b49-4cd1-85a7-9726cda1dc51","system_id":"levelo_inurba_marseille","lat":43.29921,"lon":5.37464,"is_reserved":false,"is_disabled":false,"rental_uris":{"android":"levelo://app?vid=7eebf937-0b49-4cd1-85a7-9726cda1dc51","ios":"levelo://app?vid=7eebf937-0b49-4cd1-85a7-9726cda1dc51"},"vehicle_type_id":"4","last_reported":1742691245,"current_range_meters":4800,"station_id":"ce4bgjh2rcd13ifvqbg0","pricing_plan_id":"cebpf4jnsgd1na2vs0mg"},{"bike_id":"11e7d595-231f-479e-8bf8-e2bfbe396b6a","system_id":"levelo_inurba_marseille","lat":43.30098,"lon":5.39077,"is_reserved":false,"is_disabled":false,"rental_uris":{"android":"levelo://app?vid=11e7d595-231f-479e-8bf8-e2bfbe396b6a","ios":"levelo://app?vid=11e7d595-231f-479e-8bf8-e2bfbe396b6a"},"vehicle_type_id":"4","last_reported":1742691245,"current_range_meters":4800,"station_id":"ce4bh192rcd13ifvqdb0","pricing_plan_id":"cebpf4jnsgd1na2vs0mg"},{"bike_id":"f2febf95-7fbd-4da1-9b57-8310b0487b2d","system_id":"levelo_inurba_marseille","lat":43.28147,"lon":5.4263,"is_reserved":false,"is_disabled":false,"rental_uris":{"android":"levelo://app?vid=f2febf95-7fbd-4da1-9b57-8310b0487b2d","ios":"levelo://app?vid=f2febf95-7fbd-4da1-9b57-8310b0487b2d"},"vehicle_type_id":"4","last_reported":1742691245,"current_range_meters":4800,"station_id":"ce4bhnh2rcd13ifvqgug","pricing_plan_id":"cebpf4jnsgd1na2vs0mg"},{"bike_id":"fc7de87c-81ca-483f-96ae-416b6d743078","system_id":"levelo_inurba_marseille","lat":43.29955,"lon":5.36568,"is_reserved":false,"is_disabled":false,"rental_uris":{"android":"levelo://app?vid=fc7de87c-81ca-483f-96ae-416b6d743078","ios":"levelo://app?vid=fc7de87c-81ca-483f-96ae-416b6d743078"},"vehicle_type_id":"4","last_reported":1742691245,"current_range_meters":4800,"station_id":"ce4bgm92rcd13ifvqbr0","pricing_plan_id":"cebpf4jnsgd1na2vs0mg"},{"bike_id":"ae6eeeb8-bde9-4f18-994b-d93c010e793d","system_id":"levelo_inurba_marseille","lat":43.30885,"lon":5.39624,"is_reserved":false,"is_disabled":false,"rental_uris":{"android":"levelo://app?vid=ae6eeeb8-bde9-4f18-994b-d93c010e793d","ios":"levelo://app?vid=ae6eeeb8-bde9-4f18-994b-d93c010e793d"},"vehicle_type_id":"4","last_reported":1742691245,"current_range_meters":5600,"station_id":"ce4bh012rcd13ifvqcv0","pricing_plan_id":"cebpf4jnsgd1na2vs0mg"},{"bike_id":"4e130c3f-1e9a-4e1a-a546-fa10a03dc915","system_id":"levelo_inurba_marseille","lat":43.24735,"lon":5.38106,"is_reserved":false,"is_disabled":false,"rental_uris":{"android":"levelo://app?vid=4e130c3f-1e9a-4e1a-a546-fa10a03dc915","ios":"levelo://app?vid=4e130c3f-1e9a-4e1a-a546-fa10a03dc915"},"vehicle_type_id":"4","last_reported":1742691245,"current_range_meters":5600,"station_id":"","pricing_plan_id":"cebpf4jnsgd1na2vs0mg"},{"bike_id":"c3ebf9dd-7c84-4db4-a1b9-8bfdc8adb9b1","system_id":"levelo_inurba_marseille","lat":43.30602,"lon":5.39357,"is_reserved":false,"is_disabled":false,"rental_uris":{"android":"levelo://app?vid=c3ebf9dd-7c84-4db4-a1b9-8bfdc8adb9b1","ios":"levelo://app?vid=c3ebf9dd-7c84-4db4-a1b9-8bfdc8adb9b1"},"vehicle_type_id":"4","last_reported":1742691245,"current_range_meters":5600,"station_id":"ce4bh0p2rcd13ifvqd80","pricing_plan_id":"cebpf4jnsgd1na2vs0mg"},{"bike_id":"0faeda17-87f9-4308-b369-97acc6c5068b","system_id":"levelo_inurba_marseille","lat":43.24547,"lon":5.3952,"is_reserved":false,"is_disabled":false,"rental_uris":{"android":"levelo://app?vid=0faeda17-87f9-4308-b369-97acc6c5068b","ios":"levelo://app?vid=0faeda17-87f9-4308-b369-97acc6c5068b"},"vehicle_type_id":"4","last_reported":1742691245,"current_range_meters":6000,"station_id":"ce4bhlp2rcd13ifvqgjg","pricing_plan_id":"cebpf4jnsgd1na2vs0mg"},{"bike_id":"b00605e3-b50e-457e-a9d6-59adef6bb5fb","system_id":"levelo_inurba_marseille","lat":43.28148,"lon":5.42646,"is_reserved":false,"is_disabled":false,"rental_uris":{"android":"levelo://app?vid=b00605e3-b50e-457e-a9d6-59adef6bb5fb","ios":"levelo://app?vid=b00605e3-b50e-457e-a9d6-59adef6bb5fb"},"vehicle_type_id":"4","last_reported":1742691245,"current_range_meters":6400,"station_id":"ce4bhnh2rcd13ifvqgug","pricing_plan_id":"cebpf4jnsgd1na2vs0mg"},{"bike_id":"276613ec-3310-44d6-ae3f-44328dd4fd15","system_id":"levelo_inurba_marseille","lat":43.25848,"lon":5.39427,"is_reserved":false,"is_disabled":false,"rental_uris":{"android":"levelo://app?vid=276613ec-3310-44d6-ae3f-44328dd4fd15","ios":"levelo://app?vid=276613ec-3310-44d6-ae3f-44328dd4fd15"},"vehicle_type_id":"4","last_reported":1742691245,"current_range_meters":6400,"station_id":"ce4bhip2rcd13ifvqft0","pricing_plan_id":"cebpf4jnsgd1na2vs0mg"},{"bike_id":"a95b6832-380b-411e-8d5c-eb6a7f4c51cb","system_id":"levelo_inurba_marseille","lat":43.29541,"lon":5.38541,"is_reserved":false,"is_disabled":true,"rental_uris":{"android":"levelo://app?vid=a95b6832-380b-411e-8d5c-eb6a7f4c51cb","ios":"levelo://app?vid=a95b6832-380b-411e-8d5c-eb6a7f4c51cb"},"vehicle_type_id":"4","last_reported":1742691245,"current_range_meters":6400,"station_id":"ce4bgih2rcd13ifvqba0","pricing_plan_id":"cebpf4jnsgd1na2vs0mg"},{"bike_id":"34791d82-19d8-45ce-83b9-0d4f19bcc6ae","system_id":"levelo_inurba_marseille","lat":43.28155,"lon":5.42648,"is_reserved":false,"is_disabled":false,"rental_uris":{"android":"levelo://app?vid=34791d82-19d8-45ce-83b9-0d4f19bcc6ae","ios":"levelo://app?vid=34791d82-19d8-45ce-83b9-0d4f19bcc6ae"},"vehicle_type_id":"4","last_reported":1742691245,"current_range_meters":6400,"station_id":"ce4bhnh2rcd13ifvqgug","pricing_plan_id":"cebpf4jnsgd1na2vs0mg"},{"bike_id":"6bbc9e69-4297-4cab-b99c-af048260b56e","system_id":"levelo_inurba_marseille","lat":43.28152,"lon":5.426449,"is_reserved":false,"is_disabled":false,"rental_uris":{"android":"levelo://app?vid=6bbc9e69-4297-4cab-b99c-af048260b56e","ios":"levelo://app?vid=6bbc9e69-4297-4cab-b99c-af048260b56e"},"vehicle_type_id":"4","last_reported":1742691245,"current_range_meters":6400,"station_id":"ce4bhnh2rcd13ifvqgug","pricing_plan_id":"cebpf4jnsgd1na2vs0mg"},{"bike_id":"30f74d27-9970-4afa-b900-f9accdc2d04a","system_id":"levelo_inurba_marseille","lat":43.26237,"lon":5.40464,"is_reserved":false,"is_disabled":false,"rental_uris":{"android":"levelo://app?vid=30f74d27-9970-4afa-b900-f9accdc2d04a","ios":"levelo://app?vid=30f74d27-9970-4afa-b900-f9accdc2d04a"},"vehicle_type_id":"4","last_reported":1742691245,"current_range_meters":6800,"station_id":"ce4bhmh2rcd13ifvqgmg","pricing_plan_id":"cebpf4jnsgd1na2vs0mg"},{"bike_id":"a564807e-5bd6-4a71-b02f-5054fff067f9","system_id":"levelo_inurba_marseille","lat":43.24681,"lon":5.38168,"is_reserved":false,"is_disabled":false,"rental_uris":{"android":"levelo://app?vid=a564807e-5bd6-4a71-b02f-5054fff067f9","ios":"levelo://app?vid=a564807e-5bd6-4a71-b02f-5054fff067f9"},"vehicle_type_id":"4","last_reported":1742691245,"current_range_meters":6800,"station_id":"ce4bhih2rcd13ifvqfr0","pricing_plan_id":"cebpf4jnsgd1na2vs0mg"},{"bike_id":"5c7c8803-7963-4d73-adf0-9a7341c81fcc","system_id":"levelo_inurba_marseille","lat":43.23183,"lon":5.39973,"is_reserved":false,"is_disabled":false,"rental_uris":{"android":"levelo://app?vid=5c7c8803-7963-4d73-adf0-9a7341c81fcc","ios":"levelo://app?vid=5c7c8803-7963-4d73-adf0-9a7341c81fcc"},"vehicle_type_id":"4","last_reported":1742691245,"current_range_meters":6800,"station_id":"ce4bhn12rcd13ifvqgqg","pricing_plan_id":"cebpf4jnsgd1na2vs0mg"},{"bike_id":"3273f40d-d327-4a96-a10b-bb064e299908","system_id":"levelo_inurba_marseille","lat":43.33082,"lon":5.40803,"is_reserved":false,"is_disabled":false,"rental_uris":{"android":"levelo://app?vid=3273f40d-d327-4a96-a10b-bb064e299908","ios":"levelo://app?vid=3273f40d-d327-4a96-a10b-bb064e299908"},"vehicle_type_id":"4","last_reported":1742691245,"current_range_meters":6800,"station_id":"","pricing_plan_id":"cebpf4jnsgd1na2vs0mg"},{"bike_id":"7a80749b-56dc-4ab1-a2d7-268dfcb799e2","system_id":"levelo_inurba_marseille","lat":43.23964,"lon":5.36621,"is_reserved":false,"is_disabled":false,"rental_uris":{"android":"levelo://app?vid=7a80749b-56dc-4ab1-a2d7-268dfcb799e2","ios":"levelo://app?vid=7a80749b-56dc-4ab1-a2d7-268dfcb799e2"},"vehicle_type_id":"4","last_reported":1742691245,"current_range_meters":7200,"station_id":"ce4bhi12rcd13ifvqfp0","pricing_plan_id":"cebpf4jnsgd1na2vs0mg"},{"bike_id":"3c2a7dcf-f6cd-4a5b-ac2d-0c447364948d","system_id":"levelo_inurba_marseille","lat":43.31531,"lon":5.37468,"is_reserved":false,"is_disabled":false,"rental_uris":{"android":"levelo://app?vid=3c2a7dcf-f6cd-4a5b-ac2d-0c447364948d","ios":"levelo://app?vid=3c2a7dcf-f6cd-4a5b-ac2d-0c447364948d"},"vehicle_type_id":"4","last_reported":1742691245,"current_range_meters":7200,"station_id":"","pricing_plan_id":"cebpf4jnsgd1na2vs0mg"},{"bike_id":"a255a12b-22ca-41f1-b551-b8c80cc2f6d8","system_id":"levelo_inurba_marseille","lat":43.32144,"lon":5.36765,"is_reserved":false,"is_disabled":false,"rental_uris":{"android":"levelo://app?vid=a255a12b-22ca-41f1-b551-b8c80cc2f6d8","ios":"levelo://app?vid=a255a12b-22ca-41f1-b551-b8c80cc2f6d8"},"vehicle_type_id":"4","last_reported":1742691245,"current_range_meters":7200,"station_id":"","pricing_plan_id":"cebpf4jnsgd1na2vs0mg"},{"bike_id":"0007fce5-562c-4dc0-afc3-21cf7828d9fe","system_id":"levelo_inurba_marseille","lat":43.30137,"lon":5.37416,"is_reserved":false,"is_disabled":false,"rental_uris":{"android":"levelo://app?vid=0007fce5-562c-4dc0-afc3-21cf7828d9fe","ios":"levelo://app?vid=0007fce5-562c-4dc0-afc3-21cf7828d9fe"},"vehicle_type_id":"4","last_reported":1742691245,"current_range_meters":7200,"station_id":"ce4bgs92rcd13ifvqcc0","pricing_plan_id":"cebpf4jnsgd1na2vs0mg"},{"bike_id":"51621743-ec13-4232-945f-791bb0f586ee","system_id":"levelo_inurba_marseille","lat":43.27568,"lon":5.38436,"is_reserved":false,"is_disabled":false,"rental_uris":{"android":"levelo://app?vid=51621743-ec13-4232-945f-791bb0f586ee","ios":"levelo://app?vid=51621743-ec13-4232-945f-791bb0f586ee"},"vehicle_type_id":"4","last_reported":1742691245,"current_range_meters":7200,"station_id":"ce4bhh92rcd13ifvqfi0","pricing_plan_id":"cebpf4jnsgd1na2vs0mg"},{"bike_id":"84d1db32-c63d-4850-bec8-c888cbb35423","system_id":"levelo_inurba_marseille","lat":43.27681,"lon":5.38897,"is_reserved":false,"is_disabled":false,"rental_uris":{"android":"levelo://app?vid=84d1db32-c63d-4850-bec8-c888cbb35423","ios":"levelo://app?vid=84d1db32-c63d-4850-bec8-c888cbb35423"},"vehicle_type_id":"4","last_reported":1742691245,"current_range_meters":7200,"station_id":"ce4bhi12rcd13ifvqfo0","pricing_plan_id":"cebpf4jnsgd1na2vs0mg"},{"bike_id":"395a6abc-4d8a-435b-8e3d-758afed4d7b6","system_id":"levelo_inurba_marseille","lat":43.25582,"lon":5.38225,"is_reserved":false,"is_disabled":false,"rental_uris":{"android":"levelo://app?vid=395a6abc-4d8a-435b-8e3d-758afed4d7b6","ios":"levelo://app?vid=395a6abc-4d8a-435b-8e3d-758afed4d7b6"},"vehicle_type_id":"4","last_reported":1742691245,"current_range_meters":7200,"station_id":"ce4bhih2rcd13ifvqfs0","pricing_plan_id":"cebpf4jnsgd1na2vs0mg"},{"bike_id":"d7ecf0b7-2430-4e23-a8c3-92233081769e","system_id":"levelo_inurba_marseille","lat":43.24059,"lon":5.37749,"is_reserved":false,"is_disabled":false,"rental_uris":{"android":"levelo://app?vid=d7ecf0b7-2430-4e23-a8c3-92233081769e","ios":"levelo://app?vid=d7ecf0b7-2430-4e23-a8c3-92233081769e"},"vehicle_type_id":"4","last_reported":1742691245,"current_range_meters":7200,"station_id":"ce4bhnp2rcd13ifvqgvg","pricing_plan_id":"cebpf4jnsgd1na2vs0mg"},{"bike_id":"fe239f3d-5c83-42bd-8b99-e0b3f3784fb5","system_id":"levelo_inurba_marseille","lat":43.246197,"lon":5.384037,"is_reserved":false,"is_disabled":false,"rental_uris":{"android":"levelo://app?vid=fe239f3d-5c83-42bd-8b99-e0b3f3784fb5","ios":"levelo://app?vid=fe239f3d-5c83-42bd-8b99-e0b3f3784fb5"},"vehicle_type_id":"4","last_reported":1742691245,"current_range_meters":7200,"station_id":"","pricing_plan_id":"cebpf4jnsgd1na2vs0mg"},{"bike_id":"8a06863b-9b36-47c2-b6d3-7eb49ebe143c","system_id":"levelo_inurba_marseille","lat":43.30292,"lon":5.37725,"is_reserved":false,"is_disabled":false,"rental_uris":{"android":"levelo://app?vid=8a06863b-9b36-47c2-b6d3-7eb49ebe143c","ios":"levelo://app?vid=8a06863b-9b36-47c2-b6d3-7eb49ebe143c"},"vehicle_type_id":"4","last_reported":1742691245,"current_range_meters":8000,"station_id":"ce4bguh2rcd13ifvqcj0","pricing_plan_id":"cebpf4jnsgd1na2vs0mg"},{"bike_id":"1d799419-4e8d-4313-8aba-e1c20e20fa8e","system_id":"levelo_inurba_marseille","lat":43.23206,"lon":5.3555,"is_reserved":false,"is_disabled":false,"rental_uris":{"android":"levelo://app?vid=1d799419-4e8d-4313-8aba-e1c20e20fa8e","ios":"levelo://app?vid=1d799419-4e8d-4313-8aba-e1c20e20fa8e"},"vehicle_type_id":"4","last_reported":1742691245,"current_range_meters":8000,"station_id":"ce4bhu92rcd13ifvqi70","pricing_plan_id":"cebpf4jnsgd1na2vs0mg"},{"bike_id":"c5f44f79-cf52-4dcb-8bd2-d2dbc5c2d0bf","system_id":"levelo_inurba_marseille","lat":43.23058,"lon":5.35501,"is_reserved":false,"is_disabled":false,"rental_uris":{"android":"levelo://app?vid=c5f44f79-cf52-4dcb-8bd2-d2dbc5c2d0bf","ios":"levelo://app?vid=c5f44f79-cf52-4dcb-8bd2-d2dbc5c2d0bf"},"vehicle_type_id":"4","last_reported":1742691245,"current_range_meters":8000,"station_id":"cpo3342slgdg3j2ifvpg","pricing_plan_id":"cebpf4jnsgd1na2vs0mg"},{"bike_id":"b5fcb98a-c8d5-4f1a-a9b4-b3362af2a9c7","system_id":"levelo_inurba_marseille","lat":43.23064,"lon":5.35494,"is_reserved":false,"is_disabled":false,"rental_uris":{"android":"levelo://app?vid=b5fcb98a-c8d5-4f1a-a9b4-b3362af2a9c7","ios":"levelo://app?vid=b5fcb98a-c8d5-4f1a-a9b4-b3362af2a9c7"},"vehicle_type_id":"4","last_reported":1742691245,"current_range_meters":8000,"station_id":"cpo3342slgdg3j2ifvpg","pricing_plan_id":"cebpf4jnsgd1na2vs0mg"},{"bike_id":"7333cd56-b9a0-4def-9563-21136544da39","system_id":"levelo_inurba_marseille","lat":43.31877,"lon":5.40746,"is_reserved":false,"is_disabled":false,"rental_uris":{"android":"levelo://app?vid=7333cd56-b9a0-4def-9563-21136544da39","ios":"levelo://app?vid=7333cd56-b9a0-4def-9563-21136544da39"},"vehicle_type_id":"4","last_reported":1742691245,"current_range_meters":8000,"station_id":"ce4bhq12rcd13ifvqhig","pricing_plan_id":"cebpf4jnsgd1na2vs0mg"},{"bike_id":"22974a3c-2c10-4968-8643-ac5fb53e0947","system_id":"levelo_inurba_marseille","lat":43.2467,"lon":5.38151,"is_reserved":false,"is_disabled":false,"rental_uris":{"android":"levelo://app?vid=22974a3c-2c10-4968-8643-ac5fb53e0947","ios":"levelo://app?vid=22974a3c-2c10-4968-8643-ac5fb53e0947"},"vehicle_type_id":"4","last_reported":1742691245,"current_range_meters":8000,"station_id":"ce4bhih2rcd13ifvqfr0","pricing_plan_id":"cebpf4jnsgd1na2vs0mg"},{"bike_id":"53bbe999-a397-4456-8a18-713899c64fda","system_id":"levelo_inurba_marseille","lat":43.267884,"lon":5.39455,"is_reserved":false,"is_disabled":false,"rental_uris":{"android":"levelo://app?vid=53bbe999-a397-4456-8a18-713899c64fda","ios":"levelo://app?vid=53bbe999-a397-4456-8a18-713899c64fda"},"vehicle_type_id":"4","last_reported":1742691245,"current_range_meters":8400,"station_id":"ce4bhh12rcd13ifvqfg0","pricing_plan_id":"cebpf4jnsgd1na2vs0mg"},{"bike_id":"2f66c452-48a3-45fc-a7d1-64a647e10a6b","system_id":"levelo_inurba_marseille","lat":43.27382,"lon":5.36252,"is_reserved":false,"is_disabled":false,"rental_uris":{"android":"levelo://app?vid=2f66c452-48a3-45fc-a7d1-64a647e10a6b","ios":"levelo://app?vid=2f66c452-48a3-45fc-a7d1-64a647e10a6b"},"vehicle_type_id":"4","last_reported":1742691245,"current_range_meters":8400,"station_id":"ce4bhbh2rcd13ifvqeo0","pricing_plan_id":"cebpf4jnsgd1na2vs0mg"},{"bike_id":"708bb2b9-5e4e-4a23-9887-fc90538959bc","system_id":"levelo_inurba_marseille","lat":43.27576,"lon":5.38427,"is_reserved":false,"is_disabled":false,"rental_uris":{"android":"levelo://app?vid=708bb2b9-5e4e-4a23-9887-fc90538959bc","ios":"levelo://app?vid=708bb2b9-5e4e-4a23-9887-fc90538959bc"},"vehicle_type_id":"4","last_reported":1742691245,"current_range_meters":8400,"station_id":"ce4bhh92rcd13ifvqfi0","pricing_plan_id":"cebpf4jnsgd1na2vs0mg"},{"bike_id":"a347e11c-2cd1-4d70-91d7-1519614a036d","system_id":"levelo_inurba_marseille","lat":43.2508,"lon":5.39522,"is_reserved":false,"is_disabled":false,"rental_uris":{"android":"levelo://app?vid=a347e11c-2cd1-4d70-91d7-1519614a036d","ios":"levelo://app?vid=a347e11c-2cd1-4d70-91d7-1519614a036d"},"vehicle_type_id":"4","last_reported":1742691245,"current_range_meters":8400,"station_id":"ce4bhm12rcd13ifvqgkg","pricing_plan_id":"cebpf4jnsgd1na2vs0mg"},{"bike_id":"5a79d095-34a6-4b73-b152-1e70b8b81fa2","system_id":"levelo_inurba_marseille","lat":43.245465,"lon":5.395273,"is_reserved":false,"is_disabled":false,"rental_uris":{"android":"levelo://app?vid=5a79d095-34a6-4b73-b152-1e70b8b81fa2","ios":"levelo://app?vid=5a79d095-34a6-4b73-b152-1e70b8b81fa2"},"vehicle_type_id":"4","last_reported":1742691245,"current_range_meters":8800,"station_id":"ce4bhlp2rcd13ifvqgjg","pricing_plan_id":"cebpf4jnsgd1na2vs0mg"},{"bike_id":"5fa092c2-95ff-4810-9c47-517422895e59","system_id":"levelo_inurba_marseille","lat":43.303527,"lon":5.392686,"is_reserved":false,"is_disabled":false,"rental_uris":{"android":"levelo://app?vid=5fa092c2-95ff-4810-9c47-517422895e59","ios":"levelo://app?vid=5fa092c2-95ff-4810-9c47-517422895e59"},"vehicle_type_id":"4","last_reported":1742691245,"current_range_meters":8800,"station_id":"","pricing_plan_id":"cebpf4jnsgd1na2vs0mg"},{"bike_id":"f168d197-fee5-4c16-bc0f-2e2278746297","system_id":"levelo_inurba_marseille","lat":43.27678,"lon":5.3891,"is_reserved":false,"is_disabled":false,"rental_uris":{"android":"levelo://app?vid=f168d197-fee5-4c16-bc0f-2e2278746297","ios":"levelo://app?vid=f168d197-fee5-4c16-bc0f-2e2278746297"},"vehicle_type_id":"4","last_reported":1742691245,"current_range_meters":8800,"station_id":"ce4bhi12rcd13ifvqfo0","pricing_plan_id":"cebpf4jnsgd1na2vs0mg"},{"bike_id":"95138a18-29f5-436c-8291-54d741166363","system_id":"levelo_inurba_marseille","lat":43.30178,"lon":5.37411,"is_reserved":false,"is_disabled":false,"rental_uris":{"android":"levelo://app?vid=95138a18-29f5-436c-8291-54d741166363","ios":"levelo://app?vid=95138a18-29f5-436c-8291-54d741166363"},"vehicle_type_id":"4","last_reported":1742691245,"current_range_meters":8800,"station_id":"ce4bgs92rcd13ifvqcc0","pricing_plan_id":"cebpf4jnsgd1na2vs0mg"},{"bike_id":"102bb2fe-f94c-4b7e-92f0-3acc126b9c8b","system_id":"levelo_inurba_marseille","lat":43.31117,"lon":5.38361,"is_reserved":false,"is_disabled":false,"rental_uris":{"android":"levelo://app?vid=102bb2fe-f94c-4b7e-92f0-3acc126b9c8b","ios":"levelo://app?vid=102bb2fe-f94c-4b7e-92f0-3acc126b9c8b"},"vehicle_type_id":"4","last_reported":1742691245,"current_range_meters":8800,"station_id":"ce4bgv92rcd13ifvqcr0","pricing_plan_id":"cebpf4jnsgd1na2vs0mg"},{"bike_id":"f4bd5e6b-0671-4498-a482-2addee73a72c","system_id":"levelo_inurba_marseille","lat":43.25081,"lon":5.39528,"is_reserved":false,"is_disabled":false,"rental_uris":{"android":"levelo://app?vid=f4bd5e6b-0671-4498-a482-2addee73a72c","ios":"levelo://app?vid=f4bd5e6b-0671-4498-a482-2addee73a72c"},"vehicle_type_id":"4","last_reported":1742691245,"current_range_meters":8800,"station_id":"ce4bhm12rcd13ifvqgkg","pricing_plan_id":"cebpf4jnsgd1na2vs0mg"},{"bike_id":"5632d881-bf5b-4a38-9f9a-beb53ed43b29","system_id":"levelo_inurba_marseille","lat":43.26687,"lon":5.3827,"is_reserved":false,"is_disabled":false,"rental_uris":{"android":"levelo://app?vid=5632d881-bf5b-4a38-9f9a-beb53ed43b29","ios":"levelo://app?vid=5632d881-bf5b-4a38-9f9a-beb53ed43b29"},"vehicle_type_id":"4","last_reported":1742691245,"current_range_meters":8800,"station_id":"ce4bhg92rcd13ifvqf90","pricing_plan_id":"cebpf4jnsgd1na2vs0mg"},{"bike_id":"dc0b5eb4-361e-4785-b0b9-f3eefce109c0","system_id":"levelo_inurba_marseille","lat":43.28443,"lon":5.35017,"is_reserved":false,"is_disabled":false,"rental_uris":{"android":"levelo://app?vid=dc0b5eb4-361e-4785-b0b9-f3eefce109c0","ios":"levelo://app?vid=dc0b5eb4-361e-4785-b0b9-f3eefce109c0"},"vehicle_type_id":"4","last_reported":1742691245,"current_range_meters":8800,"station_id":"ce4bhbh2rcd13ifvqepg","pricing_plan_id":"cebpf4jnsgd1na2vs0mg"},{"bike_id":"dd89ae27-2fe0-48ae-9a86-c058e65d1d1a","system_id":"levelo_inurba_marseille","lat":43.28502,"lon":5.38538,"is_reserved":false,"is_disabled":false,"rental_uris":{"android":"levelo://app?vid=dd89ae27-2fe0-48ae-9a86-c058e65d1d1a","ios":"levelo://app?vid=dd89ae27-2fe0-48ae-9a86-c058e65d1d1a"},"vehicle_type_id":"4","last_reported":1742691245,"current_range_meters":8800,"station_id":"ce4bh8p2rcd13ifvqeb0","pricing_plan_id":"cebpf4jnsgd1na2vs0mg"},{"bike_id":"09cd3a53-f843-483d-b4b6-c243b2785c45","system_id":"levelo_inurba_marseille","lat":43.25051,"lon":5.39518,"is_reserved":false,"is_disabled":false,"rental_uris":{"android":"levelo://app?vid=09cd3a53-f843-483d-b4b6-c243b2785c45","ios":"levelo://app?vid=09cd3a53-f843-483d-b4b6-c243b2785c45"},"vehicle_type_id":"4","last_reported":1742691245,"current_range_meters":9200,"station_id":"ce4bhm12rcd13ifvqgkg","pricing_plan_id":"cebpf4jnsgd1na2vs0mg"},{"bike_id":"014cf003-1505-49cd-ba72-06250a2191ab","system_id":"levelo_inurba_marseille","lat":43.2307,"lon":5.35498,"is_reserved":false,"is_disabled":false,"rental_uris":{"android":"levelo://app?vid=014cf003-1505-49cd-ba72-06250a2191ab","ios":"levelo://app?vid=014cf003-1505-49cd-ba72-06250a2191ab"},"vehicle_type_id":"4","last_reported":1742691245,"current_range_meters":9200,"station_id":"cpo3342slgdg3j2ifvpg","pricing_plan_id":"cebpf4jnsgd1na2vs0mg"},{"bike_id":"8ed1ac19-a2dd-4532-af16-423d1df5a6d4","system_id":"levelo_inurba_marseille","lat":43.23133,"lon":5.41401,"is_reserved":false,"is_disabled":false,"rental_uris":{"android":"levelo://app?vid=8ed1ac19-a2dd-4532-af16-423d1df5a6d4","ios":"levelo://app?vid=8ed1ac19-a2dd-4532-af16-423d1df5a6d4"},"vehicle_type_id":"4","last_reported":1742691245,"current_range_meters":9200,"station_id":"","pricing_plan_id":"cebpf4jnsgd1na2vs0mg"},{"bike_id":"b3a118e7-4ea7-4e12-b3d0-0411d8b7a4b6","system_id":"levelo_inurba_marseille","lat":43.29796,"lon":5.37086,"is_reserved":false,"is_disabled":false,"rental_uris":{"android":"levelo://app?vid=b3a118e7-4ea7-4e12-b3d0-0411d8b7a4b6","ios":"levelo://app?vid=b3a118e7-4ea7-4e12-b3d0-0411d8b7a4b6"},"vehicle_type_id":"4","last_reported":1742691245,"current_range_meters":9200,"station_id":"ce4bgop2rcd13ifvqc1g","pricing_plan_id":"cebpf4jnsgd1na2vs0mg"},{"bike_id":"768ca5e6-f1bb-42f2-ac3f-2632b474747d","system_id":"levelo_inurba_marseille","lat":43.25834,"lon":5.39456,"is_reserved":false,"is_disabled":false,"rental_uris":{"android":"levelo://app?vid=768ca5e6-f1bb-42f2-ac3f-2632b474747d","ios":"levelo://app?vid=768ca5e6-f1bb-42f2-ac3f-2632b474747d"},"vehicle_type_id":"4","last_reported":1742691245,"current_range_meters":9200,"station_id":"ce4bhip2rcd13ifvqft0","pricing_plan_id":"cebpf4jnsgd1na2vs0mg"},{"bike_id":"05eb5efb-e53f-43b1-bee1-f917c77f7438","system_id":"levelo_inurba_marseille","lat":43.26787,"lon":5.39421,"is_reserved":false,"is_disabled":false,"rental_uris":{"android":"levelo://app?vid=05eb5efb-e53f-43b1-bee1-f917c77f7438","ios":"levelo://app?vid=05eb5efb-e53f-43b1-bee1-f917c77f7438"},"vehicle_type_id":"4","last_reported":1742691245,"current_range_meters":9200,"station_id":"ce4bhh12rcd13ifvqfg0","pricing_plan_id":"cebpf4jnsgd1na2vs0mg"},{"bike_id":"16784492-6bb0-4dfd-a37c-0b309868075c","system_id":"levelo_inurba_marseille","lat":43.30599,"lon":5.3657,"is_reserved":false,"is_disabled":false,"rental_uris":{"android":"levelo://app?vid=16784492-6bb0-4dfd-a37c-0b309868075c","ios":"levelo://app?vid=16784492-6bb0-4dfd-a37c-0b309868075c"},"vehicle_type_id":"4","last_reported":1742691245,"current_range_meters":9600,"station_id":"ce4bgs12rcd13ifvqcag","pricing_plan_id":"cebpf4jnsgd1na2vs0mg"},{"bike_id":"66b14029-9bd9-4267-8d06-0481cb6c232e","system_id":"levelo_inurba_marseille","lat":43.29589,"lon":5.36733,"is_reserved":false,"is_disabled":false,"rental_uris":{"android":"levelo://app?vid=66b14029-9bd9-4267-8d06-0481cb6c232e","ios":"levelo://app?vid=66b14029-9bd9-4267-8d06-0481cb6c232e"},"vehicle_type_id":"4","last_reported":1742691245,"current_range_meters":9600,"station_id":"ce4bgph2rcd13ifvqc2g","pricing_plan_id":"cebpf4jnsgd1na2vs0mg"},{"bike_id":"7dff0d61-f3b4-42de-8e95-a63f03cbc4f6","system_id":"levelo_inurba_marseille","lat":43.31395,"lon":5.38495,"is_reserved":false,"is_disabled":false,"rental_uris":{"android":"levelo://app?vid=7dff0d61-f3b4-42de-8e95-a63f03cbc4f6","ios":"levelo://app?vid=7dff0d61-f3b4-42de-8e95-a63f03cbc4f6"},"vehicle_type_id":"4","last_reported":1742691245,"current_range_meters":9600,"station_id":"ce4bgt92rcd13ifvqcf0","pricing_plan_id":"cebpf4jnsgd1na2vs0mg"},{"bike_id":"dc2407f4-d476-43c5-97ef-0012890b8899","system_id":"levelo_inurba_marseille","lat":43.30039,"lon":5.38224,"is_reserved":false,"is_disabled":false,"rental_uris":{"android":"levelo://app?vid=dc2407f4-d476-43c5-97ef-0012890b8899","ios":"levelo://app?vid=dc2407f4-d476-43c5-97ef-0012890b8899"},"vehicle_type_id":"4","last_reported":1742691245,"current_range_meters":9600,"station_id":"","pricing_plan_id":"cebpf4jnsgd1na2vs0mg"},{"bike_id":"d5bdb9ba-8f5e-4673-91a9-7dbeea01afe2","system_id":"levelo_inurba_marseille","lat":43.25006,"lon":5.38932,"is_reserved":false,"is_disabled":false,"rental_uris":{"android":"levelo://app?vid=d5bdb9ba-8f5e-4673-91a9-7dbeea01afe2","ios":"levelo://app?vid=d5bdb9ba-8f5e-4673-91a9-7dbeea01afe2"},"vehicle_type_id":"4","last_reported":1742691245,"current_range_meters":9600,"station_id":"ce4bhgp2rcd13ifvqfd0","pricing_plan_id":"cebpf4jnsgd1na2vs0mg"},{"bike_id":"5018d9f5-1de4-41bd-b680-f4186953003f","system_id":"levelo_inurba_marseille","lat":43.33031,"lon":5.39033,"is_reserved":false,"is_disabled":false,"rental_uris":{"android":"levelo://app?vid=5018d9f5-1de4-41bd-b680-f4186953003f","ios":"levelo://app?vid=5018d9f5-1de4-41bd-b680-f4186953003f"},"vehicle_type_id":"4","last_reported":1742691245,"current_range_meters":9600,"station_id":"ce4bhr92rcd13ifvqhrg","pricing_plan_id":"cebpf4jnsgd1na2vs0mg"},{"bike_id":"3f3f99da-6673-441e-a5b3-6857219a400e","system_id":"levelo_inurba_marseille","lat":43.25016,"lon":5.38914,"is_reserved":false,"is_disabled":false,"rental_uris":{"android":"levelo://app?vid=3f3f99da-6673-441e-a5b3-6857219a400e","ios":"levelo://app?vid=3f3f99da-6673-441e-a5b3-6857219a400e"},"vehicle_type_id":"4","last_reported":1742691245,"current_range_meters":9600,"station_id":"ce4bhgp2rcd13ifvqfd0","pricing_plan_id":"cebpf4jnsgd1na2vs0mg"},{"bike_id":"07d5ffdd-b6a1-489f-98d2-ea76af006653","system_id":"levelo_inurba_marseille","lat":43.25712,"lon":5.41123,"is_reserved":false,"is_disabled":false,"rental_uris":{"android":"levelo://app?vid=07d5ffdd-b6a1-489f-98d2-ea76af006653","ios":"levelo://app?vid=07d5ffdd-b6a1-489f-98d2-ea76af006653"},"vehicle_type_id":"4","last_reported":1742691245,"current_range_meters":9600,"station_id":"ce4bhkp2rcd13ifvqgd0","pricing_plan_id":"cebpf4jnsgd1na2vs0mg"},{"bike_id":"0e9ecfbb-b739-4da0-ae4f-5f93ee77a934","system_id":"levelo_inurba_marseille","lat":43.2961,"lon":5.36725,"is_reserved":false,"is_disabled":false,"rental_uris":{"android":"levelo://app?vid=0e9ecfbb-b739-4da0-ae4f-5f93ee77a934","ios":"levelo://app?vid=0e9ecfbb-b739-4da0-ae4f-5f93ee77a934"},"vehicle_type_id":"4","last_reported":1742691245,"current_range_meters":9600,"station_id":"ce4bgph2rcd13ifvqc2g","pricing_plan_id":"cebpf4jnsgd1na2vs0mg"},{"bike_id":"f52f1403-e5ef-4f15-816b-2ba1cd83754e","system_id":"levelo_inurba_marseille","lat":43.32596,"lon":5.36434,"is_reserved":false,"is_disabled":false,"rental_uris":{"android":"levelo://app?vid=f52f1403-e5ef-4f15-816b-2ba1cd83754e","ios":"levelo://app?vid=f52f1403-e5ef-4f15-816b-2ba1cd83754e"},"vehicle_type_id":"4","last_reported":1742691245,"current_range_meters":9600,"station_id":"","pricing_plan_id":"cebpf4jnsgd1na2vs0mg"},{"bike_id":"ba0a9964-ab62-4807-b18d-12500e496f19","system_id":"levelo_inurba_marseille","lat":43.28614,"lon":5.351,"is_reserved":false,"is_disabled":true,"rental_uris":{"android":"levelo://app?vid=ba0a9964-ab62-4807-b18d-12500e496f19","ios":"levelo://app?vid=ba0a9964-ab62-4807-b18d-12500e496f19"},"vehicle_type_id":"4","last_reported":1742691245,"current_range_meters":9600,"station_id":"ce4bhch2rcd13ifvqeug","pricing_plan_id":"cebpf4jnsgd1na2vs0mg"},{"bike_id":"72503a27-a949-4a46-b139-c44d4f416a58","system_id":"levelo_inurba_marseille","lat":43.23188,"lon":5.35546,"is_reserved":false,"is_disabled":false,"rental_uris":{"android":"levelo://app?vid=72503a27-a949-4a46-b139-c44d4f416a58","ios":"levelo://app?vid=72503a27-a949-4a46-b139-c44d4f416a58"},"vehicle_type_id":"4","last_reported":1742691245,"current_range_meters":10000,"station_id":"ce4bhu92rcd13ifvqi70","pricing_plan_id":"cebpf4jnsgd1na2vs0mg"},{"bike_id":"6fb63123-1a12-4ff9-a407-84ae3ac28000","system_id":"levelo_inurba_marseille","lat":43.30316,"lon":5.36913,"is_reserved":false,"is_disabled":false,"rental_uris":{"android":"levelo://app?vid=6fb63123-1a12-4ff9-a407-84ae3ac28000","ios":"levelo://app?vid=6fb63123-1a12-4ff9-a407-84ae3ac28000"},"vehicle_type_id":"4","last_reported":1742691245,"current_range_meters":10000,"station_id":"ce4bgqh2rcd13ifvqc5g","pricing_plan_id":"cebpf4jnsgd1na2vs0mg"},{"bike_id":"23aae21a-1ee8-4544-a323-476ec541691a","system_id":"levelo_inurba_marseille","lat":43.23177,"lon":5.39994,"is_reserved":false,"is_disabled":false,"rental_uris":{"android":"levelo://app?vid=23aae21a-1ee8-4544-a323-476ec541691a","ios":"levelo://app?vid=23aae21a-1ee8-4544-a323-476ec541691a"},"vehicle_type_id":"4","last_reported":1742691245,"current_range_meters":10000,"station_id":"ce4bhn12rcd13ifvqgqg","pricing_plan_id":"cebpf4jnsgd1na2vs0mg"},{"bike_id":"ad263336-64b9-4f27-8f30-4a49fa7dcbf6","system_id":"levelo_inurba_marseille","lat":43.27635,"lon":5.42637,"is_reserved":false,"is_disabled":false,"rental_uris":{"android":"levelo://app?vid=ad263336-64b9-4f27-8f30-4a49fa7dcbf6","ios":"levelo://app?vid=ad263336-64b9-4f27-8f30-4a49fa7dcbf6"},"vehicle_type_id":"4","last_reported":1742691245,"current_range_meters":10000,"station_id":"","pricing_plan_id":"cebpf4jnsgd1na2vs0mg"},{"bike_id":"9b469204-1d25-4894-b812-bcc7dda80cbd","system_id":"levelo_inurba_marseille","lat":43.27807,"lon":5.40713,"is_reserved":false,"is_disabled":false,"rental_uris":{"android":"levelo://app?vid=9b469204-1d25-4894-b812-bcc7dda80cbd","ios":"levelo://app?vid=9b469204-1d25-4894-b812-bcc7dda80cbd"},"vehicle_type_id":"4","last_reported":1742691245,"current_range_meters":10000,"station_id":"ce4bhnh2rcd13ifvqgtg","pricing_plan_id":"cebpf4jnsgd1na2vs0mg"},{"bike_id":"75239504-6411-4c5a-918c-ff12c7d01c06","system_id":"levelo_inurba_marseille","lat":43.27814,"lon":5.40716,"is_reserved":false,"is_disabled":false,"rental_uris":{"android":"levelo://app?vid=75239504-6411-4c5a-918c-ff12c7d01c06","ios":"levelo://app?vid=75239504-6411-4c5a-918c-ff12c7d01c06"},"vehicle_type_id":"4","last_reported":1742691245,"current_range_meters":10000,"station_id":"ce4bhnh2rcd13ifvqgtg","pricing_plan_id":"cebpf4jnsgd1na2vs0mg"},{"bike_id":"4a292a20-3ff2-480a-8e0b-703b4e124853","system_id":"levelo_inurba_marseille","lat":43.28645,"lon":5.35072,"is_reserved":false,"is_disabled":false,"rental_uris":{"android":"levelo://app?vid=4a292a20-3ff2-480a-8e0b-703b4e124853","ios":"levelo://app?vid=4a292a20-3ff2-480a-8e0b-703b4e124853"},"vehicle_type_id":"4","last_reported":1742691245,"current_range_meters":10000,"station_id":"ce4bhch2rcd13ifvqeug","pricing_plan_id":"cebpf4jnsgd1na2vs0mg"},{"bike_id":"ffabe649-baf7-4292-bf39-6270c104483e","system_id":"levelo_inurba_marseille","lat":43.28935,"lon":5.36623,"is_reserved":false,"is_disabled":false,"rental_uris":{"android":"levelo://app?vid=ffabe649-baf7-4292-bf39-6270c104483e","ios":"levelo://app?vid=ffabe649-baf7-4292-bf39-6270c104483e"},"vehicle_type_id":"4","last_reported":1742691245,"current_range_meters":10000,"station_id":"ce4bhap2rcd13ifvqek0","pricing_plan_id":"cebpf4jnsgd1na2vs0mg"},{"bike_id":"186584c4-e701-4e16-bbf3-d63b04c20b04","system_id":"levelo_inurba_marseille","lat":43.33607,"lon":5.41002,"is_reserved":false,"is_disabled":false,"rental_uris":{"android":"levelo://app?vid=186584c4-e701-4e16-bbf3-d63b04c20b04","ios":"levelo://app?vid=186584c4-e701-4e16-bbf3-d63b04c20b04"},"vehicle_type_id":"4","last_reported":1742691245,"current_range_meters":10000,"station_id":"ce4bhqh2rcd13ifvqhmg","pricing_plan_id":"cebpf4jnsgd1na2vs0mg"},{"bike_id":"72123cf2-9d2b-41b8-9bee-4f35b0be3549","system_id":"levelo_inurba_marseille","lat":43.23066,"lon":5.35477,"is_reserved":false,"is_disabled":true,"rental_uris":{"android":"levelo://app?vid=72123cf2-9d2b-41b8-9bee-4f35b0be3549","ios":"levelo://app?vid=72123cf2-9d2b-41b8-9bee-4f35b0be3549"},"vehicle_type_id":"4","last_reported":1742691245,"current_range_meters":10000,"station_id":"cpo3342slgdg3j2ifvpg","pricing_plan_id":"cebpf4jnsgd1na2vs0mg"},{"bike_id":"1c791fa2-9405-48c1-9835-895ee618b900","system_id":"levelo_inurba_marseille","lat":43.31429,"lon":5.37335,"is_reserved":false,"is_disabled":false,"rental_uris":{"android":"levelo://app?vid=1c791fa2-9405-48c1-9835-895ee618b900","ios":"levelo://app?vid=1c791fa2-9405-48c1-9835-895ee618b900"},"vehicle_type_id":"4","last_reported":1742691245,"current_range_meters":10000,"station_id":"","pricing_plan_id":"cebpf4jnsgd1na2vs0mg"},{"bike_id":"dba8b61a-1f26-452c-8c30-53fb931df2d0","system_id":"levelo_inurba_marseille","lat":43.28624,"lon":5.35099,"is_reserved":false,"is_disabled":false,"rental_uris":{"android":"levelo://app?vid=dba8b61a-1f26-452c-8c30-53fb931df2d0","ios":"levelo://app?vid=dba8b61a-1f26-452c-8c30-53fb931df2d0"},"vehicle_type_id":"4","last_reported":1742691245,"current_range_meters":10000,"station_id":"ce4bhch2rcd13ifvqeug","pricing_plan_id":"cebpf4jnsgd1na2vs0mg"},{"bike_id":"d891874b-4fb8-4c57-afa3-f6b233588d88","system_id":"levelo_inurba_marseille","lat":43.25582,"lon":5.38241,"is_reserved":false,"is_disabled":false,"rental_uris":{"android":"levelo://app?vid=d891874b-4fb8-4c57-afa3-f6b233588d88","ios":"levelo://app?vid=d891874b-4fb8-4c57-afa3-f6b233588d88"},"vehicle_type_id":"4","last_reported":1742691245,"current_range_meters":10800,"station_id":"ce4bhih2rcd13ifvqfs0","pricing_plan_id":"cebpf4jnsgd1na2vs0mg"},{"bike_id":"370d1dc9-b5bf-491c-a845-1c1acf7fb588","system_id":"levelo_inurba_marseille","lat":43.30308,"lon":5.392013,"is_reserved":false,"is_disabled":false,"rental_uris":{"android":"levelo://app?vid=370d1dc9-b5bf-491c-a845-1c1acf7fb588","ios":"levelo://app?vid=370d1dc9-b5bf-491c-a845-1c1acf7fb588"},"vehicle_type_id":"4","last_reported":1742691245,"current_range_meters":10800,"station_id":"ce4bgkh2rcd13ifvqbk0","pricing_plan_id":"cebpf4jnsgd1na2vs0mg"},{"bike_id":"2032e81a-8d24-4036-9cc6-bf67698b8322","system_id":"levelo_inurba_marseille","lat":43.24195,"lon":5.39722,"is_reserved":false,"is_disabled":false,"rental_uris":{"android":"levelo://app?vid=2032e81a-8d24-4036-9cc6-bf67698b8322","ios":"levelo://app?vid=2032e81a-8d24-4036-9cc6-bf67698b8322"},"vehicle_type_id":"4","last_reported":1742691245,"current_range_meters":10800,"station_id":"ce4bhn12rcd13ifvqgpg","pricing_plan_id":"cebpf4jnsgd1na2vs0mg"},{"bike_id":"272bd483-3c2c-49ec-b30d-44ac080cfd01","system_id":"levelo_inurba_marseille","lat":43.32358,"lon":5.40609,"is_reserved":false,"is_disabled":false,"rental_uris":{"android":"levelo://app?vid=272bd483-3c2c-49ec-b30d-44ac080cfd01","ios":"levelo://app?vid=272bd483-3c2c-49ec-b30d-44ac080cfd01"},"vehicle_type_id":"4","last_reported":1742691245,"current_range_meters":10800,"station_id":"ce4bhq92rcd13ifvqhjg","pricing_plan_id":"cebpf4jnsgd1na2vs0mg"},{"bike_id":"bb2ebd34-9190-40c3-b427-a509f79ce1e9","system_id":"levelo_inurba_marseille","lat":43.2784,"lon":5.40702,"is_reserved":false,"is_disabled":false,"rental_uris":{"android":"levelo://app?vid=bb2ebd34-9190-40c3-b427-a509f79ce1e9","ios":"levelo://app?vid=bb2ebd34-9190-40c3-b427-a509f79ce1e9"},"vehicle_type_id":"4","last_reported":1742691245,"current_range_meters":11200,"station_id":"ce4bhnh2rcd13ifvqgtg","pricing_plan_id":"cebpf4jnsgd1na2vs0mg"},{"bike_id":"041746e8-f612-4f02-ba2c-e784ef31f6c4","system_id":"levelo_inurba_marseille","lat":43.23171,"lon":5.43697,"is_reserved":false,"is_disabled":false,"rental_uris":{"android":"levelo://app?vid=041746e8-f612-4f02-ba2c-e784ef31f6c4","ios":"levelo://app?vid=041746e8-f612-4f02-ba2c-e784ef31f6c4"},"vehicle_type_id":"4","last_reported":1742691245,"current_range_meters":11200,"station_id":"ce4bhmp2rcd13ifvqgog","pricing_plan_id":"cebpf4jnsgd1na2vs0mg"},{"bike_id":"e7f334a1-f21e-4225-a073-862fa87c95f1","system_id":"levelo_inurba_marseille","lat":43.25598,"lon":5.41157,"is_reserved":false,"is_disabled":false,"rental_uris":{"android":"levelo://app?vid=e7f334a1-f21e-4225-a073-862fa87c95f1","ios":"levelo://app?vid=e7f334a1-f21e-4225-a073-862fa87c95f1"},"vehicle_type_id":"4","last_reported":1742691245,"current_range_meters":11200,"station_id":"","pricing_plan_id":"cebpf4jnsgd1na2vs0mg"},{"bike_id":"836f1089-8cc4-41d6-af75-9bbffbdd1201","system_id":"levelo_inurba_marseille","lat":43.26209,"lon":5.3744,"is_reserved":false,"is_disabled":false,"rental_uris":{"android":"levelo://app?vid=836f1089-8cc4-41d6-af75-9bbffbdd1201","ios":"levelo://app?vid=836f1089-8cc4-41d6-af75-9bbffbdd1201"},"vehicle_type_id":"4","last_reported":1742691245,"current_range_meters":11200,"station_id":"ce4bhgp2rcd13ifvqfc0","pricing_plan_id":"cebpf4jnsgd1na2vs0mg"},{"bike_id":"140d1708-b02b-4f3d-8b67-ad95553b03f4","system_id":"levelo_inurba_marseille","lat":43.30138,"lon":5.37405,"is_reserved":false,"is_disabled":false,"rental_uris":{"android":"levelo://app?vid=140d1708-b02b-4f3d-8b67-ad95553b03f4","ios":"levelo://app?vid=140d1708-b02b-4f3d-8b67-ad95553b03f4"},"vehicle_type_id":"4","last_reported":1742691245,"current_range_meters":11200,"station_id":"ce4bgs92rcd13ifvqcc0","pricing_plan_id":"cebpf4jnsgd1na2vs0mg"},{"bike_id":"5d4cc92c-eafe-478c-8820-ef016b1e9d02","system_id":"levelo_inurba_marseille","lat":43.29915,"lon":5.43693,"is_reserved":false,"is_disabled":false,"rental_uris":{"android":"levelo://app?vid=5d4cc92c-eafe-478c-8820-ef016b1e9d02","ios":"levelo://app?vid=5d4cc92c-eafe-478c-8820-ef016b1e9d02"},"vehicle_type_id":"4","last_reported":1742691245,"current_range_meters":11200,"station_id":"ce4bhpp2rcd13ifvqhfg","pricing_plan_id":"cebpf4jnsgd1na2vs0mg"},{"bike_id":"cee7165c-6020-4946-bcfa-56667555c30e","system_id":"levelo_inurba_marseille","lat":43.311119,"lon":5.377608,"is_reserved":false,"is_disabled":false,"rental_uris":{"android":"levelo://app?vid=cee7165c-6020-4946-bcfa-56667555c30e","ios":"levelo://app?vid=cee7165c-6020-4946-bcfa-56667555c30e"},"vehicle_type_id":"4","last_reported":1742691245,"current_range_meters":11200,"station_id":"ce4bgt92rcd13ifvqcg0","pricing_plan_id":"cebpf4jnsgd1na2vs0mg"},{"bike_id":"9b537ca4-a933-4901-843f-2f6abcc9ca23","system_id":"levelo_inurba_marseille","lat":43.29553,"lon":5.37512,"is_reserved":false,"is_disabled":false,"rental_uris":{"android":"levelo://app?vid=9b537ca4-a933-4901-843f-2f6abcc9ca23","ios":"levelo://app?vid=9b537ca4-a933-4901-843f-2f6abcc9ca23"},"vehicle_type_id":"4","last_reported":1742691245,"current_range_meters":11200,"station_id":"ce4bgkp2rcd13ifvqbmg","pricing_plan_id":"cebpf4jnsgd1na2vs0mg"},{"bike_id":"050381e0-666b-4c98-aa42-54b443a035a5","system_id":"levelo_inurba_marseille","lat":43.30309,"lon":5.36901,"is_reserved":false,"is_disabled":false,"rental_uris":{"android":"levelo://app?vid=050381e0-666b-4c98-aa42-54b443a035a5","ios":"levelo://app?vid=050381e0-666b-4c98-aa42-54b443a035a5"},"vehicle_type_id":"4","last_reported":1742691245,"current_range_meters":12000,"station_id":"ce4bgqh2rcd13ifvqc5g","pricing_plan_id":"cebpf4jnsgd1na2vs0mg"},{"bike_id":"d33619c0-236d-4b0d-9367-f9de6b7945ad","system_id":"levelo_inurba_marseille","lat":43.30641,"lon":5.40078,"is_reserved":false,"is_disabled":false,"rental_uris":{"android":"levelo://app?vid=d33619c0-236d-4b0d-9367-f9de6b7945ad","ios":"levelo://app?vid=d33619c0-236d-4b0d-9367-f9de6b7945ad"},"vehicle_type_id":"4","last_reported":1742691245,"current_range_meters":12000,"station_id":"ce4bh112rcd13ifvqda0","pricing_plan_id":"cebpf4jnsgd1na2vs0mg"},{"bike_id":"cc82a72a-6509-4f0d-8031-77fa34214377","system_id":"levelo_inurba_marseille","lat":43.298979,"lon":5.436626,"is_reserved":false,"is_disabled":false,"rental_uris":{"android":"levelo://app?vid=cc82a72a-6509-4f0d-8031-77fa34214377","ios":"levelo://app?vid=cc82a72a-6509-4f0d-8031-77fa34214377"},"vehicle_type_id":"4","last_reported":1742691245,"current_range_meters":12000,"station_id":"ce4bhpp2rcd13ifvqhfg","pricing_plan_id":"cebpf4jnsgd1na2vs0mg"},{"bike_id":"d8878601-3ef9-4b69-ae9e-1dde88f059ac","system_id":"levelo_inurba_marseille","lat":43.2417,"lon":5.36382,"is_reserved":false,"is_disabled":false,"rental_uris":{"android":"levelo://app?vid=d8878601-3ef9-4b69-ae9e-1dde88f059ac","ios":"levelo://app?vid=d8878601-3ef9-4b69-ae9e-1dde88f059ac"},"vehicle_type_id":"4","last_reported":1742691245,"current_range_meters":12000,"station_id":"cpo36qri1sfpv3e86is0","pricing_plan_id":"cebpf4jnsgd1na2vs0mg"},{"bike_id":"d0c11323-7973-4efb-8dc9-6b731413cec5","system_id":"levelo_inurba_marseille","lat":43.27903,"lon":5.38019,"is_reserved":false,"is_disabled":false,"rental_uris":{"android":"levelo://app?vid=d0c11323-7973-4efb-8dc9-6b731413cec5","ios":"levelo://app?vid=d0c11323-7973-4efb-8dc9-6b731413cec5"},"vehicle_type_id":"4","last_reported":1742691245,"current_range_meters":12000,"station_id":"ce4bhf92rcd13ifvqf50","pricing_plan_id":"cebpf4jnsgd1na2vs0mg"},{"bike_id":"1b9d18e6-2793-4d23-b633-8c33834776fe","system_id":"levelo_inurba_marseille","lat":43.27909,"lon":5.3958,"is_reserved":false,"is_disabled":false,"rental_uris":{"android":"levelo://app?vid=1b9d18e6-2793-4d23-b633-8c33834776fe","ios":"levelo://app?vid=1b9d18e6-2793-4d23-b633-8c33834776fe"},"vehicle_type_id":"4","last_reported":1742691245,"current_range_meters":12000,"station_id":"ce4bhf92rcd13ifvqf40","pricing_plan_id":"cebpf4jnsgd1na2vs0mg"},{"bike_id":"da598ac3-13a7-47ae-aec1-b356b24c593b","system_id":"levelo_inurba_marseille","lat":43.29575,"lon":5.37507,"is_reserved":false,"is_disabled":false,"rental_uris":{"android":"levelo://app?vid=da598ac3-13a7-47ae-aec1-b356b24c593b","ios":"levelo://app?vid=da598ac3-13a7-47ae-aec1-b356b24c593b"},"vehicle_type_id":"4","last_reported":1742691245,"current_range_meters":12000,"station_id":"ce4bgh92rcd13ifvqb50","pricing_plan_id":"cebpf4jnsgd1na2vs0mg"},{"bike_id":"6f81c8a5-3b56-4368-87a5-5a7cad568e23","system_id":"levelo_inurba_marseille","lat":43.30928,"lon":5.40145,"is_reserved":false,"is_disabled":false,"rental_uris":{"android":"levelo://app?vid=6f81c8a5-3b56-4368-87a5-5a7cad568e23","ios":"levelo://app?vid=6f81c8a5-3b56-4368-87a5-5a7cad568e23"},"vehicle_type_id":"4","last_reported":1742691245,"current_range_meters":12000,"station_id":"ce4bgvp2rcd13ifvqct0","pricing_plan_id":"cebpf4jnsgd1na2vs0mg"},{"bike_id":"f71b37d1-105e-4873-886d-dab753f0c12c","system_id":"levelo_inurba_marseille","lat":43.29434,"lon":5.38635,"is_reserved":false,"is_disabled":false,"rental_uris":{"android":"levelo://app?vid=f71b37d1-105e-4873-886d-dab753f0c12c","ios":"levelo://app?vid=f71b37d1-105e-4873-886d-dab753f0c12c"},"vehicle_type_id":"4","last_reported":1742691245,"current_range_meters":12000,"station_id":"","pricing_plan_id":"cebpf4jnsgd1na2vs0mg"},{"bike_id":"f00a85f1-54fa-4e47-9c73-073e8270ac2d","system_id":"levelo_inurba_marseille","lat":43.30191,"lon":5.36619,"is_reserved":false,"is_disabled":false,"rental_uris":{"android":"levelo://app?vid=f00a85f1-54fa-4e47-9c73-073e8270ac2d","ios":"levelo://app?vid=f00a85f1-54fa-4e47-9c73-073e8270ac2d"},"vehicle_type_id":"4","last_reported":1742691245,"current_range_meters":12400,"station_id":"ce4bgrh2rcd13ifvqc8g","pricing_plan_id":"cebpf4jnsgd1na2vs0mg"},{"bike_id":"7b75d449-7c71-498f-b2ce-f002530eba03","system_id":"levelo_inurba_marseille","lat":43.30171,"lon":5.37405,"is_reserved":false,"is_disabled":false,"rental_uris":{"android":"levelo://app?vid=7b75d449-7c71-498f-b2ce-f002530eba03","ios":"levelo://app?vid=7b75d449-7c71-498f-b2ce-f002530eba03"},"vehicle_type_id":"4","last_reported":1742691245,"current_range_meters":12400,"station_id":"ce4bgs92rcd13ifvqcc0","pricing_plan_id":"cebpf4jnsgd1na2vs0mg"},{"bike_id":"54835c02-6158-4aac-b2e9-f6650d514f97","system_id":"levelo_inurba_marseille","lat":43.24076,"lon":5.37744,"is_reserved":false,"is_disabled":false,"rental_uris":{"android":"levelo://app?vid=54835c02-6158-4aac-b2e9-f6650d514f97","ios":"levelo://app?vid=54835c02-6158-4aac-b2e9-f6650d514f97"},"vehicle_type_id":"4","last_reported":1742691245,"current_range_meters":12400,"station_id":"ce4bhnp2rcd13ifvqgvg","pricing_plan_id":"cebpf4jnsgd1na2vs0mg"},{"bike_id":"751ff1ed-b498-4578-9bd4-943bf6c9d8eb","system_id":"levelo_inurba_marseille","lat":43.23208,"lon":5.35547,"is_reserved":false,"is_disabled":false,"rental_uris":{"android":"levelo://app?vid=751ff1ed-b498-4578-9bd4-943bf6c9d8eb","ios":"levelo://app?vid=751ff1ed-b498-4578-9bd4-943bf6c9d8eb"},"vehicle_type_id":"4","last_reported":1742691245,"current_range_meters":12400,"station_id":"ce4bhu92rcd13ifvqi70","pricing_plan_id":"cebpf4jnsgd1na2vs0mg"},{"bike_id":"7a2f6967-205f-4037-9908-f8f4eb7cc673","system_id":"levelo_inurba_marseille","lat":43.30251,"lon":5.4007,"is_reserved":false,"is_disabled":false,"rental_uris":{"android":"levelo://app?vid=7a2f6967-205f-4037-9908-f8f4eb7cc673","ios":"levelo://app?vid=7a2f6967-205f-4037-9908-f8f4eb7cc673"},"vehicle_type_id":"4","last_reported":1742691245,"current_range_meters":12400,"station_id":"ce4bgvh2rcd13ifvqcs0","pricing_plan_id":"cebpf4jnsgd1na2vs0mg"},{"bike_id":"8a858ea1-7bd2-46ea-89e0-0e3881916363","system_id":"levelo_inurba_marseille","lat":43.2511,"lon":5.40331,"is_reserved":false,"is_disabled":true,"rental_uris":{"android":"levelo://app?vid=8a858ea1-7bd2-46ea-89e0-0e3881916363","ios":"levelo://app?vid=8a858ea1-7bd2-46ea-89e0-0e3881916363"},"vehicle_type_id":"4","last_reported":1742691245,"current_range_meters":12400,"station_id":"ce4bhlh2rcd13ifvqgig","pricing_plan_id":"cebpf4jnsgd1na2vs0mg"},{"bike_id":"c399a35b-56fb-4b44-8f3e-333ab6242a80","system_id":"levelo_inurba_marseille","lat":43.3061,"lon":5.37224,"is_reserved":false,"is_disabled":false,"rental_uris":{"android":"levelo://app?vid=c399a35b-56fb-4b44-8f3e-333ab6242a80","ios":"levelo://app?vid=c399a35b-56fb-4b44-8f3e-333ab6242a80"},"vehicle_type_id":"4","last_reported":1742691245,"current_range_meters":12400,"station_id":"ce4bgqh2rcd13ifvqc4g","pricing_plan_id":"cebpf4jnsgd1na2vs0mg"},{"bike_id":"a7c269ac-750b-4e61-a0a4-f774b818338f","system_id":"levelo_inurba_marseille","lat":43.28077,"lon":5.39643,"is_reserved":false,"is_disabled":false,"rental_uris":{"android":"levelo://app?vid=a7c269ac-750b-4e61-a0a4-f774b818338f","ios":"levelo://app?vid=a7c269ac-750b-4e61-a0a4-f774b818338f"},"vehicle_type_id":"4","last_reported":1742691245,"current_range_meters":12400,"station_id":"ce4bho12rcd13ifvqh2g","pricing_plan_id":"cebpf4jnsgd1na2vs0mg"},{"bike_id":"d954b141-3cee-4de0-9c29-d5babd11cd82","system_id":"levelo_inurba_marseille","lat":43.25114,"lon":5.39517,"is_reserved":false,"is_disabled":false,"rental_uris":{"android":"levelo://app?vid=d954b141-3cee-4de0-9c29-d5babd11cd82","ios":"levelo://app?vid=d954b141-3cee-4de0-9c29-d5babd11cd82"},"vehicle_type_id":"4","last_reported":1742691245,"current_range_meters":12400,"station_id":"ce4bhm12rcd13ifvqgkg","pricing_plan_id":"cebpf4jnsgd1na2vs0mg"},{"bike_id":"801ac92f-133f-417e-90ff-e9cdca3569b0","system_id":"levelo_inurba_marseille","lat":43.24093,"lon":5.37748,"is_reserved":false,"is_disabled":false,"rental_uris":{"android":"levelo://app?vid=801ac92f-133f-417e-90ff-e9cdca3569b0","ios":"levelo://app?vid=801ac92f-133f-417e-90ff-e9cdca3569b0"},"vehicle_type_id":"4","last_reported":1742691245,"current_range_meters":12400,"station_id":"ce4bhnp2rcd13ifvqgvg","pricing_plan_id":"cebpf4jnsgd1na2vs0mg"},{"bike_id":"b70a7dd1-1549-4122-8d42-8db2d55856b2","system_id":"levelo_inurba_marseille","lat":43.26223,"lon":5.40437,"is_reserved":false,"is_disabled":false,"rental_uris":{"android":"levelo://app?vid=b70a7dd1-1549-4122-8d42-8db2d55856b2","ios":"levelo://app?vid=b70a7dd1-1549-4122-8d42-8db2d55856b2"},"vehicle_type_id":"4","last_reported":1742691245,"current_range_meters":12400,"station_id":"ce4bhmh2rcd13ifvqgmg","pricing_plan_id":"cebpf4jnsgd1na2vs0mg"},{"bike_id":"2ac9509f-53b6-43eb-a543-46382f881e82","system_id":"levelo_inurba_marseille","lat":43.29889,"lon":5.38904,"is_reserved":false,"is_disabled":false,"rental_uris":{"android":"levelo://app?vid=2ac9509f-53b6-43eb-a543-46382f881e82","ios":"levelo://app?vid=2ac9509f-53b6-43eb-a543-46382f881e82"},"vehicle_type_id":"4","last_reported":1742691245,"current_range_meters":12400,"station_id":"ce4bh392rcd13ifvqdl0","pricing_plan_id":"cebpf4jnsgd1na2vs0mg"},{"bike_id":"b6da0cea-b960-4652-be57-f2bb8065fb68","system_id":"levelo_inurba_marseille","lat":43.2315,"lon":5.43721,"is_reserved":false,"is_disabled":false,"rental_uris":{"android":"levelo://app?vid=b6da0cea-b960-4652-be57-f2bb8065fb68","ios":"levelo://app?vid=b6da0cea-b960-4652-be57-f2bb8065fb68"},"vehicle_type_id":"4","last_reported":1742691245,"current_range_meters":12400,"station_id":"ce4bhmp2rcd13ifvqgog","pricing_plan_id":"cebpf4jnsgd1na2vs0mg"},{"bike_id":"568a0cd3-0827-4efd-b3f5-3915a32d88ba","system_id":"levelo_inurba_marseille","lat":43.29581,"lon":5.39975,"is_reserved":false,"is_disabled":false,"rental_uris":{"android":"levelo://app?vid=568a0cd3-0827-4efd-b3f5-3915a32d88ba","ios":"levelo://app?vid=568a0cd3-0827-4efd-b3f5-3915a32d88ba"},"vehicle_type_id":"4","last_reported":1742691245,"current_range_meters":12400,"station_id":"ce4bh312rcd13ifvqdj0","pricing_plan_id":"cebpf4jnsgd1na2vs0mg"},{"bike_id":"46c33e53-ef12-48da-9b41-098c7d23a359","system_id":"levelo_inurba_marseille","lat":43.27823,"lon":5.40699,"is_reserved":false,"is_disabled":false,"rental_uris":{"android":"levelo://app?vid=46c33e53-ef12-48da-9b41-098c7d23a359","ios":"levelo://app?vid=46c33e53-ef12-48da-9b41-098c7d23a359"},"vehicle_type_id":"4","last_reported":1742691245,"current_range_meters":12800,"station_id":"ce4bhnh2rcd13ifvqgtg","pricing_plan_id":"cebpf4jnsgd1na2vs0mg"},{"bike_id":"dd5d6d06-0e34-4684-b128-c77a8d50ab86","system_id":"levelo_inurba_marseille","lat":43.301367,"lon":5.374077,"is_reserved":false,"is_disabled":false,"rental_uris":{"android":"levelo://app?vid=dd5d6d06-0e34-4684-b128-c77a8d50ab86","ios":"levelo://app?vid=dd5d6d06-0e34-4684-b128-c77a8d50ab86"},"vehicle_type_id":"4","last_reported":1742691245,"current_range_meters":12800,"station_id":"ce4bgs92rcd13ifvqcc0","pricing_plan_id":"cebpf4jnsgd1na2vs0mg"},{"bike_id":"f9397cdf-4681-4ebd-9ed2-299c0517f62e","system_id":"levelo_inurba_marseille","lat":43.302859,"lon":5.376995,"is_reserved":false,"is_disabled":false,"rental_uris":{"android":"levelo://app?vid=f9397cdf-4681-4ebd-9ed2-299c0517f62e","ios":"levelo://app?vid=f9397cdf-4681-4ebd-9ed2-299c0517f62e"},"vehicle_type_id":"4","last_reported":1742691245,"current_range_meters":12800,"station_id":"ce4bguh2rcd13ifvqcj0","pricing_plan_id":"cebpf4jnsgd1na2vs0mg"},{"bike_id":"196e5527-f8ec-47c9-88d8-c0c49611574a","system_id":"levelo_inurba_marseille","lat":43.23059,"lon":5.35506,"is_reserved":false,"is_disabled":false,"rental_uris":{"android":"levelo://app?vid=196e5527-f8ec-47c9-88d8-c0c49611574a","ios":"levelo://app?vid=196e5527-f8ec-47c9-88d8-c0c49611574a"},"vehicle_type_id":"4","last_reported":1742691245,"current_range_meters":12800,"station_id":"cpo3342slgdg3j2ifvpg","pricing_plan_id":"cebpf4jnsgd1na2vs0mg"},{"bike_id":"243e616f-d261-4866-97d7-69c571164a87","system_id":"levelo_inurba_marseille","lat":43.30187,"lon":5.36608,"is_reserved":false,"is_disabled":false,"rental_uris":{"android":"levelo://app?vid=243e616f-d261-4866-97d7-69c571164a87","ios":"levelo://app?vid=243e616f-d261-4866-97d7-69c571164a87"},"vehicle_type_id":"4","last_reported":1742691245,"current_range_meters":12800,"station_id":"ce4bgrh2rcd13ifvqc8g","pricing_plan_id":"cebpf4jnsgd1na2vs0mg"},{"bike_id":"0af74a1a-d6e1-4579-b1c6-27467ba405fe","system_id":"levelo_inurba_marseille","lat":43.29909,"lon":5.39752,"is_reserved":false,"is_disabled":true,"rental_uris":{"android":"levelo://app?vid=0af74a1a-d6e1-4579-b1c6-27467ba405fe","ios":"levelo://app?vid=0af74a1a-d6e1-4579-b1c6-27467ba405fe"},"vehicle_type_id":"4","last_reported":1742691245,"current_range_meters":13600,"station_id":"ce4bh0h2rcd13ifvqd50","pricing_plan_id":"cebpf4jnsgd1na2vs0mg"},{"bike_id":"f86ffc39-b58b-4ddb-8cbd-598588fd3443","system_id":"levelo_inurba_marseille","lat":43.30246,"lon":5.40072,"is_reserved":false,"is_disabled":false,"rental_uris":{"android":"levelo://app?vid=f86ffc39-b58b-4ddb-8cbd-598588fd3443","ios":"levelo://app?vid=f86ffc39-b58b-4ddb-8cbd-598588fd3443"},"vehicle_type_id":"4","last_reported":1742691245,"current_range_meters":13600,"station_id":"ce4bgvh2rcd13ifvqcs0","pricing_plan_id":"cebpf4jnsgd1na2vs0mg"},{"bike_id":"ba52014b-a246-4894-a2c7-c3fb0c4bebc3","system_id":"levelo_inurba_marseille","lat":43.27823,"lon":5.40714,"is_reserved":false,"is_disabled":false,"rental_uris":{"android":"levelo://app?vid=ba52014b-a246-4894-a2c7-c3fb0c4bebc3","ios":"levelo://app?vid=ba52014b-a246-4894-a2c7-c3fb0c4bebc3"},"vehicle_type_id":"4","last_reported":1742691245,"current_range_meters":13600,"station_id":"ce4bhnh2rcd13ifvqgtg","pricing_plan_id":"cebpf4jnsgd1na2vs0mg"},{"bike_id":"07541760-82c4-4d38-b58c-85ffff07e965","system_id":"levelo_inurba_marseille","lat":43.23966,"lon":5.36622,"is_reserved":false,"is_disabled":false,"rental_uris":{"android":"levelo://app?vid=07541760-82c4-4d38-b58c-85ffff07e965","ios":"levelo://app?vid=07541760-82c4-4d38-b58c-85ffff07e965"},"vehicle_type_id":"4","last_reported":1742691245,"current_range_meters":13600,"station_id":"ce4bhi12rcd13ifvqfp0","pricing_plan_id":"cebpf4jnsgd1na2vs0mg"},{"bike_id":"4c406a29-ee9e-4446-b3db-6d7899ff79a2","system_id":"levelo_inurba_marseille","lat":43.24153,"lon":5.36402,"is_reserved":false,"is_disabled":false,"rental_uris":{"android":"levelo://app?vid=4c406a29-ee9e-4446-b3db-6d7899ff79a2","ios":"levelo://app?vid=4c406a29-ee9e-4446-b3db-6d7899ff79a2"},"vehicle_type_id":"4","last_reported":1742691245,"current_range_meters":13600,"station_id":"cpo36qri1sfpv3e86is0","pricing_plan_id":"cebpf4jnsgd1na2vs0mg"},{"bike_id":"bdd85a69-2526-423f-83bc-580097d3e5b5","system_id":"levelo_inurba_marseille","lat":43.2306,"lon":5.35504,"is_reserved":false,"is_disabled":false,"rental_uris":{"android":"levelo://app?vid=bdd85a69-2526-423f-83bc-580097d3e5b5","ios":"levelo://app?vid=bdd85a69-2526-423f-83bc-580097d3e5b5"},"vehicle_type_id":"4","last_reported":1742691245,"current_range_meters":13600,"station_id":"cpo3342slgdg3j2ifvpg","pricing_plan_id":"cebpf4jnsgd1na2vs0mg"},{"bike_id":"4c8a4056-48ac-48f3-aef0-9ae5cc16b399","system_id":"levelo_inurba_marseille","lat":43.27835,"lon":5.40693,"is_reserved":false,"is_disabled":false,"rental_uris":{"android":"levelo://app?vid=4c8a4056-48ac-48f3-aef0-9ae5cc16b399","ios":"levelo://app?vid=4c8a4056-48ac-48f3-aef0-9ae5cc16b399"},"vehicle_type_id":"4","last_reported":1742691245,"current_range_meters":13600,"station_id":"ce4bhnh2rcd13ifvqgtg","pricing_plan_id":"cebpf4jnsgd1na2vs0mg"},{"bike_id":"b638e0d7-250d-4483-9754-36eb29c25199","system_id":"levelo_inurba_marseille","lat":43.2881,"lon":5.39803,"is_reserved":false,"is_disabled":false,"rental_uris":{"android":"levelo://app?vid=b638e0d7-250d-4483-9754-36eb29c25199","ios":"levelo://app?vid=b638e0d7-250d-4483-9754-36eb29c25199"},"vehicle_type_id":"4","last_reported":1742691245,"current_range_meters":13600,"station_id":"","pricing_plan_id":"cebpf4jnsgd1na2vs0mg"},{"bike_id":"80beaee8-2975-44c4-aa81-0c3db38fa3c3","system_id":"levelo_inurba_marseille","lat":43.27954,"lon":5.38732,"is_reserved":false,"is_disabled":false,"rental_uris":{"android":"levelo://app?vid=80beaee8-2975-44c4-aa81-0c3db38fa3c3","ios":"levelo://app?vid=80beaee8-2975-44c4-aa81-0c3db38fa3c3"},"vehicle_type_id":"4","last_reported":1742691245,"current_range_meters":14000,"station_id":"ce4bhg12rcd13ifvqf80","pricing_plan_id":"cebpf4jnsgd1na2vs0mg"},{"bike_id":"29e0dca2-36a9-482c-8044-dfa0e3a8e371","system_id":"levelo_inurba_marseille","lat":43.30324,"lon":5.40435,"is_reserved":false,"is_disabled":false,"rental_uris":{"android":"levelo://app?vid=29e0dca2-36a9-482c-8044-dfa0e3a8e371","ios":"levelo://app?vid=29e0dca2-36a9-482c-8044-dfa0e3a8e371"},"vehicle_type_id":"4","last_reported":1742691245,"current_range_meters":14000,"station_id":"ce4bh012rcd13ifvqd10","pricing_plan_id":"cebpf4jnsgd1na2vs0mg"},{"bike_id":"91c30af2-df36-45e6-b173-96757fc2e1cb","system_id":"levelo_inurba_marseille","lat":43.2756,"lon":5.38419,"is_reserved":false,"is_disabled":false,"rental_uris":{"android":"levelo://app?vid=91c30af2-df36-45e6-b173-96757fc2e1cb","ios":"levelo://app?vid=91c30af2-df36-45e6-b173-96757fc2e1cb"},"vehicle_type_id":"4","last_reported":1742691245,"current_range_meters":14000,"station_id":"ce4bhh92rcd13ifvqfi0","pricing_plan_id":"cebpf4jnsgd1na2vs0mg"},{"bike_id":"f8ff41b7-94c3-4164-990c-0c31908da696","system_id":"levelo_inurba_marseille","lat":43.23062,"lon":5.3549,"is_reserved":false,"is_disabled":false,"rental_uris":{"android":"levelo://app?vid=f8ff41b7-94c3-4164-990c-0c31908da696","ios":"levelo://app?vid=f8ff41b7-94c3-4164-990c-0c31908da696"},"vehicle_type_id":"4","last_reported":1742691245,"current_range_meters":14000,"station_id":"cpo3342slgdg3j2ifvpg","pricing_plan_id":"cebpf4jnsgd1na2vs0mg"},{"bike_id":"e41bf9f2-5cdf-4a27-9e19-85dd8eb5dce8","system_id":"levelo_inurba_marseille","lat":43.301334,"lon":5.374164,"is_reserved":false,"is_disabled":false,"rental_uris":{"android":"levelo://app?vid=e41bf9f2-5cdf-4a27-9e19-85dd8eb5dce8","ios":"levelo://app?vid=e41bf9f2-5cdf-4a27-9e19-85dd8eb5dce8"},"vehicle_type_id":"4","last_reported":1742691245,"current_range_meters":14400,"station_id":"ce4bgs92rcd13ifvqcc0","pricing_plan_id":"cebpf4jnsgd1na2vs0mg"},{"bike_id":"e9a9504c-2bd3-4794-962a-75af7ffca5fb","system_id":"levelo_inurba_marseille","lat":43.28154,"lon":5.4264,"is_reserved":false,"is_disabled":false,"rental_uris":{"android":"levelo://app?vid=e9a9504c-2bd3-4794-962a-75af7ffca5fb","ios":"levelo://app?vid=e9a9504c-2bd3-4794-962a-75af7ffca5fb"},"vehicle_type_id":"4","last_reported":1742691245,"current_range_meters":14400,"station_id":"ce4bhnh2rcd13ifvqgug","pricing_plan_id":"cebpf4jnsgd1na2vs0mg"},{"bike_id":"cd897869-d51d-467c-9826-c044773d3f8c","system_id":"levelo_inurba_marseille","lat":43.24166,"lon":5.36406,"is_reserved":false,"is_disabled":false,"rental_uris":{"android":"levelo://app?vid=cd897869-d51d-467c-9826-c044773d3f8c","ios":"levelo://app?vid=cd897869-d51d-467c-9826-c044773d3f8c"},"vehicle_type_id":"4","last_reported":1742691245,"current_range_meters":14400,"station_id":"cpo36qri1sfpv3e86is0","pricing_plan_id":"cebpf4jnsgd1na2vs0mg"},{"bike_id":"aac9c88c-f5a7-456a-8771-f428287baf4d","system_id":"levelo_inurba_marseille","lat":43.3019,"lon":5.36627,"is_reserved":false,"is_disabled":false,"rental_uris":{"android":"levelo://app?vid=aac9c88c-f5a7-456a-8771-f428287baf4d","ios":"levelo://app?vid=aac9c88c-f5a7-456a-8771-f428287baf4d"},"vehicle_type_id":"4","last_reported":1742691245,"current_range_meters":14400,"station_id":"ce4bgrh2rcd13ifvqc8g","pricing_plan_id":"cebpf4jnsgd1na2vs0mg"},{"bike_id":"f657da43-9a05-4822-9c77-ad8671579423","system_id":"levelo_inurba_marseille","lat":43.29619,"lon":5.39925,"is_reserved":false,"is_disabled":true,"rental_uris":{"android":"levelo://app?vid=f657da43-9a05-4822-9c77-ad8671579423","ios":"levelo://app?vid=f657da43-9a05-4822-9c77-ad8671579423"},"vehicle_type_id":"4","last_reported":1742691245,"current_range_meters":14400,"station_id":"","pricing_plan_id":"cebpf4jnsgd1na2vs0mg"},{"bike_id":"e1d5ccb8-df20-4be9-a6b8-0866cd694d75","system_id":"levelo_inurba_marseille","lat":43.25119,"lon":5.40321,"is_reserved":false,"is_disabled":false,"rental_uris":{"android":"levelo://app?vid=e1d5ccb8-df20-4be9-a6b8-0866cd694d75","ios":"levelo://app?vid=e1d5ccb8-df20-4be9-a6b8-0866cd694d75"},"vehicle_type_id":"4","last_reported":1742691245,"current_range_meters":14400,"station_id":"ce4bhlh2rcd13ifvqgig","pricing_plan_id":"cebpf4jnsgd1na2vs0mg"},{"bike_id":"8faee863-fede-4a48-8c5c-84d35fe9974e","system_id":"levelo_inurba_marseille","lat":43.30322,"lon":5.36918,"is_reserved":false,"is_disabled":false,"rental_uris":{"android":"levelo://app?vid=8faee863-fede-4a48-8c5c-84d35fe9974e","ios":"levelo://app?vid=8faee863-fede-4a48-8c5c-84d35fe9974e"},"vehicle_type_id":"4","last_reported":1742691245,"current_range_meters":14400,"station_id":"ce4bgqh2rcd13ifvqc5g","pricing_plan_id":"cebpf4jnsgd1na2vs0mg"},{"bike_id":"9a637bd7-63eb-426c-8dd6-d94d5d9b125a","system_id":"levelo_inurba_marseille","lat":43.31362,"lon":5.385,"is_reserved":false,"is_disabled":false,"rental_uris":{"android":"levelo://app?vid=9a637bd7-63eb-426c-8dd6-d94d5d9b125a","ios":"levelo://app?vid=9a637bd7-63eb-426c-8dd6-d94d5d9b125a"},"vehicle_type_id":"4","last_reported":1742691245,"current_range_meters":14800,"station_id":"ce4bgt92rcd13ifvqcf0","pricing_plan_id":"cebpf4jnsgd1na2vs0mg"},{"bike_id":"d77ea824-1ea6-4980-80c7-ce0e34efe7ca","system_id":"levelo_inurba_marseille","lat":43.28165,"lon":5.42642,"is_reserved":false,"is_disabled":false,"rental_uris":{"android":"levelo://app?vid=d77ea824-1ea6-4980-80c7-ce0e34efe7ca","ios":"levelo://app?vid=d77ea824-1ea6-4980-80c7-ce0e34efe7ca"},"vehicle_type_id":"4","last_reported":1742691245,"current_range_meters":14800,"station_id":"ce4bhnh2rcd13ifvqgug","pricing_plan_id":"cebpf4jnsgd1na2vs0mg"},{"bike_id":"033c8811-f42b-4df3-8fd1-f7410abb7ead","system_id":"levelo_inurba_marseille","lat":43.2738,"lon":5.36258,"is_reserved":false,"is_disabled":false,"rental_uris":{"android":"levelo://app?vid=033c8811-f42b-4df3-8fd1-f7410abb7ead","ios":"levelo://app?vid=033c8811-f42b-4df3-8fd1-f7410abb7ead"},"vehicle_type_id":"4","last_reported":1742691245,"current_range_meters":14800,"station_id":"ce4bhbh2rcd13ifvqeo0","pricing_plan_id":"cebpf4jnsgd1na2vs0mg"},{"bike_id":"1650359f-760e-4a41-ab05-5e8897b971d2","system_id":"levelo_inurba_marseille","lat":43.31771,"lon":5.39013,"is_reserved":false,"is_disabled":false,"rental_uris":{"android":"levelo://app?vid=1650359f-760e-4a41-ab05-5e8897b971d2","ios":"levelo://app?vid=1650359f-760e-4a41-ab05-5e8897b971d2"},"vehicle_type_id":"4","last_reported":1742691245,"current_range_meters":14800,"station_id":"ce4bhqp2rcd13ifvqhng","pricing_plan_id":"cebpf4jnsgd1na2vs0mg"},{"bike_id":"707b6259-e6af-4a07-b66e-cac047e58710","system_id":"levelo_inurba_marseille","lat":43.290544,"lon":5.359287,"is_reserved":false,"is_disabled":false,"rental_uris":{"android":"levelo://app?vid=707b6259-e6af-4a07-b66e-cac047e58710","ios":"levelo://app?vid=707b6259-e6af-4a07-b66e-cac047e58710"},"vehicle_type_id":"4","last_reported":1742691245,"current_range_meters":14800,"station_id":"ce4bha92rcd13ifvqeg0","pricing_plan_id":"cebpf4jnsgd1na2vs0mg"},{"bike_id":"1542e904-806a-47f4-9338-21788e6e778e","system_id":"levelo_inurba_marseille","lat":43.23949,"lon":5.36645,"is_reserved":false,"is_disabled":false,"rental_uris":{"android":"levelo://app?vid=1542e904-806a-47f4-9338-21788e6e778e","ios":"levelo://app?vid=1542e904-806a-47f4-9338-21788e6e778e"},"vehicle_type_id":"4","last_reported":1742691245,"current_range_meters":14800,"station_id":"ce4bhi12rcd13ifvqfp0","pricing_plan_id":"cebpf4jnsgd1na2vs0mg"},{"bike_id":"b309db15-de8c-4b8e-8018-9bc65aaa9102","system_id":"levelo_inurba_marseille","lat":43.25726,"lon":5.41109,"is_reserved":false,"is_disabled":false,"rental_uris":{"android":"levelo://app?vid=b309db15-de8c-4b8e-8018-9bc65aaa9102","ios":"levelo://app?vid=b309db15-de8c-4b8e-8018-9bc65aaa9102"},"vehicle_type_id":"4","last_reported":1742691245,"current_range_meters":14800,"station_id":"ce4bhkp2rcd13ifvqgd0","pricing_plan_id":"cebpf4jnsgd1na2vs0mg"},{"bike_id":"076f908a-2500-4b3d-8d99-34a0921dd50f","system_id":"levelo_inurba_marseille","lat":43.27999,"lon":5.38751,"is_reserved":false,"is_disabled":false,"rental_uris":{"android":"levelo://app?vid=076f908a-2500-4b3d-8d99-34a0921dd50f","ios":"levelo://app?vid=076f908a-2500-4b3d-8d99-34a0921dd50f"},"vehicle_type_id":"4","last_reported":1742691245,"current_range_meters":14800,"station_id":"ce4bhg12rcd13ifvqf80","pricing_plan_id":"cebpf4jnsgd1na2vs0mg"},{"bike_id":"1138aab6-986b-4a3a-a9e4-662e2f105c01","system_id":"levelo_inurba_marseille","lat":43.28342,"lon":5.38107,"is_reserved":false,"is_disabled":false,"rental_uris":{"android":"levelo://app?vid=1138aab6-986b-4a3a-a9e4-662e2f105c01","ios":"levelo://app?vid=1138aab6-986b-4a3a-a9e4-662e2f105c01"},"vehicle_type_id":"4","last_reported":1742691245,"current_range_meters":14800,"station_id":"ce4bh412rcd13ifvqdr0","pricing_plan_id":"cebpf4jnsgd1na2vs0mg"},{"bike_id":"f0efccb8-d8b7-4849-ae49-630cce0ea173","system_id":"levelo_inurba_marseille","lat":43.25121,"lon":5.40323,"is_reserved":false,"is_disabled":false,"rental_uris":{"android":"levelo://app?vid=f0efccb8-d8b7-4849-ae49-630cce0ea173","ios":"levelo://app?vid=f0efccb8-d8b7-4849-ae49-630cce0ea173"},"vehicle_type_id":"4","last_reported":1742691245,"current_range_meters":14800,"station_id":"ce4bhlh2rcd13ifvqgig","pricing_plan_id":"cebpf4jnsgd1na2vs0mg"},{"bike_id":"91192208-bbc7-4b22-a959-cb7514acfb4a","system_id":"levelo_inurba_marseille","lat":43.25126,"lon":5.40322,"is_reserved":false,"is_disabled":false,"rental_uris":{"android":"levelo://app?vid=91192208-bbc7-4b22-a959-cb7514acfb4a","ios":"levelo://app?vid=91192208-bbc7-4b22-a959-cb7514acfb4a"},"vehicle_type_id":"4","last_reported":1742691245,"current_range_meters":15200,"station_id":"ce4bhlh2rcd13ifvqgig","pricing_plan_id":"cebpf4jnsgd1na2vs0mg"},{"bike_id":"e2b68c00-ea55-4d0f-ae98-6403b351276c","system_id":"levelo_inurba_marseille","lat":43.23051,"lon":5.35496,"is_reserved":false,"is_disabled":false,"rental_uris":{"android":"levelo://app?vid=e2b68c00-ea55-4d0f-ae98-6403b351276c","ios":"levelo://app?vid=e2b68c00-ea55-4d0f-ae98-6403b351276c"},"vehicle_type_id":"4","last_reported":1742691245,"current_range_meters":15200,"station_id":"cpo3342slgdg3j2ifvpg","pricing_plan_id":"cebpf4jnsgd1na2vs0mg"},{"bike_id":"4e7674c4-c98f-4c11-a326-2be631d6d61f","system_id":"levelo_inurba_marseille","lat":43.30289,"lon":5.37742,"is_reserved":false,"is_disabled":false,"rental_uris":{"android":"levelo://app?vid=4e7674c4-c98f-4c11-a326-2be631d6d61f","ios":"levelo://app?vid=4e7674c4-c98f-4c11-a326-2be631d6d61f"},"vehicle_type_id":"4","last_reported":1742691245,"current_range_meters":15200,"station_id":"ce4bguh2rcd13ifvqcj0","pricing_plan_id":"cebpf4jnsgd1na2vs0mg"},{"bike_id":"3bfbd693-4245-4281-88bd-3df0f5f2b072","system_id":"levelo_inurba_marseille","lat":43.24174,"lon":5.36392,"is_reserved":false,"is_disabled":false,"rental_uris":{"android":"levelo://app?vid=3bfbd693-4245-4281-88bd-3df0f5f2b072","ios":"levelo://app?vid=3bfbd693-4245-4281-88bd-3df0f5f2b072"},"vehicle_type_id":"4","last_reported":1742691245,"current_range_meters":15200,"station_id":"cpo36qri1sfpv3e86is0","pricing_plan_id":"cebpf4jnsgd1na2vs0mg"},{"bike_id":"8ac76298-3375-4b96-8a90-9315b1510fa4","system_id":"levelo_inurba_marseille","lat":43.27808,"lon":5.40733,"is_reserved":false,"is_disabled":true,"rental_uris":{"android":"levelo://app?vid=8ac76298-3375-4b96-8a90-9315b1510fa4","ios":"levelo://app?vid=8ac76298-3375-4b96-8a90-9315b1510fa4"},"vehicle_type_id":"4","last_reported":1742691245,"current_range_meters":15200,"station_id":"ce4bhnh2rcd13ifvqgtg","pricing_plan_id":"cebpf4jnsgd1na2vs0mg"},{"bike_id":"cbde71c9-aab8-4882-a131-e019ebf62cb9","system_id":"levelo_inurba_marseille","lat":43.30145,"lon":5.37412,"is_reserved":false,"is_disabled":false,"rental_uris":{"android":"levelo://app?vid=cbde71c9-aab8-4882-a131-e019ebf62cb9","ios":"levelo://app?vid=cbde71c9-aab8-4882-a131-e019ebf62cb9"},"vehicle_type_id":"4","last_reported":1742691245,"current_range_meters":15200,"station_id":"ce4bgs92rcd13ifvqcc0","pricing_plan_id":"cebpf4jnsgd1na2vs0mg"},{"bike_id":"17238c44-02e8-4ba3-abe3-5ae6a9cab49f","system_id":"levelo_inurba_marseille","lat":43.31756,"lon":5.39028,"is_reserved":false,"is_disabled":true,"rental_uris":{"android":"levelo://app?vid=17238c44-02e8-4ba3-abe3-5ae6a9cab49f","ios":"levelo://app?vid=17238c44-02e8-4ba3-abe3-5ae6a9cab49f"},"vehicle_type_id":"4","last_reported":1742691245,"current_range_meters":16000,"station_id":"ce4bhqp2rcd13ifvqhng","pricing_plan_id":"cebpf4jnsgd1na2vs0mg"},{"bike_id":"3ee74040-2c52-4ee4-a01a-33341ac46315","system_id":"levelo_inurba_marseille","lat":43.2893,"lon":5.36625,"is_reserved":false,"is_disabled":false,"rental_uris":{"android":"levelo://app?vid=3ee74040-2c52-4ee4-a01a-33341ac46315","ios":"levelo://app?vid=3ee74040-2c52-4ee4-a01a-33341ac46315"},"vehicle_type_id":"4","last_reported":1742691245,"current_range_meters":16000,"station_id":"ce4bhap2rcd13ifvqek0","pricing_plan_id":"cebpf4jnsgd1na2vs0mg"},{"bike_id":"991f6e4e-e332-4b84-baa4-5dede42d36ee","system_id":"levelo_inurba_marseille","lat":43.3117,"lon":5.38725,"is_reserved":false,"is_disabled":false,"rental_uris":{"android":"levelo://app?vid=991f6e4e-e332-4b84-baa4-5dede42d36ee","ios":"levelo://app?vid=991f6e4e-e332-4b84-baa4-5dede42d36ee"},"vehicle_type_id":"4","last_reported":1742691245,"current_range_meters":16000,"station_id":"ce4bgv12rcd13ifvqcp0","pricing_plan_id":"cebpf4jnsgd1na2vs0mg"},{"bike_id":"b0d9750a-8007-4292-bbe4-125f34d23ca3","system_id":"levelo_inurba_marseille","lat":43.28431,"lon":5.35004,"is_reserved":false,"is_disabled":false,"rental_uris":{"android":"levelo://app?vid=b0d9750a-8007-4292-bbe4-125f34d23ca3","ios":"levelo://app?vid=b0d9750a-8007-4292-bbe4-125f34d23ca3"},"vehicle_type_id":"4","last_reported":1742691245,"current_range_meters":16000,"station_id":"ce4bhbh2rcd13ifvqepg","pricing_plan_id":"cebpf4jnsgd1na2vs0mg"},{"bike_id":"f52c7f07-7a6b-4dbc-aeae-9fa998834082","system_id":"levelo_inurba_marseille","lat":43.3231,"lon":5.3755,"is_reserved":false,"is_disabled":false,"rental_uris":{"android":"levelo://app?vid=f52c7f07-7a6b-4dbc-aeae-9fa998834082","ios":"levelo://app?vid=f52c7f07-7a6b-4dbc-aeae-9fa998834082"},"vehicle_type_id":"4","last_reported":1742691245,"current_range_meters":16400,"station_id":"","pricing_plan_id":"cebpf4jnsgd1na2vs0mg"},{"bike_id":"fe2fb6aa-f984-4c3f-aa2e-60994cc50476","system_id":"levelo_inurba_marseille","lat":43.28698,"lon":5.40002,"is_reserved":false,"is_disabled":false,"rental_uris":{"android":"levelo://app?vid=fe2fb6aa-f984-4c3f-aa2e-60994cc50476","ios":"levelo://app?vid=fe2fb6aa-f984-4c3f-aa2e-60994cc50476"},"vehicle_type_id":"4","last_reported":1742691245,"current_range_meters":16400,"station_id":"ce4bho92rcd13ifvqh3g","pricing_plan_id":"cebpf4jnsgd1na2vs0mg"},{"bike_id":"aaf21abd-4df0-4de8-915d-555a82a1dfef","system_id":"levelo_inurba_marseille","lat":43.28422,"lon":5.34995,"is_reserved":false,"is_disabled":false,"rental_uris":{"android":"levelo://app?vid=aaf21abd-4df0-4de8-915d-555a82a1dfef","ios":"levelo://app?vid=aaf21abd-4df0-4de8-915d-555a82a1dfef"},"vehicle_type_id":"4","last_reported":1742691245,"current_range_meters":16400,"station_id":"ce4bhbh2rcd13ifvqepg","pricing_plan_id":"cebpf4jnsgd1na2vs0mg"},{"bike_id":"d82cd2a3-6251-496b-8e5b-7fe5716620ca","system_id":"levelo_inurba_marseille","lat":43.29923,"lon":5.36564,"is_reserved":false,"is_disabled":false,"rental_uris":{"android":"levelo://app?vid=d82cd2a3-6251-496b-8e5b-7fe5716620ca","ios":"levelo://app?vid=d82cd2a3-6251-496b-8e5b-7fe5716620ca"},"vehicle_type_id":"4","last_reported":1742691245,"current_range_meters":16400,"station_id":"ce4bgm92rcd13ifvqbr0","pricing_plan_id":"cebpf4jnsgd1na2vs0mg"},{"bike_id":"bcd6b185-6932-4feb-b6ee-e18af8abd54c","system_id":"levelo_inurba_marseille","lat":43.27039,"lon":5.40257,"is_reserved":false,"is_disabled":false,"rental_uris":{"android":"levelo://app?vid=bcd6b185-6932-4feb-b6ee-e18af8abd54c","ios":"levelo://app?vid=bcd6b185-6932-4feb-b6ee-e18af8abd54c"},"vehicle_type_id":"4","last_reported":1742691245,"current_range_meters":16400,"station_id":"ce4bhk92rcd13ifvqgc0","pricing_plan_id":"cebpf4jnsgd1na2vs0mg"},{"bike_id":"08aedb60-1792-431a-8ec9-07b905c3565e","system_id":"levelo_inurba_marseille","lat":43.30432,"lon":5.39737,"is_reserved":false,"is_disabled":false,"rental_uris":{"android":"levelo://app?vid=08aedb60-1792-431a-8ec9-07b905c3565e","ios":"levelo://app?vid=08aedb60-1792-431a-8ec9-07b905c3565e"},"vehicle_type_id":"4","last_reported":1742691245,"current_range_meters":16800,"station_id":"ce4bh092rcd13ifvqd20","pricing_plan_id":"cebpf4jnsgd1na2vs0mg"},{"bike_id":"40b09d51-5b17-4099-b740-7944001f9b4a","system_id":"levelo_inurba_marseille","lat":43.30932,"lon":5.40144,"is_reserved":false,"is_disabled":false,"rental_uris":{"android":"levelo://app?vid=40b09d51-5b17-4099-b740-7944001f9b4a","ios":"levelo://app?vid=40b09d51-5b17-4099-b740-7944001f9b4a"},"vehicle_type_id":"4","last_reported":1742691245,"current_range_meters":16800,"station_id":"ce4bgvp2rcd13ifvqct0","pricing_plan_id":"cebpf4jnsgd1na2vs0mg"},{"bike_id":"132e55da-26e4-462b-ad22-7768c90960fb","system_id":"levelo_inurba_marseille","lat":43.29315,"lon":5.37169,"is_reserved":false,"is_disabled":true,"rental_uris":{"android":"levelo://app?vid=132e55da-26e4-462b-ad22-7768c90960fb","ios":"levelo://app?vid=132e55da-26e4-462b-ad22-7768c90960fb"},"vehicle_type_id":"4","last_reported":1742691245,"current_range_meters":16800,"station_id":"ce4bgh92rcd13ifvqb40","pricing_plan_id":"cebpf4jnsgd1na2vs0mg"},{"bike_id":"8522f09e-029b-4ad4-874d-178efb07c438","system_id":"levelo_inurba_marseille","lat":43.273814,"lon":5.362545,"is_reserved":false,"is_disabled":false,"rental_uris":{"android":"levelo://app?vid=8522f09e-029b-4ad4-874d-178efb07c438","ios":"levelo://app?vid=8522f09e-029b-4ad4-874d-178efb07c438"},"vehicle_type_id":"4","last_reported":1742691245,"current_range_meters":16800,"station_id":"ce4bhbh2rcd13ifvqeo0","pricing_plan_id":"cebpf4jnsgd1na2vs0mg"},{"bike_id":"362ce256-d873-44d5-8d0c-8eb3060da6b1","system_id":"levelo_inurba_marseille","lat":43.28171,"lon":5.42622,"is_reserved":false,"is_disabled":false,"rental_uris":{"android":"levelo://app?vid=362ce256-d873-44d5-8d0c-8eb3060da6b1","ios":"levelo://app?vid=362ce256-d873-44d5-8d0c-8eb3060da6b1"},"vehicle_type_id":"4","last_reported":1742691245,"current_range_meters":16800,"station_id":"ce4bhnh2rcd13ifvqgug","pricing_plan_id":"cebpf4jnsgd1na2vs0mg"},{"bike_id":"08b38b3a-e231-44ae-a076-0a5104582bea","system_id":"levelo_inurba_marseille","lat":43.31121,"lon":5.37758,"is_reserved":false,"is_disabled":false,"rental_uris":{"android":"levelo://app?vid=08b38b3a-e231-44ae-a076-0a5104582bea","ios":"levelo://app?vid=08b38b3a-e231-44ae-a076-0a5104582bea"},"vehicle_type_id":"4","last_reported":1742691245,"current_range_meters":16800,"station_id":"ce4bgt92rcd13ifvqcg0","pricing_plan_id":"cebpf4jnsgd1na2vs0mg"},{"bike_id":"797f21b1-6576-4957-a0d2-8a4d02fe71c9","system_id":"levelo_inurba_marseille","lat":43.30175,"lon":5.36605,"is_reserved":false,"is_disabled":false,"rental_uris":{"android":"levelo://app?vid=797f21b1-6576-4957-a0d2-8a4d02fe71c9","ios":"levelo://app?vid=797f21b1-6576-4957-a0d2-8a4d02fe71c9"},"vehicle_type_id":"4","last_reported":1742691245,"current_range_meters":16800,"station_id":"ce4bgrh2rcd13ifvqc8g","pricing_plan_id":"cebpf4jnsgd1na2vs0mg"},{"bike_id":"7a0f898f-c2eb-49bb-a5ac-04e8a67ebfbd","system_id":"levelo_inurba_marseille","lat":43.28364,"lon":5.38644,"is_reserved":false,"is_disabled":false,"rental_uris":{"android":"levelo://app?vid=7a0f898f-c2eb-49bb-a5ac-04e8a67ebfbd","ios":"levelo://app?vid=7a0f898f-c2eb-49bb-a5ac-04e8a67ebfbd"},"vehicle_type_id":"4","last_reported":1742691245,"current_range_meters":16800,"station_id":"ce4bh492rcd13ifvqdvg","pricing_plan_id":"cebpf4jnsgd1na2vs0mg"},{"bike_id":"b0412563-bdfd-4056-9ff8-db1bf9f2dd0a","system_id":"levelo_inurba_marseille","lat":43.2397,"lon":5.36641,"is_reserved":false,"is_disabled":false,"rental_uris":{"android":"levelo://app?vid=b0412563-bdfd-4056-9ff8-db1bf9f2dd0a","ios":"levelo://app?vid=b0412563-bdfd-4056-9ff8-db1bf9f2dd0a"},"vehicle_type_id":"4","last_reported":1742691245,"current_range_meters":16800,"station_id":"ce4bhi12rcd13ifvqfp0","pricing_plan_id":"cebpf4jnsgd1na2vs0mg"},{"bike_id":"587c4b09-c6c3-4755-8011-d820e3904490","system_id":"levelo_inurba_marseille","lat":43.23965,"lon":5.36619,"is_reserved":false,"is_disabled":false,"rental_uris":{"android":"levelo://app?vid=587c4b09-c6c3-4755-8011-d820e3904490","ios":"levelo://app?vid=587c4b09-c6c3-4755-8011-d820e3904490"},"vehicle_type_id":"4","last_reported":1742691245,"current_range_meters":16800,"station_id":"ce4bhi12rcd13ifvqfp0","pricing_plan_id":"cebpf4jnsgd1na2vs0mg"},{"bike_id":"a8b3cb95-f059-47ac-b672-1c7197ca6c51","system_id":"levelo_inurba_marseille","lat":43.28159,"lon":5.42641,"is_reserved":false,"is_disabled":false,"rental_uris":{"android":"levelo://app?vid=a8b3cb95-f059-47ac-b672-1c7197ca6c51","ios":"levelo://app?vid=a8b3cb95-f059-47ac-b672-1c7197ca6c51"},"vehicle_type_id":"4","last_reported":1742691245,"current_range_meters":17200,"station_id":"ce4bhnh2rcd13ifvqgug","pricing_plan_id":"cebpf4jnsgd1na2vs0mg"},{"bike_id":"d360d215-f93b-45ab-a5f1-4102be4f35f5","system_id":"levelo_inurba_marseille","lat":43.2764,"lon":5.36094,"is_reserved":false,"is_disabled":false,"rental_uris":{"android":"levelo://app?vid=d360d215-f93b-45ab-a5f1-4102be4f35f5","ios":"levelo://app?vid=d360d215-f93b-45ab-a5f1-4102be4f35f5"},"vehicle_type_id":"4","last_reported":1742691245,"current_range_meters":17200,"station_id":"ce4bgj92rcd13ifvqbe0","pricing_plan_id":"cebpf4jnsgd1na2vs0mg"},{"bike_id":"34207fc9-5939-4edc-8d37-fffbb14f3eec","system_id":"levelo_inurba_marseille","lat":43.30761,"lon":5.38282,"is_reserved":false,"is_disabled":false,"rental_uris":{"android":"levelo://app?vid=34207fc9-5939-4edc-8d37-fffbb14f3eec","ios":"levelo://app?vid=34207fc9-5939-4edc-8d37-fffbb14f3eec"},"vehicle_type_id":"4","last_reported":1742691245,"current_range_meters":17200,"station_id":"","pricing_plan_id":"cebpf4jnsgd1na2vs0mg"},{"bike_id":"794ab3b1-6b79-465f-9e24-0b951f6413fe","system_id":"levelo_inurba_marseille","lat":43.30586,"lon":5.37211,"is_reserved":false,"is_disabled":false,"rental_uris":{"android":"levelo://app?vid=794ab3b1-6b79-465f-9e24-0b951f6413fe","ios":"levelo://app?vid=794ab3b1-6b79-465f-9e24-0b951f6413fe"},"vehicle_type_id":"4","last_reported":1742691245,"current_range_meters":17200,"station_id":"ce4bgqh2rcd13ifvqc4g","pricing_plan_id":"cebpf4jnsgd1na2vs0mg"},{"bike_id":"b4033be0-5b35-45ca-9979-c7890f6c888e","system_id":"levelo_inurba_marseille","lat":43.311677,"lon":5.387185,"is_reserved":false,"is_disabled":false,"rental_uris":{"android":"levelo://app?vid=b4033be0-5b35-45ca-9979-c7890f6c888e","ios":"levelo://app?vid=b4033be0-5b35-45ca-9979-c7890f6c888e"},"vehicle_type_id":"4","last_reported":1742691245,"current_range_meters":17200,"station_id":"ce4bh612rcd13ifvqe6g","pricing_plan_id":"cebpf4jnsgd1na2vs0mg"},{"bike_id":"1b1e1f3d-0559-4d12-8587-d05a8bddb5bb","system_id":"levelo_inurba_marseille","lat":43.30288,"lon":5.37694,"is_reserved":false,"is_disabled":false,"rental_uris":{"android":"levelo://app?vid=1b1e1f3d-0559-4d12-8587-d05a8bddb5bb","ios":"levelo://app?vid=1b1e1f3d-0559-4d12-8587-d05a8bddb5bb"},"vehicle_type_id":"4","last_reported":1742691245,"current_range_meters":17200,"station_id":"ce4bguh2rcd13ifvqcj0","pricing_plan_id":"cebpf4jnsgd1na2vs0mg"},{"bike_id":"190b2064-fd76-48bb-8245-b597993b1043","system_id":"levelo_inurba_marseille","lat":43.27812,"lon":5.40721,"is_reserved":false,"is_disabled":false,"rental_uris":{"android":"levelo://app?vid=190b2064-fd76-48bb-8245-b597993b1043","ios":"levelo://app?vid=190b2064-fd76-48bb-8245-b597993b1043"},"vehicle_type_id":"4","last_reported":1742691245,"current_range_meters":17200,"station_id":"ce4bhnh2rcd13ifvqgtg","pricing_plan_id":"cebpf4jnsgd1na2vs0mg"},{"bike_id":"b72c88b3-1945-44b5-bf7b-ae4fb01fb317","system_id":"levelo_inurba_marseille","lat":43.323713,"lon":5.388874,"is_reserved":false,"is_disabled":false,"rental_uris":{"android":"levelo://app?vid=b72c88b3-1945-44b5-bf7b-ae4fb01fb317","ios":"levelo://app?vid=b72c88b3-1945-44b5-bf7b-ae4fb01fb317"},"vehicle_type_id":"4","last_reported":1742691245,"current_range_meters":17200,"station_id":"ce4bhqp2rcd13ifvqhog","pricing_plan_id":"cebpf4jnsgd1na2vs0mg"},{"bike_id":"73f24004-486a-42ce-8b4c-437345158989","system_id":"levelo_inurba_marseille","lat":43.2594,"lon":5.40892,"is_reserved":false,"is_disabled":false,"rental_uris":{"android":"levelo://app?vid=73f24004-486a-42ce-8b4c-437345158989","ios":"levelo://app?vid=73f24004-486a-42ce-8b4c-437345158989"},"vehicle_type_id":"4","last_reported":1742691245,"current_range_meters":17600,"station_id":"ce4bhm92rcd13ifvqglg","pricing_plan_id":"cebpf4jnsgd1na2vs0mg"},{"bike_id":"f9b9efe5-1766-4bdd-aff6-16d6f436a143","system_id":"levelo_inurba_marseille","lat":43.303142,"lon":5.369022,"is_reserved":false,"is_disabled":false,"rental_uris":{"android":"levelo://app?vid=f9b9efe5-1766-4bdd-aff6-16d6f436a143","ios":"levelo://app?vid=f9b9efe5-1766-4bdd-aff6-16d6f436a143"},"vehicle_type_id":"4","last_reported":1742691245,"current_range_meters":17600,"station_id":"ce4bgqh2rcd13ifvqc5g","pricing_plan_id":"cebpf4jnsgd1na2vs0mg"},{"bike_id":"f52d578c-2e92-468c-8d0d-6b48faf8734d","system_id":"levelo_inurba_marseille","lat":43.29873,"lon":5.38914,"is_reserved":false,"is_disabled":true,"rental_uris":{"android":"levelo://app?vid=f52d578c-2e92-468c-8d0d-6b48faf8734d","ios":"levelo://app?vid=f52d578c-2e92-468c-8d0d-6b48faf8734d"},"vehicle_type_id":"4","last_reported":1742691245,"current_range_meters":17600,"station_id":"ce4bh392rcd13ifvqdl0","pricing_plan_id":"cebpf4jnsgd1na2vs0mg"},{"bike_id":"737423ad-2155-4a4e-8bd0-a3218f9db4b4","system_id":"levelo_inurba_marseille","lat":43.24077,"lon":5.3774,"is_reserved":false,"is_disabled":false,"rental_uris":{"android":"levelo://app?vid=737423ad-2155-4a4e-8bd0-a3218f9db4b4","ios":"levelo://app?vid=737423ad-2155-4a4e-8bd0-a3218f9db4b4"},"vehicle_type_id":"4","last_reported":1742691245,"current_range_meters":17600,"station_id":"ce4bhnp2rcd13ifvqgvg","pricing_plan_id":"cebpf4jnsgd1na2vs0mg"},{"bike_id":"7cbfd31c-d553-492c-81cb-8dae7f501a58","system_id":"levelo_inurba_marseille","lat":43.2832,"lon":5.43274,"is_reserved":false,"is_disabled":false,"rental_uris":{"android":"levelo://app?vid=7cbfd31c-d553-492c-81cb-8dae7f501a58","ios":"levelo://app?vid=7cbfd31c-d553-492c-81cb-8dae7f501a58"},"vehicle_type_id":"4","last_reported":1742691245,"current_range_meters":17600,"station_id":"","pricing_plan_id":"cebpf4jnsgd1na2vs0mg"},{"bike_id":"0251a0f1-4270-40d8-a9db-0456c0b99805","system_id":"levelo_inurba_marseille","lat":43.31484,"lon":5.3727,"is_reserved":false,"is_disabled":false,"rental_uris":{"android":"levelo://app?vid=0251a0f1-4270-40d8-a9db-0456c0b99805","ios":"levelo://app?vid=0251a0f1-4270-40d8-a9db-0456c0b99805"},"vehicle_type_id":"4","last_reported":1742691245,"current_range_meters":17600,"station_id":"ce4bgt12rcd13ifvqcd0","pricing_plan_id":"cebpf4jnsgd1na2vs0mg"},{"bike_id":"8db8e94c-5c15-452d-8525-723b319c3c7c","system_id":"levelo_inurba_marseille","lat":43.28867,"lon":5.39306,"is_reserved":false,"is_disabled":true,"rental_uris":{"android":"levelo://app?vid=8db8e94c-5c15-452d-8525-723b319c3c7c","ios":"levelo://app?vid=8db8e94c-5c15-452d-8525-723b319c3c7c"},"vehicle_type_id":"4","last_reported":1742691245,"current_range_meters":17600,"station_id":"ce4bh2p2rcd13ifvqdi0","pricing_plan_id":"cebpf4jnsgd1na2vs0mg"},{"bike_id":"282809df-29b4-411f-b718-322266f75751","system_id":"levelo_inurba_marseille","lat":43.23057,"lon":5.35497,"is_reserved":false,"is_disabled":false,"rental_uris":{"android":"levelo://app?vid=282809df-29b4-411f-b718-322266f75751","ios":"levelo://app?vid=282809df-29b4-411f-b718-322266f75751"},"vehicle_type_id":"4","last_reported":1742691245,"current_range_meters":17600,"station_id":"cpo3342slgdg3j2ifvpg","pricing_plan_id":"cebpf4jnsgd1na2vs0mg"},{"bike_id":"c3362549-d37d-47ba-9e62-5e06d74774a8","system_id":"levelo_inurba_marseille","lat":43.232,"lon":5.35552,"is_reserved":false,"is_disabled":false,"rental_uris":{"android":"levelo://app?vid=c3362549-d37d-47ba-9e62-5e06d74774a8","ios":"levelo://app?vid=c3362549-d37d-47ba-9e62-5e06d74774a8"},"vehicle_type_id":"4","last_reported":1742691245,"current_range_meters":17600,"station_id":"ce4bhu92rcd13ifvqi70","pricing_plan_id":"cebpf4jnsgd1na2vs0mg"},{"bike_id":"673bd99d-edf1-48f6-86ac-b9a9b4aa2b11","system_id":"levelo_inurba_marseille","lat":43.31173,"lon":5.3872,"is_reserved":false,"is_disabled":false,"rental_uris":{"android":"levelo://app?vid=673bd99d-edf1-48f6-86ac-b9a9b4aa2b11","ios":"levelo://app?vid=673bd99d-edf1-48f6-86ac-b9a9b4aa2b11"},"vehicle_type_id":"4","last_reported":1742691245,"current_range_meters":18000,"station_id":"ce4bgv12rcd13ifvqcp0","pricing_plan_id":"cebpf4jnsgd1na2vs0mg"},{"bike_id":"2af563d9-45af-4cbb-838a-956ffd238533","system_id":"levelo_inurba_marseille","lat":43.29276,"lon":5.36841,"is_reserved":false,"is_disabled":false,"rental_uris":{"android":"levelo://app?vid=2af563d9-45af-4cbb-838a-956ffd238533","ios":"levelo://app?vid=2af563d9-45af-4cbb-838a-956ffd238533"},"vehicle_type_id":"4","last_reported":1742691245,"current_range_meters":18000,"station_id":"ce4bhbp2rcd13ifvqesg","pricing_plan_id":"cebpf4jnsgd1na2vs0mg"},{"bike_id":"7ac34af0-4560-4a02-83b4-f3a31341d559","system_id":"levelo_inurba_marseille","lat":43.26069,"lon":5.39399,"is_reserved":false,"is_disabled":false,"rental_uris":{"android":"levelo://app?vid=7ac34af0-4560-4a02-83b4-f3a31341d559","ios":"levelo://app?vid=7ac34af0-4560-4a02-83b4-f3a31341d559"},"vehicle_type_id":"4","last_reported":1742691245,"current_range_meters":18000,"station_id":"ce4bhh92rcd13ifvqfj0","pricing_plan_id":"cebpf4jnsgd1na2vs0mg"},{"bike_id":"fd75b0f4-d590-40ad-8ab6-124339ae9bb3","system_id":"levelo_inurba_marseille","lat":43.32589,"lon":5.41023,"is_reserved":false,"is_disabled":false,"rental_uris":{"android":"levelo://app?vid=fd75b0f4-d590-40ad-8ab6-124339ae9bb3","ios":"levelo://app?vid=fd75b0f4-d590-40ad-8ab6-124339ae9bb3"},"vehicle_type_id":"4","last_reported":1742691245,"current_range_meters":18000,"station_id":"","pricing_plan_id":"cebpf4jnsgd1na2vs0mg"},{"bike_id":"b97b8876-d969-4576-b7ab-db9b2177d974","system_id":"levelo_inurba_marseille","lat":43.27643,"lon":5.38918,"is_reserved":false,"is_disabled":false,"rental_uris":{"android":"levelo://app?vid=b97b8876-d969-4576-b7ab-db9b2177d974","ios":"levelo://app?vid=b97b8876-d969-4576-b7ab-db9b2177d974"},"vehicle_type_id":"4","last_reported":1742691245,"current_range_meters":18000,"station_id":"ce4bhi12rcd13ifvqfo0","pricing_plan_id":"cebpf4jnsgd1na2vs0mg"},{"bike_id":"cc3da8d8-c056-401d-bac4-79a931e494a3","system_id":"levelo_inurba_marseille","lat":43.28861,"lon":5.35845,"is_reserved":false,"is_disabled":false,"rental_uris":{"android":"levelo://app?vid=cc3da8d8-c056-401d-bac4-79a931e494a3","ios":"levelo://app?vid=cc3da8d8-c056-401d-bac4-79a931e494a3"},"vehicle_type_id":"4","last_reported":1742691245,"current_range_meters":18000,"station_id":"ce4bhb12rcd13ifvqem0","pricing_plan_id":"cebpf4jnsgd1na2vs0mg"},{"bike_id":"1997b10d-1d35-44d3-85c4-29c84df0623c","system_id":"levelo_inurba_marseille","lat":43.24072,"lon":5.37759,"is_reserved":false,"is_disabled":false,"rental_uris":{"android":"levelo://app?vid=1997b10d-1d35-44d3-85c4-29c84df0623c","ios":"levelo://app?vid=1997b10d-1d35-44d3-85c4-29c84df0623c"},"vehicle_type_id":"4","last_reported":1742691245,"current_range_meters":18000,"station_id":"ce4bhnp2rcd13ifvqgvg","pricing_plan_id":"cebpf4jnsgd1na2vs0mg"},{"bike_id":"1f5a864a-da9d-4038-b596-e3e317f10d9e","system_id":"levelo_inurba_marseille","lat":43.25094,"lon":5.39524,"is_reserved":false,"is_disabled":false,"rental_uris":{"android":"levelo://app?vid=1f5a864a-da9d-4038-b596-e3e317f10d9e","ios":"levelo://app?vid=1f5a864a-da9d-4038-b596-e3e317f10d9e"},"vehicle_type_id":"4","last_reported":1742691245,"current_range_meters":18000,"station_id":"ce4bhm12rcd13ifvqgkg","pricing_plan_id":"cebpf4jnsgd1na2vs0mg"},{"bike_id":"190958c9-a94c-4c23-bc4f-368f897534d1","system_id":"levelo_inurba_marseille","lat":43.30247,"lon":5.40082,"is_reserved":false,"is_disabled":false,"rental_uris":{"android":"levelo://app?vid=190958c9-a94c-4c23-bc4f-368f897534d1","ios":"levelo://app?vid=190958c9-a94c-4c23-bc4f-368f897534d1"},"vehicle_type_id":"4","last_reported":1742691245,"current_range_meters":18000,"station_id":"ce4bgvh2rcd13ifvqcs0","pricing_plan_id":"cebpf4jnsgd1na2vs0mg"},{"bike_id":"f74b13c7-053c-4b7a-983a-625dd03e6fbb","system_id":"levelo_inurba_marseille","lat":43.23219,"lon":5.35586,"is_reserved":false,"is_disabled":false,"rental_uris":{"android":"levelo://app?vid=f74b13c7-053c-4b7a-983a-625dd03e6fbb","ios":"levelo://app?vid=f74b13c7-053c-4b7a-983a-625dd03e6fbb"},"vehicle_type_id":"4","last_reported":1742691245,"current_range_meters":18800,"station_id":"ce4bhu92rcd13ifvqi70","pricing_plan_id":"cebpf4jnsgd1na2vs0mg"},{"bike_id":"42c928bf-931c-4252-89da-51f85b63a045","system_id":"levelo_inurba_marseille","lat":43.29572,"lon":5.39966,"is_reserved":false,"is_disabled":false,"rental_uris":{"android":"levelo://app?vid=42c928bf-931c-4252-89da-51f85b63a045","ios":"levelo://app?vid=42c928bf-931c-4252-89da-51f85b63a045"},"vehicle_type_id":"4","last_reported":1742691245,"current_range_meters":18800,"station_id":"ce4bh312rcd13ifvqdj0","pricing_plan_id":"cebpf4jnsgd1na2vs0mg"},{"bike_id":"c4ab3472-f8f2-45ed-ad61-5a88a3be4471","system_id":"levelo_inurba_marseille","lat":43.29869,"lon":5.37912,"is_reserved":false,"is_disabled":false,"rental_uris":{"android":"levelo://app?vid=c4ab3472-f8f2-45ed-ad61-5a88a3be4471","ios":"levelo://app?vid=c4ab3472-f8f2-45ed-ad61-5a88a3be4471"},"vehicle_type_id":"4","last_reported":1742691245,"current_range_meters":18800,"station_id":"","pricing_plan_id":"cebpf4jnsgd1na2vs0mg"},{"bike_id":"eb040982-b144-4376-8187-ddb9c2fd8359","system_id":"levelo_inurba_marseille","lat":43.308636,"lon":5.370534,"is_reserved":false,"is_disabled":false,"rental_uris":{"android":"levelo://app?vid=eb040982-b144-4376-8187-ddb9c2fd8359","ios":"levelo://app?vid=eb040982-b144-4376-8187-ddb9c2fd8359"},"vehicle_type_id":"4","last_reported":1742691245,"current_range_meters":18800,"station_id":"","pricing_plan_id":"cebpf4jnsgd1na2vs0mg"},{"bike_id":"9103935c-4835-4fe0-b922-89b9f94cef0e","system_id":"levelo_inurba_marseille","lat":43.25586,"lon":5.3824,"is_reserved":false,"is_disabled":false,"rental_uris":{"android":"levelo://app?vid=9103935c-4835-4fe0-b922-89b9f94cef0e","ios":"levelo://app?vid=9103935c-4835-4fe0-b922-89b9f94cef0e"},"vehicle_type_id":"4","last_reported":1742691245,"current_range_meters":18800,"station_id":"ce4bhih2rcd13ifvqfs0","pricing_plan_id":"cebpf4jnsgd1na2vs0mg"},{"bike_id":"865b693e-334b-4fa4-9766-b6da85e3d3e2","system_id":"levelo_inurba_marseille","lat":43.30531,"lon":5.36549,"is_reserved":false,"is_disabled":false,"rental_uris":{"android":"levelo://app?vid=865b693e-334b-4fa4-9766-b6da85e3d3e2","ios":"levelo://app?vid=865b693e-334b-4fa4-9766-b6da85e3d3e2"},"vehicle_type_id":"4","last_reported":1742691245,"current_range_meters":18800,"station_id":"ce4bgs12rcd13ifvqcag","pricing_plan_id":"cebpf4jnsgd1na2vs0mg"},{"bike_id":"9de979ef-3a89-4fb8-a904-e8c05eb028b7","system_id":"levelo_inurba_marseille","lat":43.27929,"lon":5.38,"is_reserved":false,"is_disabled":false,"rental_uris":{"android":"levelo://app?vid=9de979ef-3a89-4fb8-a904-e8c05eb028b7","ios":"levelo://app?vid=9de979ef-3a89-4fb8-a904-e8c05eb028b7"},"vehicle_type_id":"4","last_reported":1742691245,"current_range_meters":18800,"station_id":"ce4bhf92rcd13ifvqf50","pricing_plan_id":"cebpf4jnsgd1na2vs0mg"},{"bike_id":"27779566-d002-43da-8e85-56402a44df56","system_id":"levelo_inurba_marseille","lat":43.2793,"lon":5.39592,"is_reserved":false,"is_disabled":false,"rental_uris":{"android":"levelo://app?vid=27779566-d002-43da-8e85-56402a44df56","ios":"levelo://app?vid=27779566-d002-43da-8e85-56402a44df56"},"vehicle_type_id":"4","last_reported":1742691245,"current_range_meters":18800,"station_id":"ce4bhf92rcd13ifvqf40","pricing_plan_id":"cebpf4jnsgd1na2vs0mg"},{"bike_id":"56832e1d-d640-41d1-9d93-aa349b7f036a","system_id":"levelo_inurba_marseille","lat":43.27382,"lon":5.36255,"is_reserved":false,"is_disabled":false,"rental_uris":{"android":"levelo://app?vid=56832e1d-d640-41d1-9d93-aa349b7f036a","ios":"levelo://app?vid=56832e1d-d640-41d1-9d93-aa349b7f036a"},"vehicle_type_id":"4","last_reported":1742691245,"current_range_meters":18800,"station_id":"ce4bhbh2rcd13ifvqeo0","pricing_plan_id":"cebpf4jnsgd1na2vs0mg"},{"bike_id":"6da13cbe-fe0b-42ba-8b7f-69afa665c6dc","system_id":"levelo_inurba_marseille","lat":43.30332,"lon":5.37561,"is_reserved":false,"is_disabled":false,"rental_uris":{"android":"levelo://app?vid=6da13cbe-fe0b-42ba-8b7f-69afa665c6dc","ios":"levelo://app?vid=6da13cbe-fe0b-42ba-8b7f-69afa665c6dc"},"vehicle_type_id":"4","last_reported":1742691245,"current_range_meters":18800,"station_id":"","pricing_plan_id":"cebpf4jnsgd1na2vs0mg"},{"bike_id":"39f7488c-26c6-484f-8eed-865b2fe02216","system_id":"levelo_inurba_marseille","lat":43.29203,"lon":5.3607,"is_reserved":false,"is_disabled":false,"rental_uris":{"android":"levelo://app?vid=39f7488c-26c6-484f-8eed-865b2fe02216","ios":"levelo://app?vid=39f7488c-26c6-484f-8eed-865b2fe02216"},"vehicle_type_id":"4","last_reported":1742691245,"current_range_meters":18800,"station_id":"ce4bhbh2rcd13ifvqeqg","pricing_plan_id":"cebpf4jnsgd1na2vs0mg"},{"bike_id":"411f3bcd-8c10-4807-829c-d644d09dbe42","system_id":"levelo_inurba_marseille","lat":43.33025,"lon":5.39045,"is_reserved":false,"is_disabled":true,"rental_uris":{"android":"levelo://app?vid=411f3bcd-8c10-4807-829c-d644d09dbe42","ios":"levelo://app?vid=411f3bcd-8c10-4807-829c-d644d09dbe42"},"vehicle_type_id":"4","last_reported":1742691245,"current_range_meters":18800,"station_id":"ce4bhr92rcd13ifvqhrg","pricing_plan_id":"cebpf4jnsgd1na2vs0mg"},{"bike_id":"961053f7-f951-41f7-9b83-52209eb1b3ae","system_id":"levelo_inurba_marseille","lat":43.23058,"lon":5.35469,"is_reserved":false,"is_disabled":false,"rental_uris":{"android":"levelo://app?vid=961053f7-f951-41f7-9b83-52209eb1b3ae","ios":"levelo://app?vid=961053f7-f951-41f7-9b83-52209eb1b3ae"},"vehicle_type_id":"4","last_reported":1742691245,"current_range_meters":18800,"station_id":"cpo3342slgdg3j2ifvpg","pricing_plan_id":"cebpf4jnsgd1na2vs0mg"},{"bike_id":"cade899b-2983-4c21-bebb-d68c909d2f28","system_id":"levelo_inurba_marseille","lat":43.30435,"lon":5.39739,"is_reserved":false,"is_disabled":false,"rental_uris":{"android":"levelo://app?vid=cade899b-2983-4c21-bebb-d68c909d2f28","ios":"levelo://app?vid=cade899b-2983-4c21-bebb-d68c909d2f28"},"vehicle_type_id":"4","last_reported":1742691245,"current_range_meters":18800,"station_id":"ce4bh092rcd13ifvqd20","pricing_plan_id":"cebpf4jnsgd1na2vs0mg"},{"bike_id":"7bff5b0d-d7dc-4254-9105-6c0540e4aeed","system_id":"levelo_inurba_marseille","lat":43.2316,"lon":5.39975,"is_reserved":false,"is_disabled":false,"rental_uris":{"android":"levelo://app?vid=7bff5b0d-d7dc-4254-9105-6c0540e4aeed","ios":"levelo://app?vid=7bff5b0d-d7dc-4254-9105-6c0540e4aeed"},"vehicle_type_id":"4","last_reported":1742691245,"current_range_meters":18800,"station_id":"ce4bhn12rcd13ifvqgqg","pricing_plan_id":"cebpf4jnsgd1na2vs0mg"},{"bike_id":"9b3dcaf5-b313-4c20-91dc-f1c16272632c","system_id":"levelo_inurba_marseille","lat":43.2815,"lon":5.42642,"is_reserved":false,"is_disabled":false,"rental_uris":{"android":"levelo://app?vid=9b3dcaf5-b313-4c20-91dc-f1c16272632c","ios":"levelo://app?vid=9b3dcaf5-b313-4c20-91dc-f1c16272632c"},