{"last_updated":1726632736,"ttl":30,"version":"2.2","data":{"bikes":[{"bike_id":"bf3a1454-41f6-444f-a466-a4f62914531c","system_id":"levelo_inurba_marseille","lat":43.31368,"lon":5.38501,"is_reserved":false,"is_disabled":false,"rental_uris":{"android":"levelo://app?vid=bf3a1454-41f6-444f-a466-a4f62914531c","ios":"levelo://app?vid=bf3a1454-41f6-444f-a466-a4f62914531c"},"vehicle_type_id":"4","last_reported":1726632736,"current_range_meters":38400,"station_id":"ce4bgt92rcd13ifvqcf0","pricing_plan_id":"cebpf4jnsgd1na2vs0mg"},{"bike_id":"d8a7bbae-3d0e-457c-8e82-e6128d956f4d","system_id":"levelo_inurba_marseille","lat":43.27492,"lon":5.42453,"is_reserved":false,"is_disabled":false,"rental_uris":{"android":"levelo://app?vid=d8a7bbae-3d0e-457c-8e82-e6128d956f4d","ios":"levelo://app?vid=d8a7bbae-3d0e-457c-8e82-e6128d956f4d"},"vehicle_type_id":"4","last_reported":1726632736,"current_range_meters":8800,"station_id":"ce4bhn92rcd13ifvqgrg","pricing_plan_id":"cebpf4jnsgd1na2vs0mg"},{"bike_id":"005b4cb7-40ef-46da-b28a-c870673d83f3","system_id":"levelo_inurba_marseille","lat":43.26946,"lon":5.38631,"is_reserved":false,"is_disabled":false,"rental_uris":{"android":"levelo://app?vid=005b4cb7-40ef-46da-b28a-c870673d83f3","ios":"levelo://app?vid=005b4cb7-40ef-46da-b28a-c870673d83f3"},"vehicle_type_id":"4","last_reported":1726632736,"current_range_meters":34000,"station_id":"ce4bhh92rcd13ifvqfh0","pricing_plan_id":"cebpf4jnsgd1na2vs0mg"},{"bike_id":"b47519d6-37f9-4853-a91a-eb691d0c56d6","system_id":"levelo_inurba_marseille","lat":43.27076,"lon":5.42268,"is_reserved":false,"is_disabled":false,"rental_uris":{"android":"levelo://app?vid=b47519d6-37f9-4853-a91a-eb691d0c56d6","ios":"levelo://app?vid=b47519d6-37f9-4853-a91a-eb691d0c56d6"},"vehicle_type_id":"4","last_reported":1726632736,"current_range_meters":20800,"station_id":"ce4bhk92rcd13ifvqgb0","pricing_plan_id":"cebpf4jnsgd1na2vs0mg"},{"bike_id":"240e057b-6352-471b-b97e-28024c848b08","system_id":"levelo_inurba_marseille","lat":43.29984,"lon":5.37181,"is_reserved":false,"is_disabled":false,"rental_uris":{"android":"levelo://app?vid=240e057b-6352-471b-b97e-28024c848b08","ios":"levelo://app?vid=240e057b-6352-471b-b97e-28024c848b08"},"vehicle_type_id":"4","last_reported":1726632736,"current_range_meters":39200,"station_id":"ce4bgr92rcd13ifvqc7g","pricing_plan_id":"cebpf4jnsgd1na2vs0mg"},{"bike_id":"b03c8bb0-a2f5-486b-a75d-893592988838","system_id":"levelo_inurba_marseille","lat":43.27957,"lon":5.3872,"is_reserved":false,"is_disabled":false,"rental_uris":{"android":"levelo://app?vid=b03c8bb0-a2f5-486b-a75d-893592988838","ios":"levelo://app?vid=b03c8bb0-a2f5-486b-a75d-893592988838"},"vehicle_type_id":"4","last_reported":1726632736,"current_range_meters":26800,"station_id":"ce4bhg12rcd13ifvqf80","pricing_plan_id":"cebpf4jnsgd1na2vs0mg"},{"bike_id":"ac732fa0-f66f-42ff-8122-a5b8fd7054ce","system_id":"levelo_inurba_marseille","lat":43.29978,"lon":5.37184,"is_reserved":false,"is_disabled":false,"rental_uris":{"android":"levelo://app?vid=ac732fa0-f66f-42ff-8122-a5b8fd7054ce","ios":"levelo://app?vid=ac732fa0-f66f-42ff-8122-a5b8fd7054ce"},"vehicle_type_id":"4","last_reported":1726632736,"current_range_meters":38000,"station_id":"ce4bgr92rcd13ifvqc7g","pricing_plan_id":"cebpf4jnsgd1na2vs0mg"},{"bike_id":"43176770-eaee-4996-86c7-d408161e4ce6","system_id":"levelo_inurba_marseille","lat":43.29894,"lon":5.43668,"is_reserved":false,"is_disabled":false,"rental_uris":{"android":"levelo://app?vid=43176770-eaee-4996-86c7-d408161e4ce6","ios":"levelo://app?vid=43176770-eaee-4996-86c7-d408161e4ce6"},"vehicle_type_id":"4","last_reported":1726632736,"current_range_meters":38000,"station_id":"ce4bhpp2rcd13ifvqhfg","pricing_plan_id":"cebpf4jnsgd1na2vs0mg"},{"bike_id":"98dbbabc-9f8d-44e6-86dd-2ae0464166df","system_id":"levelo_inurba_marseille","lat":43.3134,"lon":5.3972,"is_reserved":false,"is_disabled":false,"rental_uris":{"android":"levelo://app?vid=98dbbabc-9f8d-44e6-86dd-2ae0464166df","ios":"levelo://app?vid=98dbbabc-9f8d-44e6-86dd-2ae0464166df"},"vehicle_type_id":"4","last_reported":1726632736,"current_range_meters":38800,"station_id":"ce4bgvp2rcd13ifvqcu0","pricing_plan_id":"cebpf4jnsgd1na2vs0mg"},{"bike_id":"7d3f0122-d2f2-480e-bb1c-9741d43c8a79","system_id":"levelo_inurba_marseille","lat":43.28032,"lon":5.36959,"is_reserved":false,"is_disabled":false,"rental_uris":{"android":"levelo://app?vid=7d3f0122-d2f2-480e-bb1c-9741d43c8a79","ios":"levelo://app?vid=7d3f0122-d2f2-480e-bb1c-9741d43c8a79"},"vehicle_type_id":"4","last_reported":1726632736,"current_range_meters":38800,"station_id":"ce4bha12rcd13ifvqef0","pricing_plan_id":"cebpf4jnsgd1na2vs0mg"},{"bike_id":"ffb67454-0751-4467-a2b3-278f7dbfdea0","system_id":"levelo_inurba_marseille","lat":43.31895,"lon":5.40736,"is_reserved":false,"is_disabled":false,"rental_uris":{"android":"levelo://app?vid=ffb67454-0751-4467-a2b3-278f7dbfdea0","ios":"levelo://app?vid=ffb67454-0751-4467-a2b3-278f7dbfdea0"},"vehicle_type_id":"4","last_reported":1726632736,"current_range_meters":6800,"station_id":"ce4bhq12rcd13ifvqhig","pricing_plan_id":"cebpf4jnsgd1na2vs0mg"},{"bike_id":"017ad941-2bc7-4c23-aa10-a9af1a423d28","system_id":"levelo_inurba_marseille","lat":43.33003,"lon":5.39029,"is_reserved":false,"is_disabled":false,"rental_uris":{"android":"levelo://app?vid=017ad941-2bc7-4c23-aa10-a9af1a423d28","ios":"levelo://app?vid=017ad941-2bc7-4c23-aa10-a9af1a423d28"},"vehicle_type_id":"4","last_reported":1726632736,"current_range_meters":11200,"station_id":"ce4bhr92rcd13ifvqhrg","pricing_plan_id":"cebpf4jnsgd1na2vs0mg"},{"bike_id":"b679e135-2e71-4d04-938c-7a569bd0801a","system_id":"levelo_inurba_marseille","lat":43.2707,"lon":5.42277,"is_reserved":false,"is_disabled":false,"rental_uris":{"android":"levelo://app?vid=b679e135-2e71-4d04-938c-7a569bd0801a","ios":"levelo://app?vid=b679e135-2e71-4d04-938c-7a569bd0801a"},"vehicle_type_id":"4","last_reported":1726632736,"current_range_meters":31200,"station_id":"ce4bhk92rcd13ifvqgb0","pricing_plan_id":"cebpf4jnsgd1na2vs0mg"},{"bike_id":"c0fb0485-2f0f-46e4-b423-6aa86590efb8","system_id":"levelo_inurba_marseille","lat":43.27053,"lon":5.40269,"is_reserved":false,"is_disabled":false,"rental_uris":{"android":"levelo://app?vid=c0fb0485-2f0f-46e4-b423-6aa86590efb8","ios":"levelo://app?vid=c0fb0485-2f0f-46e4-b423-6aa86590efb8"},"vehicle_type_id":"4","last_reported":1726632736,"current_range_meters":12800,"station_id":"ce4bhk92rcd13ifvqgc0","pricing_plan_id":"cebpf4jnsgd1na2vs0mg"},{"bike_id":"59e3679f-c923-412e-9d47-0a022379f072","system_id":"levelo_inurba_marseille","lat":43.30932,"lon":5.40143,"is_reserved":false,"is_disabled":false,"rental_uris":{"android":"levelo://app?vid=59e3679f-c923-412e-9d47-0a022379f072","ios":"levelo://app?vid=59e3679f-c923-412e-9d47-0a022379f072"},"vehicle_type_id":"4","last_reported":1726632736,"current_range_meters":36800,"station_id":"ce4bgvp2rcd13ifvqct0","pricing_plan_id":"cebpf4jnsgd1na2vs0mg"},{"bike_id":"b74769cf-29ff-494c-bb8f-5acfd39f0ec3","system_id":"levelo_inurba_marseille","lat":43.2841,"lon":5.37513,"is_reserved":false,"is_disabled":false,"rental_uris":{"android":"levelo://app?vid=b74769cf-29ff-494c-bb8f-5acfd39f0ec3","ios":"levelo://app?vid=b74769cf-29ff-494c-bb8f-5acfd39f0ec3"},"vehicle_type_id":"4","last_reported":1726632736,"current_range_meters":39200,"station_id":"ce4bh412rcd13ifvqds0","pricing_plan_id":"cebpf4jnsgd1na2vs0mg"},{"bike_id":"bf2f4e0c-cd5c-4276-8f8a-e0f8f1a0a3db","system_id":"levelo_inurba_marseille","lat":43.29632,"lon":5.40605,"is_reserved":false,"is_disabled":false,"rental_uris":{"android":"levelo://app?vid=bf2f4e0c-cd5c-4276-8f8a-e0f8f1a0a3db","ios":"levelo://app?vid=bf2f4e0c-cd5c-4276-8f8a-e0f8f1a0a3db"},"vehicle_type_id":"4","last_reported":1726632736,"current_range_meters":38800,"station_id":"ce4bh0h2rcd13ifvqd60","pricing_plan_id":"cebpf4jnsgd1na2vs0mg"},{"bike_id":"823a2bf2-875a-4792-8674-813e3288baf6","system_id":"levelo_inurba_marseille","lat":43.2792,"lon":5.39585,"is_reserved":false,"is_disabled":false,"rental_uris":{"android":"levelo://app?vid=823a2bf2-875a-4792-8674-813e3288baf6","ios":"levelo://app?vid=823a2bf2-875a-4792-8674-813e3288baf6"},"vehicle_type_id":"4","last_reported":1726632736,"current_range_meters":37600,"station_id":"ce4bhf92rcd13ifvqf40","pricing_plan_id":"cebpf4jnsgd1na2vs0mg"},{"bike_id":"dafbdf09-d9eb-43c5-a6eb-8a0c6ae0fc63","system_id":"levelo_inurba_marseille","lat":43.31756,"lon":5.39019,"is_reserved":false,"is_disabled":false,"rental_uris":{"android":"levelo://app?vid=dafbdf09-d9eb-43c5-a6eb-8a0c6ae0fc63","ios":"levelo://app?vid=dafbdf09-d9eb-43c5-a6eb-8a0c6ae0fc63"},"vehicle_type_id":"4","last_reported":1726632736,"current_range_meters":38800,"station_id":"ce4bhqp2rcd13ifvqhng","pricing_plan_id":"cebpf4jnsgd1na2vs0mg"},{"bike_id":"b5890725-bfd6-4476-9287-9e093cd096fb","system_id":"levelo_inurba_marseille","lat":43.33022,"lon":5.39039,"is_reserved":false,"is_disabled":false,"rental_uris":{"android":"levelo://app?vid=b5890725-bfd6-4476-9287-9e093cd096fb","ios":"levelo://app?vid=b5890725-bfd6-4476-9287-9e093cd096fb"},"vehicle_type_id":"4","last_reported":1726632736,"current_range_meters":6400,"station_id":"ce4bhr92rcd13ifvqhrg","pricing_plan_id":"cebpf4jnsgd1na2vs0mg"},{"bike_id":"20eae721-43ca-4d38-80f9-5d844c5f21af","system_id":"levelo_inurba_marseille","lat":43.24647,"lon":5.38897,"is_reserved":false,"is_disabled":false,"rental_uris":{"android":"levelo://app?vid=20eae721-43ca-4d38-80f9-5d844c5f21af","ios":"levelo://app?vid=20eae721-43ca-4d38-80f9-5d844c5f21af"},"vehicle_type_id":"4","last_reported":1726632736,"current_range_meters":12800,"station_id":"ce4bhg12rcd13ifvqf60","pricing_plan_id":"cebpf4jnsgd1na2vs0mg"},{"bike_id":"d5843dd1-1d82-4914-8152-9c40e3b27d84","system_id":"levelo_inurba_marseille","lat":43.31069,"lon":5.38355,"is_reserved":false,"is_disabled":false,"rental_uris":{"android":"levelo://app?vid=d5843dd1-1d82-4914-8152-9c40e3b27d84","ios":"levelo://app?vid=d5843dd1-1d82-4914-8152-9c40e3b27d84"},"vehicle_type_id":"4","last_reported":1726632736,"current_range_meters":18000,"station_id":"ce4bgv92rcd13ifvqcr0","pricing_plan_id":"cebpf4jnsgd1na2vs0mg"},{"bike_id":"5309d39c-1795-43e9-bfff-4830328841b6","system_id":"levelo_inurba_marseille","lat":43.23151,"lon":5.43719,"is_reserved":false,"is_disabled":false,"rental_uris":{"android":"levelo://app?vid=5309d39c-1795-43e9-bfff-4830328841b6","ios":"levelo://app?vid=5309d39c-1795-43e9-bfff-4830328841b6"},"vehicle_type_id":"4","last_reported":1726632736,"current_range_meters":28000,"station_id":"ce4bhmp2rcd13ifvqgog","pricing_plan_id":"cebpf4jnsgd1na2vs0mg"},{"bike_id":"04802112-1398-447a-bc2d-b87684325f30","system_id":"levelo_inurba_marseille","lat":43.27071,"lon":5.42282,"is_reserved":false,"is_disabled":false,"rental_uris":{"android":"levelo://app?vid=04802112-1398-447a-bc2d-b87684325f30","ios":"levelo://app?vid=04802112-1398-447a-bc2d-b87684325f30"},"vehicle_type_id":"4","last_reported":1726632736,"current_range_meters":38400,"station_id":"ce4bhk92rcd13ifvqgb0","pricing_plan_id":"cebpf4jnsgd1na2vs0mg"},{"bike_id":"80d1c735-b3e3-4ae0-ab8f-ea8e598938a6","system_id":"levelo_inurba_marseille","lat":43.25864,"lon":5.39904,"is_reserved":false,"is_disabled":false,"rental_uris":{"android":"levelo://app?vid=80d1c735-b3e3-4ae0-ab8f-ea8e598938a6","ios":"levelo://app?vid=80d1c735-b3e3-4ae0-ab8f-ea8e598938a6"},"vehicle_type_id":"4","last_reported":1726632736,"current_range_meters":30800,"station_id":"ce4bhl92rcd13ifvqghg","pricing_plan_id":"cebpf4jnsgd1na2vs0mg"},{"bike_id":"80d8dae3-9107-40dd-a89e-6de5c670ae47","system_id":"levelo_inurba_marseille","lat":43.27059,"lon":5.40253,"is_reserved":false,"is_disabled":false,"rental_uris":{"android":"levelo://app?vid=80d8dae3-9107-40dd-a89e-6de5c670ae47","ios":"levelo://app?vid=80d8dae3-9107-40dd-a89e-6de5c670ae47"},"vehicle_type_id":"4","last_reported":1726632736,"current_range_meters":28000,"station_id":"ce4bhk92rcd13ifvqgc0","pricing_plan_id":"cebpf4jnsgd1na2vs0mg"},{"bike_id":"8187322b-78db-4779-9a58-00de5816440e","system_id":"levelo_inurba_marseille","lat":43.27424,"lon":5.39407,"is_reserved":false,"is_disabled":false,"rental_uris":{"android":"levelo://app?vid=8187322b-78db-4779-9a58-00de5816440e","ios":"levelo://app?vid=8187322b-78db-4779-9a58-00de5816440e"},"vehicle_type_id":"4","last_reported":1726632736,"current_range_meters":38800,"station_id":"ce4bhdp2rcd13ifvqf20","pricing_plan_id":"cebpf4jnsgd1na2vs0mg"},{"bike_id":"33c75069-6d89-4fa7-9c01-e0016a252dc6","system_id":"levelo_inurba_marseille","lat":43.28847,"lon":5.35841,"is_reserved":false,"is_disabled":false,"rental_uris":{"android":"levelo://app?vid=33c75069-6d89-4fa7-9c01-e0016a252dc6","ios":"levelo://app?vid=33c75069-6d89-4fa7-9c01-e0016a252dc6"},"vehicle_type_id":"4","last_reported":1726632736,"current_range_meters":35200,"station_id":"ce4bhb12rcd13ifvqem0","pricing_plan_id":"cebpf4jnsgd1na2vs0mg"},{"bike_id":"36587967-1e79-47c3-ba21-dd6bfe64ec87","system_id":"levelo_inurba_marseille","lat":43.32363,"lon":5.38887,"is_reserved":false,"is_disabled":false,"rental_uris":{"android":"levelo://app?vid=36587967-1e79-47c3-ba21-dd6bfe64ec87","ios":"levelo://app?vid=36587967-1e79-47c3-ba21-dd6bfe64ec87"},"vehicle_type_id":"4","last_reported":1726632736,"current_range_meters":11200,"station_id":"ce4bhqp2rcd13ifvqhog","pricing_plan_id":"cebpf4jnsgd1na2vs0mg"},{"bike_id":"4a6ec808-b74d-43bd-93a4-43a4170c44e4","system_id":"levelo_inurba_marseille","lat":43.28463,"lon":5.38412,"is_reserved":false,"is_disabled":false,"rental_uris":{"android":"levelo://app?vid=4a6ec808-b74d-43bd-93a4-43a4170c44e4","ios":"levelo://app?vid=4a6ec808-b74d-43bd-93a4-43a4170c44e4"},"vehicle_type_id":"4","last_reported":1726632736,"current_range_meters":30400,"station_id":"ce4bh512rcd13ifvqe3g","pricing_plan_id":"cebpf4jnsgd1na2vs0mg"},{"bike_id":"88f47c30-b06c-4ccd-800f-12994e98e86a","system_id":"levelo_inurba_marseille","lat":43.28843,"lon":5.35851,"is_reserved":false,"is_disabled":false,"rental_uris":{"android":"levelo://app?vid=88f47c30-b06c-4ccd-800f-12994e98e86a","ios":"levelo://app?vid=88f47c30-b06c-4ccd-800f-12994e98e86a"},"vehicle_type_id":"4","last_reported":1726632736,"current_range_meters":38400,"station_id":"ce4bhb12rcd13ifvqem0","pricing_plan_id":"cebpf4jnsgd1na2vs0mg"},{"bike_id":"103a716b-dbc7-4e49-a7f2-16e378e92b85","system_id":"levelo_inurba_marseille","lat":43.22927,"lon":5.35373,"is_reserved":false,"is_disabled":false,"rental_uris":{"android":"levelo://app?vid=103a716b-dbc7-4e49-a7f2-16e378e92b85","ios":"levelo://app?vid=103a716b-dbc7-4e49-a7f2-16e378e92b85"},"vehicle_type_id":"4","last_reported":1726632736,"current_range_meters":27200,"station_id":"cpo3532slgdg3j2ikp40","pricing_plan_id":"cebpf4jnsgd1na2vs0mg"},{"bike_id":"06bfb82b-72f8-467a-abe6-3935f8a7f2de","system_id":"levelo_inurba_marseille","lat":43.27811,"lon":5.40712,"is_reserved":false,"is_disabled":false,"rental_uris":{"android":"levelo://app?vid=06bfb82b-72f8-467a-abe6-3935f8a7f2de","ios":"levelo://app?vid=06bfb82b-72f8-467a-abe6-3935f8a7f2de"},"vehicle_type_id":"4","last_reported":1726632736,"current_range_meters":27200,"station_id":"ce4bhnh2rcd13ifvqgtg","pricing_plan_id":"cebpf4jnsgd1na2vs0mg"},{"bike_id":"04c5cc2a-93cc-4839-933f-fb21d144e766","system_id":"levelo_inurba_marseille","lat":43.28705,"lon":5.39986,"is_reserved":false,"is_disabled":false,"rental_uris":{"android":"levelo://app?vid=04c5cc2a-93cc-4839-933f-fb21d144e766","ios":"levelo://app?vid=04c5cc2a-93cc-4839-933f-fb21d144e766"},"vehicle_type_id":"4","last_reported":1726632736,"current_range_meters":38800,"station_id":"ce4bho92rcd13ifvqh3g","pricing_plan_id":"cebpf4jnsgd1na2vs0mg"},{"bike_id":"13ef7ab3-39a9-4e92-82df-40cb61e7e59f","system_id":"levelo_inurba_marseille","lat":43.25723,"lon":5.41117,"is_reserved":false,"is_disabled":false,"rental_uris":{"android":"levelo://app?vid=13ef7ab3-39a9-4e92-82df-40cb61e7e59f","ios":"levelo://app?vid=13ef7ab3-39a9-4e92-82df-40cb61e7e59f"},"vehicle_type_id":"4","last_reported":1726632736,"current_range_meters":39200,"station_id":"ce4bhkp2rcd13ifvqgd0","pricing_plan_id":"cebpf4jnsgd1na2vs0mg"},{"bike_id":"3efe9825-d6f0-40ec-b43e-f8cb7807c480","system_id":"levelo_inurba_marseille","lat":43.31955,"lon":5.379969,"is_reserved":false,"is_disabled":false,"rental_uris":{"android":"levelo://app?vid=3efe9825-d6f0-40ec-b43e-f8cb7807c480","ios":"levelo://app?vid=3efe9825-d6f0-40ec-b43e-f8cb7807c480"},"vehicle_type_id":"4","last_reported":1726632736,"current_range_meters":20400,"station_id":"ce4bgop2rcd13ifvqc1g","pricing_plan_id":"cebpf4jnsgd1na2vs0mg"},{"bike_id":"ed5c0691-2ddf-4b1b-b0dc-716242b3e73c","system_id":"levelo_inurba_marseille","lat":43.29027,"lon":5.38646,"is_reserved":false,"is_disabled":false,"rental_uris":{"android":"levelo://app?vid=ed5c0691-2ddf-4b1b-b0dc-716242b3e73c","ios":"levelo://app?vid=ed5c0691-2ddf-4b1b-b0dc-716242b3e73c"},"vehicle_type_id":"4","last_reported":1726632736,"current_range_meters":38400,"station_id":"ce4bh4p2rcd13ifvqe0g","pricing_plan_id":"cebpf4jnsgd1na2vs0mg"},{"bike_id":"36ff1673-e996-4918-8958-9ffc564ae753","system_id":"levelo_inurba_marseille","lat":43.29261,"lon":5.40905,"is_reserved":false,"is_disabled":false,"rental_uris":{"android":"levelo://app?vid=36ff1673-e996-4918-8958-9ffc564ae753","ios":"levelo://app?vid=36ff1673-e996-4918-8958-9ffc564ae753"},"vehicle_type_id":"4","last_reported":1726632736,"current_range_meters":38800,"station_id":"ce4bh192rcd13ifvqdc0","pricing_plan_id":"cebpf4jnsgd1na2vs0mg"},{"bike_id":"a5a220ba-6933-4541-97f8-1dd588df3be0","system_id":"levelo_inurba_marseille","lat":43.29254,"lon":5.3844,"is_reserved":false,"is_disabled":false,"rental_uris":{"android":"levelo://app?vid=a5a220ba-6933-4541-97f8-1dd588df3be0","ios":"levelo://app?vid=a5a220ba-6933-4541-97f8-1dd588df3be0"},"vehicle_type_id":"4","last_reported":1726632736,"current_range_meters":24000,"station_id":"ce4bh692rcd13ifvqea0","pricing_plan_id":"cebpf4jnsgd1na2vs0mg"},{"bike_id":"c8d4b32e-0604-498a-adc3-f665f366478f","system_id":"levelo_inurba_marseille","lat":43.30416,"lon":5.39755,"is_reserved":false,"is_disabled":false,"rental_uris":{"android":"levelo://app?vid=c8d4b32e-0604-498a-adc3-f665f366478f","ios":"levelo://app?vid=c8d4b32e-0604-498a-adc3-f665f366478f"},"vehicle_type_id":"4","last_reported":1726632736,"current_range_meters":38800,"station_id":"ce4bh092rcd13ifvqd20","pricing_plan_id":"cebpf4jnsgd1na2vs0mg"},{"bike_id":"7b1be020-a90f-4f1f-b544-732190d38034","system_id":"levelo_inurba_marseille","lat":43.29987,"lon":5.37188,"is_reserved":false,"is_disabled":false,"rental_uris":{"android":"levelo://app?vid=7b1be020-a90f-4f1f-b544-732190d38034","ios":"levelo://app?vid=7b1be020-a90f-4f1f-b544-732190d38034"},"vehicle_type_id":"4","last_reported":1726632736,"current_range_meters":25200,"station_id":"ce4bgr92rcd13ifvqc7g","pricing_plan_id":"cebpf4jnsgd1na2vs0mg"},{"bike_id":"8cd1ebf6-516f-4fde-a105-5984b51f5363","system_id":"levelo_inurba_marseille","lat":43.28701,"lon":5.39978,"is_reserved":false,"is_disabled":false,"rental_uris":{"android":"levelo://app?vid=8cd1ebf6-516f-4fde-a105-5984b51f5363","ios":"levelo://app?vid=8cd1ebf6-516f-4fde-a105-5984b51f5363"},"vehicle_type_id":"4","last_reported":1726632736,"current_range_meters":38800,"station_id":"ce4bho92rcd13ifvqh3g","pricing_plan_id":"cebpf4jnsgd1na2vs0mg"},{"bike_id":"01a1ab3a-8b29-4a42-b262-52431b068321","system_id":"levelo_inurba_marseille","lat":43.28029,"lon":5.36942,"is_reserved":false,"is_disabled":false,"rental_uris":{"android":"levelo://app?vid=01a1ab3a-8b29-4a42-b262-52431b068321","ios":"levelo://app?vid=01a1ab3a-8b29-4a42-b262-52431b068321"},"vehicle_type_id":"4","last_reported":1726632736,"current_range_meters":37600,"station_id":"ce4bha12rcd13ifvqef0","pricing_plan_id":"cebpf4jnsgd1na2vs0mg"},{"bike_id":"8fd7179e-20ef-461b-87a3-d989a052c2de","system_id":"levelo_inurba_marseille","lat":43.28028,"lon":5.36938,"is_reserved":false,"is_disabled":false,"rental_uris":{"android":"levelo://app?vid=8fd7179e-20ef-461b-87a3-d989a052c2de","ios":"levelo://app?vid=8fd7179e-20ef-461b-87a3-d989a052c2de"},"vehicle_type_id":"4","last_reported":1726632736,"current_range_meters":33200,"station_id":"ce4bha12rcd13ifvqef0","pricing_plan_id":"cebpf4jnsgd1na2vs0mg"},{"bike_id":"d897a00a-b494-4acd-a7b3-c8cdab149c92","system_id":"levelo_inurba_marseille","lat":43.2558,"lon":5.38239,"is_reserved":false,"is_disabled":false,"rental_uris":{"android":"levelo://app?vid=d897a00a-b494-4acd-a7b3-c8cdab149c92","ios":"levelo://app?vid=d897a00a-b494-4acd-a7b3-c8cdab149c92"},"vehicle_type_id":"4","last_reported":1726632736,"current_range_meters":38000,"station_id":"ce4bhih2rcd13ifvqfs0","pricing_plan_id":"cebpf4jnsgd1na2vs0mg"},{"bike_id":"2a5808e5-1612-4dc1-a62b-b9c71459256c","system_id":"levelo_inurba_marseille","lat":43.34091,"lon":5.39116,"is_reserved":false,"is_disabled":false,"rental_uris":{"android":"levelo://app?vid=2a5808e5-1612-4dc1-a62b-b9c71459256c","ios":"levelo://app?vid=2a5808e5-1612-4dc1-a62b-b9c71459256c"},"vehicle_type_id":"4","last_reported":1726632736,"current_range_meters":7200,"station_id":"","pricing_plan_id":"cebpf4jnsgd1na2vs0mg"},{"bike_id":"9def4d63-7cec-4ef3-bac5-883bf42519e2","system_id":"levelo_inurba_marseille","lat":43.28455,"lon":5.35892,"is_reserved":false,"is_disabled":false,"rental_uris":{"android":"levelo://app?vid=9def4d63-7cec-4ef3-bac5-883bf42519e2","ios":"levelo://app?vid=9def4d63-7cec-4ef3-bac5-883bf42519e2"},"vehicle_type_id":"4","last_reported":1726632736,"current_range_meters":13600,"station_id":"ce4bhah2rcd13ifvqei0","pricing_plan_id":"cebpf4jnsgd1na2vs0mg"},{"bike_id":"9a632c71-23c5-4e6c-81fa-9127173665eb","system_id":"levelo_inurba_marseille","lat":43.28705,"lon":5.39985,"is_reserved":false,"is_disabled":false,"rental_uris":{"android":"levelo://app?vid=9a632c71-23c5-4e6c-81fa-9127173665eb","ios":"levelo://app?vid=9a632c71-23c5-4e6c-81fa-9127173665eb"},"vehicle_type_id":"4","last_reported":1726632736,"current_range_meters":38400,"station_id":"ce4bho92rcd13ifvqh3g","pricing_plan_id":"cebpf4jnsgd1na2vs0mg"},{"bike_id":"69fabb06-4e65-4b54-9c62-ea4ce601487a","system_id":"levelo_inurba_marseille","lat":43.32283,"lon":5.38275,"is_reserved":false,"is_disabled":false,"rental_uris":{"android":"levelo://app?vid=69fabb06-4e65-4b54-9c62-ea4ce601487a","ios":"levelo://app?vid=69fabb06-4e65-4b54-9c62-ea4ce601487a"},"vehicle_type_id":"4","last_reported":1726632736,"current_range_meters":38800,"station_id":"ce4bhr12rcd13ifvqhqg","pricing_plan_id":"cebpf4jnsgd1na2vs0mg"},{"bike_id":"94825388-aeee-4d05-9c6f-f2708e17a7f3","system_id":"levelo_inurba_marseille","lat":43.30147,"lon":5.38082,"is_reserved":false,"is_disabled":false,"rental_uris":{"android":"levelo://app?vid=94825388-aeee-4d05-9c6f-f2708e17a7f3","ios":"levelo://app?vid=94825388-aeee-4d05-9c6f-f2708e17a7f3"},"vehicle_type_id":"4","last_reported":1726632736,"current_range_meters":36800,"station_id":"ce4bgjp2rcd13ifvqbh0","pricing_plan_id":"cebpf4jnsgd1na2vs0mg"},{"bike_id":"538faceb-7cfe-40cf-bcf7-e9336331c238","system_id":"levelo_inurba_marseille","lat":43.24184,"lon":5.39732,"is_reserved":false,"is_disabled":false,"rental_uris":{"android":"levelo://app?vid=538faceb-7cfe-40cf-bcf7-e9336331c238","ios":"levelo://app?vid=538faceb-7cfe-40cf-bcf7-e9336331c238"},"vehicle_type_id":"4","last_reported":1726632736,"current_range_meters":37600,"station_id":"ce4bhn12rcd13ifvqgpg","pricing_plan_id":"cebpf4jnsgd1na2vs0mg"},{"bike_id":"8e348505-df72-410a-93d0-1c9770028c82","system_id":"levelo_inurba_marseille","lat":43.30797,"lon":5.43528,"is_reserved":false,"is_disabled":false,"rental_uris":{"android":"levelo://app?vid=8e348505-df72-410a-93d0-1c9770028c82","ios":"levelo://app?vid=8e348505-df72-410a-93d0-1c9770028c82"},"vehicle_type_id":"4","last_reported":1726632736,"current_range_meters":33200,"station_id":"ce4bhph2rcd13ifvqheg","pricing_plan_id":"cebpf4jnsgd1na2vs0mg"},{"bike_id":"b4450704-51e1-4ff8-a772-08322cc70eb7","system_id":"levelo_inurba_marseille","lat":43.23189,"lon":5.35566,"is_reserved":false,"is_disabled":false,"rental_uris":{"android":"levelo://app?vid=b4450704-51e1-4ff8-a772-08322cc70eb7","ios":"levelo://app?vid=b4450704-51e1-4ff8-a772-08322cc70eb7"},"vehicle_type_id":"4","last_reported":1726632736,"current_range_meters":36400,"station_id":"ce4bhu92rcd13ifvqi70","pricing_plan_id":"cebpf4jnsgd1na2vs0mg"},{"bike_id":"ca9c8ba9-3829-431d-ad4a-20866605722d","system_id":"levelo_inurba_marseille","lat":43.3117,"lon":5.38717,"is_reserved":false,"is_disabled":false,"rental_uris":{"android":"levelo://app?vid=ca9c8ba9-3829-431d-ad4a-20866605722d","ios":"levelo://app?vid=ca9c8ba9-3829-431d-ad4a-20866605722d"},"vehicle_type_id":"4","last_reported":1726632736,"current_range_meters":34800,"station_id":"ce4bgv12rcd13ifvqcp0","pricing_plan_id":"cebpf4jnsgd1na2vs0mg"},{"bike_id":"f884c139-5e70-4b5c-839d-930bc641f4ea","system_id":"levelo_inurba_marseille","lat":43.25004,"lon":5.38924,"is_reserved":false,"is_disabled":false,"rental_uris":{"android":"levelo://app?vid=f884c139-5e70-4b5c-839d-930bc641f4ea","ios":"levelo://app?vid=f884c139-5e70-4b5c-839d-930bc641f4ea"},"vehicle_type_id":"4","last_reported":1726632736,"current_range_meters":38800,"station_id":"ce4bhgp2rcd13ifvqfd0","pricing_plan_id":"cebpf4jnsgd1na2vs0mg"},{"bike_id":"5e45b63e-f60e-4a3e-bd87-568073cf021c","system_id":"levelo_inurba_marseille","lat":43.2826,"lon":5.35061,"is_reserved":false,"is_disabled":false,"rental_uris":{"android":"levelo://app?vid=5e45b63e-f60e-4a3e-bd87-568073cf021c","ios":"levelo://app?vid=5e45b63e-f60e-4a3e-bd87-568073cf021c"},"vehicle_type_id":"4","last_reported":1726632736,"current_range_meters":38800,"station_id":"ce4bhbp2rcd13ifvqerg","pricing_plan_id":"cebpf4jnsgd1na2vs0mg"},{"bike_id":"933ab09c-70a0-476f-b5ef-b1333eb3e091","system_id":"levelo_inurba_marseille","lat":43.28698,"lon":5.37389,"is_reserved":false,"is_disabled":false,"rental_uris":{"android":"levelo://app?vid=933ab09c-70a0-476f-b5ef-b1333eb3e091","ios":"levelo://app?vid=933ab09c-70a0-476f-b5ef-b1333eb3e091"},"vehicle_type_id":"4","last_reported":1726632736,"current_range_meters":38800,"station_id":"ce4bh3p2rcd13ifvqdq0","pricing_plan_id":"cebpf4jnsgd1na2vs0mg"},{"bike_id":"c2667222-5d26-4d9c-a938-761c480fe584","system_id":"levelo_inurba_marseille","lat":43.33023,"lon":5.39048,"is_reserved":false,"is_disabled":false,"rental_uris":{"android":"levelo://app?vid=c2667222-5d26-4d9c-a938-761c480fe584","ios":"levelo://app?vid=c2667222-5d26-4d9c-a938-761c480fe584"},"vehicle_type_id":"4","last_reported":1726632736,"current_range_meters":12400,"station_id":"ce4bhr92rcd13ifvqhrg","pricing_plan_id":"cebpf4jnsgd1na2vs0mg"},{"bike_id":"f4d96595-8ca6-4ae7-9691-3080fcf779e3","system_id":"levelo_inurba_marseille","lat":43.25103,"lon":5.40329,"is_reserved":false,"is_disabled":false,"rental_uris":{"android":"levelo://app?vid=f4d96595-8ca6-4ae7-9691-3080fcf779e3","ios":"levelo://app?vid=f4d96595-8ca6-4ae7-9691-3080fcf779e3"},"vehicle_type_id":"4","last_reported":1726632736,"current_range_meters":31200,"station_id":"ce4bhlh2rcd13ifvqgig","pricing_plan_id":"cebpf4jnsgd1na2vs0mg"},{"bike_id":"4167f3c5-0955-40bc-83b1-c1056c98aaa9","system_id":"levelo_inurba_marseille","lat":43.28844,"lon":5.35841,"is_reserved":false,"is_disabled":false,"rental_uris":{"android":"levelo://app?vid=4167f3c5-0955-40bc-83b1-c1056c98aaa9","ios":"levelo://app?vid=4167f3c5-0955-40bc-83b1-c1056c98aaa9"},"vehicle_type_id":"4","last_reported":1726632736,"current_range_meters":38800,"station_id":"ce4bhb12rcd13ifvqem0","pricing_plan_id":"cebpf4jnsgd1na2vs0mg"},{"bike_id":"6e4c85b4-a1c2-45f6-a329-7b57679e1aaa","system_id":"levelo_inurba_marseille","lat":43.30448,"lon":5.38878,"is_reserved":false,"is_disabled":false,"rental_uris":{"android":"levelo://app?vid=6e4c85b4-a1c2-45f6-a329-7b57679e1aaa","ios":"levelo://app?vid=6e4c85b4-a1c2-45f6-a329-7b57679e1aaa"},"vehicle_type_id":"4","last_reported":1726632736,"current_range_meters":22000,"station_id":"ce4bgk12rcd13ifvqbi0","pricing_plan_id":"cebpf4jnsgd1na2vs0mg"},{"bike_id":"27c9ea12-7694-48b6-b50d-98a8f3498571","system_id":"levelo_inurba_marseille","lat":43.27955,"lon":5.38715,"is_reserved":false,"is_disabled":false,"rental_uris":{"android":"levelo://app?vid=27c9ea12-7694-48b6-b50d-98a8f3498571","ios":"levelo://app?vid=27c9ea12-7694-48b6-b50d-98a8f3498571"},"vehicle_type_id":"4","last_reported":1726632736,"current_range_meters":40000,"station_id":"ce4bhg12rcd13ifvqf80","pricing_plan_id":"cebpf4jnsgd1na2vs0mg"},{"bike_id":"826a7318-6bfb-411f-81d4-41b729485350","system_id":"levelo_inurba_marseille","lat":43.28455,"lon":5.35888,"is_reserved":false,"is_disabled":false,"rental_uris":{"android":"levelo://app?vid=826a7318-6bfb-411f-81d4-41b729485350","ios":"levelo://app?vid=826a7318-6bfb-411f-81d4-41b729485350"},"vehicle_type_id":"4","last_reported":1726632736,"current_range_meters":38800,"station_id":"ce4bhah2rcd13ifvqei0","pricing_plan_id":"cebpf4jnsgd1na2vs0mg"},{"bike_id":"adc3d03c-1a26-4c6b-978d-4c30cce189a2","system_id":"levelo_inurba_marseille","lat":43.25498,"lon":5.37655,"is_reserved":false,"is_disabled":false,"rental_uris":{"android":"levelo://app?vid=adc3d03c-1a26-4c6b-978d-4c30cce189a2","ios":"levelo://app?vid=adc3d03c-1a26-4c6b-978d-4c30cce189a2"},"vehicle_type_id":"4","last_reported":1726632736,"current_range_meters":32400,"station_id":"ce4bhh12rcd13ifvqff0","pricing_plan_id":"cebpf4jnsgd1na2vs0mg"},{"bike_id":"34e8a071-287e-4cf2-9112-5c37bd2eae62","system_id":"levelo_inurba_marseille","lat":43.3112,"lon":5.37769,"is_reserved":false,"is_disabled":false,"rental_uris":{"android":"levelo://app?vid=34e8a071-287e-4cf2-9112-5c37bd2eae62","ios":"levelo://app?vid=34e8a071-287e-4cf2-9112-5c37bd2eae62"},"vehicle_type_id":"4","last_reported":1726632736,"current_range_meters":38800,"station_id":"ce4bgt92rcd13ifvqcg0","pricing_plan_id":"cebpf4jnsgd1na2vs0mg"},{"bike_id":"c23b8ee8-eb6b-4754-a674-07b1194d1d6c","system_id":"levelo_inurba_marseille","lat":43.27811,"lon":5.40706,"is_reserved":false,"is_disabled":false,"rental_uris":{"android":"levelo://app?vid=c23b8ee8-eb6b-4754-a674-07b1194d1d6c","ios":"levelo://app?vid=c23b8ee8-eb6b-4754-a674-07b1194d1d6c"},"vehicle_type_id":"4","last_reported":1726632736,"current_range_meters":28400,"station_id":"ce4bhnh2rcd13ifvqgtg","pricing_plan_id":"cebpf4jnsgd1na2vs0mg"},{"bike_id":"0ca86180-5cb3-46a7-9899-332acb885aba","system_id":"levelo_inurba_marseille","lat":43.27917,"lon":5.39569,"is_reserved":false,"is_disabled":false,"rental_uris":{"android":"levelo://app?vid=0ca86180-5cb3-46a7-9899-332acb885aba","ios":"levelo://app?vid=0ca86180-5cb3-46a7-9899-332acb885aba"},"vehicle_type_id":"4","last_reported":1726632736,"current_range_meters":36000,"station_id":"ce4bhf92rcd13ifvqf40","pricing_plan_id":"cebpf4jnsgd1na2vs0mg"},{"bike_id":"86d62eae-a23b-4673-9f68-64274606a414","system_id":"levelo_inurba_marseille","lat":43.27912,"lon":5.39582,"is_reserved":false,"is_disabled":false,"rental_uris":{"android":"levelo://app?vid=86d62eae-a23b-4673-9f68-64274606a414","ios":"levelo://app?vid=86d62eae-a23b-4673-9f68-64274606a414"},"vehicle_type_id":"4","last_reported":1726632736,"current_range_meters":32400,"station_id":"ce4bhf92rcd13ifvqf40","pricing_plan_id":"cebpf4jnsgd1na2vs0mg"},{"bike_id":"b099dcf9-a202-4041-a7cc-40a4b6695d0e","system_id":"levelo_inurba_marseille","lat":43.33023,"lon":5.39035,"is_reserved":false,"is_disabled":false,"rental_uris":{"android":"levelo://app?vid=b099dcf9-a202-4041-a7cc-40a4b6695d0e","ios":"levelo://app?vid=b099dcf9-a202-4041-a7cc-40a4b6695d0e"},"vehicle_type_id":"4","last_reported":1726632736,"current_range_meters":38800,"station_id":"ce4bhr92rcd13ifvqhrg","pricing_plan_id":"cebpf4jnsgd1na2vs0mg"},{"bike_id":"9ec75349-5981-4540-9c85-67e247bba546","system_id":"levelo_inurba_marseille","lat":43.31691,"lon":5.40466,"is_reserved":false,"is_disabled":false,"rental_uris":{"android":"levelo://app?vid=9ec75349-5981-4540-9c85-67e247bba546","ios":"levelo://app?vid=9ec75349-5981-4540-9c85-67e247bba546"},"vehicle_type_id":"4","last_reported":1726632736,"current_range_meters":38000,"station_id":"ce4bh012rcd13ifvqd00","pricing_plan_id":"cebpf4jnsgd1na2vs0mg"},{"bike_id":"394e6ae4-aa38-47e5-ad65-1154f489383d","system_id":"levelo_inurba_marseille","lat":43.29119,"lon":5.35565,"is_reserved":false,"is_disabled":false,"rental_uris":{"android":"levelo://app?vid=394e6ae4-aa38-47e5-ad65-1154f489383d","ios":"levelo://app?vid=394e6ae4-aa38-47e5-ad65-1154f489383d"},"vehicle_type_id":"4","last_reported":1726632736,"current_range_meters":23200,"station_id":"","pricing_plan_id":"cebpf4jnsgd1na2vs0mg"},{"bike_id":"3d7058c8-0e4c-419e-b20d-c7af5031023a","system_id":"levelo_inurba_marseille","lat":43.30897,"lon":5.37193,"is_reserved":false,"is_disabled":false,"rental_uris":{"android":"levelo://app?vid=3d7058c8-0e4c-419e-b20d-c7af5031023a","ios":"levelo://app?vid=3d7058c8-0e4c-419e-b20d-c7af5031023a"},"vehicle_type_id":"4","last_reported":1726632736,"current_range_meters":25600,"station_id":"ce4bguh2rcd13ifvqckg","pricing_plan_id":"cebpf4jnsgd1na2vs0mg"},{"bike_id":"f409a27c-3291-4d9b-ac57-9e74e75d80d1","system_id":"levelo_inurba_marseille","lat":43.3236,"lon":5.38882,"is_reserved":false,"is_disabled":false,"rental_uris":{"android":"levelo://app?vid=f409a27c-3291-4d9b-ac57-9e74e75d80d1","ios":"levelo://app?vid=f409a27c-3291-4d9b-ac57-9e74e75d80d1"},"vehicle_type_id":"4","last_reported":1726632736,"current_range_meters":9600,"station_id":"ce4bhqp2rcd13ifvqhog","pricing_plan_id":"cebpf4jnsgd1na2vs0mg"},{"bike_id":"3aa6b8c1-7167-4284-8174-dd55be308c5e","system_id":"levelo_inurba_marseille","lat":43.28103,"lon":5.37838,"is_reserved":false,"is_disabled":false,"rental_uris":{"android":"levelo://app?vid=3aa6b8c1-7167-4284-8174-dd55be308c5e","ios":"levelo://app?vid=3aa6b8c1-7167-4284-8174-dd55be308c5e"},"vehicle_type_id":"4","last_reported":1726632736,"current_range_meters":38000,"station_id":"ce4bha12rcd13ifvqee0","pricing_plan_id":"cebpf4jnsgd1na2vs0mg"},{"bike_id":"dc072784-60cf-46f6-a7be-7c6948ca152b","system_id":"levelo_inurba_marseille","lat":43.30422,"lon":5.39753,"is_reserved":false,"is_disabled":false,"rental_uris":{"android":"levelo://app?vid=dc072784-60cf-46f6-a7be-7c6948ca152b","ios":"levelo://app?vid=dc072784-60cf-46f6-a7be-7c6948ca152b"},"vehicle_type_id":"4","last_reported":1726632736,"current_range_meters":38800,"station_id":"ce4bh092rcd13ifvqd20","pricing_plan_id":"cebpf4jnsgd1na2vs0mg"},{"bike_id":"d4496308-e036-4c5c-bc6a-ca8cde616780","system_id":"levelo_inurba_marseille","lat":43.31168,"lon":5.38719,"is_reserved":false,"is_disabled":false,"rental_uris":{"android":"levelo://app?vid=d4496308-e036-4c5c-bc6a-ca8cde616780","ios":"levelo://app?vid=d4496308-e036-4c5c-bc6a-ca8cde616780"},"vehicle_type_id":"4","last_reported":1726632736,"current_range_meters":39200,"station_id":"ce4bgv12rcd13ifvqcp0","pricing_plan_id":"cebpf4jnsgd1na2vs0mg"},{"bike_id":"e3ac3a36-40fa-46d8-ac55-b26ca01edd4f","system_id":"levelo_inurba_marseille","lat":43.26683,"lon":5.38268,"is_reserved":false,"is_disabled":false,"rental_uris":{"android":"levelo://app?vid=e3ac3a36-40fa-46d8-ac55-b26ca01edd4f","ios":"levelo://app?vid=e3ac3a36-40fa-46d8-ac55-b26ca01edd4f"},"vehicle_type_id":"4","last_reported":1726632736,"current_range_meters":33600,"station_id":"ce4bhg92rcd13ifvqf90","pricing_plan_id":"cebpf4jnsgd1na2vs0mg"},{"bike_id":"12b27822-aaab-4a2d-90fa-d3cf917f4e55","system_id":"levelo_inurba_marseille","lat":43.30209,"lon":5.39479,"is_reserved":false,"is_disabled":false,"rental_uris":{"android":"levelo://app?vid=12b27822-aaab-4a2d-90fa-d3cf917f4e55","ios":"levelo://app?vid=12b27822-aaab-4a2d-90fa-d3cf917f4e55"},"vehicle_type_id":"4","last_reported":1726632736,"current_range_meters":38800,"station_id":"ce4bh0p2rcd13ifvqd70","pricing_plan_id":"cebpf4jnsgd1na2vs0mg"},{"bike_id":"f0145871-1a1c-4f58-9abf-45eb144e8994","system_id":"levelo_inurba_marseille","lat":43.30654,"lon":5.40087,"is_reserved":false,"is_disabled":false,"rental_uris":{"android":"levelo://app?vid=f0145871-1a1c-4f58-9abf-45eb144e8994","ios":"levelo://app?vid=f0145871-1a1c-4f58-9abf-45eb144e8994"},"vehicle_type_id":"4","last_reported":1726632736,"current_range_meters":38800,"station_id":"ce4bh112rcd13ifvqda0","pricing_plan_id":"cebpf4jnsgd1na2vs0mg"},{"bike_id":"513eb7b7-021e-4783-9e80-45b6d7fae5bb","system_id":"levelo_inurba_marseille","lat":43.28259,"lon":5.35069,"is_reserved":false,"is_disabled":false,"rental_uris":{"android":"levelo://app?vid=513eb7b7-021e-4783-9e80-45b6d7fae5bb","ios":"levelo://app?vid=513eb7b7-021e-4783-9e80-45b6d7fae5bb"},"vehicle_type_id":"4","last_reported":1726632736,"current_range_meters":38800,"station_id":"ce4bhbp2rcd13ifvqerg","pricing_plan_id":"cebpf4jnsgd1na2vs0mg"},{"bike_id":"334b6d12-d374-4d88-8b6e-7f174696e078","system_id":"levelo_inurba_marseille","lat":43.28703,"lon":5.37388,"is_reserved":false,"is_disabled":false,"rental_uris":{"android":"levelo://app?vid=334b6d12-d374-4d88-8b6e-7f174696e078","ios":"levelo://app?vid=334b6d12-d374-4d88-8b6e-7f174696e078"},"vehicle_type_id":"4","last_reported":1726632736,"current_range_meters":36000,"station_id":"ce4bh3p2rcd13ifvqdq0","pricing_plan_id":"cebpf4jnsgd1na2vs0mg"},{"bike_id":"0c18f7de-b7f3-4589-a11a-fa026d3b54c3","system_id":"levelo_inurba_marseille","lat":43.28156,"lon":5.42648,"is_reserved":false,"is_disabled":false,"rental_uris":{"android":"levelo://app?vid=0c18f7de-b7f3-4589-a11a-fa026d3b54c3","ios":"levelo://app?vid=0c18f7de-b7f3-4589-a11a-fa026d3b54c3"},"vehicle_type_id":"4","last_reported":1726632736,"current_range_meters":20400,"station_id":"ce4bhnh2rcd13ifvqgug","pricing_plan_id":"cebpf4jnsgd1na2vs0mg"},{"bike_id":"ee7cab51-ac41-4df2-a570-0b8afed077f6","system_id":"levelo_inurba_marseille","lat":43.33019,"lon":5.39038,"is_reserved":false,"is_disabled":false,"rental_uris":{"android":"levelo://app?vid=ee7cab51-ac41-4df2-a570-0b8afed077f6","ios":"levelo://app?vid=ee7cab51-ac41-4df2-a570-0b8afed077f6"},"vehicle_type_id":"4","last_reported":1726632736,"current_range_meters":27200,"station_id":"ce4bhr92rcd13ifvqhrg","pricing_plan_id":"cebpf4jnsgd1na2vs0mg"},{"bike_id":"c7f93bf2-2b30-4c5c-aa72-447b3f4a28ea","system_id":"levelo_inurba_marseille","lat":43.29895,"lon":5.43659,"is_reserved":false,"is_disabled":false,"rental_uris":{"android":"levelo://app?vid=c7f93bf2-2b30-4c5c-aa72-447b3f4a28ea","ios":"levelo://app?vid=c7f93bf2-2b30-4c5c-aa72-447b3f4a28ea"},"vehicle_type_id":"4","last_reported":1726632736,"current_range_meters":6400,"station_id":"ce4bhpp2rcd13ifvqhfg","pricing_plan_id":"cebpf4jnsgd1na2vs0mg"},{"bike_id":"80c4333f-507f-4622-8662-ed65b7c3ad82","system_id":"levelo_inurba_marseille","lat":43.31761,"lon":5.39025,"is_reserved":false,"is_disabled":false,"rental_uris":{"android":"levelo://app?vid=80c4333f-507f-4622-8662-ed65b7c3ad82","ios":"levelo://app?vid=80c4333f-507f-4622-8662-ed65b7c3ad82"},"vehicle_type_id":"4","last_reported":1726632736,"current_range_meters":38800,"station_id":"ce4bhqp2rcd13ifvqhng","pricing_plan_id":"cebpf4jnsgd1na2vs0mg"},{"bike_id":"a3efd81c-da06-42d6-889e-44923da28ff8","system_id":"levelo_inurba_marseille","lat":43.28097,"lon":5.37837,"is_reserved":false,"is_disabled":false,"rental_uris":{"android":"levelo://app?vid=a3efd81c-da06-42d6-889e-44923da28ff8","ios":"levelo://app?vid=a3efd81c-da06-42d6-889e-44923da28ff8"},"vehicle_type_id":"4","last_reported":1726632736,"current_range_meters":17600,"station_id":"ce4bha12rcd13ifvqee0","pricing_plan_id":"cebpf4jnsgd1na2vs0mg"},{"bike_id":"6d398055-ba33-4127-aa64-5cbde7e549c4","system_id":"levelo_inurba_marseille","lat":43.31997,"lon":5.38156,"is_reserved":false,"is_disabled":false,"rental_uris":{"android":"levelo://app?vid=6d398055-ba33-4127-aa64-5cbde7e549c4","ios":"levelo://app?vid=6d398055-ba33-4127-aa64-5cbde7e549c4"},"vehicle_type_id":"4","last_reported":1726632736,"current_range_meters":35600,"station_id":"ce4bhr12rcd13ifvqhpg","pricing_plan_id":"cebpf4jnsgd1na2vs0mg"},{"bike_id":"6d907c15-7eef-4799-91e1-b4e089534448","system_id":"levelo_inurba_marseille","lat":43.24071,"lon":5.37762,"is_reserved":false,"is_disabled":false,"rental_uris":{"android":"levelo://app?vid=6d907c15-7eef-4799-91e1-b4e089534448","ios":"levelo://app?vid=6d907c15-7eef-4799-91e1-b4e089534448"},"vehicle_type_id":"4","last_reported":1726632736,"current_range_meters":25600,"station_id":"ce4bhnp2rcd13ifvqgvg","pricing_plan_id":"cebpf4jnsgd1na2vs0mg"},{"bike_id":"f33f1ba2-2f5f-4e3f-979a-e7e37618343d","system_id":"levelo_inurba_marseille","lat":43.29193,"lon":5.39316,"is_reserved":false,"is_disabled":false,"rental_uris":{"android":"levelo://app?vid=f33f1ba2-2f5f-4e3f-979a-e7e37618343d","ios":"levelo://app?vid=f33f1ba2-2f5f-4e3f-979a-e7e37618343d"},"vehicle_type_id":"4","last_reported":1726632736,"current_range_meters":28000,"station_id":"ce4bh192rcd13ifvqdd0","pricing_plan_id":"cebpf4jnsgd1na2vs0mg"},{"bike_id":"f1230d2e-8486-4d76-8402-36b9b40ea9b9","system_id":"levelo_inurba_marseille","lat":43.28465,"lon":5.35886,"is_reserved":false,"is_disabled":false,"rental_uris":{"android":"levelo://app?vid=f1230d2e-8486-4d76-8402-36b9b40ea9b9","ios":"levelo://app?vid=f1230d2e-8486-4d76-8402-36b9b40ea9b9"},"vehicle_type_id":"4","last_reported":1726632736,"current_range_meters":38400,"station_id":"ce4bhah2rcd13ifvqei0","pricing_plan_id":"cebpf4jnsgd1na2vs0mg"},{"bike_id":"b62a9610-ebe1-445b-8d81-d796bfa6285e","system_id":"levelo_inurba_marseille","lat":43.30928,"lon":5.40153,"is_reserved":false,"is_disabled":false,"rental_uris":{"android":"levelo://app?vid=b62a9610-ebe1-445b-8d81-d796bfa6285e","ios":"levelo://app?vid=b62a9610-ebe1-445b-8d81-d796bfa6285e"},"vehicle_type_id":"4","last_reported":1726632736,"current_range_meters":14000,"station_id":"ce4bgvp2rcd13ifvqct0","pricing_plan_id":"cebpf4jnsgd1na2vs0mg"},{"bike_id":"1b5a3615-4988-4982-8b62-9226ed5a66a6","system_id":"levelo_inurba_marseille","lat":43.31345,"lon":5.38309,"is_reserved":false,"is_disabled":false,"rental_uris":{"android":"levelo://app?vid=1b5a3615-4988-4982-8b62-9226ed5a66a6","ios":"levelo://app?vid=1b5a3615-4988-4982-8b62-9226ed5a66a6"},"vehicle_type_id":"4","last_reported":1726632736,"current_range_meters":4800,"station_id":"","pricing_plan_id":"cebpf4jnsgd1na2vs0mg"},{"bike_id":"57c55890-9622-407f-92d9-6af7734663b4","system_id":"levelo_inurba_marseille","lat":43.23186,"lon":5.39989,"is_reserved":false,"is_disabled":false,"rental_uris":{"android":"levelo://app?vid=57c55890-9622-407f-92d9-6af7734663b4","ios":"levelo://app?vid=57c55890-9622-407f-92d9-6af7734663b4"},"vehicle_type_id":"4","last_reported":1726632736,"current_range_meters":16800,"station_id":"ce4bhn12rcd13ifvqgqg","pricing_plan_id":"cebpf4jnsgd1na2vs0mg"},{"bike_id":"80d1eb54-6334-4c2f-a160-7e4b5cb79537","system_id":"levelo_inurba_marseille","lat":43.2996,"lon":5.41344,"is_reserved":false,"is_disabled":false,"rental_uris":{"android":"levelo://app?vid=80d1eb54-6334-4c2f-a160-7e4b5cb79537","ios":"levelo://app?vid=80d1eb54-6334-4c2f-a160-7e4b5cb79537"},"vehicle_type_id":"4","last_reported":1726632736,"current_range_meters":36800,"station_id":"ce4bhp12rcd13ifvqh9g","pricing_plan_id":"cebpf4jnsgd1na2vs0mg"},{"bike_id":"16707e48-3dae-487d-9eba-6160e73dce90","system_id":"levelo_inurba_marseille","lat":43.28705,"lon":5.36423,"is_reserved":false,"is_disabled":false,"rental_uris":{"android":"levelo://app?vid=16707e48-3dae-487d-9eba-6160e73dce90","ios":"levelo://app?vid=16707e48-3dae-487d-9eba-6160e73dce90"},"vehicle_type_id":"4","last_reported":1726632736,"current_range_meters":38000,"station_id":"","pricing_plan_id":"cebpf4jnsgd1na2vs0mg"},{"bike_id":"2df18966-5fec-4175-82c5-cee36a200007","system_id":"levelo_inurba_marseille","lat":43.30602,"lon":5.3935,"is_reserved":false,"is_disabled":false,"rental_uris":{"android":"levelo://app?vid=2df18966-5fec-4175-82c5-cee36a200007","ios":"levelo://app?vid=2df18966-5fec-4175-82c5-cee36a200007"},"vehicle_type_id":"4","last_reported":1726632736,"current_range_meters":11600,"station_id":"ce4bh0p2rcd13ifvqd80","pricing_plan_id":"cebpf4jnsgd1na2vs0mg"},{"bike_id":"cd2093f7-46b6-4549-a936-868a6fa11ef9","system_id":"levelo_inurba_marseille","lat":43.27903,"lon":5.38008,"is_reserved":false,"is_disabled":false,"rental_uris":{"android":"levelo://app?vid=cd2093f7-46b6-4549-a936-868a6fa11ef9","ios":"levelo://app?vid=cd2093f7-46b6-4549-a936-868a6fa11ef9"},"vehicle_type_id":"4","last_reported":1726632736,"current_range_meters":39200,"station_id":"ce4bhf92rcd13ifvqf50","pricing_plan_id":"cebpf4jnsgd1na2vs0mg"},{"bike_id":"a61689aa-5c1a-4413-8538-941f73ca00b9","system_id":"levelo_inurba_marseille","lat":43.2619,"lon":5.37455,"is_reserved":false,"is_disabled":false,"rental_uris":{"android":"levelo://app?vid=a61689aa-5c1a-4413-8538-941f73ca00b9","ios":"levelo://app?vid=a61689aa-5c1a-4413-8538-941f73ca00b9"},"vehicle_type_id":"4","last_reported":1726632736,"current_range_meters":37600,"station_id":"ce4bhgp2rcd13ifvqfc0","pricing_plan_id":"cebpf4jnsgd1na2vs0mg"},{"bike_id":"b88d8bac-711e-49d2-9eee-8f0f2fcec434","system_id":"levelo_inurba_marseille","lat":43.33025,"lon":5.39046,"is_reserved":false,"is_disabled":false,"rental_uris":{"android":"levelo://app?vid=b88d8bac-711e-49d2-9eee-8f0f2fcec434","ios":"levelo://app?vid=b88d8bac-711e-49d2-9eee-8f0f2fcec434"},"vehicle_type_id":"4","last_reported":1726632736,"current_range_meters":26800,"station_id":"ce4bhr92rcd13ifvqhrg","pricing_plan_id":"cebpf4jnsgd1na2vs0mg"},{"bike_id":"4b567c58-63b2-4464-ae5a-a690f3da961e","system_id":"levelo_inurba_marseille","lat":43.30208,"lon":5.39474,"is_reserved":false,"is_disabled":false,"rental_uris":{"android":"levelo://app?vid=4b567c58-63b2-4464-ae5a-a690f3da961e","ios":"levelo://app?vid=4b567c58-63b2-4464-ae5a-a690f3da961e"},"vehicle_type_id":"4","last_reported":1726632736,"current_range_meters":32800,"station_id":"ce4bh0p2rcd13ifvqd70","pricing_plan_id":"cebpf4jnsgd1na2vs0mg"},{"bike_id":"85292c98-cd2a-494e-9899-c640124371ef","system_id":"levelo_inurba_marseille","lat":43.3089,"lon":5.3965,"is_reserved":false,"is_disabled":false,"rental_uris":{"android":"levelo://app?vid=85292c98-cd2a-494e-9899-c640124371ef","ios":"levelo://app?vid=85292c98-cd2a-494e-9899-c640124371ef"},"vehicle_type_id":"4","last_reported":1726632736,"current_range_meters":38800,"station_id":"ce4bh012rcd13ifvqcv0","pricing_plan_id":"cebpf4jnsgd1na2vs0mg"},{"bike_id":"2189c212-ccd8-46f4-bde9-9d5f8bd683d8","system_id":"levelo_inurba_marseille","lat":43.26566,"lon":5.39014,"is_reserved":false,"is_disabled":false,"rental_uris":{"android":"levelo://app?vid=2189c212-ccd8-46f4-bde9-9d5f8bd683d8","ios":"levelo://app?vid=2189c212-ccd8-46f4-bde9-9d5f8bd683d8"},"vehicle_type_id":"4","last_reported":1726632736,"current_range_meters":31200,"station_id":"ce4bhe12rcd13ifvqf30","pricing_plan_id":"cebpf4jnsgd1na2vs0mg"},{"bike_id":"2e2254f6-d3ed-4277-af5f-ee204e464f40","system_id":"levelo_inurba_marseille","lat":43.29938,"lon":5.41324,"is_reserved":false,"is_disabled":false,"rental_uris":{"android":"levelo://app?vid=2e2254f6-d3ed-4277-af5f-ee204e464f40","ios":"levelo://app?vid=2e2254f6-d3ed-4277-af5f-ee204e464f40"},"vehicle_type_id":"4","last_reported":1726632736,"current_range_meters":37600,"station_id":"ce4bhp12rcd13ifvqh9g","pricing_plan_id":"cebpf4jnsgd1na2vs0mg"},{"bike_id":"ce693a2c-df9e-4deb-bb87-f1426bccbd02","system_id":"levelo_inurba_marseille","lat":43.29367,"lon":5.37857,"is_reserved":false,"is_disabled":false,"rental_uris":{"android":"levelo://app?vid=ce693a2c-df9e-4deb-bb87-f1426bccbd02","ios":"levelo://app?vid=ce693a2c-df9e-4deb-bb87-f1426bccbd02"},"vehicle_type_id":"4","last_reported":1726632736,"current_range_meters":38800,"station_id":"ce4bgjh2rcd13ifvqbf0","pricing_plan_id":"cebpf4jnsgd1na2vs0mg"},{"bike_id":"b07244db-8789-4dd8-8ab9-ba6570355fe4","system_id":"levelo_inurba_marseille","lat":43.28097,"lon":5.37843,"is_reserved":false,"is_disabled":false,"rental_uris":{"android":"levelo://app?vid=b07244db-8789-4dd8-8ab9-ba6570355fe4","ios":"levelo://app?vid=b07244db-8789-4dd8-8ab9-ba6570355fe4"},"vehicle_type_id":"4","last_reported":1726632736,"current_range_meters":38400,"station_id":"ce4bha12rcd13ifvqee0","pricing_plan_id":"cebpf4jnsgd1na2vs0mg"},{"bike_id":"7ffa0a34-2412-4cf6-a653-08d8c8ef67dd","system_id":"levelo_inurba_marseille","lat":43.31983,"lon":5.43835,"is_reserved":false,"is_disabled":false,"rental_uris":{"android":"levelo://app?vid=7ffa0a34-2412-4cf6-a653-08d8c8ef67dd","ios":"levelo://app?vid=7ffa0a34-2412-4cf6-a653-08d8c8ef67dd"},"vehicle_type_id":"4","last_reported":1726632736,"current_range_meters":14400,"station_id":"","pricing_plan_id":"cebpf4jnsgd1na2vs0mg"},{"bike_id":"60696c21-e7eb-4802-a342-911ea3071c71","system_id":"levelo_inurba_marseille","lat":43.31661,"lon":5.39548,"is_reserved":false,"is_disabled":false,"rental_uris":{"android":"levelo://app?vid=60696c21-e7eb-4802-a342-911ea3071c71","ios":"levelo://app?vid=60696c21-e7eb-4802-a342-911ea3071c71"},"vehicle_type_id":"4","last_reported":1726632736,"current_range_meters":24800,"station_id":"","pricing_plan_id":"cebpf4jnsgd1na2vs0mg"},{"bike_id":"8cb592d9-f82f-4171-894f-8d7ffa6525e5","system_id":"levelo_inurba_marseille","lat":43.23196,"lon":5.35549,"is_reserved":false,"is_disabled":false,"rental_uris":{"android":"levelo://app?vid=8cb592d9-f82f-4171-894f-8d7ffa6525e5","ios":"levelo://app?vid=8cb592d9-f82f-4171-894f-8d7ffa6525e5"},"vehicle_type_id":"4","last_reported":1726632736,"current_range_meters":16000,"station_id":"ce4bhu92rcd13ifvqi70","pricing_plan_id":"cebpf4jnsgd1na2vs0mg"},{"bike_id":"79cad5b6-9cb0-4262-b39c-374cdf1c25d1","system_id":"levelo_inurba_marseille","lat":43.3248,"lon":5.36556,"is_reserved":false,"is_disabled":false,"rental_uris":{"android":"levelo://app?vid=79cad5b6-9cb0-4262-b39c-374cdf1c25d1","ios":"levelo://app?vid=79cad5b6-9cb0-4262-b39c-374cdf1c25d1"},"vehicle_type_id":"4","last_reported":1726632736,"current_range_meters":38800,"station_id":"ce4bhs12rcd13ifvqhvg","pricing_plan_id":"cebpf4jnsgd1na2vs0mg"},{"bike_id":"8d88c07c-4556-43d6-8940-ca6809bdad6b","system_id":"levelo_inurba_marseille","lat":43.28081,"lon":5.39658,"is_reserved":false,"is_disabled":false,"rental_uris":{"android":"levelo://app?vid=8d88c07c-4556-43d6-8940-ca6809bdad6b","ios":"levelo://app?vid=8d88c07c-4556-43d6-8940-ca6809bdad6b"},"vehicle_type_id":"4","last_reported":1726632736,"current_range_meters":38800,"station_id":"ce4bho12rcd13ifvqh2g","pricing_plan_id":"cebpf4jnsgd1na2vs0mg"},{"bike_id":"e1106899-7828-4db4-b1d2-7cd1880cf9b2","system_id":"levelo_inurba_marseille","lat":43.31167,"lon":5.38722,"is_reserved":false,"is_disabled":false,"rental_uris":{"android":"levelo://app?vid=e1106899-7828-4db4-b1d2-7cd1880cf9b2","ios":"levelo://app?vid=e1106899-7828-4db4-b1d2-7cd1880cf9b2"},"vehicle_type_id":"4","last_reported":1726632736,"current_range_meters":38800,"station_id":"ce4bgv12rcd13ifvqcp0","pricing_plan_id":"cebpf4jnsgd1na2vs0mg"},{"bike_id":"699d09b8-17ae-4b5a-81a4-f0906a954e6d","system_id":"levelo_inurba_marseille","lat":43.32286,"lon":5.38267,"is_reserved":false,"is_disabled":false,"rental_uris":{"android":"levelo://app?vid=699d09b8-17ae-4b5a-81a4-f0906a954e6d","ios":"levelo://app?vid=699d09b8-17ae-4b5a-81a4-f0906a954e6d"},"vehicle_type_id":"4","last_reported":1726632736,"current_range_meters":10800,"station_id":"ce4bhr12rcd13ifvqhqg","pricing_plan_id":"cebpf4jnsgd1na2vs0mg"},{"bike_id":"b8202725-e178-41de-a548-aee1fa6cb95c","system_id":"levelo_inurba_marseille","lat":43.29039,"lon":5.3995,"is_reserved":false,"is_disabled":false,"rental_uris":{"android":"levelo://app?vid=b8202725-e178-41de-a548-aee1fa6cb95c","ios":"levelo://app?vid=b8202725-e178-41de-a548-aee1fa6cb95c"},"vehicle_type_id":"4","last_reported":1726632736,"current_range_meters":38800,"station_id":"ce4bh392rcd13ifvqdm0","pricing_plan_id":"cebpf4jnsgd1na2vs0mg"},{"bike_id":"20a4a91d-8541-4958-9b2e-4e75165c8a2a","system_id":"levelo_inurba_marseille","lat":43.308,"lon":5.43529,"is_reserved":false,"is_disabled":false,"rental_uris":{"android":"levelo://app?vid=20a4a91d-8541-4958-9b2e-4e75165c8a2a","ios":"levelo://app?vid=20a4a91d-8541-4958-9b2e-4e75165c8a2a"},"vehicle_type_id":"4","last_reported":1726632736,"current_range_meters":10000,"station_id":"ce4bhph2rcd13ifvqheg","pricing_plan_id":"cebpf4jnsgd1na2vs0mg"},{"bike_id":"9cd2158d-f3f3-4a97-a884-99e19ad4bcb7","system_id":"levelo_inurba_marseille","lat":43.23151,"lon":5.43707,"is_reserved":false,"is_disabled":false,"rental_uris":{"android":"levelo://app?vid=9cd2158d-f3f3-4a97-a884-99e19ad4bcb7","ios":"levelo://app?vid=9cd2158d-f3f3-4a97-a884-99e19ad4bcb7"},"vehicle_type_id":"4","last_reported":1726632736,"current_range_meters":30400,"station_id":"ce4bhmp2rcd13ifvqgog","pricing_plan_id":"cebpf4jnsgd1na2vs0mg"},{"bike_id":"c3bcca86-6294-4639-9d07-9722d40f464e","system_id":"levelo_inurba_marseille","lat":43.29899,"lon":5.43669,"is_reserved":false,"is_disabled":false,"rental_uris":{"android":"levelo://app?vid=c3bcca86-6294-4639-9d07-9722d40f464e","ios":"levelo://app?vid=c3bcca86-6294-4639-9d07-9722d40f464e"},"vehicle_type_id":"4","last_reported":1726632736,"current_range_meters":27200,"station_id":"ce4bhpp2rcd13ifvqhfg","pricing_plan_id":"cebpf4jnsgd1na2vs0mg"},{"bike_id":"4c26e646-674f-496d-b5b9-9707784feb4f","system_id":"levelo_inurba_marseille","lat":43.29897,"lon":5.38137,"is_reserved":false,"is_disabled":false,"rental_uris":{"android":"levelo://app?vid=4c26e646-674f-496d-b5b9-9707784feb4f","ios":"levelo://app?vid=4c26e646-674f-496d-b5b9-9707784feb4f"},"vehicle_type_id":"4","last_reported":1726632736,"current_range_meters":37600,"station_id":"ce4bgj12rcd13ifvqbc0","pricing_plan_id":"cebpf4jnsgd1na2vs0mg"},{"bike_id":"464b765a-5bcf-418f-9058-526dab1b44f9","system_id":"levelo_inurba_marseille","lat":43.3229,"lon":5.38273,"is_reserved":false,"is_disabled":false,"rental_uris":{"android":"levelo://app?vid=464b765a-5bcf-418f-9058-526dab1b44f9","ios":"levelo://app?vid=464b765a-5bcf-418f-9058-526dab1b44f9"},"vehicle_type_id":"4","last_reported":1726632736,"current_range_meters":22400,"station_id":"ce4bhr12rcd13ifvqhqg","pricing_plan_id":"cebpf4jnsgd1na2vs0mg"},{"bike_id":"02977118-69a6-4ca8-82d1-77e2b60e8c97","system_id":"levelo_inurba_marseille","lat":43.29041,"lon":5.3592,"is_reserved":false,"is_disabled":false,"rental_uris":{"android":"levelo://app?vid=02977118-69a6-4ca8-82d1-77e2b60e8c97","ios":"levelo://app?vid=02977118-69a6-4ca8-82d1-77e2b60e8c97"},"vehicle_type_id":"4","last_reported":1726632736,"current_range_meters":38000,"station_id":"ce4bha92rcd13ifvqeg0","pricing_plan_id":"cebpf4jnsgd1na2vs0mg"},{"bike_id":"22683c37-5f0a-43ba-b756-0c6e1c5263f2","system_id":"levelo_inurba_marseille","lat":43.28461,"lon":5.35883,"is_reserved":false,"is_disabled":false,"rental_uris":{"android":"levelo://app?vid=22683c37-5f0a-43ba-b756-0c6e1c5263f2","ios":"levelo://app?vid=22683c37-5f0a-43ba-b756-0c6e1c5263f2"},"vehicle_type_id":"4","last_reported":1726632736,"current_range_meters":38800,"station_id":"ce4bhah2rcd13ifvqei0","pricing_plan_id":"cebpf4jnsgd1na2vs0mg"},{"bike_id":"c2d78f7c-5efa-4961-b24c-bb26e9ec271e","system_id":"levelo_inurba_marseille","lat":43.34154,"lon":5.40902,"is_reserved":false,"is_disabled":false,"rental_uris":{"android":"levelo://app?vid=c2d78f7c-5efa-4961-b24c-bb26e9ec271e","ios":"levelo://app?vid=c2d78f7c-5efa-4961-b24c-bb26e9ec271e"},"vehicle_type_id":"4","last_reported":1726632736,"current_range_meters":26000,"station_id":"ce4bhqh2rcd13ifvqhlg","pricing_plan_id":"cebpf4jnsgd1na2vs0mg"},{"bike_id":"8e3c84db-879d-4669-8d43-f74eed3d4c1b","system_id":"levelo_inurba_marseille","lat":43.27371,"lon":5.36263,"is_reserved":false,"is_disabled":false,"rental_uris":{"android":"levelo://app?vid=8e3c84db-879d-4669-8d43-f74eed3d4c1b","ios":"levelo://app?vid=8e3c84db-879d-4669-8d43-f74eed3d4c1b"},"vehicle_type_id":"4","last_reported":1726632736,"current_range_meters":38800,"station_id":"ce4bhbh2rcd13ifvqeo0","pricing_plan_id":"cebpf4jnsgd1na2vs0mg"},{"bike_id":"95de6f39-c349-4389-b4cf-decf8fff6702","system_id":"levelo_inurba_marseille","lat":43.27997,"lon":5.40012,"is_reserved":false,"is_disabled":false,"rental_uris":{"android":"levelo://app?vid=95de6f39-c349-4389-b4cf-decf8fff6702","ios":"levelo://app?vid=95de6f39-c349-4389-b4cf-decf8fff6702"},"vehicle_type_id":"4","last_reported":1726632736,"current_range_meters":34000,"station_id":"ce4bho92rcd13ifvqh4g","pricing_plan_id":"cebpf4jnsgd1na2vs0mg"},{"bike_id":"e4423762-79cc-4194-b598-e2a6d1aa84cf","system_id":"levelo_inurba_marseille","lat":43.28935,"lon":5.39622,"is_reserved":false,"is_disabled":false,"rental_uris":{"android":"levelo://app?vid=e4423762-79cc-4194-b598-e2a6d1aa84cf","ios":"levelo://app?vid=e4423762-79cc-4194-b598-e2a6d1aa84cf"},"vehicle_type_id":"4","last_reported":1726632736,"current_range_meters":37600,"station_id":"ce4bh3h2rcd13ifvqdn0","pricing_plan_id":"cebpf4jnsgd1na2vs0mg"},{"bike_id":"654b7b92-8c6a-4217-896e-d43a6fbf4d0d","system_id":"levelo_inurba_marseille","lat":43.27996,"lon":5.40013,"is_reserved":false,"is_disabled":false,"rental_uris":{"android":"levelo://app?vid=654b7b92-8c6a-4217-896e-d43a6fbf4d0d","ios":"levelo://app?vid=654b7b92-8c6a-4217-896e-d43a6fbf4d0d"},"vehicle_type_id":"4","last_reported":1726632736,"current_range_meters":40000,"station_id":"ce4bho92rcd13ifvqh4g","pricing_plan_id":"cebpf4jnsgd1na2vs0mg"},{"bike_id":"b1db6496-7d7b-4acc-a88c-e5406d38e100","system_id":"levelo_inurba_marseille","lat":43.23191,"lon":5.35558,"is_reserved":false,"is_disabled":false,"rental_uris":{"android":"levelo://app?vid=b1db6496-7d7b-4acc-a88c-e5406d38e100","ios":"levelo://app?vid=b1db6496-7d7b-4acc-a88c-e5406d38e100"},"vehicle_type_id":"4","last_reported":1726632736,"current_range_meters":24400,"station_id":"ce4bhu92rcd13ifvqi70","pricing_plan_id":"cebpf4jnsgd1na2vs0mg"},{"bike_id":"2366f0c6-278c-4564-ae3a-4efff8943957","system_id":"levelo_inurba_marseille","lat":43.29259,"lon":5.3844,"is_reserved":false,"is_disabled":false,"rental_uris":{"android":"levelo://app?vid=2366f0c6-278c-4564-ae3a-4efff8943957","ios":"levelo://app?vid=2366f0c6-278c-4564-ae3a-4efff8943957"},"vehicle_type_id":"4","last_reported":1726632736,"current_range_meters":38400,"station_id":"ce4bh692rcd13ifvqea0","pricing_plan_id":"cebpf4jnsgd1na2vs0mg"},{"bike_id":"19803353-a3f8-425e-b51b-867efa566f1b","system_id":"levelo_inurba_marseille","lat":43.2587,"lon":5.399,"is_reserved":false,"is_disabled":false,"rental_uris":{"android":"levelo://app?vid=19803353-a3f8-425e-b51b-867efa566f1b","ios":"levelo://app?vid=19803353-a3f8-425e-b51b-867efa566f1b"},"vehicle_type_id":"4","last_reported":1726632736,"current_range_meters":34000,"station_id":"ce4bhl92rcd13ifvqghg","pricing_plan_id":"cebpf4jnsgd1na2vs0mg"},{"bike_id":"2bcffd6b-54ed-4cfe-b51b-1d7fce1ffe15","system_id":"levelo_inurba_marseille","lat":43.28837,"lon":5.3584,"is_reserved":false,"is_disabled":false,"rental_uris":{"android":"levelo://app?vid=2bcffd6b-54ed-4cfe-b51b-1d7fce1ffe15","ios":"levelo://app?vid=2bcffd6b-54ed-4cfe-b51b-1d7fce1ffe15"},"vehicle_type_id":"4","last_reported":1726632736,"current_range_meters":38800,"station_id":"ce4bhb12rcd13ifvqem0","pricing_plan_id":"cebpf4jnsgd1na2vs0mg"},{"bike_id":"6ab6f6c9-f957-4595-a53b-903c46246669","system_id":"levelo_inurba_marseille","lat":43.3133,"lon":5.39693,"is_reserved":false,"is_disabled":false,"rental_uris":{"android":"levelo://app?vid=6ab6f6c9-f957-4595-a53b-903c46246669","ios":"levelo://app?vid=6ab6f6c9-f957-4595-a53b-903c46246669"},"vehicle_type_id":"4","last_reported":1726632736,"current_range_meters":34800,"station_id":"ce4bgvp2rcd13ifvqcu0","pricing_plan_id":"cebpf4jnsgd1na2vs0mg"},{"bike_id":"16e28fa7-bd7d-4453-a33e-16cba01a517d","system_id":"levelo_inurba_marseille","lat":43.31277,"lon":5.40169,"is_reserved":false,"is_disabled":false,"rental_uris":{"android":"levelo://app?vid=16e28fa7-bd7d-4453-a33e-16cba01a517d","ios":"levelo://app?vid=16e28fa7-bd7d-4453-a33e-16cba01a517d"},"vehicle_type_id":"4","last_reported":1726632736,"current_range_meters":24800,"station_id":"ce4bh092rcd13ifvqd30","pricing_plan_id":"cebpf4jnsgd1na2vs0mg"},{"bike_id":"2f398685-560e-4a85-beb3-9c2080b75a4b","system_id":"levelo_inurba_marseille","lat":43.29047,"lon":5.35917,"is_reserved":false,"is_disabled":false,"rental_uris":{"android":"levelo://app?vid=2f398685-560e-4a85-beb3-9c2080b75a4b","ios":"levelo://app?vid=2f398685-560e-4a85-beb3-9c2080b75a4b"},"vehicle_type_id":"4","last_reported":1726632736,"current_range_meters":38800,"station_id":"ce4bha92rcd13ifvqeg0","pricing_plan_id":"cebpf4jnsgd1na2vs0mg"},{"bike_id":"20c8f008-5dd3-4031-8dcd-3c7859fc2c41","system_id":"levelo_inurba_marseille","lat":43.30932,"lon":5.40147,"is_reserved":false,"is_disabled":false,"rental_uris":{"android":"levelo://app?vid=20c8f008-5dd3-4031-8dcd-3c7859fc2c41","ios":"levelo://app?vid=20c8f008-5dd3-4031-8dcd-3c7859fc2c41"},"vehicle_type_id":"4","last_reported":1726632736,"current_range_meters":38800,"station_id":"ce4bgvp2rcd13ifvqct0","pricing_plan_id":"cebpf4jnsgd1na2vs0mg"},{"bike_id":"888f7b9d-ee55-42c3-9bf4-bf59284eb4d6","system_id":"levelo_inurba_marseille","lat":43.25867,"lon":5.39898,"is_reserved":false,"is_disabled":false,"rental_uris":{"android":"levelo://app?vid=888f7b9d-ee55-42c3-9bf4-bf59284eb4d6","ios":"levelo://app?vid=888f7b9d-ee55-42c3-9bf4-bf59284eb4d6"},"vehicle_type_id":"4","last_reported":1726632736,"current_range_meters":32000,"station_id":"ce4bhl92rcd13ifvqghg","pricing_plan_id":"cebpf4jnsgd1na2vs0mg"},{"bike_id":"657d2ce3-df51-45da-bb47-734f0cd56ed6","system_id":"levelo_inurba_marseille","lat":43.27177,"lon":5.40997,"is_reserved":false,"is_disabled":false,"rental_uris":{"android":"levelo://app?vid=657d2ce3-df51-45da-bb47-734f0cd56ed6","ios":"levelo://app?vid=657d2ce3-df51-45da-bb47-734f0cd56ed6"},"vehicle_type_id":"4","last_reported":1726632736,"current_range_meters":39200,"station_id":"ce4bhl12rcd13ifvqgf0","pricing_plan_id":"cebpf4jnsgd1na2vs0mg"},{"bike_id":"68907486-3b85-40f1-b87e-a544a9d74e65","system_id":"levelo_inurba_marseille","lat":43.29794,"lon":5.38093,"is_reserved":false,"is_disabled":false,"rental_uris":{"android":"levelo://app?vid=68907486-3b85-40f1-b87e-a544a9d74e65","ios":"levelo://app?vid=68907486-3b85-40f1-b87e-a544a9d74e65"},"vehicle_type_id":"4","last_reported":1726632736,"current_range_meters":38800,"station_id":"ce4bgip2rcd13ifvqbb0","pricing_plan_id":"cebpf4jnsgd1na2vs0mg"},{"bike_id":"806cac2a-bfa5-4b02-a061-2bb66ffe7b7a","system_id":"levelo_inurba_marseille","lat":43.30586,"lon":5.39354,"is_reserved":false,"is_disabled":false,"rental_uris":{"android":"levelo://app?vid=806cac2a-bfa5-4b02-a061-2bb66ffe7b7a","ios":"levelo://app?vid=806cac2a-bfa5-4b02-a061-2bb66ffe7b7a"},"vehicle_type_id":"4","last_reported":1726632736,"current_range_meters":38800,"station_id":"ce4bh0p2rcd13ifvqd80","pricing_plan_id":"cebpf4jnsgd1na2vs0mg"},{"bike_id":"b645ac77-0d58-4fa9-8ad3-947af8bdb1d9","system_id":"levelo_inurba_marseille","lat":43.29897,"lon":5.43667,"is_reserved":false,"is_disabled":false,"rental_uris":{"android":"levelo://app?vid=b645ac77-0d58-4fa9-8ad3-947af8bdb1d9","ios":"levelo://app?vid=b645ac77-0d58-4fa9-8ad3-947af8bdb1d9"},"vehicle_type_id":"4","last_reported":1726632736,"current_range_meters":20800,"station_id":"ce4bhpp2rcd13ifvqhfg","pricing_plan_id":"cebpf4jnsgd1na2vs0mg"},{"bike_id":"0b3ff731-b800-4ae8-9373-b09f3ca9ec36","system_id":"levelo_inurba_marseille","lat":43.27569,"lon":5.38413,"is_reserved":false,"is_disabled":false,"rental_uris":{"android":"levelo://app?vid=0b3ff731-b800-4ae8-9373-b09f3ca9ec36","ios":"levelo://app?vid=0b3ff731-b800-4ae8-9373-b09f3ca9ec36"},"vehicle_type_id":"4","last_reported":1726632736,"current_range_meters":27600,"station_id":"ce4bhh92rcd13ifvqfi0","pricing_plan_id":"cebpf4jnsgd1na2vs0mg"},{"bike_id":"7aaf4205-3eff-4e10-9fd8-fa1c3c8288a3","system_id":"levelo_inurba_marseille","lat":43.31326,"lon":5.397,"is_reserved":false,"is_disabled":false,"rental_uris":{"android":"levelo://app?vid=7aaf4205-3eff-4e10-9fd8-fa1c3c8288a3","ios":"levelo://app?vid=7aaf4205-3eff-4e10-9fd8-fa1c3c8288a3"},"vehicle_type_id":"4","last_reported":1726632736,"current_range_meters":16000,"station_id":"ce4bgvp2rcd13ifvqcu0","pricing_plan_id":"cebpf4jnsgd1na2vs0mg"},{"bike_id":"a0d84c2f-536a-41e9-b0ba-5ea22e1bf6af","system_id":"levelo_inurba_marseille","lat":43.25865,"lon":5.39905,"is_reserved":false,"is_disabled":false,"rental_uris":{"android":"levelo://app?vid=a0d84c2f-536a-41e9-b0ba-5ea22e1bf6af","ios":"levelo://app?vid=a0d84c2f-536a-41e9-b0ba-5ea22e1bf6af"},"vehicle_type_id":"4","last_reported":1726632736,"current_range_meters":26000,"station_id":"ce4bhl92rcd13ifvqghg","pricing_plan_id":"cebpf4jnsgd1na2vs0mg"},{"bike_id":"9a92abb3-59cd-4477-a507-b141c652f151","system_id":"levelo_inurba_marseille","lat":43.2811,"lon":5.37831,"is_reserved":false,"is_disabled":false,"rental_uris":{"android":"levelo://app?vid=9a92abb3-59cd-4477-a507-b141c652f151","ios":"levelo://app?vid=9a92abb3-59cd-4477-a507-b141c652f151"},"vehicle_type_id":"4","last_reported":1726632736,"current_range_meters":16800,"station_id":"ce4bha12rcd13ifvqee0","pricing_plan_id":"cebpf4jnsgd1na2vs0mg"},{"bike_id":"366c4b2d-59fe-4592-8744-9f5df01f5435","system_id":"levelo_inurba_marseille","lat":43.26784,"lon":5.39421,"is_reserved":false,"is_disabled":false,"rental_uris":{"android":"levelo://app?vid=366c4b2d-59fe-4592-8744-9f5df01f5435","ios":"levelo://app?vid=366c4b2d-59fe-4592-8744-9f5df01f5435"},"vehicle_type_id":"4","last_reported":1726632736,"current_range_meters":37600,"station_id":"ce4bhh12rcd13ifvqfg0","pricing_plan_id":"cebpf4jnsgd1na2vs0mg"},{"bike_id":"84b4cc65-838a-471e-afa0-8b6d9c22f207","system_id":"levelo_inurba_marseille","lat":43.28701,"lon":5.39978,"is_reserved":false,"is_disabled":false,"rental_uris":{"android":"levelo://app?vid=84b4cc65-838a-471e-afa0-8b6d9c22f207","ios":"levelo://app?vid=84b4cc65-838a-471e-afa0-8b6d9c22f207"},"vehicle_type_id":"4","last_reported":1726632736,"current_range_meters":38800,"station_id":"ce4bho92rcd13ifvqh3g","pricing_plan_id":"cebpf4jnsgd1na2vs0mg"},{"bike_id":"8ceb5aea-b40e-4dad-98b0-1dcabb72c74a","system_id":"levelo_inurba_marseille","lat":43.32285,"lon":5.38272,"is_reserved":false,"is_disabled":false,"rental_uris":{"android":"levelo://app?vid=8ceb5aea-b40e-4dad-98b0-1dcabb72c74a","ios":"levelo://app?vid=8ceb5aea-b40e-4dad-98b0-1dcabb72c74a"},"vehicle_type_id":"4","last_reported":1726632736,"current_range_meters":27600,"station_id":"ce4bhr12rcd13ifvqhqg","pricing_plan_id":"cebpf4jnsgd1na2vs0mg"},{"bike_id":"d0de6164-6362-44a9-aa73-d563279d1eb9","system_id":"levelo_inurba_marseille","lat":43.24661,"lon":5.38162,"is_reserved":false,"is_disabled":false,"rental_uris":{"android":"levelo://app?vid=d0de6164-6362-44a9-aa73-d563279d1eb9","ios":"levelo://app?vid=d0de6164-6362-44a9-aa73-d563279d1eb9"},"vehicle_type_id":"4","last_reported":1726632736,"current_range_meters":27600,"station_id":"ce4bhih2rcd13ifvqfr0","pricing_plan_id":"cebpf4jnsgd1na2vs0mg"},{"bike_id":"677498c9-746b-4650-9a8e-2c7479635944","system_id":"levelo_inurba_marseille","lat":43.33023,"lon":5.3905,"is_reserved":false,"is_disabled":false,"rental_uris":{"android":"levelo://app?vid=677498c9-746b-4650-9a8e-2c7479635944","ios":"levelo://app?vid=677498c9-746b-4650-9a8e-2c7479635944"},"vehicle_type_id":"4","last_reported":1726632736,"current_range_meters":17200,"station_id":"ce4bhr92rcd13ifvqhrg","pricing_plan_id":"cebpf4jnsgd1na2vs0mg"},{"bike_id":"9b51e962-37e9-42e1-af80-eceacf1eea2a","system_id":"levelo_inurba_marseille","lat":43.29981,"lon":5.37188,"is_reserved":false,"is_disabled":false,"rental_uris":{"android":"levelo://app?vid=9b51e962-37e9-42e1-af80-eceacf1eea2a","ios":"levelo://app?vid=9b51e962-37e9-42e1-af80-eceacf1eea2a"},"vehicle_type_id":"4","last_reported":1726632736,"current_range_meters":28000,"station_id":"ce4bgr92rcd13ifvqc7g","pricing_plan_id":"cebpf4jnsgd1na2vs0mg"},{"bike_id":"2b6686af-adcb-4f0c-b71f-73fe9b9a5c36","system_id":"levelo_inurba_marseille","lat":43.34145,"lon":5.40903,"is_reserved":false,"is_disabled":false,"rental_uris":{"android":"levelo://app?vid=2b6686af-adcb-4f0c-b71f-73fe9b9a5c36","ios":"levelo://app?vid=2b6686af-adcb-4f0c-b71f-73fe9b9a5c36"},"vehicle_type_id":"4","last_reported":1726632736,"current_range_meters":38800,"station_id":"ce4bhqh2rcd13ifvqhlg","pricing_plan_id":"cebpf4jnsgd1na2vs0mg"},{"bike_id":"1d0e82e0-c627-46a9-9900-72456a2e4f58","system_id":"levelo_inurba_marseille","lat":43.24076,"lon":5.37759,"is_reserved":false,"is_disabled":false,"rental_uris":{"android":"levelo://app?vid=1d0e82e0-c627-46a9-9900-72456a2e4f58","ios":"levelo://app?vid=1d0e82e0-c627-46a9-9900-72456a2e4f58"},"vehicle_type_id":"4","last_reported":1726632736,"current_range_meters":37600,"station_id":"ce4bhnp2rcd13ifvqgvg","pricing_plan_id":"cebpf4jnsgd1na2vs0mg"},{"bike_id":"3a9b4a0b-9bdd-47e7-94eb-27772d1f7862","system_id":"levelo_inurba_marseille","lat":43.2718,"lon":5.40999,"is_reserved":false,"is_disabled":false,"rental_uris":{"android":"levelo://app?vid=3a9b4a0b-9bdd-47e7-94eb-27772d1f7862","ios":"levelo://app?vid=3a9b4a0b-9bdd-47e7-94eb-27772d1f7862"},"vehicle_type_id":"4","last_reported":1726632736,"current_range_meters":33200,"station_id":"ce4bhl12rcd13ifvqgf0","pricing_plan_id":"cebpf4jnsgd1na2vs0mg"},{"bike_id":"c629c3c4-865b-4d24-940e-24132cb8ca47","system_id":"levelo_inurba_marseille","lat":43.2318,"lon":5.39978,"is_reserved":false,"is_disabled":false,"rental_uris":{"android":"levelo://app?vid=c629c3c4-865b-4d24-940e-24132cb8ca47","ios":"levelo://app?vid=c629c3c4-865b-4d24-940e-24132cb8ca47"},"vehicle_type_id":"4","last_reported":1726632736,"current_range_meters":38400,"station_id":"ce4bhn12rcd13ifvqgqg","pricing_plan_id":"cebpf4jnsgd1na2vs0mg"},{"bike_id":"0a90983e-e0da-4a21-b2b5-e81e1d512719","system_id":"levelo_inurba_marseille","lat":43.32373,"lon":5.38886,"is_reserved":false,"is_disabled":false,"rental_uris":{"android":"levelo://app?vid=0a90983e-e0da-4a21-b2b5-e81e1d512719","ios":"levelo://app?vid=0a90983e-e0da-4a21-b2b5-e81e1d512719"},"vehicle_type_id":"4","last_reported":1726632736,"current_range_meters":20800,"station_id":"ce4bhqp2rcd13ifvqhog","pricing_plan_id":"cebpf4jnsgd1na2vs0mg"},{"bike_id":"1e93cb79-1aaf-4438-84c7-042ca661621c","system_id":"levelo_inurba_marseille","lat":43.31535,"lon":5.38028,"is_reserved":false,"is_disabled":false,"rental_uris":{"android":"levelo://app?vid=1e93cb79-1aaf-4438-84c7-042ca661621c","ios":"levelo://app?vid=1e93cb79-1aaf-4438-84c7-042ca661621c"},"vehicle_type_id":"4","last_reported":1726632736,"current_range_meters":11600,"station_id":"ce4bhsp2rcd13ifvqi50","pricing_plan_id":"cebpf4jnsgd1na2vs0mg"},{"bike_id":"f6c738da-8313-4c11-b9e7-c1d7fc004296","system_id":"levelo_inurba_marseille","lat":43.26026,"lon":5.37562,"is_reserved":false,"is_disabled":false,"rental_uris":{"android":"levelo://app?vid=f6c738da-8313-4c11-b9e7-c1d7fc004296","ios":"levelo://app?vid=f6c738da-8313-4c11-b9e7-c1d7fc004296"},"vehicle_type_id":"4","last_reported":1726632736,"current_range_meters":37600,"station_id":"ce4bhgh2rcd13ifvqfa0","pricing_plan_id":"cebpf4jnsgd1na2vs0mg"},{"bike_id":"4b161963-0c95-42fe-91a5-17368c2caba2","system_id":"levelo_inurba_marseille","lat":43.28076,"lon":5.39657,"is_reserved":false,"is_disabled":false,"rental_uris":{"android":"levelo://app?vid=4b161963-0c95-42fe-91a5-17368c2caba2","ios":"levelo://app?vid=4b161963-0c95-42fe-91a5-17368c2caba2"},"vehicle_type_id":"4","last_reported":1726632736,"current_range_meters":30400,"station_id":"ce4bho12rcd13ifvqh2g","pricing_plan_id":"cebpf4jnsgd1na2vs0mg"},{"bike_id":"d5f1460c-62a4-4849-84d1-6abadbca5fd7","system_id":"levelo_inurba_marseille","lat":43.29014,"lon":5.35594,"is_reserved":false,"is_disabled":false,"rental_uris":{"android":"levelo://app?vid=d5f1460c-62a4-4849-84d1-6abadbca5fd7","ios":"levelo://app?vid=d5f1460c-62a4-4849-84d1-6abadbca5fd7"},"vehicle_type_id":"4","last_reported":1726632736,"current_range_meters":37600,"station_id":"ce4bhb92rcd13ifvqen0","pricing_plan_id":"cebpf4jnsgd1na2vs0mg"},{"bike_id":"1ee132e3-4a1d-40ef-8f85-6c4472f2fe5e","system_id":"levelo_inurba_marseille","lat":43.33605,"lon":5.41029,"is_reserved":false,"is_disabled":false,"rental_uris":{"android":"levelo://app?vid=1ee132e3-4a1d-40ef-8f85-6c4472f2fe5e","ios":"levelo://app?vid=1ee132e3-4a1d-40ef-8f85-6c4472f2fe5e"},"vehicle_type_id":"4","last_reported":1726632736,"current_range_meters":37600,"station_id":"ce4bhqh2rcd13ifvqhmg","pricing_plan_id":"cebpf4jnsgd1na2vs0mg"},{"bike_id":"3a86cb65-3233-4f16-a4ce-b82fd671cddf","system_id":"levelo_inurba_marseille","lat":43.24547,"lon":5.39528,"is_reserved":false,"is_disabled":false,"rental_uris":{"android":"levelo://app?vid=3a86cb65-3233-4f16-a4ce-b82fd671cddf","ios":"levelo://app?vid=3a86cb65-3233-4f16-a4ce-b82fd671cddf"},"vehicle_type_id":"4","last_reported":1726632736,"current_range_meters":39200,"station_id":"ce4bhlp2rcd13ifvqgjg","pricing_plan_id":"cebpf4jnsgd1na2vs0mg"},{"bike_id":"8746bc86-84bc-469d-bc9c-452476199d12","system_id":"levelo_inurba_marseille","lat":43.26952,"lon":5.38642,"is_reserved":false,"is_disabled":false,"rental_uris":{"android":"levelo://app?vid=8746bc86-84bc-469d-bc9c-452476199d12","ios":"levelo://app?vid=8746bc86-84bc-469d-bc9c-452476199d12"},"vehicle_type_id":"4","last_reported":1726632736,"current_range_meters":38400,"station_id":"ce4bhh92rcd13ifvqfh0","pricing_plan_id":"cebpf4jnsgd1na2vs0mg"},{"bike_id":"e322896a-9301-4e00-8a2b-00ac0afcf56a","system_id":"levelo_inurba_marseille","lat":43.29711,"lon":5.36616,"is_reserved":false,"is_disabled":false,"rental_uris":{"android":"levelo://app?vid=e322896a-9301-4e00-8a2b-00ac0afcf56a","ios":"levelo://app?vid=e322896a-9301-4e00-8a2b-00ac0afcf56a"},"vehicle_type_id":"4","last_reported":1726632736,"current_range_meters":36400,"station_id":"ce4bgn12rcd13ifvqbt0","pricing_plan_id":"cebpf4jnsgd1na2vs0mg"},{"bike_id":"6bedfdb9-2981-43a3-a546-f8aac60f37b4","system_id":"levelo_inurba_marseille","lat":43.2796,"lon":5.38717,"is_reserved":false,"is_disabled":false,"rental_uris":{"android":"levelo://app?vid=6bedfdb9-2981-43a3-a546-f8aac60f37b4","ios":"levelo://app?vid=6bedfdb9-2981-43a3-a546-f8aac60f37b4"},"vehicle_type_id":"4","last_reported":1726632736,"current_range_meters":9600,"station_id":"ce4bhg12rcd13ifvqf80","pricing_plan_id":"cebpf4jnsgd1na2vs0mg"},{"bike_id":"57bd9cd2-cdfc-478e-b09e-e41c6d04ab6b","system_id":"levelo_inurba_marseille","lat":43.30542,"lon":5.38436,"is_reserved":false,"is_disabled":false,"rental_uris":{"android":"levelo://app?vid=57bd9cd2-cdfc-478e-b09e-e41c6d04ab6b","ios":"levelo://app?vid=57bd9cd2-cdfc-478e-b09e-e41c6d04ab6b"},"vehicle_type_id":"4","last_reported":1726632736,"current_range_meters":34000,"station_id":"ce4bgg92rcd13ifvqb30","pricing_plan_id":"cebpf4jnsgd1na2vs0mg"},{"bike_id":"f5beae20-6559-445f-ac60-a1371290e408","system_id":"levelo_inurba_marseille","lat":43.28417,"lon":5.34993,"is_reserved":false,"is_disabled":false,"rental_uris":{"android":"levelo://app?vid=f5beae20-6559-445f-ac60-a1371290e408","ios":"levelo://app?vid=f5beae20-6559-445f-ac60-a1371290e408"},"vehicle_type_id":"4","last_reported":1726632736,"current_range_meters":38000,"station_id":"ce4bhbh2rcd13ifvqepg","pricing_plan_id":"cebpf4jnsgd1na2vs0mg"},{"bike_id":"1af04a42-5ed6-4406-b3fc-ca556592689a","system_id":"levelo_inurba_marseille","lat":43.30931,"lon":5.4014,"is_reserved":false,"is_disabled":false,"rental_uris":{"android":"levelo://app?vid=1af04a42-5ed6-4406-b3fc-ca556592689a","ios":"levelo://app?vid=1af04a42-5ed6-4406-b3fc-ca556592689a"},"vehicle_type_id":"4","last_reported":1726632736,"current_range_meters":7200,"station_id":"ce4bgvp2rcd13ifvqct0","pricing_plan_id":"cebpf4jnsgd1na2vs0mg"},{"bike_id":"0dd917e9-49bd-4a0f-97a1-4ca49bb8c23e","system_id":"levelo_inurba_marseille","lat":43.2511,"lon":5.40334,"is_reserved":false,"is_disabled":false,"rental_uris":{"android":"levelo://app?vid=0dd917e9-49bd-4a0f-97a1-4ca49bb8c23e","ios":"levelo://app?vid=0dd917e9-49bd-4a0f-97a1-4ca49bb8c23e"},"vehicle_type_id":"4","last_reported":1726632736,"current_range_meters":36400,"station_id":"ce4bhlh2rcd13ifvqgig","pricing_plan_id":"cebpf4jnsgd1na2vs0mg"},{"bike_id":"e4310468-b479-45b9-b96a-b8bf52d6476b","system_id":"levelo_inurba_marseille","lat":43.2857,"lon":5.39501,"is_reserved":false,"is_disabled":false,"rental_uris":{"android":"levelo://app?vid=e4310468-b479-45b9-b96a-b8bf52d6476b","ios":"levelo://app?vid=e4310468-b479-45b9-b96a-b8bf52d6476b"},"vehicle_type_id":"4","last_reported":1726632736,"current_range_meters":38800,"station_id":"ce4bh292rcd13ifvqdg0","pricing_plan_id":"cebpf4jnsgd1na2vs0mg"},{"bike_id":"eb850dce-eced-45b2-9a4b-f81be01b0bf0","system_id":"levelo_inurba_marseille","lat":43.25119,"lon":5.40323,"is_reserved":false,"is_disabled":false,"rental_uris":{"android":"levelo://app?vid=eb850dce-eced-45b2-9a4b-f81be01b0bf0","ios":"levelo://app?vid=eb850dce-eced-45b2-9a4b-f81be01b0bf0"},"vehicle_type_id":"4","last_reported":1726632736,"current_range_meters":28400,"station_id":"ce4bhlh2rcd13ifvqgig","pricing_plan_id":"cebpf4jnsgd1na2vs0mg"},{"bike_id":"c6f01f14-fff9-4622-993d-c6825fc8422e","system_id":"levelo_inurba_marseille","lat":43.29197,"lon":5.35797,"is_reserved":false,"is_disabled":false,"rental_uris":{"android":"levelo://app?vid=c6f01f14-fff9-4622-993d-c6825fc8422e","ios":"levelo://app?vid=c6f01f14-fff9-4622-993d-c6825fc8422e"},"vehicle_type_id":"4","last_reported":1726632736,"current_range_meters":38400,"station_id":"ce4bhb12rcd13ifvqel0","pricing_plan_id":"cebpf4jnsgd1na2vs0mg"},{"bike_id":"9dbc1275-dff3-4f6f-ac47-2da20b7eaced","system_id":"levelo_inurba_marseille","lat":43.24082,"lon":5.37756,"is_reserved":false,"is_disabled":false,"rental_uris":{"android":"levelo://app?vid=9dbc1275-dff3-4f6f-ac47-2da20b7eaced","ios":"levelo://app?vid=9dbc1275-dff3-4f6f-ac47-2da20b7eaced"},"vehicle_type_id":"4","last_reported":1726632736,"current_range_meters":37600,"station_id":"ce4bhnp2rcd13ifvqgvg","pricing_plan_id":"cebpf4jnsgd1na2vs0mg"},{"bike_id":"9ea9f2c6-e3d7-4c8d-bac8-7d45ea471e22","system_id":"levelo_inurba_marseille","lat":43.2979,"lon":5.39353,"is_reserved":false,"is_disabled":false,"rental_uris":{"android":"levelo://app?vid=9ea9f2c6-e3d7-4c8d-bac8-7d45ea471e22","ios":"levelo://app?vid=9ea9f2c6-e3d7-4c8d-bac8-7d45ea471e22"},"vehicle_type_id":"4","last_reported":1726632736,"current_range_meters":38800,"station_id":"chh1huq6cuj3fo74tm60","pricing_plan_id":"cebpf4jnsgd1na2vs0mg"},{"bike_id":"99684f50-b398-427b-a4e9-7ca0a0382c79","system_id":"levelo_inurba_marseille","lat":43.23195,"lon":5.35552,"is_reserved":false,"is_disabled":false,"rental_uris":{"android":"levelo://app?vid=99684f50-b398-427b-a4e9-7ca0a0382c79","ios":"levelo://app?vid=99684f50-b398-427b-a4e9-7ca0a0382c79"},"vehicle_type_id":"4","last_reported":1726632736,"current_range_meters":38800,"station_id":"ce4bhu92rcd13ifvqi70","pricing_plan_id":"cebpf4jnsgd1na2vs0mg"},{"bike_id":"53ca7fde-037f-43ce-a43e-6f1979a83add","system_id":"levelo_inurba_marseille","lat":43.27918,"lon":5.39582,"is_reserved":false,"is_disabled":false,"rental_uris":{"android":"levelo://app?vid=53ca7fde-037f-43ce-a43e-6f1979a83add","ios":"levelo://app?vid=53ca7fde-037f-43ce-a43e-6f1979a83add"},"vehicle_type_id":"4","last_reported":1726632736,"current_range_meters":37600,"station_id":"ce4bhf92rcd13ifvqf40","pricing_plan_id":"cebpf4jnsgd1na2vs0mg"},{"bike_id":"d782c430-b2c7-45ce-aaaf-78dc9a80ca97","system_id":"levelo_inurba_marseille","lat":43.3302,"lon":5.3904,"is_reserved":false,"is_disabled":false,"rental_uris":{"android":"levelo://app?vid=d782c430-b2c7-45ce-aaaf-78dc9a80ca97","ios":"levelo://app?vid=d782c430-b2c7-45ce-aaaf-78dc9a80ca97"},"vehicle_type_id":"4","last_reported":1726632736,"current_range_meters":26800,"station_id":"ce4bhr92rcd13ifvqhrg","pricing_plan_id":"cebpf4jnsgd1na2vs0mg"},{"bike_id":"0af0f861-5036-4dc4-9b7d-6295edaa3406","system_id":"levelo_inurba_marseille","lat":43.27918,"lon":5.39583,"is_reserved":false,"is_disabled":false,"rental_uris":{"android":"levelo://app?vid=0af0f861-5036-4dc4-9b7d-6295edaa3406","ios":"levelo://app?vid=0af0f861-5036-4dc4-9b7d-6295edaa3406"},"vehicle_type_id":"4","last_reported":1726632736,"current_range_meters":35600,"station_id":"ce4bhf92rcd13ifvqf40","pricing_plan_id":"cebpf4jnsgd1na2vs0mg"},{"bike_id":"dd4b5128-6c65-4324-96d6-df731de78aa8","system_id":"levelo_inurba_marseille","lat":43.33025,"lon":5.39035,"is_reserved":false,"is_disabled":false,"rental_uris":{"android":"levelo://app?vid=dd4b5128-6c65-4324-96d6-df731de78aa8","ios":"levelo://app?vid=dd4b5128-6c65-4324-96d6-df731de78aa8"},"vehicle_type_id":"4","last_reported":1726632736,"current_range_meters":23200,"station_id":"ce4bhr92rcd13ifvqhrg","pricing_plan_id":"cebpf4jnsgd1na2vs0mg"},{"bike_id":"6c1468de-e14a-407b-9a20-3cdfa0922744","system_id":"levelo_inurba_marseille","lat":43.28456,"lon":5.35893,"is_reserved":false,"is_disabled":false,"rental_uris":{"android":"levelo://app?vid=6c1468de-e14a-407b-9a20-3cdfa0922744","ios":"levelo://app?vid=6c1468de-e14a-407b-9a20-3cdfa0922744"},"vehicle_type_id":"4","last_reported":1726632736,"current_range_meters":38800,"station_id":"ce4bhah2rcd13ifvqei0","pricing_plan_id":"cebpf4jnsgd1na2vs0mg"},{"bike_id":"0df89eec-3fde-4522-a054-f887329a4884","system_id":"levelo_inurba_marseille","lat":43.30307,"lon":5.39213,"is_reserved":false,"is_disabled":false,"rental_uris":{"android":"levelo://app?vid=0df89eec-3fde-4522-a054-f887329a4884","ios":"levelo://app?vid=0df89eec-3fde-4522-a054-f887329a4884"},"vehicle_type_id":"4","last_reported":1726632736,"current_range_meters":36400,"station_id":"ce4bgkh2rcd13ifvqbk0","pricing_plan_id":"cebpf4jnsgd1na2vs0mg"},{"bike_id":"2b714e73-49f8-4f26-bb6d-7d72ce23aabc","system_id":"levelo_inurba_marseille","lat":43.23054,"lon":5.355,"is_reserved":false,"is_disabled":false,"rental_uris":{"android":"levelo://app?vid=2b714e73-49f8-4f26-bb6d-7d72ce23aabc","ios":"levelo://app?vid=2b714e73-49f8-4f26-bb6d-7d72ce23aabc"},"vehicle_type_id":"4","last_reported":1726632736,"current_range_meters":9200,"station_id":"cpo3342slgdg3j2ifvpg","pricing_plan_id":"cebpf4jnsgd1na2vs0mg"},{"bike_id":"51b45b68-4a15-47ee-a2ec-8f41cb8227f7","system_id":"levelo_inurba_marseille","lat":43.30932,"lon":5.40154,"is_reserved":false,"is_disabled":false,"rental_uris":{"android":"levelo://app?vid=51b45b68-4a15-47ee-a2ec-8f41cb8227f7","ios":"levelo://app?vid=51b45b68-4a15-47ee-a2ec-8f41cb8227f7"},"vehicle_type_id":"4","last_reported":1726632736,"current_range_meters":38800,"station_id":"ce4bgvp2rcd13ifvqct0","pricing_plan_id":"cebpf4jnsgd1na2vs0mg"},{"bike_id":"dbe3bd51-a4fd-4626-b901-e2e0e6375c89","system_id":"levelo_inurba_marseille","lat":43.28485,"lon":5.38533,"is_reserved":false,"is_disabled":false,"rental_uris":{"android":"levelo://app?vid=dbe3bd51-a4fd-4626-b901-e2e0e6375c89","ios":"levelo://app?vid=dbe3bd51-a4fd-4626-b901-e2e0e6375c89"},"vehicle_type_id":"4","last_reported":1726632736,"current_range_meters":38800,"station_id":"ce4bh8p2rcd13ifvqeb0","pricing_plan_id":"cebpf4jnsgd1na2vs0mg"},{"bike_id":"459391a2-7378-4a0b-9a46-bad263ec195c","system_id":"levelo_inurba_marseille","lat":43.31532,"lon":5.38027,"is_reserved":false,"is_disabled":false,"rental_uris":{"android":"levelo://app?vid=459391a2-7378-4a0b-9a46-bad263ec195c","ios":"levelo://app?vid=459391a2-7378-4a0b-9a46-bad263ec195c"},"vehicle_type_id":"4","last_reported":1726632736,"current_range_meters":36400,"station_id":"ce4bhsp2rcd13ifvqi50","pricing_plan_id":"cebpf4jnsgd1na2vs0mg"},{"bike_id":"24b6223a-97c2-4a98-b8cd-63273ae1c7bd","system_id":"levelo_inurba_marseille","lat":43.31355,"lon":5.38502,"is_reserved":false,"is_disabled":false,"rental_uris":{"android":"levelo://app?vid=24b6223a-97c2-4a98-b8cd-63273ae1c7bd","ios":"levelo://app?vid=24b6223a-97c2-4a98-b8cd-63273ae1c7bd"},"vehicle_type_id":"4","last_reported":1726632736,"current_range_meters":17600,"station_id":"ce4bgt92rcd13ifvqcf0","pricing_plan_id":"cebpf4jnsgd1na2vs0mg"},{"bike_id":"62c2e691-b15e-4b15-aa0b-a3cce6a07671","system_id":"levelo_inurba_marseille","lat":43.28707,"lon":5.39989,"is_reserved":false,"is_disabled":false,"rental_uris":{"android":"levelo://app?vid=62c2e691-b15e-4b15-aa0b-a3cce6a07671","ios":"levelo://app?vid=62c2e691-b15e-4b15-aa0b-a3cce6a07671"},"vehicle_type_id":"4","last_reported":1726632736,"current_range_meters":12800,"station_id":"ce4bho92rcd13ifvqh3g","pricing_plan_id":"cebpf4jnsgd1na2vs0mg"},{"bike_id":"33f69f3f-8823-49c1-90ed-ec30bb04d814","system_id":"levelo_inurba_marseille","lat":43.24073,"lon":5.37758,"is_reserved":false,"is_disabled":false,"rental_uris":{"android":"levelo://app?vid=33f69f3f-8823-49c1-90ed-ec30bb04d814","ios":"levelo://app?vid=33f69f3f-8823-49c1-90ed-ec30bb04d814"},"vehicle_type_id":"4","last_reported":1726632736,"current_range_meters":38000,"station_id":"ce4bhnp2rcd13ifvqgvg","pricing_plan_id":"cebpf4jnsgd1na2vs0mg"},{"bike_id":"d1d6e796-d9a9-418a-8207-676d498db106","system_id":"levelo_inurba_marseille","lat":43.28027,"lon":5.36953,"is_reserved":false,"is_disabled":false,"rental_uris":{"android":"levelo://app?vid=d1d6e796-d9a9-418a-8207-676d498db106","ios":"levelo://app?vid=d1d6e796-d9a9-418a-8207-676d498db106"},"vehicle_type_id":"4","last_reported":1726632736,"current_range_meters":30400,"station_id":"ce4bha12rcd13ifvqef0","pricing_plan_id":"cebpf4jnsgd1na2vs0mg"},{"bike_id":"e8befb56-1303-484d-9ed5-cb1654ca2bd2","system_id":"levelo_inurba_marseille","lat":43.23955,"lon":5.36632,"is_reserved":false,"is_disabled":false,"rental_uris":{"android":"levelo://app?vid=e8befb56-1303-484d-9ed5-cb1654ca2bd2","ios":"levelo://app?vid=e8befb56-1303-484d-9ed5-cb1654ca2bd2"},"vehicle_type_id":"4","last_reported":1726632736,"current_range_meters":37600,"station_id":"ce4bhi12rcd13ifvqfp0","pricing_plan_id":"cebpf4jnsgd1na2vs0mg"},{"bike_id":"2e4c0d1a-a4a2-40d5-9c70-26993c46a5f6","system_id":"levelo_inurba_marseille","lat":43.23191,"lon":5.35543,"is_reserved":false,"is_disabled":false,"rental_uris":{"android":"levelo://app?vid=2e4c0d1a-a4a2-40d5-9c70-26993c46a5f6","ios":"levelo://app?vid=2e4c0d1a-a4a2-40d5-9c70-26993c46a5f6"},"vehicle_type_id":"4","last_reported":1726632736,"current_range_meters":38000,"station_id":"ce4bhu92rcd13ifvqi70","pricing_plan_id":"cebpf4jnsgd1na2vs0mg"},{"bike_id":"2af8965c-c953-4ba3-b2f3-481d779c63e0","system_id":"levelo_inurba_marseille","lat":43.27916,"lon":5.39588,"is_reserved":false,"is_disabled":false,"rental_uris":{"android":"levelo://app?vid=2af8965c-c953-4ba3-b2f3-481d779c63e0","ios":"levelo://app?vid=2af8965c-c953-4ba3-b2f3-481d779c63e0"},"vehicle_type_id":"4","last_reported":1726632736,"current_range_meters":35600,"station_id":"ce4bhf92rcd13ifvqf40","pricing_plan_id":"cebpf4jnsgd1na2vs0mg"},{"bike_id":"93e4745f-dfd5-4da8-a478-9cc1344f3317","system_id":"levelo_inurba_marseille","lat":43.27902,"lon":5.38013,"is_reserved":false,"is_disabled":false,"rental_uris":{"android":"levelo://app?vid=93e4745f-dfd5-4da8-a478-9cc1344f3317","ios":"levelo://app?vid=93e4745f-dfd5-4da8-a478-9cc1344f3317"},"vehicle_type_id":"4","last_reported":1726632736,"current_range_meters":39200,"station_id":"ce4bhf92rcd13ifvqf50","pricing_plan_id":"cebpf4jnsgd1na2vs0mg"},{"bike_id":"0220b097-472a-4a90-8416-c571b9120693","system_id":"levelo_inurba_marseille","lat":43.25117,"lon":5.40323,"is_reserved":false,"is_disabled":false,"rental_uris":{"android":"levelo://app?vid=0220b097-472a-4a90-8416-c571b9120693","ios":"levelo://app?vid=0220b097-472a-4a90-8416-c571b9120693"},"vehicle_type_id":"4","last_reported":1726632736,"current_range_meters":32000,"station_id":"ce4bhlh2rcd13ifvqgig","pricing_plan_id":"cebpf4jnsgd1na2vs0mg"},{"bike_id":"723d9cba-0b7b-4081-9b5b-6c3cb81c2943","system_id":"levelo_inurba_marseille","lat":43.28571,"lon":5.39502,"is_reserved":false,"is_disabled":false,"rental_uris":{"android":"levelo://app?vid=723d9cba-0b7b-4081-9b5b-6c3cb81c2943","ios":"levelo://app?vid=723d9cba-0b7b-4081-9b5b-6c3cb81c2943"},"vehicle_type_id":"4","last_reported":1726632736,"current_range_meters":11200,"station_id":"ce4bh292rcd13ifvqdg0","pricing_plan_id":"cebpf4jnsgd1na2vs0mg"},{"bike_id":"c5fef12e-b96d-4da4-b077-b267075bbcac","system_id":"levelo_inurba_marseille","lat":43.22925,"lon":5.35384,"is_reserved":false,"is_disabled":false,"rental_uris":{"android":"levelo://app?vid=c5fef12e-b96d-4da4-b077-b267075bbcac","ios":"levelo://app?vid=c5fef12e-b96d-4da4-b077-b267075bbcac"},"vehicle_type_id":"4","last_reported":1726632736,"current_range_meters":24400,"station_id":"cpo3532slgdg3j2ikp40","pricing_plan_id":"cebpf4jnsgd1na2vs0mg"},{"bike_id":"a49f33dc-bcd6-4e36-8617-509798ef54b8","system_id":"levelo_inurba_marseille","lat":43.29103,"lon":5.38155,"is_reserved":false,"is_disabled":false,"rental_uris":{"android":"levelo://app?vid=a49f33dc-bcd6-4e36-8617-509798ef54b8","ios":"levelo://app?vid=a49f33dc-bcd6-4e36-8617-509798ef54b8"},"vehicle_type_id":"4","last_reported":1726632736,"current_range_meters":38800,"station_id":"ce4bh512rcd13ifvqe2g","pricing_plan_id":"cebpf4jnsgd1na2vs0mg"},{"bike_id":"4e2c2699-3b3a-4d93-8b4c-cf2922b45c99","system_id":"levelo_inurba_marseille","lat":43.24072,"lon":5.3776,"is_reserved":false,"is_disabled":false,"rental_uris":{"android":"levelo://app?vid=4e2c2699-3b3a-4d93-8b4c-cf2922b45c99","ios":"levelo://app?vid=4e2c2699-3b3a-4d93-8b4c-cf2922b45c99"},"vehicle_type_id":"4","last_reported":1726632736,"current_range_meters":30000,"station_id":"ce4bhnp2rcd13ifvqgvg","pricing_plan_id":"cebpf4jnsgd1na2vs0mg"},{"bike_id":"1ee61871-4506-47c6-b8df-d100d54a142f","system_id":"levelo_inurba_marseille","lat":43.317,"lon":5.40464,"is_reserved":false,"is_disabled":false,"rental_uris":{"android":"levelo://app?vid=1ee61871-4506-47c6-b8df-d100d54a142f","ios":"levelo://app?vid=1ee61871-4506-47c6-b8df-d100d54a142f"},"vehicle_type_id":"4","last_reported":1726632736,"current_range_meters":13600,"station_id":"ce4bh012rcd13ifvqd00","pricing_plan_id":"cebpf4jnsgd1na2vs0mg"},{"bike_id":"90e2b18d-d1e2-4bf6-a003-0d1f75a4b523","system_id":"levelo_inurba_marseille","lat":43.30603,"lon":5.3936,"is_reserved":false,"is_disabled":false,"rental_uris":{"android":"levelo://app?vid=90e2b18d-d1e2-4bf6-a003-0d1f75a4b523","ios":"levelo://app?vid=90e2b18d-d1e2-4bf6-a003-0d1f75a4b523"},"vehicle_type_id":"4","last_reported":1726632736,"current_range_meters":38800,"station_id":"ce4bh0p2rcd13ifvqd80","pricing_plan_id":"cebpf4jnsgd1na2vs0mg"},{"bike_id":"20bc09e1-f4e5-4e42-ae67-8e1c76c63af5","system_id":"levelo_inurba_marseille","lat":43.30157,"lon":5.38095,"is_reserved":false,"is_disabled":false,"rental_uris":{"android":"levelo://app?vid=20bc09e1-f4e5-4e42-ae67-8e1c76c63af5","ios":"levelo://app?vid=20bc09e1-f4e5-4e42-ae67-8e1c76c63af5"},"vehicle_type_id":"4","last_reported":1726632736,"current_range_meters":37600,"station_id":"ce4bgjp2rcd13ifvqbh0","pricing_plan_id":"cebpf4jnsgd1na2vs0mg"},{"bike_id":"255def12-1a7e-4787-b2e4-a6a54888a394","system_id":"levelo_inurba_marseille","lat":43.32479,"lon":5.36579,"is_reserved":false,"is_disabled":false,"rental_uris":{"android":"levelo://app?vid=255def12-1a7e-4787-b2e4-a6a54888a394","ios":"levelo://app?vid=255def12-1a7e-4787-b2e4-a6a54888a394"},"vehicle_type_id":"4","last_reported":1726632736,"current_range_meters":38800,"station_id":"ce4bhs12rcd13ifvqhvg","pricing_plan_id":"cebpf4jnsgd1na2vs0mg"},{"bike_id":"6dd17a2f-59bb-4453-859d-2c09ab795824","system_id":"levelo_inurba_marseille","lat":43.33026,"lon":5.39049,"is_reserved":false,"is_disabled":false,"rental_uris":{"android":"levelo://app?vid=6dd17a2f-59bb-4453-859d-2c09ab795824","ios":"levelo://app?vid=6dd17a2f-59bb-4453-859d-2c09ab795824"},"vehicle_type_id":"4","last_reported":1726632736,"current_range_meters":27200,"station_id":"ce4bhr92rcd13ifvqhrg","pricing_plan_id":"cebpf4jnsgd1na2vs0mg"},{"bike_id":"9740b922-5de1-4684-a3be-d5f1fc782fef","system_id":"levelo_inurba_marseille","lat":43.28566,"lon":5.39511,"is_reserved":false,"is_disabled":false,"rental_uris":{"android":"levelo://app?vid=9740b922-5de1-4684-a3be-d5f1fc782fef","ios":"levelo://app?vid=9740b922-5de1-4684-a3be-d5f1fc782fef"},"vehicle_type_id":"4","last_reported":1726632736,"current_range_meters":38000,"station_id":"ce4bh292rcd13ifvqdg0","pricing_plan_id":"cebpf4jnsgd1na2vs0mg"},{"bike_id":"ef774c60-52ab-40fd-aefb-ae7b262727d5","system_id":"levelo_inurba_marseille","lat":43.31277,"lon":5.40168,"is_reserved":false,"is_disabled":false,"rental_uris":{"android":"levelo://app?vid=ef774c60-52ab-40fd-aefb-ae7b262727d5","ios":"levelo://app?vid=ef774c60-52ab-40fd-aefb-ae7b262727d5"},"vehicle_type_id":"4","last_reported":1726632736,"current_range_meters":38000,"station_id":"ce4bh092rcd13ifvqd30","pricing_plan_id":"cebpf4jnsgd1na2vs0mg"},{"bike_id":"a17acf09-f087-4d49-a12d-f0daedd3abe6","system_id":"levelo_inurba_marseille","lat":43.30801,"lon":5.4352,"is_reserved":false,"is_disabled":false,"rental_uris":{"android":"levelo://app?vid=a17acf09-f087-4d49-a12d-f0daedd3abe6","ios":"levelo://app?vid=a17acf09-f087-4d49-a12d-f0daedd3abe6"},"vehicle_type_id":"4","last_reported":1726632736,"current_range_meters":38800,"station_id":"ce4bhph2rcd13ifvqheg","pricing_plan_id":"cebpf4jnsgd1na2vs0mg"},{"bike_id":"7050c3fc-5fdc-468c-8737-4feab9a71872","system_id":"levelo_inurba_marseille","lat":43.27616,"lon":5.36118,"is_reserved":false,"is_disabled":false,"rental_uris":{"android":"levelo://app?vid=7050c3fc-5fdc-468c-8737-4feab9a71872","ios":"levelo://app?vid=7050c3fc-5fdc-468c-8737-4feab9a71872"},"vehicle_type_id":"4","last_reported":1726632736,"current_range_meters":38000,"station_id":"ce4bgj92rcd13ifvqbe0","pricing_plan_id":"cebpf4jnsgd1na2vs0mg"},{"bike_id":"8933d20e-7afd-470d-be8c-0cc87d5060b6","system_id":"levelo_inurba_marseille","lat":43.27978,"lon":5.38753,"is_reserved":false,"is_disabled":false,"rental_uris":{"android":"levelo://app?vid=8933d20e-7afd-470d-be8c-0cc87d5060b6","ios":"levelo://app?vid=8933d20e-7afd-470d-be8c-0cc87d5060b6"},"vehicle_type_id":"4","last_reported":1726632736,"current_range_meters":38000,"station_id":"ce4bhg12rcd13ifvqf80","pricing_plan_id":"cebpf4jnsgd1na2vs0mg"},{"bike_id":"8439a2e5-87ad-4a4a-ba59-bf0b9f4f5f4b","system_id":"levelo_inurba_marseille","lat":43.29717,"lon":5.36615,"is_reserved":false,"is_disabled":false,"rental_uris":{"android":"levelo://app?vid=8439a2e5-87ad-4a4a-ba59-bf0b9f4f5f4b","ios":"levelo://app?vid=8439a2e5-87ad-4a4a-ba59-bf0b9f4f5f4b"},"vehicle_type_id":"4","last_reported":1726632736,"current_range_meters":16000,"station_id":"ce4bgn12rcd13ifvqbt0","pricing_plan_id":"cebpf4jnsgd1na2vs0mg"},{"bike_id":"4b8b78f3-f005-4335-bdfa-f817b956c065","system_id":"levelo_inurba_marseille","lat":43.25582,"lon":5.38231,"is_reserved":false,"is_disabled":false,"rental_uris":{"android":"levelo://app?vid=4b8b78f3-f005-4335-bdfa-f817b956c065","ios":"levelo://app?vid=4b8b78f3-f005-4335-bdfa-f817b956c065"},"vehicle_type_id":"4","last_reported":1726632736,"current_range_meters":38000,"station_id":"ce4bhih2rcd13ifvqfs0","pricing_plan_id":"cebpf4jnsgd1na2vs0mg"},{"bike_id":"41e6c322-5ad0-4aee-87e8-f7c73e21197f","system_id":"levelo_inurba_marseille","lat":43.26781,"lon":5.39416,"is_reserved":false,"is_disabled":false,"rental_uris":{"android":"levelo://app?vid=41e6c322-5ad0-4aee-87e8-f7c73e21197f","ios":"levelo://app?vid=41e6c322-5ad0-4aee-87e8-f7c73e21197f"},"vehicle_type_id":"4","last_reported":1726632736,"current_range_meters":35200,"station_id":"ce4bhh12rcd13ifvqfg0","pricing_plan_id":"cebpf4jnsgd1na2vs0mg"},{"bike_id":"0b417632-b4a4-451a-b48f-4e8cacf6fe0b","system_id":"levelo_inurba_marseille","lat":43.23185,"lon":5.39993,"is_reserved":false,"is_disabled":false,"rental_uris":{"android":"levelo://app?vid=0b417632-b4a4-451a-b48f-4e8cacf6fe0b","ios":"levelo://app?vid=0b417632-b4a4-451a-b48f-4e8cacf6fe0b"},"vehicle_type_id":"4","last_reported":1726632736,"current_range_meters":38800,"station_id":"ce4bhn12rcd13ifvqgqg","pricing_plan_id":"cebpf4jnsgd1na2vs0mg"},{"bike_id":"70fc7e83-326c-4da5-9b44-70451b78b4c2","system_id":"levelo_inurba_marseille","lat":43.3248,"lon":5.36565,"is_reserved":false,"is_disabled":false,"rental_uris":{"android":"levelo://app?vid=70fc7e83-326c-4da5-9b44-70451b78b4c2","ios":"levelo://app?vid=70fc7e83-326c-4da5-9b44-70451b78b4c2"},"vehicle_type_id":"4","last_reported":1726632736,"current_range_meters":11600,"station_id":"ce4bhs12rcd13ifvqhvg","pricing_plan_id":"cebpf4jnsgd1na2vs0mg"},{"bike_id":"6379327e-cad1-4fb5-a088-ef3548dc8e20","system_id":"levelo_inurba_marseille","lat":43.31694,"lon":5.40464,"is_reserved":false,"is_disabled":false,"rental_uris":{"android":"levelo://app?vid=6379327e-cad1-4fb5-a088-ef3548dc8e20","ios":"levelo://app?vid=6379327e-cad1-4fb5-a088-ef3548dc8e20"},"vehicle_type_id":"4","last_reported":1726632736,"current_range_meters":5600,"station_id":"ce4bh012rcd13ifvqd00","pricing_plan_id":"cebpf4jnsgd1na2vs0mg"},{"bike_id":"1522ee2e-2bde-44fb-9e73-60b151d9acc2","system_id":"levelo_inurba_marseille","lat":43.25086,"lon":5.39521,"is_reserved":false,"is_disabled":false,"rental_uris":{"android":"levelo://app?vid=1522ee2e-2bde-44fb-9e73-60b151d9acc2","ios":"levelo://app?vid=1522ee2e-2bde-44fb-9e73-60b151d9acc2"},"vehicle_type_id":"4","last_reported":1726632736,"current_range_meters":8400,"station_id":"ce4bhm12rcd13ifvqgkg","pricing_plan_id":"cebpf4jnsgd1na2vs0mg"},{"bike_id":"6bbde286-5333-403d-b932-6c6db8cf9589","system_id":"levelo_inurba_marseille","lat":43.30596,"lon":5.37241,"is_reserved":false,"is_disabled":false,"rental_uris":{"android":"levelo://app?vid=6bbde286-5333-403d-b932-6c6db8cf9589","ios":"levelo://app?vid=6bbde286-5333-403d-b932-6c6db8cf9589"},"vehicle_type_id":"4","last_reported":1726632736,"current_range_meters":4400,"station_id":"ce4bgqh2rcd13ifvqc4g","pricing_plan_id":"cebpf4jnsgd1na2vs0mg"},{"bike_id":"8ce541f6-ab3e-4095-adec-4a102acf8ab1","system_id":"levelo_inurba_marseille","lat":43.24185,"lon":5.39724,"is_reserved":false,"is_disabled":false,"rental_uris":{"android":"levelo://app?vid=8ce541f6-ab3e-4095-adec-4a102acf8ab1","ios":"levelo://app?vid=8ce541f6-ab3e-4095-adec-4a102acf8ab1"},"vehicle_type_id":"4","last_reported":1726632736,"current_range_meters":38000,"station_id":"ce4bhn12rcd13ifvqgpg","pricing_plan_id":"cebpf4jnsgd1na2vs0mg"},{"bike_id":"8d9f1c04-c36f-42f8-8dd4-e869b55a7d2c","system_id":"levelo_inurba_marseille","lat":43.2418,"lon":5.39718,"is_reserved":false,"is_disabled":false,"rental_uris":{"android":"levelo://app?vid=8d9f1c04-c36f-42f8-8dd4-e869b55a7d2c","ios":"levelo://app?vid=8d9f1c04-c36f-42f8-8dd4-e869b55a7d2c"},"vehicle_type_id":"4","last_reported":1726632736,"current_range_meters":24400,"station_id":"ce4bhn12rcd13ifvqgpg","pricing_plan_id":"cebpf4jnsgd1na2vs0mg"},{"bike_id":"446b2bff-a89e-45e8-a0b9-5ba39ecd2ea0","system_id":"levelo_inurba_marseille","lat":43.27371,"lon":5.3626,"is_reserved":false,"is_disabled":false,"rental_uris":{"android":"levelo://app?vid=446b2bff-a89e-45e8-a0b9-5ba39ecd2ea0","ios":"levelo://app?vid=446b2bff-a89e-45e8-a0b9-5ba39ecd2ea0"},"vehicle_type_id":"4","last_reported":1726632736,"current_range_meters":27200,"station_id":"ce4bhbh2rcd13ifvqeo0","pricing_plan_id":"cebpf4jnsgd1na2vs0mg"},{"bike_id":"79cd4f56-79fe-4ed5-a2f5-de8920f3ecf2","system_id":"levelo_inurba_marseille","lat":43.2979,"lon":5.39351,"is_reserved":false,"is_disabled":false,"rental_uris":{"android":"levelo://app?vid=79cd4f56-79fe-4ed5-a2f5-de8920f3ecf2","ios":"levelo://app?vid=79cd4f56-79fe-4ed5-a2f5-de8920f3ecf2"},"vehicle_type_id":"4","last_reported":1726632736,"current_range_meters":9200,"station_id":"chh1huq6cuj3fo74tm60","pricing_plan_id":"cebpf4jnsgd1na2vs0mg"},{"bike_id":"fe78de42-3113-4d74-9793-bfa3fe7c2bfc","system_id":"levelo_inurba_marseille","lat":43.29251,"lon":5.40911,"is_reserved":false,"is_disabled":false,"rental_uris":{"android":"levelo://app?vid=fe78de42-3113-4d74-9793-bfa3fe7c2bfc","ios":"levelo://app?vid=fe78de42-3113-4d74-9793-bfa3fe7c2bfc"},"vehicle_type_id":"4","last_reported":1726632736,"current_range_meters":38800,"station_id":"ce4bh192rcd13ifvqdc0","pricing_plan_id":"cebpf4jnsgd1na2vs0mg"},{"bike_id":"713077ec-68ca-448c-ac34-6f1500f67919","system_id":"levelo_inurba_marseille","lat":43.29908,"lon":5.38143,"is_reserved":false,"is_disabled":false,"rental_uris":{"android":"levelo://app?vid=713077ec-68ca-448c-ac34-6f1500f67919","ios":"levelo://app?vid=713077ec-68ca-448c-ac34-6f1500f67919"},"vehicle_type_id":"4","last_reported":1726632736,"current_range_meters":38000,"station_id":"ce4bgj12rcd13ifvqbc0","pricing_plan_id":"cebpf4jnsgd1na2vs0mg"},