{"last_updated":1738570374,"ttl":60,"version":"2.2","data":{"bikes":[{"bike_id":"ef1b25f8-6252-4d08-81d1-202f52136b43","system_id":"levelo_inurba_marseille","lat":43.2512,"lon":5.40336,"is_reserved":false,"is_disabled":false,"rental_uris":{"android":"levelo://app?vid=ef1b25f8-6252-4d08-81d1-202f52136b43","ios":"levelo://app?vid=ef1b25f8-6252-4d08-81d1-202f52136b43"},"vehicle_type_id":"4","last_reported":1738570374,"current_range_meters":39200,"station_id":"ce4bhlh2rcd13ifvqgig","pricing_plan_id":"cebpf4jnsgd1na2vs0mg"},{"bike_id":"7ac6de87-4cb5-4d58-adc2-a7c162322d3f","system_id":"levelo_inurba_marseille","lat":43.28476,"lon":5.38422,"is_reserved":false,"is_disabled":false,"rental_uris":{"android":"levelo://app?vid=7ac6de87-4cb5-4d58-adc2-a7c162322d3f","ios":"levelo://app?vid=7ac6de87-4cb5-4d58-adc2-a7c162322d3f"},"vehicle_type_id":"4","last_reported":1738570374,"current_range_meters":15200,"station_id":"ce4bh512rcd13ifvqe3g","pricing_plan_id":"cebpf4jnsgd1na2vs0mg"},{"bike_id":"b7c8316e-9698-4518-8493-24b68f261651","system_id":"levelo_inurba_marseille","lat":43.30878,"lon":5.37199,"is_reserved":false,"is_disabled":false,"rental_uris":{"android":"levelo://app?vid=b7c8316e-9698-4518-8493-24b68f261651","ios":"levelo://app?vid=b7c8316e-9698-4518-8493-24b68f261651"},"vehicle_type_id":"4","last_reported":1738570374,"current_range_meters":17600,"station_id":"ce4bguh2rcd13ifvqckg","pricing_plan_id":"cebpf4jnsgd1na2vs0mg"},{"bike_id":"28f2ee39-c342-4264-9aba-b44edbff64ff","system_id":"levelo_inurba_marseille","lat":43.24078,"lon":5.37745,"is_reserved":false,"is_disabled":false,"rental_uris":{"android":"levelo://app?vid=28f2ee39-c342-4264-9aba-b44edbff64ff","ios":"levelo://app?vid=28f2ee39-c342-4264-9aba-b44edbff64ff"},"vehicle_type_id":"4","last_reported":1738570374,"current_range_meters":39200,"station_id":"ce4bhnp2rcd13ifvqgvg","pricing_plan_id":"cebpf4jnsgd1na2vs0mg"},{"bike_id":"7287fe21-ddad-472b-a0d0-7734ba2d3fc8","system_id":"levelo_inurba_marseille","lat":43.30153,"lon":5.38087,"is_reserved":false,"is_disabled":false,"rental_uris":{"android":"levelo://app?vid=7287fe21-ddad-472b-a0d0-7734ba2d3fc8","ios":"levelo://app?vid=7287fe21-ddad-472b-a0d0-7734ba2d3fc8"},"vehicle_type_id":"4","last_reported":1738570374,"current_range_meters":39200,"station_id":"ce4bgjp2rcd13ifvqbh0","pricing_plan_id":"cebpf4jnsgd1na2vs0mg"},{"bike_id":"21ce7c90-ecf1-4c2b-ae39-e9d88703c00b","system_id":"levelo_inurba_marseille","lat":43.27208,"lon":5.39209,"is_reserved":false,"is_disabled":true,"rental_uris":{"android":"levelo://app?vid=21ce7c90-ecf1-4c2b-ae39-e9d88703c00b","ios":"levelo://app?vid=21ce7c90-ecf1-4c2b-ae39-e9d88703c00b"},"vehicle_type_id":"4","last_reported":1738570374,"current_range_meters":28000,"station_id":"ce4bhhp2rcd13ifvqfm0","pricing_plan_id":"cebpf4jnsgd1na2vs0mg"},{"bike_id":"68ec889f-fbad-4ec7-bbe1-dbda6b88a3f5","system_id":"levelo_inurba_marseille","lat":43.29023,"lon":5.3865,"is_reserved":false,"is_disabled":true,"rental_uris":{"android":"levelo://app?vid=68ec889f-fbad-4ec7-bbe1-dbda6b88a3f5","ios":"levelo://app?vid=68ec889f-fbad-4ec7-bbe1-dbda6b88a3f5"},"vehicle_type_id":"4","last_reported":1738570374,"current_range_meters":19600,"station_id":"ce4bh4p2rcd13ifvqe0g","pricing_plan_id":"cebpf4jnsgd1na2vs0mg"},{"bike_id":"19508e03-fa05-4c91-87a7-0a29ac898a81","system_id":"levelo_inurba_marseille","lat":43.25834,"lon":5.39418,"is_reserved":false,"is_disabled":false,"rental_uris":{"android":"levelo://app?vid=19508e03-fa05-4c91-87a7-0a29ac898a81","ios":"levelo://app?vid=19508e03-fa05-4c91-87a7-0a29ac898a81"},"vehicle_type_id":"4","last_reported":1738570374,"current_range_meters":14800,"station_id":"ce4bhip2rcd13ifvqft0","pricing_plan_id":"cebpf4jnsgd1na2vs0mg"},{"bike_id":"fa29f2b1-99ee-4b45-9802-29f07fcb72e2","system_id":"levelo_inurba_marseille","lat":43.29022,"lon":5.38144,"is_reserved":false,"is_disabled":true,"rental_uris":{"android":"levelo://app?vid=fa29f2b1-99ee-4b45-9802-29f07fcb72e2","ios":"levelo://app?vid=fa29f2b1-99ee-4b45-9802-29f07fcb72e2"},"vehicle_type_id":"4","last_reported":1738570374,"current_range_meters":5600,"station_id":"ce4bh4p2rcd13ifvqe1g","pricing_plan_id":"cebpf4jnsgd1na2vs0mg"},{"bike_id":"aa44d279-90de-4543-a2df-6b4de12b1153","system_id":"levelo_inurba_marseille","lat":43.24079,"lon":5.37752,"is_reserved":false,"is_disabled":false,"rental_uris":{"android":"levelo://app?vid=aa44d279-90de-4543-a2df-6b4de12b1153","ios":"levelo://app?vid=aa44d279-90de-4543-a2df-6b4de12b1153"},"vehicle_type_id":"4","last_reported":1738570374,"current_range_meters":27600,"station_id":"ce4bhnp2rcd13ifvqgvg","pricing_plan_id":"cebpf4jnsgd1na2vs0mg"},{"bike_id":"5c8e1142-44e2-4ecd-967f-a7e50c93ac28","system_id":"levelo_inurba_marseille","lat":43.29792,"lon":5.40417,"is_reserved":false,"is_disabled":true,"rental_uris":{"android":"levelo://app?vid=5c8e1142-44e2-4ecd-967f-a7e50c93ac28","ios":"levelo://app?vid=5c8e1142-44e2-4ecd-967f-a7e50c93ac28"},"vehicle_type_id":"4","last_reported":1738570374,"current_range_meters":24000,"station_id":"ce4bh112rcd13ifvqd90","pricing_plan_id":"cebpf4jnsgd1na2vs0mg"},{"bike_id":"3f2518f6-7f06-48b3-8e9a-acce6ef183bd","system_id":"levelo_inurba_marseille","lat":43.29632,"lon":5.40603,"is_reserved":false,"is_disabled":false,"rental_uris":{"android":"levelo://app?vid=3f2518f6-7f06-48b3-8e9a-acce6ef183bd","ios":"levelo://app?vid=3f2518f6-7f06-48b3-8e9a-acce6ef183bd"},"vehicle_type_id":"4","last_reported":1738570374,"current_range_meters":26000,"station_id":"ce4bh0h2rcd13ifvqd60","pricing_plan_id":"cebpf4jnsgd1na2vs0mg"},{"bike_id":"b4b2cb0c-f15a-4ba0-8f15-75967eeffe59","system_id":"levelo_inurba_marseille","lat":43.31266,"lon":5.36853,"is_reserved":false,"is_disabled":false,"rental_uris":{"android":"levelo://app?vid=b4b2cb0c-f15a-4ba0-8f15-75967eeffe59","ios":"levelo://app?vid=b4b2cb0c-f15a-4ba0-8f15-75967eeffe59"},"vehicle_type_id":"4","last_reported":1738570374,"current_range_meters":36000,"station_id":"ce4bgl92rcd13ifvqbq0","pricing_plan_id":"cebpf4jnsgd1na2vs0mg"},{"bike_id":"40e52a33-2633-41e6-bbe6-52c733b42e44","system_id":"levelo_inurba_marseille","lat":43.289375,"lon":5.39629,"is_reserved":false,"is_disabled":false,"rental_uris":{"android":"levelo://app?vid=40e52a33-2633-41e6-bbe6-52c733b42e44","ios":"levelo://app?vid=40e52a33-2633-41e6-bbe6-52c733b42e44"},"vehicle_type_id":"4","last_reported":1738570374,"current_range_meters":27200,"station_id":"ce4bh3h2rcd13ifvqdn0","pricing_plan_id":"cebpf4jnsgd1na2vs0mg"},{"bike_id":"5d48a61d-cf22-4c98-83c4-85b6c901eb8b","system_id":"levelo_inurba_marseille","lat":43.31777,"lon":5.38989,"is_reserved":false,"is_disabled":false,"rental_uris":{"android":"levelo://app?vid=5d48a61d-cf22-4c98-83c4-85b6c901eb8b","ios":"levelo://app?vid=5d48a61d-cf22-4c98-83c4-85b6c901eb8b"},"vehicle_type_id":"4","last_reported":1738570374,"current_range_meters":36000,"station_id":"ce4bhqp2rcd13ifvqhng","pricing_plan_id":"cebpf4jnsgd1na2vs0mg"},{"bike_id":"b8a944cd-fb6c-4e85-b644-ab77b0b9a304","system_id":"levelo_inurba_marseille","lat":43.27055,"lon":5.40255,"is_reserved":false,"is_disabled":false,"rental_uris":{"android":"levelo://app?vid=b8a944cd-fb6c-4e85-b644-ab77b0b9a304","ios":"levelo://app?vid=b8a944cd-fb6c-4e85-b644-ab77b0b9a304"},"vehicle_type_id":"4","last_reported":1738570374,"current_range_meters":3200,"station_id":"ce4bhk92rcd13ifvqgc0","pricing_plan_id":"cebpf4jnsgd1na2vs0mg"},{"bike_id":"9002a235-e065-42ca-8343-a226ee4a2c13","system_id":"levelo_inurba_marseille","lat":43.25115,"lon":5.40319,"is_reserved":false,"is_disabled":false,"rental_uris":{"android":"levelo://app?vid=9002a235-e065-42ca-8343-a226ee4a2c13","ios":"levelo://app?vid=9002a235-e065-42ca-8343-a226ee4a2c13"},"vehicle_type_id":"4","last_reported":1738570374,"current_range_meters":28400,"station_id":"ce4bhlh2rcd13ifvqgig","pricing_plan_id":"cebpf4jnsgd1na2vs0mg"},{"bike_id":"c26284e6-53ee-4b35-a0cc-ee8d0a2119d1","system_id":"levelo_inurba_marseille","lat":43.28696,"lon":5.37907,"is_reserved":false,"is_disabled":true,"rental_uris":{"android":"levelo://app?vid=c26284e6-53ee-4b35-a0cc-ee8d0a2119d1","ios":"levelo://app?vid=c26284e6-53ee-4b35-a0cc-ee8d0a2119d1"},"vehicle_type_id":"4","last_reported":1738570374,"current_range_meters":8000,"station_id":"ce4bh9p2rcd13ifvqec0","pricing_plan_id":"cebpf4jnsgd1na2vs0mg"},{"bike_id":"2009944f-1265-4b80-8a8a-5dd95be42f6a","system_id":"levelo_inurba_marseille","lat":43.32993,"lon":5.37974,"is_reserved":false,"is_disabled":false,"rental_uris":{"android":"levelo://app?vid=2009944f-1265-4b80-8a8a-5dd95be42f6a","ios":"levelo://app?vid=2009944f-1265-4b80-8a8a-5dd95be42f6a"},"vehicle_type_id":"4","last_reported":1738570374,"current_range_meters":38800,"station_id":"","pricing_plan_id":"cebpf4jnsgd1na2vs0mg"},{"bike_id":"94eb6c4a-c68b-48fa-8efc-5fc413e0a0e3","system_id":"levelo_inurba_marseille","lat":43.3091,"lon":5.36858,"is_reserved":false,"is_disabled":false,"rental_uris":{"android":"levelo://app?vid=94eb6c4a-c68b-48fa-8efc-5fc413e0a0e3","ios":"levelo://app?vid=94eb6c4a-c68b-48fa-8efc-5fc413e0a0e3"},"vehicle_type_id":"4","last_reported":1738570374,"current_range_meters":19600,"station_id":"ce4bgn92rcd13ifvqbvg","pricing_plan_id":"cebpf4jnsgd1na2vs0mg"},{"bike_id":"bc356bba-f179-435b-81e7-d63da8f825d5","system_id":"levelo_inurba_marseille","lat":43.27064,"lon":5.40254,"is_reserved":false,"is_disabled":false,"rental_uris":{"android":"levelo://app?vid=bc356bba-f179-435b-81e7-d63da8f825d5","ios":"levelo://app?vid=bc356bba-f179-435b-81e7-d63da8f825d5"},"vehicle_type_id":"4","last_reported":1738570374,"current_range_meters":36800,"station_id":"ce4bhk92rcd13ifvqgc0","pricing_plan_id":"cebpf4jnsgd1na2vs0mg"},{"bike_id":"683a0bcf-44b9-424f-8502-65cc44dd5d8e","system_id":"levelo_inurba_marseille","lat":43.26968,"lon":5.40252,"is_reserved":false,"is_disabled":false,"rental_uris":{"android":"levelo://app?vid=683a0bcf-44b9-424f-8502-65cc44dd5d8e","ios":"levelo://app?vid=683a0bcf-44b9-424f-8502-65cc44dd5d8e"},"vehicle_type_id":"4","last_reported":1738570374,"current_range_meters":35200,"station_id":"cjm6bp8fraef2m0cb0m0","pricing_plan_id":"cebpf4jnsgd1na2vs0mg"},{"bike_id":"1f80e100-2ba8-45c1-92bf-b9897874087e","system_id":"levelo_inurba_marseille","lat":43.25933,"lon":5.40913,"is_reserved":false,"is_disabled":false,"rental_uris":{"android":"levelo://app?vid=1f80e100-2ba8-45c1-92bf-b9897874087e","ios":"levelo://app?vid=1f80e100-2ba8-45c1-92bf-b9897874087e"},"vehicle_type_id":"4","last_reported":1738570374,"current_range_meters":22800,"station_id":"ce4bhm92rcd13ifvqglg","pricing_plan_id":"cebpf4jnsgd1na2vs0mg"},{"bike_id":"aa9d8a05-d8a5-40a6-8845-9d8a9aa2d9f5","system_id":"levelo_inurba_marseille","lat":43.27914,"lon":5.40997,"is_reserved":false,"is_disabled":false,"rental_uris":{"android":"levelo://app?vid=aa9d8a05-d8a5-40a6-8845-9d8a9aa2d9f5","ios":"levelo://app?vid=aa9d8a05-d8a5-40a6-8845-9d8a9aa2d9f5"},"vehicle_type_id":"4","last_reported":1738570374,"current_range_meters":14400,"station_id":"ce4bhnp2rcd13ifvqh0g","pricing_plan_id":"cebpf4jnsgd1na2vs0mg"},{"bike_id":"00301923-5b9c-48ab-94f1-c3edefd4a796","system_id":"levelo_inurba_marseille","lat":43.26933,"lon":5.40246,"is_reserved":false,"is_disabled":false,"rental_uris":{"android":"levelo://app?vid=00301923-5b9c-48ab-94f1-c3edefd4a796","ios":"levelo://app?vid=00301923-5b9c-48ab-94f1-c3edefd4a796"},"vehicle_type_id":"4","last_reported":1738570374,"current_range_meters":16400,"station_id":"cjm6bp8fraef2m0cb0m0","pricing_plan_id":"cebpf4jnsgd1na2vs0mg"},{"bike_id":"b9fb3d2d-81d5-43a8-89dc-d204f4ce4ab1","system_id":"levelo_inurba_marseille","lat":43.30798,"lon":5.43529,"is_reserved":false,"is_disabled":true,"rental_uris":{"android":"levelo://app?vid=b9fb3d2d-81d5-43a8-89dc-d204f4ce4ab1","ios":"levelo://app?vid=b9fb3d2d-81d5-43a8-89dc-d204f4ce4ab1"},"vehicle_type_id":"4","last_reported":1738570374,"current_range_meters":0,"station_id":"ce4bhph2rcd13ifvqheg","pricing_plan_id":"cebpf4jnsgd1na2vs0mg"},{"bike_id":"ac435b7a-3cbe-439d-966f-9ad227b0ea53","system_id":"levelo_inurba_marseille","lat":43.29219,"lon":5.3606,"is_reserved":false,"is_disabled":true,"rental_uris":{"android":"levelo://app?vid=ac435b7a-3cbe-439d-966f-9ad227b0ea53","ios":"levelo://app?vid=ac435b7a-3cbe-439d-966f-9ad227b0ea53"},"vehicle_type_id":"4","last_reported":1738570374,"current_range_meters":37600,"station_id":"ce4bhbh2rcd13ifvqeqg","pricing_plan_id":"cebpf4jnsgd1na2vs0mg"},{"bike_id":"661b8764-3943-45a8-8b3e-607491282d43","system_id":"levelo_inurba_marseille","lat":43.30273,"lon":5.37705,"is_reserved":false,"is_disabled":false,"rental_uris":{"android":"levelo://app?vid=661b8764-3943-45a8-8b3e-607491282d43","ios":"levelo://app?vid=661b8764-3943-45a8-8b3e-607491282d43"},"vehicle_type_id":"4","last_reported":1738570374,"current_range_meters":39200,"station_id":"ce4bguh2rcd13ifvqcj0","pricing_plan_id":"cebpf4jnsgd1na2vs0mg"},{"bike_id":"05e6967f-52b4-4d89-933e-b74089631b53","system_id":"levelo_inurba_marseille","lat":43.32476,"lon":5.36566,"is_reserved":false,"is_disabled":false,"rental_uris":{"android":"levelo://app?vid=05e6967f-52b4-4d89-933e-b74089631b53","ios":"levelo://app?vid=05e6967f-52b4-4d89-933e-b74089631b53"},"vehicle_type_id":"4","last_reported":1738570374,"current_range_meters":22400,"station_id":"ce4bhs12rcd13ifvqhvg","pricing_plan_id":"cebpf4jnsgd1na2vs0mg"},{"bike_id":"a1361b83-7dfc-447a-91a0-ca180866041b","system_id":"levelo_inurba_marseille","lat":43.32358,"lon":5.36761,"is_reserved":false,"is_disabled":false,"rental_uris":{"android":"levelo://app?vid=a1361b83-7dfc-447a-91a0-ca180866041b","ios":"levelo://app?vid=a1361b83-7dfc-447a-91a0-ca180866041b"},"vehicle_type_id":"4","last_reported":1738570374,"current_range_meters":24000,"station_id":"ce4bhsh2rcd13ifvqi2g","pricing_plan_id":"cebpf4jnsgd1na2vs0mg"},{"bike_id":"ddb9c7e9-65ef-4267-9499-9c9d26630482","system_id":"levelo_inurba_marseille","lat":43.32477,"lon":5.36577,"is_reserved":false,"is_disabled":false,"rental_uris":{"android":"levelo://app?vid=ddb9c7e9-65ef-4267-9499-9c9d26630482","ios":"levelo://app?vid=ddb9c7e9-65ef-4267-9499-9c9d26630482"},"vehicle_type_id":"4","last_reported":1738570374,"current_range_meters":27600,"station_id":"ce4bhs12rcd13ifvqhvg","pricing_plan_id":"cebpf4jnsgd1na2vs0mg"},{"bike_id":"2bd84fa3-17d1-4c60-a194-91eef67aa1a3","system_id":"levelo_inurba_marseille","lat":43.22925,"lon":5.35382,"is_reserved":false,"is_disabled":false,"rental_uris":{"android":"levelo://app?vid=2bd84fa3-17d1-4c60-a194-91eef67aa1a3","ios":"levelo://app?vid=2bd84fa3-17d1-4c60-a194-91eef67aa1a3"},"vehicle_type_id":"4","last_reported":1738570374,"current_range_meters":31200,"station_id":"cpo3532slgdg3j2ikp40","pricing_plan_id":"cebpf4jnsgd1na2vs0mg"},{"bike_id":"0a50d89c-af17-4468-9de3-8f5574cfc288","system_id":"levelo_inurba_marseille","lat":43.27556,"lon":5.38426,"is_reserved":false,"is_disabled":false,"rental_uris":{"android":"levelo://app?vid=0a50d89c-af17-4468-9de3-8f5574cfc288","ios":"levelo://app?vid=0a50d89c-af17-4468-9de3-8f5574cfc288"},"vehicle_type_id":"4","last_reported":1738570374,"current_range_meters":37600,"station_id":"ce4bhh92rcd13ifvqfi0","pricing_plan_id":"cebpf4jnsgd1na2vs0mg"},{"bike_id":"eccf3e1b-479c-430a-81d9-b77c081460ec","system_id":"levelo_inurba_marseille","lat":43.31766,"lon":5.38975,"is_reserved":false,"is_disabled":true,"rental_uris":{"android":"levelo://app?vid=eccf3e1b-479c-430a-81d9-b77c081460ec","ios":"levelo://app?vid=eccf3e1b-479c-430a-81d9-b77c081460ec"},"vehicle_type_id":"4","last_reported":1738570374,"current_range_meters":6400,"station_id":"ce4bhqp2rcd13ifvqhng","pricing_plan_id":"cebpf4jnsgd1na2vs0mg"},{"bike_id":"b9050dbe-2bb7-404f-8a4a-e842fc313480","system_id":"levelo_inurba_marseille","lat":43.30529,"lon":5.3672,"is_reserved":false,"is_disabled":false,"rental_uris":{"android":"levelo://app?vid=b9050dbe-2bb7-404f-8a4a-e842fc313480","ios":"levelo://app?vid=b9050dbe-2bb7-404f-8a4a-e842fc313480"},"vehicle_type_id":"4","last_reported":1738570374,"current_range_meters":16800,"station_id":"ce4bgrp2rcd13ifvqc9g","pricing_plan_id":"cebpf4jnsgd1na2vs0mg"},{"bike_id":"8aaab930-2ff3-45f2-9768-04b9c0033680","system_id":"levelo_inurba_marseille","lat":43.24079,"lon":5.37758,"is_reserved":false,"is_disabled":false,"rental_uris":{"android":"levelo://app?vid=8aaab930-2ff3-45f2-9768-04b9c0033680","ios":"levelo://app?vid=8aaab930-2ff3-45f2-9768-04b9c0033680"},"vehicle_type_id":"4","last_reported":1738570374,"current_range_meters":15200,"station_id":"ce4bhnp2rcd13ifvqgvg","pricing_plan_id":"cebpf4jnsgd1na2vs0mg"},{"bike_id":"0edaa840-e8b0-4f2c-ad98-c123355c590c","system_id":"levelo_inurba_marseille","lat":43.26065,"lon":5.39394,"is_reserved":false,"is_disabled":true,"rental_uris":{"android":"levelo://app?vid=0edaa840-e8b0-4f2c-ad98-c123355c590c","ios":"levelo://app?vid=0edaa840-e8b0-4f2c-ad98-c123355c590c"},"vehicle_type_id":"4","last_reported":1738570374,"current_range_meters":27200,"station_id":"ce4bhh92rcd13ifvqfj0","pricing_plan_id":"cebpf4jnsgd1na2vs0mg"},{"bike_id":"cfdca0b7-f45e-43b4-8eb5-b1766ea80974","system_id":"levelo_inurba_marseille","lat":43.2582,"lon":5.39443,"is_reserved":false,"is_disabled":false,"rental_uris":{"android":"levelo://app?vid=cfdca0b7-f45e-43b4-8eb5-b1766ea80974","ios":"levelo://app?vid=cfdca0b7-f45e-43b4-8eb5-b1766ea80974"},"vehicle_type_id":"4","last_reported":1738570374,"current_range_meters":30400,"station_id":"ce4bhip2rcd13ifvqft0","pricing_plan_id":"cebpf4jnsgd1na2vs0mg"},{"bike_id":"a87c8dd6-4ed1-4fd2-a6d7-2e4139c707ed","system_id":"levelo_inurba_marseille","lat":43.25,"lon":5.38931,"is_reserved":false,"is_disabled":false,"rental_uris":{"android":"levelo://app?vid=a87c8dd6-4ed1-4fd2-a6d7-2e4139c707ed","ios":"levelo://app?vid=a87c8dd6-4ed1-4fd2-a6d7-2e4139c707ed"},"vehicle_type_id":"4","last_reported":1738570374,"current_range_meters":38400,"station_id":"ce4bhgp2rcd13ifvqfd0","pricing_plan_id":"cebpf4jnsgd1na2vs0mg"},{"bike_id":"f2692e96-b820-4df0-a21c-9a256cc742c3","system_id":"levelo_inurba_marseille","lat":43.33779,"lon":5.37442,"is_reserved":false,"is_disabled":false,"rental_uris":{"android":"levelo://app?vid=f2692e96-b820-4df0-a21c-9a256cc742c3","ios":"levelo://app?vid=f2692e96-b820-4df0-a21c-9a256cc742c3"},"vehicle_type_id":"4","last_reported":1738570374,"current_range_meters":8400,"station_id":"","pricing_plan_id":"cebpf4jnsgd1na2vs0mg"},{"bike_id":"8b23552f-b7c0-40c8-9d4f-37ff82774c67","system_id":"levelo_inurba_marseille","lat":43.25579,"lon":5.38236,"is_reserved":false,"is_disabled":false,"rental_uris":{"android":"levelo://app?vid=8b23552f-b7c0-40c8-9d4f-37ff82774c67","ios":"levelo://app?vid=8b23552f-b7c0-40c8-9d4f-37ff82774c67"},"vehicle_type_id":"4","last_reported":1738570374,"current_range_meters":24800,"station_id":"ce4bhih2rcd13ifvqfs0","pricing_plan_id":"cebpf4jnsgd1na2vs0mg"},{"bike_id":"637e7848-7b84-4e1d-9cee-355c6601f7c3","system_id":"levelo_inurba_marseille","lat":43.27832,"lon":5.42082,"is_reserved":false,"is_disabled":true,"rental_uris":{"android":"levelo://app?vid=637e7848-7b84-4e1d-9cee-355c6601f7c3","ios":"levelo://app?vid=637e7848-7b84-4e1d-9cee-355c6601f7c3"},"vehicle_type_id":"4","last_reported":1738570374,"current_range_meters":0,"station_id":"ce4bho12rcd13ifvqh1g","pricing_plan_id":"cebpf4jnsgd1na2vs0mg"},{"bike_id":"2e64bd72-57d8-41c3-86ae-1a04eebc0f14","system_id":"levelo_inurba_marseille","lat":43.30273,"lon":5.37717,"is_reserved":false,"is_disabled":false,"rental_uris":{"android":"levelo://app?vid=2e64bd72-57d8-41c3-86ae-1a04eebc0f14","ios":"levelo://app?vid=2e64bd72-57d8-41c3-86ae-1a04eebc0f14"},"vehicle_type_id":"4","last_reported":1738570374,"current_range_meters":28000,"station_id":"ce4bguh2rcd13ifvqcj0","pricing_plan_id":"cebpf4jnsgd1na2vs0mg"},{"bike_id":"34bc7cf5-9867-4d43-86b1-8bfee813737b","system_id":"levelo_inurba_marseille","lat":43.3063,"lon":5.40077,"is_reserved":false,"is_disabled":false,"rental_uris":{"android":"levelo://app?vid=34bc7cf5-9867-4d43-86b1-8bfee813737b","ios":"levelo://app?vid=34bc7cf5-9867-4d43-86b1-8bfee813737b"},"vehicle_type_id":"4","last_reported":1738570374,"current_range_meters":38800,"station_id":"ce4bh112rcd13ifvqda0","pricing_plan_id":"cebpf4jnsgd1na2vs0mg"},{"bike_id":"93001fbf-b55c-4769-92ab-968d009577fb","system_id":"levelo_inurba_marseille","lat":43.26567,"lon":5.39008,"is_reserved":false,"is_disabled":false,"rental_uris":{"android":"levelo://app?vid=93001fbf-b55c-4769-92ab-968d009577fb","ios":"levelo://app?vid=93001fbf-b55c-4769-92ab-968d009577fb"},"vehicle_type_id":"4","last_reported":1738570374,"current_range_meters":22800,"station_id":"ce4bhe12rcd13ifvqf30","pricing_plan_id":"cebpf4jnsgd1na2vs0mg"},{"bike_id":"76b8c781-3fed-4bb7-8dd6-157a5650cea6","system_id":"levelo_inurba_marseille","lat":43.27436,"lon":5.39411,"is_reserved":false,"is_disabled":false,"rental_uris":{"android":"levelo://app?vid=76b8c781-3fed-4bb7-8dd6-157a5650cea6","ios":"levelo://app?vid=76b8c781-3fed-4bb7-8dd6-157a5650cea6"},"vehicle_type_id":"4","last_reported":1738570374,"current_range_meters":27600,"station_id":"ce4bhdp2rcd13ifvqf20","pricing_plan_id":"cebpf4jnsgd1na2vs0mg"},{"bike_id":"766807e2-5dd5-4f9d-8a99-3eada8bf4811","system_id":"levelo_inurba_marseille","lat":43.34618,"lon":5.38088,"is_reserved":false,"is_disabled":false,"rental_uris":{"android":"levelo://app?vid=766807e2-5dd5-4f9d-8a99-3eada8bf4811","ios":"levelo://app?vid=766807e2-5dd5-4f9d-8a99-3eada8bf4811"},"vehicle_type_id":"4","last_reported":1738570374,"current_range_meters":19200,"station_id":"","pricing_plan_id":"cebpf4jnsgd1na2vs0mg"},{"bike_id":"4164000a-3575-41b2-8242-cb2eaaa11f6b","system_id":"levelo_inurba_marseille","lat":43.2796,"lon":5.38739,"is_reserved":false,"is_disabled":true,"rental_uris":{"android":"levelo://app?vid=4164000a-3575-41b2-8242-cb2eaaa11f6b","ios":"levelo://app?vid=4164000a-3575-41b2-8242-cb2eaaa11f6b"},"vehicle_type_id":"4","last_reported":1738570374,"current_range_meters":33600,"station_id":"ce4bhg12rcd13ifvqf80","pricing_plan_id":"cebpf4jnsgd1na2vs0mg"},{"bike_id":"32e5f4af-c3e2-4e2b-9428-5595e9b70920","system_id":"levelo_inurba_marseille","lat":43.29755,"lon":5.37089,"is_reserved":false,"is_disabled":true,"rental_uris":{"android":"levelo://app?vid=32e5f4af-c3e2-4e2b-9428-5595e9b70920","ios":"levelo://app?vid=32e5f4af-c3e2-4e2b-9428-5595e9b70920"},"vehicle_type_id":"4","last_reported":1738570374,"current_range_meters":34800,"station_id":"ce4bgop2rcd13ifvqc1g","pricing_plan_id":"cebpf4jnsgd1na2vs0mg"},{"bike_id":"86295e8c-9079-4c58-a715-2f07c6cf99cc","system_id":"levelo_inurba_marseille","lat":43.2972,"lon":5.37698,"is_reserved":false,"is_disabled":false,"rental_uris":{"android":"levelo://app?vid=86295e8c-9079-4c58-a715-2f07c6cf99cc","ios":"levelo://app?vid=86295e8c-9079-4c58-a715-2f07c6cf99cc"},"vehicle_type_id":"4","last_reported":1738570374,"current_range_meters":20400,"station_id":"ce4bgkh2rcd13ifvqbl0","pricing_plan_id":"cebpf4jnsgd1na2vs0mg"},{"bike_id":"ba29f421-5097-42ae-9d2c-985809e286ab","system_id":"levelo_inurba_marseille","lat":43.29633,"lon":5.406,"is_reserved":false,"is_disabled":false,"rental_uris":{"android":"levelo://app?vid=ba29f421-5097-42ae-9d2c-985809e286ab","ios":"levelo://app?vid=ba29f421-5097-42ae-9d2c-985809e286ab"},"vehicle_type_id":"4","last_reported":1738570374,"current_range_meters":39200,"station_id":"ce4bh0h2rcd13ifvqd60","pricing_plan_id":"cebpf4jnsgd1na2vs0mg"},{"bike_id":"20a93083-2368-4e1f-9b01-1ce64ea1f2cc","system_id":"levelo_inurba_marseille","lat":43.305361,"lon":5.384214,"is_reserved":false,"is_disabled":false,"rental_uris":{"android":"levelo://app?vid=20a93083-2368-4e1f-9b01-1ce64ea1f2cc","ios":"levelo://app?vid=20a93083-2368-4e1f-9b01-1ce64ea1f2cc"},"vehicle_type_id":"4","last_reported":1738570374,"current_range_meters":25600,"station_id":"ce4bgg92rcd13ifvqb30","pricing_plan_id":"cebpf4jnsgd1na2vs0mg"},{"bike_id":"0c01b531-12d6-42e3-a18d-3cb9c036fdb3","system_id":"levelo_inurba_marseille","lat":43.316891,"lon":5.404762,"is_reserved":false,"is_disabled":false,"rental_uris":{"android":"levelo://app?vid=0c01b531-12d6-42e3-a18d-3cb9c036fdb3","ios":"levelo://app?vid=0c01b531-12d6-42e3-a18d-3cb9c036fdb3"},"vehicle_type_id":"4","last_reported":1738570374,"current_range_meters":18000,"station_id":"ce4bh012rcd13ifvqd00","pricing_plan_id":"cebpf4jnsgd1na2vs0mg"},{"bike_id":"095e5291-f842-4478-bc34-3769cd441c0c","system_id":"levelo_inurba_marseille","lat":43.28152,"lon":5.4264,"is_reserved":false,"is_disabled":false,"rental_uris":{"android":"levelo://app?vid=095e5291-f842-4478-bc34-3769cd441c0c","ios":"levelo://app?vid=095e5291-f842-4478-bc34-3769cd441c0c"},"vehicle_type_id":"4","last_reported":1738570374,"current_range_meters":9200,"station_id":"ce4bhnh2rcd13ifvqgug","pricing_plan_id":"cebpf4jnsgd1na2vs0mg"},{"bike_id":"19ccc093-786b-4a36-b96d-6e1a9fb02f18","system_id":"levelo_inurba_marseille","lat":43.29014,"lon":5.3865,"is_reserved":false,"is_disabled":true,"rental_uris":{"android":"levelo://app?vid=19ccc093-786b-4a36-b96d-6e1a9fb02f18","ios":"levelo://app?vid=19ccc093-786b-4a36-b96d-6e1a9fb02f18"},"vehicle_type_id":"4","last_reported":1738570374,"current_range_meters":17200,"station_id":"ce4bh4p2rcd13ifvqe0g","pricing_plan_id":"cebpf4jnsgd1na2vs0mg"},{"bike_id":"9f7cbc3c-6e0b-4442-8c70-64c0b2a1452e","system_id":"levelo_inurba_marseille","lat":43.230569,"lon":5.354946,"is_reserved":false,"is_disabled":false,"rental_uris":{"android":"levelo://app?vid=9f7cbc3c-6e0b-4442-8c70-64c0b2a1452e","ios":"levelo://app?vid=9f7cbc3c-6e0b-4442-8c70-64c0b2a1452e"},"vehicle_type_id":"4","last_reported":1738570374,"current_range_meters":28400,"station_id":"cpo3342slgdg3j2ifvpg","pricing_plan_id":"cebpf4jnsgd1na2vs0mg"},{"bike_id":"f436119a-9040-4468-83c3-85303f62ba9d","system_id":"levelo_inurba_marseille","lat":43.26956,"lon":5.38645,"is_reserved":false,"is_disabled":false,"rental_uris":{"android":"levelo://app?vid=f436119a-9040-4468-83c3-85303f62ba9d","ios":"levelo://app?vid=f436119a-9040-4468-83c3-85303f62ba9d"},"vehicle_type_id":"4","last_reported":1738570374,"current_range_meters":26800,"station_id":"ce4bhh92rcd13ifvqfh0","pricing_plan_id":"cebpf4jnsgd1na2vs0mg"},{"bike_id":"400f684a-83da-4863-9bb2-89b474f12543","system_id":"levelo_inurba_marseille","lat":43.28352,"lon":5.38094,"is_reserved":false,"is_disabled":false,"rental_uris":{"android":"levelo://app?vid=400f684a-83da-4863-9bb2-89b474f12543","ios":"levelo://app?vid=400f684a-83da-4863-9bb2-89b474f12543"},"vehicle_type_id":"4","last_reported":1738570374,"current_range_meters":29600,"station_id":"ce4bhhh2rcd13ifvqfk0","pricing_plan_id":"cebpf4jnsgd1na2vs0mg"},{"bike_id":"9191983c-f500-4e34-800a-5c4da4f130cb","system_id":"levelo_inurba_marseille","lat":43.27941,"lon":5.41062,"is_reserved":false,"is_disabled":false,"rental_uris":{"android":"levelo://app?vid=9191983c-f500-4e34-800a-5c4da4f130cb","ios":"levelo://app?vid=9191983c-f500-4e34-800a-5c4da4f130cb"},"vehicle_type_id":"4","last_reported":1738570374,"current_range_meters":28800,"station_id":"ce4bhnp2rcd13ifvqh0g","pricing_plan_id":"cebpf4jnsgd1na2vs0mg"},{"bike_id":"fa98d4c7-0cda-4517-9684-58252e1c54a6","system_id":"levelo_inurba_marseille","lat":43.28265,"lon":5.35062,"is_reserved":false,"is_disabled":false,"rental_uris":{"android":"levelo://app?vid=fa98d4c7-0cda-4517-9684-58252e1c54a6","ios":"levelo://app?vid=fa98d4c7-0cda-4517-9684-58252e1c54a6"},"vehicle_type_id":"4","last_reported":1738570374,"current_range_meters":24400,"station_id":"ce4bhbp2rcd13ifvqerg","pricing_plan_id":"cebpf4jnsgd1na2vs0mg"},{"bike_id":"6e092388-acf8-4d2f-9e6c-aa124c262c3e","system_id":"levelo_inurba_marseille","lat":43.30951,"lon":5.3904,"is_reserved":false,"is_disabled":false,"rental_uris":{"android":"levelo://app?vid=6e092388-acf8-4d2f-9e6c-aa124c262c3e","ios":"levelo://app?vid=6e092388-acf8-4d2f-9e6c-aa124c262c3e"},"vehicle_type_id":"4","last_reported":1738570374,"current_range_meters":11200,"station_id":"ce4bgup2rcd13ifvqco0","pricing_plan_id":"cebpf4jnsgd1na2vs0mg"},{"bike_id":"2bfd8b1a-4f54-40ad-b3ca-924fb9c0a3fb","system_id":"levelo_inurba_marseille","lat":43.31759,"lon":5.3902,"is_reserved":false,"is_disabled":false,"rental_uris":{"android":"levelo://app?vid=2bfd8b1a-4f54-40ad-b3ca-924fb9c0a3fb","ios":"levelo://app?vid=2bfd8b1a-4f54-40ad-b3ca-924fb9c0a3fb"},"vehicle_type_id":"4","last_reported":1738570374,"current_range_meters":35600,"station_id":"ce4bhqp2rcd13ifvqhng","pricing_plan_id":"cebpf4jnsgd1na2vs0mg"},{"bike_id":"a4fa6443-8cd2-4c0b-9e2d-c500560fd9d5","system_id":"levelo_inurba_marseille","lat":43.31339,"lon":5.36727,"is_reserved":false,"is_disabled":false,"rental_uris":{"android":"levelo://app?vid=a4fa6443-8cd2-4c0b-9e2d-c500560fd9d5","ios":"levelo://app?vid=a4fa6443-8cd2-4c0b-9e2d-c500560fd9d5"},"vehicle_type_id":"4","last_reported":1738570374,"current_range_meters":12800,"station_id":"ce4bgr92rcd13ifvqc6g","pricing_plan_id":"cebpf4jnsgd1na2vs0mg"},{"bike_id":"5e2ab584-0d1e-4ac2-991a-7e1176198dbf","system_id":"levelo_inurba_marseille","lat":43.2572,"lon":5.411,"is_reserved":false,"is_disabled":false,"rental_uris":{"android":"levelo://app?vid=5e2ab584-0d1e-4ac2-991a-7e1176198dbf","ios":"levelo://app?vid=5e2ab584-0d1e-4ac2-991a-7e1176198dbf"},"vehicle_type_id":"4","last_reported":1738570374,"current_range_meters":16000,"station_id":"ce4bhkp2rcd13ifvqgd0","pricing_plan_id":"cebpf4jnsgd1na2vs0mg"},{"bike_id":"4ce0c14b-de3f-4e94-bda0-a25e3fbe5d01","system_id":"levelo_inurba_marseille","lat":43.24075,"lon":5.37771,"is_reserved":false,"is_disabled":false,"rental_uris":{"android":"levelo://app?vid=4ce0c14b-de3f-4e94-bda0-a25e3fbe5d01","ios":"levelo://app?vid=4ce0c14b-de3f-4e94-bda0-a25e3fbe5d01"},"vehicle_type_id":"4","last_reported":1738570374,"current_range_meters":38400,"station_id":"ce4bhnp2rcd13ifvqgvg","pricing_plan_id":"cebpf4jnsgd1na2vs0mg"},{"bike_id":"7b678d2d-4fb6-490f-be6f-a5ed6f083a34","system_id":"levelo_inurba_marseille","lat":43.27502,"lon":5.42448,"is_reserved":false,"is_disabled":false,"rental_uris":{"android":"levelo://app?vid=7b678d2d-4fb6-490f-be6f-a5ed6f083a34","ios":"levelo://app?vid=7b678d2d-4fb6-490f-be6f-a5ed6f083a34"},"vehicle_type_id":"4","last_reported":1738570374,"current_range_meters":11600,"station_id":"ce4bhn92rcd13ifvqgrg","pricing_plan_id":"cebpf4jnsgd1na2vs0mg"},{"bike_id":"be6fc818-8cb4-4609-8e0e-05113a4a557b","system_id":"levelo_inurba_marseille","lat":43.29933,"lon":5.36548,"is_reserved":false,"is_disabled":false,"rental_uris":{"android":"levelo://app?vid=be6fc818-8cb4-4609-8e0e-05113a4a557b","ios":"levelo://app?vid=be6fc818-8cb4-4609-8e0e-05113a4a557b"},"vehicle_type_id":"4","last_reported":1738570374,"current_range_meters":14800,"station_id":"ce4bgm92rcd13ifvqbr0","pricing_plan_id":"cebpf4jnsgd1na2vs0mg"},{"bike_id":"a0011dd3-8260-4268-a430-760dca747823","system_id":"levelo_inurba_marseille","lat":43.25002,"lon":5.38948,"is_reserved":false,"is_disabled":false,"rental_uris":{"android":"levelo://app?vid=a0011dd3-8260-4268-a430-760dca747823","ios":"levelo://app?vid=a0011dd3-8260-4268-a430-760dca747823"},"vehicle_type_id":"4","last_reported":1738570374,"current_range_meters":8000,"station_id":"ce4bhgp2rcd13ifvqfd0","pricing_plan_id":"cebpf4jnsgd1na2vs0mg"},{"bike_id":"ad82b953-766d-43fe-8267-b56879c820d1","system_id":"levelo_inurba_marseille","lat":43.2454,"lon":5.39533,"is_reserved":false,"is_disabled":false,"rental_uris":{"android":"levelo://app?vid=ad82b953-766d-43fe-8267-b56879c820d1","ios":"levelo://app?vid=ad82b953-766d-43fe-8267-b56879c820d1"},"vehicle_type_id":"4","last_reported":1738570374,"current_range_meters":38800,"station_id":"ce4bhlp2rcd13ifvqgjg","pricing_plan_id":"cebpf4jnsgd1na2vs0mg"},{"bike_id":"c537f746-287c-425a-aaa6-10d8e5019a6d","system_id":"levelo_inurba_marseille","lat":43.34137,"lon":5.40908,"is_reserved":false,"is_disabled":false,"rental_uris":{"android":"levelo://app?vid=c537f746-287c-425a-aaa6-10d8e5019a6d","ios":"levelo://app?vid=c537f746-287c-425a-aaa6-10d8e5019a6d"},"vehicle_type_id":"4","last_reported":1738570374,"current_range_meters":39200,"station_id":"ce4bhqh2rcd13ifvqhlg","pricing_plan_id":"cebpf4jnsgd1na2vs0mg"},{"bike_id":"9fd1d072-3a8b-4482-b70f-62cd25efe66f","system_id":"levelo_inurba_marseille","lat":43.28143,"lon":5.42658,"is_reserved":false,"is_disabled":false,"rental_uris":{"android":"levelo://app?vid=9fd1d072-3a8b-4482-b70f-62cd25efe66f","ios":"levelo://app?vid=9fd1d072-3a8b-4482-b70f-62cd25efe66f"},"vehicle_type_id":"4","last_reported":1738570374,"current_range_meters":30000,"station_id":"ce4bhnh2rcd13ifvqgug","pricing_plan_id":"cebpf4jnsgd1na2vs0mg"},{"bike_id":"ff68ce13-c6b2-4b6d-ba77-d9c16eecacbd","system_id":"levelo_inurba_marseille","lat":43.29529,"lon":5.37508,"is_reserved":false,"is_disabled":false,"rental_uris":{"android":"levelo://app?vid=ff68ce13-c6b2-4b6d-ba77-d9c16eecacbd","ios":"levelo://app?vid=ff68ce13-c6b2-4b6d-ba77-d9c16eecacbd"},"vehicle_type_id":"4","last_reported":1738570374,"current_range_meters":16000,"station_id":"ce4bgkp2rcd13ifvqbmg","pricing_plan_id":"cebpf4jnsgd1na2vs0mg"},{"bike_id":"17296d3c-de23-4082-b7cb-6d15cb3f16ef","system_id":"levelo_inurba_marseille","lat":43.33618,"lon":5.41026,"is_reserved":false,"is_disabled":false,"rental_uris":{"android":"levelo://app?vid=17296d3c-de23-4082-b7cb-6d15cb3f16ef","ios":"levelo://app?vid=17296d3c-de23-4082-b7cb-6d15cb3f16ef"},"vehicle_type_id":"4","last_reported":1738570374,"current_range_meters":18000,"station_id":"ce4bhqh2rcd13ifvqhmg","pricing_plan_id":"cebpf4jnsgd1na2vs0mg"},{"bike_id":"eb7adffc-4f15-4c7c-897d-463c148ed83f","system_id":"levelo_inurba_marseille","lat":43.2407,"lon":5.37769,"is_reserved":false,"is_disabled":false,"rental_uris":{"android":"levelo://app?vid=eb7adffc-4f15-4c7c-897d-463c148ed83f","ios":"levelo://app?vid=eb7adffc-4f15-4c7c-897d-463c148ed83f"},"vehicle_type_id":"4","last_reported":1738570374,"current_range_meters":38400,"station_id":"ce4bhnp2rcd13ifvqgvg","pricing_plan_id":"cebpf4jnsgd1na2vs0mg"},{"bike_id":"8955ace2-1dce-49ba-af9c-2ef2ca56e113","system_id":"levelo_inurba_marseille","lat":43.32531,"lon":5.41441,"is_reserved":false,"is_disabled":false,"rental_uris":{"android":"levelo://app?vid=8955ace2-1dce-49ba-af9c-2ef2ca56e113","ios":"levelo://app?vid=8955ace2-1dce-49ba-af9c-2ef2ca56e113"},"vehicle_type_id":"4","last_reported":1738570374,"current_range_meters":14800,"station_id":"ce4bhq12rcd13ifvqhhg","pricing_plan_id":"cebpf4jnsgd1na2vs0mg"},{"bike_id":"bbe1ef96-5d6c-4bf4-a741-1da5f88ca1fe","system_id":"levelo_inurba_marseille","lat":43.26502,"lon":5.39559,"is_reserved":false,"is_disabled":false,"rental_uris":{"android":"levelo://app?vid=bbe1ef96-5d6c-4bf4-a741-1da5f88ca1fe","ios":"levelo://app?vid=bbe1ef96-5d6c-4bf4-a741-1da5f88ca1fe"},"vehicle_type_id":"4","last_reported":1738570374,"current_range_meters":8000,"station_id":"ce4bhi12rcd13ifvqfq0","pricing_plan_id":"cebpf4jnsgd1na2vs0mg"},{"bike_id":"f1272c76-3fbf-48f4-81f0-4210b2f18111","system_id":"levelo_inurba_marseille","lat":43.28266,"lon":5.35062,"is_reserved":false,"is_disabled":true,"rental_uris":{"android":"levelo://app?vid=f1272c76-3fbf-48f4-81f0-4210b2f18111","ios":"levelo://app?vid=f1272c76-3fbf-48f4-81f0-4210b2f18111"},"vehicle_type_id":"4","last_reported":1738570374,"current_range_meters":0,"station_id":"ce4bhbp2rcd13ifvqerg","pricing_plan_id":"cebpf4jnsgd1na2vs0mg"},{"bike_id":"3e242f84-d04b-4d88-98ae-b0eb705c06e7","system_id":"levelo_inurba_marseille","lat":43.28972,"lon":5.37857,"is_reserved":false,"is_disabled":true,"rental_uris":{"android":"levelo://app?vid=3e242f84-d04b-4d88-98ae-b0eb705c06e7","ios":"levelo://app?vid=3e242f84-d04b-4d88-98ae-b0eb705c06e7"},"vehicle_type_id":"4","last_reported":1738570374,"current_range_meters":38400,"station_id":"ce4bh9p2rcd13ifvqed0","pricing_plan_id":"cebpf4jnsgd1na2vs0mg"},{"bike_id":"340caa53-ddb4-44ba-9416-c500785db3bc","system_id":"levelo_inurba_marseille","lat":43.31074,"lon":5.40114,"is_reserved":false,"is_disabled":false,"rental_uris":{"android":"levelo://app?vid=340caa53-ddb4-44ba-9416-c500785db3bc","ios":"levelo://app?vid=340caa53-ddb4-44ba-9416-c500785db3bc"},"vehicle_type_id":"4","last_reported":1738570374,"current_range_meters":30800,"station_id":"","pricing_plan_id":"cebpf4jnsgd1na2vs0mg"},{"bike_id":"6d49cd8a-56c9-4c04-98c6-07641b05f72c","system_id":"levelo_inurba_marseille","lat":43.3095,"lon":5.39042,"is_reserved":false,"is_disabled":false,"rental_uris":{"android":"levelo://app?vid=6d49cd8a-56c9-4c04-98c6-07641b05f72c","ios":"levelo://app?vid=6d49cd8a-56c9-4c04-98c6-07641b05f72c"},"vehicle_type_id":"4","last_reported":1738570374,"current_range_meters":28000,"station_id":"ce4bgup2rcd13ifvqco0","pricing_plan_id":"cebpf4jnsgd1na2vs0mg"},{"bike_id":"df9032d4-32da-4da5-b63c-c506da07887d","system_id":"levelo_inurba_marseille","lat":43.29169,"lon":5.37158,"is_reserved":false,"is_disabled":false,"rental_uris":{"android":"levelo://app?vid=df9032d4-32da-4da5-b63c-c506da07887d","ios":"levelo://app?vid=df9032d4-32da-4da5-b63c-c506da07887d"},"vehicle_type_id":"4","last_reported":1738570374,"current_range_meters":38400,"station_id":"ce4bha92rcd13ifvqeh0","pricing_plan_id":"cebpf4jnsgd1na2vs0mg"},{"bike_id":"8d124674-c72b-4d74-9979-0def369758a7","system_id":"levelo_inurba_marseille","lat":43.30878,"lon":5.37234,"is_reserved":false,"is_disabled":false,"rental_uris":{"android":"levelo://app?vid=8d124674-c72b-4d74-9979-0def369758a7","ios":"levelo://app?vid=8d124674-c72b-4d74-9979-0def369758a7"},"vehicle_type_id":"4","last_reported":1738570374,"current_range_meters":29600,"station_id":"ce4bguh2rcd13ifvqckg","pricing_plan_id":"cebpf4jnsgd1na2vs0mg"},{"bike_id":"1ec173dc-4e0c-46d3-a1d4-5f5e976c58c6","system_id":"levelo_inurba_marseille","lat":43.32478,"lon":5.36566,"is_reserved":false,"is_disabled":false,"rental_uris":{"android":"levelo://app?vid=1ec173dc-4e0c-46d3-a1d4-5f5e976c58c6","ios":"levelo://app?vid=1ec173dc-4e0c-46d3-a1d4-5f5e976c58c6"},"vehicle_type_id":"4","last_reported":1738570374,"current_range_meters":14400,"station_id":"ce4bhs12rcd13ifvqhvg","pricing_plan_id":"cebpf4jnsgd1na2vs0mg"},{"bike_id":"b9dae9c7-3116-4e7c-86e4-d00fc98c593b","system_id":"levelo_inurba_marseille","lat":43.26682,"lon":5.38271,"is_reserved":false,"is_disabled":false,"rental_uris":{"android":"levelo://app?vid=b9dae9c7-3116-4e7c-86e4-d00fc98c593b","ios":"levelo://app?vid=b9dae9c7-3116-4e7c-86e4-d00fc98c593b"},"vehicle_type_id":"4","last_reported":1738570374,"current_range_meters":10800,"station_id":"ce4bhg92rcd13ifvqf90","pricing_plan_id":"cebpf4jnsgd1na2vs0mg"},{"bike_id":"352ae782-739f-4153-8eba-a8adb1aa97fd","system_id":"levelo_inurba_marseille","lat":43.31213,"lon":5.36806,"is_reserved":false,"is_disabled":false,"rental_uris":{"android":"levelo://app?vid=352ae782-739f-4153-8eba-a8adb1aa97fd","ios":"levelo://app?vid=352ae782-739f-4153-8eba-a8adb1aa97fd"},"vehicle_type_id":"4","last_reported":1738570374,"current_range_meters":19600,"station_id":"ce4bgl92rcd13ifvqbq0","pricing_plan_id":"cebpf4jnsgd1na2vs0mg"},{"bike_id":"84fe84b0-3c78-4909-b6ea-2c4d9b766026","system_id":"levelo_inurba_marseille","lat":43.29541,"lon":5.38578,"is_reserved":false,"is_disabled":true,"rental_uris":{"android":"levelo://app?vid=84fe84b0-3c78-4909-b6ea-2c4d9b766026","ios":"levelo://app?vid=84fe84b0-3c78-4909-b6ea-2c4d9b766026"},"vehicle_type_id":"4","last_reported":1738570374,"current_range_meters":16400,"station_id":"ce4bgih2rcd13ifvqba0","pricing_plan_id":"cebpf4jnsgd1na2vs0mg"},{"bike_id":"a561aae7-6369-4c00-9d68-e8c23562735d","system_id":"levelo_inurba_marseille","lat":43.26556,"lon":5.39012,"is_reserved":false,"is_disabled":true,"rental_uris":{"android":"levelo://app?vid=a561aae7-6369-4c00-9d68-e8c23562735d","ios":"levelo://app?vid=a561aae7-6369-4c00-9d68-e8c23562735d"},"vehicle_type_id":"4","last_reported":1738570374,"current_range_meters":38800,"station_id":"ce4bhe12rcd13ifvqf30","pricing_plan_id":"cebpf4jnsgd1na2vs0mg"},{"bike_id":"7f29e16a-4a3b-47cc-bb7f-3ed5862b3d76","system_id":"levelo_inurba_marseille","lat":43.25932,"lon":5.40915,"is_reserved":false,"is_disabled":false,"rental_uris":{"android":"levelo://app?vid=7f29e16a-4a3b-47cc-bb7f-3ed5862b3d76","ios":"levelo://app?vid=7f29e16a-4a3b-47cc-bb7f-3ed5862b3d76"},"vehicle_type_id":"4","last_reported":1738570374,"current_range_meters":18800,"station_id":"ce4bhm92rcd13ifvqglg","pricing_plan_id":"cebpf4jnsgd1na2vs0mg"},{"bike_id":"40bd2fa0-18e7-4c10-8dfc-775038e6c4b5","system_id":"levelo_inurba_marseille","lat":43.27494,"lon":5.42464,"is_reserved":false,"is_disabled":false,"rental_uris":{"android":"levelo://app?vid=40bd2fa0-18e7-4c10-8dfc-775038e6c4b5","ios":"levelo://app?vid=40bd2fa0-18e7-4c10-8dfc-775038e6c4b5"},"vehicle_type_id":"4","last_reported":1738570374,"current_range_meters":32400,"station_id":"ce4bhn92rcd13ifvqgrg","pricing_plan_id":"cebpf4jnsgd1na2vs0mg"},{"bike_id":"1d3c0a30-0621-46ad-b7c1-d02c6c83e414","system_id":"levelo_inurba_marseille","lat":43.29584,"lon":5.36757,"is_reserved":false,"is_disabled":false,"rental_uris":{"android":"levelo://app?vid=1d3c0a30-0621-46ad-b7c1-d02c6c83e414","ios":"levelo://app?vid=1d3c0a30-0621-46ad-b7c1-d02c6c83e414"},"vehicle_type_id":"4","last_reported":1738570374,"current_range_meters":38800,"station_id":"ce4bgph2rcd13ifvqc2g","pricing_plan_id":"cebpf4jnsgd1na2vs0mg"},{"bike_id":"e4cb5dc9-3cbb-4a89-98bc-e7dcbf41a425","system_id":"levelo_inurba_marseille","lat":43.29472,"lon":5.4381,"is_reserved":false,"is_disabled":false,"rental_uris":{"android":"levelo://app?vid=e4cb5dc9-3cbb-4a89-98bc-e7dcbf41a425","ios":"levelo://app?vid=e4cb5dc9-3cbb-4a89-98bc-e7dcbf41a425"},"vehicle_type_id":"4","last_reported":1738570374,"current_range_meters":17200,"station_id":"","pricing_plan_id":"cebpf4jnsgd1na2vs0mg"},{"bike_id":"82c6eebf-0519-4b18-a727-88dc1d4c976d","system_id":"levelo_inurba_marseille","lat":43.2827,"lon":5.35085,"is_reserved":false,"is_disabled":true,"rental_uris":{"android":"levelo://app?vid=82c6eebf-0519-4b18-a727-88dc1d4c976d","ios":"levelo://app?vid=82c6eebf-0519-4b18-a727-88dc1d4c976d"},"vehicle_type_id":"4","last_reported":1738570374,"current_range_meters":38000,"station_id":"ce4bhbp2rcd13ifvqerg","pricing_plan_id":"cebpf4jnsgd1na2vs0mg"},{"bike_id":"e1172a76-6140-4032-8b35-b9b0415161ca","system_id":"levelo_inurba_marseille","lat":43.297,"lon":5.36612,"is_reserved":false,"is_disabled":false,"rental_uris":{"android":"levelo://app?vid=e1172a76-6140-4032-8b35-b9b0415161ca","ios":"levelo://app?vid=e1172a76-6140-4032-8b35-b9b0415161ca"},"vehicle_type_id":"4","last_reported":1738570374,"current_range_meters":34800,"station_id":"ce4bgn12rcd13ifvqbt0","pricing_plan_id":"cebpf4jnsgd1na2vs0mg"},{"bike_id":"3ccd196e-cddd-41f1-8a25-97e7f22947f7","system_id":"levelo_inurba_marseille","lat":43.251,"lon":5.40322,"is_reserved":false,"is_disabled":false,"rental_uris":{"android":"levelo://app?vid=3ccd196e-cddd-41f1-8a25-97e7f22947f7","ios":"levelo://app?vid=3ccd196e-cddd-41f1-8a25-97e7f22947f7"},"vehicle_type_id":"4","last_reported":1738570374,"current_range_meters":36800,"station_id":"ce4bhlh2rcd13ifvqgig","pricing_plan_id":"cebpf4jnsgd1na2vs0mg"},{"bike_id":"3ebcd610-230f-4d5b-837e-30a830f0f624","system_id":"levelo_inurba_marseille","lat":43.30463,"lon":5.37902,"is_reserved":false,"is_disabled":false,"rental_uris":{"android":"levelo://app?vid=3ebcd610-230f-4d5b-837e-30a830f0f624","ios":"levelo://app?vid=3ebcd610-230f-4d5b-837e-30a830f0f624"},"vehicle_type_id":"4","last_reported":1738570374,"current_range_meters":38800,"station_id":"ce4bgup2rcd13ifvqcn0","pricing_plan_id":"cebpf4jnsgd1na2vs0mg"},{"bike_id":"62eb844b-1825-4143-b0b7-eac2a1c5d6b2","system_id":"levelo_inurba_marseille","lat":43.30467,"lon":5.37896,"is_reserved":false,"is_disabled":false,"rental_uris":{"android":"levelo://app?vid=62eb844b-1825-4143-b0b7-eac2a1c5d6b2","ios":"levelo://app?vid=62eb844b-1825-4143-b0b7-eac2a1c5d6b2"},"vehicle_type_id":"4","last_reported":1738570374,"current_range_meters":20400,"station_id":"ce4bgup2rcd13ifvqcn0","pricing_plan_id":"cebpf4jnsgd1na2vs0mg"},{"bike_id":"14eb7a59-9b20-4e76-b93d-5c9f392068a1","system_id":"levelo_inurba_marseille","lat":43.28147,"lon":5.42645,"is_reserved":false,"is_disabled":false,"rental_uris":{"android":"levelo://app?vid=14eb7a59-9b20-4e76-b93d-5c9f392068a1","ios":"levelo://app?vid=14eb7a59-9b20-4e76-b93d-5c9f392068a1"},"vehicle_type_id":"4","last_reported":1738570374,"current_range_meters":10800,"station_id":"ce4bhnh2rcd13ifvqgug","pricing_plan_id":"cebpf4jnsgd1na2vs0mg"},{"bike_id":"a31722a3-1585-4983-b18a-038176634520","system_id":"levelo_inurba_marseille","lat":43.33608,"lon":5.41034,"is_reserved":false,"is_disabled":false,"rental_uris":{"android":"levelo://app?vid=a31722a3-1585-4983-b18a-038176634520","ios":"levelo://app?vid=a31722a3-1585-4983-b18a-038176634520"},"vehicle_type_id":"4","last_reported":1738570374,"current_range_meters":22800,"station_id":"ce4bhqh2rcd13ifvqhmg","pricing_plan_id":"cebpf4jnsgd1na2vs0mg"},{"bike_id":"5114bc22-73e4-4af5-825e-27b313b720d5","system_id":"levelo_inurba_marseille","lat":43.32482,"lon":5.36573,"is_reserved":false,"is_disabled":false,"rental_uris":{"android":"levelo://app?vid=5114bc22-73e4-4af5-825e-27b313b720d5","ios":"levelo://app?vid=5114bc22-73e4-4af5-825e-27b313b720d5"},"vehicle_type_id":"4","last_reported":1738570374,"current_range_meters":4000,"station_id":"ce4bhs12rcd13ifvqhvg","pricing_plan_id":"cebpf4jnsgd1na2vs0mg"},{"bike_id":"f99e91c4-2330-4795-bfe7-3495ca9ba92c","system_id":"levelo_inurba_marseille","lat":43.28932,"lon":5.36676,"is_reserved":false,"is_disabled":true,"rental_uris":{"android":"levelo://app?vid=f99e91c4-2330-4795-bfe7-3495ca9ba92c","ios":"levelo://app?vid=f99e91c4-2330-4795-bfe7-3495ca9ba92c"},"vehicle_type_id":"4","last_reported":1738570374,"current_range_meters":26000,"station_id":"ce4bhap2rcd13ifvqek0","pricing_plan_id":"cebpf4jnsgd1na2vs0mg"},{"bike_id":"56bc6c17-1314-4222-9a2f-d2b7b3dbc747","system_id":"levelo_inurba_marseille","lat":43.24081,"lon":5.37774,"is_reserved":false,"is_disabled":false,"rental_uris":{"android":"levelo://app?vid=56bc6c17-1314-4222-9a2f-d2b7b3dbc747","ios":"levelo://app?vid=56bc6c17-1314-4222-9a2f-d2b7b3dbc747"},"vehicle_type_id":"4","last_reported":1738570374,"current_range_meters":4800,"station_id":"ce4bhnp2rcd13ifvqgvg","pricing_plan_id":"cebpf4jnsgd1na2vs0mg"},{"bike_id":"861303b7-ad1c-4398-bdeb-473d56999f22","system_id":"levelo_inurba_marseille","lat":43.24648,"lon":5.389014,"is_reserved":false,"is_disabled":false,"rental_uris":{"android":"levelo://app?vid=861303b7-ad1c-4398-bdeb-473d56999f22","ios":"levelo://app?vid=861303b7-ad1c-4398-bdeb-473d56999f22"},"vehicle_type_id":"4","last_reported":1738570374,"current_range_meters":37600,"station_id":"ce4bhg12rcd13ifvqf60","pricing_plan_id":"cebpf4jnsgd1na2vs0mg"},{"bike_id":"17719be7-ef4a-4060-b5a9-e7fbab2a33fc","system_id":"levelo_inurba_marseille","lat":43.30543,"lon":5.36704,"is_reserved":false,"is_disabled":false,"rental_uris":{"android":"levelo://app?vid=17719be7-ef4a-4060-b5a9-e7fbab2a33fc","ios":"levelo://app?vid=17719be7-ef4a-4060-b5a9-e7fbab2a33fc"},"vehicle_type_id":"4","last_reported":1738570374,"current_range_meters":35200,"station_id":"ce4bgrp2rcd13ifvqc9g","pricing_plan_id":"cebpf4jnsgd1na2vs0mg"},{"bike_id":"2017d996-f52c-4584-a168-e8654a14f503","system_id":"levelo_inurba_marseille","lat":43.23959,"lon":5.36628,"is_reserved":false,"is_disabled":true,"rental_uris":{"android":"levelo://app?vid=2017d996-f52c-4584-a168-e8654a14f503","ios":"levelo://app?vid=2017d996-f52c-4584-a168-e8654a14f503"},"vehicle_type_id":"4","last_reported":1738570374,"current_range_meters":32400,"station_id":"ce4bhi12rcd13ifvqfp0","pricing_plan_id":"cebpf4jnsgd1na2vs0mg"},{"bike_id":"61b581a1-18b7-4393-aa83-7ed5f9936c67","system_id":"levelo_inurba_marseille","lat":43.30276,"lon":5.37701,"is_reserved":false,"is_disabled":false,"rental_uris":{"android":"levelo://app?vid=61b581a1-18b7-4393-aa83-7ed5f9936c67","ios":"levelo://app?vid=61b581a1-18b7-4393-aa83-7ed5f9936c67"},"vehicle_type_id":"4","last_reported":1738570374,"current_range_meters":21600,"station_id":"ce4bguh2rcd13ifvqcj0","pricing_plan_id":"cebpf4jnsgd1na2vs0mg"},{"bike_id":"5e186bec-ee7f-4d66-aa6a-ba6acb2c5b96","system_id":"levelo_inurba_marseille","lat":43.26684,"lon":5.38275,"is_reserved":false,"is_disabled":false,"rental_uris":{"android":"levelo://app?vid=5e186bec-ee7f-4d66-aa6a-ba6acb2c5b96","ios":"levelo://app?vid=5e186bec-ee7f-4d66-aa6a-ba6acb2c5b96"},"vehicle_type_id":"4","last_reported":1738570374,"current_range_meters":37600,"station_id":"ce4bhg92rcd13ifvqf90","pricing_plan_id":"cebpf4jnsgd1na2vs0mg"},{"bike_id":"70887bdd-31fc-4b35-84a3-1cac4626832a","system_id":"levelo_inurba_marseille","lat":43.26942,"lon":5.38648,"is_reserved":false,"is_disabled":false,"rental_uris":{"android":"levelo://app?vid=70887bdd-31fc-4b35-84a3-1cac4626832a","ios":"levelo://app?vid=70887bdd-31fc-4b35-84a3-1cac4626832a"},"vehicle_type_id":"4","last_reported":1738570374,"current_range_meters":33200,"station_id":"ce4bhh92rcd13ifvqfh0","pricing_plan_id":"cebpf4jnsgd1na2vs0mg"},{"bike_id":"815aeaac-23bd-4674-86bc-13a6e52be1a2","system_id":"levelo_inurba_marseille","lat":43.24079,"lon":5.37754,"is_reserved":false,"is_disabled":false,"rental_uris":{"android":"levelo://app?vid=815aeaac-23bd-4674-86bc-13a6e52be1a2","ios":"levelo://app?vid=815aeaac-23bd-4674-86bc-13a6e52be1a2"},"vehicle_type_id":"4","last_reported":1738570374,"current_range_meters":20400,"station_id":"ce4bhnp2rcd13ifvqgvg","pricing_plan_id":"cebpf4jnsgd1na2vs0mg"},{"bike_id":"9cc54465-f158-4425-8ef3-fce007d4d6cf","system_id":"levelo_inurba_marseille","lat":43.31175,"lon":5.38728,"is_reserved":false,"is_disabled":false,"rental_uris":{"android":"levelo://app?vid=9cc54465-f158-4425-8ef3-fce007d4d6cf","ios":"levelo://app?vid=9cc54465-f158-4425-8ef3-fce007d4d6cf"},"vehicle_type_id":"4","last_reported":1738570374,"current_range_meters":32400,"station_id":"ce4bgv12rcd13ifvqcp0","pricing_plan_id":"cebpf4jnsgd1na2vs0mg"},{"bike_id":"83b99408-c2bd-48c1-801b-6b7b8cd16e84","system_id":"levelo_inurba_marseille","lat":43.32482,"lon":5.36568,"is_reserved":false,"is_disabled":false,"rental_uris":{"android":"levelo://app?vid=83b99408-c2bd-48c1-801b-6b7b8cd16e84","ios":"levelo://app?vid=83b99408-c2bd-48c1-801b-6b7b8cd16e84"},"vehicle_type_id":"4","last_reported":1738570374,"current_range_meters":33200,"station_id":"ce4bhs12rcd13ifvqhvg","pricing_plan_id":"cebpf4jnsgd1na2vs0mg"},{"bike_id":"8344a4b9-fe19-4ccf-9e1e-c66810831c8c","system_id":"levelo_inurba_marseille","lat":43.24386,"lon":5.37057,"is_reserved":false,"is_disabled":false,"rental_uris":{"android":"levelo://app?vid=8344a4b9-fe19-4ccf-9e1e-c66810831c8c","ios":"levelo://app?vid=8344a4b9-fe19-4ccf-9e1e-c66810831c8c"},"vehicle_type_id":"4","last_reported":1738570374,"current_range_meters":8400,"station_id":"ce4bhhh2rcd13ifvqfk0","pricing_plan_id":"cebpf4jnsgd1na2vs0mg"},{"bike_id":"8bcbf58d-06bf-4dbd-b27e-51c5a19c9de8","system_id":"levelo_inurba_marseille","lat":43.29262,"lon":5.36852,"is_reserved":false,"is_disabled":true,"rental_uris":{"android":"levelo://app?vid=8bcbf58d-06bf-4dbd-b27e-51c5a19c9de8","ios":"levelo://app?vid=8bcbf58d-06bf-4dbd-b27e-51c5a19c9de8"},"vehicle_type_id":"4","last_reported":1738570374,"current_range_meters":36800,"station_id":"ce4bhbp2rcd13ifvqesg","pricing_plan_id":"cebpf4jnsgd1na2vs0mg"},{"bike_id":"b9c9228a-1d62-494b-80a7-dbffbb3390f6","system_id":"levelo_inurba_marseille","lat":43.33727,"lon":5.39184,"is_reserved":false,"is_disabled":false,"rental_uris":{"android":"levelo://app?vid=b9c9228a-1d62-494b-80a7-dbffbb3390f6","ios":"levelo://app?vid=b9c9228a-1d62-494b-80a7-dbffbb3390f6"},"vehicle_type_id":"4","last_reported":1738570374,"current_range_meters":36800,"station_id":"ce4bhr92rcd13ifvqhsg","pricing_plan_id":"cebpf4jnsgd1na2vs0mg"},{"bike_id":"2047e938-57e3-4375-958a-69a4e97a2c7d","system_id":"levelo_inurba_marseille","lat":43.23187,"lon":5.39995,"is_reserved":false,"is_disabled":true,"rental_uris":{"android":"levelo://app?vid=2047e938-57e3-4375-958a-69a4e97a2c7d","ios":"levelo://app?vid=2047e938-57e3-4375-958a-69a4e97a2c7d"},"vehicle_type_id":"4","last_reported":1738570374,"current_range_meters":2800,"station_id":"ce4bhn12rcd13ifvqgqg","pricing_plan_id":"cebpf4jnsgd1na2vs0mg"},{"bike_id":"7d6119eb-3e8d-45e9-95fe-8b80554cad5c","system_id":"levelo_inurba_marseille","lat":43.24073,"lon":5.37761,"is_reserved":false,"is_disabled":false,"rental_uris":{"android":"levelo://app?vid=7d6119eb-3e8d-45e9-95fe-8b80554cad5c","ios":"levelo://app?vid=7d6119eb-3e8d-45e9-95fe-8b80554cad5c"},"vehicle_type_id":"4","last_reported":1738570374,"current_range_meters":20000,"station_id":"ce4bhnp2rcd13ifvqgvg","pricing_plan_id":"cebpf4jnsgd1na2vs0mg"},{"bike_id":"9e08ca9f-8bd0-444c-b69a-cb263cfb88be","system_id":"levelo_inurba_marseille","lat":43.26573,"lon":5.39048,"is_reserved":false,"is_disabled":true,"rental_uris":{"android":"levelo://app?vid=9e08ca9f-8bd0-444c-b69a-cb263cfb88be","ios":"levelo://app?vid=9e08ca9f-8bd0-444c-b69a-cb263cfb88be"},"vehicle_type_id":"4","last_reported":1738570374,"current_range_meters":30400,"station_id":"ce4bhe12rcd13ifvqf30","pricing_plan_id":"cebpf4jnsgd1na2vs0mg"},{"bike_id":"51066c61-f28c-45f5-927a-c632495855f1","system_id":"levelo_inurba_marseille","lat":43.28156,"lon":5.42637,"is_reserved":false,"is_disabled":false,"rental_uris":{"android":"levelo://app?vid=51066c61-f28c-45f5-927a-c632495855f1","ios":"levelo://app?vid=51066c61-f28c-45f5-927a-c632495855f1"},"vehicle_type_id":"4","last_reported":1738570374,"current_range_meters":27600,"station_id":"ce4bhnh2rcd13ifvqgug","pricing_plan_id":"cebpf4jnsgd1na2vs0mg"},{"bike_id":"699e227b-6052-4615-b2f6-e1c3f437272f","system_id":"levelo_inurba_marseille","lat":43.32474,"lon":5.36563,"is_reserved":false,"is_disabled":false,"rental_uris":{"android":"levelo://app?vid=699e227b-6052-4615-b2f6-e1c3f437272f","ios":"levelo://app?vid=699e227b-6052-4615-b2f6-e1c3f437272f"},"vehicle_type_id":"4","last_reported":1738570374,"current_range_meters":32400,"station_id":"ce4bhs12rcd13ifvqhvg","pricing_plan_id":"cebpf4jnsgd1na2vs0mg"},{"bike_id":"a30b2dd5-9f13-463f-a889-dc3da407e7d6","system_id":"levelo_inurba_marseille","lat":43.27309,"lon":5.39077,"is_reserved":false,"is_disabled":false,"rental_uris":{"android":"levelo://app?vid=a30b2dd5-9f13-463f-a889-dc3da407e7d6","ios":"levelo://app?vid=a30b2dd5-9f13-463f-a889-dc3da407e7d6"},"vehicle_type_id":"4","last_reported":1738570374,"current_range_meters":20000,"station_id":"ce4bhgp2rcd13ifvqfe0","pricing_plan_id":"cebpf4jnsgd1na2vs0mg"},{"bike_id":"5188e893-299b-4e06-8b8e-5b1d49d73c6c","system_id":"levelo_inurba_marseille","lat":43.25939,"lon":5.40901,"is_reserved":false,"is_disabled":false,"rental_uris":{"android":"levelo://app?vid=5188e893-299b-4e06-8b8e-5b1d49d73c6c","ios":"levelo://app?vid=5188e893-299b-4e06-8b8e-5b1d49d73c6c"},"vehicle_type_id":"4","last_reported":1738570374,"current_range_meters":14400,"station_id":"ce4bhm92rcd13ifvqglg","pricing_plan_id":"cebpf4jnsgd1na2vs0mg"},{"bike_id":"2438c236-dcbe-4ed1-83ca-cdeac945207c","system_id":"levelo_inurba_marseille","lat":43.24993,"lon":5.38935,"is_reserved":false,"is_disabled":false,"rental_uris":{"android":"levelo://app?vid=2438c236-dcbe-4ed1-83ca-cdeac945207c","ios":"levelo://app?vid=2438c236-dcbe-4ed1-83ca-cdeac945207c"},"vehicle_type_id":"4","last_reported":1738570374,"current_range_meters":28800,"station_id":"ce4bhgp2rcd13ifvqfd0","pricing_plan_id":"cebpf4jnsgd1na2vs0mg"},{"bike_id":"3a60ebc0-dac7-4b3e-a8c5-4699cca32d17","system_id":"levelo_inurba_marseille","lat":43.30781,"lon":5.43514,"is_reserved":false,"is_disabled":false,"rental_uris":{"android":"levelo://app?vid=3a60ebc0-dac7-4b3e-a8c5-4699cca32d17","ios":"levelo://app?vid=3a60ebc0-dac7-4b3e-a8c5-4699cca32d17"},"vehicle_type_id":"4","last_reported":1738570374,"current_range_meters":25600,"station_id":"ce4bhph2rcd13ifvqheg","pricing_plan_id":"cebpf4jnsgd1na2vs0mg"},{"bike_id":"4e101644-eabe-462a-8b86-8cab9161cada","system_id":"levelo_inurba_marseille","lat":43.30889,"lon":5.36856,"is_reserved":false,"is_disabled":true,"rental_uris":{"android":"levelo://app?vid=4e101644-eabe-462a-8b86-8cab9161cada","ios":"levelo://app?vid=4e101644-eabe-462a-8b86-8cab9161cada"},"vehicle_type_id":"4","last_reported":1738570374,"current_range_meters":1600,"station_id":"ce4bgn92rcd13ifvqbvg","pricing_plan_id":"cebpf4jnsgd1na2vs0mg"},{"bike_id":"5c33e9ec-ac2d-41a1-800b-dddc0d3862e2","system_id":"levelo_inurba_marseille","lat":43.30131,"lon":5.38783,"is_reserved":false,"is_disabled":true,"rental_uris":{"android":"levelo://app?vid=5c33e9ec-ac2d-41a1-800b-dddc0d3862e2","ios":"levelo://app?vid=5c33e9ec-ac2d-41a1-800b-dddc0d3862e2"},"vehicle_type_id":"4","last_reported":1738570374,"current_range_meters":28800,"station_id":"ce4bghh2rcd13ifvqb60","pricing_plan_id":"cebpf4jnsgd1na2vs0mg"},{"bike_id":"3e36ac69-430f-415c-ac0a-246b83170535","system_id":"levelo_inurba_marseille","lat":43.32102,"lon":5.36796,"is_reserved":false,"is_disabled":false,"rental_uris":{"android":"levelo://app?vid=3e36ac69-430f-415c-ac0a-246b83170535","ios":"levelo://app?vid=3e36ac69-430f-415c-ac0a-246b83170535"},"vehicle_type_id":"4","last_reported":1738570374,"current_range_meters":38800,"station_id":"ce4bhrh2rcd13ifvqhug","pricing_plan_id":"cebpf4jnsgd1na2vs0mg"},{"bike_id":"0d59dc53-4ced-4ea7-8bff-dfdd0ac17b82","system_id":"levelo_inurba_marseille","lat":43.30903,"lon":5.36851,"is_reserved":false,"is_disabled":false,"rental_uris":{"android":"levelo://app?vid=0d59dc53-4ced-4ea7-8bff-dfdd0ac17b82","ios":"levelo://app?vid=0d59dc53-4ced-4ea7-8bff-dfdd0ac17b82"},"vehicle_type_id":"4","last_reported":1738570374,"current_range_meters":3600,"station_id":"ce4bgn92rcd13ifvqbvg","pricing_plan_id":"cebpf4jnsgd1na2vs0mg"},{"bike_id":"00f2f312-84f7-4297-a90d-7beda41dd9ad","system_id":"levelo_inurba_marseille","lat":43.29893,"lon":5.43667,"is_reserved":false,"is_disabled":false,"rental_uris":{"android":"levelo://app?vid=00f2f312-84f7-4297-a90d-7beda41dd9ad","ios":"levelo://app?vid=00f2f312-84f7-4297-a90d-7beda41dd9ad"},"vehicle_type_id":"4","last_reported":1738570374,"current_range_meters":38000,"station_id":"ce4bhpp2rcd13ifvqhfg","pricing_plan_id":"cebpf4jnsgd1na2vs0mg"},{"bike_id":"982c79cf-ab8d-4298-a736-22fbbe000931","system_id":"levelo_inurba_marseille","lat":43.30278,"lon":5.37706,"is_reserved":false,"is_disabled":false,"rental_uris":{"android":"levelo://app?vid=982c79cf-ab8d-4298-a736-22fbbe000931","ios":"levelo://app?vid=982c79cf-ab8d-4298-a736-22fbbe000931"},"vehicle_type_id":"4","last_reported":1738570374,"current_range_meters":30800,"station_id":"ce4bguh2rcd13ifvqcj0","pricing_plan_id":"cebpf4jnsgd1na2vs0mg"},{"bike_id":"f9a8bd69-665c-48a7-ad3c-2e9818255e07","system_id":"levelo_inurba_marseille","lat":43.324751,"lon":5.365705,"is_reserved":false,"is_disabled":false,"rental_uris":{"android":"levelo://app?vid=f9a8bd69-665c-48a7-ad3c-2e9818255e07","ios":"levelo://app?vid=f9a8bd69-665c-48a7-ad3c-2e9818255e07"},"vehicle_type_id":"4","last_reported":1738570374,"current_range_meters":37600,"station_id":"ce4bhs12rcd13ifvqhvg","pricing_plan_id":"cebpf4jnsgd1na2vs0mg"},{"bike_id":"21693d18-a3ae-4e67-92b8-90086e55ef23","system_id":"levelo_inurba_marseille","lat":43.29018,"lon":5.38124,"is_reserved":false,"is_disabled":false,"rental_uris":{"android":"levelo://app?vid=21693d18-a3ae-4e67-92b8-90086e55ef23","ios":"levelo://app?vid=21693d18-a3ae-4e67-92b8-90086e55ef23"},"vehicle_type_id":"4","last_reported":1738570374,"current_range_meters":38800,"station_id":"ce4bh4p2rcd13ifvqe1g","pricing_plan_id":"cebpf4jnsgd1na2vs0mg"},{"bike_id":"ea33f589-14e8-4e7a-9662-83cdb69fada8","system_id":"levelo_inurba_marseille","lat":43.24998,"lon":5.38938,"is_reserved":false,"is_disabled":false,"rental_uris":{"android":"levelo://app?vid=ea33f589-14e8-4e7a-9662-83cdb69fada8","ios":"levelo://app?vid=ea33f589-14e8-4e7a-9662-83cdb69fada8"},"vehicle_type_id":"4","last_reported":1738570374,"current_range_meters":24000,"station_id":"ce4bhgp2rcd13ifvqfd0","pricing_plan_id":"cebpf4jnsgd1na2vs0mg"},{"bike_id":"ab2c796a-c23b-4a3a-9534-777b873d6a05","system_id":"levelo_inurba_marseille","lat":43.24177,"lon":5.36397,"is_reserved":false,"is_disabled":false,"rental_uris":{"android":"levelo://app?vid=ab2c796a-c23b-4a3a-9534-777b873d6a05","ios":"levelo://app?vid=ab2c796a-c23b-4a3a-9534-777b873d6a05"},"vehicle_type_id":"4","last_reported":1738570374,"current_range_meters":26000,"station_id":"cpo36qri1sfpv3e86is0","pricing_plan_id":"cebpf4jnsgd1na2vs0mg"},{"bike_id":"7425f960-9d6f-463d-9f22-8efe90f42224","system_id":"levelo_inurba_marseille","lat":43.28462,"lon":5.38486,"is_reserved":false,"is_disabled":true,"rental_uris":{"android":"levelo://app?vid=7425f960-9d6f-463d-9f22-8efe90f42224","ios":"levelo://app?vid=7425f960-9d6f-463d-9f22-8efe90f42224"},"vehicle_type_id":"4","last_reported":1738570374,"current_range_meters":0,"station_id":"","pricing_plan_id":"cebpf4jnsgd1na2vs0mg"},{"bike_id":"00f658b8-d83e-4060-a5c9-dc5560d25140","system_id":"levelo_inurba_marseille","lat":43.31855,"lon":5.37397,"is_reserved":false,"is_disabled":false,"rental_uris":{"android":"levelo://app?vid=00f658b8-d83e-4060-a5c9-dc5560d25140","ios":"levelo://app?vid=00f658b8-d83e-4060-a5c9-dc5560d25140"},"vehicle_type_id":"4","last_reported":1738570374,"current_range_meters":20800,"station_id":"","pricing_plan_id":"cebpf4jnsgd1na2vs0mg"},{"bike_id":"dfb7afe5-176a-42fd-95e6-83c418c9fd81","system_id":"levelo_inurba_marseille","lat":43.27201,"lon":5.39194,"is_reserved":false,"is_disabled":false,"rental_uris":{"android":"levelo://app?vid=dfb7afe5-176a-42fd-95e6-83c418c9fd81","ios":"levelo://app?vid=dfb7afe5-176a-42fd-95e6-83c418c9fd81"},"vehicle_type_id":"4","last_reported":1738570374,"current_range_meters":32400,"station_id":"ce4bhhp2rcd13ifvqfm0","pricing_plan_id":"cebpf4jnsgd1na2vs0mg"},{"bike_id":"58feef8f-17b5-470d-8151-c7a13f0dbe24","system_id":"levelo_inurba_marseille","lat":43.28419,"lon":5.37499,"is_reserved":false,"is_disabled":true,"rental_uris":{"android":"levelo://app?vid=58feef8f-17b5-470d-8151-c7a13f0dbe24","ios":"levelo://app?vid=58feef8f-17b5-470d-8151-c7a13f0dbe24"},"vehicle_type_id":"4","last_reported":1738570374,"current_range_meters":0,"station_id":"ce4bh412rcd13ifvqds0","pricing_plan_id":"cebpf4jnsgd1na2vs0mg"},{"bike_id":"e6e082fa-fdb2-448a-b26a-b32745ad3bf3","system_id":"levelo_inurba_marseille","lat":43.27499,"lon":5.42452,"is_reserved":false,"is_disabled":false,"rental_uris":{"android":"levelo://app?vid=e6e082fa-fdb2-448a-b26a-b32745ad3bf3","ios":"levelo://app?vid=e6e082fa-fdb2-448a-b26a-b32745ad3bf3"},"vehicle_type_id":"4","last_reported":1738570374,"current_range_meters":38800,"station_id":"ce4bhn92rcd13ifvqgrg","pricing_plan_id":"cebpf4jnsgd1na2vs0mg"},{"bike_id":"8b82368c-4144-4795-9d4c-9081f4d7b210","system_id":"levelo_inurba_marseille","lat":43.28938,"lon":5.39628,"is_reserved":false,"is_disabled":false,"rental_uris":{"android":"levelo://app?vid=8b82368c-4144-4795-9d4c-9081f4d7b210","ios":"levelo://app?vid=8b82368c-4144-4795-9d4c-9081f4d7b210"},"vehicle_type_id":"4","last_reported":1738570374,"current_range_meters":34000,"station_id":"ce4bh3h2rcd13ifvqdn0","pricing_plan_id":"cebpf4jnsgd1na2vs0mg"},{"bike_id":"f5ccd368-925f-407a-a56e-8cc47bfdb3e3","system_id":"levelo_inurba_marseille","lat":43.28033,"lon":5.36945,"is_reserved":false,"is_disabled":false,"rental_uris":{"android":"levelo://app?vid=f5ccd368-925f-407a-a56e-8cc47bfdb3e3","ios":"levelo://app?vid=f5ccd368-925f-407a-a56e-8cc47bfdb3e3"},"vehicle_type_id":"4","last_reported":1738570374,"current_range_meters":24400,"station_id":"ce4bha12rcd13ifvqef0","pricing_plan_id":"cebpf4jnsgd1na2vs0mg"},{"bike_id":"924c5ffd-e7eb-40f4-98e7-138891fab8e6","system_id":"levelo_inurba_marseille","lat":43.24646,"lon":5.38894,"is_reserved":false,"is_disabled":false,"rental_uris":{"android":"levelo://app?vid=924c5ffd-e7eb-40f4-98e7-138891fab8e6","ios":"levelo://app?vid=924c5ffd-e7eb-40f4-98e7-138891fab8e6"},"vehicle_type_id":"4","last_reported":1738570374,"current_range_meters":9200,"station_id":"ce4bhg12rcd13ifvqf60","pricing_plan_id":"cebpf4jnsgd1na2vs0mg"},{"bike_id":"b69743c2-b22e-4135-9a55-ab7140ba08d5","system_id":"levelo_inurba_marseille","lat":43.28608,"lon":5.35089,"is_reserved":false,"is_disabled":true,"rental_uris":{"android":"levelo://app?vid=b69743c2-b22e-4135-9a55-ab7140ba08d5","ios":"levelo://app?vid=b69743c2-b22e-4135-9a55-ab7140ba08d5"},"vehicle_type_id":"4","last_reported":1738570374,"current_range_meters":30400,"station_id":"ce4bhch2rcd13ifvqeug","pricing_plan_id":"cebpf4jnsgd1na2vs0mg"},{"bike_id":"5984b263-ca23-4f56-add1-6bc799e10547","system_id":"levelo_inurba_marseille","lat":43.23056,"lon":5.35493,"is_reserved":false,"is_disabled":false,"rental_uris":{"android":"levelo://app?vid=5984b263-ca23-4f56-add1-6bc799e10547","ios":"levelo://app?vid=5984b263-ca23-4f56-add1-6bc799e10547"},"vehicle_type_id":"4","last_reported":1738570374,"current_range_meters":4800,"station_id":"cpo3342slgdg3j2ifvpg","pricing_plan_id":"cebpf4jnsgd1na2vs0mg"},{"bike_id":"e0222349-e29b-4170-8f09-6710b9f6b54e","system_id":"levelo_inurba_marseille","lat":43.29027,"lon":5.38655,"is_reserved":false,"is_disabled":true,"rental_uris":{"android":"levelo://app?vid=e0222349-e29b-4170-8f09-6710b9f6b54e","ios":"levelo://app?vid=e0222349-e29b-4170-8f09-6710b9f6b54e"},"vehicle_type_id":"4","last_reported":1738570374,"current_range_meters":38800,"station_id":"ce4bh4p2rcd13ifvqe0g","pricing_plan_id":"cebpf4jnsgd1na2vs0mg"},{"bike_id":"10e01d0a-632b-4d62-8534-f552a3667c64","system_id":"levelo_inurba_marseille","lat":43.31105,"lon":5.38015,"is_reserved":false,"is_disabled":false,"rental_uris":{"android":"levelo://app?vid=10e01d0a-632b-4d62-8534-f552a3667c64","ios":"levelo://app?vid=10e01d0a-632b-4d62-8534-f552a3667c64"},"vehicle_type_id":"4","last_reported":1738570374,"current_range_meters":30800,"station_id":"","pricing_plan_id":"cebpf4jnsgd1na2vs0mg"},{"bike_id":"9ff1a410-5af0-4245-a9aa-a52ea3a6a449","system_id":"levelo_inurba_marseille","lat":43.29958,"lon":5.37165,"is_reserved":false,"is_disabled":false,"rental_uris":{"android":"levelo://app?vid=9ff1a410-5af0-4245-a9aa-a52ea3a6a449","ios":"levelo://app?vid=9ff1a410-5af0-4245-a9aa-a52ea3a6a449"},"vehicle_type_id":"4","last_reported":1738570374,"current_range_meters":36000,"station_id":"ce4bgr92rcd13ifvqc7g","pricing_plan_id":"cebpf4jnsgd1na2vs0mg"},{"bike_id":"590081a6-a0a8-4d2d-a3cf-e4919678d5f2","system_id":"levelo_inurba_marseille","lat":43.2781,"lon":5.4071,"is_reserved":false,"is_disabled":false,"rental_uris":{"android":"levelo://app?vid=590081a6-a0a8-4d2d-a3cf-e4919678d5f2","ios":"levelo://app?vid=590081a6-a0a8-4d2d-a3cf-e4919678d5f2"},"vehicle_type_id":"4","last_reported":1738570374,"current_range_meters":28400,"station_id":"ce4bhnh2rcd13ifvqgtg","pricing_plan_id":"cebpf4jnsgd1na2vs0mg"},{"bike_id":"f228e78e-e79d-4faf-b4e9-a37f0ad98b21","system_id":"levelo_inurba_marseille","lat":43.30161,"lon":5.3808,"is_reserved":false,"is_disabled":false,"rental_uris":{"android":"levelo://app?vid=f228e78e-e79d-4faf-b4e9-a37f0ad98b21","ios":"levelo://app?vid=f228e78e-e79d-4faf-b4e9-a37f0ad98b21"},"vehicle_type_id":"4","last_reported":1738570374,"current_range_meters":39200,"station_id":"ce4bgjp2rcd13ifvqbh0","pricing_plan_id":"cebpf4jnsgd1na2vs0mg"},{"bike_id":"f3c2e9a5-bd1f-4067-8489-4ec5b32d9880","system_id":"levelo_inurba_marseille","lat":43.24074,"lon":5.37758,"is_reserved":false,"is_disabled":false,"rental_uris":{"android":"levelo://app?vid=f3c2e9a5-bd1f-4067-8489-4ec5b32d9880","ios":"levelo://app?vid=f3c2e9a5-bd1f-4067-8489-4ec5b32d9880"},"vehicle_type_id":"4","last_reported":1738570374,"current_range_meters":22400,"station_id":"ce4bhnp2rcd13ifvqgvg","pricing_plan_id":"cebpf4jnsgd1na2vs0mg"},{"bike_id":"49493f9a-b3ec-438f-b118-26f57adfd626","system_id":"levelo_inurba_marseille","lat":43.28421,"lon":5.34982,"is_reserved":false,"is_disabled":false,"rental_uris":{"android":"levelo://app?vid=49493f9a-b3ec-438f-b118-26f57adfd626","ios":"levelo://app?vid=49493f9a-b3ec-438f-b118-26f57adfd626"},"vehicle_type_id":"4","last_reported":1738570374,"current_range_meters":9600,"station_id":"ce4bhbh2rcd13ifvqepg","pricing_plan_id":"cebpf4jnsgd1na2vs0mg"},{"bike_id":"b321ff38-be2e-4454-a2e0-371e8882e8f4","system_id":"levelo_inurba_marseille","lat":43.29724,"lon":5.37694,"is_reserved":false,"is_disabled":true,"rental_uris":{"android":"levelo://app?vid=b321ff38-be2e-4454-a2e0-371e8882e8f4","ios":"levelo://app?vid=b321ff38-be2e-4454-a2e0-371e8882e8f4"},"vehicle_type_id":"4","last_reported":1738570374,"current_range_meters":0,"station_id":"ce4bgkh2rcd13ifvqbl0","pricing_plan_id":"cebpf4jnsgd1na2vs0mg"},{"bike_id":"c016e547-921d-4cf4-b408-a78a1dead93a","system_id":"levelo_inurba_marseille","lat":43.3052,"lon":5.36697,"is_reserved":false,"is_disabled":false,"rental_uris":{"android":"levelo://app?vid=c016e547-921d-4cf4-b408-a78a1dead93a","ios":"levelo://app?vid=c016e547-921d-4cf4-b408-a78a1dead93a"},"vehicle_type_id":"4","last_reported":1738570374,"current_range_meters":19200,"station_id":"ce4bgrp2rcd13ifvqc9g","pricing_plan_id":"cebpf4jnsgd1na2vs0mg"},{"bike_id":"a62b26de-9035-4803-a3ef-75a4d39fa5e5","system_id":"levelo_inurba_marseille","lat":43.30904,"lon":5.36851,"is_reserved":false,"is_disabled":false,"rental_uris":{"android":"levelo://app?vid=a62b26de-9035-4803-a3ef-75a4d39fa5e5","ios":"levelo://app?vid=a62b26de-9035-4803-a3ef-75a4d39fa5e5"},"vehicle_type_id":"4","last_reported":1738570374,"current_range_meters":30400,"station_id":"ce4bgn92rcd13ifvqbvg","pricing_plan_id":"cebpf4jnsgd1na2vs0mg"},{"bike_id":"c13e9d7f-be74-4874-a020-943cf47f70f7","system_id":"levelo_inurba_marseille","lat":43.2781,"lon":5.40709,"is_reserved":false,"is_disabled":false,"rental_uris":{"android":"levelo://app?vid=c13e9d7f-be74-4874-a020-943cf47f70f7","ios":"levelo://app?vid=c13e9d7f-be74-4874-a020-943cf47f70f7"},"vehicle_type_id":"4","last_reported":1738570374,"current_range_meters":38800,"station_id":"ce4bhnh2rcd13ifvqgtg","pricing_plan_id":"cebpf4jnsgd1na2vs0mg"},{"bike_id":"97c9060c-1123-4912-a2bf-57f609cb057a","system_id":"levelo_inurba_marseille","lat":43.2971,"lon":5.37698,"is_reserved":false,"is_disabled":false,"rental_uris":{"android":"levelo://app?vid=97c9060c-1123-4912-a2bf-57f609cb057a","ios":"levelo://app?vid=97c9060c-1123-4912-a2bf-57f609cb057a"},"vehicle_type_id":"4","last_reported":1738570374,"current_range_meters":39200,"station_id":"ce4bgkh2rcd13ifvqbl0","pricing_plan_id":"cebpf4jnsgd1na2vs0mg"},{"bike_id":"bd6db94f-8ac9-4b47-a990-393bec7cd7d4","system_id":"levelo_inurba_marseille","lat":43.26206,"lon":5.404812,"is_reserved":false,"is_disabled":true,"rental_uris":{"android":"levelo://app?vid=bd6db94f-8ac9-4b47-a990-393bec7cd7d4","ios":"levelo://app?vid=bd6db94f-8ac9-4b47-a990-393bec7cd7d4"},"vehicle_type_id":"4","last_reported":1738570374,"current_range_meters":0,"station_id":"ce4bhmh2rcd13ifvqgmg","pricing_plan_id":"cebpf4jnsgd1na2vs0mg"},{"bike_id":"ddd00e95-387d-4687-9b99-27d0e7bf1447","system_id":"levelo_inurba_marseille","lat":43.314514,"lon":5.373813,"is_reserved":false,"is_disabled":true,"rental_uris":{"android":"levelo://app?vid=ddd00e95-387d-4687-9b99-27d0e7bf1447","ios":"levelo://app?vid=ddd00e95-387d-4687-9b99-27d0e7bf1447"},"vehicle_type_id":"4","last_reported":1738570374,"current_range_meters":0,"station_id":"","pricing_plan_id":"cebpf4jnsgd1na2vs0mg"},{"bike_id":"1e4fb263-2fba-4f88-9b2b-9bf396bd5315","system_id":"levelo_inurba_marseille","lat":43.26031,"lon":5.37549,"is_reserved":false,"is_disabled":false,"rental_uris":{"android":"levelo://app?vid=1e4fb263-2fba-4f88-9b2b-9bf396bd5315","ios":"levelo://app?vid=1e4fb263-2fba-4f88-9b2b-9bf396bd5315"},"vehicle_type_id":"4","last_reported":1738570374,"current_range_meters":18000,"station_id":"ce4bhgh2rcd13ifvqfa0","pricing_plan_id":"cebpf4jnsgd1na2vs0mg"},{"bike_id":"ba1b16dd-09e2-4536-8411-babb750bcb3c","system_id":"levelo_inurba_marseille","lat":43.231864,"lon":5.39992,"is_reserved":false,"is_disabled":true,"rental_uris":{"android":"levelo://app?vid=ba1b16dd-09e2-4536-8411-babb750bcb3c","ios":"levelo://app?vid=ba1b16dd-09e2-4536-8411-babb750bcb3c"},"vehicle_type_id":"4","last_reported":1738570374,"current_range_meters":17600,"station_id":"ce4bhn12rcd13ifvqgqg","pricing_plan_id":"cebpf4jnsgd1na2vs0mg"},{"bike_id":"20029bdd-9f9c-4ff9-86e4-5ba6ed30f46a","system_id":"levelo_inurba_marseille","lat":43.23148,"lon":5.43705,"is_reserved":false,"is_disabled":true,"rental_uris":{"android":"levelo://app?vid=20029bdd-9f9c-4ff9-86e4-5ba6ed30f46a","ios":"levelo://app?vid=20029bdd-9f9c-4ff9-86e4-5ba6ed30f46a"},"vehicle_type_id":"4","last_reported":1738570374,"current_range_meters":0,"station_id":"ce4bhmp2rcd13ifvqgog","pricing_plan_id":"cebpf4jnsgd1na2vs0mg"},{"bike_id":"bcfacb5f-fd84-4201-a91d-7ee42d87f814","system_id":"levelo_inurba_marseille","lat":43.30447,"lon":5.37917,"is_reserved":false,"is_disabled":true,"rental_uris":{"android":"levelo://app?vid=bcfacb5f-fd84-4201-a91d-7ee42d87f814","ios":"levelo://app?vid=bcfacb5f-fd84-4201-a91d-7ee42d87f814"},"vehicle_type_id":"4","last_reported":1738570374,"current_range_meters":18000,"station_id":"ce4bgup2rcd13ifvqcn0","pricing_plan_id":"cebpf4jnsgd1na2vs0mg"},{"bike_id":"6c3379be-921e-4d6c-802f-a821140ced6c","system_id":"levelo_inurba_marseille","lat":43.30161,"lon":5.37413,"is_reserved":false,"is_disabled":false,"rental_uris":{"android":"levelo://app?vid=6c3379be-921e-4d6c-802f-a821140ced6c","ios":"levelo://app?vid=6c3379be-921e-4d6c-802f-a821140ced6c"},"vehicle_type_id":"4","last_reported":1738570374,"current_range_meters":32000,"station_id":"ce4bgs92rcd13ifvqcc0","pricing_plan_id":"cebpf4jnsgd1na2vs0mg"},{"bike_id":"5805abe4-d33a-4c57-986f-3167b5b7a28d","system_id":"levelo_inurba_marseille","lat":43.279114,"lon":5.395864,"is_reserved":false,"is_disabled":true,"rental_uris":{"android":"levelo://app?vid=5805abe4-d33a-4c57-986f-3167b5b7a28d","ios":"levelo://app?vid=5805abe4-d33a-4c57-986f-3167b5b7a28d"},"vehicle_type_id":"4","last_reported":1738570374,"current_range_meters":0,"station_id":"ce4bhf92rcd13ifvqf40","pricing_plan_id":"cebpf4jnsgd1na2vs0mg"},{"bike_id":"1ab3385b-ef01-4ed8-8984-032f740b0888","system_id":"levelo_inurba_marseille","lat":43.26057,"lon":5.39397,"is_reserved":false,"is_disabled":false,"rental_uris":{"android":"levelo://app?vid=1ab3385b-ef01-4ed8-8984-032f740b0888","ios":"levelo://app?vid=1ab3385b-ef01-4ed8-8984-032f740b0888"},"vehicle_type_id":"4","last_reported":1738570374,"current_range_meters":39200,"station_id":"ce4bhh92rcd13ifvqfj0","pricing_plan_id":"cebpf4jnsgd1na2vs0mg"},{"bike_id":"c04e4bc6-aeec-477e-a2e0-6da2894ead95","system_id":"levelo_inurba_marseille","lat":43.28935,"lon":5.36373,"is_reserved":false,"is_disabled":false,"rental_uris":{"android":"levelo://app?vid=c04e4bc6-aeec-477e-a2e0-6da2894ead95","ios":"levelo://app?vid=c04e4bc6-aeec-477e-a2e0-6da2894ead95"},"vehicle_type_id":"4","last_reported":1738570374,"current_range_meters":11600,"station_id":"ce4bhc92rcd13ifvqetg","pricing_plan_id":"cebpf4jnsgd1na2vs0mg"},{"bike_id":"4cb39d18-63b5-45bc-8371-1474c5c767e1","system_id":"levelo_inurba_marseille","lat":43.29582,"lon":5.36745,"is_reserved":false,"is_disabled":false,"rental_uris":{"android":"levelo://app?vid=4cb39d18-63b5-45bc-8371-1474c5c767e1","ios":"levelo://app?vid=4cb39d18-63b5-45bc-8371-1474c5c767e1"},"vehicle_type_id":"4","last_reported":1738570374,"current_range_meters":38800,"station_id":"ce4bgph2rcd13ifvqc2g","pricing_plan_id":"cebpf4jnsgd1na2vs0mg"},{"bike_id":"491407c5-a175-44f0-86fc-0f4ccadf82e3","system_id":"levelo_inurba_marseille","lat":43.337444,"lon":5.374475,"is_reserved":false,"is_disabled":true,"rental_uris":{"android":"levelo://app?vid=491407c5-a175-44f0-86fc-0f4ccadf82e3","ios":"levelo://app?vid=491407c5-a175-44f0-86fc-0f4ccadf82e3"},"vehicle_type_id":"4","last_reported":1738570374,"current_range_meters":0,"station_id":"","pricing_plan_id":"cebpf4jnsgd1na2vs0mg"},{"bike_id":"97387978-97f1-4098-a9d7-830fd0581eb7","system_id":"levelo_inurba_marseille","lat":43.30171,"lon":5.38083,"is_reserved":false,"is_disabled":false,"rental_uris":{"android":"levelo://app?vid=97387978-97f1-4098-a9d7-830fd0581eb7","ios":"levelo://app?vid=97387978-97f1-4098-a9d7-830fd0581eb7"},"vehicle_type_id":"4","last_reported":1738570374,"current_range_meters":27200,"station_id":"ce4bgjp2rcd13ifvqbh0","pricing_plan_id":"cebpf4jnsgd1na2vs0mg"},{"bike_id":"d3c71994-f738-4ff3-a20e-ace13d2c73e0","system_id":"levelo_inurba_marseille","lat":43.254987,"lon":5.376536,"is_reserved":false,"is_disabled":false,"rental_uris":{"android":"levelo://app?vid=d3c71994-f738-4ff3-a20e-ace13d2c73e0","ios":"levelo://app?vid=d3c71994-f738-4ff3-a20e-ace13d2c73e0"},"vehicle_type_id":"4","last_reported":1738570374,"current_range_meters":38800,"station_id":"ce4bhh12rcd13ifvqff0","pricing_plan_id":"cebpf4jnsgd1na2vs0mg"},{"bike_id":"4a7af680-8a77-45cb-85cc-9f0a7f33be68","system_id":"levelo_inurba_marseille","lat":43.298064,"lon":5.40415,"is_reserved":false,"is_disabled":true,"rental_uris":{"android":"levelo://app?vid=4a7af680-8a77-45cb-85cc-9f0a7f33be68","ios":"levelo://app?vid=4a7af680-8a77-45cb-85cc-9f0a7f33be68"},"vehicle_type_id":"4","last_reported":1738570374,"current_range_meters":24400,"station_id":"ce4bh112rcd13ifvqd90","pricing_plan_id":"cebpf4jnsgd1na2vs0mg"},{"bike_id":"50b533b5-9c83-4e5b-9ee2-941faa3eb899","system_id":"levelo_inurba_marseille","lat":43.27813,"lon":5.40715,"is_reserved":false,"is_disabled":false,"rental_uris":{"android":"levelo://app?vid=50b533b5-9c83-4e5b-9ee2-941faa3eb899","ios":"levelo://app?vid=50b533b5-9c83-4e5b-9ee2-941faa3eb899"},"vehicle_type_id":"4","last_reported":1738570374,"current_range_meters":28000,"station_id":"ce4bhnh2rcd13ifvqgtg","pricing_plan_id":"cebpf4jnsgd1na2vs0mg"},{"bike_id":"99c1e446-17f6-4977-ab02-37cf2dc4140e","system_id":"levelo_inurba_marseille","lat":43.24165,"lon":5.364,"is_reserved":false,"is_disabled":false,"rental_uris":{"android":"levelo://app?vid=99c1e446-17f6-4977-ab02-37cf2dc4140e","ios":"levelo://app?vid=99c1e446-17f6-4977-ab02-37cf2dc4140e"},"vehicle_type_id":"4","last_reported":1738570374,"current_range_meters":28000,"station_id":"cpo36qri1sfpv3e86is0","pricing_plan_id":"cebpf4jnsgd1na2vs0mg"},{"bike_id":"0b439ceb-bbef-470b-b522-3e20f798d948","system_id":"levelo_inurba_marseille","lat":43.29078,"lon":5.38128,"is_reserved":false,"is_disabled":true,"rental_uris":{"android":"levelo://app?vid=0b439ceb-bbef-470b-b522-3e20f798d948","ios":"levelo://app?vid=0b439ceb-bbef-470b-b522-3e20f798d948"},"vehicle_type_id":"4","last_reported":1738570374,"current_range_meters":13600,"station_id":"ce4bh512rcd13ifvqe2g","pricing_plan_id":"cebpf4jnsgd1na2vs0mg"},{"bike_id":"e5931363-493d-4d5b-87bb-5572104dbc7e","system_id":"levelo_inurba_marseille","lat":43.29745,"lon":5.37668,"is_reserved":false,"is_disabled":false,"rental_uris":{"android":"levelo://app?vid=e5931363-493d-4d5b-87bb-5572104dbc7e","ios":"levelo://app?vid=e5931363-493d-4d5b-87bb-5572104dbc7e"},"vehicle_type_id":"4","last_reported":1738570374,"current_range_meters":13600,"station_id":"ce4bgkh2rcd13ifvqbl0","pricing_plan_id":"cebpf4jnsgd1na2vs0mg"},{"bike_id":"37ba8b6f-005b-42d7-90c2-0c64fb7745e0","system_id":"levelo_inurba_marseille","lat":43.29563,"lon":5.39978,"is_reserved":false,"is_disabled":true,"rental_uris":{"android":"levelo://app?vid=37ba8b6f-005b-42d7-90c2-0c64fb7745e0","ios":"levelo://app?vid=37ba8b6f-005b-42d7-90c2-0c64fb7745e0"},"vehicle_type_id":"4","last_reported":1738570374,"current_range_meters":38400,"station_id":"ce4bh312rcd13ifvqdj0","pricing_plan_id":"cebpf4jnsgd1na2vs0mg"},{"bike_id":"246cfd69-3f92-4e90-aa97-e3988a738d3e","system_id":"levelo_inurba_marseille","lat":43.28697,"lon":5.38661,"is_reserved":false,"is_disabled":true,"rental_uris":{"android":"levelo://app?vid=246cfd69-3f92-4e90-aa97-e3988a738d3e","ios":"levelo://app?vid=246cfd69-3f92-4e90-aa97-e3988a738d3e"},"vehicle_type_id":"4","last_reported":1738570374,"current_range_meters":27600,"station_id":"ce4bh492rcd13ifvqdug","pricing_plan_id":"cebpf4jnsgd1na2vs0mg"},{"bike_id":"f38a9b51-7bc8-4445-89b3-2095fb6b771f","system_id":"levelo_inurba_marseille","lat":43.286964,"lon":5.373991,"is_reserved":false,"is_disabled":true,"rental_uris":{"android":"levelo://app?vid=f38a9b51-7bc8-4445-89b3-2095fb6b771f","ios":"levelo://app?vid=f38a9b51-7bc8-4445-89b3-2095fb6b771f"},"vehicle_type_id":"4","last_reported":1738570374,"current_range_meters":19200,"station_id":"ce4bh3p2rcd13ifvqdq0","pricing_plan_id":"cebpf4jnsgd1na2vs0mg"},{"bike_id":"4d59ea48-d125-4030-b919-cad5fec49e9e","system_id":"levelo_inurba_marseille","lat":43.3088,"lon":5.36892,"is_reserved":false,"is_disabled":false,"rental_uris":{"android":"levelo://app?vid=4d59ea48-d125-4030-b919-cad5fec49e9e","ios":"levelo://app?vid=4d59ea48-d125-4030-b919-cad5fec49e9e"},"vehicle_type_id":"4","last_reported":1738570374,"current_range_meters":38400,"station_id":"ce4bgn92rcd13ifvqbvg","pricing_plan_id":"cebpf4jnsgd1na2vs0mg"},{"bike_id":"4e15eda4-5cca-4b3f-9471-0068e98ec400","system_id":"levelo_inurba_marseille","lat":43.29221,"lon":5.36048,"is_reserved":false,"is_disabled":false,"rental_uris":{"android":"levelo://app?vid=4e15eda4-5cca-4b3f-9471-0068e98ec400","ios":"levelo://app?vid=4e15eda4-5cca-4b3f-9471-0068e98ec400"},"vehicle_type_id":"4","last_reported":1738570374,"current_range_meters":36800,"station_id":"ce4bhbh2rcd13ifvqeqg","pricing_plan_id":"cebpf4jnsgd1na2vs0mg"},{"bike_id":"7d53f575-2bb0-470a-a089-1bb5e667eb90","system_id":"levelo_inurba_marseille","lat":43.30454,"lon":5.37911,"is_reserved":false,"is_disabled":false,"rental_uris":{"android":"levelo://app?vid=7d53f575-2bb0-470a-a089-1bb5e667eb90","ios":"levelo://app?vid=7d53f575-2bb0-470a-a089-1bb5e667eb90"},"vehicle_type_id":"4","last_reported":1738570374,"current_range_meters":12400,"station_id":"ce4bgup2rcd13ifvqcn0","pricing_plan_id":"cebpf4jnsgd1na2vs0mg"},{"bike_id":"38550d3a-6ea8-406c-935e-ef654544b87c","system_id":"levelo_inurba_marseille","lat":43.3248,"lon":5.36583,"is_reserved":false,"is_disabled":false,"rental_uris":{"android":"levelo://app?vid=38550d3a-6ea8-406c-935e-ef654544b87c","ios":"levelo://app?vid=38550d3a-6ea8-406c-935e-ef654544b87c"},"vehicle_type_id":"4","last_reported":1738570374,"current_range_meters":8800,"station_id":"ce4bhs12rcd13ifvqhvg","pricing_plan_id":"cebpf4jnsgd1na2vs0mg"},{"bike_id":"33ec871b-21ac-4195-bf4c-8ce9cd4a5168","system_id":"levelo_inurba_marseille","lat":43.27956,"lon":5.41047,"is_reserved":false,"is_disabled":false,"rental_uris":{"android":"levelo://app?vid=33ec871b-21ac-4195-bf4c-8ce9cd4a5168","ios":"levelo://app?vid=33ec871b-21ac-4195-bf4c-8ce9cd4a5168"},"vehicle_type_id":"4","last_reported":1738570374,"current_range_meters":28000,"station_id":"ce4bhnp2rcd13ifvqh0g","pricing_plan_id":"cebpf4jnsgd1na2vs0mg"},{"bike_id":"00bbb5cd-9f74-4c00-94cb-7246c199dfb7","system_id":"levelo_inurba_marseille","lat":43.28615,"lon":5.35133,"is_reserved":false,"is_disabled":true,"rental_uris":{"android":"levelo://app?vid=00bbb5cd-9f74-4c00-94cb-7246c199dfb7","ios":"levelo://app?vid=00bbb5cd-9f74-4c00-94cb-7246c199dfb7"},"vehicle_type_id":"4","last_reported":1738570374,"current_range_meters":0,"station_id":"ce4bhch2rcd13ifvqeug","pricing_plan_id":"cebpf4jnsgd1na2vs0mg"},{"bike_id":"ab4e1438-274f-4ed7-ac4d-8bd3728badb1","system_id":"levelo_inurba_marseille","lat":43.25118,"lon":5.40324,"is_reserved":false,"is_disabled":false,"rental_uris":{"android":"levelo://app?vid=ab4e1438-274f-4ed7-ac4d-8bd3728badb1","ios":"levelo://app?vid=ab4e1438-274f-4ed7-ac4d-8bd3728badb1"},"vehicle_type_id":"4","last_reported":1738570374,"current_range_meters":28400,"station_id":"ce4bhlh2rcd13ifvqgig","pricing_plan_id":"cebpf4jnsgd1na2vs0mg"},{"bike_id":"785d7c7b-9ee6-419c-8415-ff90703fea3d","system_id":"levelo_inurba_marseille","lat":43.31336,"lon":5.36715,"is_reserved":false,"is_disabled":false,"rental_uris":{"android":"levelo://app?vid=785d7c7b-9ee6-419c-8415-ff90703fea3d","ios":"levelo://app?vid=785d7c7b-9ee6-419c-8415-ff90703fea3d"},"vehicle_type_id":"4","last_reported":1738570374,"current_range_meters":38800,"station_id":"ce4bgr92rcd13ifvqc6g","pricing_plan_id":"cebpf4jnsgd1na2vs0mg"},{"bike_id":"c158ce36-7f7d-4edd-a0c1-83dd6e7887f0","system_id":"levelo_inurba_marseille","lat":43.27312,"lon":5.39117,"is_reserved":false,"is_disabled":false,"rental_uris":{"android":"levelo://app?vid=c158ce36-7f7d-4edd-a0c1-83dd6e7887f0","ios":"levelo://app?vid=c158ce36-7f7d-4edd-a0c1-83dd6e7887f0"},"vehicle_type_id":"4","last_reported":1738570374,"current_range_meters":32800,"station_id":"ce4bhgp2rcd13ifvqfe0","pricing_plan_id":"cebpf4jnsgd1na2vs0mg"},{"bike_id":"f4001614-a8f5-4231-b4a5-58ad6a748e23","system_id":"levelo_inurba_marseille","lat":43.29963,"lon":5.4135,"is_reserved":false,"is_disabled":false,"rental_uris":{"android":"levelo://app?vid=f4001614-a8f5-4231-b4a5-58ad6a748e23","ios":"levelo://app?vid=f4001614-a8f5-4231-b4a5-58ad6a748e23"},"vehicle_type_id":"4","last_reported":1738570374,"current_range_meters":6800,"station_id":"ce4bhp12rcd13ifvqh9g","pricing_plan_id":"cebpf4jnsgd1na2vs0mg"},{"bike_id":"637ee9bc-6e1a-4347-a000-7908a013bdfd","system_id":"levelo_inurba_marseille","lat":43.30107,"lon":5.37425,"is_reserved":false,"is_disabled":false,"rental_uris":{"android":"levelo://app?vid=637ee9bc-6e1a-4347-a000-7908a013bdfd","ios":"levelo://app?vid=637ee9bc-6e1a-4347-a000-7908a013bdfd"},"vehicle_type_id":"4","last_reported":1738570374,"current_range_meters":39200,"station_id":"ce4bgs92rcd13ifvqcc0","pricing_plan_id":"cebpf4jnsgd1na2vs0mg"},{"bike_id":"20bb86fb-f58e-44f4-a3d2-173ed49faa5a","system_id":"levelo_inurba_marseille","lat":43.24176,"lon":5.39734,"is_reserved":false,"is_disabled":false,"rental_uris":{"android":"levelo://app?vid=20bb86fb-f58e-44f4-a3d2-173ed49faa5a","ios":"levelo://app?vid=20bb86fb-f58e-44f4-a3d2-173ed49faa5a"},"vehicle_type_id":"4","last_reported":1738570374,"current_range_meters":12000,"station_id":"ce4bhn12rcd13ifvqgpg","pricing_plan_id":"cebpf4jnsgd1na2vs0mg"},{"bike_id":"9c4d6e39-25b9-47fd-a824-904cf56fefec","system_id":"levelo_inurba_marseille","lat":43.30145,"lon":5.38091,"is_reserved":false,"is_disabled":false,"rental_uris":{"android":"levelo://app?vid=9c4d6e39-25b9-47fd-a824-904cf56fefec","ios":"levelo://app?vid=9c4d6e39-25b9-47fd-a824-904cf56fefec"},"vehicle_type_id":"4","last_reported":1738570374,"current_range_meters":29600,"station_id":"ce4bgjp2rcd13ifvqbh0","pricing_plan_id":"cebpf4jnsgd1na2vs0mg"},{"bike_id":"1c734ea3-fbfc-4cf2-9841-579ee0ff2de1","system_id":"levelo_inurba_marseille","lat":43.313591,"lon":5.367094,"is_reserved":false,"is_disabled":false,"rental_uris":{"android":"levelo://app?vid=1c734ea3-fbfc-4cf2-9841-579ee0ff2de1","ios":"levelo://app?vid=1c734ea3-fbfc-4cf2-9841-579ee0ff2de1"},"vehicle_type_id":"4","last_reported":1738570374,"current_range_meters":36000,"station_id":"ce4bgr92rcd13ifvqc6g","pricing_plan_id":"cebpf4jnsgd1na2vs0mg"},{"bike_id":"1e99f768-8760-4404-b699-76ef76026a93","system_id":"levelo_inurba_marseille","lat":43.30147,"lon":5.38084,"is_reserved":false,"is_disabled":false,"rental_uris":{"android":"levelo://app?vid=1e99f768-8760-4404-b699-76ef76026a93","ios":"levelo://app?vid=1e99f768-8760-4404-b699-76ef76026a93"},"vehicle_type_id":"4","last_reported":1738570374,"current_range_meters":36800,"station_id":"ce4bgjp2rcd13ifvqbh0","pricing_plan_id":"cebpf4jnsgd1na2vs0mg"},{"bike_id":"7ef563b4-4fe3-4173-bc92-ecc64da7a654","system_id":"levelo_inurba_marseille","lat":43.26495,"lon":5.39584,"is_reserved":false,"is_disabled":false,"rental_uris":{"android":"levelo://app?vid=7ef563b4-4fe3-4173-bc92-ecc64da7a654","ios":"levelo://app?vid=7ef563b4-4fe3-4173-bc92-ecc64da7a654"},"vehicle_type_id":"4","last_reported":1738570374,"current_range_meters":35200,"station_id":"ce4bhi12rcd13ifvqfq0","pricing_plan_id":"cebpf4jnsgd1na2vs0mg"},{"bike_id":"93b49084-e6f7-44ad-bdb7-6aedefc580e2","system_id":"levelo_inurba_marseille","lat":43.2656,"lon":5.39005,"is_reserved":false,"is_disabled":false,"rental_uris":{"android":"levelo://app?vid=93b49084-e6f7-44ad-bdb7-6aedefc580e2","ios":"levelo://app?vid=93b49084-e6f7-44ad-bdb7-6aedefc580e2"},"vehicle_type_id":"4","last_reported":1738570374,"current_range_meters":34800,"station_id":"ce4bhe12rcd13ifvqf30","pricing_plan_id":"cebpf4jnsgd1na2vs0mg"},{"bike_id":"093ac1ad-aed6-4f26-bc9e-f9dd53f74afd","system_id":"levelo_inurba_marseille","lat":43.31353,"lon":5.36702,"is_reserved":false,"is_disabled":false,"rental_uris":{"android":"levelo://app?vid=093ac1ad-aed6-4f26-bc9e-f9dd53f74afd","ios":"levelo://app?vid=093ac1ad-aed6-4f26-bc9e-f9dd53f74afd"},"vehicle_type_id":"4","last_reported":1738570374,"current_range_meters":28000,"station_id":"ce4bgr92rcd13ifvqc6g","pricing_plan_id":"cebpf4jnsgd1na2vs0mg"},{"bike_id":"0a00e1ed-f2d2-400b-9507-9779a7d0bfd3","system_id":"levelo_inurba_marseille","lat":43.30172,"lon":5.38086,"is_reserved":false,"is_disabled":false,"rental_uris":{"android":"levelo://app?vid=0a00e1ed-f2d2-400b-9507-9779a7d0bfd3","ios":"levelo://app?vid=0a00e1ed-f2d2-400b-9507-9779a7d0bfd3"},"vehicle_type_id":"4","last_reported":1738570374,"current_range_meters":39200,"station_id":"ce4bgjp2rcd13ifvqbh0","pricing_plan_id":"cebpf4jnsgd1na2vs0mg"},{"bike_id":"c0e7550b-6f33-4fbd-9387-96500956f50a","system_id":"levelo_inurba_marseille","lat":43.29444,"lon":5.39794,"is_reserved":false,"is_disabled":true,"rental_uris":{"android":"levelo://app?vid=c0e7550b-6f33-4fbd-9387-96500956f50a","ios":"levelo://app?vid=c0e7550b-6f33-4fbd-9387-96500956f50a"},"vehicle_type_id":"4","last_reported":1738570374,"current_range_meters":18800,"station_id":"ce4bh3h2rcd13ifvqdo0","pricing_plan_id":"cebpf4jnsgd1na2vs0mg"},{"bike_id":"a30d8b93-ac92-468d-a652-79171594fd66","system_id":"levelo_inurba_marseille","lat":43.33608,"lon":5.41029,"is_reserved":false,"is_disabled":false,"rental_uris":{"android":"levelo://app?vid=a30d8b93-ac92-468d-a652-79171594fd66","ios":"levelo://app?vid=a30d8b93-ac92-468d-a652-79171594fd66"},"vehicle_type_id":"4","last_reported":1738570374,"current_range_meters":17200,"station_id":"ce4bhqh2rcd13ifvqhmg","pricing_plan_id":"cebpf4jnsgd1na2vs0mg"},{"bike_id":"1f54b7a5-732a-4991-a975-a49fa39d063b","system_id":"levelo_inurba_marseille","lat":43.26959,"lon":5.38633,"is_reserved":false,"is_disabled":false,"rental_uris":{"android":"levelo://app?vid=1f54b7a5-732a-4991-a975-a49fa39d063b","ios":"levelo://app?vid=1f54b7a5-732a-4991-a975-a49fa39d063b"},"vehicle_type_id":"4","last_reported":1738570374,"current_range_meters":38800,"station_id":"ce4bhh92rcd13ifvqfh0","pricing_plan_id":"cebpf4jnsgd1na2vs0mg"},{"bike_id":"51e98b31-1659-413c-a2fd-ad1f5f5b25a8","system_id":"levelo_inurba_marseille","lat":43.31001,"lon":5.36685,"is_reserved":false,"is_disabled":false,"rental_uris":{"android":"levelo://app?vid=51e98b31-1659-413c-a2fd-ad1f5f5b25a8","ios":"levelo://app?vid=51e98b31-1659-413c-a2fd-ad1f5f5b25a8"},"vehicle_type_id":"4","last_reported":1738570374,"current_range_meters":28800,"station_id":"","pricing_plan_id":"cebpf4jnsgd1na2vs0mg"},{"bike_id":"320f17aa-5d3b-45da-a6be-b587cdc1c956","system_id":"levelo_inurba_marseille","lat":43.24175,"lon":5.39746,"is_reserved":false,"is_disabled":false,"rental_uris":{"android":"levelo://app?vid=320f17aa-5d3b-45da-a6be-b587cdc1c956","ios":"levelo://app?vid=320f17aa-5d3b-45da-a6be-b587cdc1c956"},"vehicle_type_id":"4","last_reported":1738570374,"current_range_meters":25600,"station_id":"ce4bhn12rcd13ifvqgpg","pricing_plan_id":"cebpf4jnsgd1na2vs0mg"},{"bike_id":"5e8b7018-e7ad-4d87-8b00-09f8c9411b4c","system_id":"levelo_inurba_marseille","lat":43.30547,"lon":5.36539,"is_reserved":false,"is_disabled":true,"rental_uris":{"android":"levelo://app?vid=5e8b7018-e7ad-4d87-8b00-09f8c9411b4c","ios":"levelo://app?vid=5e8b7018-e7ad-4d87-8b00-09f8c9411b4c"},"vehicle_type_id":"4","last_reported":1738570374,"current_range_meters":36400,"station_id":"","pricing_plan_id":"cebpf4jnsgd1na2vs0mg"},{"bike_id":"e25e7c8d-e943-4d96-8f84-0602de6aff1f","system_id":"levelo_inurba_marseille","lat":43.23155,"lon":5.43707,"is_reserved":false,"is_disabled":true,"rental_uris":{"android":"levelo://app?vid=e25e7c8d-e943-4d96-8f84-0602de6aff1f","ios":"levelo://app?vid=e25e7c8d-e943-4d96-8f84-0602de6aff1f"},"vehicle_type_id":"4","last_reported":1738570374,"current_range_meters":38800,"station_id":"ce4bhmp2rcd13ifvqgog","pricing_plan_id":"cebpf4jnsgd1na2vs0mg"},{"bike_id":"c1955bdb-affc-4b65-a3ea-ec5cf7d8eccd","system_id":"levelo_inurba_marseille","lat":43.29032,"lon":5.39967,"is_reserved":false,"is_disabled":false,"rental_uris":{"android":"levelo://app?vid=c1955bdb-affc-4b65-a3ea-ec5cf7d8eccd","ios":"levelo://app?vid=c1955bdb-affc-4b65-a3ea-ec5cf7d8eccd"},"vehicle_type_id":"4","last_reported":1738570374,"current_range_meters":38800,"station_id":"ce4bh392rcd13ifvqdm0","pricing_plan_id":"cebpf4jnsgd1na2vs0mg"},{"bike_id":"593a1483-ca61-4762-9ad9-5cad0d4da92d","system_id":"levelo_inurba_marseille","lat":43.31344,"lon":5.36728,"is_reserved":false,"is_disabled":false,"rental_uris":{"android":"levelo://app?vid=593a1483-ca61-4762-9ad9-5cad0d4da92d","ios":"levelo://app?vid=593a1483-ca61-4762-9ad9-5cad0d4da92d"},"vehicle_type_id":"4","last_reported":1738570374,"current_range_meters":19600,"station_id":"ce4bgr92rcd13ifvqc6g","pricing_plan_id":"cebpf4jnsgd1na2vs0mg"},{"bike_id":"671a9ecd-741f-46f5-af3b-3e5c3a89a6b5","system_id":"levelo_inurba_marseille","lat":43.27584,"lon":5.360819,"is_reserved":false,"is_disabled":false,"rental_uris":{"android":"levelo://app?vid=671a9ecd-741f-46f5-af3b-3e5c3a89a6b5","ios":"levelo://app?vid=671a9ecd-741f-46f5-af3b-3e5c3a89a6b5"},"vehicle_type_id":"4","last_reported":1738570374,"current_range_meters":38000,"station_id":"ce4bgj92rcd13ifvqbe0","pricing_plan_id":"cebpf4jnsgd1na2vs0mg"},{"bike_id":"c3bd0e5a-4f83-43bd-9115-f1a5683b3a72","system_id":"levelo_inurba_marseille","lat":43.3055,"lon":5.36561,"is_reserved":false,"is_disabled":true,"rental_uris":{"android":"levelo://app?vid=c3bd0e5a-4f83-43bd-9115-f1a5683b3a72","ios":"levelo://app?vid=c3bd0e5a-4f83-43bd-9115-f1a5683b3a72"},"vehicle_type_id":"4","last_reported":1738570374,"current_range_meters":2000,"station_id":"ce4bgs12rcd13ifvqcag","pricing_plan_id":"cebpf4jnsgd1na2vs0mg"},{"bike_id":"22264ea7-42c9-425e-a29f-07e9fe3444e8","system_id":"levelo_inurba_marseille","lat":43.24806,"lon":5.37451,"is_reserved":false,"is_disabled":true,"rental_uris":{"android":"levelo://app?vid=22264ea7-42c9-425e-a29f-07e9fe3444e8","ios":"levelo://app?vid=22264ea7-42c9-425e-a29f-07e9fe3444e8"},"vehicle_type_id":"4","last_reported":1738570374,"current_range_meters":38800,"station_id":"ce4bhgh2rcd13ifvqfb0","pricing_plan_id":"cebpf4jnsgd1na2vs0mg"},{"bike_id":"ab2f74c7-063c-4c10-800d-018107c4c0c2","system_id":"levelo_inurba_marseille","lat":43.25577,"lon":5.382412,"is_reserved":false,"is_disabled":false,"rental_uris":{"android":"levelo://app?vid=ab2f74c7-063c-4c10-800d-018107c4c0c2","ios":"levelo://app?vid=ab2f74c7-063c-4c10-800d-018107c4c0c2"},"vehicle_type_id":"4","last_reported":1738570374,"current_range_meters":12000,"station_id":"ce4bhih2rcd13ifvqfs0","pricing_plan_id":"cebpf4jnsgd1na2vs0mg"},{"bike_id":"a7124f32-0d73-4fed-899e-5eb22bb4f9df","system_id":"levelo_inurba_marseille","lat":43.29097,"lon":5.38125,"is_reserved":false,"is_disabled":false,"rental_uris":{"android":"levelo://app?vid=a7124f32-0d73-4fed-899e-5eb22bb4f9df","ios":"levelo://app?vid=a7124f32-0d73-4fed-899e-5eb22bb4f9df"},"vehicle_type_id":"4","last_reported":1738570374,"current_range_meters":39200,"station_id":"ce4bh512rcd13ifvqe2g","pricing_plan_id":"cebpf4jnsgd1na2vs0mg"},{"bike_id":"c1bc9951-838a-4a12-bda7-797741260f54","system_id":"levelo_inurba_marseille","lat":43.31333,"lon":5.36731,"is_reserved":false,"is_disabled":false,"rental_uris":{"android":"levelo://app?vid=c1bc9951-838a-4a12-bda7-797741260f54","ios":"levelo://app?vid=c1bc9951-838a-4a12-bda7-797741260f54"},"vehicle_type_id":"4","last_reported":1738570374,"current_range_meters":39200,"station_id":"ce4bgr92rcd13ifvqc6g","pricing_plan_id":"cebpf4jnsgd1na2vs0mg"},{"bike_id":"180659d5-ad24-4e58-99b6-719de37ca79f","system_id":"levelo_inurba_marseille","lat":43.25935,"lon":5.40909,"is_reserved":false,"is_disabled":false,"rental_uris":{"android":"levelo://app?vid=180659d5-ad24-4e58-99b6-719de37ca79f","ios":"levelo://app?vid=180659d5-ad24-4e58-99b6-719de37ca79f"},"vehicle_type_id":"4","last_reported":1738570374,"current_range_meters":16000,"station_id":"ce4bhm92rcd13ifvqglg","pricing_plan_id":"cebpf4jnsgd1na2vs0mg"},{"bike_id":"2c441383-11cd-47c1-958c-de7ea5286521","system_id":"levelo_inurba_marseille","lat":43.29003,"lon":5.35615,"is_reserved":false,"is_disabled":false,"rental_uris":{"android":"levelo://app?vid=2c441383-11cd-47c1-958c-de7ea5286521","ios":"levelo://app?vid=2c441383-11cd-47c1-958c-de7ea5286521"},"vehicle_type_id":"4","last_reported":1738570374,"current_range_meters":14800,"station_id":"ce4bhb92rcd13ifvqen0","pricing_plan_id":"cebpf4jnsgd1na2vs0mg"},{"bike_id":"a670a210-06fc-4b28-84dc-a894a7c5abb8","system_id":"levelo_inurba_marseille","lat":43.28156,"lon":5.42675,"is_reserved":false,"is_disabled":false,"rental_uris":{"android":"levelo://app?vid=a670a210-06fc-4b28-84dc-a894a7c5abb8","ios":"levelo://app?vid=a670a210-06fc-4b28-84dc-a894a7c5abb8"},"vehicle_type_id":"4","last_reported":1738570374,"current_range_meters":3200,"station_id":"ce4bhnh2rcd13ifvqgug","pricing_plan_id":"cebpf4jnsgd1na2vs0mg"},{"bike_id":"fb316c39-dfca-4786-825a-c4c82ebe121b","system_id":"levelo_inurba_marseille","lat":43.29025,"lon":5.38146,"is_reserved":false,"is_disabled":false,"rental_uris":{"android":"levelo://app?vid=fb316c39-dfca-4786-825a-c4c82ebe121b","ios":"levelo://app?vid=fb316c39-dfca-4786-825a-c4c82ebe121b"},"vehicle_type_id":"4","last_reported":1738570374,"current_range_meters":38800,"station_id":"ce4bh4p2rcd13ifvqe1g","pricing_plan_id":"cebpf4jnsgd1na2vs0mg"},{"bike_id":"42d52280-0f47-4991-9b8f-b489cef474d8","system_id":"levelo_inurba_marseille","lat":43.28506,"lon":5.37265,"is_reserved":false,"is_disabled":false,"rental_uris":{"android":"levelo://app?vid=42d52280-0f47-4991-9b8f-b489cef474d8","ios":"levelo://app?vid=42d52280-0f47-4991-9b8f-b489cef474d8"},"vehicle_type_id":"4","last_reported":1738570374,"current_range_meters":33200,"station_id":"ce4bht12rcd13ifvqi60","pricing_plan_id":"cebpf4jnsgd1na2vs0mg"},{"bike_id":"7c6aef3a-2b2a-44c9-b654-1307c6daf473","system_id":"levelo_inurba_marseille","lat":43.24402,"lon":5.37078,"is_reserved":false,"is_disabled":false,"rental_uris":{"android":"levelo://app?vid=7c6aef3a-2b2a-44c9-b654-1307c6daf473","ios":"levelo://app?vid=7c6aef3a-2b2a-44c9-b654-1307c6daf473"},"vehicle_type_id":"4","last_reported":1738570374,"current_range_meters":28000,"station_id":"ce4bhhh2rcd13ifvqfk0","pricing_plan_id":"cebpf4jnsgd1na2vs0mg"},{"bike_id":"595deccd-9a28-4c1d-a48b-d01c02ed739e","system_id":"levelo_inurba_marseille","lat":43.31244,"lon":5.36868,"is_reserved":false,"is_disabled":false,"rental_uris":{"android":"levelo://app?vid=595deccd-9a28-4c1d-a48b-d01c02ed739e","ios":"levelo://app?vid=595deccd-9a28-4c1d-a48b-d01c02ed739e"},"vehicle_type_id":"4","last_reported":1738570374,"current_range_meters":39200,"station_id":"ce4bgl92rcd13ifvqbq0","pricing_plan_id":"cebpf4jnsgd1na2vs0mg"},{"bike_id":"d0dc6fcf-30f8-4fba-a94e-86afe0efae0a","system_id":"levelo_inurba_marseille","lat":43.30464,"lon":5.37904,"is_reserved":false,"is_disabled":false,"rental_uris":{"android":"levelo://app?vid=d0dc6fcf-30f8-4fba-a94e-86afe0efae0a","ios":"levelo://app?vid=d0dc6fcf-30f8-4fba-a94e-86afe0efae0a"},"vehicle_type_id":"4","last_reported":1738570374,"current_range_meters":30400,"station_id":"ce4bgup2rcd13ifvqcn0","pricing_plan_id":"cebpf4jnsgd1na2vs0mg"},{"bike_id":"ae1f1e85-ec64-4dc1-ba5d-4214ac0bbd57","system_id":"levelo_inurba_marseille","lat":43.2861,"lon":5.37063,"is_reserved":false,"is_disabled":true,"rental_uris":{"android":"levelo://app?vid=ae1f1e85-ec64-4dc1-ba5d-4214ac0bbd57","ios":"levelo://app?vid=ae1f1e85-ec64-4dc1-ba5d-4214ac0bbd57"},"vehicle_type_id":"4","last_reported":1738570374,"current_range_meters":3600,"station_id":"","pricing_plan_id":"cebpf4jnsgd1na2vs0mg"},