{"last_updated":1724530080,"ttl":30,"version":"2.2","data":{"bikes":[{"bike_id":"5e36e7bf-411b-4a90-ad45-4c360f023042","system_id":"levelo_inurba_marseille","lat":43.313391,"lon":5.36706,"is_reserved":false,"is_disabled":false,"rental_uris":{"android":"levelo://app?vid=5e36e7bf-411b-4a90-ad45-4c360f023042","ios":"levelo://app?vid=5e36e7bf-411b-4a90-ad45-4c360f023042"},"vehicle_type_id":"4","last_reported":1724530080,"current_range_meters":29600,"station_id":"ce4bgr92rcd13ifvqc6g","pricing_plan_id":"cebpf4jnsgd1na2vs0mg"},{"bike_id":"966b14bf-f4e0-45d2-937b-e1fb0b93e24b","system_id":"levelo_inurba_marseille","lat":43.312239,"lon":5.368562,"is_reserved":false,"is_disabled":false,"rental_uris":{"android":"levelo://app?vid=966b14bf-f4e0-45d2-937b-e1fb0b93e24b","ios":"levelo://app?vid=966b14bf-f4e0-45d2-937b-e1fb0b93e24b"},"vehicle_type_id":"4","last_reported":1724530080,"current_range_meters":0,"station_id":"ce4bgl92rcd13ifvqbq0","pricing_plan_id":"cebpf4jnsgd1na2vs0mg"},{"bike_id":"b90beb5b-a837-4193-9662-72cb75f65f4b","system_id":"levelo_inurba_marseille","lat":43.311943,"lon":5.36876,"is_reserved":false,"is_disabled":false,"rental_uris":{"android":"levelo://app?vid=b90beb5b-a837-4193-9662-72cb75f65f4b","ios":"levelo://app?vid=b90beb5b-a837-4193-9662-72cb75f65f4b"},"vehicle_type_id":"4","last_reported":1724530080,"current_range_meters":20400,"station_id":"ce4bgl92rcd13ifvqbq0","pricing_plan_id":"cebpf4jnsgd1na2vs0mg"},{"bike_id":"b2895021-cb66-40d6-8c93-f64bcb81e2b5","system_id":"levelo_inurba_marseille","lat":43.30913,"lon":5.36849,"is_reserved":false,"is_disabled":false,"rental_uris":{"android":"levelo://app?vid=b2895021-cb66-40d6-8c93-f64bcb81e2b5","ios":"levelo://app?vid=b2895021-cb66-40d6-8c93-f64bcb81e2b5"},"vehicle_type_id":"4","last_reported":1724530080,"current_range_meters":0,"station_id":"ce4bgn92rcd13ifvqbvg","pricing_plan_id":"cebpf4jnsgd1na2vs0mg"},{"bike_id":"ecf0a3a7-da5b-4203-935c-5c787712aa78","system_id":"levelo_inurba_marseille","lat":43.30911,"lon":5.36849,"is_reserved":false,"is_disabled":false,"rental_uris":{"android":"levelo://app?vid=ecf0a3a7-da5b-4203-935c-5c787712aa78","ios":"levelo://app?vid=ecf0a3a7-da5b-4203-935c-5c787712aa78"},"vehicle_type_id":"4","last_reported":1724530080,"current_range_meters":18800,"station_id":"ce4bgn92rcd13ifvqbvg","pricing_plan_id":"cebpf4jnsgd1na2vs0mg"},{"bike_id":"db0018d1-bf6f-42ef-9edd-db227603a6bc","system_id":"levelo_inurba_marseille","lat":43.309076,"lon":5.368465,"is_reserved":false,"is_disabled":false,"rental_uris":{"android":"levelo://app?vid=db0018d1-bf6f-42ef-9edd-db227603a6bc","ios":"levelo://app?vid=db0018d1-bf6f-42ef-9edd-db227603a6bc"},"vehicle_type_id":"4","last_reported":1724530080,"current_range_meters":16400,"station_id":"ce4bgn92rcd13ifvqbvg","pricing_plan_id":"cebpf4jnsgd1na2vs0mg"},{"bike_id":"25270f91-9f1f-4474-8e75-98437fd98cab","system_id":"levelo_inurba_marseille","lat":43.30908,"lon":5.36846,"is_reserved":false,"is_disabled":false,"rental_uris":{"android":"levelo://app?vid=25270f91-9f1f-4474-8e75-98437fd98cab","ios":"levelo://app?vid=25270f91-9f1f-4474-8e75-98437fd98cab"},"vehicle_type_id":"4","last_reported":1724530080,"current_range_meters":15600,"station_id":"ce4bgn92rcd13ifvqbvg","pricing_plan_id":"cebpf4jnsgd1na2vs0mg"},{"bike_id":"14ee0667-ee34-4787-bc93-c4c6893e36ea","system_id":"levelo_inurba_marseille","lat":43.30907,"lon":5.36845,"is_reserved":false,"is_disabled":false,"rental_uris":{"android":"levelo://app?vid=14ee0667-ee34-4787-bc93-c4c6893e36ea","ios":"levelo://app?vid=14ee0667-ee34-4787-bc93-c4c6893e36ea"},"vehicle_type_id":"4","last_reported":1724530080,"current_range_meters":28800,"station_id":"ce4bgn92rcd13ifvqbvg","pricing_plan_id":"cebpf4jnsgd1na2vs0mg"},{"bike_id":"372fe689-48c9-4b28-843e-dc72c6d68a5c","system_id":"levelo_inurba_marseille","lat":43.314811,"lon":5.373103,"is_reserved":false,"is_disabled":false,"rental_uris":{"android":"levelo://app?vid=372fe689-48c9-4b28-843e-dc72c6d68a5c","ios":"levelo://app?vid=372fe689-48c9-4b28-843e-dc72c6d68a5c"},"vehicle_type_id":"4","last_reported":1724530080,"current_range_meters":25600,"station_id":"ce4bgt12rcd13ifvqcd0","pricing_plan_id":"cebpf4jnsgd1na2vs0mg"},{"bike_id":"6e647086-ed4e-44fe-8a77-9ba15101dfb7","system_id":"levelo_inurba_marseille","lat":43.309039,"lon":5.371797,"is_reserved":false,"is_disabled":false,"rental_uris":{"android":"levelo://app?vid=6e647086-ed4e-44fe-8a77-9ba15101dfb7","ios":"levelo://app?vid=6e647086-ed4e-44fe-8a77-9ba15101dfb7"},"vehicle_type_id":"4","last_reported":1724530080,"current_range_meters":5200,"station_id":"ce4bguh2rcd13ifvqckg","pricing_plan_id":"cebpf4jnsgd1na2vs0mg"},{"bike_id":"34db0b05-75eb-4469-bd18-7c76014251ab","system_id":"levelo_inurba_marseille","lat":43.309039,"lon":5.371797,"is_reserved":false,"is_disabled":false,"rental_uris":{"android":"levelo://app?vid=34db0b05-75eb-4469-bd18-7c76014251ab","ios":"levelo://app?vid=34db0b05-75eb-4469-bd18-7c76014251ab"},"vehicle_type_id":"4","last_reported":1724530080,"current_range_meters":21200,"station_id":"ce4bguh2rcd13ifvqckg","pricing_plan_id":"cebpf4jnsgd1na2vs0mg"},{"bike_id":"8df4efdb-298c-4f34-b60f-6182286023ea","system_id":"levelo_inurba_marseille","lat":43.309039,"lon":5.371797,"is_reserved":false,"is_disabled":false,"rental_uris":{"android":"levelo://app?vid=8df4efdb-298c-4f34-b60f-6182286023ea","ios":"levelo://app?vid=8df4efdb-298c-4f34-b60f-6182286023ea"},"vehicle_type_id":"4","last_reported":1724530080,"current_range_meters":10400,"station_id":"ce4bguh2rcd13ifvqckg","pricing_plan_id":"cebpf4jnsgd1na2vs0mg"},{"bike_id":"d0eddfd5-1033-4524-86d6-a3236dfb0f2f","system_id":"levelo_inurba_marseille","lat":43.30537,"lon":5.367345,"is_reserved":false,"is_disabled":false,"rental_uris":{"android":"levelo://app?vid=d0eddfd5-1033-4524-86d6-a3236dfb0f2f","ios":"levelo://app?vid=d0eddfd5-1033-4524-86d6-a3236dfb0f2f"},"vehicle_type_id":"4","last_reported":1724530080,"current_range_meters":6800,"station_id":"ce4bgrp2rcd13ifvqc9g","pricing_plan_id":"cebpf4jnsgd1na2vs0mg"},{"bike_id":"a88da962-0ec3-4dc5-bbf1-27fab3b88f84","system_id":"levelo_inurba_marseille","lat":43.305714,"lon":5.365633,"is_reserved":false,"is_disabled":false,"rental_uris":{"android":"levelo://app?vid=a88da962-0ec3-4dc5-bbf1-27fab3b88f84","ios":"levelo://app?vid=a88da962-0ec3-4dc5-bbf1-27fab3b88f84"},"vehicle_type_id":"4","last_reported":1724530080,"current_range_meters":2000,"station_id":"ce4bgs12rcd13ifvqcag","pricing_plan_id":"cebpf4jnsgd1na2vs0mg"},{"bike_id":"6cea4e96-8e36-43b2-a852-6f57bc04477f","system_id":"levelo_inurba_marseille","lat":43.30537,"lon":5.367345,"is_reserved":false,"is_disabled":false,"rental_uris":{"android":"levelo://app?vid=6cea4e96-8e36-43b2-a852-6f57bc04477f","ios":"levelo://app?vid=6cea4e96-8e36-43b2-a852-6f57bc04477f"},"vehicle_type_id":"4","last_reported":1724530080,"current_range_meters":30400,"station_id":"ce4bgrp2rcd13ifvqc9g","pricing_plan_id":"cebpf4jnsgd1na2vs0mg"},{"bike_id":"87b2dfac-7fb9-4b51-942e-45cdebf52928","system_id":"levelo_inurba_marseille","lat":43.305368,"lon":5.367343,"is_reserved":false,"is_disabled":false,"rental_uris":{"android":"levelo://app?vid=87b2dfac-7fb9-4b51-942e-45cdebf52928","ios":"levelo://app?vid=87b2dfac-7fb9-4b51-942e-45cdebf52928"},"vehicle_type_id":"4","last_reported":1724530080,"current_range_meters":6000,"station_id":"ce4bgrp2rcd13ifvqc9g","pricing_plan_id":"cebpf4jnsgd1na2vs0mg"},{"bike_id":"55f1d3a5-83a7-4bdf-b773-f6c1869e8f21","system_id":"levelo_inurba_marseille","lat":43.305989,"lon":5.37225,"is_reserved":false,"is_disabled":false,"rental_uris":{"android":"levelo://app?vid=55f1d3a5-83a7-4bdf-b773-f6c1869e8f21","ios":"levelo://app?vid=55f1d3a5-83a7-4bdf-b773-f6c1869e8f21"},"vehicle_type_id":"4","last_reported":1724530080,"current_range_meters":1600,"station_id":"ce4bgqh2rcd13ifvqc4g","pricing_plan_id":"cebpf4jnsgd1na2vs0mg"},{"bike_id":"70912146-1f04-490f-a805-c3b2688b2126","system_id":"levelo_inurba_marseille","lat":43.30672,"lon":5.37499,"is_reserved":false,"is_disabled":false,"rental_uris":{"android":"levelo://app?vid=70912146-1f04-490f-a805-c3b2688b2126","ios":"levelo://app?vid=70912146-1f04-490f-a805-c3b2688b2126"},"vehicle_type_id":"4","last_reported":1724530080,"current_range_meters":24000,"station_id":"","pricing_plan_id":"cebpf4jnsgd1na2vs0mg"},{"bike_id":"86fa0d7a-cbe2-4dc8-bd7e-1623533e5e75","system_id":"levelo_inurba_marseille","lat":43.307945,"lon":5.376487,"is_reserved":false,"is_disabled":false,"rental_uris":{"android":"levelo://app?vid=86fa0d7a-cbe2-4dc8-bd7e-1623533e5e75","ios":"levelo://app?vid=86fa0d7a-cbe2-4dc8-bd7e-1623533e5e75"},"vehicle_type_id":"4","last_reported":1724530080,"current_range_meters":5600,"station_id":"ce4bgv92rcd13ifvqcq0","pricing_plan_id":"cebpf4jnsgd1na2vs0mg"},{"bike_id":"dc461a50-efc1-4610-9c72-fa1e339c0c30","system_id":"levelo_inurba_marseille","lat":43.303046,"lon":5.368981,"is_reserved":false,"is_disabled":false,"rental_uris":{"android":"levelo://app?vid=dc461a50-efc1-4610-9c72-fa1e339c0c30","ios":"levelo://app?vid=dc461a50-efc1-4610-9c72-fa1e339c0c30"},"vehicle_type_id":"4","last_reported":1724530080,"current_range_meters":21200,"station_id":"ce4bgqh2rcd13ifvqc5g","pricing_plan_id":"cebpf4jnsgd1na2vs0mg"},{"bike_id":"b090adfb-c449-49b9-8674-41d476adeac2","system_id":"levelo_inurba_marseille","lat":43.315289,"lon":5.380349,"is_reserved":false,"is_disabled":false,"rental_uris":{"android":"levelo://app?vid=b090adfb-c449-49b9-8674-41d476adeac2","ios":"levelo://app?vid=b090adfb-c449-49b9-8674-41d476adeac2"},"vehicle_type_id":"4","last_reported":1724530080,"current_range_meters":22400,"station_id":"ce4bhsp2rcd13ifvqi50","pricing_plan_id":"cebpf4jnsgd1na2vs0mg"},{"bike_id":"f7c27631-8c06-4b77-b756-a54b23bef336","system_id":"levelo_inurba_marseille","lat":43.315289,"lon":5.380349,"is_reserved":false,"is_disabled":false,"rental_uris":{"android":"levelo://app?vid=f7c27631-8c06-4b77-b756-a54b23bef336","ios":"levelo://app?vid=f7c27631-8c06-4b77-b756-a54b23bef336"},"vehicle_type_id":"4","last_reported":1724530080,"current_range_meters":12400,"station_id":"ce4bhsp2rcd13ifvqi50","pricing_plan_id":"cebpf4jnsgd1na2vs0mg"},{"bike_id":"29b8961f-d7da-44c1-a708-ad00ef57b5b2","system_id":"levelo_inurba_marseille","lat":43.315289,"lon":5.380349,"is_reserved":false,"is_disabled":false,"rental_uris":{"android":"levelo://app?vid=29b8961f-d7da-44c1-a708-ad00ef57b5b2","ios":"levelo://app?vid=29b8961f-d7da-44c1-a708-ad00ef57b5b2"},"vehicle_type_id":"4","last_reported":1724530080,"current_range_meters":5600,"station_id":"ce4bhsp2rcd13ifvqi50","pricing_plan_id":"cebpf4jnsgd1na2vs0mg"},{"bike_id":"c6a0b53e-93be-45eb-b4b2-94df4a9155a6","system_id":"levelo_inurba_marseille","lat":43.308012,"lon":5.381511,"is_reserved":false,"is_disabled":false,"rental_uris":{"android":"levelo://app?vid=c6a0b53e-93be-45eb-b4b2-94df4a9155a6","ios":"levelo://app?vid=c6a0b53e-93be-45eb-b4b2-94df4a9155a6"},"vehicle_type_id":"4","last_reported":1724530080,"current_range_meters":26000,"station_id":"ce4bgt12rcd13ifvqce0","pricing_plan_id":"cebpf4jnsgd1na2vs0mg"},{"bike_id":"83448d4a-0cf6-4dce-99b1-613f35bee1d9","system_id":"levelo_inurba_marseille","lat":43.304606,"lon":5.379026,"is_reserved":false,"is_disabled":false,"rental_uris":{"android":"levelo://app?vid=83448d4a-0cf6-4dce-99b1-613f35bee1d9","ios":"levelo://app?vid=83448d4a-0cf6-4dce-99b1-613f35bee1d9"},"vehicle_type_id":"4","last_reported":1724530080,"current_range_meters":20800,"station_id":"ce4bgup2rcd13ifvqcn0","pricing_plan_id":"cebpf4jnsgd1na2vs0mg"},{"bike_id":"5c56e82c-9539-4ddb-ac21-872fc6b44dff","system_id":"levelo_inurba_marseille","lat":43.304606,"lon":5.379026,"is_reserved":false,"is_disabled":false,"rental_uris":{"android":"levelo://app?vid=5c56e82c-9539-4ddb-ac21-872fc6b44dff","ios":"levelo://app?vid=5c56e82c-9539-4ddb-ac21-872fc6b44dff"},"vehicle_type_id":"4","last_reported":1724530080,"current_range_meters":14800,"station_id":"ce4bgup2rcd13ifvqcn0","pricing_plan_id":"cebpf4jnsgd1na2vs0mg"},{"bike_id":"52877c00-5efe-481d-8e81-b86ab6e5d883","system_id":"levelo_inurba_marseille","lat":43.304606,"lon":5.379026,"is_reserved":false,"is_disabled":false,"rental_uris":{"android":"levelo://app?vid=52877c00-5efe-481d-8e81-b86ab6e5d883","ios":"levelo://app?vid=52877c00-5efe-481d-8e81-b86ab6e5d883"},"vehicle_type_id":"4","last_reported":1724530080,"current_range_meters":24800,"station_id":"ce4bgup2rcd13ifvqcn0","pricing_plan_id":"cebpf4jnsgd1na2vs0mg"},{"bike_id":"4f24fd02-f61b-4f47-bb0a-8b0cbe3fb0b7","system_id":"levelo_inurba_marseille","lat":43.324771,"lon":5.36557,"is_reserved":false,"is_disabled":false,"rental_uris":{"android":"levelo://app?vid=4f24fd02-f61b-4f47-bb0a-8b0cbe3fb0b7","ios":"levelo://app?vid=4f24fd02-f61b-4f47-bb0a-8b0cbe3fb0b7"},"vehicle_type_id":"4","last_reported":1724530080,"current_range_meters":8000,"station_id":"ce4bhs12rcd13ifvqhvg","pricing_plan_id":"cebpf4jnsgd1na2vs0mg"},{"bike_id":"cd559adb-b794-457c-9a93-f8258234a5cf","system_id":"levelo_inurba_marseille","lat":43.32484,"lon":5.36577,"is_reserved":false,"is_disabled":false,"rental_uris":{"android":"levelo://app?vid=cd559adb-b794-457c-9a93-f8258234a5cf","ios":"levelo://app?vid=cd559adb-b794-457c-9a93-f8258234a5cf"},"vehicle_type_id":"4","last_reported":1724530080,"current_range_meters":4000,"station_id":"ce4bhs12rcd13ifvqhvg","pricing_plan_id":"cebpf4jnsgd1na2vs0mg"},{"bike_id":"4b068ad2-1221-4476-9487-2b7eb5619d8a","system_id":"levelo_inurba_marseille","lat":43.31366,"lon":5.38364,"is_reserved":false,"is_disabled":false,"rental_uris":{"android":"levelo://app?vid=4b068ad2-1221-4476-9487-2b7eb5619d8a","ios":"levelo://app?vid=4b068ad2-1221-4476-9487-2b7eb5619d8a"},"vehicle_type_id":"4","last_reported":1724530080,"current_range_meters":4000,"station_id":"","pricing_plan_id":"cebpf4jnsgd1na2vs0mg"},{"bike_id":"bae99b91-5cf8-49af-93eb-de2a5b0451b3","system_id":"levelo_inurba_marseille","lat":43.32491,"lon":5.36569,"is_reserved":false,"is_disabled":false,"rental_uris":{"android":"levelo://app?vid=bae99b91-5cf8-49af-93eb-de2a5b0451b3","ios":"levelo://app?vid=bae99b91-5cf8-49af-93eb-de2a5b0451b3"},"vehicle_type_id":"4","last_reported":1724530080,"current_range_meters":2800,"station_id":"ce4bhs12rcd13ifvqhvg","pricing_plan_id":"cebpf4jnsgd1na2vs0mg"},{"bike_id":"ad397876-474e-4b79-9cad-eb8b0cd24a5e","system_id":"levelo_inurba_marseille","lat":43.31078,"lon":5.38348,"is_reserved":false,"is_disabled":false,"rental_uris":{"android":"levelo://app?vid=ad397876-474e-4b79-9cad-eb8b0cd24a5e","ios":"levelo://app?vid=ad397876-474e-4b79-9cad-eb8b0cd24a5e"},"vehicle_type_id":"4","last_reported":1724530080,"current_range_meters":19600,"station_id":"ce4bgv92rcd13ifvqcr0","pricing_plan_id":"cebpf4jnsgd1na2vs0mg"},{"bike_id":"4d3bceba-807d-4742-973e-37584bfa133b","system_id":"levelo_inurba_marseille","lat":43.324771,"lon":5.36557,"is_reserved":false,"is_disabled":false,"rental_uris":{"android":"levelo://app?vid=4d3bceba-807d-4742-973e-37584bfa133b","ios":"levelo://app?vid=4d3bceba-807d-4742-973e-37584bfa133b"},"vehicle_type_id":"4","last_reported":1724530080,"current_range_meters":8800,"station_id":"ce4bhs12rcd13ifvqhvg","pricing_plan_id":"cebpf4jnsgd1na2vs0mg"},{"bike_id":"70796eb5-cd1d-45c9-94d6-24f7671e5475","system_id":"levelo_inurba_marseille","lat":43.31062,"lon":5.38351,"is_reserved":false,"is_disabled":false,"rental_uris":{"android":"levelo://app?vid=70796eb5-cd1d-45c9-94d6-24f7671e5475","ios":"levelo://app?vid=70796eb5-cd1d-45c9-94d6-24f7671e5475"},"vehicle_type_id":"4","last_reported":1724530080,"current_range_meters":0,"station_id":"ce4bgv92rcd13ifvqcr0","pricing_plan_id":"cebpf4jnsgd1na2vs0mg"},{"bike_id":"7bd94610-e14a-4ec5-82ff-fab0a8ed498f","system_id":"levelo_inurba_marseille","lat":43.310804,"lon":5.38359,"is_reserved":false,"is_disabled":false,"rental_uris":{"android":"levelo://app?vid=7bd94610-e14a-4ec5-82ff-fab0a8ed498f","ios":"levelo://app?vid=7bd94610-e14a-4ec5-82ff-fab0a8ed498f"},"vehicle_type_id":"4","last_reported":1724530080,"current_range_meters":30400,"station_id":"ce4bgv92rcd13ifvqcr0","pricing_plan_id":"cebpf4jnsgd1na2vs0mg"},{"bike_id":"79fbd216-07cf-44fe-961a-9fbb1ca6ed67","system_id":"levelo_inurba_marseille","lat":43.310804,"lon":5.38359,"is_reserved":false,"is_disabled":false,"rental_uris":{"android":"levelo://app?vid=79fbd216-07cf-44fe-961a-9fbb1ca6ed67","ios":"levelo://app?vid=79fbd216-07cf-44fe-961a-9fbb1ca6ed67"},"vehicle_type_id":"4","last_reported":1724530080,"current_range_meters":26800,"station_id":"ce4bgv92rcd13ifvqcr0","pricing_plan_id":"cebpf4jnsgd1na2vs0mg"},{"bike_id":"3701c43c-53f2-452f-a205-dd097ae429b4","system_id":"levelo_inurba_marseille","lat":43.310804,"lon":5.38359,"is_reserved":false,"is_disabled":false,"rental_uris":{"android":"levelo://app?vid=3701c43c-53f2-452f-a205-dd097ae429b4","ios":"levelo://app?vid=3701c43c-53f2-452f-a205-dd097ae429b4"},"vehicle_type_id":"4","last_reported":1724530080,"current_range_meters":28400,"station_id":"ce4bgv92rcd13ifvqcr0","pricing_plan_id":"cebpf4jnsgd1na2vs0mg"},{"bike_id":"5b60d5ac-0eef-4133-ad1e-ec7895a93cd7","system_id":"levelo_inurba_marseille","lat":43.310854,"lon":5.383704,"is_reserved":false,"is_disabled":false,"rental_uris":{"android":"levelo://app?vid=5b60d5ac-0eef-4133-ad1e-ec7895a93cd7","ios":"levelo://app?vid=5b60d5ac-0eef-4133-ad1e-ec7895a93cd7"},"vehicle_type_id":"4","last_reported":1724530080,"current_range_meters":0,"station_id":"ce4bgv92rcd13ifvqcr0","pricing_plan_id":"cebpf4jnsgd1na2vs0mg"},{"bike_id":"d72c0f7f-8841-429c-8e7c-9b50f118cf0e","system_id":"levelo_inurba_marseille","lat":43.302784,"lon":5.377158,"is_reserved":false,"is_disabled":false,"rental_uris":{"android":"levelo://app?vid=d72c0f7f-8841-429c-8e7c-9b50f118cf0e","ios":"levelo://app?vid=d72c0f7f-8841-429c-8e7c-9b50f118cf0e"},"vehicle_type_id":"4","last_reported":1724530080,"current_range_meters":16400,"station_id":"ce4bguh2rcd13ifvqcj0","pricing_plan_id":"cebpf4jnsgd1na2vs0mg"},{"bike_id":"94341550-eb5c-48f2-a447-9d836975306a","system_id":"levelo_inurba_marseille","lat":43.302784,"lon":5.377158,"is_reserved":false,"is_disabled":false,"rental_uris":{"android":"levelo://app?vid=94341550-eb5c-48f2-a447-9d836975306a","ios":"levelo://app?vid=94341550-eb5c-48f2-a447-9d836975306a"},"vehicle_type_id":"4","last_reported":1724530080,"current_range_meters":31600,"station_id":"ce4bguh2rcd13ifvqcj0","pricing_plan_id":"cebpf4jnsgd1na2vs0mg"},{"bike_id":"84cfede5-06d8-43c1-86c5-99ae6519722e","system_id":"levelo_inurba_marseille","lat":43.302784,"lon":5.377158,"is_reserved":false,"is_disabled":false,"rental_uris":{"android":"levelo://app?vid=84cfede5-06d8-43c1-86c5-99ae6519722e","ios":"levelo://app?vid=84cfede5-06d8-43c1-86c5-99ae6519722e"},"vehicle_type_id":"4","last_reported":1724530080,"current_range_meters":30000,"station_id":"ce4bguh2rcd13ifvqcj0","pricing_plan_id":"cebpf4jnsgd1na2vs0mg"},{"bike_id":"84d0cac9-bc22-4a10-b5be-e561c4ffe268","system_id":"levelo_inurba_marseille","lat":43.302784,"lon":5.377158,"is_reserved":false,"is_disabled":false,"rental_uris":{"android":"levelo://app?vid=84d0cac9-bc22-4a10-b5be-e561c4ffe268","ios":"levelo://app?vid=84d0cac9-bc22-4a10-b5be-e561c4ffe268"},"vehicle_type_id":"4","last_reported":1724530080,"current_range_meters":10400,"station_id":"ce4bguh2rcd13ifvqcj0","pricing_plan_id":"cebpf4jnsgd1na2vs0mg"},{"bike_id":"9e6847c1-c8cd-47a0-99bd-4ac80aad9301","system_id":"levelo_inurba_marseille","lat":43.30143,"lon":5.37413,"is_reserved":false,"is_disabled":false,"rental_uris":{"android":"levelo://app?vid=9e6847c1-c8cd-47a0-99bd-4ac80aad9301","ios":"levelo://app?vid=9e6847c1-c8cd-47a0-99bd-4ac80aad9301"},"vehicle_type_id":"4","last_reported":1724530080,"current_range_meters":6800,"station_id":"ce4bgs92rcd13ifvqcc0","pricing_plan_id":"cebpf4jnsgd1na2vs0mg"},{"bike_id":"ddfbc639-14ae-43dc-8520-c245e087cb07","system_id":"levelo_inurba_marseille","lat":43.319935,"lon":5.381699,"is_reserved":false,"is_disabled":false,"rental_uris":{"android":"levelo://app?vid=ddfbc639-14ae-43dc-8520-c245e087cb07","ios":"levelo://app?vid=ddfbc639-14ae-43dc-8520-c245e087cb07"},"vehicle_type_id":"4","last_reported":1724530080,"current_range_meters":25600,"station_id":"ce4bhr12rcd13ifvqhpg","pricing_plan_id":"cebpf4jnsgd1na2vs0mg"},{"bike_id":"5fc4b8c9-0452-4232-9c7f-003d6a2253c2","system_id":"levelo_inurba_marseille","lat":43.313571,"lon":5.384829,"is_reserved":false,"is_disabled":false,"rental_uris":{"android":"levelo://app?vid=5fc4b8c9-0452-4232-9c7f-003d6a2253c2","ios":"levelo://app?vid=5fc4b8c9-0452-4232-9c7f-003d6a2253c2"},"vehicle_type_id":"4","last_reported":1724530080,"current_range_meters":16400,"station_id":"ce4bgt92rcd13ifvqcf0","pricing_plan_id":"cebpf4jnsgd1na2vs0mg"},{"bike_id":"f480d30a-1332-4f99-898a-cdd48886e1d1","system_id":"levelo_inurba_marseille","lat":43.313571,"lon":5.384829,"is_reserved":false,"is_disabled":false,"rental_uris":{"android":"levelo://app?vid=f480d30a-1332-4f99-898a-cdd48886e1d1","ios":"levelo://app?vid=f480d30a-1332-4f99-898a-cdd48886e1d1"},"vehicle_type_id":"4","last_reported":1724530080,"current_range_meters":2400,"station_id":"ce4bgt92rcd13ifvqcf0","pricing_plan_id":"cebpf4jnsgd1na2vs0mg"},{"bike_id":"fae12eaf-922f-4e94-951f-6b502593d617","system_id":"levelo_inurba_marseille","lat":43.313571,"lon":5.384829,"is_reserved":false,"is_disabled":false,"rental_uris":{"android":"levelo://app?vid=fae12eaf-922f-4e94-951f-6b502593d617","ios":"levelo://app?vid=fae12eaf-922f-4e94-951f-6b502593d617"},"vehicle_type_id":"4","last_reported":1724530080,"current_range_meters":6000,"station_id":"ce4bgt92rcd13ifvqcf0","pricing_plan_id":"cebpf4jnsgd1na2vs0mg"},{"bike_id":"04f77849-0064-44ca-9f64-17645b884d38","system_id":"levelo_inurba_marseille","lat":43.313571,"lon":5.384829,"is_reserved":false,"is_disabled":false,"rental_uris":{"android":"levelo://app?vid=04f77849-0064-44ca-9f64-17645b884d38","ios":"levelo://app?vid=04f77849-0064-44ca-9f64-17645b884d38"},"vehicle_type_id":"4","last_reported":1724530080,"current_range_meters":31600,"station_id":"ce4bgt92rcd13ifvqcf0","pricing_plan_id":"cebpf4jnsgd1na2vs0mg"},{"bike_id":"bcbf6e5c-03ac-40d0-9d3d-f6f57c8f64a2","system_id":"levelo_inurba_marseille","lat":43.313571,"lon":5.384829,"is_reserved":false,"is_disabled":false,"rental_uris":{"android":"levelo://app?vid=bcbf6e5c-03ac-40d0-9d3d-f6f57c8f64a2","ios":"levelo://app?vid=bcbf6e5c-03ac-40d0-9d3d-f6f57c8f64a2"},"vehicle_type_id":"4","last_reported":1724530080,"current_range_meters":24400,"station_id":"ce4bgt92rcd13ifvqcf0","pricing_plan_id":"cebpf4jnsgd1na2vs0mg"},{"bike_id":"f8c95336-1c9a-418c-9922-5a5d9caad4f2","system_id":"levelo_inurba_marseille","lat":43.313571,"lon":5.384829,"is_reserved":false,"is_disabled":false,"rental_uris":{"android":"levelo://app?vid=f8c95336-1c9a-418c-9922-5a5d9caad4f2","ios":"levelo://app?vid=f8c95336-1c9a-418c-9922-5a5d9caad4f2"},"vehicle_type_id":"4","last_reported":1724530080,"current_range_meters":7200,"station_id":"ce4bgt92rcd13ifvqcf0","pricing_plan_id":"cebpf4jnsgd1na2vs0mg"},{"bike_id":"dd1ad1af-e636-424d-b013-a3159a93f20c","system_id":"levelo_inurba_marseille","lat":43.313571,"lon":5.384829,"is_reserved":false,"is_disabled":false,"rental_uris":{"android":"levelo://app?vid=dd1ad1af-e636-424d-b013-a3159a93f20c","ios":"levelo://app?vid=dd1ad1af-e636-424d-b013-a3159a93f20c"},"vehicle_type_id":"4","last_reported":1724530080,"current_range_meters":20400,"station_id":"ce4bgt92rcd13ifvqcf0","pricing_plan_id":"cebpf4jnsgd1na2vs0mg"},{"bike_id":"95391129-92ee-458e-9268-cc1f0c6a1c32","system_id":"levelo_inurba_marseille","lat":43.313571,"lon":5.384829,"is_reserved":false,"is_disabled":false,"rental_uris":{"android":"levelo://app?vid=95391129-92ee-458e-9268-cc1f0c6a1c32","ios":"levelo://app?vid=95391129-92ee-458e-9268-cc1f0c6a1c32"},"vehicle_type_id":"4","last_reported":1724530080,"current_range_meters":11600,"station_id":"ce4bgt92rcd13ifvqcf0","pricing_plan_id":"cebpf4jnsgd1na2vs0mg"},{"bike_id":"5ee49640-9c5c-4da5-8554-0376e4b41b4b","system_id":"levelo_inurba_marseille","lat":43.31364,"lon":5.38494,"is_reserved":false,"is_disabled":false,"rental_uris":{"android":"levelo://app?vid=5ee49640-9c5c-4da5-8554-0376e4b41b4b","ios":"levelo://app?vid=5ee49640-9c5c-4da5-8554-0376e4b41b4b"},"vehicle_type_id":"4","last_reported":1724530080,"current_range_meters":31200,"station_id":"ce4bgt92rcd13ifvqcf0","pricing_plan_id":"cebpf4jnsgd1na2vs0mg"},{"bike_id":"63495f8c-2519-48eb-8351-1952349ba7b7","system_id":"levelo_inurba_marseille","lat":43.313571,"lon":5.384829,"is_reserved":false,"is_disabled":false,"rental_uris":{"android":"levelo://app?vid=63495f8c-2519-48eb-8351-1952349ba7b7","ios":"levelo://app?vid=63495f8c-2519-48eb-8351-1952349ba7b7"},"vehicle_type_id":"4","last_reported":1724530080,"current_range_meters":13600,"station_id":"ce4bgt92rcd13ifvqcf0","pricing_plan_id":"cebpf4jnsgd1na2vs0mg"},{"bike_id":"ec805ade-b5a2-48b5-871d-6aa90077776f","system_id":"levelo_inurba_marseille","lat":43.313571,"lon":5.384829,"is_reserved":false,"is_disabled":false,"rental_uris":{"android":"levelo://app?vid=ec805ade-b5a2-48b5-871d-6aa90077776f","ios":"levelo://app?vid=ec805ade-b5a2-48b5-871d-6aa90077776f"},"vehicle_type_id":"4","last_reported":1724530080,"current_range_meters":31600,"station_id":"ce4bgt92rcd13ifvqcf0","pricing_plan_id":"cebpf4jnsgd1na2vs0mg"},{"bike_id":"6e4d48fb-0276-4a27-99c5-25beb090163b","system_id":"levelo_inurba_marseille","lat":43.313571,"lon":5.384829,"is_reserved":false,"is_disabled":false,"rental_uris":{"android":"levelo://app?vid=6e4d48fb-0276-4a27-99c5-25beb090163b","ios":"levelo://app?vid=6e4d48fb-0276-4a27-99c5-25beb090163b"},"vehicle_type_id":"4","last_reported":1724530080,"current_range_meters":31200,"station_id":"ce4bgt92rcd13ifvqcf0","pricing_plan_id":"cebpf4jnsgd1na2vs0mg"},{"bike_id":"fe5ae110-a7f1-47b8-81e0-7e9d9cf52750","system_id":"levelo_inurba_marseille","lat":43.313571,"lon":5.384829,"is_reserved":false,"is_disabled":false,"rental_uris":{"android":"levelo://app?vid=fe5ae110-a7f1-47b8-81e0-7e9d9cf52750","ios":"levelo://app?vid=fe5ae110-a7f1-47b8-81e0-7e9d9cf52750"},"vehicle_type_id":"4","last_reported":1724530080,"current_range_meters":15200,"station_id":"ce4bgt92rcd13ifvqcf0","pricing_plan_id":"cebpf4jnsgd1na2vs0mg"},{"bike_id":"8ebb43ee-b5b7-4a4e-9d42-85b159c50b66","system_id":"levelo_inurba_marseille","lat":43.313571,"lon":5.384829,"is_reserved":false,"is_disabled":false,"rental_uris":{"android":"levelo://app?vid=8ebb43ee-b5b7-4a4e-9d42-85b159c50b66","ios":"levelo://app?vid=8ebb43ee-b5b7-4a4e-9d42-85b159c50b66"},"vehicle_type_id":"4","last_reported":1724530080,"current_range_meters":10400,"station_id":"ce4bgt92rcd13ifvqcf0","pricing_plan_id":"cebpf4jnsgd1na2vs0mg"},{"bike_id":"d66026fb-b466-454e-a939-1edc0c7b801b","system_id":"levelo_inurba_marseille","lat":43.313571,"lon":5.384829,"is_reserved":false,"is_disabled":false,"rental_uris":{"android":"levelo://app?vid=d66026fb-b466-454e-a939-1edc0c7b801b","ios":"levelo://app?vid=d66026fb-b466-454e-a939-1edc0c7b801b"},"vehicle_type_id":"4","last_reported":1724530080,"current_range_meters":24800,"station_id":"ce4bgt92rcd13ifvqcf0","pricing_plan_id":"cebpf4jnsgd1na2vs0mg"},{"bike_id":"1b1de7d0-46cc-4c9f-841d-ac4c121a0bab","system_id":"levelo_inurba_marseille","lat":43.299222,"lon":5.365554,"is_reserved":false,"is_disabled":false,"rental_uris":{"android":"levelo://app?vid=1b1de7d0-46cc-4c9f-841d-ac4c121a0bab","ios":"levelo://app?vid=1b1de7d0-46cc-4c9f-841d-ac4c121a0bab"},"vehicle_type_id":"4","last_reported":1724530080,"current_range_meters":28800,"station_id":"ce4bgm92rcd13ifvqbr0","pricing_plan_id":"cebpf4jnsgd1na2vs0mg"},{"bike_id":"be59bf11-aa91-4284-bcdc-7a2e6c082d17","system_id":"levelo_inurba_marseille","lat":43.299222,"lon":5.365554,"is_reserved":false,"is_disabled":false,"rental_uris":{"android":"levelo://app?vid=be59bf11-aa91-4284-bcdc-7a2e6c082d17","ios":"levelo://app?vid=be59bf11-aa91-4284-bcdc-7a2e6c082d17"},"vehicle_type_id":"4","last_reported":1724530080,"current_range_meters":7200,"station_id":"ce4bgm92rcd13ifvqbr0","pricing_plan_id":"cebpf4jnsgd1na2vs0mg"},{"bike_id":"72928126-ebdd-4d88-b7ac-0ad978a990e5","system_id":"levelo_inurba_marseille","lat":43.299222,"lon":5.365554,"is_reserved":false,"is_disabled":false,"rental_uris":{"android":"levelo://app?vid=72928126-ebdd-4d88-b7ac-0ad978a990e5","ios":"levelo://app?vid=72928126-ebdd-4d88-b7ac-0ad978a990e5"},"vehicle_type_id":"4","last_reported":1724530080,"current_range_meters":800,"station_id":"ce4bgm92rcd13ifvqbr0","pricing_plan_id":"cebpf4jnsgd1na2vs0mg"},{"bike_id":"c2020b5a-acae-49b1-8b75-6704f69a00a5","system_id":"levelo_inurba_marseille","lat":43.299222,"lon":5.365554,"is_reserved":false,"is_disabled":false,"rental_uris":{"android":"levelo://app?vid=c2020b5a-acae-49b1-8b75-6704f69a00a5","ios":"levelo://app?vid=c2020b5a-acae-49b1-8b75-6704f69a00a5"},"vehicle_type_id":"4","last_reported":1724530080,"current_range_meters":28800,"station_id":"ce4bgm92rcd13ifvqbr0","pricing_plan_id":"cebpf4jnsgd1na2vs0mg"},{"bike_id":"171de3ce-2794-438f-a02b-e51f5cbffc15","system_id":"levelo_inurba_marseille","lat":43.299724,"lon":5.371829,"is_reserved":false,"is_disabled":false,"rental_uris":{"android":"levelo://app?vid=171de3ce-2794-438f-a02b-e51f5cbffc15","ios":"levelo://app?vid=171de3ce-2794-438f-a02b-e51f5cbffc15"},"vehicle_type_id":"4","last_reported":1724530080,"current_range_meters":2400,"station_id":"ce4bgr92rcd13ifvqc7g","pricing_plan_id":"cebpf4jnsgd1na2vs0mg"},{"bike_id":"8f05eae9-1e43-4586-956c-8502658dc28c","system_id":"levelo_inurba_marseille","lat":43.299222,"lon":5.365554,"is_reserved":false,"is_disabled":false,"rental_uris":{"android":"levelo://app?vid=8f05eae9-1e43-4586-956c-8502658dc28c","ios":"levelo://app?vid=8f05eae9-1e43-4586-956c-8502658dc28c"},"vehicle_type_id":"4","last_reported":1724530080,"current_range_meters":8000,"station_id":"ce4bgm92rcd13ifvqbr0","pricing_plan_id":"cebpf4jnsgd1na2vs0mg"},{"bike_id":"69f261ab-8439-495e-9cbc-12d6ebe4852d","system_id":"levelo_inurba_marseille","lat":43.299222,"lon":5.365554,"is_reserved":false,"is_disabled":false,"rental_uris":{"android":"levelo://app?vid=69f261ab-8439-495e-9cbc-12d6ebe4852d","ios":"levelo://app?vid=69f261ab-8439-495e-9cbc-12d6ebe4852d"},"vehicle_type_id":"4","last_reported":1724530080,"current_range_meters":0,"station_id":"ce4bgm92rcd13ifvqbr0","pricing_plan_id":"cebpf4jnsgd1na2vs0mg"},{"bike_id":"3e9236bc-b1dc-417a-8a8d-8156a3ac835e","system_id":"levelo_inurba_marseille","lat":43.299222,"lon":5.365554,"is_reserved":false,"is_disabled":false,"rental_uris":{"android":"levelo://app?vid=3e9236bc-b1dc-417a-8a8d-8156a3ac835e","ios":"levelo://app?vid=3e9236bc-b1dc-417a-8a8d-8156a3ac835e"},"vehicle_type_id":"4","last_reported":1724530080,"current_range_meters":26800,"station_id":"ce4bgm92rcd13ifvqbr0","pricing_plan_id":"cebpf4jnsgd1na2vs0mg"},{"bike_id":"9496bb4c-4cdc-476a-b835-3c85ff140205","system_id":"levelo_inurba_marseille","lat":43.30538,"lon":5.38414,"is_reserved":false,"is_disabled":false,"rental_uris":{"android":"levelo://app?vid=9496bb4c-4cdc-476a-b835-3c85ff140205","ios":"levelo://app?vid=9496bb4c-4cdc-476a-b835-3c85ff140205"},"vehicle_type_id":"4","last_reported":1724530080,"current_range_meters":0,"station_id":"ce4bgg92rcd13ifvqb30","pricing_plan_id":"cebpf4jnsgd1na2vs0mg"},{"bike_id":"16462540-3e15-4345-9d82-db2823bb77c4","system_id":"levelo_inurba_marseille","lat":43.30541,"lon":5.38417,"is_reserved":false,"is_disabled":false,"rental_uris":{"android":"levelo://app?vid=16462540-3e15-4345-9d82-db2823bb77c4","ios":"levelo://app?vid=16462540-3e15-4345-9d82-db2823bb77c4"},"vehicle_type_id":"4","last_reported":1724530080,"current_range_meters":16800,"station_id":"ce4bgg92rcd13ifvqb30","pricing_plan_id":"cebpf4jnsgd1na2vs0mg"},{"bike_id":"757699ea-6d8e-437d-84f8-07844c06f646","system_id":"levelo_inurba_marseille","lat":43.298433,"lon":5.362774,"is_reserved":false,"is_disabled":false,"rental_uris":{"android":"levelo://app?vid=757699ea-6d8e-437d-84f8-07844c06f646","ios":"levelo://app?vid=757699ea-6d8e-437d-84f8-07844c06f646"},"vehicle_type_id":"4","last_reported":1724530080,"current_range_meters":12000,"station_id":"ce4bgpp2rcd13ifvqc3g","pricing_plan_id":"cebpf4jnsgd1na2vs0mg"},{"bike_id":"bc653a93-244a-4887-8177-924221433b62","system_id":"levelo_inurba_marseille","lat":43.298433,"lon":5.362774,"is_reserved":false,"is_disabled":false,"rental_uris":{"android":"levelo://app?vid=bc653a93-244a-4887-8177-924221433b62","ios":"levelo://app?vid=bc653a93-244a-4887-8177-924221433b62"},"vehicle_type_id":"4","last_reported":1724530080,"current_range_meters":7200,"station_id":"ce4bgpp2rcd13ifvqc3g","pricing_plan_id":"cebpf4jnsgd1na2vs0mg"},{"bike_id":"f483c40a-6aa7-47c9-9954-309bd62484ed","system_id":"levelo_inurba_marseille","lat":43.298433,"lon":5.362774,"is_reserved":false,"is_disabled":false,"rental_uris":{"android":"levelo://app?vid=f483c40a-6aa7-47c9-9954-309bd62484ed","ios":"levelo://app?vid=f483c40a-6aa7-47c9-9954-309bd62484ed"},"vehicle_type_id":"4","last_reported":1724530080,"current_range_meters":14400,"station_id":"ce4bgpp2rcd13ifvqc3g","pricing_plan_id":"cebpf4jnsgd1na2vs0mg"},{"bike_id":"eccc8ebd-5122-468f-8f08-2e21ac2fb9b2","system_id":"levelo_inurba_marseille","lat":43.30536,"lon":5.3843,"is_reserved":false,"is_disabled":false,"rental_uris":{"android":"levelo://app?vid=eccc8ebd-5122-468f-8f08-2e21ac2fb9b2","ios":"levelo://app?vid=eccc8ebd-5122-468f-8f08-2e21ac2fb9b2"},"vehicle_type_id":"4","last_reported":1724530080,"current_range_meters":31200,"station_id":"ce4bgg92rcd13ifvqb30","pricing_plan_id":"cebpf4jnsgd1na2vs0mg"},{"bike_id":"dfa39666-5b35-4f89-a392-6496cd12cae0","system_id":"levelo_inurba_marseille","lat":43.305364,"lon":5.384119,"is_reserved":false,"is_disabled":false,"rental_uris":{"android":"levelo://app?vid=dfa39666-5b35-4f89-a392-6496cd12cae0","ios":"levelo://app?vid=dfa39666-5b35-4f89-a392-6496cd12cae0"},"vehicle_type_id":"4","last_reported":1724530080,"current_range_meters":31200,"station_id":"ce4bgg92rcd13ifvqb30","pricing_plan_id":"cebpf4jnsgd1na2vs0mg"},{"bike_id":"5ba55400-406c-4ee6-a88a-e78ef7e3e60e","system_id":"levelo_inurba_marseille","lat":43.30532,"lon":5.38434,"is_reserved":false,"is_disabled":false,"rental_uris":{"android":"levelo://app?vid=5ba55400-406c-4ee6-a88a-e78ef7e3e60e","ios":"levelo://app?vid=5ba55400-406c-4ee6-a88a-e78ef7e3e60e"},"vehicle_type_id":"4","last_reported":1724530080,"current_range_meters":31200,"station_id":"ce4bgg92rcd13ifvqb30","pricing_plan_id":"cebpf4jnsgd1na2vs0mg"},{"bike_id":"4e28303b-aca1-40fc-8f2a-d61178336ccc","system_id":"levelo_inurba_marseille","lat":43.311722,"lon":5.387247,"is_reserved":false,"is_disabled":false,"rental_uris":{"android":"levelo://app?vid=4e28303b-aca1-40fc-8f2a-d61178336ccc","ios":"levelo://app?vid=4e28303b-aca1-40fc-8f2a-d61178336ccc"},"vehicle_type_id":"4","last_reported":1724530080,"current_range_meters":29200,"station_id":"ce4bgv12rcd13ifvqcp0","pricing_plan_id":"cebpf4jnsgd1na2vs0mg"},{"bike_id":"4727fd31-7470-46e6-84a6-ab61d4ed7c09","system_id":"levelo_inurba_marseille","lat":43.311722,"lon":5.387247,"is_reserved":false,"is_disabled":false,"rental_uris":{"android":"levelo://app?vid=4727fd31-7470-46e6-84a6-ab61d4ed7c09","ios":"levelo://app?vid=4727fd31-7470-46e6-84a6-ab61d4ed7c09"},"vehicle_type_id":"4","last_reported":1724530080,"current_range_meters":16400,"station_id":"ce4bgv12rcd13ifvqcp0","pricing_plan_id":"cebpf4jnsgd1na2vs0mg"},{"bike_id":"d5a6ecd1-f79c-458d-83c0-411fdea6f83a","system_id":"levelo_inurba_marseille","lat":43.31177,"lon":5.38714,"is_reserved":false,"is_disabled":false,"rental_uris":{"android":"levelo://app?vid=d5a6ecd1-f79c-458d-83c0-411fdea6f83a","ios":"levelo://app?vid=d5a6ecd1-f79c-458d-83c0-411fdea6f83a"},"vehicle_type_id":"4","last_reported":1724530080,"current_range_meters":26400,"station_id":"ce4bgv12rcd13ifvqcp0","pricing_plan_id":"cebpf4jnsgd1na2vs0mg"},{"bike_id":"3560e68a-07b5-4773-89ef-5fc9bcc58b3e","system_id":"levelo_inurba_marseille","lat":43.299243,"lon":5.374807,"is_reserved":false,"is_disabled":false,"rental_uris":{"android":"levelo://app?vid=3560e68a-07b5-4773-89ef-5fc9bcc58b3e","ios":"levelo://app?vid=3560e68a-07b5-4773-89ef-5fc9bcc58b3e"},"vehicle_type_id":"4","last_reported":1724530080,"current_range_meters":18800,"station_id":"ce4bgjh2rcd13ifvqbg0","pricing_plan_id":"cebpf4jnsgd1na2vs0mg"},{"bike_id":"db98018d-846b-40b8-9dca-b8fde960d572","system_id":"levelo_inurba_marseille","lat":43.311722,"lon":5.387247,"is_reserved":false,"is_disabled":false,"rental_uris":{"android":"levelo://app?vid=db98018d-846b-40b8-9dca-b8fde960d572","ios":"levelo://app?vid=db98018d-846b-40b8-9dca-b8fde960d572"},"vehicle_type_id":"4","last_reported":1724530080,"current_range_meters":8400,"station_id":"ce4bgv12rcd13ifvqcp0","pricing_plan_id":"cebpf4jnsgd1na2vs0mg"},{"bike_id":"272db962-2ec2-44cd-b7bf-e9ed86f51896","system_id":"levelo_inurba_marseille","lat":43.311722,"lon":5.387247,"is_reserved":false,"is_disabled":false,"rental_uris":{"android":"levelo://app?vid=272db962-2ec2-44cd-b7bf-e9ed86f51896","ios":"levelo://app?vid=272db962-2ec2-44cd-b7bf-e9ed86f51896"},"vehicle_type_id":"4","last_reported":1724530080,"current_range_meters":29200,"station_id":"ce4bgv12rcd13ifvqcp0","pricing_plan_id":"cebpf4jnsgd1na2vs0mg"},{"bike_id":"abf567f1-a64d-42a4-897e-667d01ecd1d0","system_id":"levelo_inurba_marseille","lat":43.299243,"lon":5.374807,"is_reserved":false,"is_disabled":false,"rental_uris":{"android":"levelo://app?vid=abf567f1-a64d-42a4-897e-667d01ecd1d0","ios":"levelo://app?vid=abf567f1-a64d-42a4-897e-667d01ecd1d0"},"vehicle_type_id":"4","last_reported":1724530080,"current_range_meters":31200,"station_id":"ce4bgjh2rcd13ifvqbg0","pricing_plan_id":"cebpf4jnsgd1na2vs0mg"},{"bike_id":"2c058d47-87e5-41d8-bf6c-ba1b931d2040","system_id":"levelo_inurba_marseille","lat":43.301417,"lon":5.3809,"is_reserved":false,"is_disabled":false,"rental_uris":{"android":"levelo://app?vid=2c058d47-87e5-41d8-bf6c-ba1b931d2040","ios":"levelo://app?vid=2c058d47-87e5-41d8-bf6c-ba1b931d2040"},"vehicle_type_id":"4","last_reported":1724530080,"current_range_meters":0,"station_id":"ce4bgjp2rcd13ifvqbh0","pricing_plan_id":"cebpf4jnsgd1na2vs0mg"},{"bike_id":"f879cfd5-887b-4e4f-ae81-369a70abc595","system_id":"levelo_inurba_marseille","lat":43.29785,"lon":5.37111,"is_reserved":false,"is_disabled":false,"rental_uris":{"android":"levelo://app?vid=f879cfd5-887b-4e4f-ae81-369a70abc595","ios":"levelo://app?vid=f879cfd5-887b-4e4f-ae81-369a70abc595"},"vehicle_type_id":"4","last_reported":1724530080,"current_range_meters":25200,"station_id":"ce4bgop2rcd13ifvqc1g","pricing_plan_id":"cebpf4jnsgd1na2vs0mg"},{"bike_id":"43637faa-bc57-4af9-9031-ccf7137dafc6","system_id":"levelo_inurba_marseille","lat":43.32292,"lon":5.38258,"is_reserved":false,"is_disabled":false,"rental_uris":{"android":"levelo://app?vid=43637faa-bc57-4af9-9031-ccf7137dafc6","ios":"levelo://app?vid=43637faa-bc57-4af9-9031-ccf7137dafc6"},"vehicle_type_id":"4","last_reported":1724530080,"current_range_meters":22400,"station_id":"ce4bhr12rcd13ifvqhqg","pricing_plan_id":"cebpf4jnsgd1na2vs0mg"},{"bike_id":"1e43b990-f5bd-48c6-b6d8-864f145d3903","system_id":"levelo_inurba_marseille","lat":43.297794,"lon":5.370888,"is_reserved":false,"is_disabled":false,"rental_uris":{"android":"levelo://app?vid=1e43b990-f5bd-48c6-b6d8-864f145d3903","ios":"levelo://app?vid=1e43b990-f5bd-48c6-b6d8-864f145d3903"},"vehicle_type_id":"4","last_reported":1724530080,"current_range_meters":0,"station_id":"ce4bgop2rcd13ifvqc1g","pricing_plan_id":"cebpf4jnsgd1na2vs0mg"},{"bike_id":"52f2b856-abe3-4152-ae66-afd8a6aeab43","system_id":"levelo_inurba_marseille","lat":43.322872,"lon":5.382756,"is_reserved":false,"is_disabled":false,"rental_uris":{"android":"levelo://app?vid=52f2b856-abe3-4152-ae66-afd8a6aeab43","ios":"levelo://app?vid=52f2b856-abe3-4152-ae66-afd8a6aeab43"},"vehicle_type_id":"4","last_reported":1724530080,"current_range_meters":25200,"station_id":"ce4bhr12rcd13ifvqhqg","pricing_plan_id":"cebpf4jnsgd1na2vs0mg"},{"bike_id":"925db455-f6f3-49ae-b5b7-47b73e879937","system_id":"levelo_inurba_marseille","lat":43.322872,"lon":5.382756,"is_reserved":false,"is_disabled":false,"rental_uris":{"android":"levelo://app?vid=925db455-f6f3-49ae-b5b7-47b73e879937","ios":"levelo://app?vid=925db455-f6f3-49ae-b5b7-47b73e879937"},"vehicle_type_id":"4","last_reported":1724530080,"current_range_meters":24000,"station_id":"ce4bhr12rcd13ifvqhqg","pricing_plan_id":"cebpf4jnsgd1na2vs0mg"},{"bike_id":"fd90e14d-7b48-4d04-b776-88961e2b1a15","system_id":"levelo_inurba_marseille","lat":43.322872,"lon":5.382756,"is_reserved":false,"is_disabled":false,"rental_uris":{"android":"levelo://app?vid=fd90e14d-7b48-4d04-b776-88961e2b1a15","ios":"levelo://app?vid=fd90e14d-7b48-4d04-b776-88961e2b1a15"},"vehicle_type_id":"4","last_reported":1724530080,"current_range_meters":0,"station_id":"ce4bhr12rcd13ifvqhqg","pricing_plan_id":"cebpf4jnsgd1na2vs0mg"},{"bike_id":"8b4f9df5-a0ab-4be3-b4c2-26baf353f190","system_id":"levelo_inurba_marseille","lat":43.297163,"lon":5.365866,"is_reserved":false,"is_disabled":false,"rental_uris":{"android":"levelo://app?vid=8b4f9df5-a0ab-4be3-b4c2-26baf353f190","ios":"levelo://app?vid=8b4f9df5-a0ab-4be3-b4c2-26baf353f190"},"vehicle_type_id":"4","last_reported":1724530080,"current_range_meters":12800,"station_id":"ce4bgn12rcd13ifvqbt0","pricing_plan_id":"cebpf4jnsgd1na2vs0mg"},{"bike_id":"6cef0845-1195-4735-8c9c-fee2141cd4ae","system_id":"levelo_inurba_marseille","lat":43.297163,"lon":5.365866,"is_reserved":false,"is_disabled":false,"rental_uris":{"android":"levelo://app?vid=6cef0845-1195-4735-8c9c-fee2141cd4ae","ios":"levelo://app?vid=6cef0845-1195-4735-8c9c-fee2141cd4ae"},"vehicle_type_id":"4","last_reported":1724530080,"current_range_meters":22400,"station_id":"ce4bgn12rcd13ifvqbt0","pricing_plan_id":"cebpf4jnsgd1na2vs0mg"},{"bike_id":"7164f537-dde5-4f99-8044-f435e592c7a1","system_id":"levelo_inurba_marseille","lat":43.297163,"lon":5.365866,"is_reserved":false,"is_disabled":false,"rental_uris":{"android":"levelo://app?vid=7164f537-dde5-4f99-8044-f435e592c7a1","ios":"levelo://app?vid=7164f537-dde5-4f99-8044-f435e592c7a1"},"vehicle_type_id":"4","last_reported":1724530080,"current_range_meters":31200,"station_id":"ce4bgn12rcd13ifvqbt0","pricing_plan_id":"cebpf4jnsgd1na2vs0mg"},{"bike_id":"7ca58f7a-8880-4571-b596-21105ad2208e","system_id":"levelo_inurba_marseille","lat":43.297163,"lon":5.365866,"is_reserved":false,"is_disabled":false,"rental_uris":{"android":"levelo://app?vid=7ca58f7a-8880-4571-b596-21105ad2208e","ios":"levelo://app?vid=7ca58f7a-8880-4571-b596-21105ad2208e"},"vehicle_type_id":"4","last_reported":1724530080,"current_range_meters":28000,"station_id":"ce4bgn12rcd13ifvqbt0","pricing_plan_id":"cebpf4jnsgd1na2vs0mg"},{"bike_id":"f27aa495-64e6-4292-9999-5c71e6900231","system_id":"levelo_inurba_marseille","lat":43.29573,"lon":5.367355,"is_reserved":false,"is_disabled":false,"rental_uris":{"android":"levelo://app?vid=f27aa495-64e6-4292-9999-5c71e6900231","ios":"levelo://app?vid=f27aa495-64e6-4292-9999-5c71e6900231"},"vehicle_type_id":"4","last_reported":1724530080,"current_range_meters":15600,"station_id":"ce4bgph2rcd13ifvqc2g","pricing_plan_id":"cebpf4jnsgd1na2vs0mg"},{"bike_id":"9e866102-bdbd-4be2-b2e6-096b1630504e","system_id":"levelo_inurba_marseille","lat":43.296131,"lon":5.370773,"is_reserved":false,"is_disabled":false,"rental_uris":{"android":"levelo://app?vid=9e866102-bdbd-4be2-b2e6-096b1630504e","ios":"levelo://app?vid=9e866102-bdbd-4be2-b2e6-096b1630504e"},"vehicle_type_id":"4","last_reported":1724530080,"current_range_meters":22800,"station_id":"ce4bgnh2rcd13ifvqc0g","pricing_plan_id":"cebpf4jnsgd1na2vs0mg"},{"bike_id":"651413ca-8bc5-43ee-9948-7dd077daa843","system_id":"levelo_inurba_marseille","lat":43.29586,"lon":5.36738,"is_reserved":false,"is_disabled":false,"rental_uris":{"android":"levelo://app?vid=651413ca-8bc5-43ee-9948-7dd077daa843","ios":"levelo://app?vid=651413ca-8bc5-43ee-9948-7dd077daa843"},"vehicle_type_id":"4","last_reported":1724530080,"current_range_meters":21600,"station_id":"ce4bgph2rcd13ifvqc2g","pricing_plan_id":"cebpf4jnsgd1na2vs0mg"},{"bike_id":"5a5037af-7f52-4f55-ac1b-6bf2b60f224e","system_id":"levelo_inurba_marseille","lat":43.296131,"lon":5.370773,"is_reserved":false,"is_disabled":false,"rental_uris":{"android":"levelo://app?vid=5a5037af-7f52-4f55-ac1b-6bf2b60f224e","ios":"levelo://app?vid=5a5037af-7f52-4f55-ac1b-6bf2b60f224e"},"vehicle_type_id":"4","last_reported":1724530080,"current_range_meters":800,"station_id":"ce4bgnh2rcd13ifvqc0g","pricing_plan_id":"cebpf4jnsgd1na2vs0mg"},{"bike_id":"821965ad-6091-4cc6-81c8-2e8135c73e40","system_id":"levelo_inurba_marseille","lat":43.29585,"lon":5.3673,"is_reserved":false,"is_disabled":false,"rental_uris":{"android":"levelo://app?vid=821965ad-6091-4cc6-81c8-2e8135c73e40","ios":"levelo://app?vid=821965ad-6091-4cc6-81c8-2e8135c73e40"},"vehicle_type_id":"4","last_reported":1724530080,"current_range_meters":9600,"station_id":"ce4bgph2rcd13ifvqc2g","pricing_plan_id":"cebpf4jnsgd1na2vs0mg"},{"bike_id":"58c64f24-57a1-43a8-be1d-2b726371d95a","system_id":"levelo_inurba_marseille","lat":43.29582,"lon":5.36744,"is_reserved":false,"is_disabled":false,"rental_uris":{"android":"levelo://app?vid=58c64f24-57a1-43a8-be1d-2b726371d95a","ios":"levelo://app?vid=58c64f24-57a1-43a8-be1d-2b726371d95a"},"vehicle_type_id":"4","last_reported":1724530080,"current_range_meters":31200,"station_id":"ce4bgph2rcd13ifvqc2g","pricing_plan_id":"cebpf4jnsgd1na2vs0mg"},{"bike_id":"d9e83148-5673-4b1e-b4d5-9deb4cfc501d","system_id":"levelo_inurba_marseille","lat":43.29573,"lon":5.367355,"is_reserved":false,"is_disabled":false,"rental_uris":{"android":"levelo://app?vid=d9e83148-5673-4b1e-b4d5-9deb4cfc501d","ios":"levelo://app?vid=d9e83148-5673-4b1e-b4d5-9deb4cfc501d"},"vehicle_type_id":"4","last_reported":1724530080,"current_range_meters":13200,"station_id":"ce4bgph2rcd13ifvqc2g","pricing_plan_id":"cebpf4jnsgd1na2vs0mg"},{"bike_id":"ac16f54d-14a0-4444-83d8-36265ee53c56","system_id":"levelo_inurba_marseille","lat":43.2958,"lon":5.367383,"is_reserved":false,"is_disabled":false,"rental_uris":{"android":"levelo://app?vid=ac16f54d-14a0-4444-83d8-36265ee53c56","ios":"levelo://app?vid=ac16f54d-14a0-4444-83d8-36265ee53c56"},"vehicle_type_id":"4","last_reported":1724530080,"current_range_meters":31200,"station_id":"ce4bgph2rcd13ifvqc2g","pricing_plan_id":"cebpf4jnsgd1na2vs0mg"},{"bike_id":"4b2ab397-9542-4f90-9541-0c4cf77ddf80","system_id":"levelo_inurba_marseille","lat":43.29573,"lon":5.367355,"is_reserved":false,"is_disabled":false,"rental_uris":{"android":"levelo://app?vid=4b2ab397-9542-4f90-9541-0c4cf77ddf80","ios":"levelo://app?vid=4b2ab397-9542-4f90-9541-0c4cf77ddf80"},"vehicle_type_id":"4","last_reported":1724530080,"current_range_meters":27600,"station_id":"ce4bgph2rcd13ifvqc2g","pricing_plan_id":"cebpf4jnsgd1na2vs0mg"},{"bike_id":"4b48f343-40b3-4790-9c91-3d5bbd61ecb0","system_id":"levelo_inurba_marseille","lat":43.29587,"lon":5.36999,"is_reserved":false,"is_disabled":false,"rental_uris":{"android":"levelo://app?vid=4b48f343-40b3-4790-9c91-3d5bbd61ecb0","ios":"levelo://app?vid=4b48f343-40b3-4790-9c91-3d5bbd61ecb0"},"vehicle_type_id":"4","last_reported":1724530080,"current_range_meters":31200,"station_id":"","pricing_plan_id":"cebpf4jnsgd1na2vs0mg"},{"bike_id":"7286df84-5937-40a2-8681-3dec6b54d84a","system_id":"levelo_inurba_marseille","lat":43.296921,"lon":5.376579,"is_reserved":false,"is_disabled":false,"rental_uris":{"android":"levelo://app?vid=7286df84-5937-40a2-8681-3dec6b54d84a","ios":"levelo://app?vid=7286df84-5937-40a2-8681-3dec6b54d84a"},"vehicle_type_id":"4","last_reported":1724530080,"current_range_meters":17600,"station_id":"ce4bgkh2rcd13ifvqbl0","pricing_plan_id":"cebpf4jnsgd1na2vs0mg"},{"bike_id":"77c4ebd4-0496-4192-ad02-dd0852535265","system_id":"levelo_inurba_marseille","lat":43.296921,"lon":5.376579,"is_reserved":false,"is_disabled":false,"rental_uris":{"android":"levelo://app?vid=77c4ebd4-0496-4192-ad02-dd0852535265","ios":"levelo://app?vid=77c4ebd4-0496-4192-ad02-dd0852535265"},"vehicle_type_id":"4","last_reported":1724530080,"current_range_meters":31200,"station_id":"ce4bgkh2rcd13ifvqbl0","pricing_plan_id":"cebpf4jnsgd1na2vs0mg"},{"bike_id":"0f80e4a7-dd24-4bcb-898e-d82ea20cfec9","system_id":"levelo_inurba_marseille","lat":43.2963,"lon":5.36031,"is_reserved":false,"is_disabled":false,"rental_uris":{"android":"levelo://app?vid=0f80e4a7-dd24-4bcb-898e-d82ea20cfec9","ios":"levelo://app?vid=0f80e4a7-dd24-4bcb-898e-d82ea20cfec9"},"vehicle_type_id":"4","last_reported":1724530080,"current_range_meters":2800,"station_id":"","pricing_plan_id":"cebpf4jnsgd1na2vs0mg"},{"bike_id":"efe9d10c-3bc7-4549-934e-a7fa2a8172a8","system_id":"levelo_inurba_marseille","lat":43.296935,"lon":5.376544,"is_reserved":false,"is_disabled":false,"rental_uris":{"android":"levelo://app?vid=efe9d10c-3bc7-4549-934e-a7fa2a8172a8","ios":"levelo://app?vid=efe9d10c-3bc7-4549-934e-a7fa2a8172a8"},"vehicle_type_id":"4","last_reported":1724530080,"current_range_meters":28000,"station_id":"ce4bgkh2rcd13ifvqbl0","pricing_plan_id":"cebpf4jnsgd1na2vs0mg"},{"bike_id":"454e6194-cc2d-411b-b4d1-54707573f027","system_id":"levelo_inurba_marseille","lat":43.296935,"lon":5.376544,"is_reserved":false,"is_disabled":false,"rental_uris":{"android":"levelo://app?vid=454e6194-cc2d-411b-b4d1-54707573f027","ios":"levelo://app?vid=454e6194-cc2d-411b-b4d1-54707573f027"},"vehicle_type_id":"4","last_reported":1724530080,"current_range_meters":21200,"station_id":"ce4bgkh2rcd13ifvqbl0","pricing_plan_id":"cebpf4jnsgd1na2vs0mg"},{"bike_id":"f7c7965f-05e5-48de-9dfd-bc2ed76058f0","system_id":"levelo_inurba_marseille","lat":43.296921,"lon":5.376579,"is_reserved":false,"is_disabled":false,"rental_uris":{"android":"levelo://app?vid=f7c7965f-05e5-48de-9dfd-bc2ed76058f0","ios":"levelo://app?vid=f7c7965f-05e5-48de-9dfd-bc2ed76058f0"},"vehicle_type_id":"4","last_reported":1724530080,"current_range_meters":5200,"station_id":"ce4bgkh2rcd13ifvqbl0","pricing_plan_id":"cebpf4jnsgd1na2vs0mg"},{"bike_id":"9a921e04-d0be-4449-9771-3b0f8fbab620","system_id":"levelo_inurba_marseille","lat":43.30955,"lon":5.39019,"is_reserved":false,"is_disabled":false,"rental_uris":{"android":"levelo://app?vid=9a921e04-d0be-4449-9771-3b0f8fbab620","ios":"levelo://app?vid=9a921e04-d0be-4449-9771-3b0f8fbab620"},"vehicle_type_id":"4","last_reported":1724530080,"current_range_meters":31200,"station_id":"ce4bgup2rcd13ifvqco0","pricing_plan_id":"cebpf4jnsgd1na2vs0mg"},{"bike_id":"46ee0dec-0485-4ab7-8cb2-e0c4127406bb","system_id":"levelo_inurba_marseille","lat":43.30954,"lon":5.39019,"is_reserved":false,"is_disabled":false,"rental_uris":{"android":"levelo://app?vid=46ee0dec-0485-4ab7-8cb2-e0c4127406bb","ios":"levelo://app?vid=46ee0dec-0485-4ab7-8cb2-e0c4127406bb"},"vehicle_type_id":"4","last_reported":1724530080,"current_range_meters":8000,"station_id":"ce4bgup2rcd13ifvqco0","pricing_plan_id":"cebpf4jnsgd1na2vs0mg"},{"bike_id":"bb75b799-510a-4385-bc27-8150f3ecb136","system_id":"levelo_inurba_marseille","lat":43.30954,"lon":5.39019,"is_reserved":false,"is_disabled":false,"rental_uris":{"android":"levelo://app?vid=bb75b799-510a-4385-bc27-8150f3ecb136","ios":"levelo://app?vid=bb75b799-510a-4385-bc27-8150f3ecb136"},"vehicle_type_id":"4","last_reported":1724530080,"current_range_meters":26400,"station_id":"ce4bgup2rcd13ifvqco0","pricing_plan_id":"cebpf4jnsgd1na2vs0mg"},{"bike_id":"8183af86-9799-420c-9e27-d00dc47b48df","system_id":"levelo_inurba_marseille","lat":43.299028,"lon":5.381509,"is_reserved":false,"is_disabled":false,"rental_uris":{"android":"levelo://app?vid=8183af86-9799-420c-9e27-d00dc47b48df","ios":"levelo://app?vid=8183af86-9799-420c-9e27-d00dc47b48df"},"vehicle_type_id":"4","last_reported":1724530080,"current_range_meters":4400,"station_id":"ce4bgj12rcd13ifvqbc0","pricing_plan_id":"cebpf4jnsgd1na2vs0mg"},{"bike_id":"aa131f65-d306-4260-9ae4-a0d2a9bb0c31","system_id":"levelo_inurba_marseille","lat":43.30952,"lon":5.39019,"is_reserved":false,"is_disabled":false,"rental_uris":{"android":"levelo://app?vid=aa131f65-d306-4260-9ae4-a0d2a9bb0c31","ios":"levelo://app?vid=aa131f65-d306-4260-9ae4-a0d2a9bb0c31"},"vehicle_type_id":"4","last_reported":1724530080,"current_range_meters":31200,"station_id":"ce4bgup2rcd13ifvqco0","pricing_plan_id":"cebpf4jnsgd1na2vs0mg"},{"bike_id":"321f0ed6-e8a2-4f2f-9832-290ea95398a0","system_id":"levelo_inurba_marseille","lat":43.30962,"lon":5.39023,"is_reserved":false,"is_disabled":false,"rental_uris":{"android":"levelo://app?vid=321f0ed6-e8a2-4f2f-9832-290ea95398a0","ios":"levelo://app?vid=321f0ed6-e8a2-4f2f-9832-290ea95398a0"},"vehicle_type_id":"4","last_reported":1724530080,"current_range_meters":31200,"station_id":"ce4bgup2rcd13ifvqco0","pricing_plan_id":"cebpf4jnsgd1na2vs0mg"},{"bike_id":"48b8f24a-2104-46f0-ace3-147f51ac19dd","system_id":"levelo_inurba_marseille","lat":43.30946,"lon":5.3902,"is_reserved":false,"is_disabled":false,"rental_uris":{"android":"levelo://app?vid=48b8f24a-2104-46f0-ace3-147f51ac19dd","ios":"levelo://app?vid=48b8f24a-2104-46f0-ace3-147f51ac19dd"},"vehicle_type_id":"4","last_reported":1724530080,"current_range_meters":14800,"station_id":"ce4bgup2rcd13ifvqco0","pricing_plan_id":"cebpf4jnsgd1na2vs0mg"},{"bike_id":"6991547e-02cb-4933-bc6c-0560622c9a3f","system_id":"levelo_inurba_marseille","lat":43.30961,"lon":5.39025,"is_reserved":false,"is_disabled":false,"rental_uris":{"android":"levelo://app?vid=6991547e-02cb-4933-bc6c-0560622c9a3f","ios":"levelo://app?vid=6991547e-02cb-4933-bc6c-0560622c9a3f"},"vehicle_type_id":"4","last_reported":1724530080,"current_range_meters":30400,"station_id":"ce4bgup2rcd13ifvqco0","pricing_plan_id":"cebpf4jnsgd1na2vs0mg"},{"bike_id":"f9e18d6f-021e-47a5-a4fd-ccefb5144dc4","system_id":"levelo_inurba_marseille","lat":43.299028,"lon":5.381509,"is_reserved":false,"is_disabled":false,"rental_uris":{"android":"levelo://app?vid=f9e18d6f-021e-47a5-a4fd-ccefb5144dc4","ios":"levelo://app?vid=f9e18d6f-021e-47a5-a4fd-ccefb5144dc4"},"vehicle_type_id":"4","last_reported":1724530080,"current_range_meters":5600,"station_id":"ce4bgj12rcd13ifvqbc0","pricing_plan_id":"cebpf4jnsgd1na2vs0mg"},{"bike_id":"ba262169-342d-4d62-9c84-8dc6b5e7a0bd","system_id":"levelo_inurba_marseille","lat":43.30953,"lon":5.39025,"is_reserved":false,"is_disabled":false,"rental_uris":{"android":"levelo://app?vid=ba262169-342d-4d62-9c84-8dc6b5e7a0bd","ios":"levelo://app?vid=ba262169-342d-4d62-9c84-8dc6b5e7a0bd"},"vehicle_type_id":"4","last_reported":1724530080,"current_range_meters":22800,"station_id":"ce4bgup2rcd13ifvqco0","pricing_plan_id":"cebpf4jnsgd1na2vs0mg"},{"bike_id":"6f009f1d-88f9-4bc5-8d68-5511f7a1e04a","system_id":"levelo_inurba_marseille","lat":43.309589,"lon":5.390258,"is_reserved":false,"is_disabled":false,"rental_uris":{"android":"levelo://app?vid=6f009f1d-88f9-4bc5-8d68-5511f7a1e04a","ios":"levelo://app?vid=6f009f1d-88f9-4bc5-8d68-5511f7a1e04a"},"vehicle_type_id":"4","last_reported":1724530080,"current_range_meters":10800,"station_id":"ce4bgup2rcd13ifvqco0","pricing_plan_id":"cebpf4jnsgd1na2vs0mg"},{"bike_id":"288209d1-1ffe-43ee-a9f2-4f52f9abc251","system_id":"levelo_inurba_marseille","lat":43.30951,"lon":5.39025,"is_reserved":false,"is_disabled":false,"rental_uris":{"android":"levelo://app?vid=288209d1-1ffe-43ee-a9f2-4f52f9abc251","ios":"levelo://app?vid=288209d1-1ffe-43ee-a9f2-4f52f9abc251"},"vehicle_type_id":"4","last_reported":1724530080,"current_range_meters":31200,"station_id":"ce4bgup2rcd13ifvqco0","pricing_plan_id":"cebpf4jnsgd1na2vs0mg"},{"bike_id":"2ead6eec-5482-456b-b009-5514130c169d","system_id":"levelo_inurba_marseille","lat":43.30956,"lon":5.39027,"is_reserved":false,"is_disabled":false,"rental_uris":{"android":"levelo://app?vid=2ead6eec-5482-456b-b009-5514130c169d","ios":"levelo://app?vid=2ead6eec-5482-456b-b009-5514130c169d"},"vehicle_type_id":"4","last_reported":1724530080,"current_range_meters":8000,"station_id":"ce4bgup2rcd13ifvqco0","pricing_plan_id":"cebpf4jnsgd1na2vs0mg"},{"bike_id":"f2516350-da83-45bf-8d55-f8022bd88c99","system_id":"levelo_inurba_marseille","lat":43.309589,"lon":5.390258,"is_reserved":false,"is_disabled":false,"rental_uris":{"android":"levelo://app?vid=f2516350-da83-45bf-8d55-f8022bd88c99","ios":"levelo://app?vid=f2516350-da83-45bf-8d55-f8022bd88c99"},"vehicle_type_id":"4","last_reported":1724530080,"current_range_meters":12000,"station_id":"ce4bgup2rcd13ifvqco0","pricing_plan_id":"cebpf4jnsgd1na2vs0mg"},{"bike_id":"287d51a3-6713-4187-8ee3-2e455dbdf2a1","system_id":"levelo_inurba_marseille","lat":43.309589,"lon":5.390258,"is_reserved":false,"is_disabled":false,"rental_uris":{"android":"levelo://app?vid=287d51a3-6713-4187-8ee3-2e455dbdf2a1","ios":"levelo://app?vid=287d51a3-6713-4187-8ee3-2e455dbdf2a1"},"vehicle_type_id":"4","last_reported":1724530080,"current_range_meters":16800,"station_id":"ce4bgup2rcd13ifvqco0","pricing_plan_id":"cebpf4jnsgd1na2vs0mg"},{"bike_id":"71a1e8b5-f8e4-4b4f-b204-f9aa079cea45","system_id":"levelo_inurba_marseille","lat":43.30955,"lon":5.39029,"is_reserved":false,"is_disabled":false,"rental_uris":{"android":"levelo://app?vid=71a1e8b5-f8e4-4b4f-b204-f9aa079cea45","ios":"levelo://app?vid=71a1e8b5-f8e4-4b4f-b204-f9aa079cea45"},"vehicle_type_id":"4","last_reported":1724530080,"current_range_meters":29600,"station_id":"ce4bgup2rcd13ifvqco0","pricing_plan_id":"cebpf4jnsgd1na2vs0mg"},{"bike_id":"157109c3-ac61-49ac-ba4d-85183bd9e1db","system_id":"levelo_inurba_marseille","lat":43.30951,"lon":5.39028,"is_reserved":false,"is_disabled":false,"rental_uris":{"android":"levelo://app?vid=157109c3-ac61-49ac-ba4d-85183bd9e1db","ios":"levelo://app?vid=157109c3-ac61-49ac-ba4d-85183bd9e1db"},"vehicle_type_id":"4","last_reported":1724530080,"current_range_meters":31200,"station_id":"ce4bgup2rcd13ifvqco0","pricing_plan_id":"cebpf4jnsgd1na2vs0mg"},{"bike_id":"1a9c2300-161c-4b74-909e-dd76749394b6","system_id":"levelo_inurba_marseille","lat":43.30952,"lon":5.39029,"is_reserved":false,"is_disabled":false,"rental_uris":{"android":"levelo://app?vid=1a9c2300-161c-4b74-909e-dd76749394b6","ios":"levelo://app?vid=1a9c2300-161c-4b74-909e-dd76749394b6"},"vehicle_type_id":"4","last_reported":1724530080,"current_range_meters":23600,"station_id":"ce4bgup2rcd13ifvqco0","pricing_plan_id":"cebpf4jnsgd1na2vs0mg"},{"bike_id":"7a701c9e-ea4f-4dd9-bce7-888dbdb7ee82","system_id":"levelo_inurba_marseille","lat":43.30952,"lon":5.39029,"is_reserved":false,"is_disabled":false,"rental_uris":{"android":"levelo://app?vid=7a701c9e-ea4f-4dd9-bce7-888dbdb7ee82","ios":"levelo://app?vid=7a701c9e-ea4f-4dd9-bce7-888dbdb7ee82"},"vehicle_type_id":"4","last_reported":1724530080,"current_range_meters":31200,"station_id":"ce4bgup2rcd13ifvqco0","pricing_plan_id":"cebpf4jnsgd1na2vs0mg"},{"bike_id":"1262eb1e-037e-42a2-b7c8-075c41b853c9","system_id":"levelo_inurba_marseille","lat":43.30948,"lon":5.39029,"is_reserved":false,"is_disabled":false,"rental_uris":{"android":"levelo://app?vid=1262eb1e-037e-42a2-b7c8-075c41b853c9","ios":"levelo://app?vid=1262eb1e-037e-42a2-b7c8-075c41b853c9"},"vehicle_type_id":"4","last_reported":1724530080,"current_range_meters":8800,"station_id":"ce4bgup2rcd13ifvqco0","pricing_plan_id":"cebpf4jnsgd1na2vs0mg"},{"bike_id":"92ea1144-8ded-49dc-a4c7-fb8bf73188ce","system_id":"levelo_inurba_marseille","lat":43.309589,"lon":5.390258,"is_reserved":false,"is_disabled":false,"rental_uris":{"android":"levelo://app?vid=92ea1144-8ded-49dc-a4c7-fb8bf73188ce","ios":"levelo://app?vid=92ea1144-8ded-49dc-a4c7-fb8bf73188ce"},"vehicle_type_id":"4","last_reported":1724530080,"current_range_meters":24000,"station_id":"ce4bgup2rcd13ifvqco0","pricing_plan_id":"cebpf4jnsgd1na2vs0mg"},{"bike_id":"622af5a7-cba4-4031-8515-b7f20b474804","system_id":"levelo_inurba_marseille","lat":43.309589,"lon":5.390258,"is_reserved":false,"is_disabled":false,"rental_uris":{"android":"levelo://app?vid=622af5a7-cba4-4031-8515-b7f20b474804","ios":"levelo://app?vid=622af5a7-cba4-4031-8515-b7f20b474804"},"vehicle_type_id":"4","last_reported":1724530080,"current_range_meters":28400,"station_id":"ce4bgup2rcd13ifvqco0","pricing_plan_id":"cebpf4jnsgd1na2vs0mg"},{"bike_id":"24e60863-f82c-47d3-8c58-25d942be02ce","system_id":"levelo_inurba_marseille","lat":43.309589,"lon":5.390258,"is_reserved":false,"is_disabled":false,"rental_uris":{"android":"levelo://app?vid=24e60863-f82c-47d3-8c58-25d942be02ce","ios":"levelo://app?vid=24e60863-f82c-47d3-8c58-25d942be02ce"},"vehicle_type_id":"4","last_reported":1724530080,"current_range_meters":17600,"station_id":"ce4bgup2rcd13ifvqco0","pricing_plan_id":"cebpf4jnsgd1na2vs0mg"},{"bike_id":"470f6c6b-0b49-4f37-a3a4-37a5beb2b8be","system_id":"levelo_inurba_marseille","lat":43.30952,"lon":5.39031,"is_reserved":false,"is_disabled":false,"rental_uris":{"android":"levelo://app?vid=470f6c6b-0b49-4f37-a3a4-37a5beb2b8be","ios":"levelo://app?vid=470f6c6b-0b49-4f37-a3a4-37a5beb2b8be"},"vehicle_type_id":"4","last_reported":1724530080,"current_range_meters":8800,"station_id":"ce4bgup2rcd13ifvqco0","pricing_plan_id":"cebpf4jnsgd1na2vs0mg"},{"bike_id":"60945535-1301-4e98-b34f-6a97b247b33e","system_id":"levelo_inurba_marseille","lat":43.3095,"lon":5.39031,"is_reserved":false,"is_disabled":false,"rental_uris":{"android":"levelo://app?vid=60945535-1301-4e98-b34f-6a97b247b33e","ios":"levelo://app?vid=60945535-1301-4e98-b34f-6a97b247b33e"},"vehicle_type_id":"4","last_reported":1724530080,"current_range_meters":30800,"station_id":"ce4bgup2rcd13ifvqco0","pricing_plan_id":"cebpf4jnsgd1na2vs0mg"},{"bike_id":"8042725f-4bb2-41a7-87ed-6986cc736c43","system_id":"levelo_inurba_marseille","lat":43.30949,"lon":5.39031,"is_reserved":false,"is_disabled":false,"rental_uris":{"android":"levelo://app?vid=8042725f-4bb2-41a7-87ed-6986cc736c43","ios":"levelo://app?vid=8042725f-4bb2-41a7-87ed-6986cc736c43"},"vehicle_type_id":"4","last_reported":1724530080,"current_range_meters":21200,"station_id":"ce4bgup2rcd13ifvqco0","pricing_plan_id":"cebpf4jnsgd1na2vs0mg"},{"bike_id":"3941be20-a122-490c-b86c-49818da71e3c","system_id":"levelo_inurba_marseille","lat":43.309589,"lon":5.390258,"is_reserved":false,"is_disabled":false,"rental_uris":{"android":"levelo://app?vid=3941be20-a122-490c-b86c-49818da71e3c","ios":"levelo://app?vid=3941be20-a122-490c-b86c-49818da71e3c"},"vehicle_type_id":"4","last_reported":1724530080,"current_range_meters":23600,"station_id":"ce4bgup2rcd13ifvqco0","pricing_plan_id":"cebpf4jnsgd1na2vs0mg"},{"bike_id":"d995e59f-8565-4798-b703-025c4f18eca8","system_id":"levelo_inurba_marseille","lat":43.30952,"lon":5.39032,"is_reserved":false,"is_disabled":false,"rental_uris":{"android":"levelo://app?vid=d995e59f-8565-4798-b703-025c4f18eca8","ios":"levelo://app?vid=d995e59f-8565-4798-b703-025c4f18eca8"},"vehicle_type_id":"4","last_reported":1724530080,"current_range_meters":6000,"station_id":"ce4bgup2rcd13ifvqco0","pricing_plan_id":"cebpf4jnsgd1na2vs0mg"},{"bike_id":"6fb85fc5-8215-4242-a89f-1e86d5325de3","system_id":"levelo_inurba_marseille","lat":43.309589,"lon":5.390258,"is_reserved":false,"is_disabled":false,"rental_uris":{"android":"levelo://app?vid=6fb85fc5-8215-4242-a89f-1e86d5325de3","ios":"levelo://app?vid=6fb85fc5-8215-4242-a89f-1e86d5325de3"},"vehicle_type_id":"4","last_reported":1724530080,"current_range_meters":6800,"station_id":"ce4bgup2rcd13ifvqco0","pricing_plan_id":"cebpf4jnsgd1na2vs0mg"},{"bike_id":"9c82310e-f0b1-40ed-bbcb-c9c01e975d38","system_id":"levelo_inurba_marseille","lat":43.309514,"lon":5.390319,"is_reserved":false,"is_disabled":false,"rental_uris":{"android":"levelo://app?vid=9c82310e-f0b1-40ed-bbcb-c9c01e975d38","ios":"levelo://app?vid=9c82310e-f0b1-40ed-bbcb-c9c01e975d38"},"vehicle_type_id":"4","last_reported":1724530080,"current_range_meters":20400,"station_id":"","pricing_plan_id":"cebpf4jnsgd1na2vs0mg"},{"bike_id":"4735e798-061a-4583-8e86-ad45c8a48554","system_id":"levelo_inurba_marseille","lat":43.309589,"lon":5.390258,"is_reserved":false,"is_disabled":false,"rental_uris":{"android":"levelo://app?vid=4735e798-061a-4583-8e86-ad45c8a48554","ios":"levelo://app?vid=4735e798-061a-4583-8e86-ad45c8a48554"},"vehicle_type_id":"4","last_reported":1724530080,"current_range_meters":28000,"station_id":"ce4bgup2rcd13ifvqco0","pricing_plan_id":"cebpf4jnsgd1na2vs0mg"},{"bike_id":"b61c134e-ec20-47e8-b3ba-aafecdec5d8d","system_id":"levelo_inurba_marseille","lat":43.309589,"lon":5.390258,"is_reserved":false,"is_disabled":false,"rental_uris":{"android":"levelo://app?vid=b61c134e-ec20-47e8-b3ba-aafecdec5d8d","ios":"levelo://app?vid=b61c134e-ec20-47e8-b3ba-aafecdec5d8d"},"vehicle_type_id":"4","last_reported":1724530080,"current_range_meters":29600,"station_id":"ce4bgup2rcd13ifvqco0","pricing_plan_id":"cebpf4jnsgd1na2vs0mg"},{"bike_id":"b75c997c-e3e8-418e-af75-d9723743bdd2","system_id":"levelo_inurba_marseille","lat":43.30956,"lon":5.39034,"is_reserved":false,"is_disabled":false,"rental_uris":{"android":"levelo://app?vid=b75c997c-e3e8-418e-af75-d9723743bdd2","ios":"levelo://app?vid=b75c997c-e3e8-418e-af75-d9723743bdd2"},"vehicle_type_id":"4","last_reported":1724530080,"current_range_meters":31200,"station_id":"ce4bgup2rcd13ifvqco0","pricing_plan_id":"cebpf4jnsgd1na2vs0mg"},{"bike_id":"442ef72c-eed1-4160-a25e-8727d224e876","system_id":"levelo_inurba_marseille","lat":43.30956,"lon":5.39034,"is_reserved":false,"is_disabled":false,"rental_uris":{"android":"levelo://app?vid=442ef72c-eed1-4160-a25e-8727d224e876","ios":"levelo://app?vid=442ef72c-eed1-4160-a25e-8727d224e876"},"vehicle_type_id":"4","last_reported":1724530080,"current_range_meters":9600,"station_id":"ce4bgup2rcd13ifvqco0","pricing_plan_id":"cebpf4jnsgd1na2vs0mg"},{"bike_id":"5a142628-4fe7-4e39-aa49-dad241f4fd4b","system_id":"levelo_inurba_marseille","lat":43.309535,"lon":5.390337,"is_reserved":false,"is_disabled":false,"rental_uris":{"android":"levelo://app?vid=5a142628-4fe7-4e39-aa49-dad241f4fd4b","ios":"levelo://app?vid=5a142628-4fe7-4e39-aa49-dad241f4fd4b"},"vehicle_type_id":"4","last_reported":1724530080,"current_range_meters":6000,"station_id":"ce4bgup2rcd13ifvqco0","pricing_plan_id":"cebpf4jnsgd1na2vs0mg"},{"bike_id":"de3e5d22-acc8-4a36-afc4-8b09bbf6d179","system_id":"levelo_inurba_marseille","lat":43.30953,"lon":5.39034,"is_reserved":false,"is_disabled":false,"rental_uris":{"android":"levelo://app?vid=de3e5d22-acc8-4a36-afc4-8b09bbf6d179","ios":"levelo://app?vid=de3e5d22-acc8-4a36-afc4-8b09bbf6d179"},"vehicle_type_id":"4","last_reported":1724530080,"current_range_meters":17200,"station_id":"ce4bgup2rcd13ifvqco0","pricing_plan_id":"cebpf4jnsgd1na2vs0mg"},{"bike_id":"5dd8dfef-bf27-4a0e-87de-dd53d43d090e","system_id":"levelo_inurba_marseille","lat":43.309589,"lon":5.390258,"is_reserved":false,"is_disabled":false,"rental_uris":{"android":"levelo://app?vid=5dd8dfef-bf27-4a0e-87de-dd53d43d090e","ios":"levelo://app?vid=5dd8dfef-bf27-4a0e-87de-dd53d43d090e"},"vehicle_type_id":"4","last_reported":1724530080,"current_range_meters":9600,"station_id":"ce4bgup2rcd13ifvqco0","pricing_plan_id":"cebpf4jnsgd1na2vs0mg"},{"bike_id":"5bb56f33-e157-4dbc-be8a-bee12ece0b61","system_id":"levelo_inurba_marseille","lat":43.30955,"lon":5.390354,"is_reserved":false,"is_disabled":false,"rental_uris":{"android":"levelo://app?vid=5bb56f33-e157-4dbc-be8a-bee12ece0b61","ios":"levelo://app?vid=5bb56f33-e157-4dbc-be8a-bee12ece0b61"},"vehicle_type_id":"4","last_reported":1724530080,"current_range_meters":13200,"station_id":"ce4bgup2rcd13ifvqco0","pricing_plan_id":"cebpf4jnsgd1na2vs0mg"},{"bike_id":"1da8ee36-c5f7-4a4c-bc7b-ec18518746b7","system_id":"levelo_inurba_marseille","lat":43.30949,"lon":5.39034,"is_reserved":false,"is_disabled":false,"rental_uris":{"android":"levelo://app?vid=1da8ee36-c5f7-4a4c-bc7b-ec18518746b7","ios":"levelo://app?vid=1da8ee36-c5f7-4a4c-bc7b-ec18518746b7"},"vehicle_type_id":"4","last_reported":1724530080,"current_range_meters":6400,"station_id":"ce4bgup2rcd13ifvqco0","pricing_plan_id":"cebpf4jnsgd1na2vs0mg"},{"bike_id":"050850e2-6ff8-4312-bc99-683ef83b6768","system_id":"levelo_inurba_marseille","lat":43.309506,"lon":5.39035,"is_reserved":false,"is_disabled":false,"rental_uris":{"android":"levelo://app?vid=050850e2-6ff8-4312-bc99-683ef83b6768","ios":"levelo://app?vid=050850e2-6ff8-4312-bc99-683ef83b6768"},"vehicle_type_id":"4","last_reported":1724530080,"current_range_meters":5600,"station_id":"ce4bgup2rcd13ifvqco0","pricing_plan_id":"cebpf4jnsgd1na2vs0mg"},{"bike_id":"1f364877-8a8f-423d-ae4d-d5b25ad90739","system_id":"levelo_inurba_marseille","lat":43.309589,"lon":5.390258,"is_reserved":false,"is_disabled":false,"rental_uris":{"android":"levelo://app?vid=1f364877-8a8f-423d-ae4d-d5b25ad90739","ios":"levelo://app?vid=1f364877-8a8f-423d-ae4d-d5b25ad90739"},"vehicle_type_id":"4","last_reported":1724530080,"current_range_meters":31200,"station_id":"ce4bgup2rcd13ifvqco0","pricing_plan_id":"cebpf4jnsgd1na2vs0mg"},{"bike_id":"41b34938-9c7a-4a05-bbe8-c8b64182c776","system_id":"levelo_inurba_marseille","lat":43.309589,"lon":5.390258,"is_reserved":false,"is_disabled":false,"rental_uris":{"android":"levelo://app?vid=41b34938-9c7a-4a05-bbe8-c8b64182c776","ios":"levelo://app?vid=41b34938-9c7a-4a05-bbe8-c8b64182c776"},"vehicle_type_id":"4","last_reported":1724530080,"current_range_meters":12000,"station_id":"ce4bgup2rcd13ifvqco0","pricing_plan_id":"cebpf4jnsgd1na2vs0mg"},{"bike_id":"52b2d7d6-4790-4d38-88b0-7b5fb1289055","system_id":"levelo_inurba_marseille","lat":43.30953,"lon":5.39036,"is_reserved":false,"is_disabled":false,"rental_uris":{"android":"levelo://app?vid=52b2d7d6-4790-4d38-88b0-7b5fb1289055","ios":"levelo://app?vid=52b2d7d6-4790-4d38-88b0-7b5fb1289055"},"vehicle_type_id":"4","last_reported":1724530080,"current_range_meters":31200,"station_id":"ce4bgup2rcd13ifvqco0","pricing_plan_id":"cebpf4jnsgd1na2vs0mg"},{"bike_id":"ed1f3f57-afc1-4926-8206-d70e34b59a2c","system_id":"levelo_inurba_marseille","lat":43.309589,"lon":5.390258,"is_reserved":false,"is_disabled":false,"rental_uris":{"android":"levelo://app?vid=ed1f3f57-afc1-4926-8206-d70e34b59a2c","ios":"levelo://app?vid=ed1f3f57-afc1-4926-8206-d70e34b59a2c"},"vehicle_type_id":"4","last_reported":1724530080,"current_range_meters":26800,"station_id":"ce4bgup2rcd13ifvqco0","pricing_plan_id":"cebpf4jnsgd1na2vs0mg"},{"bike_id":"7ac0a0d4-efab-4fcb-a5a4-6642f354b329","system_id":"levelo_inurba_marseille","lat":43.309538,"lon":5.390364,"is_reserved":false,"is_disabled":false,"rental_uris":{"android":"levelo://app?vid=7ac0a0d4-efab-4fcb-a5a4-6642f354b329","ios":"levelo://app?vid=7ac0a0d4-efab-4fcb-a5a4-6642f354b329"},"vehicle_type_id":"4","last_reported":1724530080,"current_range_meters":5200,"station_id":"ce4bh692rcd13ifvqea0","pricing_plan_id":"cebpf4jnsgd1na2vs0mg"},{"bike_id":"f6b8a2b8-2fa8-4809-94dd-e8b1c4eaa241","system_id":"levelo_inurba_marseille","lat":43.30957,"lon":5.39038,"is_reserved":false,"is_disabled":false,"rental_uris":{"android":"levelo://app?vid=f6b8a2b8-2fa8-4809-94dd-e8b1c4eaa241","ios":"levelo://app?vid=f6b8a2b8-2fa8-4809-94dd-e8b1c4eaa241"},"vehicle_type_id":"4","last_reported":1724530080,"current_range_meters":24400,"station_id":"ce4bgup2rcd13ifvqco0","pricing_plan_id":"cebpf4jnsgd1na2vs0mg"},{"bike_id":"5fa964bb-fa0e-41d3-b2cd-c7e6f2c0ec5a","system_id":"levelo_inurba_marseille","lat":43.30949,"lon":5.39036,"is_reserved":false,"is_disabled":false,"rental_uris":{"android":"levelo://app?vid=5fa964bb-fa0e-41d3-b2cd-c7e6f2c0ec5a","ios":"levelo://app?vid=5fa964bb-fa0e-41d3-b2cd-c7e6f2c0ec5a"},"vehicle_type_id":"4","last_reported":1724530080,"current_range_meters":18400,"station_id":"ce4bgup2rcd13ifvqco0","pricing_plan_id":"cebpf4jnsgd1na2vs0mg"},{"bike_id":"1f3f2a48-722c-4808-8dd1-c32c1d6fadf2","system_id":"levelo_inurba_marseille","lat":43.309497,"lon":5.390363,"is_reserved":false,"is_disabled":false,"rental_uris":{"android":"levelo://app?vid=1f3f2a48-722c-4808-8dd1-c32c1d6fadf2","ios":"levelo://app?vid=1f3f2a48-722c-4808-8dd1-c32c1d6fadf2"},"vehicle_type_id":"4","last_reported":1724530080,"current_range_meters":23600,"station_id":"ce4bgup2rcd13ifvqco0","pricing_plan_id":"cebpf4jnsgd1na2vs0mg"},{"bike_id":"66f794da-c2a1-4d2e-8515-f13937689b11","system_id":"levelo_inurba_marseille","lat":43.309589,"lon":5.390258,"is_reserved":false,"is_disabled":false,"rental_uris":{"android":"levelo://app?vid=66f794da-c2a1-4d2e-8515-f13937689b11","ios":"levelo://app?vid=66f794da-c2a1-4d2e-8515-f13937689b11"},"vehicle_type_id":"4","last_reported":1724530080,"current_range_meters":26800,"station_id":"ce4bgup2rcd13ifvqco0","pricing_plan_id":"cebpf4jnsgd1na2vs0mg"},{"bike_id":"fb0470d8-a67f-4290-adb4-b566b2a24bc9","system_id":"levelo_inurba_marseille","lat":43.30946,"lon":5.39037,"is_reserved":false,"is_disabled":false,"rental_uris":{"android":"levelo://app?vid=fb0470d8-a67f-4290-adb4-b566b2a24bc9","ios":"levelo://app?vid=fb0470d8-a67f-4290-adb4-b566b2a24bc9"},"vehicle_type_id":"4","last_reported":1724530080,"current_range_meters":21600,"station_id":"ce4bgup2rcd13ifvqco0","pricing_plan_id":"cebpf4jnsgd1na2vs0mg"},{"bike_id":"14684643-d7b9-41f3-b2c6-9bd7fab2651b","system_id":"levelo_inurba_marseille","lat":43.309589,"lon":5.390258,"is_reserved":false,"is_disabled":false,"rental_uris":{"android":"levelo://app?vid=14684643-d7b9-41f3-b2c6-9bd7fab2651b","ios":"levelo://app?vid=14684643-d7b9-41f3-b2c6-9bd7fab2651b"},"vehicle_type_id":"4","last_reported":1724530080,"current_range_meters":31200,"station_id":"ce4bgup2rcd13ifvqco0","pricing_plan_id":"cebpf4jnsgd1na2vs0mg"},{"bike_id":"b4dacc1d-7a9f-47f6-9740-cce8f0ff005e","system_id":"levelo_inurba_marseille","lat":43.309511,"lon":5.390393,"is_reserved":false,"is_disabled":false,"rental_uris":{"android":"levelo://app?vid=b4dacc1d-7a9f-47f6-9740-cce8f0ff005e","ios":"levelo://app?vid=b4dacc1d-7a9f-47f6-9740-cce8f0ff005e"},"vehicle_type_id":"4","last_reported":1724530080,"current_range_meters":31200,"station_id":"ce4bgup2rcd13ifvqco0","pricing_plan_id":"cebpf4jnsgd1na2vs0mg"},{"bike_id":"b6695ec0-3a40-4364-bfe0-1c8418a10eae","system_id":"levelo_inurba_marseille","lat":43.3095,"lon":5.39039,"is_reserved":false,"is_disabled":false,"rental_uris":{"android":"levelo://app?vid=b6695ec0-3a40-4364-bfe0-1c8418a10eae","ios":"levelo://app?vid=b6695ec0-3a40-4364-bfe0-1c8418a10eae"},"vehicle_type_id":"4","last_reported":1724530080,"current_range_meters":27600,"station_id":"ce4bgup2rcd13ifvqco0","pricing_plan_id":"cebpf4jnsgd1na2vs0mg"},{"bike_id":"989bfe0b-d354-422f-aeae-7ed0f54b147a","system_id":"levelo_inurba_marseille","lat":43.309589,"lon":5.390258,"is_reserved":false,"is_disabled":false,"rental_uris":{"android":"levelo://app?vid=989bfe0b-d354-422f-aeae-7ed0f54b147a","ios":"levelo://app?vid=989bfe0b-d354-422f-aeae-7ed0f54b147a"},"vehicle_type_id":"4","last_reported":1724530080,"current_range_meters":21200,"station_id":"ce4bgup2rcd13ifvqco0","pricing_plan_id":"cebpf4jnsgd1na2vs0mg"},{"bike_id":"d06c3628-8463-4f9c-bf68-9b4ac391a38a","system_id":"levelo_inurba_marseille","lat":43.30958,"lon":5.39042,"is_reserved":false,"is_disabled":false,"rental_uris":{"android":"levelo://app?vid=d06c3628-8463-4f9c-bf68-9b4ac391a38a","ios":"levelo://app?vid=d06c3628-8463-4f9c-bf68-9b4ac391a38a"},"vehicle_type_id":"4","last_reported":1724530080,"current_range_meters":31200,"station_id":"ce4bgup2rcd13ifvqco0","pricing_plan_id":"cebpf4jnsgd1na2vs0mg"},{"bike_id":"12d8268c-b72a-42e3-bd33-ab336e92ebf3","system_id":"levelo_inurba_marseille","lat":43.30951,"lon":5.39041,"is_reserved":false,"is_disabled":false,"rental_uris":{"android":"levelo://app?vid=12d8268c-b72a-42e3-bd33-ab336e92ebf3","ios":"levelo://app?vid=12d8268c-b72a-42e3-bd33-ab336e92ebf3"},"vehicle_type_id":"4","last_reported":1724530080,"current_range_meters":6800,"station_id":"ce4bgup2rcd13ifvqco0","pricing_plan_id":"cebpf4jnsgd1na2vs0mg"},{"bike_id":"b122fe4b-6a28-4985-bd85-dbb895b6fad1","system_id":"levelo_inurba_marseille","lat":43.309589,"lon":5.390258,"is_reserved":false,"is_disabled":false,"rental_uris":{"android":"levelo://app?vid=b122fe4b-6a28-4985-bd85-dbb895b6fad1","ios":"levelo://app?vid=b122fe4b-6a28-4985-bd85-dbb895b6fad1"},"vehicle_type_id":"4","last_reported":1724530080,"current_range_meters":7200,"station_id":"ce4bgup2rcd13ifvqco0","pricing_plan_id":"cebpf4jnsgd1na2vs0mg"},{"bike_id":"d0ee7c70-c676-4621-8b82-947a41d5653d","system_id":"levelo_inurba_marseille","lat":43.30945,"lon":5.39041,"is_reserved":false,"is_disabled":false,"rental_uris":{"android":"levelo://app?vid=d0ee7c70-c676-4621-8b82-947a41d5653d","ios":"levelo://app?vid=d0ee7c70-c676-4621-8b82-947a41d5653d"},"vehicle_type_id":"4","last_reported":1724530080,"current_range_meters":30000,"station_id":"ce4bgup2rcd13ifvqco0","pricing_plan_id":"cebpf4jnsgd1na2vs0mg"},{"bike_id":"e0c522ff-da09-4e78-9d93-6ccb956ec04d","system_id":"levelo_inurba_marseille","lat":43.309589,"lon":5.390258,"is_reserved":false,"is_disabled":false,"rental_uris":{"android":"levelo://app?vid=e0c522ff-da09-4e78-9d93-6ccb956ec04d","ios":"levelo://app?vid=e0c522ff-da09-4e78-9d93-6ccb956ec04d"},"vehicle_type_id":"4","last_reported":1724530080,"current_range_meters":30400,"station_id":"ce4bgup2rcd13ifvqco0","pricing_plan_id":"cebpf4jnsgd1na2vs0mg"},{"bike_id":"df850a44-191c-4fbc-9507-290798c73a1c","system_id":"levelo_inurba_marseille","lat":43.309589,"lon":5.390258,"is_reserved":false,"is_disabled":false,"rental_uris":{"android":"levelo://app?vid=df850a44-191c-4fbc-9507-290798c73a1c","ios":"levelo://app?vid=df850a44-191c-4fbc-9507-290798c73a1c"},"vehicle_type_id":"4","last_reported":1724530080,"current_range_meters":3600,"station_id":"ce4bgup2rcd13ifvqco0","pricing_plan_id":"cebpf4jnsgd1na2vs0mg"},{"bike_id":"1708a3d8-1a68-4dca-b3e0-dbfcfe42bb75","system_id":"levelo_inurba_marseille","lat":43.30948,"lon":5.39044,"is_reserved":false,"is_disabled":false,"rental_uris":{"android":"levelo://app?vid=1708a3d8-1a68-4dca-b3e0-dbfcfe42bb75","ios":"levelo://app?vid=1708a3d8-1a68-4dca-b3e0-dbfcfe42bb75"},"vehicle_type_id":"4","last_reported":1724530080,"current_range_meters":24400,"station_id":"ce4bgup2rcd13ifvqco0","pricing_plan_id":"cebpf4jnsgd1na2vs0mg"},{"bike_id":"7279b04a-37fa-4d7b-883b-296b5256b4ee","system_id":"levelo_inurba_marseille","lat":43.309589,"lon":5.390258,"is_reserved":false,"is_disabled":false,"rental_uris":{"android":"levelo://app?vid=7279b04a-37fa-4d7b-883b-296b5256b4ee","ios":"levelo://app?vid=7279b04a-37fa-4d7b-883b-296b5256b4ee"},"vehicle_type_id":"4","last_reported":1724530080,"current_range_meters":21200,"station_id":"ce4bgup2rcd13ifvqco0","pricing_plan_id":"cebpf4jnsgd1na2vs0mg"},{"bike_id":"4f4986e3-a20c-4fee-8fa1-130da3c2a2f6","system_id":"levelo_inurba_marseille","lat":43.309589,"lon":5.390258,"is_reserved":false,"is_disabled":false,"rental_uris":{"android":"levelo://app?vid=4f4986e3-a20c-4fee-8fa1-130da3c2a2f6","ios":"levelo://app?vid=4f4986e3-a20c-4fee-8fa1-130da3c2a2f6"},"vehicle_type_id":"4","last_reported":1724530080,"current_range_meters":18800,"station_id":"ce4bgup2rcd13ifvqco0","pricing_plan_id":"cebpf4jnsgd1na2vs0mg"},{"bike_id":"b489bf1f-fee7-4963-af90-1a4f9b3af33d","system_id":"levelo_inurba_marseille","lat":43.309589,"lon":5.390258,"is_reserved":false,"is_disabled":false,"rental_uris":{"android":"levelo://app?vid=b489bf1f-fee7-4963-af90-1a4f9b3af33d","ios":"levelo://app?vid=b489bf1f-fee7-4963-af90-1a4f9b3af33d"},"vehicle_type_id":"4","last_reported":1724530080,"current_range_meters":4400,"station_id":"ce4bgup2rcd13ifvqco0","pricing_plan_id":"cebpf4jnsgd1na2vs0mg"},{"bike_id":"efd9a2b9-3c4f-47a1-8f42-67ff6a525b75","system_id":"levelo_inurba_marseille","lat":43.309589,"lon":5.390258,"is_reserved":false,"is_disabled":false,"rental_uris":{"android":"levelo://app?vid=efd9a2b9-3c4f-47a1-8f42-67ff6a525b75","ios":"levelo://app?vid=efd9a2b9-3c4f-47a1-8f42-67ff6a525b75"},"vehicle_type_id":"4","last_reported":1724530080,"current_range_meters":29200,"station_id":"ce4bgup2rcd13ifvqco0","pricing_plan_id":"cebpf4jnsgd1na2vs0mg"},{"bike_id":"fcae7e7c-ee0d-482e-9622-822491cbd944","system_id":"levelo_inurba_marseille","lat":43.309589,"lon":5.390258,"is_reserved":false,"is_disabled":false,"rental_uris":{"android":"levelo://app?vid=fcae7e7c-ee0d-482e-9622-822491cbd944","ios":"levelo://app?vid=fcae7e7c-ee0d-482e-9622-822491cbd944"},"vehicle_type_id":"4","last_reported":1724530080,"current_range_meters":23600,"station_id":"ce4bgup2rcd13ifvqco0","pricing_plan_id":"cebpf4jnsgd1na2vs0mg"},{"bike_id":"3fcc5583-433c-4f0e-ae13-015eb81fafbb","system_id":"levelo_inurba_marseille","lat":43.309589,"lon":5.390258,"is_reserved":false,"is_disabled":false,"rental_uris":{"android":"levelo://app?vid=3fcc5583-433c-4f0e-ae13-015eb81fafbb","ios":"levelo://app?vid=3fcc5583-433c-4f0e-ae13-015eb81fafbb"},"vehicle_type_id":"4","last_reported":1724530080,"current_range_meters":24800,"station_id":"ce4bgup2rcd13ifvqco0","pricing_plan_id":"cebpf4jnsgd1na2vs0mg"},{"bike_id":"b4a411c7-1ae8-4a27-8d4e-13ba9d5800ab","system_id":"levelo_inurba_marseille","lat":43.30947,"lon":5.39051,"is_reserved":false,"is_disabled":false,"rental_uris":{"android":"levelo://app?vid=b4a411c7-1ae8-4a27-8d4e-13ba9d5800ab","ios":"levelo://app?vid=b4a411c7-1ae8-4a27-8d4e-13ba9d5800ab"},"vehicle_type_id":"4","last_reported":1724530080,"current_range_meters":24000,"station_id":"ce4bgup2rcd13ifvqco0","pricing_plan_id":"cebpf4jnsgd1na2vs0mg"},{"bike_id":"681258e1-bcb6-4492-b715-bf9b04802ff5","system_id":"levelo_inurba_marseille","lat":43.309589,"lon":5.390258,"is_reserved":false,"is_disabled":false,"rental_uris":{"android":"levelo://app?vid=681258e1-bcb6-4492-b715-bf9b04802ff5","ios":"levelo://app?vid=681258e1-bcb6-4492-b715-bf9b04802ff5"},"vehicle_type_id":"4","last_reported":1724530080,"current_range_meters":11200,"station_id":"ce4bgup2rcd13ifvqco0","pricing_plan_id":"cebpf4jnsgd1na2vs0mg"},{"bike_id":"0f8ffe86-3c0a-4736-9873-7b2a3f1e0efe","system_id":"levelo_inurba_marseille","lat":43.309589,"lon":5.390258,"is_reserved":false,"is_disabled":false,"rental_uris":{"android":"levelo://app?vid=0f8ffe86-3c0a-4736-9873-7b2a3f1e0efe","ios":"levelo://app?vid=0f8ffe86-3c0a-4736-9873-7b2a3f1e0efe"},"vehicle_type_id":"4","last_reported":1724530080,"current_range_meters":31200,"station_id":"ce4bgup2rcd13ifvqco0","pricing_plan_id":"cebpf4jnsgd1na2vs0mg"},{"bike_id":"5008b4d7-87c5-41bd-9a7e-cc3967941a3c","system_id":"levelo_inurba_marseille","lat":43.317557,"lon":5.390173,"is_reserved":false,"is_disabled":false,"rental_uris":{"android":"levelo://app?vid=5008b4d7-87c5-41bd-9a7e-cc3967941a3c","ios":"levelo://app?vid=5008b4d7-87c5-41bd-9a7e-cc3967941a3c"},"vehicle_type_id":"4","last_reported":1724530080,"current_range_meters":17600,"station_id":"ce4bhqp2rcd13ifvqhng","pricing_plan_id":"cebpf4jnsgd1na2vs0mg"},{"bike_id":"bf7de69d-a3b1-4a18-aed2-6bed8a228f1b","system_id":"levelo_inurba_marseille","lat":43.31755,"lon":5.39018,"is_reserved":false,"is_disabled":false,"rental_uris":{"android":"levelo://app?vid=bf7de69d-a3b1-4a18-aed2-6bed8a228f1b","ios":"levelo://app?vid=bf7de69d-a3b1-4a18-aed2-6bed8a228f1b"},"vehicle_type_id":"4","last_reported":1724530080,"current_range_meters":0,"station_id":"ce4bhqp2rcd13ifvqhng","pricing_plan_id":"cebpf4jnsgd1na2vs0mg"},{"bike_id":"35d5f4cf-22e5-4ee5-9954-5d4c64022f2f","system_id":"levelo_inurba_marseille","lat":43.31756,"lon":5.3902,"is_reserved":false,"is_disabled":false,"rental_uris":{"android":"levelo://app?vid=35d5f4cf-22e5-4ee5-9954-5d4c64022f2f","ios":"levelo://app?vid=35d5f4cf-22e5-4ee5-9954-5d4c64022f2f"},"vehicle_type_id":"4","last_reported":1724530080,"current_range_meters":1200,"station_id":"ce4bhqp2rcd13ifvqhng","pricing_plan_id":"cebpf4jnsgd1na2vs0mg"},{"bike_id":"35e48a9a-0152-49ad-8051-5e63fd284b38","system_id":"levelo_inurba_marseille","lat":43.309589,"lon":5.390258,"is_reserved":false,"is_disabled":false,"rental_uris":{"android":"levelo://app?vid=35e48a9a-0152-49ad-8051-5e63fd284b38","ios":"levelo://app?vid=35e48a9a-0152-49ad-8051-5e63fd284b38"},"vehicle_type_id":"4","last_reported":1724530080,"current_range_meters":30800,"station_id":"ce4bgup2rcd13ifvqco0","pricing_plan_id":"cebpf4jnsgd1na2vs0mg"},{"bike_id":"949a8bda-1c39-428f-a161-c98a3a586ab6","system_id":"levelo_inurba_marseille","lat":43.304278,"lon":5.388868,"is_reserved":false,"is_disabled":false,"rental_uris":{"android":"levelo://app?vid=949a8bda-1c39-428f-a161-c98a3a586ab6","ios":"levelo://app?vid=949a8bda-1c39-428f-a161-c98a3a586ab6"},"vehicle_type_id":"4","last_reported":1724530080,"current_range_meters":0,"station_id":"ce4bgk12rcd13ifvqbi0","pricing_plan_id":"cebpf4jnsgd1na2vs0mg"},{"bike_id":"23d7b89b-8c11-4e90-9683-84799e0a0656","system_id":"levelo_inurba_marseille","lat":43.298037,"lon":5.381066,"is_reserved":false,"is_disabled":false,"rental_uris":{"android":"levelo://app?vid=23d7b89b-8c11-4e90-9683-84799e0a0656","ios":"levelo://app?vid=23d7b89b-8c11-4e90-9683-84799e0a0656"},"vehicle_type_id":"4","last_reported":1724530080,"current_range_meters":29200,"station_id":"ce4bgip2rcd13ifvqbb0","pricing_plan_id":"cebpf4jnsgd1na2vs0mg"},{"bike_id":"fa4c992d-796e-473e-bc21-df2595876e86","system_id":"levelo_inurba_marseille","lat":43.309039,"lon":5.371797,"is_reserved":false,"is_disabled":false,"rental_uris":{"android":"levelo://app?vid=fa4c992d-796e-473e-bc21-df2595876e86","ios":"levelo://app?vid=fa4c992d-796e-473e-bc21-df2595876e86"},"vehicle_type_id":"4","last_reported":1724530080,"current_range_meters":9200,"station_id":"ce4bguh2rcd13ifvqckg","pricing_plan_id":"cebpf4jnsgd1na2vs0mg"},{"bike_id":"139461e5-827a-4aab-a069-65623850c574","system_id":"levelo_inurba_marseille","lat":43.296263,"lon":5.377094,"is_reserved":false,"is_disabled":false,"rental_uris":{"android":"levelo://app?vid=139461e5-827a-4aab-a069-65623850c574","ios":"levelo://app?vid=139461e5-827a-4aab-a069-65623850c574"},"vehicle_type_id":"4","last_reported":1724530080,"current_range_meters":25200,"station_id":"ce4bgi92rcd13ifvqb90","pricing_plan_id":"cebpf4jnsgd1na2vs0mg"},{"bike_id":"f086dfc2-d91a-4550-ac4b-b938cc725106","system_id":"levelo_inurba_marseille","lat":43.296263,"lon":5.377094,"is_reserved":false,"is_disabled":false,"rental_uris":{"android":"levelo://app?vid=f086dfc2-d91a-4550-ac4b-b938cc725106","ios":"levelo://app?vid=f086dfc2-d91a-4550-ac4b-b938cc725106"},"vehicle_type_id":"4","last_reported":1724530080,"current_range_meters":14400,"station_id":"ce4bgi92rcd13ifvqb90","pricing_plan_id":"cebpf4jnsgd1na2vs0mg"},{"bike_id":"928fd4c8-a5f6-440b-9958-9341cefb18c1","system_id":"levelo_inurba_marseille","lat":43.296277,"lon":5.377108,"is_reserved":false,"is_disabled":false,"rental_uris":{"android":"levelo://app?vid=928fd4c8-a5f6-440b-9958-9341cefb18c1","ios":"levelo://app?vid=928fd4c8-a5f6-440b-9958-9341cefb18c1"},"vehicle_type_id":"4","last_reported":1724530080,"current_range_meters":20800,"station_id":"ce4bgi92rcd13ifvqb90","pricing_plan_id":"cebpf4jnsgd1na2vs0mg"},{"bike_id":"1b535af4-d0c0-4de0-9e1b-4816792b808a","system_id":"levelo_inurba_marseille","lat":43.296263,"lon":5.377094,"is_reserved":false,"is_disabled":false,"rental_uris":{"android":"levelo://app?vid=1b535af4-d0c0-4de0-9e1b-4816792b808a","ios":"levelo://app?vid=1b535af4-d0c0-4de0-9e1b-4816792b808a"},"vehicle_type_id":"4","last_reported":1724530080,"current_range_meters":21600,"station_id":"ce4bgi92rcd13ifvqb90","pricing_plan_id":"cebpf4jnsgd1na2vs0mg"},{"bike_id":"a588fa1b-597d-48ef-90db-40b1479ab4dc","system_id":"levelo_inurba_marseille","lat":43.299707,"lon":5.384859,"is_reserved":false,"is_disabled":false,"rental_uris":{"android":"levelo://app?vid=a588fa1b-597d-48ef-90db-40b1479ab4dc","ios":"levelo://app?vid=a588fa1b-597d-48ef-90db-40b1479ab4dc"},"vehicle_type_id":"4","last_reported":1724530080,"current_range_meters":10000,"station_id":"ce4bgj92rcd13ifvqbd0","pricing_plan_id":"cebpf4jnsgd1na2vs0mg"},{"bike_id":"3545243a-f320-4455-92a1-e9e488f402f2","system_id":"levelo_inurba_marseille","lat":43.299707,"lon":5.384859,"is_reserved":false,"is_disabled":false,"rental_uris":{"android":"levelo://app?vid=3545243a-f320-4455-92a1-e9e488f402f2","ios":"levelo://app?vid=3545243a-f320-4455-92a1-e9e488f402f2"},"vehicle_type_id":"4","last_reported":1724530080,"current_range_meters":12000,"station_id":"ce4bgj92rcd13ifvqbd0","pricing_plan_id":"cebpf4jnsgd1na2vs0mg"},{"bike_id":"bd17e113-5765-4e3d-a605-8cfe1b600492","system_id":"levelo_inurba_marseille","lat":43.299707,"lon":5.384859,"is_reserved":false,"is_disabled":false,"rental_uris":{"android":"levelo://app?vid=bd17e113-5765-4e3d-a605-8cfe1b600492","ios":"levelo://app?vid=bd17e113-5765-4e3d-a605-8cfe1b600492"},"vehicle_type_id":"4","last_reported":1724530080,"current_range_meters":16400,"station_id":"ce4bgj92rcd13ifvqbd0","pricing_plan_id":"cebpf4jnsgd1na2vs0mg"},{"bike_id":"188a3756-5975-48af-9881-269b97a8a677","system_id":"levelo_inurba_marseille","lat":43.299717,"lon":5.384845,"is_reserved":false,"is_disabled":false,"rental_uris":{"android":"levelo://app?vid=188a3756-5975-48af-9881-269b97a8a677","ios":"levelo://app?vid=188a3756-5975-48af-9881-269b97a8a677"},"vehicle_type_id":"4","last_reported":1724530080,"current_range_meters":7600,"station_id":"ce4bgj92rcd13ifvqbd0","pricing_plan_id":"cebpf4jnsgd1na2vs0mg"},{"bike_id":"1595b4b9-ae48-4cf5-b18f-d21b42e3cd97","system_id":"levelo_inurba_marseille","lat":43.32367,"lon":5.388836,"is_reserved":false,"is_disabled":false,"rental_uris":{"android":"levelo://app?vid=1595b4b9-ae48-4cf5-b18f-d21b42e3cd97","ios":"levelo://app?vid=1595b4b9-ae48-4cf5-b18f-d21b42e3cd97"},"vehicle_type_id":"4","last_reported":1724530080,"current_range_meters":21200,"station_id":"ce4bhqp2rcd13ifvqhog","pricing_plan_id":"cebpf4jnsgd1na2vs0mg"},{"bike_id":"b8347240-d429-4877-86b0-6972b0460517","system_id":"levelo_inurba_marseille","lat":43.32367,"lon":5.388836,"is_reserved":false,"is_disabled":false,"rental_uris":{"android":"levelo://app?vid=b8347240-d429-4877-86b0-6972b0460517","ios":"levelo://app?vid=b8347240-d429-4877-86b0-6972b0460517"},"vehicle_type_id":"4","last_reported":1724530080,"current_range_meters":7200,"station_id":"ce4bhqp2rcd13ifvqhog","pricing_plan_id":"cebpf4jnsgd1na2vs0mg"},{"bike_id":"5e669850-af7d-4823-baca-893352bb665c","system_id":"levelo_inurba_marseille","lat":43.32367,"lon":5.388836,"is_reserved":false,"is_disabled":false,"rental_uris":{"android":"levelo://app?vid=5e669850-af7d-4823-baca-893352bb665c","ios":"levelo://app?vid=5e669850-af7d-4823-baca-893352bb665c"},"vehicle_type_id":"4","last_reported":1724530080,"current_range_meters":8000,"station_id":"ce4bhqp2rcd13ifvqhog","pricing_plan_id":"cebpf4jnsgd1na2vs0mg"},{"bike_id":"5a18342b-3183-4268-b0d1-b96622f4a2b9","system_id":"levelo_inurba_marseille","lat":43.32367,"lon":5.388836,"is_reserved":false,"is_disabled":false,"rental_uris":{"android":"levelo://app?vid=5a18342b-3183-4268-b0d1-b96622f4a2b9","ios":"levelo://app?vid=5a18342b-3183-4268-b0d1-b96622f4a2b9"},"vehicle_type_id":"4","last_reported":1724530080,"current_range_meters":400,"station_id":"ce4bhqp2rcd13ifvqhog","pricing_plan_id":"cebpf4jnsgd1na2vs0mg"},{"bike_id":"cb4fed20-3052-4b67-8709-b4bb27212fe0","system_id":"levelo_inurba_marseille","lat":43.32367,"lon":5.388836,"is_reserved":false,"is_disabled":false,"rental_uris":{"android":"levelo://app?vid=cb4fed20-3052-4b67-8709-b4bb27212fe0","ios":"levelo://app?vid=cb4fed20-3052-4b67-8709-b4bb27212fe0"},"vehicle_type_id":"4","last_reported":1724530080,"current_range_meters":21600,"station_id":"ce4bhqp2rcd13ifvqhog","pricing_plan_id":"cebpf4jnsgd1na2vs0mg"},{"bike_id":"ecea9a7e-2d19-4650-8295-e9fd9495aa18","system_id":"levelo_inurba_marseille","lat":43.296033,"lon":5.380977,"is_reserved":false,"is_disabled":false,"rental_uris":{"android":"levelo://app?vid=ecea9a7e-2d19-4650-8295-e9fd9495aa18","ios":"levelo://app?vid=ecea9a7e-2d19-4650-8295-e9fd9495aa18"},"vehicle_type_id":"4","last_reported":1724530080,"current_range_meters":19600,"station_id":"","pricing_plan_id":"cebpf4jnsgd1na2vs0mg"},{"bike_id":"d57d7b9e-61d9-4fc1-beb0-d5ed7207cac2","system_id":"levelo_inurba_marseille","lat":43.29602,"lon":5.381084,"is_reserved":false,"is_disabled":false,"rental_uris":{"android":"levelo://app?vid=d57d7b9e-61d9-4fc1-beb0-d5ed7207cac2","ios":"levelo://app?vid=d57d7b9e-61d9-4fc1-beb0-d5ed7207cac2"},"vehicle_type_id":"4","last_reported":1724530080,"current_range_meters":7600,"station_id":"ce4bgl12rcd13ifvqbo0","pricing_plan_id":"cebpf4jnsgd1na2vs0mg"},{"bike_id":"acff9f54-2471-4ae7-b866-7ddc6175db9a","system_id":"levelo_inurba_marseille","lat":43.29602,"lon":5.381084,"is_reserved":false,"is_disabled":false,"rental_uris":{"android":"levelo://app?vid=acff9f54-2471-4ae7-b866-7ddc6175db9a","ios":"levelo://app?vid=acff9f54-2471-4ae7-b866-7ddc6175db9a"},"vehicle_type_id":"4","last_reported":1724530080,"current_range_meters":21600,"station_id":"ce4bgl12rcd13ifvqbo0","pricing_plan_id":"cebpf4jnsgd1na2vs0mg"},{"bike_id":"c5eb8148-51b9-4a45-beb9-cfdb19f30ce9","system_id":"levelo_inurba_marseille","lat":43.29593,"lon":5.38094,"is_reserved":false,"is_disabled":false,"rental_uris":{"android":"levelo://app?vid=c5eb8148-51b9-4a45-beb9-cfdb19f30ce9","ios":"levelo://app?vid=c5eb8148-51b9-4a45-beb9-cfdb19f30ce9"},"vehicle_type_id":"4","last_reported":1724530080,"current_range_meters":5200,"station_id":"ce4bgl12rcd13ifvqbo0","pricing_plan_id":"cebpf4jnsgd1na2vs0mg"},{"bike_id":"858854b1-c381-4f63-9c0e-acc839342b91","system_id":"levelo_inurba_marseille","lat":43.293259,"lon":5.371586,"is_reserved":false,"is_disabled":false,"rental_uris":{"android":"levelo://app?vid=858854b1-c381-4f63-9c0e-acc839342b91","ios":"levelo://app?vid=858854b1-c381-4f63-9c0e-acc839342b91"},"vehicle_type_id":"4","last_reported":1724530080,"current_range_meters":8000,"station_id":"ce4bgh92rcd13ifvqb40","pricing_plan_id":"cebpf4jnsgd1na2vs0mg"},{"bike_id":"26c47aaa-c26d-4f13-a83a-1413d2b97b26","system_id":"levelo_inurba_marseille","lat":43.292958,"lon":5.37174,"is_reserved":false,"is_disabled":false,"rental_uris":{"android":"levelo://app?vid=26c47aaa-c26d-4f13-a83a-1413d2b97b26","ios":"levelo://app?vid=26c47aaa-c26d-4f13-a83a-1413d2b97b26"},"vehicle_type_id":"4","last_reported":1724530080,"current_range_meters":0,"station_id":"ce4bgh92rcd13ifvqb40","pricing_plan_id":"cebpf4jnsgd1na2vs0mg"},{"bike_id":"158c76dc-e18c-4a56-8643-50303c64bb95","system_id":"levelo_inurba_marseille","lat":43.293009,"lon":5.374584,"is_reserved":false,"is_disabled":false,"rental_uris":{"android":"levelo://app?vid=158c76dc-e18c-4a56-8643-50303c64bb95","ios":"levelo://app?vid=158c76dc-e18c-4a56-8643-50303c64bb95"},"vehicle_type_id":"4","last_reported":1724530080,"current_range_meters":22800,"station_id":"ce4bgi12rcd13ifvqb70","pricing_plan_id":"cebpf4jnsgd1na2vs0mg"},{"bike_id":"becdfb05-00b4-4097-b523-f02ecdbf101f","system_id":"levelo_inurba_marseille","lat":43.305994,"lon":5.393687,"is_reserved":false,"is_disabled":false,"rental_uris":{"android":"levelo://app?vid=becdfb05-00b4-4097-b523-f02ecdbf101f","ios":"levelo://app?vid=becdfb05-00b4-4097-b523-f02ecdbf101f"},"vehicle_type_id":"4","last_reported":1724530080,"current_range_meters":4800,"station_id":"ce4bh0p2rcd13ifvqd80","pricing_plan_id":"cebpf4jnsgd1na2vs0mg"},{"bike_id":"a5346a7f-a840-4d05-a802-cf311039c7c2","system_id":"levelo_inurba_marseille","lat":43.293009,"lon":5.374584,"is_reserved":false,"is_disabled":false,"rental_uris":{"android":"levelo://app?vid=a5346a7f-a840-4d05-a802-cf311039c7c2","ios":"levelo://app?vid=a5346a7f-a840-4d05-a802-cf311039c7c2"},"vehicle_type_id":"4","last_reported":1724530080,"current_range_meters":400,"station_id":"ce4bgi12rcd13ifvqb70","pricing_plan_id":"cebpf4jnsgd1na2vs0mg"},{"bike_id":"d69571a6-6346-432b-a767-659812906eb2","system_id":"levelo_inurba_marseille","lat":43.293009,"lon":5.374584,"is_reserved":false,"is_disabled":false,"rental_uris":{"android":"levelo://app?vid=d69571a6-6346-432b-a767-659812906eb2","ios":"levelo://app?vid=d69571a6-6346-432b-a767-659812906eb2"},"vehicle_type_id":"4","last_reported":1724530080,"current_range_meters":5200,"station_id":"ce4bgi12rcd13ifvqb70","pricing_plan_id":"cebpf4jnsgd1na2vs0mg"},{"bike_id":"2e89ba27-a963-4448-94f3-efef70f62ef9","system_id":"levelo_inurba_marseille","lat":43.30302,"lon":5.39211,"is_reserved":false,"is_disabled":false,"rental_uris":{"android":"levelo://app?vid=2e89ba27-a963-4448-94f3-efef70f62ef9","ios":"levelo://app?vid=2e89ba27-a963-4448-94f3-efef70f62ef9"},"vehicle_type_id":"4","last_reported":1724530080,"current_range_meters":24400,"station_id":"ce4bgkh2rcd13ifvqbk0","pricing_plan_id":"cebpf4jnsgd1na2vs0mg"},{"bike_id":"43284f72-fccd-438f-bcfe-37453bf59be2","system_id":"levelo_inurba_marseille","lat":43.2936,"lon":5.37835,"is_reserved":false,"is_disabled":false,"rental_uris":{"android":"levelo://app?vid=43284f72-fccd-438f-bcfe-37453bf59be2","ios":"levelo://app?vid=43284f72-fccd-438f-bcfe-37453bf59be2"},"vehicle_type_id":"4","last_reported":1724530080,"current_range_meters":18800,"station_id":"ce4bgjh2rcd13ifvqbf0","pricing_plan_id":"cebpf4jnsgd1na2vs0mg"},{"bike_id":"d86c8e52-b7ee-4e2f-9199-415d791c8b40","system_id":"levelo_inurba_marseille","lat":43.2936,"lon":5.37835,"is_reserved":false,"is_disabled":false,"rental_uris":{"android":"levelo://app?vid=d86c8e52-b7ee-4e2f-9199-415d791c8b40","ios":"levelo://app?vid=d86c8e52-b7ee-4e2f-9199-415d791c8b40"},"vehicle_type_id":"4","last_reported":1724530080,"current_range_meters":4400,"station_id":"ce4bgjh2rcd13ifvqbf0","pricing_plan_id":"cebpf4jnsgd1na2vs0mg"},{"bike_id":"d9f40c14-4b53-4d3c-b088-d69b81d1a694","system_id":"levelo_inurba_marseille","lat":43.293707,"lon":5.378571,"is_reserved":false,"is_disabled":false,"rental_uris":{"android":"levelo://app?vid=d9f40c14-4b53-4d3c-b088-d69b81d1a694","ios":"levelo://app?vid=d9f40c14-4b53-4d3c-b088-d69b81d1a694"},"vehicle_type_id":"4","last_reported":1724530080,"current_range_meters":6000,"station_id":"ce4bgjh2rcd13ifvqbf0","pricing_plan_id":"cebpf4jnsgd1na2vs0mg"},{"bike_id":"ccfd9472-5879-4211-b623-44a9411d54bc","system_id":"levelo_inurba_marseille","lat":43.302992,"lon":5.392136,"is_reserved":false,"is_disabled":false,"rental_uris":{"android":"levelo://app?vid=ccfd9472-5879-4211-b623-44a9411d54bc","ios":"levelo://app?vid=ccfd9472-5879-4211-b623-44a9411d54bc"},"vehicle_type_id":"4","last_reported":1724530080,"current_range_meters":800,"station_id":"ce4bgkh2rcd13ifvqbk0","pricing_plan_id":"cebpf4jnsgd1na2vs0mg"},{"bike_id":"77ba840d-3c94-4f78-a196-08e63a5132c0","system_id":"levelo_inurba_marseille","lat":43.302992,"lon":5.392136,"is_reserved":false,"is_disabled":false,"rental_uris":{"android":"levelo://app?vid=77ba840d-3c94-4f78-a196-08e63a5132c0","ios":"levelo://app?vid=77ba840d-3c94-4f78-a196-08e63a5132c0"},"vehicle_type_id":"4","last_reported":1724530080,"current_range_meters":23200,"station_id":"ce4bgkh2rcd13ifvqbk0","pricing_plan_id":"cebpf4jnsgd1na2vs0mg"},{"bike_id":"ac719c67-b08e-4d98-98db-cc49de4b5737","system_id":"levelo_inurba_marseille","lat":43.29227,"lon":5.36077,"is_reserved":false,"is_disabled":false,"rental_uris":{"android":"levelo://app?vid=ac719c67-b08e-4d98-98db-cc49de4b5737","ios":"levelo://app?vid=ac719c67-b08e-4d98-98db-cc49de4b5737"},"vehicle_type_id":"4","last_reported":1724530080,"current_range_meters":26800,"station_id":"ce4bhbh2rcd13ifvqeqg","pricing_plan_id":"cebpf4jnsgd1na2vs0mg"},{"bike_id":"561f080b-c150-4fe4-87e6-c6d3e47a6cdb","system_id":"levelo_inurba_marseille","lat":43.292311,"lon":5.360731,"is_reserved":false,"is_disabled":false,"rental_uris":{"android":"levelo://app?vid=561f080b-c150-4fe4-87e6-c6d3e47a6cdb","ios":"levelo://app?vid=561f080b-c150-4fe4-87e6-c6d3e47a6cdb"},"vehicle_type_id":"4","last_reported":1724530080,"current_range_meters":0,"station_id":"ce4bhbh2rcd13ifvqeqg","pricing_plan_id":"cebpf4jnsgd1na2vs0mg"},{"bike_id":"53c5a2d9-0513-4d72-b412-69ac3242cc1e","system_id":"levelo_inurba_marseille","lat":43.29901,"lon":5.38886,"is_reserved":false,"is_disabled":false,"rental_uris":{"android":"levelo://app?vid=53c5a2d9-0513-4d72-b412-69ac3242cc1e","ios":"levelo://app?vid=53c5a2d9-0513-4d72-b412-69ac3242cc1e"},"vehicle_type_id":"4","last_reported":1724530080,"current_range_meters":5600,"station_id":"ce4bh392rcd13ifvqdl0","pricing_plan_id":"cebpf4jnsgd1na2vs0mg"},