{"last_updated":1758553917,"ttl":60,"version":"2.2","data":{"bikes":[{"bike_id":"617dca4b-4508-4d52-9e62-d583d919ac44","system_id":"levelo_inurba_marseille","lat":43.29743,"lon":5.37122,"is_reserved":false,"is_disabled":false,"rental_uris":{"android":"levelo://app?vid=617dca4b-4508-4d52-9e62-d583d919ac44","ios":"levelo://app?vid=617dca4b-4508-4d52-9e62-d583d919ac44"},"vehicle_type_id":"4","last_reported":1758553917,"current_range_meters":2800,"station_id":"ce4bgop2rcd13ifvqc1g","pricing_plan_id":"cebpf4jnsgd1na2vs0mg"},{"bike_id":"d24b92f9-6841-41f8-b1e3-f41f551ac069","system_id":"levelo_inurba_marseille","lat":43.32672,"lon":5.40971,"is_reserved":false,"is_disabled":false,"rental_uris":{"android":"levelo://app?vid=d24b92f9-6841-41f8-b1e3-f41f551ac069","ios":"levelo://app?vid=d24b92f9-6841-41f8-b1e3-f41f551ac069"},"vehicle_type_id":"4","last_reported":1758553917,"current_range_meters":2000,"station_id":"ce4bhpp2rcd13ifvqhgg","pricing_plan_id":"cebpf4jnsgd1na2vs0mg"},{"bike_id":"525a8f20-a747-4ee9-b95e-8640b81f3925","system_id":"levelo_inurba_marseille","lat":43.26944,"lon":5.40242,"is_reserved":false,"is_disabled":false,"rental_uris":{"android":"levelo://app?vid=525a8f20-a747-4ee9-b95e-8640b81f3925","ios":"levelo://app?vid=525a8f20-a747-4ee9-b95e-8640b81f3925"},"vehicle_type_id":"4","last_reported":1758553917,"current_range_meters":2800,"station_id":"cjm6bp8fraef2m0cb0m0","pricing_plan_id":"cebpf4jnsgd1na2vs0mg"},{"bike_id":"d7c25918-4ee2-4f07-aafe-045313861472","system_id":"levelo_inurba_marseille","lat":43.27433,"lon":5.36132,"is_reserved":false,"is_disabled":false,"rental_uris":{"android":"levelo://app?vid=d7c25918-4ee2-4f07-aafe-045313861472","ios":"levelo://app?vid=d7c25918-4ee2-4f07-aafe-045313861472"},"vehicle_type_id":"4","last_reported":1758553917,"current_range_meters":3200,"station_id":"","pricing_plan_id":"cebpf4jnsgd1na2vs0mg"},{"bike_id":"979860ff-903c-49bc-9882-6c2a295d0da7","system_id":"levelo_inurba_marseille","lat":43.30522,"lon":5.36534,"is_reserved":false,"is_disabled":false,"rental_uris":{"android":"levelo://app?vid=979860ff-903c-49bc-9882-6c2a295d0da7","ios":"levelo://app?vid=979860ff-903c-49bc-9882-6c2a295d0da7"},"vehicle_type_id":"4","last_reported":1758553917,"current_range_meters":3600,"station_id":"ce4bgs12rcd13ifvqcag","pricing_plan_id":"cebpf4jnsgd1na2vs0mg"},{"bike_id":"a8bd987e-ebc4-4521-8524-2bc4c386b09d","system_id":"levelo_inurba_marseille","lat":43.313263,"lon":5.396954,"is_reserved":false,"is_disabled":false,"rental_uris":{"android":"levelo://app?vid=a8bd987e-ebc4-4521-8524-2bc4c386b09d","ios":"levelo://app?vid=a8bd987e-ebc4-4521-8524-2bc4c386b09d"},"vehicle_type_id":"4","last_reported":1758553917,"current_range_meters":3200,"station_id":"ce4bgvp2rcd13ifvqcu0","pricing_plan_id":"cebpf4jnsgd1na2vs0mg"},{"bike_id":"35793bf3-18f7-4e9e-872e-be039cf7c18c","system_id":"levelo_inurba_marseille","lat":43.30299,"lon":5.39213,"is_reserved":false,"is_disabled":false,"rental_uris":{"android":"levelo://app?vid=35793bf3-18f7-4e9e-872e-be039cf7c18c","ios":"levelo://app?vid=35793bf3-18f7-4e9e-872e-be039cf7c18c"},"vehicle_type_id":"4","last_reported":1758553917,"current_range_meters":3200,"station_id":"ce4bgkh2rcd13ifvqbk0","pricing_plan_id":"cebpf4jnsgd1na2vs0mg"},{"bike_id":"9f1e01e2-8720-4fbb-bed1-0bd35fd68191","system_id":"levelo_inurba_marseille","lat":43.27994,"lon":5.41663,"is_reserved":false,"is_disabled":false,"rental_uris":{"android":"levelo://app?vid=9f1e01e2-8720-4fbb-bed1-0bd35fd68191","ios":"levelo://app?vid=9f1e01e2-8720-4fbb-bed1-0bd35fd68191"},"vehicle_type_id":"4","last_reported":1758553917,"current_range_meters":3600,"station_id":"ce4bho12rcd13ifvqh1g","pricing_plan_id":"cebpf4jnsgd1na2vs0mg"},{"bike_id":"0f7caa9f-1d1a-40d7-9b4a-2f8720e63681","system_id":"levelo_inurba_marseille","lat":43.30877,"lon":5.37609,"is_reserved":false,"is_disabled":false,"rental_uris":{"android":"levelo://app?vid=0f7caa9f-1d1a-40d7-9b4a-2f8720e63681","ios":"levelo://app?vid=0f7caa9f-1d1a-40d7-9b4a-2f8720e63681"},"vehicle_type_id":"4","last_reported":1758553917,"current_range_meters":4000,"station_id":"","pricing_plan_id":"cebpf4jnsgd1na2vs0mg"},{"bike_id":"5cafa715-48f1-4909-925b-be41ab9539c9","system_id":"levelo_inurba_marseille","lat":43.27924,"lon":5.39588,"is_reserved":false,"is_disabled":false,"rental_uris":{"android":"levelo://app?vid=5cafa715-48f1-4909-925b-be41ab9539c9","ios":"levelo://app?vid=5cafa715-48f1-4909-925b-be41ab9539c9"},"vehicle_type_id":"4","last_reported":1758553917,"current_range_meters":4400,"station_id":"ce4bhf92rcd13ifvqf40","pricing_plan_id":"cebpf4jnsgd1na2vs0mg"},{"bike_id":"c8ca1c15-448e-4c29-b183-347a6b7be371","system_id":"levelo_inurba_marseille","lat":43.26571,"lon":5.39012,"is_reserved":false,"is_disabled":false,"rental_uris":{"android":"levelo://app?vid=c8ca1c15-448e-4c29-b183-347a6b7be371","ios":"levelo://app?vid=c8ca1c15-448e-4c29-b183-347a6b7be371"},"vehicle_type_id":"4","last_reported":1758553917,"current_range_meters":1600,"station_id":"ce4bhe12rcd13ifvqf30","pricing_plan_id":"cebpf4jnsgd1na2vs0mg"},{"bike_id":"d1c930dd-155e-413b-a518-66f7bc3f37cd","system_id":"levelo_inurba_marseille","lat":43.21749,"lon":5.34599,"is_reserved":false,"is_disabled":false,"rental_uris":{"android":"levelo://app?vid=d1c930dd-155e-413b-a518-66f7bc3f37cd","ios":"levelo://app?vid=d1c930dd-155e-413b-a518-66f7bc3f37cd"},"vehicle_type_id":"4","last_reported":1758553917,"current_range_meters":4400,"station_id":"st_cvj6r9ubvosntc0bgbag","pricing_plan_id":"cebpf4jnsgd1na2vs0mg"},{"bike_id":"00f245d4-44aa-4d05-bab1-fe1a8bba4205","system_id":"levelo_inurba_marseille","lat":43.28407,"lon":5.34979,"is_reserved":false,"is_disabled":false,"rental_uris":{"android":"levelo://app?vid=00f245d4-44aa-4d05-bab1-fe1a8bba4205","ios":"levelo://app?vid=00f245d4-44aa-4d05-bab1-fe1a8bba4205"},"vehicle_type_id":"4","last_reported":1758553917,"current_range_meters":4800,"station_id":"ce4bhbh2rcd13ifvqepg","pricing_plan_id":"cebpf4jnsgd1na2vs0mg"},{"bike_id":"87d85fbf-7d1d-4ed6-9e15-fa5f3b033258","system_id":"levelo_inurba_marseille","lat":43.32362,"lon":5.36764,"is_reserved":false,"is_disabled":false,"rental_uris":{"android":"levelo://app?vid=87d85fbf-7d1d-4ed6-9e15-fa5f3b033258","ios":"levelo://app?vid=87d85fbf-7d1d-4ed6-9e15-fa5f3b033258"},"vehicle_type_id":"4","last_reported":1758553917,"current_range_meters":4800,"station_id":"ce4bhsh2rcd13ifvqi2g","pricing_plan_id":"cebpf4jnsgd1na2vs0mg"},{"bike_id":"c1843d42-9f15-4235-8c7f-0c60147cb155","system_id":"levelo_inurba_marseille","lat":43.21181,"lon":5.35075,"is_reserved":false,"is_disabled":false,"rental_uris":{"android":"levelo://app?vid=c1843d42-9f15-4235-8c7f-0c60147cb155","ios":"levelo://app?vid=c1843d42-9f15-4235-8c7f-0c60147cb155"},"vehicle_type_id":"4","last_reported":1758553917,"current_range_meters":4800,"station_id":"st_cvj6sg6p6f1abm77japg","pricing_plan_id":"cebpf4jnsgd1na2vs0mg"},{"bike_id":"bdada13c-5294-4e4a-9fd3-72e6d2358e5f","system_id":"levelo_inurba_marseille","lat":43.27805,"lon":5.40715,"is_reserved":false,"is_disabled":false,"rental_uris":{"android":"levelo://app?vid=bdada13c-5294-4e4a-9fd3-72e6d2358e5f","ios":"levelo://app?vid=bdada13c-5294-4e4a-9fd3-72e6d2358e5f"},"vehicle_type_id":"4","last_reported":1758553917,"current_range_meters":4800,"station_id":"ce4bhnh2rcd13ifvqgtg","pricing_plan_id":"cebpf4jnsgd1na2vs0mg"},{"bike_id":"62a78e10-c6a9-485b-9c95-44a7c085d811","system_id":"levelo_inurba_marseille","lat":43.30796,"lon":5.3815,"is_reserved":false,"is_disabled":false,"rental_uris":{"android":"levelo://app?vid=62a78e10-c6a9-485b-9c95-44a7c085d811","ios":"levelo://app?vid=62a78e10-c6a9-485b-9c95-44a7c085d811"},"vehicle_type_id":"4","last_reported":1758553917,"current_range_meters":4800,"station_id":"ce4bgt12rcd13ifvqce0","pricing_plan_id":"cebpf4jnsgd1na2vs0mg"},{"bike_id":"a07a513e-e5a9-4481-8592-d991379bc662","system_id":"levelo_inurba_marseille","lat":43.337536,"lon":5.374536,"is_reserved":false,"is_disabled":false,"rental_uris":{"android":"levelo://app?vid=a07a513e-e5a9-4481-8592-d991379bc662","ios":"levelo://app?vid=a07a513e-e5a9-4481-8592-d991379bc662"},"vehicle_type_id":"4","last_reported":1758553917,"current_range_meters":4800,"station_id":"","pricing_plan_id":"cebpf4jnsgd1na2vs0mg"},{"bike_id":"75849f3b-49e7-4bcd-9469-c262d6757a29","system_id":"levelo_inurba_marseille","lat":43.29935,"lon":5.3656,"is_reserved":false,"is_disabled":false,"rental_uris":{"android":"levelo://app?vid=75849f3b-49e7-4bcd-9469-c262d6757a29","ios":"levelo://app?vid=75849f3b-49e7-4bcd-9469-c262d6757a29"},"vehicle_type_id":"4","last_reported":1758553917,"current_range_meters":5600,"station_id":"ce4bgm92rcd13ifvqbr0","pricing_plan_id":"cebpf4jnsgd1na2vs0mg"},{"bike_id":"e4d8ca0c-cfb3-4ae1-aa61-5f8a4004b227","system_id":"levelo_inurba_marseille","lat":43.281223,"lon":5.385926,"is_reserved":false,"is_disabled":false,"rental_uris":{"android":"levelo://app?vid=e4d8ca0c-cfb3-4ae1-aa61-5f8a4004b227","ios":"levelo://app?vid=e4d8ca0c-cfb3-4ae1-aa61-5f8a4004b227"},"vehicle_type_id":"4","last_reported":1758553917,"current_range_meters":5600,"station_id":"ce4bhg12rcd13ifvqf80","pricing_plan_id":"cebpf4jnsgd1na2vs0mg"},{"bike_id":"445a3e39-6357-414a-814c-8e287bacdab4","system_id":"levelo_inurba_marseille","lat":43.292511,"lon":5.384033,"is_reserved":false,"is_disabled":false,"rental_uris":{"android":"levelo://app?vid=445a3e39-6357-414a-814c-8e287bacdab4","ios":"levelo://app?vid=445a3e39-6357-414a-814c-8e287bacdab4"},"vehicle_type_id":"4","last_reported":1758553917,"current_range_meters":5600,"station_id":"ce4bh692rcd13ifvqea0","pricing_plan_id":"cebpf4jnsgd1na2vs0mg"},{"bike_id":"63fa1ada-407c-4422-80f5-d6764e10f8a5","system_id":"levelo_inurba_marseille","lat":43.29024,"lon":5.38645,"is_reserved":false,"is_disabled":false,"rental_uris":{"android":"levelo://app?vid=63fa1ada-407c-4422-80f5-d6764e10f8a5","ios":"levelo://app?vid=63fa1ada-407c-4422-80f5-d6764e10f8a5"},"vehicle_type_id":"4","last_reported":1758553917,"current_range_meters":5600,"station_id":"ce4bh4p2rcd13ifvqe0g","pricing_plan_id":"cebpf4jnsgd1na2vs0mg"},{"bike_id":"6fb7963e-6272-40f1-adb2-2dfc991aa3b0","system_id":"levelo_inurba_marseille","lat":43.31267,"lon":5.40173,"is_reserved":false,"is_disabled":false,"rental_uris":{"android":"levelo://app?vid=6fb7963e-6272-40f1-adb2-2dfc991aa3b0","ios":"levelo://app?vid=6fb7963e-6272-40f1-adb2-2dfc991aa3b0"},"vehicle_type_id":"4","last_reported":1758553917,"current_range_meters":4800,"station_id":"ce4bh092rcd13ifvqd30","pricing_plan_id":"cebpf4jnsgd1na2vs0mg"},{"bike_id":"f71614a1-3e01-4a98-8680-9fc40b4ca1a6","system_id":"levelo_inurba_marseille","lat":43.30602,"lon":5.3721,"is_reserved":false,"is_disabled":false,"rental_uris":{"android":"levelo://app?vid=f71614a1-3e01-4a98-8680-9fc40b4ca1a6","ios":"levelo://app?vid=f71614a1-3e01-4a98-8680-9fc40b4ca1a6"},"vehicle_type_id":"4","last_reported":1758553917,"current_range_meters":6000,"station_id":"ce4bgqh2rcd13ifvqc4g","pricing_plan_id":"cebpf4jnsgd1na2vs0mg"},{"bike_id":"fdf0162f-4c85-4aef-afff-ddda1f555406","system_id":"levelo_inurba_marseille","lat":43.27372,"lon":5.36261,"is_reserved":false,"is_disabled":false,"rental_uris":{"android":"levelo://app?vid=fdf0162f-4c85-4aef-afff-ddda1f555406","ios":"levelo://app?vid=fdf0162f-4c85-4aef-afff-ddda1f555406"},"vehicle_type_id":"4","last_reported":1758553917,"current_range_meters":6000,"station_id":"ce4bhbh2rcd13ifvqeo0","pricing_plan_id":"cebpf4jnsgd1na2vs0mg"},{"bike_id":"cfe0987e-eaf7-445e-8ad7-c85282c2f8b8","system_id":"levelo_inurba_marseille","lat":43.27619,"lon":5.36109,"is_reserved":false,"is_disabled":false,"rental_uris":{"android":"levelo://app?vid=cfe0987e-eaf7-445e-8ad7-c85282c2f8b8","ios":"levelo://app?vid=cfe0987e-eaf7-445e-8ad7-c85282c2f8b8"},"vehicle_type_id":"4","last_reported":1758553917,"current_range_meters":6000,"station_id":"ce4bgj92rcd13ifvqbe0","pricing_plan_id":"cebpf4jnsgd1na2vs0mg"},{"bike_id":"213f818a-2fc2-423a-8734-2921a1895f7c","system_id":"levelo_inurba_marseille","lat":43.21198,"lon":5.35072,"is_reserved":false,"is_disabled":false,"rental_uris":{"android":"levelo://app?vid=213f818a-2fc2-423a-8734-2921a1895f7c","ios":"levelo://app?vid=213f818a-2fc2-423a-8734-2921a1895f7c"},"vehicle_type_id":"4","last_reported":1758553917,"current_range_meters":6400,"station_id":"st_cvj6sg6p6f1abm77japg","pricing_plan_id":"cebpf4jnsgd1na2vs0mg"},{"bike_id":"9f2ad4b8-8453-47fd-bd9d-5a322a754051","system_id":"levelo_inurba_marseille","lat":43.305348,"lon":5.365463,"is_reserved":false,"is_disabled":false,"rental_uris":{"android":"levelo://app?vid=9f2ad4b8-8453-47fd-bd9d-5a322a754051","ios":"levelo://app?vid=9f2ad4b8-8453-47fd-bd9d-5a322a754051"},"vehicle_type_id":"4","last_reported":1758553917,"current_range_meters":6400,"station_id":"ce4bgs12rcd13ifvqcag","pricing_plan_id":"cebpf4jnsgd1na2vs0mg"},{"bike_id":"2289a0ff-9c3e-4f79-ad38-4b41158d6057","system_id":"levelo_inurba_marseille","lat":43.29882,"lon":5.37911,"is_reserved":false,"is_disabled":false,"rental_uris":{"android":"levelo://app?vid=2289a0ff-9c3e-4f79-ad38-4b41158d6057","ios":"levelo://app?vid=2289a0ff-9c3e-4f79-ad38-4b41158d6057"},"vehicle_type_id":"4","last_reported":1758553917,"current_range_meters":6400,"station_id":"","pricing_plan_id":"cebpf4jnsgd1na2vs0mg"},{"bike_id":"55d1bc08-fd54-4a82-afc7-2adcaa7b1c4e","system_id":"levelo_inurba_marseille","lat":43.30039,"lon":5.37677,"is_reserved":false,"is_disabled":false,"rental_uris":{"android":"levelo://app?vid=55d1bc08-fd54-4a82-afc7-2adcaa7b1c4e","ios":"levelo://app?vid=55d1bc08-fd54-4a82-afc7-2adcaa7b1c4e"},"vehicle_type_id":"4","last_reported":1758553917,"current_range_meters":6400,"station_id":"","pricing_plan_id":"cebpf4jnsgd1na2vs0mg"},{"bike_id":"488a8dcc-368d-403e-9456-bf1a5cf96bfd","system_id":"levelo_inurba_marseille","lat":43.21174,"lon":5.35073,"is_reserved":false,"is_disabled":false,"rental_uris":{"android":"levelo://app?vid=488a8dcc-368d-403e-9456-bf1a5cf96bfd","ios":"levelo://app?vid=488a8dcc-368d-403e-9456-bf1a5cf96bfd"},"vehicle_type_id":"4","last_reported":1758553917,"current_range_meters":6400,"station_id":"st_cvj6sg6p6f1abm77japg","pricing_plan_id":"cebpf4jnsgd1na2vs0mg"},{"bike_id":"2015c1f2-c286-408a-b930-50d865ce0bb9","system_id":"levelo_inurba_marseille","lat":43.23061,"lon":5.35489,"is_reserved":false,"is_disabled":false,"rental_uris":{"android":"levelo://app?vid=2015c1f2-c286-408a-b930-50d865ce0bb9","ios":"levelo://app?vid=2015c1f2-c286-408a-b930-50d865ce0bb9"},"vehicle_type_id":"4","last_reported":1758553917,"current_range_meters":6400,"station_id":"cpo3342slgdg3j2ifvpg","pricing_plan_id":"cebpf4jnsgd1na2vs0mg"},{"bike_id":"bfd95d2e-1d78-45d5-9a47-a9c953e5f516","system_id":"levelo_inurba_marseille","lat":43.290863,"lon":5.381543,"is_reserved":false,"is_disabled":true,"rental_uris":{"android":"levelo://app?vid=bfd95d2e-1d78-45d5-9a47-a9c953e5f516","ios":"levelo://app?vid=bfd95d2e-1d78-45d5-9a47-a9c953e5f516"},"vehicle_type_id":"4","last_reported":1758553917,"current_range_meters":6400,"station_id":"ce4bh512rcd13ifvqe2g","pricing_plan_id":"cebpf4jnsgd1na2vs0mg"},{"bike_id":"f57502dc-f897-460a-8977-8dd1ae675b8c","system_id":"levelo_inurba_marseille","lat":43.23054,"lon":5.35495,"is_reserved":false,"is_disabled":false,"rental_uris":{"android":"levelo://app?vid=f57502dc-f897-460a-8977-8dd1ae675b8c","ios":"levelo://app?vid=f57502dc-f897-460a-8977-8dd1ae675b8c"},"vehicle_type_id":"4","last_reported":1758553917,"current_range_meters":6800,"station_id":"","pricing_plan_id":"cebpf4jnsgd1na2vs0mg"},{"bike_id":"5319fae8-be79-4d87-b5d0-b333eba32d6a","system_id":"levelo_inurba_marseille","lat":43.23058,"lon":5.3549,"is_reserved":false,"is_disabled":false,"rental_uris":{"android":"levelo://app?vid=5319fae8-be79-4d87-b5d0-b333eba32d6a","ios":"levelo://app?vid=5319fae8-be79-4d87-b5d0-b333eba32d6a"},"vehicle_type_id":"4","last_reported":1758553917,"current_range_meters":6800,"station_id":"cpo3342slgdg3j2ifvpg","pricing_plan_id":"cebpf4jnsgd1na2vs0mg"},{"bike_id":"88e5d547-1c0a-45a6-84ea-d42becf0b1be","system_id":"levelo_inurba_marseille","lat":43.26935,"lon":5.40259,"is_reserved":false,"is_disabled":false,"rental_uris":{"android":"levelo://app?vid=88e5d547-1c0a-45a6-84ea-d42becf0b1be","ios":"levelo://app?vid=88e5d547-1c0a-45a6-84ea-d42becf0b1be"},"vehicle_type_id":"4","last_reported":1758553917,"current_range_meters":6400,"station_id":"cjm6bp8fraef2m0cb0m0","pricing_plan_id":"cebpf4jnsgd1na2vs0mg"},{"bike_id":"bf0fa880-86f9-4881-aeb4-8722ebf8bf79","system_id":"levelo_inurba_marseille","lat":43.28618,"lon":5.35104,"is_reserved":false,"is_disabled":false,"rental_uris":{"android":"levelo://app?vid=bf0fa880-86f9-4881-aeb4-8722ebf8bf79","ios":"levelo://app?vid=bf0fa880-86f9-4881-aeb4-8722ebf8bf79"},"vehicle_type_id":"4","last_reported":1758553917,"current_range_meters":6800,"station_id":"ce4bhch2rcd13ifvqeug","pricing_plan_id":"cebpf4jnsgd1na2vs0mg"},{"bike_id":"fa8b4ec1-c692-4569-bb3f-482aea4deb97","system_id":"levelo_inurba_marseille","lat":43.29196,"lon":5.39321,"is_reserved":false,"is_disabled":false,"rental_uris":{"android":"levelo://app?vid=fa8b4ec1-c692-4569-bb3f-482aea4deb97","ios":"levelo://app?vid=fa8b4ec1-c692-4569-bb3f-482aea4deb97"},"vehicle_type_id":"4","last_reported":1758553917,"current_range_meters":6400,"station_id":"ce4bh192rcd13ifvqdd0","pricing_plan_id":"cebpf4jnsgd1na2vs0mg"},{"bike_id":"e1238eb7-a9be-47fd-8bd8-6ea2fbab9f09","system_id":"levelo_inurba_marseille","lat":43.34151,"lon":5.40869,"is_reserved":false,"is_disabled":false,"rental_uris":{"android":"levelo://app?vid=e1238eb7-a9be-47fd-8bd8-6ea2fbab9f09","ios":"levelo://app?vid=e1238eb7-a9be-47fd-8bd8-6ea2fbab9f09"},"vehicle_type_id":"4","last_reported":1758553917,"current_range_meters":6400,"station_id":"ce4bhqh2rcd13ifvqhlg","pricing_plan_id":"cebpf4jnsgd1na2vs0mg"},{"bike_id":"68adab37-f5ad-4072-b58a-fe6c68285ca6","system_id":"levelo_inurba_marseille","lat":43.30603,"lon":5.37655,"is_reserved":false,"is_disabled":false,"rental_uris":{"android":"levelo://app?vid=68adab37-f5ad-4072-b58a-fe6c68285ca6","ios":"levelo://app?vid=68adab37-f5ad-4072-b58a-fe6c68285ca6"},"vehicle_type_id":"4","last_reported":1758553917,"current_range_meters":7200,"station_id":"","pricing_plan_id":"cebpf4jnsgd1na2vs0mg"},{"bike_id":"18472269-1064-4348-8ef3-5594bca8e948","system_id":"levelo_inurba_marseille","lat":43.30891,"lon":5.37205,"is_reserved":false,"is_disabled":false,"rental_uris":{"android":"levelo://app?vid=18472269-1064-4348-8ef3-5594bca8e948","ios":"levelo://app?vid=18472269-1064-4348-8ef3-5594bca8e948"},"vehicle_type_id":"4","last_reported":1758553917,"current_range_meters":7200,"station_id":"ce4bguh2rcd13ifvqckg","pricing_plan_id":"cebpf4jnsgd1na2vs0mg"},{"bike_id":"46fe0edd-64da-4ce0-a2e1-122895d31c24","system_id":"levelo_inurba_marseille","lat":43.27053,"lon":5.40263,"is_reserved":false,"is_disabled":false,"rental_uris":{"android":"levelo://app?vid=46fe0edd-64da-4ce0-a2e1-122895d31c24","ios":"levelo://app?vid=46fe0edd-64da-4ce0-a2e1-122895d31c24"},"vehicle_type_id":"4","last_reported":1758553917,"current_range_meters":8800,"station_id":"ce4bhk92rcd13ifvqgc0","pricing_plan_id":"cebpf4jnsgd1na2vs0mg"},{"bike_id":"f41197d4-42ca-426b-9d98-b18213ec63fe","system_id":"levelo_inurba_marseille","lat":43.29787,"lon":5.39341,"is_reserved":false,"is_disabled":false,"rental_uris":{"android":"levelo://app?vid=f41197d4-42ca-426b-9d98-b18213ec63fe","ios":"levelo://app?vid=f41197d4-42ca-426b-9d98-b18213ec63fe"},"vehicle_type_id":"4","last_reported":1758553917,"current_range_meters":7200,"station_id":"chh1huq6cuj3fo74tm60","pricing_plan_id":"cebpf4jnsgd1na2vs0mg"},{"bike_id":"a4d44884-1ce0-4f0c-b54d-0f2e825ca32d","system_id":"levelo_inurba_marseille","lat":43.30543,"lon":5.36549,"is_reserved":false,"is_disabled":false,"rental_uris":{"android":"levelo://app?vid=a4d44884-1ce0-4f0c-b54d-0f2e825ca32d","ios":"levelo://app?vid=a4d44884-1ce0-4f0c-b54d-0f2e825ca32d"},"vehicle_type_id":"4","last_reported":1758553917,"current_range_meters":7200,"station_id":"ce4bgs12rcd13ifvqcag","pricing_plan_id":"cebpf4jnsgd1na2vs0mg"},{"bike_id":"52769905-1974-4a15-870d-166eb9d05a52","system_id":"levelo_inurba_marseille","lat":43.26565,"lon":5.39009,"is_reserved":false,"is_disabled":false,"rental_uris":{"android":"levelo://app?vid=52769905-1974-4a15-870d-166eb9d05a52","ios":"levelo://app?vid=52769905-1974-4a15-870d-166eb9d05a52"},"vehicle_type_id":"4","last_reported":1758553917,"current_range_meters":7200,"station_id":"ce4bhe12rcd13ifvqf30","pricing_plan_id":"cebpf4jnsgd1na2vs0mg"},{"bike_id":"eebcbbf2-b11e-4a6b-b82c-b424c0e96aee","system_id":"levelo_inurba_marseille","lat":43.305361,"lon":5.366963,"is_reserved":false,"is_disabled":false,"rental_uris":{"android":"levelo://app?vid=eebcbbf2-b11e-4a6b-b82c-b424c0e96aee","ios":"levelo://app?vid=eebcbbf2-b11e-4a6b-b82c-b424c0e96aee"},"vehicle_type_id":"4","last_reported":1758553917,"current_range_meters":8000,"station_id":"ce4bgrp2rcd13ifvqc9g","pricing_plan_id":"cebpf4jnsgd1na2vs0mg"},{"bike_id":"93d74912-d9ee-4be6-bbca-0fd90f1cefa8","system_id":"levelo_inurba_marseille","lat":43.2987,"lon":5.3974,"is_reserved":false,"is_disabled":false,"rental_uris":{"android":"levelo://app?vid=93d74912-d9ee-4be6-bbca-0fd90f1cefa8","ios":"levelo://app?vid=93d74912-d9ee-4be6-bbca-0fd90f1cefa8"},"vehicle_type_id":"4","last_reported":1758553917,"current_range_meters":8000,"station_id":"ce4bh0h2rcd13ifvqd50","pricing_plan_id":"cebpf4jnsgd1na2vs0mg"},{"bike_id":"f581ccb4-ae4a-44ef-9aee-8da2f62ff531","system_id":"levelo_inurba_marseille","lat":43.31244,"lon":5.36824,"is_reserved":false,"is_disabled":false,"rental_uris":{"android":"levelo://app?vid=f581ccb4-ae4a-44ef-9aee-8da2f62ff531","ios":"levelo://app?vid=f581ccb4-ae4a-44ef-9aee-8da2f62ff531"},"vehicle_type_id":"4","last_reported":1758553917,"current_range_meters":8400,"station_id":"ce4bgl92rcd13ifvqbq0","pricing_plan_id":"cebpf4jnsgd1na2vs0mg"},{"bike_id":"c21b8138-0b98-45a8-870f-1183ccbf402c","system_id":"levelo_inurba_marseille","lat":43.29969,"lon":5.38486,"is_reserved":false,"is_disabled":false,"rental_uris":{"android":"levelo://app?vid=c21b8138-0b98-45a8-870f-1183ccbf402c","ios":"levelo://app?vid=c21b8138-0b98-45a8-870f-1183ccbf402c"},"vehicle_type_id":"4","last_reported":1758553917,"current_range_meters":8400,"station_id":"ce4bgj92rcd13ifvqbd0","pricing_plan_id":"cebpf4jnsgd1na2vs0mg"},{"bike_id":"e86857f8-f405-4657-b145-ec58ed187087","system_id":"levelo_inurba_marseille","lat":43.313618,"lon":5.384976,"is_reserved":false,"is_disabled":false,"rental_uris":{"android":"levelo://app?vid=e86857f8-f405-4657-b145-ec58ed187087","ios":"levelo://app?vid=e86857f8-f405-4657-b145-ec58ed187087"},"vehicle_type_id":"4","last_reported":1758553917,"current_range_meters":8400,"station_id":"ce4bgt92rcd13ifvqcf0","pricing_plan_id":"cebpf4jnsgd1na2vs0mg"},{"bike_id":"3bdd5bb9-a0e9-4635-93b6-b52acf859d7a","system_id":"levelo_inurba_marseille","lat":43.28261,"lon":5.35048,"is_reserved":false,"is_disabled":true,"rental_uris":{"android":"levelo://app?vid=3bdd5bb9-a0e9-4635-93b6-b52acf859d7a","ios":"levelo://app?vid=3bdd5bb9-a0e9-4635-93b6-b52acf859d7a"},"vehicle_type_id":"4","last_reported":1758553917,"current_range_meters":8400,"station_id":"ce4bhbp2rcd13ifvqerg","pricing_plan_id":"cebpf4jnsgd1na2vs0mg"},{"bike_id":"d2fdaaf6-1cbd-4491-8525-f3014d9a7f1a","system_id":"levelo_inurba_marseille","lat":43.23048,"lon":5.35491,"is_reserved":false,"is_disabled":true,"rental_uris":{"android":"levelo://app?vid=d2fdaaf6-1cbd-4491-8525-f3014d9a7f1a","ios":"levelo://app?vid=d2fdaaf6-1cbd-4491-8525-f3014d9a7f1a"},"vehicle_type_id":"4","last_reported":1758553917,"current_range_meters":8400,"station_id":"","pricing_plan_id":"cebpf4jnsgd1na2vs0mg"},{"bike_id":"9b38e49b-9ae3-4d71-8c86-18e02bd52360","system_id":"levelo_inurba_marseille","lat":43.32364,"lon":5.38887,"is_reserved":false,"is_disabled":false,"rental_uris":{"android":"levelo://app?vid=9b38e49b-9ae3-4d71-8c86-18e02bd52360","ios":"levelo://app?vid=9b38e49b-9ae3-4d71-8c86-18e02bd52360"},"vehicle_type_id":"4","last_reported":1758553917,"current_range_meters":8400,"station_id":"ce4bhqp2rcd13ifvqhog","pricing_plan_id":"cebpf4jnsgd1na2vs0mg"},{"bike_id":"85a6538e-b509-46bb-bf28-80e2c2ccea48","system_id":"levelo_inurba_marseille","lat":43.28263,"lon":5.35067,"is_reserved":false,"is_disabled":false,"rental_uris":{"android":"levelo://app?vid=85a6538e-b509-46bb-bf28-80e2c2ccea48","ios":"levelo://app?vid=85a6538e-b509-46bb-bf28-80e2c2ccea48"},"vehicle_type_id":"4","last_reported":1758553917,"current_range_meters":8400,"station_id":"ce4bhbp2rcd13ifvqerg","pricing_plan_id":"cebpf4jnsgd1na2vs0mg"},{"bike_id":"aadeabcf-a8ac-4f11-bad3-2bf818d563eb","system_id":"levelo_inurba_marseille","lat":43.31328,"lon":5.39689,"is_reserved":false,"is_disabled":false,"rental_uris":{"android":"levelo://app?vid=aadeabcf-a8ac-4f11-bad3-2bf818d563eb","ios":"levelo://app?vid=aadeabcf-a8ac-4f11-bad3-2bf818d563eb"},"vehicle_type_id":"4","last_reported":1758553917,"current_range_meters":8400,"station_id":"ce4bgvp2rcd13ifvqcu0","pricing_plan_id":"cebpf4jnsgd1na2vs0mg"},{"bike_id":"4bc02256-5e2b-44c0-9f77-e499671e456e","system_id":"levelo_inurba_marseille","lat":43.25577,"lon":5.38243,"is_reserved":false,"is_disabled":false,"rental_uris":{"android":"levelo://app?vid=4bc02256-5e2b-44c0-9f77-e499671e456e","ios":"levelo://app?vid=4bc02256-5e2b-44c0-9f77-e499671e456e"},"vehicle_type_id":"4","last_reported":1758553917,"current_range_meters":8800,"station_id":"ce4bhih2rcd13ifvqfs0","pricing_plan_id":"cebpf4jnsgd1na2vs0mg"},{"bike_id":"9278c8e4-f92e-4b80-9d1a-f8764c260a72","system_id":"levelo_inurba_marseille","lat":43.21746,"lon":5.34604,"is_reserved":false,"is_disabled":false,"rental_uris":{"android":"levelo://app?vid=9278c8e4-f92e-4b80-9d1a-f8764c260a72","ios":"levelo://app?vid=9278c8e4-f92e-4b80-9d1a-f8764c260a72"},"vehicle_type_id":"4","last_reported":1758553917,"current_range_meters":8800,"station_id":"st_cvj6r9ubvosntc0bgbag","pricing_plan_id":"cebpf4jnsgd1na2vs0mg"},{"bike_id":"a31bc234-151d-4368-93b6-4f21e70e1466","system_id":"levelo_inurba_marseille","lat":43.290177,"lon":5.356025,"is_reserved":false,"is_disabled":false,"rental_uris":{"android":"levelo://app?vid=a31bc234-151d-4368-93b6-4f21e70e1466","ios":"levelo://app?vid=a31bc234-151d-4368-93b6-4f21e70e1466"},"vehicle_type_id":"4","last_reported":1758553917,"current_range_meters":8400,"station_id":"ce4bhb92rcd13ifvqen0","pricing_plan_id":"cebpf4jnsgd1na2vs0mg"},{"bike_id":"048d716b-c615-4014-b6c4-07d4957cdc85","system_id":"levelo_inurba_marseille","lat":43.21183,"lon":5.35072,"is_reserved":false,"is_disabled":false,"rental_uris":{"android":"levelo://app?vid=048d716b-c615-4014-b6c4-07d4957cdc85","ios":"levelo://app?vid=048d716b-c615-4014-b6c4-07d4957cdc85"},"vehicle_type_id":"4","last_reported":1758553917,"current_range_meters":8800,"station_id":"st_cvj6sg6p6f1abm77japg","pricing_plan_id":"cebpf4jnsgd1na2vs0mg"},{"bike_id":"c887c007-fb12-43fe-a69d-b0e1d49601be","system_id":"levelo_inurba_marseille","lat":43.2174,"lon":5.34605,"is_reserved":false,"is_disabled":false,"rental_uris":{"android":"levelo://app?vid=c887c007-fb12-43fe-a69d-b0e1d49601be","ios":"levelo://app?vid=c887c007-fb12-43fe-a69d-b0e1d49601be"},"vehicle_type_id":"4","last_reported":1758553917,"current_range_meters":8800,"station_id":"st_cvj6r9ubvosntc0bgbag","pricing_plan_id":"cebpf4jnsgd1na2vs0mg"},{"bike_id":"6d24411d-89d9-4ed1-bf48-555eb6098fec","system_id":"levelo_inurba_marseille","lat":43.28258,"lon":5.35069,"is_reserved":false,"is_disabled":false,"rental_uris":{"android":"levelo://app?vid=6d24411d-89d9-4ed1-bf48-555eb6098fec","ios":"levelo://app?vid=6d24411d-89d9-4ed1-bf48-555eb6098fec"},"vehicle_type_id":"4","last_reported":1758553917,"current_range_meters":8800,"station_id":"ce4bhbp2rcd13ifvqerg","pricing_plan_id":"cebpf4jnsgd1na2vs0mg"},{"bike_id":"118b6d7e-3328-44e2-ae13-d04071b8c00f","system_id":"levelo_inurba_marseille","lat":43.21192,"lon":5.35066,"is_reserved":false,"is_disabled":false,"rental_uris":{"android":"levelo://app?vid=118b6d7e-3328-44e2-ae13-d04071b8c00f","ios":"levelo://app?vid=118b6d7e-3328-44e2-ae13-d04071b8c00f"},"vehicle_type_id":"4","last_reported":1758553917,"current_range_meters":9200,"station_id":"st_cvj6sg6p6f1abm77japg","pricing_plan_id":"cebpf4jnsgd1na2vs0mg"},{"bike_id":"0c8a92f3-f5d4-48dc-bbf5-8177c0a48b95","system_id":"levelo_inurba_marseille","lat":43.29628,"lon":5.38123,"is_reserved":false,"is_disabled":false,"rental_uris":{"android":"levelo://app?vid=0c8a92f3-f5d4-48dc-bbf5-8177c0a48b95","ios":"levelo://app?vid=0c8a92f3-f5d4-48dc-bbf5-8177c0a48b95"},"vehicle_type_id":"4","last_reported":1758553917,"current_range_meters":9200,"station_id":"ce4bgl12rcd13ifvqbo0","pricing_plan_id":"cebpf4jnsgd1na2vs0mg"},{"bike_id":"a95a546a-691f-414b-9f19-eb455305a59b","system_id":"levelo_inurba_marseille","lat":43.21727,"lon":5.346,"is_reserved":false,"is_disabled":false,"rental_uris":{"android":"levelo://app?vid=a95a546a-691f-414b-9f19-eb455305a59b","ios":"levelo://app?vid=a95a546a-691f-414b-9f19-eb455305a59b"},"vehicle_type_id":"4","last_reported":1758553917,"current_range_meters":9200,"station_id":"st_cvj6r9ubvosntc0bgbag","pricing_plan_id":"cebpf4jnsgd1na2vs0mg"},{"bike_id":"363d99e5-837c-43c8-abcc-c80ef2e2786a","system_id":"levelo_inurba_marseille","lat":43.21193,"lon":5.35065,"is_reserved":false,"is_disabled":false,"rental_uris":{"android":"levelo://app?vid=363d99e5-837c-43c8-abcc-c80ef2e2786a","ios":"levelo://app?vid=363d99e5-837c-43c8-abcc-c80ef2e2786a"},"vehicle_type_id":"4","last_reported":1758553917,"current_range_meters":9200,"station_id":"st_cvj6sg6p6f1abm77japg","pricing_plan_id":"cebpf4jnsgd1na2vs0mg"},{"bike_id":"76bbf107-7ec5-4826-b296-ab629ecd14ab","system_id":"levelo_inurba_marseille","lat":43.29815,"lon":5.42125,"is_reserved":false,"is_disabled":false,"rental_uris":{"android":"levelo://app?vid=76bbf107-7ec5-4826-b296-ab629ecd14ab","ios":"levelo://app?vid=76bbf107-7ec5-4826-b296-ab629ecd14ab"},"vehicle_type_id":"4","last_reported":1758553917,"current_range_meters":9200,"station_id":"","pricing_plan_id":"cebpf4jnsgd1na2vs0mg"},{"bike_id":"8a569a47-46ff-4e91-972f-c6991b590b75","system_id":"levelo_inurba_marseille","lat":43.30239,"lon":5.40069,"is_reserved":false,"is_disabled":false,"rental_uris":{"android":"levelo://app?vid=8a569a47-46ff-4e91-972f-c6991b590b75","ios":"levelo://app?vid=8a569a47-46ff-4e91-972f-c6991b590b75"},"vehicle_type_id":"4","last_reported":1758553917,"current_range_meters":9600,"station_id":"ce4bgvh2rcd13ifvqcs0","pricing_plan_id":"cebpf4jnsgd1na2vs0mg"},{"bike_id":"ca7cfd93-60d9-4fda-b2da-28a86ec02074","system_id":"levelo_inurba_marseille","lat":43.33485,"lon":5.36224,"is_reserved":false,"is_disabled":false,"rental_uris":{"android":"levelo://app?vid=ca7cfd93-60d9-4fda-b2da-28a86ec02074","ios":"levelo://app?vid=ca7cfd93-60d9-4fda-b2da-28a86ec02074"},"vehicle_type_id":"4","last_reported":1758553917,"current_range_meters":9600,"station_id":"","pricing_plan_id":"cebpf4jnsgd1na2vs0mg"},{"bike_id":"eb867823-1460-4667-bda9-2b6896a9ae41","system_id":"levelo_inurba_marseille","lat":43.27911,"lon":5.39587,"is_reserved":false,"is_disabled":false,"rental_uris":{"android":"levelo://app?vid=eb867823-1460-4667-bda9-2b6896a9ae41","ios":"levelo://app?vid=eb867823-1460-4667-bda9-2b6896a9ae41"},"vehicle_type_id":"4","last_reported":1758553917,"current_range_meters":9600,"station_id":"ce4bhf92rcd13ifvqf40","pricing_plan_id":"cebpf4jnsgd1na2vs0mg"},{"bike_id":"1c49f67e-0262-4944-bec3-b7aeb977bc62","system_id":"levelo_inurba_marseille","lat":43.3055,"lon":5.36561,"is_reserved":false,"is_disabled":false,"rental_uris":{"android":"levelo://app?vid=1c49f67e-0262-4944-bec3-b7aeb977bc62","ios":"levelo://app?vid=1c49f67e-0262-4944-bec3-b7aeb977bc62"},"vehicle_type_id":"4","last_reported":1758553917,"current_range_meters":9600,"station_id":"ce4bgs12rcd13ifvqcag","pricing_plan_id":"cebpf4jnsgd1na2vs0mg"},{"bike_id":"9176512c-2cc1-4df2-a8e0-6be514fbcdbf","system_id":"levelo_inurba_marseille","lat":43.33748,"lon":5.37465,"is_reserved":false,"is_disabled":false,"rental_uris":{"android":"levelo://app?vid=9176512c-2cc1-4df2-a8e0-6be514fbcdbf","ios":"levelo://app?vid=9176512c-2cc1-4df2-a8e0-6be514fbcdbf"},"vehicle_type_id":"4","last_reported":1758553917,"current_range_meters":9600,"station_id":"","pricing_plan_id":"cebpf4jnsgd1na2vs0mg"},{"bike_id":"438ead59-de14-4fa0-a61d-03a70a4122ae","system_id":"levelo_inurba_marseille","lat":43.97285,"lon":4.89134,"is_reserved":false,"is_disabled":true,"rental_uris":{"android":"levelo://app?vid=438ead59-de14-4fa0-a61d-03a70a4122ae","ios":"levelo://app?vid=438ead59-de14-4fa0-a61d-03a70a4122ae"},"vehicle_type_id":"4","last_reported":1758553917,"current_range_meters":9600,"station_id":"","pricing_plan_id":"cebpf4jnsgd1na2vs0mg"},{"bike_id":"8192127d-787e-4192-a621-072bc20c3d57","system_id":"levelo_inurba_marseille","lat":43.2979,"lon":5.39341,"is_reserved":false,"is_disabled":false,"rental_uris":{"android":"levelo://app?vid=8192127d-787e-4192-a621-072bc20c3d57","ios":"levelo://app?vid=8192127d-787e-4192-a621-072bc20c3d57"},"vehicle_type_id":"4","last_reported":1758553917,"current_range_meters":10000,"station_id":"chh1huq6cuj3fo74tm60","pricing_plan_id":"cebpf4jnsgd1na2vs0mg"},{"bike_id":"0402438e-d72b-4870-8e22-17facef5f22b","system_id":"levelo_inurba_marseille","lat":43.29577,"lon":5.39162,"is_reserved":false,"is_disabled":false,"rental_uris":{"android":"levelo://app?vid=0402438e-d72b-4870-8e22-17facef5f22b","ios":"levelo://app?vid=0402438e-d72b-4870-8e22-17facef5f22b"},"vehicle_type_id":"4","last_reported":1758553917,"current_range_meters":10000,"station_id":"","pricing_plan_id":"cebpf4jnsgd1na2vs0mg"},{"bike_id":"ee65e3e2-ba4d-4326-a670-5ca43f8e5e7f","system_id":"levelo_inurba_marseille","lat":43.292283,"lon":5.360473,"is_reserved":false,"is_disabled":false,"rental_uris":{"android":"levelo://app?vid=ee65e3e2-ba4d-4326-a670-5ca43f8e5e7f","ios":"levelo://app?vid=ee65e3e2-ba4d-4326-a670-5ca43f8e5e7f"},"vehicle_type_id":"4","last_reported":1758553917,"current_range_meters":10000,"station_id":"ce4bhbh2rcd13ifvqeqg","pricing_plan_id":"cebpf4jnsgd1na2vs0mg"},{"bike_id":"4cb2c299-e24e-40ea-8d81-d697a2add8e3","system_id":"levelo_inurba_marseille","lat":43.30927,"lon":5.40139,"is_reserved":false,"is_disabled":false,"rental_uris":{"android":"levelo://app?vid=4cb2c299-e24e-40ea-8d81-d697a2add8e3","ios":"levelo://app?vid=4cb2c299-e24e-40ea-8d81-d697a2add8e3"},"vehicle_type_id":"4","last_reported":1758553917,"current_range_meters":10000,"station_id":"ce4bgvp2rcd13ifvqct0","pricing_plan_id":"cebpf4jnsgd1na2vs0mg"},{"bike_id":"5d034820-5a29-42a8-930f-9e2d08f33321","system_id":"levelo_inurba_marseille","lat":43.2842,"lon":5.37525,"is_reserved":false,"is_disabled":false,"rental_uris":{"android":"levelo://app?vid=5d034820-5a29-42a8-930f-9e2d08f33321","ios":"levelo://app?vid=5d034820-5a29-42a8-930f-9e2d08f33321"},"vehicle_type_id":"4","last_reported":1758553917,"current_range_meters":10800,"station_id":"ce4bh412rcd13ifvqds0","pricing_plan_id":"cebpf4jnsgd1na2vs0mg"},{"bike_id":"81c3fab1-977e-4faf-8b57-7c1f7cd82d49","system_id":"levelo_inurba_marseille","lat":43.28697,"lon":5.39988,"is_reserved":false,"is_disabled":false,"rental_uris":{"android":"levelo://app?vid=81c3fab1-977e-4faf-8b57-7c1f7cd82d49","ios":"levelo://app?vid=81c3fab1-977e-4faf-8b57-7c1f7cd82d49"},"vehicle_type_id":"4","last_reported":1758553917,"current_range_meters":10800,"station_id":"ce4bho92rcd13ifvqh3g","pricing_plan_id":"cebpf4jnsgd1na2vs0mg"},{"bike_id":"1acc509b-af85-4b58-bd74-e0c052811dd7","system_id":"levelo_inurba_marseille","lat":43.30284,"lon":5.396613,"is_reserved":false,"is_disabled":false,"rental_uris":{"android":"levelo://app?vid=1acc509b-af85-4b58-bd74-e0c052811dd7","ios":"levelo://app?vid=1acc509b-af85-4b58-bd74-e0c052811dd7"},"vehicle_type_id":"4","last_reported":1758553917,"current_range_meters":10800,"station_id":"","pricing_plan_id":"cebpf4jnsgd1na2vs0mg"},{"bike_id":"c012b5ee-bbe2-40c3-81a9-754e5b76b090","system_id":"levelo_inurba_marseille","lat":43.23204,"lon":5.39983,"is_reserved":false,"is_disabled":false,"rental_uris":{"android":"levelo://app?vid=c012b5ee-bbe2-40c3-81a9-754e5b76b090","ios":"levelo://app?vid=c012b5ee-bbe2-40c3-81a9-754e5b76b090"},"vehicle_type_id":"4","last_reported":1758553917,"current_range_meters":10800,"station_id":"ce4bhn12rcd13ifvqgqg","pricing_plan_id":"cebpf4jnsgd1na2vs0mg"},{"bike_id":"4373faac-ecea-4140-bf4b-936ee6dfbea2","system_id":"levelo_inurba_marseille","lat":43.26065,"lon":5.3938,"is_reserved":false,"is_disabled":false,"rental_uris":{"android":"levelo://app?vid=4373faac-ecea-4140-bf4b-936ee6dfbea2","ios":"levelo://app?vid=4373faac-ecea-4140-bf4b-936ee6dfbea2"},"vehicle_type_id":"4","last_reported":1758553917,"current_range_meters":10800,"station_id":"ce4bhh92rcd13ifvqfj0","pricing_plan_id":"cebpf4jnsgd1na2vs0mg"},{"bike_id":"18aef225-583a-4d3d-89bb-4c95833834b9","system_id":"levelo_inurba_marseille","lat":43.2904,"lon":5.35913,"is_reserved":false,"is_disabled":false,"rental_uris":{"android":"levelo://app?vid=18aef225-583a-4d3d-89bb-4c95833834b9","ios":"levelo://app?vid=18aef225-583a-4d3d-89bb-4c95833834b9"},"vehicle_type_id":"4","last_reported":1758553917,"current_range_meters":10800,"station_id":"ce4bha92rcd13ifvqeg0","pricing_plan_id":"cebpf4jnsgd1na2vs0mg"},{"bike_id":"dac7d1e1-8844-4b05-9812-804c3617f4da","system_id":"levelo_inurba_marseille","lat":43.31265,"lon":5.40179,"is_reserved":false,"is_disabled":false,"rental_uris":{"android":"levelo://app?vid=dac7d1e1-8844-4b05-9812-804c3617f4da","ios":"levelo://app?vid=dac7d1e1-8844-4b05-9812-804c3617f4da"},"vehicle_type_id":"4","last_reported":1758553917,"current_range_meters":11200,"station_id":"ce4bh092rcd13ifvqd30","pricing_plan_id":"cebpf4jnsgd1na2vs0mg"},{"bike_id":"5ac2bd40-dcc2-4744-9e58-25d5fdc2696e","system_id":"levelo_inurba_marseille","lat":43.29593,"lon":5.37714,"is_reserved":false,"is_disabled":false,"rental_uris":{"android":"levelo://app?vid=5ac2bd40-dcc2-4744-9e58-25d5fdc2696e","ios":"levelo://app?vid=5ac2bd40-dcc2-4744-9e58-25d5fdc2696e"},"vehicle_type_id":"4","last_reported":1758553917,"current_range_meters":11200,"station_id":"ce4bgi92rcd13ifvqb90","pricing_plan_id":"cebpf4jnsgd1na2vs0mg"},{"bike_id":"c3e9ec78-d16b-45ba-a192-2cfab652bb22","system_id":"levelo_inurba_marseille","lat":43.2961,"lon":5.36974,"is_reserved":false,"is_disabled":false,"rental_uris":{"android":"levelo://app?vid=c3e9ec78-d16b-45ba-a192-2cfab652bb22","ios":"levelo://app?vid=c3e9ec78-d16b-45ba-a192-2cfab652bb22"},"vehicle_type_id":"4","last_reported":1758553917,"current_range_meters":11200,"station_id":"","pricing_plan_id":"cebpf4jnsgd1na2vs0mg"},{"bike_id":"f79358a8-66ea-468e-ac6a-7260dcc2f14a","system_id":"levelo_inurba_marseille","lat":43.2905,"lon":5.35902,"is_reserved":false,"is_disabled":false,"rental_uris":{"android":"levelo://app?vid=f79358a8-66ea-468e-ac6a-7260dcc2f14a","ios":"levelo://app?vid=f79358a8-66ea-468e-ac6a-7260dcc2f14a"},"vehicle_type_id":"4","last_reported":1758553917,"current_range_meters":11200,"station_id":"ce4bha92rcd13ifvqeg0","pricing_plan_id":"cebpf4jnsgd1na2vs0mg"},{"bike_id":"d64a3c34-4f58-4a33-9858-96d7eeac0575","system_id":"levelo_inurba_marseille","lat":43.22924,"lon":5.35395,"is_reserved":false,"is_disabled":false,"rental_uris":{"android":"levelo://app?vid=d64a3c34-4f58-4a33-9858-96d7eeac0575","ios":"levelo://app?vid=d64a3c34-4f58-4a33-9858-96d7eeac0575"},"vehicle_type_id":"4","last_reported":1758553917,"current_range_meters":11600,"station_id":"cpo3532slgdg3j2ikp40","pricing_plan_id":"cebpf4jnsgd1na2vs0mg"},{"bike_id":"4f645b2f-8e26-48da-bb4b-8c374ac13384","system_id":"levelo_inurba_marseille","lat":43.21198,"lon":5.35059,"is_reserved":false,"is_disabled":false,"rental_uris":{"android":"levelo://app?vid=4f645b2f-8e26-48da-bb4b-8c374ac13384","ios":"levelo://app?vid=4f645b2f-8e26-48da-bb4b-8c374ac13384"},"vehicle_type_id":"4","last_reported":1758553917,"current_range_meters":11600,"station_id":"st_cvj6sg6p6f1abm77japg","pricing_plan_id":"cebpf4jnsgd1na2vs0mg"},{"bike_id":"c46575d3-d222-4081-9970-3a38bb708282","system_id":"levelo_inurba_marseille","lat":43.22907,"lon":5.35386,"is_reserved":false,"is_disabled":false,"rental_uris":{"android":"levelo://app?vid=c46575d3-d222-4081-9970-3a38bb708282","ios":"levelo://app?vid=c46575d3-d222-4081-9970-3a38bb708282"},"vehicle_type_id":"4","last_reported":1758553917,"current_range_meters":11600,"station_id":"cpo3532slgdg3j2ikp40","pricing_plan_id":"cebpf4jnsgd1na2vs0mg"},{"bike_id":"26fa17e9-43b0-4f88-9e80-ae593132956e","system_id":"levelo_inurba_marseille","lat":43.27905,"lon":5.38017,"is_reserved":false,"is_disabled":false,"rental_uris":{"android":"levelo://app?vid=26fa17e9-43b0-4f88-9e80-ae593132956e","ios":"levelo://app?vid=26fa17e9-43b0-4f88-9e80-ae593132956e"},"vehicle_type_id":"4","last_reported":1758553917,"current_range_meters":11600,"station_id":"ce4bhf92rcd13ifvqf50","pricing_plan_id":"cebpf4jnsgd1na2vs0mg"},{"bike_id":"790854f2-162b-4c9e-9e1b-1139200a6ddb","system_id":"levelo_inurba_marseille","lat":43.29781,"lon":5.39345,"is_reserved":false,"is_disabled":false,"rental_uris":{"android":"levelo://app?vid=790854f2-162b-4c9e-9e1b-1139200a6ddb","ios":"levelo://app?vid=790854f2-162b-4c9e-9e1b-1139200a6ddb"},"vehicle_type_id":"4","last_reported":1758553917,"current_range_meters":11200,"station_id":"chh1huq6cuj3fo74tm60","pricing_plan_id":"cebpf4jnsgd1na2vs0mg"},{"bike_id":"aa615de6-88cf-4553-9e37-2b398204d202","system_id":"levelo_inurba_marseille","lat":43.21174,"lon":5.35037,"is_reserved":false,"is_disabled":false,"rental_uris":{"android":"levelo://app?vid=aa615de6-88cf-4553-9e37-2b398204d202","ios":"levelo://app?vid=aa615de6-88cf-4553-9e37-2b398204d202"},"vehicle_type_id":"4","last_reported":1758553917,"current_range_meters":12000,"station_id":"st_cvj6sg6p6f1abm77japg","pricing_plan_id":"cebpf4jnsgd1na2vs0mg"},{"bike_id":"639164e1-7285-4a19-ae4b-c8b43767513a","system_id":"levelo_inurba_marseille","lat":43.276836,"lon":5.388947,"is_reserved":false,"is_disabled":false,"rental_uris":{"android":"levelo://app?vid=639164e1-7285-4a19-ae4b-c8b43767513a","ios":"levelo://app?vid=639164e1-7285-4a19-ae4b-c8b43767513a"},"vehicle_type_id":"4","last_reported":1758553917,"current_range_meters":11600,"station_id":"ce4bhi12rcd13ifvqfo0","pricing_plan_id":"cebpf4jnsgd1na2vs0mg"},{"bike_id":"b9d75044-f375-46d1-bc25-5edaccd75387","system_id":"levelo_inurba_marseille","lat":43.26195,"lon":5.37932,"is_reserved":false,"is_disabled":false,"rental_uris":{"android":"levelo://app?vid=b9d75044-f375-46d1-bc25-5edaccd75387","ios":"levelo://app?vid=b9d75044-f375-46d1-bc25-5edaccd75387"},"vehicle_type_id":"4","last_reported":1758553917,"current_range_meters":12000,"station_id":"ce4bhjp2rcd13ifvqg90","pricing_plan_id":"cebpf4jnsgd1na2vs0mg"},{"bike_id":"43d57fd4-047e-4ac8-97e5-ec9b96239472","system_id":"levelo_inurba_marseille","lat":43.33123,"lon":5.39726,"is_reserved":false,"is_disabled":false,"rental_uris":{"android":"levelo://app?vid=43d57fd4-047e-4ac8-97e5-ec9b96239472","ios":"levelo://app?vid=43d57fd4-047e-4ac8-97e5-ec9b96239472"},"vehicle_type_id":"4","last_reported":1758553917,"current_range_meters":12000,"station_id":"","pricing_plan_id":"cebpf4jnsgd1na2vs0mg"},{"bike_id":"51d92c87-aa59-4783-b818-f9c5a7eebd73","system_id":"levelo_inurba_marseille","lat":43.29526,"lon":5.374,"is_reserved":false,"is_disabled":false,"rental_uris":{"android":"levelo://app?vid=51d92c87-aa59-4783-b818-f9c5a7eebd73","ios":"levelo://app?vid=51d92c87-aa59-4783-b818-f9c5a7eebd73"},"vehicle_type_id":"4","last_reported":1758553917,"current_range_meters":12400,"station_id":"","pricing_plan_id":"cebpf4jnsgd1na2vs0mg"},{"bike_id":"5822f00b-70ac-4e23-bff4-77087bbafe72","system_id":"levelo_inurba_marseille","lat":43.29527,"lon":5.38539,"is_reserved":false,"is_disabled":false,"rental_uris":{"android":"levelo://app?vid=5822f00b-70ac-4e23-bff4-77087bbafe72","ios":"levelo://app?vid=5822f00b-70ac-4e23-bff4-77087bbafe72"},"vehicle_type_id":"4","last_reported":1758553917,"current_range_meters":12400,"station_id":"ce4bgih2rcd13ifvqba0","pricing_plan_id":"cebpf4jnsgd1na2vs0mg"},{"bike_id":"6e417fed-8d43-4963-b52e-c54cd79d652e","system_id":"levelo_inurba_marseille","lat":43.30139,"lon":5.387762,"is_reserved":false,"is_disabled":true,"rental_uris":{"android":"levelo://app?vid=6e417fed-8d43-4963-b52e-c54cd79d652e","ios":"levelo://app?vid=6e417fed-8d43-4963-b52e-c54cd79d652e"},"vehicle_type_id":"4","last_reported":1758553917,"current_range_meters":12400,"station_id":"ce4bghh2rcd13ifvqb60","pricing_plan_id":"cebpf4jnsgd1na2vs0mg"},{"bike_id":"1c64ce83-8502-4a91-9413-396b0627bcd6","system_id":"levelo_inurba_marseille","lat":43.31701,"lon":5.43717,"is_reserved":false,"is_disabled":false,"rental_uris":{"android":"levelo://app?vid=1c64ce83-8502-4a91-9413-396b0627bcd6","ios":"levelo://app?vid=1c64ce83-8502-4a91-9413-396b0627bcd6"},"vehicle_type_id":"4","last_reported":1758553917,"current_range_meters":12400,"station_id":"ce4bhp92rcd13ifvqhcg","pricing_plan_id":"cebpf4jnsgd1na2vs0mg"},{"bike_id":"5d488913-1ead-4af6-b821-f50edb31bf8e","system_id":"levelo_inurba_marseille","lat":43.29619,"lon":5.37153,"is_reserved":false,"is_disabled":false,"rental_uris":{"android":"levelo://app?vid=5d488913-1ead-4af6-b821-f50edb31bf8e","ios":"levelo://app?vid=5d488913-1ead-4af6-b821-f50edb31bf8e"},"vehicle_type_id":"4","last_reported":1758553917,"current_range_meters":12400,"station_id":"ce4bgnh2rcd13ifvqc0g","pricing_plan_id":"cebpf4jnsgd1na2vs0mg"},{"bike_id":"94dc763b-5c60-4e8c-a6fc-573bcaf8f7f0","system_id":"levelo_inurba_marseille","lat":43.32483,"lon":5.36556,"is_reserved":false,"is_disabled":false,"rental_uris":{"android":"levelo://app?vid=94dc763b-5c60-4e8c-a6fc-573bcaf8f7f0","ios":"levelo://app?vid=94dc763b-5c60-4e8c-a6fc-573bcaf8f7f0"},"vehicle_type_id":"4","last_reported":1758553917,"current_range_meters":12800,"station_id":"ce4bhs12rcd13ifvqhvg","pricing_plan_id":"cebpf4jnsgd1na2vs0mg"},{"bike_id":"c1b8bb54-328d-4d53-b541-cfb9ce34db66","system_id":"levelo_inurba_marseille","lat":43.29948,"lon":5.36519,"is_reserved":false,"is_disabled":false,"rental_uris":{"android":"levelo://app?vid=c1b8bb54-328d-4d53-b541-cfb9ce34db66","ios":"levelo://app?vid=c1b8bb54-328d-4d53-b541-cfb9ce34db66"},"vehicle_type_id":"4","last_reported":1758553917,"current_range_meters":12800,"station_id":"ce4bgm92rcd13ifvqbr0","pricing_plan_id":"cebpf4jnsgd1na2vs0mg"},{"bike_id":"484d3ccf-95d1-49bf-ad0b-a8a63b8c494e","system_id":"levelo_inurba_marseille","lat":43.29265,"lon":5.38462,"is_reserved":false,"is_disabled":false,"rental_uris":{"android":"levelo://app?vid=484d3ccf-95d1-49bf-ad0b-a8a63b8c494e","ios":"levelo://app?vid=484d3ccf-95d1-49bf-ad0b-a8a63b8c494e"},"vehicle_type_id":"4","last_reported":1758553917,"current_range_meters":12800,"station_id":"ce4bh692rcd13ifvqea0","pricing_plan_id":"cebpf4jnsgd1na2vs0mg"},{"bike_id":"90e14a2d-1c9e-457a-a1d7-7257e3270581","system_id":"levelo_inurba_marseille","lat":43.27994,"lon":5.41662,"is_reserved":false,"is_disabled":true,"rental_uris":{"android":"levelo://app?vid=90e14a2d-1c9e-457a-a1d7-7257e3270581","ios":"levelo://app?vid=90e14a2d-1c9e-457a-a1d7-7257e3270581"},"vehicle_type_id":"4","last_reported":1758553917,"current_range_meters":12800,"station_id":"ce4bho12rcd13ifvqh1g","pricing_plan_id":"cebpf4jnsgd1na2vs0mg"},{"bike_id":"f0fca713-2b9c-4144-bedb-3a48811b75eb","system_id":"levelo_inurba_marseille","lat":43.32285,"lon":5.38278,"is_reserved":false,"is_disabled":false,"rental_uris":{"android":"levelo://app?vid=f0fca713-2b9c-4144-bedb-3a48811b75eb","ios":"levelo://app?vid=f0fca713-2b9c-4144-bedb-3a48811b75eb"},"vehicle_type_id":"4","last_reported":1758553917,"current_range_meters":12800,"station_id":"ce4bhr12rcd13ifvqhqg","pricing_plan_id":"cebpf4jnsgd1na2vs0mg"},{"bike_id":"c384fef2-a4cf-4024-80a9-e81ed45ffb26","system_id":"levelo_inurba_marseille","lat":43.23177,"lon":5.39985,"is_reserved":false,"is_disabled":false,"rental_uris":{"android":"levelo://app?vid=c384fef2-a4cf-4024-80a9-e81ed45ffb26","ios":"levelo://app?vid=c384fef2-a4cf-4024-80a9-e81ed45ffb26"},"vehicle_type_id":"4","last_reported":1758553917,"current_range_meters":12400,"station_id":"ce4bhn12rcd13ifvqgqg","pricing_plan_id":"cebpf4jnsgd1na2vs0mg"},{"bike_id":"77eeb9b5-0e68-4a7b-b5d1-530ce6c04cd4","system_id":"levelo_inurba_marseille","lat":43.22918,"lon":5.35381,"is_reserved":false,"is_disabled":false,"rental_uris":{"android":"levelo://app?vid=77eeb9b5-0e68-4a7b-b5d1-530ce6c04cd4","ios":"levelo://app?vid=77eeb9b5-0e68-4a7b-b5d1-530ce6c04cd4"},"vehicle_type_id":"4","last_reported":1758553917,"current_range_meters":13600,"station_id":"cpo3532slgdg3j2ikp40","pricing_plan_id":"cebpf4jnsgd1na2vs0mg"},{"bike_id":"8067b7de-b0f3-497e-98c0-65b5c8a35470","system_id":"levelo_inurba_marseille","lat":43.31878,"lon":5.37908,"is_reserved":false,"is_disabled":false,"rental_uris":{"android":"levelo://app?vid=8067b7de-b0f3-497e-98c0-65b5c8a35470","ios":"levelo://app?vid=8067b7de-b0f3-497e-98c0-65b5c8a35470"},"vehicle_type_id":"4","last_reported":1758553917,"current_range_meters":13600,"station_id":"","pricing_plan_id":"cebpf4jnsgd1na2vs0mg"},{"bike_id":"30e91b1e-9780-4872-9706-ef49321dfc03","system_id":"levelo_inurba_marseille","lat":43.28422,"lon":5.39188,"is_reserved":false,"is_disabled":false,"rental_uris":{"android":"levelo://app?vid=30e91b1e-9780-4872-9706-ef49321dfc03","ios":"levelo://app?vid=30e91b1e-9780-4872-9706-ef49321dfc03"},"vehicle_type_id":"4","last_reported":1758553917,"current_range_meters":13600,"station_id":"ce4bhoh2rcd13ifvqh5g","pricing_plan_id":"cebpf4jnsgd1na2vs0mg"},{"bike_id":"0b2230e3-adb9-421c-91b1-c113eb397705","system_id":"levelo_inurba_marseille","lat":43.28907,"lon":5.3763,"is_reserved":false,"is_disabled":false,"rental_uris":{"android":"levelo://app?vid=0b2230e3-adb9-421c-91b1-c113eb397705","ios":"levelo://app?vid=0b2230e3-adb9-421c-91b1-c113eb397705"},"vehicle_type_id":"4","last_reported":1758553917,"current_range_meters":14000,"station_id":"","pricing_plan_id":"cebpf4jnsgd1na2vs0mg"},{"bike_id":"c8356cfd-3c9f-4c92-8a60-8d788faafeda","system_id":"levelo_inurba_marseille","lat":43.29253,"lon":5.40908,"is_reserved":false,"is_disabled":false,"rental_uris":{"android":"levelo://app?vid=c8356cfd-3c9f-4c92-8a60-8d788faafeda","ios":"levelo://app?vid=c8356cfd-3c9f-4c92-8a60-8d788faafeda"},"vehicle_type_id":"4","last_reported":1758553917,"current_range_meters":14000,"station_id":"ce4bh192rcd13ifvqdc0","pricing_plan_id":"cebpf4jnsgd1na2vs0mg"},{"bike_id":"79fa2856-ae48-47bb-9588-cd11f34737f1","system_id":"levelo_inurba_marseille","lat":43.28726,"lon":5.36076,"is_reserved":false,"is_disabled":false,"rental_uris":{"android":"levelo://app?vid=79fa2856-ae48-47bb-9588-cd11f34737f1","ios":"levelo://app?vid=79fa2856-ae48-47bb-9588-cd11f34737f1"},"vehicle_type_id":"4","last_reported":1758553917,"current_range_meters":14000,"station_id":"cki0cbj6b192h4jlfktg","pricing_plan_id":"cebpf4jnsgd1na2vs0mg"},{"bike_id":"08290126-3e1a-461a-92dd-00654aee402b","system_id":"levelo_inurba_marseille","lat":43.22229,"lon":5.34573,"is_reserved":false,"is_disabled":false,"rental_uris":{"android":"levelo://app?vid=08290126-3e1a-461a-92dd-00654aee402b","ios":"levelo://app?vid=08290126-3e1a-461a-92dd-00654aee402b"},"vehicle_type_id":"4","last_reported":1758553917,"current_range_meters":14400,"station_id":"","pricing_plan_id":"cebpf4jnsgd1na2vs0mg"},{"bike_id":"24dd1cb7-2327-4780-8cd4-8771af8ea394","system_id":"levelo_inurba_marseille","lat":43.32534,"lon":5.41428,"is_reserved":false,"is_disabled":false,"rental_uris":{"android":"levelo://app?vid=24dd1cb7-2327-4780-8cd4-8771af8ea394","ios":"levelo://app?vid=24dd1cb7-2327-4780-8cd4-8771af8ea394"},"vehicle_type_id":"4","last_reported":1758553917,"current_range_meters":14000,"station_id":"ce4bhq12rcd13ifvqhhg","pricing_plan_id":"cebpf4jnsgd1na2vs0mg"},{"bike_id":"40bdb74e-7bb1-4d2e-a0c5-057b534ce1d8","system_id":"levelo_inurba_marseille","lat":43.26553,"lon":5.37287,"is_reserved":false,"is_disabled":false,"rental_uris":{"android":"levelo://app?vid=40bdb74e-7bb1-4d2e-a0c5-057b534ce1d8","ios":"levelo://app?vid=40bdb74e-7bb1-4d2e-a0c5-057b534ce1d8"},"vehicle_type_id":"4","last_reported":1758553917,"current_range_meters":14400,"station_id":"ce4bhg12rcd13ifvqf70","pricing_plan_id":"cebpf4jnsgd1na2vs0mg"},{"bike_id":"fced218c-b401-4a92-8cbb-85893c1fa93e","system_id":"levelo_inurba_marseille","lat":43.31992,"lon":5.38158,"is_reserved":false,"is_disabled":false,"rental_uris":{"android":"levelo://app?vid=fced218c-b401-4a92-8cbb-85893c1fa93e","ios":"levelo://app?vid=fced218c-b401-4a92-8cbb-85893c1fa93e"},"vehicle_type_id":"4","last_reported":1758553917,"current_range_meters":14400,"station_id":"ce4bhr12rcd13ifvqhpg","pricing_plan_id":"cebpf4jnsgd1na2vs0mg"},{"bike_id":"94d430e6-52b3-4d21-80c9-c6dd4519a8fb","system_id":"levelo_inurba_marseille","lat":43.31769,"lon":5.38288,"is_reserved":false,"is_disabled":false,"rental_uris":{"android":"levelo://app?vid=94d430e6-52b3-4d21-80c9-c6dd4519a8fb","ios":"levelo://app?vid=94d430e6-52b3-4d21-80c9-c6dd4519a8fb"},"vehicle_type_id":"4","last_reported":1758553917,"current_range_meters":14400,"station_id":"","pricing_plan_id":"cebpf4jnsgd1na2vs0mg"},{"bike_id":"ad9c7bc8-aace-43e4-b38e-672a9465a5d2","system_id":"levelo_inurba_marseille","lat":43.24084,"lon":5.37751,"is_reserved":false,"is_disabled":true,"rental_uris":{"android":"levelo://app?vid=ad9c7bc8-aace-43e4-b38e-672a9465a5d2","ios":"levelo://app?vid=ad9c7bc8-aace-43e4-b38e-672a9465a5d2"},"vehicle_type_id":"4","last_reported":1758553917,"current_range_meters":14400,"station_id":"ce4bhnp2rcd13ifvqgvg","pricing_plan_id":"cebpf4jnsgd1na2vs0mg"},{"bike_id":"ac4a9f4f-176e-4525-a595-a3459876ebf9","system_id":"levelo_inurba_marseille","lat":43.271479,"lon":5.40477,"is_reserved":false,"is_disabled":false,"rental_uris":{"android":"levelo://app?vid=ac4a9f4f-176e-4525-a595-a3459876ebf9","ios":"levelo://app?vid=ac4a9f4f-176e-4525-a595-a3459876ebf9"},"vehicle_type_id":"4","last_reported":1758553917,"current_range_meters":14800,"station_id":"ce4bhk92rcd13ifvqgc0","pricing_plan_id":"cebpf4jnsgd1na2vs0mg"},{"bike_id":"b2be2404-53eb-4f74-9829-8104df3de106","system_id":"levelo_inurba_marseille","lat":43.336,"lon":5.35419,"is_reserved":false,"is_disabled":false,"rental_uris":{"android":"levelo://app?vid=b2be2404-53eb-4f74-9829-8104df3de106","ios":"levelo://app?vid=b2be2404-53eb-4f74-9829-8104df3de106"},"vehicle_type_id":"4","last_reported":1758553917,"current_range_meters":14400,"station_id":"","pricing_plan_id":"cebpf4jnsgd1na2vs0mg"},{"bike_id":"5dd053d7-9bbc-4679-8a55-09685c812a06","system_id":"levelo_inurba_marseille","lat":43.26938,"lon":5.40252,"is_reserved":false,"is_disabled":false,"rental_uris":{"android":"levelo://app?vid=5dd053d7-9bbc-4679-8a55-09685c812a06","ios":"levelo://app?vid=5dd053d7-9bbc-4679-8a55-09685c812a06"},"vehicle_type_id":"4","last_reported":1758553917,"current_range_meters":14400,"station_id":"cjm6bp8fraef2m0cb0m0","pricing_plan_id":"cebpf4jnsgd1na2vs0mg"},{"bike_id":"f908d488-b7c3-4707-9f92-0d44cacc4f06","system_id":"levelo_inurba_marseille","lat":43.27063,"lon":5.42273,"is_reserved":false,"is_disabled":false,"rental_uris":{"android":"levelo://app?vid=f908d488-b7c3-4707-9f92-0d44cacc4f06","ios":"levelo://app?vid=f908d488-b7c3-4707-9f92-0d44cacc4f06"},"vehicle_type_id":"4","last_reported":1758553917,"current_range_meters":14800,"station_id":"ce4bhk92rcd13ifvqgb0","pricing_plan_id":"cebpf4jnsgd1na2vs0mg"},{"bike_id":"a8173706-8534-43a1-9d9b-728c64fdfe61","system_id":"levelo_inurba_marseille","lat":43.27213,"lon":5.39184,"is_reserved":false,"is_disabled":true,"rental_uris":{"android":"levelo://app?vid=a8173706-8534-43a1-9d9b-728c64fdfe61","ios":"levelo://app?vid=a8173706-8534-43a1-9d9b-728c64fdfe61"},"vehicle_type_id":"4","last_reported":1758553917,"current_range_meters":14800,"station_id":"ce4bhhp2rcd13ifvqfm0","pricing_plan_id":"cebpf4jnsgd1na2vs0mg"},{"bike_id":"827fcc11-e292-4450-8b71-adb23f1a46c0","system_id":"levelo_inurba_marseille","lat":43.271831,"lon":5.409921,"is_reserved":false,"is_disabled":false,"rental_uris":{"android":"levelo://app?vid=827fcc11-e292-4450-8b71-adb23f1a46c0","ios":"levelo://app?vid=827fcc11-e292-4450-8b71-adb23f1a46c0"},"vehicle_type_id":"4","last_reported":1758553917,"current_range_meters":14800,"station_id":"ce4bhl12rcd13ifvqgf0","pricing_plan_id":"cebpf4jnsgd1na2vs0mg"},{"bike_id":"4640e89b-65d9-4387-ba6c-e242276056e0","system_id":"levelo_inurba_marseille","lat":43.3171,"lon":5.42393,"is_reserved":false,"is_disabled":false,"rental_uris":{"android":"levelo://app?vid=4640e89b-65d9-4387-ba6c-e242276056e0","ios":"levelo://app?vid=4640e89b-65d9-4387-ba6c-e242276056e0"},"vehicle_type_id":"4","last_reported":1758553917,"current_range_meters":14800,"station_id":"ce4bhp92rcd13ifvqhbg","pricing_plan_id":"cebpf4jnsgd1na2vs0mg"},{"bike_id":"ef75d15d-c28a-4fe7-853a-ed887e41d629","system_id":"levelo_inurba_marseille","lat":43.21753,"lon":5.34594,"is_reserved":false,"is_disabled":false,"rental_uris":{"android":"levelo://app?vid=ef75d15d-c28a-4fe7-853a-ed887e41d629","ios":"levelo://app?vid=ef75d15d-c28a-4fe7-853a-ed887e41d629"},"vehicle_type_id":"4","last_reported":1758553917,"current_range_meters":15200,"station_id":"st_cvj6r9ubvosntc0bgbag","pricing_plan_id":"cebpf4jnsgd1na2vs0mg"},{"bike_id":"0d3cebad-3b66-4641-9472-49b794d9c405","system_id":"levelo_inurba_marseille","lat":43.26558,"lon":5.37287,"is_reserved":false,"is_disabled":false,"rental_uris":{"android":"levelo://app?vid=0d3cebad-3b66-4641-9472-49b794d9c405","ios":"levelo://app?vid=0d3cebad-3b66-4641-9472-49b794d9c405"},"vehicle_type_id":"4","last_reported":1758553917,"current_range_meters":15200,"station_id":"ce4bhg12rcd13ifvqf70","pricing_plan_id":"cebpf4jnsgd1na2vs0mg"},{"bike_id":"c8780288-b11d-48b8-81f5-dc634f35f56f","system_id":"levelo_inurba_marseille","lat":43.29618,"lon":5.37155,"is_reserved":false,"is_disabled":false,"rental_uris":{"android":"levelo://app?vid=c8780288-b11d-48b8-81f5-dc634f35f56f","ios":"levelo://app?vid=c8780288-b11d-48b8-81f5-dc634f35f56f"},"vehicle_type_id":"4","last_reported":1758553917,"current_range_meters":14800,"station_id":"ce4bgnh2rcd13ifvqc0g","pricing_plan_id":"cebpf4jnsgd1na2vs0mg"},{"bike_id":"a7d8e645-7aac-413d-b5e9-0c3e920cc145","system_id":"levelo_inurba_marseille","lat":43.28663,"lon":5.36352,"is_reserved":false,"is_disabled":false,"rental_uris":{"android":"levelo://app?vid=a7d8e645-7aac-413d-b5e9-0c3e920cc145","ios":"levelo://app?vid=a7d8e645-7aac-413d-b5e9-0c3e920cc145"},"vehicle_type_id":"4","last_reported":1758553917,"current_range_meters":15200,"station_id":"ce4bhah2rcd13ifvqej0","pricing_plan_id":"cebpf4jnsgd1na2vs0mg"},{"bike_id":"0cf0fc26-5a75-4f64-9eb0-5bba3b9a17dc","system_id":"levelo_inurba_marseille","lat":43.284149,"lon":5.349907,"is_reserved":false,"is_disabled":false,"rental_uris":{"android":"levelo://app?vid=0cf0fc26-5a75-4f64-9eb0-5bba3b9a17dc","ios":"levelo://app?vid=0cf0fc26-5a75-4f64-9eb0-5bba3b9a17dc"},"vehicle_type_id":"4","last_reported":1758553917,"current_range_meters":16000,"station_id":"ce4bhbh2rcd13ifvqepg","pricing_plan_id":"cebpf4jnsgd1na2vs0mg"},{"bike_id":"c95f3017-73cb-4868-b818-2871595242f5","system_id":"levelo_inurba_marseille","lat":43.28481,"lon":5.38412,"is_reserved":false,"is_disabled":false,"rental_uris":{"android":"levelo://app?vid=c95f3017-73cb-4868-b818-2871595242f5","ios":"levelo://app?vid=c95f3017-73cb-4868-b818-2871595242f5"},"vehicle_type_id":"4","last_reported":1758553917,"current_range_meters":16000,"station_id":"ce4bh512rcd13ifvqe3g","pricing_plan_id":"cebpf4jnsgd1na2vs0mg"},{"bike_id":"6c2ccec1-b13f-4ca6-9191-d1ab1fc484ed","system_id":"levelo_inurba_marseille","lat":43.21162,"lon":5.3506,"is_reserved":false,"is_disabled":false,"rental_uris":{"android":"levelo://app?vid=6c2ccec1-b13f-4ca6-9191-d1ab1fc484ed","ios":"levelo://app?vid=6c2ccec1-b13f-4ca6-9191-d1ab1fc484ed"},"vehicle_type_id":"4","last_reported":1758553917,"current_range_meters":16000,"station_id":"","pricing_plan_id":"cebpf4jnsgd1na2vs0mg"},{"bike_id":"c868707f-c9ab-4e71-82a7-1b3a993fa695","system_id":"levelo_inurba_marseille","lat":43.29306,"lon":5.37186,"is_reserved":false,"is_disabled":false,"rental_uris":{"android":"levelo://app?vid=c868707f-c9ab-4e71-82a7-1b3a993fa695","ios":"levelo://app?vid=c868707f-c9ab-4e71-82a7-1b3a993fa695"},"vehicle_type_id":"4","last_reported":1758553917,"current_range_meters":16000,"station_id":"ce4bgh92rcd13ifvqb40","pricing_plan_id":"cebpf4jnsgd1na2vs0mg"},{"bike_id":"ba8ddb5e-dc5e-4316-ab31-d3c4b8d1544b","system_id":"levelo_inurba_marseille","lat":43.28725,"lon":5.36092,"is_reserved":false,"is_disabled":false,"rental_uris":{"android":"levelo://app?vid=ba8ddb5e-dc5e-4316-ab31-d3c4b8d1544b","ios":"levelo://app?vid=ba8ddb5e-dc5e-4316-ab31-d3c4b8d1544b"},"vehicle_type_id":"4","last_reported":1758553917,"current_range_meters":16000,"station_id":"cki0cbj6b192h4jlfktg","pricing_plan_id":"cebpf4jnsgd1na2vs0mg"},{"bike_id":"34072093-f9b6-4017-998e-95b181d82c91","system_id":"levelo_inurba_marseille","lat":43.29462,"lon":5.38806,"is_reserved":false,"is_disabled":false,"rental_uris":{"android":"levelo://app?vid=34072093-f9b6-4017-998e-95b181d82c91","ios":"levelo://app?vid=34072093-f9b6-4017-998e-95b181d82c91"},"vehicle_type_id":"4","last_reported":1758553917,"current_range_meters":16000,"station_id":"","pricing_plan_id":"cebpf4jnsgd1na2vs0mg"},{"bike_id":"75aab3be-272c-40dd-839c-82de4a155771","system_id":"levelo_inurba_marseille","lat":43.27943,"lon":5.38731,"is_reserved":false,"is_disabled":false,"rental_uris":{"android":"levelo://app?vid=75aab3be-272c-40dd-839c-82de4a155771","ios":"levelo://app?vid=75aab3be-272c-40dd-839c-82de4a155771"},"vehicle_type_id":"4","last_reported":1758553917,"current_range_meters":16000,"station_id":"ce4bhg12rcd13ifvqf80","pricing_plan_id":"cebpf4jnsgd1na2vs0mg"},{"bike_id":"84adb9bb-c954-487b-a703-25865bec42bd","system_id":"levelo_inurba_marseille","lat":43.27917,"lon":5.39582,"is_reserved":false,"is_disabled":false,"rental_uris":{"android":"levelo://app?vid=84adb9bb-c954-487b-a703-25865bec42bd","ios":"levelo://app?vid=84adb9bb-c954-487b-a703-25865bec42bd"},"vehicle_type_id":"4","last_reported":1758553917,"current_range_meters":16000,"station_id":"ce4bhf92rcd13ifvqf40","pricing_plan_id":"cebpf4jnsgd1na2vs0mg"},{"bike_id":"f6643338-8557-4c14-a45f-5c714f3ab079","system_id":"levelo_inurba_marseille","lat":43.31708,"lon":5.43701,"is_reserved":false,"is_disabled":false,"rental_uris":{"android":"levelo://app?vid=f6643338-8557-4c14-a45f-5c714f3ab079","ios":"levelo://app?vid=f6643338-8557-4c14-a45f-5c714f3ab079"},"vehicle_type_id":"4","last_reported":1758553917,"current_range_meters":16000,"station_id":"ce4bhp92rcd13ifvqhcg","pricing_plan_id":"cebpf4jnsgd1na2vs0mg"},{"bike_id":"2338a5a7-71f5-46bc-b4c7-3d7c7b6516e2","system_id":"levelo_inurba_marseille","lat":43.29777,"lon":5.37105,"is_reserved":false,"is_disabled":false,"rental_uris":{"android":"levelo://app?vid=2338a5a7-71f5-46bc-b4c7-3d7c7b6516e2","ios":"levelo://app?vid=2338a5a7-71f5-46bc-b4c7-3d7c7b6516e2"},"vehicle_type_id":"4","last_reported":1758553917,"current_range_meters":16400,"station_id":"ce4bgop2rcd13ifvqc1g","pricing_plan_id":"cebpf4jnsgd1na2vs0mg"},{"bike_id":"1b339bab-2b99-427f-a620-46755f7cd526","system_id":"levelo_inurba_marseille","lat":43.28265,"lon":5.35066,"is_reserved":false,"is_disabled":false,"rental_uris":{"android":"levelo://app?vid=1b339bab-2b99-427f-a620-46755f7cd526","ios":"levelo://app?vid=1b339bab-2b99-427f-a620-46755f7cd526"},"vehicle_type_id":"4","last_reported":1758553917,"current_range_meters":16400,"station_id":"ce4bhbp2rcd13ifvqerg","pricing_plan_id":"cebpf4jnsgd1na2vs0mg"},{"bike_id":"b5185c5c-95ed-4378-8991-113c9d820bfc","system_id":"levelo_inurba_marseille","lat":43.30303,"lon":5.39216,"is_reserved":false,"is_disabled":false,"rental_uris":{"android":"levelo://app?vid=b5185c5c-95ed-4378-8991-113c9d820bfc","ios":"levelo://app?vid=b5185c5c-95ed-4378-8991-113c9d820bfc"},"vehicle_type_id":"4","last_reported":1758553917,"current_range_meters":16400,"station_id":"ce4bgkh2rcd13ifvqbk0","pricing_plan_id":"cebpf4jnsgd1na2vs0mg"},{"bike_id":"4519ded0-f3b9-42bd-af35-e69456d100e8","system_id":"levelo_inurba_marseille","lat":43.29276,"lon":5.38364,"is_reserved":false,"is_disabled":false,"rental_uris":{"android":"levelo://app?vid=4519ded0-f3b9-42bd-af35-e69456d100e8","ios":"levelo://app?vid=4519ded0-f3b9-42bd-af35-e69456d100e8"},"vehicle_type_id":"4","last_reported":1758553917,"current_range_meters":16400,"station_id":"","pricing_plan_id":"cebpf4jnsgd1na2vs0mg"},{"bike_id":"314fce10-8311-4e5a-b099-8a2b46d7d991","system_id":"levelo_inurba_marseille","lat":43.21749,"lon":5.34596,"is_reserved":false,"is_disabled":false,"rental_uris":{"android":"levelo://app?vid=314fce10-8311-4e5a-b099-8a2b46d7d991","ios":"levelo://app?vid=314fce10-8311-4e5a-b099-8a2b46d7d991"},"vehicle_type_id":"4","last_reported":1758553917,"current_range_meters":16400,"station_id":"st_cvj6r9ubvosntc0bgbag","pricing_plan_id":"cebpf4jnsgd1na2vs0mg"},{"bike_id":"c4349acd-8478-4731-95c3-84be594f529f","system_id":"levelo_inurba_marseille","lat":43.30915,"lon":5.4015,"is_reserved":false,"is_disabled":false,"rental_uris":{"android":"levelo://app?vid=c4349acd-8478-4731-95c3-84be594f529f","ios":"levelo://app?vid=c4349acd-8478-4731-95c3-84be594f529f"},"vehicle_type_id":"4","last_reported":1758553917,"current_range_meters":16800,"station_id":"ce4bgvp2rcd13ifvqct0","pricing_plan_id":"cebpf4jnsgd1na2vs0mg"},{"bike_id":"df1dfc6f-ed41-43d8-aa4d-f1e91b76d7fe","system_id":"levelo_inurba_marseille","lat":43.24998,"lon":5.38918,"is_reserved":false,"is_disabled":false,"rental_uris":{"android":"levelo://app?vid=df1dfc6f-ed41-43d8-aa4d-f1e91b76d7fe","ios":"levelo://app?vid=df1dfc6f-ed41-43d8-aa4d-f1e91b76d7fe"},"vehicle_type_id":"4","last_reported":1758553917,"current_range_meters":16800,"station_id":"ce4bhgp2rcd13ifvqfd0","pricing_plan_id":"cebpf4jnsgd1na2vs0mg"},{"bike_id":"4e416ea8-8ff9-4de9-b3a4-e969017608aa","system_id":"levelo_inurba_marseille","lat":43.23961,"lon":5.36635,"is_reserved":false,"is_disabled":false,"rental_uris":{"android":"levelo://app?vid=4e416ea8-8ff9-4de9-b3a4-e969017608aa","ios":"levelo://app?vid=4e416ea8-8ff9-4de9-b3a4-e969017608aa"},"vehicle_type_id":"4","last_reported":1758553917,"current_range_meters":16800,"station_id":"ce4bhi12rcd13ifvqfp0","pricing_plan_id":"cebpf4jnsgd1na2vs0mg"},{"bike_id":"556daec1-ff5b-4eba-be08-7c4dfa02c4d0","system_id":"levelo_inurba_marseille","lat":43.28417,"lon":5.34976,"is_reserved":false,"is_disabled":false,"rental_uris":{"android":"levelo://app?vid=556daec1-ff5b-4eba-be08-7c4dfa02c4d0","ios":"levelo://app?vid=556daec1-ff5b-4eba-be08-7c4dfa02c4d0"},"vehicle_type_id":"4","last_reported":1758553917,"current_range_meters":16800,"station_id":"ce4bhbh2rcd13ifvqepg","pricing_plan_id":"cebpf4jnsgd1na2vs0mg"},{"bike_id":"5337dcdc-c6f5-44ae-a466-a1ebe14dfbb3","system_id":"levelo_inurba_marseille","lat":43.24167,"lon":5.36403,"is_reserved":false,"is_disabled":false,"rental_uris":{"android":"levelo://app?vid=5337dcdc-c6f5-44ae-a466-a1ebe14dfbb3","ios":"levelo://app?vid=5337dcdc-c6f5-44ae-a466-a1ebe14dfbb3"},"vehicle_type_id":"4","last_reported":1758553917,"current_range_meters":16800,"station_id":"cpo36qri1sfpv3e86is0","pricing_plan_id":"cebpf4jnsgd1na2vs0mg"},{"bike_id":"420e2f3e-07e3-469b-aa90-c821bbda16e4","system_id":"levelo_inurba_marseille","lat":43.29532,"lon":5.38548,"is_reserved":false,"is_disabled":false,"rental_uris":{"android":"levelo://app?vid=420e2f3e-07e3-469b-aa90-c821bbda16e4","ios":"levelo://app?vid=420e2f3e-07e3-469b-aa90-c821bbda16e4"},"vehicle_type_id":"4","last_reported":1758553917,"current_range_meters":16400,"station_id":"ce4bgih2rcd13ifvqba0","pricing_plan_id":"cebpf4jnsgd1na2vs0mg"},{"bike_id":"51229905-2744-49d3-bc9f-ad91ee94be70","system_id":"levelo_inurba_marseille","lat":43.30212,"lon":5.39464,"is_reserved":false,"is_disabled":false,"rental_uris":{"android":"levelo://app?vid=51229905-2744-49d3-bc9f-ad91ee94be70","ios":"levelo://app?vid=51229905-2744-49d3-bc9f-ad91ee94be70"},"vehicle_type_id":"4","last_reported":1758553917,"current_range_meters":16800,"station_id":"ce4bh0p2rcd13ifvqd70","pricing_plan_id":"cebpf4jnsgd1na2vs0mg"},{"bike_id":"0b53635f-f17e-45ad-81c1-5680b91c3102","system_id":"levelo_inurba_marseille","lat":43.32474,"lon":5.36548,"is_reserved":false,"is_disabled":false,"rental_uris":{"android":"levelo://app?vid=0b53635f-f17e-45ad-81c1-5680b91c3102","ios":"levelo://app?vid=0b53635f-f17e-45ad-81c1-5680b91c3102"},"vehicle_type_id":"4","last_reported":1758553917,"current_range_meters":16800,"station_id":"ce4bhs12rcd13ifvqhvg","pricing_plan_id":"cebpf4jnsgd1na2vs0mg"},{"bike_id":"8aa1f4a5-ce10-4dc8-ad09-652566773495","system_id":"levelo_inurba_marseille","lat":43.31316,"lon":5.36799,"is_reserved":false,"is_disabled":true,"rental_uris":{"android":"levelo://app?vid=8aa1f4a5-ce10-4dc8-ad09-652566773495","ios":"levelo://app?vid=8aa1f4a5-ce10-4dc8-ad09-652566773495"},"vehicle_type_id":"4","last_reported":1758553917,"current_range_meters":16800,"station_id":"","pricing_plan_id":"cebpf4jnsgd1na2vs0mg"},{"bike_id":"0ff26d25-84b3-4846-bed9-09835f58e4a3","system_id":"levelo_inurba_marseille","lat":43.32469,"lon":5.36569,"is_reserved":false,"is_disabled":false,"rental_uris":{"android":"levelo://app?vid=0ff26d25-84b3-4846-bed9-09835f58e4a3","ios":"levelo://app?vid=0ff26d25-84b3-4846-bed9-09835f58e4a3"},"vehicle_type_id":"4","last_reported":1758553917,"current_range_meters":16800,"station_id":"ce4bhs12rcd13ifvqhvg","pricing_plan_id":"cebpf4jnsgd1na2vs0mg"},{"bike_id":"e13b6690-2e78-494e-9a53-aa900d18e8ff","system_id":"levelo_inurba_marseille","lat":43.31718,"lon":5.3778,"is_reserved":false,"is_disabled":false,"rental_uris":{"android":"levelo://app?vid=e13b6690-2e78-494e-9a53-aa900d18e8ff","ios":"levelo://app?vid=e13b6690-2e78-494e-9a53-aa900d18e8ff"},"vehicle_type_id":"4","last_reported":1758553917,"current_range_meters":17200,"station_id":"ce4bgth2rcd13ifvqch0","pricing_plan_id":"cebpf4jnsgd1na2vs0mg"},{"bike_id":"21bb353f-2989-4607-b5fb-56a4b46b67bb","system_id":"levelo_inurba_marseille","lat":43.24169,"lon":5.36388,"is_reserved":false,"is_disabled":false,"rental_uris":{"android":"levelo://app?vid=21bb353f-2989-4607-b5fb-56a4b46b67bb","ios":"levelo://app?vid=21bb353f-2989-4607-b5fb-56a4b46b67bb"},"vehicle_type_id":"4","last_reported":1758553917,"current_range_meters":17200,"station_id":"cpo36qri1sfpv3e86is0","pricing_plan_id":"cebpf4jnsgd1na2vs0mg"},{"bike_id":"d4450af2-037e-4dbd-a336-1b46c44618a8","system_id":"levelo_inurba_marseille","lat":43.27687,"lon":5.38878,"is_reserved":false,"is_disabled":false,"rental_uris":{"android":"levelo://app?vid=d4450af2-037e-4dbd-a336-1b46c44618a8","ios":"levelo://app?vid=d4450af2-037e-4dbd-a336-1b46c44618a8"},"vehicle_type_id":"4","last_reported":1758553917,"current_range_meters":17200,"station_id":"ce4bhi12rcd13ifvqfo0","pricing_plan_id":"cebpf4jnsgd1na2vs0mg"},{"bike_id":"f42aee69-0a45-4bfe-95e6-e2d5389c703e","system_id":"levelo_inurba_marseille","lat":43.29,"lon":5.35608,"is_reserved":false,"is_disabled":false,"rental_uris":{"android":"levelo://app?vid=f42aee69-0a45-4bfe-95e6-e2d5389c703e","ios":"levelo://app?vid=f42aee69-0a45-4bfe-95e6-e2d5389c703e"},"vehicle_type_id":"4","last_reported":1758553917,"current_range_meters":17200,"station_id":"ce4bhb92rcd13ifvqen0","pricing_plan_id":"cebpf4jnsgd1na2vs0mg"},{"bike_id":"4289f147-3fa1-47c9-be23-03ad2de17af0","system_id":"levelo_inurba_marseille","lat":43.30919,"lon":5.40144,"is_reserved":false,"is_disabled":false,"rental_uris":{"android":"levelo://app?vid=4289f147-3fa1-47c9-be23-03ad2de17af0","ios":"levelo://app?vid=4289f147-3fa1-47c9-be23-03ad2de17af0"},"vehicle_type_id":"4","last_reported":1758553917,"current_range_meters":17600,"station_id":"ce4bgvp2rcd13ifvqct0","pricing_plan_id":"cebpf4jnsgd1na2vs0mg"},{"bike_id":"1d560fb2-6162-4765-aa82-644fc4db5b0e","system_id":"levelo_inurba_marseille","lat":43.31326,"lon":5.39695,"is_reserved":false,"is_disabled":false,"rental_uris":{"android":"levelo://app?vid=1d560fb2-6162-4765-aa82-644fc4db5b0e","ios":"levelo://app?vid=1d560fb2-6162-4765-aa82-644fc4db5b0e"},"vehicle_type_id":"4","last_reported":1758553917,"current_range_meters":17600,"station_id":"ce4bgvp2rcd13ifvqcu0","pricing_plan_id":"cebpf4jnsgd1na2vs0mg"},{"bike_id":"bfde72df-4111-439b-ad8a-5c93b471e237","system_id":"levelo_inurba_marseille","lat":43.30535,"lon":5.36554,"is_reserved":false,"is_disabled":false,"rental_uris":{"android":"levelo://app?vid=bfde72df-4111-439b-ad8a-5c93b471e237","ios":"levelo://app?vid=bfde72df-4111-439b-ad8a-5c93b471e237"},"vehicle_type_id":"4","last_reported":1758553917,"current_range_meters":17600,"station_id":"ce4bgs12rcd13ifvqcag","pricing_plan_id":"cebpf4jnsgd1na2vs0mg"},{"bike_id":"b3f802a0-bdcf-44a3-8fac-8801877afd6c","system_id":"levelo_inurba_marseille","lat":43.30595,"lon":5.37211,"is_reserved":false,"is_disabled":false,"rental_uris":{"android":"levelo://app?vid=b3f802a0-bdcf-44a3-8fac-8801877afd6c","ios":"levelo://app?vid=b3f802a0-bdcf-44a3-8fac-8801877afd6c"},"vehicle_type_id":"4","last_reported":1758553917,"current_range_meters":17600,"station_id":"ce4bgqh2rcd13ifvqc4g","pricing_plan_id":"cebpf4jnsgd1na2vs0mg"},{"bike_id":"2b236bb6-b976-4a35-bcac-5a5bb7fdde4b","system_id":"levelo_inurba_marseille","lat":43.31119,"lon":5.37766,"is_reserved":false,"is_disabled":false,"rental_uris":{"android":"levelo://app?vid=2b236bb6-b976-4a35-bcac-5a5bb7fdde4b","ios":"levelo://app?vid=2b236bb6-b976-4a35-bcac-5a5bb7fdde4b"},"vehicle_type_id":"4","last_reported":1758553917,"current_range_meters":17600,"station_id":"ce4bgt92rcd13ifvqcg0","pricing_plan_id":"cebpf4jnsgd1na2vs0mg"},{"bike_id":"3a2f0200-19f6-4563-8356-bbb5c698396a","system_id":"levelo_inurba_marseille","lat":43.21764,"lon":5.34609,"is_reserved":false,"is_disabled":false,"rental_uris":{"android":"levelo://app?vid=3a2f0200-19f6-4563-8356-bbb5c698396a","ios":"levelo://app?vid=3a2f0200-19f6-4563-8356-bbb5c698396a"},"vehicle_type_id":"4","last_reported":1758553917,"current_range_meters":17600,"station_id":"st_cvj6r9ubvosntc0bgbag","pricing_plan_id":"cebpf4jnsgd1na2vs0mg"},{"bike_id":"66213cfd-522e-4c74-92dd-cc70a8655c40","system_id":"levelo_inurba_marseille","lat":43.29264,"lon":5.38437,"is_reserved":false,"is_disabled":false,"rental_uris":{"android":"levelo://app?vid=66213cfd-522e-4c74-92dd-cc70a8655c40","ios":"levelo://app?vid=66213cfd-522e-4c74-92dd-cc70a8655c40"},"vehicle_type_id":"4","last_reported":1758553917,"current_range_meters":18000,"station_id":"ce4bh692rcd13ifvqea0","pricing_plan_id":"cebpf4jnsgd1na2vs0mg"},{"bike_id":"a3957254-c7b5-441b-a03f-ab5ad0d2f066","system_id":"levelo_inurba_marseille","lat":43.2843,"lon":5.34993,"is_reserved":false,"is_disabled":false,"rental_uris":{"android":"levelo://app?vid=a3957254-c7b5-441b-a03f-ab5ad0d2f066","ios":"levelo://app?vid=a3957254-c7b5-441b-a03f-ab5ad0d2f066"},"vehicle_type_id":"4","last_reported":1758553917,"current_range_meters":18000,"station_id":"ce4bhbh2rcd13ifvqepg","pricing_plan_id":"cebpf4jnsgd1na2vs0mg"},{"bike_id":"2866fdbb-74e5-4970-ad67-18ce94c13e21","system_id":"levelo_inurba_marseille","lat":43.29529,"lon":5.38541,"is_reserved":false,"is_disabled":false,"rental_uris":{"android":"levelo://app?vid=2866fdbb-74e5-4970-ad67-18ce94c13e21","ios":"levelo://app?vid=2866fdbb-74e5-4970-ad67-18ce94c13e21"},"vehicle_type_id":"4","last_reported":1758553917,"current_range_meters":18000,"station_id":"ce4bgih2rcd13ifvqba0","pricing_plan_id":"cebpf4jnsgd1na2vs0mg"},{"bike_id":"a9f7e6bd-1060-4a57-b16a-0a3a984bcc29","system_id":"levelo_inurba_marseille","lat":43.29296,"lon":5.40103,"is_reserved":false,"is_disabled":false,"rental_uris":{"android":"levelo://app?vid=a9f7e6bd-1060-4a57-b16a-0a3a984bcc29","ios":"levelo://app?vid=a9f7e6bd-1060-4a57-b16a-0a3a984bcc29"},"vehicle_type_id":"4","last_reported":1758553917,"current_range_meters":18000,"station_id":"ce4bh312rcd13ifvqdk0","pricing_plan_id":"cebpf4jnsgd1na2vs0mg"},{"bike_id":"f0f23fb9-ecf2-4b50-91ce-388723dcbf57","system_id":"levelo_inurba_marseille","lat":43.28407,"lon":5.3752,"is_reserved":false,"is_disabled":false,"rental_uris":{"android":"levelo://app?vid=f0f23fb9-ecf2-4b50-91ce-388723dcbf57","ios":"levelo://app?vid=f0f23fb9-ecf2-4b50-91ce-388723dcbf57"},"vehicle_type_id":"4","last_reported":1758553917,"current_range_meters":18000,"station_id":"ce4bh412rcd13ifvqds0","pricing_plan_id":"cebpf4jnsgd1na2vs0mg"},{"bike_id":"d0bd8550-6edb-4a20-b60d-0db75ea73dbf","system_id":"levelo_inurba_marseille","lat":43.22567,"lon":5.416,"is_reserved":false,"is_disabled":false,"rental_uris":{"android":"levelo://app?vid=d0bd8550-6edb-4a20-b60d-0db75ea73dbf","ios":"levelo://app?vid=d0bd8550-6edb-4a20-b60d-0db75ea73dbf"},"vehicle_type_id":"4","last_reported":1758553917,"current_range_meters":18000,"station_id":"st_d2o4gvlbi1j2169b742g","pricing_plan_id":"cebpf4jnsgd1na2vs0mg"},{"bike_id":"631b2b87-21dd-4744-86d6-a96ea54efbaf","system_id":"levelo_inurba_marseille","lat":43.29286,"lon":5.40121,"is_reserved":false,"is_disabled":false,"rental_uris":{"android":"levelo://app?vid=631b2b87-21dd-4744-86d6-a96ea54efbaf","ios":"levelo://app?vid=631b2b87-21dd-4744-86d6-a96ea54efbaf"},"vehicle_type_id":"4","last_reported":1758553917,"current_range_meters":18000,"station_id":"ce4bh312rcd13ifvqdk0","pricing_plan_id":"cebpf4jnsgd1na2vs0mg"},{"bike_id":"7014eaa8-3a2f-4612-a32c-bde41386c793","system_id":"levelo_inurba_marseille","lat":43.32331,"lon":5.40609,"is_reserved":false,"is_disabled":false,"rental_uris":{"android":"levelo://app?vid=7014eaa8-3a2f-4612-a32c-bde41386c793","ios":"levelo://app?vid=7014eaa8-3a2f-4612-a32c-bde41386c793"},"vehicle_type_id":"4","last_reported":1758553917,"current_range_meters":18000,"station_id":"ce4bhq92rcd13ifvqhjg","pricing_plan_id":"cebpf4jnsgd1na2vs0mg"},{"bike_id":"8c6ec981-673e-4087-a438-e08d5ca5d9c1","system_id":"levelo_inurba_marseille","lat":43.24168,"lon":5.36383,"is_reserved":false,"is_disabled":false,"rental_uris":{"android":"levelo://app?vid=8c6ec981-673e-4087-a438-e08d5ca5d9c1","ios":"levelo://app?vid=8c6ec981-673e-4087-a438-e08d5ca5d9c1"},"vehicle_type_id":"4","last_reported":1758553917,"current_range_meters":18000,"station_id":"cpo36qri1sfpv3e86is0","pricing_plan_id":"cebpf4jnsgd1na2vs0mg"},{"bike_id":"84be3e54-c732-4508-9904-6aceaca4b3cb","system_id":"levelo_inurba_marseille","lat":43.31232,"lon":5.3685,"is_reserved":false,"is_disabled":false,"rental_uris":{"android":"levelo://app?vid=84be3e54-c732-4508-9904-6aceaca4b3cb","ios":"levelo://app?vid=84be3e54-c732-4508-9904-6aceaca4b3cb"},"vehicle_type_id":"4","last_reported":1758553917,"current_range_meters":18000,"station_id":"ce4bgl92rcd13ifvqbq0","pricing_plan_id":"cebpf4jnsgd1na2vs0mg"},{"bike_id":"2188980e-9dd0-4f15-b1de-9501d768c591","system_id":"levelo_inurba_marseille","lat":43.30936,"lon":5.40147,"is_reserved":false,"is_disabled":false,"rental_uris":{"android":"levelo://app?vid=2188980e-9dd0-4f15-b1de-9501d768c591","ios":"levelo://app?vid=2188980e-9dd0-4f15-b1de-9501d768c591"},"vehicle_type_id":"4","last_reported":1758553917,"current_range_meters":18800,"station_id":"ce4bgvp2rcd13ifvqct0","pricing_plan_id":"cebpf4jnsgd1na2vs0mg"},{"bike_id":"7c0482c3-9253-4d1b-b4f3-be55cdb7721d","system_id":"levelo_inurba_marseille","lat":43.33757,"lon":5.37466,"is_reserved":false,"is_disabled":false,"rental_uris":{"android":"levelo://app?vid=7c0482c3-9253-4d1b-b4f3-be55cdb7721d","ios":"levelo://app?vid=7c0482c3-9253-4d1b-b4f3-be55cdb7721d"},"vehicle_type_id":"4","last_reported":1758553917,"current_range_meters":18800,"station_id":"","pricing_plan_id":"cebpf4jnsgd1na2vs0mg"},{"bike_id":"c938763a-c703-4df5-9908-150e75ae7d6b","system_id":"levelo_inurba_marseille","lat":43.29523,"lon":5.38535,"is_reserved":false,"is_disabled":false,"rental_uris":{"android":"levelo://app?vid=c938763a-c703-4df5-9908-150e75ae7d6b","ios":"levelo://app?vid=c938763a-c703-4df5-9908-150e75ae7d6b"},"vehicle_type_id":"4","last_reported":1758553917,"current_range_meters":18800,"station_id":"ce4bgih2rcd13ifvqba0","pricing_plan_id":"cebpf4jnsgd1na2vs0mg"},{"bike_id":"1964a7c4-f341-4518-b3f3-4cff78a650f1","system_id":"levelo_inurba_marseille","lat":43.32497,"lon":5.36547,"is_reserved":false,"is_disabled":false,"rental_uris":{"android":"levelo://app?vid=1964a7c4-f341-4518-b3f3-4cff78a650f1","ios":"levelo://app?vid=1964a7c4-f341-4518-b3f3-4cff78a650f1"},"vehicle_type_id":"4","last_reported":1758553917,"current_range_meters":18800,"station_id":"ce4bhs12rcd13ifvqhvg","pricing_plan_id":"cebpf4jnsgd1na2vs0mg"},{"bike_id":"620438fb-11f0-49cb-b600-78739d113653","system_id":"levelo_inurba_marseille","lat":43.28553,"lon":5.38414,"is_reserved":false,"is_disabled":false,"rental_uris":{"android":"levelo://app?vid=620438fb-11f0-49cb-b600-78739d113653","ios":"levelo://app?vid=620438fb-11f0-49cb-b600-78739d113653"},"vehicle_type_id":"4","last_reported":1758553917,"current_range_meters":18800,"station_id":"","pricing_plan_id":"cebpf4jnsgd1na2vs0mg"},{"bike_id":"96b52191-cdd8-4909-9fad-4de0aaa5f927","system_id":"levelo_inurba_marseille","lat":43.3095,"lon":5.39027,"is_reserved":false,"is_disabled":true,"rental_uris":{"android":"levelo://app?vid=96b52191-cdd8-4909-9fad-4de0aaa5f927","ios":"levelo://app?vid=96b52191-cdd8-4909-9fad-4de0aaa5f927"},"vehicle_type_id":"4","last_reported":1758553917,"current_range_meters":19200,"station_id":"ce4bgup2rcd13ifvqco0","pricing_plan_id":"cebpf4jnsgd1na2vs0mg"},{"bike_id":"8465cf74-4efd-4ed8-8dcb-a96546bde1fa","system_id":"levelo_inurba_marseille","lat":43.30545,"lon":5.3656,"is_reserved":false,"is_disabled":false,"rental_uris":{"android":"levelo://app?vid=8465cf74-4efd-4ed8-8dcb-a96546bde1fa","ios":"levelo://app?vid=8465cf74-4efd-4ed8-8dcb-a96546bde1fa"},"vehicle_type_id":"4","last_reported":1758553917,"current_range_meters":19200,"station_id":"ce4bgs12rcd13ifvqcag","pricing_plan_id":"cebpf4jnsgd1na2vs0mg"},{"bike_id":"06a24bce-028d-4b4a-b4a3-d45296145db5","system_id":"levelo_inurba_marseille","lat":43.28425,"lon":5.34991,"is_reserved":false,"is_disabled":true,"rental_uris":{"android":"levelo://app?vid=06a24bce-028d-4b4a-b4a3-d45296145db5","ios":"levelo://app?vid=06a24bce-028d-4b4a-b4a3-d45296145db5"},"vehicle_type_id":"4","last_reported":1758553917,"current_range_meters":19200,"station_id":"ce4bhch2rcd13ifvqeug","pricing_plan_id":"cebpf4jnsgd1na2vs0mg"},{"bike_id":"315df36b-57a6-4c3f-9de4-ac73c15e0d22","system_id":"levelo_inurba_marseille","lat":43.32352,"lon":5.36729,"is_reserved":false,"is_disabled":false,"rental_uris":{"android":"levelo://app?vid=315df36b-57a6-4c3f-9de4-ac73c15e0d22","ios":"levelo://app?vid=315df36b-57a6-4c3f-9de4-ac73c15e0d22"},"vehicle_type_id":"4","last_reported":1758553917,"current_range_meters":19200,"station_id":"ce4bhsh2rcd13ifvqi2g","pricing_plan_id":"cebpf4jnsgd1na2vs0mg"},{"bike_id":"d6987d38-0dbc-4c6d-99c8-40628a89884f","system_id":"levelo_inurba_marseille","lat":43.28717,"lon":5.360948,"is_reserved":false,"is_disabled":false,"rental_uris":{"android":"levelo://app?vid=d6987d38-0dbc-4c6d-99c8-40628a89884f","ios":"levelo://app?vid=d6987d38-0dbc-4c6d-99c8-40628a89884f"},"vehicle_type_id":"4","last_reported":1758553917,"current_range_meters":19200,"station_id":"cki0cbj6b192h4jlfktg","pricing_plan_id":"cebpf4jnsgd1na2vs0mg"},{"bike_id":"eb22dfdb-8618-458e-b283-af3846fe978a","system_id":"levelo_inurba_marseille","lat":43.21189,"lon":5.35067,"is_reserved":false,"is_disabled":false,"rental_uris":{"android":"levelo://app?vid=eb22dfdb-8618-458e-b283-af3846fe978a","ios":"levelo://app?vid=eb22dfdb-8618-458e-b283-af3846fe978a"},"vehicle_type_id":"4","last_reported":1758553917,"current_range_meters":19200,"station_id":"st_cvj6sg6p6f1abm77japg","pricing_plan_id":"cebpf4jnsgd1na2vs0mg"},{"bike_id":"489b5faf-42d2-4c81-98ea-9c6b6a958fca","system_id":"levelo_inurba_marseille","lat":43.2175,"lon":5.34609,"is_reserved":false,"is_disabled":false,"rental_uris":{"android":"levelo://app?vid=489b5faf-42d2-4c81-98ea-9c6b6a958fca","ios":"levelo://app?vid=489b5faf-42d2-4c81-98ea-9c6b6a958fca"},"vehicle_type_id":"4","last_reported":1758553917,"current_range_meters":19200,"station_id":"st_cvj6r9ubvosntc0bgbag","pricing_plan_id":"cebpf4jnsgd1na2vs0mg"},{"bike_id":"a8d2f765-da7f-4476-9025-c2e0314fef42","system_id":"levelo_inurba_marseille","lat":43.29291,"lon":5.4093,"is_reserved":false,"is_disabled":false,"rental_uris":{"android":"levelo://app?vid=a8d2f765-da7f-4476-9025-c2e0314fef42","ios":"levelo://app?vid=a8d2f765-da7f-4476-9025-c2e0314fef42"},"vehicle_type_id":"4","last_reported":1758553917,"current_range_meters":19600,"station_id":"ce4bh192rcd13ifvqdc0","pricing_plan_id":"cebpf4jnsgd1na2vs0mg"},{"bike_id":"d24dd466-02ce-4a40-865e-e4b5699b5ac4","system_id":"levelo_inurba_marseille","lat":43.292636,"lon":5.384441,"is_reserved":false,"is_disabled":false,"rental_uris":{"android":"levelo://app?vid=d24dd466-02ce-4a40-865e-e4b5699b5ac4","ios":"levelo://app?vid=d24dd466-02ce-4a40-865e-e4b5699b5ac4"},"vehicle_type_id":"4","last_reported":1758553917,"current_range_meters":19600,"station_id":"","pricing_plan_id":"cebpf4jnsgd1na2vs0mg"},{"bike_id":"613e6319-820c-4742-bdb6-39890857c314","system_id":"levelo_inurba_marseille","lat":43.24801,"lon":5.37454,"is_reserved":false,"is_disabled":false,"rental_uris":{"android":"levelo://app?vid=613e6319-820c-4742-bdb6-39890857c314","ios":"levelo://app?vid=613e6319-820c-4742-bdb6-39890857c314"},"vehicle_type_id":"4","last_reported":1758553917,"current_range_meters":19200,"station_id":"ce4bhgh2rcd13ifvqfb0","pricing_plan_id":"cebpf4jnsgd1na2vs0mg"},{"bike_id":"3c737791-e066-46aa-aa57-9f23bde98fac","system_id":"levelo_inurba_marseille","lat":43.25338,"lon":5.42175,"is_reserved":false,"is_disabled":false,"rental_uris":{"android":"levelo://app?vid=3c737791-e066-46aa-aa57-9f23bde98fac","ios":"levelo://app?vid=3c737791-e066-46aa-aa57-9f23bde98fac"},"vehicle_type_id":"4","last_reported":1758553917,"current_range_meters":19600,"station_id":"st_d2m65c5bi1j21697t3ng","pricing_plan_id":"cebpf4jnsgd1na2vs0mg"},{"bike_id":"7d5bfd57-5b5b-4240-9b60-badec345c65b","system_id":"levelo_inurba_marseille","lat":43.28936,"lon":5.39633,"is_reserved":false,"is_disabled":false,"rental_uris":{"android":"levelo://app?vid=7d5bfd57-5b5b-4240-9b60-badec345c65b","ios":"levelo://app?vid=7d5bfd57-5b5b-4240-9b60-badec345c65b"},"vehicle_type_id":"4","last_reported":1758553917,"current_range_meters":19200,"station_id":"ce4bh3h2rcd13ifvqdn0","pricing_plan_id":"cebpf4jnsgd1na2vs0mg"},{"bike_id":"3790d5ef-5438-40d8-9d84-21f4f817b689","system_id":"levelo_inurba_marseille","lat":43.29252,"lon":5.37623,"is_reserved":false,"is_disabled":false,"rental_uris":{"android":"levelo://app?vid=3790d5ef-5438-40d8-9d84-21f4f817b689","ios":"levelo://app?vid=3790d5ef-5438-40d8-9d84-21f4f817b689"},"vehicle_type_id":"4","last_reported":1758553917,"current_range_meters":20000,"station_id":"ce4bgi12rcd13ifvqb80","pricing_plan_id":"cebpf4jnsgd1na2vs0mg"},{"bike_id":"ae120358-f216-4068-ad01-4086055189dc","system_id":"levelo_inurba_marseille","lat":43.2397,"lon":5.36619,"is_reserved":false,"is_disabled":false,"rental_uris":{"android":"levelo://app?vid=ae120358-f216-4068-ad01-4086055189dc","ios":"levelo://app?vid=ae120358-f216-4068-ad01-4086055189dc"},"vehicle_type_id":"4","last_reported":1758553917,"current_range_meters":20000,"station_id":"ce4bhi12rcd13ifvqfp0","pricing_plan_id":"cebpf4jnsgd1na2vs0mg"},{"bike_id":"2f1799ea-f59d-4655-ae06-10e77e99fc4e","system_id":"levelo_inurba_marseille","lat":43.24178,"lon":5.39736,"is_reserved":false,"is_disabled":false,"rental_uris":{"android":"levelo://app?vid=2f1799ea-f59d-4655-ae06-10e77e99fc4e","ios":"levelo://app?vid=2f1799ea-f59d-4655-ae06-10e77e99fc4e"},"vehicle_type_id":"4","last_reported":1758553917,"current_range_meters":20400,"station_id":"ce4bhn12rcd13ifvqgpg","pricing_plan_id":"cebpf4jnsgd1na2vs0mg"},{"bike_id":"b7bf3312-1653-4604-be20-f0ea0caf29c7","system_id":"levelo_inurba_marseille","lat":43.29976,"lon":5.38486,"is_reserved":false,"is_disabled":false,"rental_uris":{"android":"levelo://app?vid=b7bf3312-1653-4604-be20-f0ea0caf29c7","ios":"levelo://app?vid=b7bf3312-1653-4604-be20-f0ea0caf29c7"},"vehicle_type_id":"4","last_reported":1758553917,"current_range_meters":20000,"station_id":"ce4bgj92rcd13ifvqbd0","pricing_plan_id":"cebpf4jnsgd1na2vs0mg"},{"bike_id":"bd561616-4f8f-49b4-95d8-b5200b4c4b76","system_id":"levelo_inurba_marseille","lat":43.28222,"lon":5.39078,"is_reserved":false,"is_disabled":false,"rental_uris":{"android":"levelo://app?vid=bd561616-4f8f-49b4-95d8-b5200b4c4b76","ios":"levelo://app?vid=bd561616-4f8f-49b4-95d8-b5200b4c4b76"},"vehicle_type_id":"4","last_reported":1758553917,"current_range_meters":20000,"station_id":"ce4bhn92rcd13ifvqgsg","pricing_plan_id":"cebpf4jnsgd1na2vs0mg"},{"bike_id":"dddca5ef-4a33-499b-936a-6d8e6136a417","system_id":"levelo_inurba_marseille","lat":43.22927,"lon":5.3536,"is_reserved":false,"is_disabled":false,"rental_uris":{"android":"levelo://app?vid=dddca5ef-4a33-499b-936a-6d8e6136a417","ios":"levelo://app?vid=dddca5ef-4a33-499b-936a-6d8e6136a417"},"vehicle_type_id":"4","last_reported":1758553917,"current_range_meters":20000,"station_id":"cpo3532slgdg3j2ikp40","pricing_plan_id":"cebpf4jnsgd1na2vs0mg"},{"bike_id":"d006181b-b46b-4fea-8675-345ce0f130d6","system_id":"levelo_inurba_marseille","lat":43.31024,"lon":5.369,"is_reserved":false,"is_disabled":false,"rental_uris":{"android":"levelo://app?vid=d006181b-b46b-4fea-8675-345ce0f130d6","ios":"levelo://app?vid=d006181b-b46b-4fea-8675-345ce0f130d6"},"vehicle_type_id":"4","last_reported":1758553917,"current_range_meters":20400,"station_id":"","pricing_plan_id":"cebpf4jnsgd1na2vs0mg"},{"bike_id":"37e54e8c-4707-466c-96d1-8f77af02cef0","system_id":"levelo_inurba_marseille","lat":43.32454,"lon":5.36599,"is_reserved":false,"is_disabled":false,"rental_uris":{"android":"levelo://app?vid=37e54e8c-4707-466c-96d1-8f77af02cef0","ios":"levelo://app?vid=37e54e8c-4707-466c-96d1-8f77af02cef0"},"vehicle_type_id":"4","last_reported":1758553917,"current_range_meters":20400,"station_id":"ce4bhs12rcd13ifvqhvg","pricing_plan_id":"cebpf4jnsgd1na2vs0mg"},{"bike_id":"40e23410-165f-44e5-ab5f-20999223a41f","system_id":"levelo_inurba_marseille","lat":43.26806,"lon":5.40258,"is_reserved":false,"is_disabled":false,"rental_uris":{"android":"levelo://app?vid=40e23410-165f-44e5-ab5f-20999223a41f","ios":"levelo://app?vid=40e23410-165f-44e5-ab5f-20999223a41f"},"vehicle_type_id":"4","last_reported":1758553917,"current_range_meters":20400,"station_id":"ce501612rcd8frsf0b60","pricing_plan_id":"cebpf4jnsgd1na2vs0mg"},{"bike_id":"d70fa58b-33aa-4389-8f8b-752da7233bac","system_id":"levelo_inurba_marseille","lat":43.27316,"lon":5.39082,"is_reserved":false,"is_disabled":false,"rental_uris":{"android":"levelo://app?vid=d70fa58b-33aa-4389-8f8b-752da7233bac","ios":"levelo://app?vid=d70fa58b-33aa-4389-8f8b-752da7233bac"},"vehicle_type_id":"4","last_reported":1758553917,"current_range_meters":20400,"station_id":"ce4bhgp2rcd13ifvqfe0","pricing_plan_id":"cebpf4jnsgd1na2vs0mg"},{"bike_id":"f57256bd-c8e0-4527-b1f9-fc715123a171","system_id":"levelo_inurba_marseille","lat":43.24163,"lon":5.36393,"is_reserved":false,"is_disabled":false,"rental_uris":{"android":"levelo://app?vid=f57256bd-c8e0-4527-b1f9-fc715123a171","ios":"levelo://app?vid=f57256bd-c8e0-4527-b1f9-fc715123a171"},"vehicle_type_id":"4","last_reported":1758553917,"current_range_meters":20400,"station_id":"cpo36qri1sfpv3e86is0","pricing_plan_id":"cebpf4jnsgd1na2vs0mg"},{"bike_id":"b5cde1db-a931-4182-b6bd-8459ee91e2bc","system_id":"levelo_inurba_marseille","lat":43.21184,"lon":5.35066,"is_reserved":false,"is_disabled":false,"rental_uris":{"android":"levelo://app?vid=b5cde1db-a931-4182-b6bd-8459ee91e2bc","ios":"levelo://app?vid=b5cde1db-a931-4182-b6bd-8459ee91e2bc"},"vehicle_type_id":"4","last_reported":1758553917,"current_range_meters":20400,"station_id":"st_cvj6sg6p6f1abm77japg","pricing_plan_id":"cebpf4jnsgd1na2vs0mg"},{"bike_id":"aee393b0-66e3-4275-9547-1804ec38b69a","system_id":"levelo_inurba_marseille","lat":43.28573,"lon":5.39494,"is_reserved":false,"is_disabled":false,"rental_uris":{"android":"levelo://app?vid=aee393b0-66e3-4275-9547-1804ec38b69a","ios":"levelo://app?vid=aee393b0-66e3-4275-9547-1804ec38b69a"},"vehicle_type_id":"4","last_reported":1758553917,"current_range_meters":20400,"station_id":"ce4bh292rcd13ifvqdg0","pricing_plan_id":"cebpf4jnsgd1na2vs0mg"},{"bike_id":"3482fa93-47d7-4a63-9001-a9549b7fa6ca","system_id":"levelo_inurba_marseille","lat":43.29847,"lon":5.36276,"is_reserved":false,"is_disabled":false,"rental_uris":{"android":"levelo://app?vid=3482fa93-47d7-4a63-9001-a9549b7fa6ca","ios":"levelo://app?vid=3482fa93-47d7-4a63-9001-a9549b7fa6ca"},"vehicle_type_id":"4","last_reported":1758553917,"current_range_meters":20800,"station_id":"ce4bgpp2rcd13ifvqc3g","pricing_plan_id":"cebpf4jnsgd1na2vs0mg"},{"bike_id":"bd09a7aa-11ea-42ad-bac5-ff8a7d53b9d2","system_id":"levelo_inurba_marseille","lat":43.30591,"lon":5.36596,"is_reserved":false,"is_disabled":false,"rental_uris":{"android":"levelo://app?vid=bd09a7aa-11ea-42ad-bac5-ff8a7d53b9d2","ios":"levelo://app?vid=bd09a7aa-11ea-42ad-bac5-ff8a7d53b9d2"},"vehicle_type_id":"4","last_reported":1758553917,"current_range_meters":20800,"station_id":"ce4bgrp2rcd13ifvqc9g","pricing_plan_id":"cebpf4jnsgd1na2vs0mg"},{"bike_id":"45c82055-21a8-4d66-ba05-9feb6e6d44db","system_id":"levelo_inurba_marseille","lat":43.29234,"lon":5.36354,"is_reserved":false,"is_disabled":false,"rental_uris":{"android":"levelo://app?vid=45c82055-21a8-4d66-ba05-9feb6e6d44db","ios":"levelo://app?vid=45c82055-21a8-4d66-ba05-9feb6e6d44db"},"vehicle_type_id":"4","last_reported":1758553917,"current_range_meters":20800,"station_id":"","pricing_plan_id":"cebpf4jnsgd1na2vs0mg"},{"bike_id":"cce727fd-1d58-49b4-a3af-11cb5a6fa7cd","system_id":"levelo_inurba_marseille","lat":43.28419,"lon":5.37512,"is_reserved":false,"is_disabled":false,"rental_uris":{"android":"levelo://app?vid=cce727fd-1d58-49b4-a3af-11cb5a6fa7cd","ios":"levelo://app?vid=cce727fd-1d58-49b4-a3af-11cb5a6fa7cd"},"vehicle_type_id":"4","last_reported":1758553917,"current_range_meters":20800,"station_id":"ce4bh412rcd13ifvqds0","pricing_plan_id":"cebpf4jnsgd1na2vs0mg"},{"bike_id":"3c0fa725-f739-4599-965d-e73d3e7b2c8f","system_id":"levelo_inurba_marseille","lat":43.32359,"lon":5.3677,"is_reserved":false,"is_disabled":false,"rental_uris":{"android":"levelo://app?vid=3c0fa725-f739-4599-965d-e73d3e7b2c8f","ios":"levelo://app?vid=3c0fa725-f739-4599-965d-e73d3e7b2c8f"},"vehicle_type_id":"4","last_reported":1758553917,"current_range_meters":20800,"station_id":"ce4bhsh2rcd13ifvqi2g","pricing_plan_id":"cebpf4jnsgd1na2vs0mg"},{"bike_id":"966cdd00-bccd-48bc-ad34-1fa2d966e241","system_id":"levelo_inurba_marseille","lat":43.25116,"lon":5.40319,"is_reserved":false,"is_disabled":false,"rental_uris":{"android":"levelo://app?vid=966cdd00-bccd-48bc-ad34-1fa2d966e241","ios":"levelo://app?vid=966cdd00-bccd-48bc-ad34-1fa2d966e241"},"vehicle_type_id":"4","last_reported":1758553917,"current_range_meters":20400,"station_id":"ce4bhlh2rcd13ifvqgig","pricing_plan_id":"cebpf4jnsgd1na2vs0mg"},{"bike_id":"361c112f-c0ee-48d6-a721-c53baf31399a","system_id":"levelo_inurba_marseille","lat":43.2318,"lon":5.39995,"is_reserved":false,"is_disabled":false,"rental_uris":{"android":"levelo://app?vid=361c112f-c0ee-48d6-a721-c53baf31399a","ios":"levelo://app?vid=361c112f-c0ee-48d6-a721-c53baf31399a"},"vehicle_type_id":"4","last_reported":1758553917,"current_range_meters":20800,"station_id":"ce4bhn12rcd13ifvqgqg","pricing_plan_id":"cebpf4jnsgd1na2vs0mg"},{"bike_id":"140081ed-9f31-4e65-9097-5a1508c2f7d9","system_id":"levelo_inurba_marseille","lat":43.33149,"lon":5.38178,"is_reserved":false,"is_disabled":false,"rental_uris":{"android":"levelo://app?vid=140081ed-9f31-4e65-9097-5a1508c2f7d9","ios":"levelo://app?vid=140081ed-9f31-4e65-9097-5a1508c2f7d9"},"vehicle_type_id":"4","last_reported":1758553917,"current_range_meters":20800,"station_id":"","pricing_plan_id":"cebpf4jnsgd1na2vs0mg"},{"bike_id":"7577b323-1a3e-4701-a2c3-9b4f8f4ede84","system_id":"levelo_inurba_marseille","lat":43.21192,"lon":5.3507,"is_reserved":false,"is_disabled":false,"rental_uris":{"android":"levelo://app?vid=7577b323-1a3e-4701-a2c3-9b4f8f4ede84","ios":"levelo://app?vid=7577b323-1a3e-4701-a2c3-9b4f8f4ede84"},"vehicle_type_id":"4","last_reported":1758553917,"current_range_meters":20800,"station_id":"st_cvj6sg6p6f1abm77japg","pricing_plan_id":"cebpf4jnsgd1na2vs0mg"},{"bike_id":"9feb0e0f-24fa-4463-b0f3-30472830c043","system_id":"levelo_inurba_marseille","lat":43.31757,"lon":5.39002,"is_reserved":false,"is_disabled":false,"rental_uris":{"android":"levelo://app?vid=9feb0e0f-24fa-4463-b0f3-30472830c043","ios":"levelo://app?vid=9feb0e0f-24fa-4463-b0f3-30472830c043"},"vehicle_type_id":"4","last_reported":1758553917,"current_range_meters":21600,"station_id":"ce4bhqp2rcd13ifvqhng","pricing_plan_id":"cebpf4jnsgd1na2vs0mg"},{"bike_id":"310b06b2-6287-457c-b411-beee0d320ef9","system_id":"levelo_inurba_marseille","lat":43.30427,"lon":5.38895,"is_reserved":false,"is_disabled":true,"rental_uris":{"android":"levelo://app?vid=310b06b2-6287-457c-b411-beee0d320ef9","ios":"levelo://app?vid=310b06b2-6287-457c-b411-beee0d320ef9"},"vehicle_type_id":"4","last_reported":1758553917,"current_range_meters":21600,"station_id":"ce4bgk12rcd13ifvqbi0","pricing_plan_id":"cebpf4jnsgd1na2vs0mg"},{"bike_id":"a60abba9-f9b8-477b-8786-175fc2b6218b","system_id":"levelo_inurba_marseille","lat":43.30872,"lon":5.3718,"is_reserved":false,"is_disabled":false,"rental_uris":{"android":"levelo://app?vid=a60abba9-f9b8-477b-8786-175fc2b6218b","ios":"levelo://app?vid=a60abba9-f9b8-477b-8786-175fc2b6218b"},"vehicle_type_id":"4","last_reported":1758553917,"current_range_meters":21600,"station_id":"ce4bguh2rcd13ifvqckg","pricing_plan_id":"cebpf4jnsgd1na2vs0mg"},{"bike_id":"02e06f5d-1e45-4892-9c1f-84b8e96b1e54","system_id":"levelo_inurba_marseille","lat":43.29962,"lon":5.38498,"is_reserved":false,"is_disabled":false,"rental_uris":{"android":"levelo://app?vid=02e06f5d-1e45-4892-9c1f-84b8e96b1e54","ios":"levelo://app?vid=02e06f5d-1e45-4892-9c1f-84b8e96b1e54"},"vehicle_type_id":"4","last_reported":1758553917,"current_range_meters":21600,"station_id":"ce4bgj92rcd13ifvqbd0","pricing_plan_id":"cebpf4jnsgd1na2vs0mg"},{"bike_id":"44dfa1a0-fb2b-4f0d-af04-5203fc579e97","system_id":"levelo_inurba_marseille","lat":43.27986,"lon":5.41667,"is_reserved":false,"is_disabled":false,"rental_uris":{"android":"levelo://app?vid=44dfa1a0-fb2b-4f0d-af04-5203fc579e97","ios":"levelo://app?vid=44dfa1a0-fb2b-4f0d-af04-5203fc579e97"},"vehicle_type_id":"4","last_reported":1758553917,"current_range_meters":21600,"station_id":"ce4bho12rcd13ifvqh1g","pricing_plan_id":"cebpf4jnsgd1na2vs0mg"},{"bike_id":"529489e1-fa59-43b0-ad8c-53d5f23805b5","system_id":"levelo_inurba_marseille","lat":43.25084,"lon":5.39527,"is_reserved":false,"is_disabled":false,"rental_uris":{"android":"levelo://app?vid=529489e1-fa59-43b0-ad8c-53d5f23805b5","ios":"levelo://app?vid=529489e1-fa59-43b0-ad8c-53d5f23805b5"},"vehicle_type_id":"4","last_reported":1758553917,"current_range_meters":21600,"station_id":"ce4bhm12rcd13ifvqgkg","pricing_plan_id":"cebpf4jnsgd1na2vs0mg"},{"bike_id":"08dfdb55-ba76-464a-87c8-e379628e742f","system_id":"levelo_inurba_marseille","lat":43.24639,"lon":5.43124,"is_reserved":false,"is_disabled":false,"rental_uris":{"android":"levelo://app?vid=08dfdb55-ba76-464a-87c8-e379628e742f","ios":"levelo://app?vid=08dfdb55-ba76-464a-87c8-e379628e742f"},"vehicle_type_id":"4","last_reported":1758553917,"current_range_meters":21600,"station_id":"st_d2m6c4gdas8pm72e190g","pricing_plan_id":"cebpf4jnsgd1na2vs0mg"},{"bike_id":"988afa7b-31f2-4bc0-b08a-884a3679d159","system_id":"levelo_inurba_marseille","lat":43.271749,"lon":5.409989,"is_reserved":false,"is_disabled":false,"rental_uris":{"android":"levelo://app?vid=988afa7b-31f2-4bc0-b08a-884a3679d159","ios":"levelo://app?vid=988afa7b-31f2-4bc0-b08a-884a3679d159"},"vehicle_type_id":"4","last_reported":1758553917,"current_range_meters":21600,"station_id":"ce4bhl12rcd13ifvqgf0","pricing_plan_id":"cebpf4jnsgd1na2vs0mg"},