{"last_updated":1735920658,"ttl":60,"version":"2.2","data":{"bikes":[{"bike_id":"6cd17646-b8b2-40f4-a638-07ed60923f83","system_id":"levelo_inurba_marseille","lat":43.24398,"lon":5.370547,"is_reserved":false,"is_disabled":false,"rental_uris":{"android":"levelo://app?vid=6cd17646-b8b2-40f4-a638-07ed60923f83","ios":"levelo://app?vid=6cd17646-b8b2-40f4-a638-07ed60923f83"},"vehicle_type_id":"4","last_reported":1735920658,"current_range_meters":16000,"station_id":"ce4bhhh2rcd13ifvqfk0","pricing_plan_id":"cebpf4jnsgd1na2vs0mg"},{"bike_id":"c7c1d172-ce0f-4fc5-828a-a5af5425292d","system_id":"levelo_inurba_marseille","lat":43.30409,"lon":5.41281,"is_reserved":false,"is_disabled":false,"rental_uris":{"android":"levelo://app?vid=c7c1d172-ce0f-4fc5-828a-a5af5425292d","ios":"levelo://app?vid=c7c1d172-ce0f-4fc5-828a-a5af5425292d"},"vehicle_type_id":"4","last_reported":1735920658,"current_range_meters":38800,"station_id":"ce4bhop2rcd13ifvqh8g","pricing_plan_id":"cebpf4jnsgd1na2vs0mg"},{"bike_id":"48b6195c-9df8-4c50-aa17-d1b0c5b87deb","system_id":"levelo_inurba_marseille","lat":43.30901,"lon":5.37186,"is_reserved":false,"is_disabled":false,"rental_uris":{"android":"levelo://app?vid=48b6195c-9df8-4c50-aa17-d1b0c5b87deb","ios":"levelo://app?vid=48b6195c-9df8-4c50-aa17-d1b0c5b87deb"},"vehicle_type_id":"4","last_reported":1735920658,"current_range_meters":32800,"station_id":"ce4bguh2rcd13ifvqckg","pricing_plan_id":"cebpf4jnsgd1na2vs0mg"},{"bike_id":"3284805e-d8ad-4e9d-bf2a-e6d919476087","system_id":"levelo_inurba_marseille","lat":43.292,"lon":5.35814,"is_reserved":false,"is_disabled":false,"rental_uris":{"android":"levelo://app?vid=3284805e-d8ad-4e9d-bf2a-e6d919476087","ios":"levelo://app?vid=3284805e-d8ad-4e9d-bf2a-e6d919476087"},"vehicle_type_id":"4","last_reported":1735920658,"current_range_meters":26800,"station_id":"ce4bhb12rcd13ifvqel0","pricing_plan_id":"cebpf4jnsgd1na2vs0mg"},{"bike_id":"33620e62-568e-4de5-ad46-ceb9ed4dd267","system_id":"levelo_inurba_marseille","lat":43.26212,"lon":5.37452,"is_reserved":false,"is_disabled":false,"rental_uris":{"android":"levelo://app?vid=33620e62-568e-4de5-ad46-ceb9ed4dd267","ios":"levelo://app?vid=33620e62-568e-4de5-ad46-ceb9ed4dd267"},"vehicle_type_id":"4","last_reported":1735920658,"current_range_meters":38800,"station_id":"ce4bhgp2rcd13ifvqfc0","pricing_plan_id":"cebpf4jnsgd1na2vs0mg"},{"bike_id":"ca4a23ef-84ec-4101-a5e7-f5bf4dec006d","system_id":"levelo_inurba_marseille","lat":43.25582,"lon":5.38236,"is_reserved":false,"is_disabled":false,"rental_uris":{"android":"levelo://app?vid=ca4a23ef-84ec-4101-a5e7-f5bf4dec006d","ios":"levelo://app?vid=ca4a23ef-84ec-4101-a5e7-f5bf4dec006d"},"vehicle_type_id":"4","last_reported":1735920658,"current_range_meters":20400,"station_id":"ce4bhih2rcd13ifvqfs0","pricing_plan_id":"cebpf4jnsgd1na2vs0mg"},{"bike_id":"ca4beb2c-c4d8-484f-9237-25798230877a","system_id":"levelo_inurba_marseille","lat":43.29005,"lon":5.3559,"is_reserved":false,"is_disabled":false,"rental_uris":{"android":"levelo://app?vid=ca4beb2c-c4d8-484f-9237-25798230877a","ios":"levelo://app?vid=ca4beb2c-c4d8-484f-9237-25798230877a"},"vehicle_type_id":"4","last_reported":1735920658,"current_range_meters":16400,"station_id":"ce4bhb92rcd13ifvqen0","pricing_plan_id":"cebpf4jnsgd1na2vs0mg"},{"bike_id":"d3f1016d-9396-4714-92ce-fa30902c2a0c","system_id":"levelo_inurba_marseille","lat":43.28944,"lon":5.39642,"is_reserved":false,"is_disabled":false,"rental_uris":{"android":"levelo://app?vid=d3f1016d-9396-4714-92ce-fa30902c2a0c","ios":"levelo://app?vid=d3f1016d-9396-4714-92ce-fa30902c2a0c"},"vehicle_type_id":"4","last_reported":1735920658,"current_range_meters":32400,"station_id":"ce4bh3h2rcd13ifvqdn0","pricing_plan_id":"cebpf4jnsgd1na2vs0mg"},{"bike_id":"e1dfcdee-18af-407f-9a6c-807a8fefbf81","system_id":"levelo_inurba_marseille","lat":43.29004,"lon":5.35603,"is_reserved":false,"is_disabled":false,"rental_uris":{"android":"levelo://app?vid=e1dfcdee-18af-407f-9a6c-807a8fefbf81","ios":"levelo://app?vid=e1dfcdee-18af-407f-9a6c-807a8fefbf81"},"vehicle_type_id":"4","last_reported":1735920658,"current_range_meters":28000,"station_id":"ce4bhb92rcd13ifvqen0","pricing_plan_id":"cebpf4jnsgd1na2vs0mg"},{"bike_id":"36d0910b-d540-4d75-b065-f044cb5b6555","system_id":"levelo_inurba_marseille","lat":43.29603,"lon":5.36722,"is_reserved":false,"is_disabled":false,"rental_uris":{"android":"levelo://app?vid=36d0910b-d540-4d75-b065-f044cb5b6555","ios":"levelo://app?vid=36d0910b-d540-4d75-b065-f044cb5b6555"},"vehicle_type_id":"4","last_reported":1735920658,"current_range_meters":39200,"station_id":"ce4bgph2rcd13ifvqc2g","pricing_plan_id":"cebpf4jnsgd1na2vs0mg"},{"bike_id":"0cc226b6-5f36-4e90-9e5b-497bf45d78e0","system_id":"levelo_inurba_marseille","lat":43.27996,"lon":5.40012,"is_reserved":false,"is_disabled":false,"rental_uris":{"android":"levelo://app?vid=0cc226b6-5f36-4e90-9e5b-497bf45d78e0","ios":"levelo://app?vid=0cc226b6-5f36-4e90-9e5b-497bf45d78e0"},"vehicle_type_id":"4","last_reported":1735920658,"current_range_meters":38800,"station_id":"ce4bho92rcd13ifvqh4g","pricing_plan_id":"cebpf4jnsgd1na2vs0mg"},{"bike_id":"c5e1b750-323e-4bc1-8e13-1e7612457a06","system_id":"levelo_inurba_marseille","lat":43.27212,"lon":5.39183,"is_reserved":false,"is_disabled":false,"rental_uris":{"android":"levelo://app?vid=c5e1b750-323e-4bc1-8e13-1e7612457a06","ios":"levelo://app?vid=c5e1b750-323e-4bc1-8e13-1e7612457a06"},"vehicle_type_id":"4","last_reported":1735920658,"current_range_meters":30400,"station_id":"ce4bhhp2rcd13ifvqfm0","pricing_plan_id":"cebpf4jnsgd1na2vs0mg"},{"bike_id":"99f6a60b-e698-4008-869a-c7b70f268121","system_id":"levelo_inurba_marseille","lat":43.3047,"lon":5.37903,"is_reserved":false,"is_disabled":false,"rental_uris":{"android":"levelo://app?vid=99f6a60b-e698-4008-869a-c7b70f268121","ios":"levelo://app?vid=99f6a60b-e698-4008-869a-c7b70f268121"},"vehicle_type_id":"4","last_reported":1735920658,"current_range_meters":38800,"station_id":"ce4bgup2rcd13ifvqcn0","pricing_plan_id":"cebpf4jnsgd1na2vs0mg"},{"bike_id":"061db4c8-9f8a-4241-94f5-5a2ae4472725","system_id":"levelo_inurba_marseille","lat":43.29015,"lon":5.38135,"is_reserved":false,"is_disabled":false,"rental_uris":{"android":"levelo://app?vid=061db4c8-9f8a-4241-94f5-5a2ae4472725","ios":"levelo://app?vid=061db4c8-9f8a-4241-94f5-5a2ae4472725"},"vehicle_type_id":"4","last_reported":1735920658,"current_range_meters":26000,"station_id":"ce4bh4p2rcd13ifvqe1g","pricing_plan_id":"cebpf4jnsgd1na2vs0mg"},{"bike_id":"116f92ae-65b4-4f7c-a23b-1117c0a69b33","system_id":"levelo_inurba_marseille","lat":43.28617,"lon":5.35099,"is_reserved":false,"is_disabled":false,"rental_uris":{"android":"levelo://app?vid=116f92ae-65b4-4f7c-a23b-1117c0a69b33","ios":"levelo://app?vid=116f92ae-65b4-4f7c-a23b-1117c0a69b33"},"vehicle_type_id":"4","last_reported":1735920658,"current_range_meters":26800,"station_id":"ce4bhch2rcd13ifvqeug","pricing_plan_id":"cebpf4jnsgd1na2vs0mg"},{"bike_id":"235d14ef-630c-453f-a316-c30a321a67c2","system_id":"levelo_inurba_marseille","lat":43.24682,"lon":5.38164,"is_reserved":false,"is_disabled":false,"rental_uris":{"android":"levelo://app?vid=235d14ef-630c-453f-a316-c30a321a67c2","ios":"levelo://app?vid=235d14ef-630c-453f-a316-c30a321a67c2"},"vehicle_type_id":"4","last_reported":1735920658,"current_range_meters":38800,"station_id":"ce4bhih2rcd13ifvqfr0","pricing_plan_id":"cebpf4jnsgd1na2vs0mg"},{"bike_id":"0a72fabb-c385-470f-8026-c60effe2f3f0","system_id":"levelo_inurba_marseille","lat":43.29694,"lon":5.35972,"is_reserved":false,"is_disabled":false,"rental_uris":{"android":"levelo://app?vid=0a72fabb-c385-470f-8026-c60effe2f3f0","ios":"levelo://app?vid=0a72fabb-c385-470f-8026-c60effe2f3f0"},"vehicle_type_id":"4","last_reported":1735920658,"current_range_meters":25200,"station_id":"","pricing_plan_id":"cebpf4jnsgd1na2vs0mg"},{"bike_id":"76d392c8-6dd4-4fbf-b626-27c2990c047b","system_id":"levelo_inurba_marseille","lat":43.28156,"lon":5.42798,"is_reserved":false,"is_disabled":false,"rental_uris":{"android":"levelo://app?vid=76d392c8-6dd4-4fbf-b626-27c2990c047b","ios":"levelo://app?vid=76d392c8-6dd4-4fbf-b626-27c2990c047b"},"vehicle_type_id":"4","last_reported":1735920658,"current_range_meters":17200,"station_id":"","pricing_plan_id":"cebpf4jnsgd1na2vs0mg"},{"bike_id":"ebb56956-e2e2-4f51-8f7a-80ccc26c078c","system_id":"levelo_inurba_marseille","lat":43.28155,"lon":5.42623,"is_reserved":false,"is_disabled":false,"rental_uris":{"android":"levelo://app?vid=ebb56956-e2e2-4f51-8f7a-80ccc26c078c","ios":"levelo://app?vid=ebb56956-e2e2-4f51-8f7a-80ccc26c078c"},"vehicle_type_id":"4","last_reported":1735920658,"current_range_meters":30800,"station_id":"ce4bhnh2rcd13ifvqgug","pricing_plan_id":"cebpf4jnsgd1na2vs0mg"},{"bike_id":"777272f0-b53e-47d7-a585-c67c9f516450","system_id":"levelo_inurba_marseille","lat":43.29259,"lon":5.40912,"is_reserved":false,"is_disabled":false,"rental_uris":{"android":"levelo://app?vid=777272f0-b53e-47d7-a585-c67c9f516450","ios":"levelo://app?vid=777272f0-b53e-47d7-a585-c67c9f516450"},"vehicle_type_id":"4","last_reported":1735920658,"current_range_meters":24400,"station_id":"ce4bh192rcd13ifvqdc0","pricing_plan_id":"cebpf4jnsgd1na2vs0mg"},{"bike_id":"5197bc80-584c-40f5-869f-83967fc6095e","system_id":"levelo_inurba_marseille","lat":43.25583,"lon":5.38226,"is_reserved":false,"is_disabled":false,"rental_uris":{"android":"levelo://app?vid=5197bc80-584c-40f5-869f-83967fc6095e","ios":"levelo://app?vid=5197bc80-584c-40f5-869f-83967fc6095e"},"vehicle_type_id":"4","last_reported":1735920658,"current_range_meters":30800,"station_id":"ce4bhih2rcd13ifvqfs0","pricing_plan_id":"cebpf4jnsgd1na2vs0mg"},{"bike_id":"96151e93-8d33-4e64-8cae-34a13e7e1220","system_id":"levelo_inurba_marseille","lat":43.27688,"lon":5.38898,"is_reserved":false,"is_disabled":false,"rental_uris":{"android":"levelo://app?vid=96151e93-8d33-4e64-8cae-34a13e7e1220","ios":"levelo://app?vid=96151e93-8d33-4e64-8cae-34a13e7e1220"},"vehicle_type_id":"4","last_reported":1735920658,"current_range_meters":38800,"station_id":"ce4bhi12rcd13ifvqfo0","pricing_plan_id":"cebpf4jnsgd1na2vs0mg"},{"bike_id":"bbcddc76-5f78-4e14-9dfd-490fffe20df0","system_id":"levelo_inurba_marseille","lat":43.3019,"lon":5.36609,"is_reserved":false,"is_disabled":false,"rental_uris":{"android":"levelo://app?vid=bbcddc76-5f78-4e14-9dfd-490fffe20df0","ios":"levelo://app?vid=bbcddc76-5f78-4e14-9dfd-490fffe20df0"},"vehicle_type_id":"4","last_reported":1735920658,"current_range_meters":20400,"station_id":"ce4bgrh2rcd13ifvqc8g","pricing_plan_id":"cebpf4jnsgd1na2vs0mg"},{"bike_id":"53e4912b-9d68-4d38-b2dd-bc664c46f5ae","system_id":"levelo_inurba_marseille","lat":43.26051,"lon":5.39386,"is_reserved":false,"is_disabled":false,"rental_uris":{"android":"levelo://app?vid=53e4912b-9d68-4d38-b2dd-bc664c46f5ae","ios":"levelo://app?vid=53e4912b-9d68-4d38-b2dd-bc664c46f5ae"},"vehicle_type_id":"4","last_reported":1735920658,"current_range_meters":22400,"station_id":"ce4bhh92rcd13ifvqfj0","pricing_plan_id":"cebpf4jnsgd1na2vs0mg"},{"bike_id":"9b749a52-fd35-4a0a-8d57-0f4e2d2348b5","system_id":"levelo_inurba_marseille","lat":43.30554,"lon":5.36563,"is_reserved":false,"is_disabled":true,"rental_uris":{"android":"levelo://app?vid=9b749a52-fd35-4a0a-8d57-0f4e2d2348b5","ios":"levelo://app?vid=9b749a52-fd35-4a0a-8d57-0f4e2d2348b5"},"vehicle_type_id":"4","last_reported":1735920658,"current_range_meters":6400,"station_id":"ce4bgs12rcd13ifvqcag","pricing_plan_id":"cebpf4jnsgd1na2vs0mg"},{"bike_id":"02cb2cad-b316-419f-a764-3e6228df1e7b","system_id":"levelo_inurba_marseille","lat":43.27373,"lon":5.36262,"is_reserved":false,"is_disabled":false,"rental_uris":{"android":"levelo://app?vid=02cb2cad-b316-419f-a764-3e6228df1e7b","ios":"levelo://app?vid=02cb2cad-b316-419f-a764-3e6228df1e7b"},"vehicle_type_id":"4","last_reported":1735920658,"current_range_meters":38800,"station_id":"ce4bhbh2rcd13ifvqeo0","pricing_plan_id":"cebpf4jnsgd1na2vs0mg"},{"bike_id":"9d281a53-6992-4392-9438-72ec394ec5a5","system_id":"levelo_inurba_marseille","lat":43.24396,"lon":5.37066,"is_reserved":false,"is_disabled":false,"rental_uris":{"android":"levelo://app?vid=9d281a53-6992-4392-9438-72ec394ec5a5","ios":"levelo://app?vid=9d281a53-6992-4392-9438-72ec394ec5a5"},"vehicle_type_id":"4","last_reported":1735920658,"current_range_meters":9600,"station_id":"ce4bhhh2rcd13ifvqfk0","pricing_plan_id":"cebpf4jnsgd1na2vs0mg"},{"bike_id":"d2bef165-34df-48c0-b9b9-aca864c7e78d","system_id":"levelo_inurba_marseille","lat":43.28615,"lon":5.35107,"is_reserved":false,"is_disabled":false,"rental_uris":{"android":"levelo://app?vid=d2bef165-34df-48c0-b9b9-aca864c7e78d","ios":"levelo://app?vid=d2bef165-34df-48c0-b9b9-aca864c7e78d"},"vehicle_type_id":"4","last_reported":1735920658,"current_range_meters":32000,"station_id":"ce4bhch2rcd13ifvqeug","pricing_plan_id":"cebpf4jnsgd1na2vs0mg"},{"bike_id":"6c92faae-448f-4fcd-b837-c7db2ff4caee","system_id":"levelo_inurba_marseille","lat":43.30644,"lon":5.40107,"is_reserved":false,"is_disabled":true,"rental_uris":{"android":"levelo://app?vid=6c92faae-448f-4fcd-b837-c7db2ff4caee","ios":"levelo://app?vid=6c92faae-448f-4fcd-b837-c7db2ff4caee"},"vehicle_type_id":"4","last_reported":1735920658,"current_range_meters":0,"station_id":"ce4bh112rcd13ifvqda0","pricing_plan_id":"cebpf4jnsgd1na2vs0mg"},{"bike_id":"63dbd792-eb10-495b-bb91-ca5c1a9d83b4","system_id":"levelo_inurba_marseille","lat":43.29609,"lon":5.37705,"is_reserved":false,"is_disabled":false,"rental_uris":{"android":"levelo://app?vid=63dbd792-eb10-495b-bb91-ca5c1a9d83b4","ios":"levelo://app?vid=63dbd792-eb10-495b-bb91-ca5c1a9d83b4"},"vehicle_type_id":"4","last_reported":1735920658,"current_range_meters":38800,"station_id":"ce4bgi92rcd13ifvqb90","pricing_plan_id":"cebpf4jnsgd1na2vs0mg"},{"bike_id":"a1ee6c06-e992-437f-90f0-dfd3bd0c13a6","system_id":"levelo_inurba_marseille","lat":43.30137,"lon":5.38082,"is_reserved":false,"is_disabled":false,"rental_uris":{"android":"levelo://app?vid=a1ee6c06-e992-437f-90f0-dfd3bd0c13a6","ios":"levelo://app?vid=a1ee6c06-e992-437f-90f0-dfd3bd0c13a6"},"vehicle_type_id":"4","last_reported":1735920658,"current_range_meters":36800,"station_id":"ce4bgjp2rcd13ifvqbh0","pricing_plan_id":"cebpf4jnsgd1na2vs0mg"},{"bike_id":"ec9b0c8d-d702-4d01-8373-2717624f46ed","system_id":"levelo_inurba_marseille","lat":43.23967,"lon":5.36632,"is_reserved":false,"is_disabled":false,"rental_uris":{"android":"levelo://app?vid=ec9b0c8d-d702-4d01-8373-2717624f46ed","ios":"levelo://app?vid=ec9b0c8d-d702-4d01-8373-2717624f46ed"},"vehicle_type_id":"4","last_reported":1735920658,"current_range_meters":10800,"station_id":"ce4bhi12rcd13ifvqfp0","pricing_plan_id":"cebpf4jnsgd1na2vs0mg"},{"bike_id":"15766afd-b21f-4c8e-a21c-ec99151ef040","system_id":"levelo_inurba_marseille","lat":43.29008,"lon":5.35609,"is_reserved":false,"is_disabled":false,"rental_uris":{"android":"levelo://app?vid=15766afd-b21f-4c8e-a21c-ec99151ef040","ios":"levelo://app?vid=15766afd-b21f-4c8e-a21c-ec99151ef040"},"vehicle_type_id":"4","last_reported":1735920658,"current_range_meters":7200,"station_id":"ce4bhb92rcd13ifvqen0","pricing_plan_id":"cebpf4jnsgd1na2vs0mg"},{"bike_id":"1edca33b-8d82-4613-945e-057a682428fe","system_id":"levelo_inurba_marseille","lat":43.33105,"lon":5.38215,"is_reserved":false,"is_disabled":false,"rental_uris":{"android":"levelo://app?vid=1edca33b-8d82-4613-945e-057a682428fe","ios":"levelo://app?vid=1edca33b-8d82-4613-945e-057a682428fe"},"vehicle_type_id":"4","last_reported":1735920658,"current_range_meters":33200,"station_id":"","pricing_plan_id":"cebpf4jnsgd1na2vs0mg"},{"bike_id":"18df761a-1c8f-4c9e-a7ce-d40ba69779d8","system_id":"levelo_inurba_marseille","lat":43.25491,"lon":5.37651,"is_reserved":false,"is_disabled":false,"rental_uris":{"android":"levelo://app?vid=18df761a-1c8f-4c9e-a7ce-d40ba69779d8","ios":"levelo://app?vid=18df761a-1c8f-4c9e-a7ce-d40ba69779d8"},"vehicle_type_id":"4","last_reported":1735920658,"current_range_meters":3600,"station_id":"ce4bhh12rcd13ifvqff0","pricing_plan_id":"cebpf4jnsgd1na2vs0mg"},{"bike_id":"279a411f-b990-4034-931d-a233c7ce0d43","system_id":"levelo_inurba_marseille","lat":43.24664,"lon":5.38171,"is_reserved":false,"is_disabled":false,"rental_uris":{"android":"levelo://app?vid=279a411f-b990-4034-931d-a233c7ce0d43","ios":"levelo://app?vid=279a411f-b990-4034-931d-a233c7ce0d43"},"vehicle_type_id":"4","last_reported":1735920658,"current_range_meters":14400,"station_id":"ce4bhih2rcd13ifvqfr0","pricing_plan_id":"cebpf4jnsgd1na2vs0mg"},{"bike_id":"fb0d5d50-2cba-4668-8a68-53b559a0ffc7","system_id":"levelo_inurba_marseille","lat":43.24667,"lon":5.3817,"is_reserved":false,"is_disabled":false,"rental_uris":{"android":"levelo://app?vid=fb0d5d50-2cba-4668-8a68-53b559a0ffc7","ios":"levelo://app?vid=fb0d5d50-2cba-4668-8a68-53b559a0ffc7"},"vehicle_type_id":"4","last_reported":1735920658,"current_range_meters":35200,"station_id":"ce4bhih2rcd13ifvqfr0","pricing_plan_id":"cebpf4jnsgd1na2vs0mg"},{"bike_id":"680c3e92-d886-4d2b-9ee6-57e337b73e60","system_id":"levelo_inurba_marseille","lat":43.28471,"lon":5.38424,"is_reserved":false,"is_disabled":false,"rental_uris":{"android":"levelo://app?vid=680c3e92-d886-4d2b-9ee6-57e337b73e60","ios":"levelo://app?vid=680c3e92-d886-4d2b-9ee6-57e337b73e60"},"vehicle_type_id":"4","last_reported":1735920658,"current_range_meters":28400,"station_id":"ce4bh512rcd13ifvqe3g","pricing_plan_id":"cebpf4jnsgd1na2vs0mg"},{"bike_id":"dd6d395b-f207-4e0d-8c2a-776a370a3f06","system_id":"levelo_inurba_marseille","lat":43.31543,"lon":5.3801,"is_reserved":false,"is_disabled":false,"rental_uris":{"android":"levelo://app?vid=dd6d395b-f207-4e0d-8c2a-776a370a3f06","ios":"levelo://app?vid=dd6d395b-f207-4e0d-8c2a-776a370a3f06"},"vehicle_type_id":"4","last_reported":1735920658,"current_range_meters":38800,"station_id":"ce4bhsp2rcd13ifvqi50","pricing_plan_id":"cebpf4jnsgd1na2vs0mg"},{"bike_id":"a3a13d37-324b-4f71-8010-6efc8939585d","system_id":"levelo_inurba_marseille","lat":43.29202,"lon":5.37161,"is_reserved":false,"is_disabled":false,"rental_uris":{"android":"levelo://app?vid=a3a13d37-324b-4f71-8010-6efc8939585d","ios":"levelo://app?vid=a3a13d37-324b-4f71-8010-6efc8939585d"},"vehicle_type_id":"4","last_reported":1735920658,"current_range_meters":36000,"station_id":"ce4bha92rcd13ifvqeh0","pricing_plan_id":"cebpf4jnsgd1na2vs0mg"},{"bike_id":"7a63d77d-b3e4-4713-9060-b918ad8247d2","system_id":"levelo_inurba_marseille","lat":43.22923,"lon":5.35394,"is_reserved":false,"is_disabled":false,"rental_uris":{"android":"levelo://app?vid=7a63d77d-b3e4-4713-9060-b918ad8247d2","ios":"levelo://app?vid=7a63d77d-b3e4-4713-9060-b918ad8247d2"},"vehicle_type_id":"4","last_reported":1735920658,"current_range_meters":34800,"station_id":"cpo3532slgdg3j2ikp40","pricing_plan_id":"cebpf4jnsgd1na2vs0mg"},{"bike_id":"f9903edd-4a05-4f6f-9a8b-a05df8bc1d3d","system_id":"levelo_inurba_marseille","lat":43.29681,"lon":5.37281,"is_reserved":false,"is_disabled":false,"rental_uris":{"android":"levelo://app?vid=f9903edd-4a05-4f6f-9a8b-a05df8bc1d3d","ios":"levelo://app?vid=f9903edd-4a05-4f6f-9a8b-a05df8bc1d3d"},"vehicle_type_id":"4","last_reported":1735920658,"current_range_meters":18000,"station_id":"ce4bgk12rcd13ifvqbj0","pricing_plan_id":"cebpf4jnsgd1na2vs0mg"},{"bike_id":"3b3d8209-caa3-4755-b0ad-acce800a0bc0","system_id":"levelo_inurba_marseille","lat":43.30271,"lon":5.37689,"is_reserved":false,"is_disabled":false,"rental_uris":{"android":"levelo://app?vid=3b3d8209-caa3-4755-b0ad-acce800a0bc0","ios":"levelo://app?vid=3b3d8209-caa3-4755-b0ad-acce800a0bc0"},"vehicle_type_id":"4","last_reported":1735920658,"current_range_meters":17600,"station_id":"ce4bguh2rcd13ifvqcj0","pricing_plan_id":"cebpf4jnsgd1na2vs0mg"},{"bike_id":"02b15940-7fe7-4908-9263-177b25214339","system_id":"levelo_inurba_marseille","lat":43.29163,"lon":5.37139,"is_reserved":false,"is_disabled":false,"rental_uris":{"android":"levelo://app?vid=02b15940-7fe7-4908-9263-177b25214339","ios":"levelo://app?vid=02b15940-7fe7-4908-9263-177b25214339"},"vehicle_type_id":"4","last_reported":1735920658,"current_range_meters":8000,"station_id":"ce4bha92rcd13ifvqeh0","pricing_plan_id":"cebpf4jnsgd1na2vs0mg"},{"bike_id":"3c7472a4-a45c-4f46-a692-aa44ebf92f21","system_id":"levelo_inurba_marseille","lat":43.27427,"lon":5.39406,"is_reserved":false,"is_disabled":false,"rental_uris":{"android":"levelo://app?vid=3c7472a4-a45c-4f46-a692-aa44ebf92f21","ios":"levelo://app?vid=3c7472a4-a45c-4f46-a692-aa44ebf92f21"},"vehicle_type_id":"4","last_reported":1735920658,"current_range_meters":30400,"station_id":"ce4bhdp2rcd13ifvqf20","pricing_plan_id":"cebpf4jnsgd1na2vs0mg"},{"bike_id":"058ecb54-af3e-4e44-a703-6e3c9b29c958","system_id":"levelo_inurba_marseille","lat":43.29001,"lon":5.35601,"is_reserved":false,"is_disabled":false,"rental_uris":{"android":"levelo://app?vid=058ecb54-af3e-4e44-a703-6e3c9b29c958","ios":"levelo://app?vid=058ecb54-af3e-4e44-a703-6e3c9b29c958"},"vehicle_type_id":"4","last_reported":1735920658,"current_range_meters":39200,"station_id":"ce4bhb92rcd13ifvqen0","pricing_plan_id":"cebpf4jnsgd1na2vs0mg"},{"bike_id":"b5b2166a-b0b8-4fc4-9960-24fcf8dddf0c","system_id":"levelo_inurba_marseille","lat":43.30825,"lon":5.38059,"is_reserved":false,"is_disabled":false,"rental_uris":{"android":"levelo://app?vid=b5b2166a-b0b8-4fc4-9960-24fcf8dddf0c","ios":"levelo://app?vid=b5b2166a-b0b8-4fc4-9960-24fcf8dddf0c"},"vehicle_type_id":"4","last_reported":1735920658,"current_range_meters":14400,"station_id":"","pricing_plan_id":"cebpf4jnsgd1na2vs0mg"},{"bike_id":"ba45c32b-6d14-47e1-bb41-23c211513d59","system_id":"levelo_inurba_marseille","lat":43.30215,"lon":5.37446,"is_reserved":false,"is_disabled":false,"rental_uris":{"android":"levelo://app?vid=ba45c32b-6d14-47e1-bb41-23c211513d59","ios":"levelo://app?vid=ba45c32b-6d14-47e1-bb41-23c211513d59"},"vehicle_type_id":"4","last_reported":1735920658,"current_range_meters":24000,"station_id":"","pricing_plan_id":"cebpf4jnsgd1na2vs0mg"},{"bike_id":"2d37891b-3e35-407f-964b-7c262ae2b2d0","system_id":"levelo_inurba_marseille","lat":43.29412,"lon":5.381,"is_reserved":false,"is_disabled":true,"rental_uris":{"android":"levelo://app?vid=2d37891b-3e35-407f-964b-7c262ae2b2d0","ios":"levelo://app?vid=2d37891b-3e35-407f-964b-7c262ae2b2d0"},"vehicle_type_id":"4","last_reported":1735920658,"current_range_meters":0,"station_id":"","pricing_plan_id":"cebpf4jnsgd1na2vs0mg"},{"bike_id":"13e1d001-5304-4440-8773-a99209b55da5","system_id":"levelo_inurba_marseille","lat":43.26783,"lon":5.39418,"is_reserved":false,"is_disabled":false,"rental_uris":{"android":"levelo://app?vid=13e1d001-5304-4440-8773-a99209b55da5","ios":"levelo://app?vid=13e1d001-5304-4440-8773-a99209b55da5"},"vehicle_type_id":"4","last_reported":1735920658,"current_range_meters":8000,"station_id":"ce4bhh12rcd13ifvqfg0","pricing_plan_id":"cebpf4jnsgd1na2vs0mg"},{"bike_id":"c7773e54-0a95-4dea-8ee3-30c91813832f","system_id":"levelo_inurba_marseille","lat":43.29255,"lon":5.40901,"is_reserved":false,"is_disabled":false,"rental_uris":{"android":"levelo://app?vid=c7773e54-0a95-4dea-8ee3-30c91813832f","ios":"levelo://app?vid=c7773e54-0a95-4dea-8ee3-30c91813832f"},"vehicle_type_id":"4","last_reported":1735920658,"current_range_meters":20800,"station_id":"ce4bh192rcd13ifvqdc0","pricing_plan_id":"cebpf4jnsgd1na2vs0mg"},{"bike_id":"2332862a-3884-4317-af82-ee9793e9b62c","system_id":"levelo_inurba_marseille","lat":43.24097,"lon":5.37793,"is_reserved":false,"is_disabled":false,"rental_uris":{"android":"levelo://app?vid=2332862a-3884-4317-af82-ee9793e9b62c","ios":"levelo://app?vid=2332862a-3884-4317-af82-ee9793e9b62c"},"vehicle_type_id":"4","last_reported":1735920658,"current_range_meters":20800,"station_id":"ce4bhnp2rcd13ifvqgvg","pricing_plan_id":"cebpf4jnsgd1na2vs0mg"},{"bike_id":"c5b0a8b8-13c4-49f5-a296-b54d81c83163","system_id":"levelo_inurba_marseille","lat":43.29417,"lon":5.38624,"is_reserved":false,"is_disabled":false,"rental_uris":{"android":"levelo://app?vid=c5b0a8b8-13c4-49f5-a296-b54d81c83163","ios":"levelo://app?vid=c5b0a8b8-13c4-49f5-a296-b54d81c83163"},"vehicle_type_id":"4","last_reported":1735920658,"current_range_meters":30000,"station_id":"ce4bh2h2rcd13ifvqdh0","pricing_plan_id":"cebpf4jnsgd1na2vs0mg"},{"bike_id":"9bc3e5f4-1076-4308-85ea-6ec37ca9b33e","system_id":"levelo_inurba_marseille","lat":43.29948,"lon":5.36553,"is_reserved":false,"is_disabled":false,"rental_uris":{"android":"levelo://app?vid=9bc3e5f4-1076-4308-85ea-6ec37ca9b33e","ios":"levelo://app?vid=9bc3e5f4-1076-4308-85ea-6ec37ca9b33e"},"vehicle_type_id":"4","last_reported":1735920658,"current_range_meters":24800,"station_id":"ce4bgm92rcd13ifvqbr0","pricing_plan_id":"cebpf4jnsgd1na2vs0mg"},{"bike_id":"4483098c-d27d-4534-ad16-c209ae457c9a","system_id":"levelo_inurba_marseille","lat":43.31536,"lon":5.38018,"is_reserved":false,"is_disabled":false,"rental_uris":{"android":"levelo://app?vid=4483098c-d27d-4534-ad16-c209ae457c9a","ios":"levelo://app?vid=4483098c-d27d-4534-ad16-c209ae457c9a"},"vehicle_type_id":"4","last_reported":1735920658,"current_range_meters":38800,"station_id":"ce4bhsp2rcd13ifvqi50","pricing_plan_id":"cebpf4jnsgd1na2vs0mg"},{"bike_id":"b196ede2-15dc-4193-a4cf-026c9e7d182c","system_id":"levelo_inurba_marseille","lat":43.32668,"lon":5.40992,"is_reserved":false,"is_disabled":false,"rental_uris":{"android":"levelo://app?vid=b196ede2-15dc-4193-a4cf-026c9e7d182c","ios":"levelo://app?vid=b196ede2-15dc-4193-a4cf-026c9e7d182c"},"vehicle_type_id":"4","last_reported":1735920658,"current_range_meters":24800,"station_id":"ce4bhpp2rcd13ifvqhgg","pricing_plan_id":"cebpf4jnsgd1na2vs0mg"},{"bike_id":"af6f5cf6-fe33-49d4-9b2b-a069d115dde7","system_id":"levelo_inurba_marseille","lat":43.29848,"lon":5.36283,"is_reserved":false,"is_disabled":false,"rental_uris":{"android":"levelo://app?vid=af6f5cf6-fe33-49d4-9b2b-a069d115dde7","ios":"levelo://app?vid=af6f5cf6-fe33-49d4-9b2b-a069d115dde7"},"vehicle_type_id":"4","last_reported":1735920658,"current_range_meters":23200,"station_id":"ce4bgpp2rcd13ifvqc3g","pricing_plan_id":"cebpf4jnsgd1na2vs0mg"},{"bike_id":"dd874b77-a42e-4757-bd84-560175a054b9","system_id":"levelo_inurba_marseille","lat":43.25003,"lon":5.38936,"is_reserved":false,"is_disabled":false,"rental_uris":{"android":"levelo://app?vid=dd874b77-a42e-4757-bd84-560175a054b9","ios":"levelo://app?vid=dd874b77-a42e-4757-bd84-560175a054b9"},"vehicle_type_id":"4","last_reported":1735920658,"current_range_meters":33200,"station_id":"ce4bhgp2rcd13ifvqfd0","pricing_plan_id":"cebpf4jnsgd1na2vs0mg"},{"bike_id":"01a892c4-6d34-4a6b-9f97-5324cd46aa08","system_id":"levelo_inurba_marseille","lat":43.28978,"lon":5.37838,"is_reserved":false,"is_disabled":true,"rental_uris":{"android":"levelo://app?vid=01a892c4-6d34-4a6b-9f97-5324cd46aa08","ios":"levelo://app?vid=01a892c4-6d34-4a6b-9f97-5324cd46aa08"},"vehicle_type_id":"4","last_reported":1735920658,"current_range_meters":38000,"station_id":"ce4bh9p2rcd13ifvqed0","pricing_plan_id":"cebpf4jnsgd1na2vs0mg"},{"bike_id":"17d37454-692e-493d-b22e-f20f5d0f7213","system_id":"levelo_inurba_marseille","lat":43.30303,"lon":5.369,"is_reserved":false,"is_disabled":false,"rental_uris":{"android":"levelo://app?vid=17d37454-692e-493d-b22e-f20f5d0f7213","ios":"levelo://app?vid=17d37454-692e-493d-b22e-f20f5d0f7213"},"vehicle_type_id":"4","last_reported":1735920658,"current_range_meters":31200,"station_id":"ce4bgqh2rcd13ifvqc5g","pricing_plan_id":"cebpf4jnsgd1na2vs0mg"},{"bike_id":"3825d5e7-e9a3-4703-b17d-6941e0d286a6","system_id":"levelo_inurba_marseille","lat":43.31098,"lon":5.42461,"is_reserved":false,"is_disabled":false,"rental_uris":{"android":"levelo://app?vid=3825d5e7-e9a3-4703-b17d-6941e0d286a6","ios":"levelo://app?vid=3825d5e7-e9a3-4703-b17d-6941e0d286a6"},"vehicle_type_id":"4","last_reported":1735920658,"current_range_meters":39200,"station_id":"ce4bhp92rcd13ifvqhag","pricing_plan_id":"cebpf4jnsgd1na2vs0mg"},{"bike_id":"8c1a59b4-2c8f-4307-8a5a-eec2cd0e5913","system_id":"levelo_inurba_marseille","lat":43.30269,"lon":5.37689,"is_reserved":false,"is_disabled":false,"rental_uris":{"android":"levelo://app?vid=8c1a59b4-2c8f-4307-8a5a-eec2cd0e5913","ios":"levelo://app?vid=8c1a59b4-2c8f-4307-8a5a-eec2cd0e5913"},"vehicle_type_id":"4","last_reported":1735920658,"current_range_meters":38800,"station_id":"ce4bguh2rcd13ifvqcj0","pricing_plan_id":"cebpf4jnsgd1na2vs0mg"},{"bike_id":"c38119df-a0cc-4d53-851b-aebce98309d3","system_id":"levelo_inurba_marseille","lat":43.25012,"lon":5.38915,"is_reserved":false,"is_disabled":false,"rental_uris":{"android":"levelo://app?vid=c38119df-a0cc-4d53-851b-aebce98309d3","ios":"levelo://app?vid=c38119df-a0cc-4d53-851b-aebce98309d3"},"vehicle_type_id":"4","last_reported":1735920658,"current_range_meters":8400,"station_id":"ce4bhgp2rcd13ifvqfd0","pricing_plan_id":"cebpf4jnsgd1na2vs0mg"},{"bike_id":"84a23b7d-84d9-4e3e-a382-499324e414fb","system_id":"levelo_inurba_marseille","lat":43.30424,"lon":5.38886,"is_reserved":false,"is_disabled":false,"rental_uris":{"android":"levelo://app?vid=84a23b7d-84d9-4e3e-a382-499324e414fb","ios":"levelo://app?vid=84a23b7d-84d9-4e3e-a382-499324e414fb"},"vehicle_type_id":"4","last_reported":1735920658,"current_range_meters":14400,"station_id":"ce4bgk12rcd13ifvqbi0","pricing_plan_id":"cebpf4jnsgd1na2vs0mg"},{"bike_id":"d06765fb-ae36-4bd9-824c-0b5234000b68","system_id":"levelo_inurba_marseille","lat":43.25111,"lon":5.403198,"is_reserved":false,"is_disabled":false,"rental_uris":{"android":"levelo://app?vid=d06765fb-ae36-4bd9-824c-0b5234000b68","ios":"levelo://app?vid=d06765fb-ae36-4bd9-824c-0b5234000b68"},"vehicle_type_id":"4","last_reported":1735920658,"current_range_meters":20400,"station_id":"ce4bhlh2rcd13ifvqgig","pricing_plan_id":"cebpf4jnsgd1na2vs0mg"},{"bike_id":"9f58862a-aa2f-4ebc-a1ab-45710e1c8c93","system_id":"levelo_inurba_marseille","lat":43.30868,"lon":5.37406,"is_reserved":false,"is_disabled":false,"rental_uris":{"android":"levelo://app?vid=9f58862a-aa2f-4ebc-a1ab-45710e1c8c93","ios":"levelo://app?vid=9f58862a-aa2f-4ebc-a1ab-45710e1c8c93"},"vehicle_type_id":"4","last_reported":1735920658,"current_range_meters":20400,"station_id":"","pricing_plan_id":"cebpf4jnsgd1na2vs0mg"},{"bike_id":"2b85d707-edbb-4b57-aae2-be661f447875","system_id":"levelo_inurba_marseille","lat":43.30287,"lon":5.37696,"is_reserved":false,"is_disabled":false,"rental_uris":{"android":"levelo://app?vid=2b85d707-edbb-4b57-aae2-be661f447875","ios":"levelo://app?vid=2b85d707-edbb-4b57-aae2-be661f447875"},"vehicle_type_id":"4","last_reported":1735920658,"current_range_meters":12800,"station_id":"ce4bguh2rcd13ifvqcj0","pricing_plan_id":"cebpf4jnsgd1na2vs0mg"},{"bike_id":"e451fd54-e68d-49e6-9117-94b730b1321d","system_id":"levelo_inurba_marseille","lat":43.32001,"lon":5.38151,"is_reserved":false,"is_disabled":false,"rental_uris":{"android":"levelo://app?vid=e451fd54-e68d-49e6-9117-94b730b1321d","ios":"levelo://app?vid=e451fd54-e68d-49e6-9117-94b730b1321d"},"vehicle_type_id":"4","last_reported":1735920658,"current_range_meters":38400,"station_id":"ce4bhr12rcd13ifvqhpg","pricing_plan_id":"cebpf4jnsgd1na2vs0mg"},{"bike_id":"16314a60-59d6-4ad9-813c-6b2aae602f85","system_id":"levelo_inurba_marseille","lat":43.29272,"lon":5.36836,"is_reserved":false,"is_disabled":false,"rental_uris":{"android":"levelo://app?vid=16314a60-59d6-4ad9-813c-6b2aae602f85","ios":"levelo://app?vid=16314a60-59d6-4ad9-813c-6b2aae602f85"},"vehicle_type_id":"4","last_reported":1735920658,"current_range_meters":14400,"station_id":"ce4bhbp2rcd13ifvqesg","pricing_plan_id":"cebpf4jnsgd1na2vs0mg"},{"bike_id":"2f857458-45ae-4306-9ffb-5d94252d59a5","system_id":"levelo_inurba_marseille","lat":43.24655,"lon":5.38894,"is_reserved":false,"is_disabled":false,"rental_uris":{"android":"levelo://app?vid=2f857458-45ae-4306-9ffb-5d94252d59a5","ios":"levelo://app?vid=2f857458-45ae-4306-9ffb-5d94252d59a5"},"vehicle_type_id":"4","last_reported":1735920658,"current_range_meters":39200,"station_id":"ce4bhg12rcd13ifvqf60","pricing_plan_id":"cebpf4jnsgd1na2vs0mg"},{"bike_id":"7f2982a3-1f6a-49ed-a451-6cec1e9c41af","system_id":"levelo_inurba_marseille","lat":43.28851,"lon":5.35864,"is_reserved":false,"is_disabled":false,"rental_uris":{"android":"levelo://app?vid=7f2982a3-1f6a-49ed-a451-6cec1e9c41af","ios":"levelo://app?vid=7f2982a3-1f6a-49ed-a451-6cec1e9c41af"},"vehicle_type_id":"4","last_reported":1735920658,"current_range_meters":27600,"station_id":"ce4bhb12rcd13ifvqem0","pricing_plan_id":"cebpf4jnsgd1na2vs0mg"},{"bike_id":"7b78d5e2-5142-402d-a4f8-0f3037a6c533","system_id":"levelo_inurba_marseille","lat":43.26945,"lon":5.3863,"is_reserved":false,"is_disabled":true,"rental_uris":{"android":"levelo://app?vid=7b78d5e2-5142-402d-a4f8-0f3037a6c533","ios":"levelo://app?vid=7b78d5e2-5142-402d-a4f8-0f3037a6c533"},"vehicle_type_id":"4","last_reported":1735920658,"current_range_meters":16800,"station_id":"ce4bhh92rcd13ifvqfh0","pricing_plan_id":"cebpf4jnsgd1na2vs0mg"},{"bike_id":"cbb6eaa8-2a66-410e-9a99-0cc5daa01219","system_id":"levelo_inurba_marseille","lat":43.28999,"lon":5.35611,"is_reserved":false,"is_disabled":true,"rental_uris":{"android":"levelo://app?vid=cbb6eaa8-2a66-410e-9a99-0cc5daa01219","ios":"levelo://app?vid=cbb6eaa8-2a66-410e-9a99-0cc5daa01219"},"vehicle_type_id":"4","last_reported":1735920658,"current_range_meters":0,"station_id":"ce4bhb92rcd13ifvqen0","pricing_plan_id":"cebpf4jnsgd1na2vs0mg"},{"bike_id":"b0df2c77-f73a-46b2-b5c5-6520722442d4","system_id":"levelo_inurba_marseille","lat":43.29542,"lon":5.42278,"is_reserved":false,"is_disabled":false,"rental_uris":{"android":"levelo://app?vid=b0df2c77-f73a-46b2-b5c5-6520722442d4","ios":"levelo://app?vid=b0df2c77-f73a-46b2-b5c5-6520722442d4"},"vehicle_type_id":"4","last_reported":1735920658,"current_range_meters":32400,"station_id":"ce4bhph2rcd13ifvqhdg","pricing_plan_id":"cebpf4jnsgd1na2vs0mg"},{"bike_id":"db34218a-bf6f-45ed-b3b1-d950245c60a9","system_id":"levelo_inurba_marseille","lat":43.30332,"lon":5.36872,"is_reserved":false,"is_disabled":false,"rental_uris":{"android":"levelo://app?vid=db34218a-bf6f-45ed-b3b1-d950245c60a9","ios":"levelo://app?vid=db34218a-bf6f-45ed-b3b1-d950245c60a9"},"vehicle_type_id":"4","last_reported":1735920658,"current_range_meters":38800,"station_id":"ce4bgqh2rcd13ifvqc5g","pricing_plan_id":"cebpf4jnsgd1na2vs0mg"},{"bike_id":"1237c156-cfa6-45ec-9298-949dcdbd11b6","system_id":"levelo_inurba_marseille","lat":43.2738,"lon":5.36257,"is_reserved":false,"is_disabled":false,"rental_uris":{"android":"levelo://app?vid=1237c156-cfa6-45ec-9298-949dcdbd11b6","ios":"levelo://app?vid=1237c156-cfa6-45ec-9298-949dcdbd11b6"},"vehicle_type_id":"4","last_reported":1735920658,"current_range_meters":38800,"station_id":"ce4bhbh2rcd13ifvqeo0","pricing_plan_id":"cebpf4jnsgd1na2vs0mg"},{"bike_id":"cb9ddef6-e3ca-4d83-8257-6a73eb8266c6","system_id":"levelo_inurba_marseille","lat":43.326607,"lon":5.409898,"is_reserved":false,"is_disabled":false,"rental_uris":{"android":"levelo://app?vid=cb9ddef6-e3ca-4d83-8257-6a73eb8266c6","ios":"levelo://app?vid=cb9ddef6-e3ca-4d83-8257-6a73eb8266c6"},"vehicle_type_id":"4","last_reported":1735920658,"current_range_meters":38400,"station_id":"ce4bhpp2rcd13ifvqhgg","pricing_plan_id":"cebpf4jnsgd1na2vs0mg"},{"bike_id":"7b9e134f-1d5b-46f5-87f8-6cc312c5778f","system_id":"levelo_inurba_marseille","lat":43.22929,"lon":5.35379,"is_reserved":false,"is_disabled":false,"rental_uris":{"android":"levelo://app?vid=7b9e134f-1d5b-46f5-87f8-6cc312c5778f","ios":"levelo://app?vid=7b9e134f-1d5b-46f5-87f8-6cc312c5778f"},"vehicle_type_id":"4","last_reported":1735920658,"current_range_meters":38800,"station_id":"cpo3532slgdg3j2ikp40","pricing_plan_id":"cebpf4jnsgd1na2vs0mg"},{"bike_id":"f06bf3a7-e40c-46de-95f7-7f3246dbd72d","system_id":"levelo_inurba_marseille","lat":43.28683,"lon":5.38672,"is_reserved":false,"is_disabled":false,"rental_uris":{"android":"levelo://app?vid=f06bf3a7-e40c-46de-95f7-7f3246dbd72d","ios":"levelo://app?vid=f06bf3a7-e40c-46de-95f7-7f3246dbd72d"},"vehicle_type_id":"4","last_reported":1735920658,"current_range_meters":38800,"station_id":"ce4bh492rcd13ifvqdug","pricing_plan_id":"cebpf4jnsgd1na2vs0mg"},{"bike_id":"135cf862-1e80-4855-8234-457b3ef98c02","system_id":"levelo_inurba_marseille","lat":43.29592,"lon":5.36738,"is_reserved":false,"is_disabled":false,"rental_uris":{"android":"levelo://app?vid=135cf862-1e80-4855-8234-457b3ef98c02","ios":"levelo://app?vid=135cf862-1e80-4855-8234-457b3ef98c02"},"vehicle_type_id":"4","last_reported":1735920658,"current_range_meters":11200,"station_id":"ce4bgph2rcd13ifvqc2g","pricing_plan_id":"cebpf4jnsgd1na2vs0mg"},{"bike_id":"fcdefbc7-0ca5-495b-bd08-f5be3785b784","system_id":"levelo_inurba_marseille","lat":43.29578,"lon":5.37511,"is_reserved":false,"is_disabled":false,"rental_uris":{"android":"levelo://app?vid=fcdefbc7-0ca5-495b-bd08-f5be3785b784","ios":"levelo://app?vid=fcdefbc7-0ca5-495b-bd08-f5be3785b784"},"vehicle_type_id":"4","last_reported":1735920658,"current_range_meters":10800,"station_id":"ce4bgh92rcd13ifvqb50","pricing_plan_id":"cebpf4jnsgd1na2vs0mg"},{"bike_id":"827b0813-db3a-45cd-9f07-276eb24a36dd","system_id":"levelo_inurba_marseille","lat":43.31362,"lon":5.36707,"is_reserved":false,"is_disabled":false,"rental_uris":{"android":"levelo://app?vid=827b0813-db3a-45cd-9f07-276eb24a36dd","ios":"levelo://app?vid=827b0813-db3a-45cd-9f07-276eb24a36dd"},"vehicle_type_id":"4","last_reported":1735920658,"current_range_meters":38800,"station_id":"ce4bgr92rcd13ifvqc6g","pricing_plan_id":"cebpf4jnsgd1na2vs0mg"},{"bike_id":"34825794-d565-4dbd-8cbe-c88df4608f04","system_id":"levelo_inurba_marseille","lat":43.27814,"lon":5.40701,"is_reserved":false,"is_disabled":false,"rental_uris":{"android":"levelo://app?vid=34825794-d565-4dbd-8cbe-c88df4608f04","ios":"levelo://app?vid=34825794-d565-4dbd-8cbe-c88df4608f04"},"vehicle_type_id":"4","last_reported":1735920658,"current_range_meters":38800,"station_id":"ce4bhnh2rcd13ifvqgtg","pricing_plan_id":"cebpf4jnsgd1na2vs0mg"},{"bike_id":"9085f317-eea3-445b-8bdd-28ff00ca8048","system_id":"levelo_inurba_marseille","lat":43.26693,"lon":5.38278,"is_reserved":false,"is_disabled":false,"rental_uris":{"android":"levelo://app?vid=9085f317-eea3-445b-8bdd-28ff00ca8048","ios":"levelo://app?vid=9085f317-eea3-445b-8bdd-28ff00ca8048"},"vehicle_type_id":"4","last_reported":1735920658,"current_range_meters":35600,"station_id":"ce4bhg92rcd13ifvqf90","pricing_plan_id":"cebpf4jnsgd1na2vs0mg"},{"bike_id":"a6f828f1-5f97-4da7-bf33-7d48a155db3e","system_id":"levelo_inurba_marseille","lat":43.2783,"lon":5.39209,"is_reserved":false,"is_disabled":false,"rental_uris":{"android":"levelo://app?vid=a6f828f1-5f97-4da7-bf33-7d48a155db3e","ios":"levelo://app?vid=a6f828f1-5f97-4da7-bf33-7d48a155db3e"},"vehicle_type_id":"4","last_reported":1735920658,"current_range_meters":30000,"station_id":"ce4bhjp2rcd13ifvqga0","pricing_plan_id":"cebpf4jnsgd1na2vs0mg"},{"bike_id":"d8df3d2a-7181-477b-844f-ba218877fb88","system_id":"levelo_inurba_marseille","lat":43.31353,"lon":5.36719,"is_reserved":false,"is_disabled":false,"rental_uris":{"android":"levelo://app?vid=d8df3d2a-7181-477b-844f-ba218877fb88","ios":"levelo://app?vid=d8df3d2a-7181-477b-844f-ba218877fb88"},"vehicle_type_id":"4","last_reported":1735920658,"current_range_meters":35200,"station_id":"ce4bgr92rcd13ifvqc6g","pricing_plan_id":"cebpf4jnsgd1na2vs0mg"},{"bike_id":"264e2b37-a7a8-43de-af6e-2a79e21accc7","system_id":"levelo_inurba_marseille","lat":43.29273,"lon":5.36842,"is_reserved":false,"is_disabled":false,"rental_uris":{"android":"levelo://app?vid=264e2b37-a7a8-43de-af6e-2a79e21accc7","ios":"levelo://app?vid=264e2b37-a7a8-43de-af6e-2a79e21accc7"},"vehicle_type_id":"4","last_reported":1735920658,"current_range_meters":28000,"station_id":"ce4bhbp2rcd13ifvqesg","pricing_plan_id":"cebpf4jnsgd1na2vs0mg"},{"bike_id":"03f24cb2-160b-4a7d-b55a-a5dd752a0817","system_id":"levelo_inurba_marseille","lat":43.29245,"lon":5.40901,"is_reserved":false,"is_disabled":false,"rental_uris":{"android":"levelo://app?vid=03f24cb2-160b-4a7d-b55a-a5dd752a0817","ios":"levelo://app?vid=03f24cb2-160b-4a7d-b55a-a5dd752a0817"},"vehicle_type_id":"4","last_reported":1735920658,"current_range_meters":28400,"station_id":"ce4bh192rcd13ifvqdc0","pricing_plan_id":"cebpf4jnsgd1na2vs0mg"},{"bike_id":"3fa0d076-0c01-490d-874a-e6badcebb40b","system_id":"levelo_inurba_marseille","lat":43.31073,"lon":5.38362,"is_reserved":false,"is_disabled":false,"rental_uris":{"android":"levelo://app?vid=3fa0d076-0c01-490d-874a-e6badcebb40b","ios":"levelo://app?vid=3fa0d076-0c01-490d-874a-e6badcebb40b"},"vehicle_type_id":"4","last_reported":1735920658,"current_range_meters":38800,"station_id":"ce4bgv92rcd13ifvqcr0","pricing_plan_id":"cebpf4jnsgd1na2vs0mg"},{"bike_id":"40977940-0cd3-4c4e-ab13-342c16c738ab","system_id":"levelo_inurba_marseille","lat":43.24679,"lon":5.38902,"is_reserved":false,"is_disabled":false,"rental_uris":{"android":"levelo://app?vid=40977940-0cd3-4c4e-ab13-342c16c738ab","ios":"levelo://app?vid=40977940-0cd3-4c4e-ab13-342c16c738ab"},"vehicle_type_id":"4","last_reported":1735920658,"current_range_meters":18800,"station_id":"ce4bhg12rcd13ifvqf60","pricing_plan_id":"cebpf4jnsgd1na2vs0mg"},{"bike_id":"0fb09dc4-c559-469b-b944-d0167194cfca","system_id":"levelo_inurba_marseille","lat":43.27951,"lon":5.41052,"is_reserved":false,"is_disabled":true,"rental_uris":{"android":"levelo://app?vid=0fb09dc4-c559-469b-b944-d0167194cfca","ios":"levelo://app?vid=0fb09dc4-c559-469b-b944-d0167194cfca"},"vehicle_type_id":"4","last_reported":1735920658,"current_range_meters":400,"station_id":"ce4bhnp2rcd13ifvqh0g","pricing_plan_id":"cebpf4jnsgd1na2vs0mg"},{"bike_id":"e763b9cf-65eb-4131-8b74-455e6f49dde4","system_id":"levelo_inurba_marseille","lat":43.32511,"lon":5.36574,"is_reserved":false,"is_disabled":false,"rental_uris":{"android":"levelo://app?vid=e763b9cf-65eb-4131-8b74-455e6f49dde4","ios":"levelo://app?vid=e763b9cf-65eb-4131-8b74-455e6f49dde4"},"vehicle_type_id":"4","last_reported":1735920658,"current_range_meters":38800,"station_id":"ce4bhs12rcd13ifvqhvg","pricing_plan_id":"cebpf4jnsgd1na2vs0mg"},{"bike_id":"0df4dc54-5ccc-4b7b-ad27-ca08ac996913","system_id":"levelo_inurba_marseille","lat":43.26188,"lon":5.37439,"is_reserved":false,"is_disabled":false,"rental_uris":{"android":"levelo://app?vid=0df4dc54-5ccc-4b7b-ad27-ca08ac996913","ios":"levelo://app?vid=0df4dc54-5ccc-4b7b-ad27-ca08ac996913"},"vehicle_type_id":"4","last_reported":1735920658,"current_range_meters":38800,"station_id":"ce4bhgp2rcd13ifvqfc0","pricing_plan_id":"cebpf4jnsgd1na2vs0mg"},{"bike_id":"f811a98b-9aa7-419d-8e74-1c4088ab1bbc","system_id":"levelo_inurba_marseille","lat":43.27078,"lon":5.42277,"is_reserved":false,"is_disabled":false,"rental_uris":{"android":"levelo://app?vid=f811a98b-9aa7-419d-8e74-1c4088ab1bbc","ios":"levelo://app?vid=f811a98b-9aa7-419d-8e74-1c4088ab1bbc"},"vehicle_type_id":"4","last_reported":1735920658,"current_range_meters":38800,"station_id":"ce4bhk92rcd13ifvqgb0","pricing_plan_id":"cebpf4jnsgd1na2vs0mg"},{"bike_id":"641d8acc-50b2-4173-ab23-c70f2a11d28e","system_id":"levelo_inurba_marseille","lat":43.28149,"lon":5.42634,"is_reserved":false,"is_disabled":true,"rental_uris":{"android":"levelo://app?vid=641d8acc-50b2-4173-ab23-c70f2a11d28e","ios":"levelo://app?vid=641d8acc-50b2-4173-ab23-c70f2a11d28e"},"vehicle_type_id":"4","last_reported":1735920658,"current_range_meters":38400,"station_id":"ce4bhnh2rcd13ifvqgug","pricing_plan_id":"cebpf4jnsgd1na2vs0mg"},{"bike_id":"f91168e5-3a6a-477b-824d-bfc9fbc12320","system_id":"levelo_inurba_marseille","lat":43.30295,"lon":5.36903,"is_reserved":false,"is_disabled":false,"rental_uris":{"android":"levelo://app?vid=f91168e5-3a6a-477b-824d-bfc9fbc12320","ios":"levelo://app?vid=f91168e5-3a6a-477b-824d-bfc9fbc12320"},"vehicle_type_id":"4","last_reported":1735920658,"current_range_meters":39200,"station_id":"ce4bgqh2rcd13ifvqc5g","pricing_plan_id":"cebpf4jnsgd1na2vs0mg"},{"bike_id":"8e936699-fb94-4c05-a18e-6a31521ab968","system_id":"levelo_inurba_marseille","lat":43.285,"lon":5.35917,"is_reserved":false,"is_disabled":true,"rental_uris":{"android":"levelo://app?vid=8e936699-fb94-4c05-a18e-6a31521ab968","ios":"levelo://app?vid=8e936699-fb94-4c05-a18e-6a31521ab968"},"vehicle_type_id":"4","last_reported":1735920658,"current_range_meters":35200,"station_id":"ce4bhah2rcd13ifvqei0","pricing_plan_id":"cebpf4jnsgd1na2vs0mg"},{"bike_id":"237a0d5a-8195-4695-b7fc-17dfb3b6dfc0","system_id":"levelo_inurba_marseille","lat":43.28302,"lon":5.37392,"is_reserved":false,"is_disabled":false,"rental_uris":{"android":"levelo://app?vid=237a0d5a-8195-4695-b7fc-17dfb3b6dfc0","ios":"levelo://app?vid=237a0d5a-8195-4695-b7fc-17dfb3b6dfc0"},"vehicle_type_id":"4","last_reported":1735920658,"current_range_meters":19600,"station_id":"","pricing_plan_id":"cebpf4jnsgd1na2vs0mg"},{"bike_id":"d9039fb6-1526-43a5-ab47-bf6c74051347","system_id":"levelo_inurba_marseille","lat":43.28169,"lon":5.42663,"is_reserved":false,"is_disabled":false,"rental_uris":{"android":"levelo://app?vid=d9039fb6-1526-43a5-ab47-bf6c74051347","ios":"levelo://app?vid=d9039fb6-1526-43a5-ab47-bf6c74051347"},"vehicle_type_id":"4","last_reported":1735920658,"current_range_meters":36800,"station_id":"ce4bhnh2rcd13ifvqgug","pricing_plan_id":"cebpf4jnsgd1na2vs0mg"},{"bike_id":"bd609247-c05b-4bfd-8224-3974e4956916","system_id":"levelo_inurba_marseille","lat":43.30901,"lon":5.36847,"is_reserved":false,"is_disabled":true,"rental_uris":{"android":"levelo://app?vid=bd609247-c05b-4bfd-8224-3974e4956916","ios":"levelo://app?vid=bd609247-c05b-4bfd-8224-3974e4956916"},"vehicle_type_id":"4","last_reported":1735920658,"current_range_meters":38800,"station_id":"ce4bgn92rcd13ifvqbvg","pricing_plan_id":"cebpf4jnsgd1na2vs0mg"},{"bike_id":"e455576a-160a-4968-bd17-a0f8bcc0baae","system_id":"levelo_inurba_marseille","lat":43.28489,"lon":5.38411,"is_reserved":false,"is_disabled":false,"rental_uris":{"android":"levelo://app?vid=e455576a-160a-4968-bd17-a0f8bcc0baae","ios":"levelo://app?vid=e455576a-160a-4968-bd17-a0f8bcc0baae"},"vehicle_type_id":"4","last_reported":1735920658,"current_range_meters":30800,"station_id":"ce4bh512rcd13ifvqe3g","pricing_plan_id":"cebpf4jnsgd1na2vs0mg"},{"bike_id":"9a130f1d-b89c-43b8-9e4f-be8793a1e69c","system_id":"levelo_inurba_marseille","lat":43.30876,"lon":5.37187,"is_reserved":false,"is_disabled":false,"rental_uris":{"android":"levelo://app?vid=9a130f1d-b89c-43b8-9e4f-be8793a1e69c","ios":"levelo://app?vid=9a130f1d-b89c-43b8-9e4f-be8793a1e69c"},"vehicle_type_id":"4","last_reported":1735920658,"current_range_meters":32800,"station_id":"ce4bguh2rcd13ifvqckg","pricing_plan_id":"cebpf4jnsgd1na2vs0mg"},{"bike_id":"b50c1e04-9c20-4daa-ad06-7d854e9beedd","system_id":"levelo_inurba_marseille","lat":43.26193,"lon":5.37452,"is_reserved":false,"is_disabled":false,"rental_uris":{"android":"levelo://app?vid=b50c1e04-9c20-4daa-ad06-7d854e9beedd","ios":"levelo://app?vid=b50c1e04-9c20-4daa-ad06-7d854e9beedd"},"vehicle_type_id":"4","last_reported":1735920658,"current_range_meters":34800,"station_id":"ce4bhgp2rcd13ifvqfc0","pricing_plan_id":"cebpf4jnsgd1na2vs0mg"},{"bike_id":"e725e111-62b3-4376-8583-a0458057ee26","system_id":"levelo_inurba_marseille","lat":43.30566,"lon":5.36546,"is_reserved":false,"is_disabled":false,"rental_uris":{"android":"levelo://app?vid=e725e111-62b3-4376-8583-a0458057ee26","ios":"levelo://app?vid=e725e111-62b3-4376-8583-a0458057ee26"},"vehicle_type_id":"4","last_reported":1735920658,"current_range_meters":28400,"station_id":"ce4bgs12rcd13ifvqcag","pricing_plan_id":"cebpf4jnsgd1na2vs0mg"},{"bike_id":"e98029cf-9426-42ae-ba78-24bcf642c70b","system_id":"levelo_inurba_marseille","lat":43.28695,"lon":5.38665,"is_reserved":false,"is_disabled":false,"rental_uris":{"android":"levelo://app?vid=e98029cf-9426-42ae-ba78-24bcf642c70b","ios":"levelo://app?vid=e98029cf-9426-42ae-ba78-24bcf642c70b"},"vehicle_type_id":"4","last_reported":1735920658,"current_range_meters":10800,"station_id":"ce4bh492rcd13ifvqdug","pricing_plan_id":"cebpf4jnsgd1na2vs0mg"},{"bike_id":"bcfe1749-442a-4571-a3fb-79c5d79d8300","system_id":"levelo_inurba_marseille","lat":43.27441,"lon":5.39405,"is_reserved":false,"is_disabled":false,"rental_uris":{"android":"levelo://app?vid=bcfe1749-442a-4571-a3fb-79c5d79d8300","ios":"levelo://app?vid=bcfe1749-442a-4571-a3fb-79c5d79d8300"},"vehicle_type_id":"4","last_reported":1735920658,"current_range_meters":30800,"station_id":"ce4bhdp2rcd13ifvqf20","pricing_plan_id":"cebpf4jnsgd1na2vs0mg"},{"bike_id":"fbee9c16-1cc7-4460-b653-41d924f15e3d","system_id":"levelo_inurba_marseille","lat":43.29961,"lon":5.413238,"is_reserved":false,"is_disabled":false,"rental_uris":{"android":"levelo://app?vid=fbee9c16-1cc7-4460-b653-41d924f15e3d","ios":"levelo://app?vid=fbee9c16-1cc7-4460-b653-41d924f15e3d"},"vehicle_type_id":"4","last_reported":1735920658,"current_range_meters":28800,"station_id":"ce4bhp12rcd13ifvqh9g","pricing_plan_id":"cebpf4jnsgd1na2vs0mg"},{"bike_id":"14744292-c42d-474b-9608-00328c02214d","system_id":"levelo_inurba_marseille","lat":43.25718,"lon":5.41121,"is_reserved":false,"is_disabled":false,"rental_uris":{"android":"levelo://app?vid=14744292-c42d-474b-9608-00328c02214d","ios":"levelo://app?vid=14744292-c42d-474b-9608-00328c02214d"},"vehicle_type_id":"4","last_reported":1735920658,"current_range_meters":24000,"station_id":"ce4bhkp2rcd13ifvqgd0","pricing_plan_id":"cebpf4jnsgd1na2vs0mg"},{"bike_id":"2ff0edbb-1120-44a4-b8a8-0b9a430d70c1","system_id":"levelo_inurba_marseille","lat":43.30435,"lon":5.38893,"is_reserved":false,"is_disabled":true,"rental_uris":{"android":"levelo://app?vid=2ff0edbb-1120-44a4-b8a8-0b9a430d70c1","ios":"levelo://app?vid=2ff0edbb-1120-44a4-b8a8-0b9a430d70c1"},"vehicle_type_id":"4","last_reported":1735920658,"current_range_meters":38800,"station_id":"ce4bgk12rcd13ifvqbi0","pricing_plan_id":"cebpf4jnsgd1na2vs0mg"},{"bike_id":"983a939f-0c90-4b41-8e07-1ba37a328643","system_id":"levelo_inurba_marseille","lat":43.24174,"lon":5.36406,"is_reserved":false,"is_disabled":false,"rental_uris":{"android":"levelo://app?vid=983a939f-0c90-4b41-8e07-1ba37a328643","ios":"levelo://app?vid=983a939f-0c90-4b41-8e07-1ba37a328643"},"vehicle_type_id":"4","last_reported":1735920658,"current_range_meters":28000,"station_id":"cpo36qri1sfpv3e86is0","pricing_plan_id":"cebpf4jnsgd1na2vs0mg"},{"bike_id":"0d36baca-b4e4-4eb6-85e9-d02c7038df15","system_id":"levelo_inurba_marseille","lat":43.30558,"lon":5.36538,"is_reserved":false,"is_disabled":true,"rental_uris":{"android":"levelo://app?vid=0d36baca-b4e4-4eb6-85e9-d02c7038df15","ios":"levelo://app?vid=0d36baca-b4e4-4eb6-85e9-d02c7038df15"},"vehicle_type_id":"4","last_reported":1735920658,"current_range_meters":30400,"station_id":"ce4bgs12rcd13ifvqcag","pricing_plan_id":"cebpf4jnsgd1na2vs0mg"},{"bike_id":"abc1d919-2210-4059-891f-1ba55ead0cad","system_id":"levelo_inurba_marseille","lat":43.29308,"lon":5.37172,"is_reserved":false,"is_disabled":false,"rental_uris":{"android":"levelo://app?vid=abc1d919-2210-4059-891f-1ba55ead0cad","ios":"levelo://app?vid=abc1d919-2210-4059-891f-1ba55ead0cad"},"vehicle_type_id":"4","last_reported":1735920658,"current_range_meters":12800,"station_id":"ce4bgh92rcd13ifvqb40","pricing_plan_id":"cebpf4jnsgd1na2vs0mg"},{"bike_id":"4cbf4d20-cac6-455c-85de-8f0b001e42e9","system_id":"levelo_inurba_marseille","lat":43.29905,"lon":5.43646,"is_reserved":false,"is_disabled":false,"rental_uris":{"android":"levelo://app?vid=4cbf4d20-cac6-455c-85de-8f0b001e42e9","ios":"levelo://app?vid=4cbf4d20-cac6-455c-85de-8f0b001e42e9"},"vehicle_type_id":"4","last_reported":1735920658,"current_range_meters":37600,"station_id":"ce4bhpp2rcd13ifvqhfg","pricing_plan_id":"cebpf4jnsgd1na2vs0mg"},{"bike_id":"92fa8aee-3374-4037-80bb-e8dda9bcb65b","system_id":"levelo_inurba_marseille","lat":43.28707,"lon":5.39993,"is_reserved":false,"is_disabled":true,"rental_uris":{"android":"levelo://app?vid=92fa8aee-3374-4037-80bb-e8dda9bcb65b","ios":"levelo://app?vid=92fa8aee-3374-4037-80bb-e8dda9bcb65b"},"vehicle_type_id":"4","last_reported":1735920658,"current_range_meters":38000,"station_id":"ce4bho92rcd13ifvqh3g","pricing_plan_id":"cebpf4jnsgd1na2vs0mg"},{"bike_id":"dfc8a5ce-5ff4-4c79-bd9d-48e6c81f2d38","system_id":"levelo_inurba_marseille","lat":43.28614,"lon":5.37055,"is_reserved":false,"is_disabled":false,"rental_uris":{"android":"levelo://app?vid=dfc8a5ce-5ff4-4c79-bd9d-48e6c81f2d38","ios":"levelo://app?vid=dfc8a5ce-5ff4-4c79-bd9d-48e6c81f2d38"},"vehicle_type_id":"4","last_reported":1735920658,"current_range_meters":28000,"station_id":"ce4bht12rcd13ifvqi60","pricing_plan_id":"cebpf4jnsgd1na2vs0mg"},{"bike_id":"d7d33ecc-2247-455a-99a7-f61a674fe721","system_id":"levelo_inurba_marseille","lat":43.29284,"lon":5.36854,"is_reserved":false,"is_disabled":false,"rental_uris":{"android":"levelo://app?vid=d7d33ecc-2247-455a-99a7-f61a674fe721","ios":"levelo://app?vid=d7d33ecc-2247-455a-99a7-f61a674fe721"},"vehicle_type_id":"4","last_reported":1735920658,"current_range_meters":35600,"station_id":"ce4bhbp2rcd13ifvqesg","pricing_plan_id":"cebpf4jnsgd1na2vs0mg"},{"bike_id":"349a4ab8-6f13-4948-be71-abaadb9466ee","system_id":"levelo_inurba_marseille","lat":43.24096,"lon":5.37754,"is_reserved":false,"is_disabled":false,"rental_uris":{"android":"levelo://app?vid=349a4ab8-6f13-4948-be71-abaadb9466ee","ios":"levelo://app?vid=349a4ab8-6f13-4948-be71-abaadb9466ee"},"vehicle_type_id":"4","last_reported":1735920658,"current_range_meters":38400,"station_id":"ce4bhnp2rcd13ifvqgvg","pricing_plan_id":"cebpf4jnsgd1na2vs0mg"},{"bike_id":"4a152c63-61bb-4a5a-b77e-d8e1d8642405","system_id":"levelo_inurba_marseille","lat":43.29549,"lon":5.42279,"is_reserved":false,"is_disabled":false,"rental_uris":{"android":"levelo://app?vid=4a152c63-61bb-4a5a-b77e-d8e1d8642405","ios":"levelo://app?vid=4a152c63-61bb-4a5a-b77e-d8e1d8642405"},"vehicle_type_id":"4","last_reported":1735920658,"current_range_meters":38800,"station_id":"ce4bhph2rcd13ifvqhdg","pricing_plan_id":"cebpf4jnsgd1na2vs0mg"},{"bike_id":"22a35798-3c94-469c-8a98-9410f9f472a7","system_id":"levelo_inurba_marseille","lat":43.30239,"lon":5.40038,"is_reserved":false,"is_disabled":false,"rental_uris":{"android":"levelo://app?vid=22a35798-3c94-469c-8a98-9410f9f472a7","ios":"levelo://app?vid=22a35798-3c94-469c-8a98-9410f9f472a7"},"vehicle_type_id":"4","last_reported":1735920658,"current_range_meters":21600,"station_id":"ce4bgvh2rcd13ifvqcs0","pricing_plan_id":"cebpf4jnsgd1na2vs0mg"},{"bike_id":"97829712-45ed-44f4-98b1-03aec2ad37f0","system_id":"levelo_inurba_marseille","lat":43.26679,"lon":5.38263,"is_reserved":false,"is_disabled":false,"rental_uris":{"android":"levelo://app?vid=97829712-45ed-44f4-98b1-03aec2ad37f0","ios":"levelo://app?vid=97829712-45ed-44f4-98b1-03aec2ad37f0"},"vehicle_type_id":"4","last_reported":1735920658,"current_range_meters":38800,"station_id":"ce4bhg92rcd13ifvqf90","pricing_plan_id":"cebpf4jnsgd1na2vs0mg"},{"bike_id":"e9c9ac99-6db0-4a19-9854-52585a709e6e","system_id":"levelo_inurba_marseille","lat":43.29591,"lon":5.36749,"is_reserved":false,"is_disabled":false,"rental_uris":{"android":"levelo://app?vid=e9c9ac99-6db0-4a19-9854-52585a709e6e","ios":"levelo://app?vid=e9c9ac99-6db0-4a19-9854-52585a709e6e"},"vehicle_type_id":"4","last_reported":1735920658,"current_range_meters":37600,"station_id":"ce4bgph2rcd13ifvqc2g","pricing_plan_id":"cebpf4jnsgd1na2vs0mg"},{"bike_id":"d9e795d5-0002-4730-96f6-a834b8b71292","system_id":"levelo_inurba_marseille","lat":43.23156,"lon":5.43713,"is_reserved":false,"is_disabled":false,"rental_uris":{"android":"levelo://app?vid=d9e795d5-0002-4730-96f6-a834b8b71292","ios":"levelo://app?vid=d9e795d5-0002-4730-96f6-a834b8b71292"},"vehicle_type_id":"4","last_reported":1735920658,"current_range_meters":38400,"station_id":"ce4bhmp2rcd13ifvqgog","pricing_plan_id":"cebpf4jnsgd1na2vs0mg"},{"bike_id":"f3998a04-3b93-4948-8eb7-aa16047370fd","system_id":"levelo_inurba_marseille","lat":43.27954,"lon":5.41055,"is_reserved":false,"is_disabled":false,"rental_uris":{"android":"levelo://app?vid=f3998a04-3b93-4948-8eb7-aa16047370fd","ios":"levelo://app?vid=f3998a04-3b93-4948-8eb7-aa16047370fd"},"vehicle_type_id":"4","last_reported":1735920658,"current_range_meters":17600,"station_id":"ce4bhnp2rcd13ifvqh0g","pricing_plan_id":"cebpf4jnsgd1na2vs0mg"},{"bike_id":"82515d36-b8db-4603-b583-45d10cc7960b","system_id":"levelo_inurba_marseille","lat":43.30553,"lon":5.3671,"is_reserved":false,"is_disabled":false,"rental_uris":{"android":"levelo://app?vid=82515d36-b8db-4603-b583-45d10cc7960b","ios":"levelo://app?vid=82515d36-b8db-4603-b583-45d10cc7960b"},"vehicle_type_id":"4","last_reported":1735920658,"current_range_meters":37600,"station_id":"ce4bgrp2rcd13ifvqc9g","pricing_plan_id":"cebpf4jnsgd1na2vs0mg"},{"bike_id":"b20d3507-fda4-48ec-aa24-ebe9f5a25157","system_id":"levelo_inurba_marseille","lat":43.2963,"lon":5.37174,"is_reserved":false,"is_disabled":false,"rental_uris":{"android":"levelo://app?vid=b20d3507-fda4-48ec-aa24-ebe9f5a25157","ios":"levelo://app?vid=b20d3507-fda4-48ec-aa24-ebe9f5a25157"},"vehicle_type_id":"4","last_reported":1735920658,"current_range_meters":38000,"station_id":"ce4bgnh2rcd13ifvqc0g","pricing_plan_id":"cebpf4jnsgd1na2vs0mg"},{"bike_id":"9a633b20-48e1-4d57-88ca-cc77983ef0f1","system_id":"levelo_inurba_marseille","lat":43.28273,"lon":5.42777,"is_reserved":false,"is_disabled":false,"rental_uris":{"android":"levelo://app?vid=9a633b20-48e1-4d57-88ca-cc77983ef0f1","ios":"levelo://app?vid=9a633b20-48e1-4d57-88ca-cc77983ef0f1"},"vehicle_type_id":"4","last_reported":1735920658,"current_range_meters":10800,"station_id":"","pricing_plan_id":"cebpf4jnsgd1na2vs0mg"},{"bike_id":"63bd9e51-f3f7-419c-aee7-3da94177a3d4","system_id":"levelo_inurba_marseille","lat":43.3059,"lon":5.37212,"is_reserved":false,"is_disabled":false,"rental_uris":{"android":"levelo://app?vid=63bd9e51-f3f7-419c-aee7-3da94177a3d4","ios":"levelo://app?vid=63bd9e51-f3f7-419c-aee7-3da94177a3d4"},"vehicle_type_id":"4","last_reported":1735920658,"current_range_meters":38800,"station_id":"ce4bgqh2rcd13ifvqc4g","pricing_plan_id":"cebpf4jnsgd1na2vs0mg"},{"bike_id":"1c324d20-b72d-4f5d-b244-6d48bf30a17b","system_id":"levelo_inurba_marseille","lat":43.26555,"lon":5.37283,"is_reserved":false,"is_disabled":false,"rental_uris":{"android":"levelo://app?vid=1c324d20-b72d-4f5d-b244-6d48bf30a17b","ios":"levelo://app?vid=1c324d20-b72d-4f5d-b244-6d48bf30a17b"},"vehicle_type_id":"4","last_reported":1735920658,"current_range_meters":27600,"station_id":"ce4bhg12rcd13ifvqf70","pricing_plan_id":"cebpf4jnsgd1na2vs0mg"},{"bike_id":"eaecfcca-aa89-4e9a-8d17-c5be1539665b","system_id":"levelo_inurba_marseille","lat":43.28288,"lon":5.35064,"is_reserved":false,"is_disabled":true,"rental_uris":{"android":"levelo://app?vid=eaecfcca-aa89-4e9a-8d17-c5be1539665b","ios":"levelo://app?vid=eaecfcca-aa89-4e9a-8d17-c5be1539665b"},"vehicle_type_id":"4","last_reported":1735920658,"current_range_meters":9600,"station_id":"ce4bhbp2rcd13ifvqerg","pricing_plan_id":"cebpf4jnsgd1na2vs0mg"},{"bike_id":"896797d5-e48c-435a-a4ff-c7d0b4682116","system_id":"levelo_inurba_marseille","lat":43.278128,"lon":5.407148,"is_reserved":false,"is_disabled":false,"rental_uris":{"android":"levelo://app?vid=896797d5-e48c-435a-a4ff-c7d0b4682116","ios":"levelo://app?vid=896797d5-e48c-435a-a4ff-c7d0b4682116"},"vehicle_type_id":"4","last_reported":1735920658,"current_range_meters":30400,"station_id":"ce4bhnh2rcd13ifvqgtg","pricing_plan_id":"cebpf4jnsgd1na2vs0mg"},{"bike_id":"13ef7d4c-1aac-463f-b78f-283376e4de16","system_id":"levelo_inurba_marseille","lat":43.23037,"lon":5.35696,"is_reserved":false,"is_disabled":false,"rental_uris":{"android":"levelo://app?vid=13ef7d4c-1aac-463f-b78f-283376e4de16","ios":"levelo://app?vid=13ef7d4c-1aac-463f-b78f-283376e4de16"},"vehicle_type_id":"4","last_reported":1735920658,"current_range_meters":38800,"station_id":"","pricing_plan_id":"cebpf4jnsgd1na2vs0mg"},{"bike_id":"66f9cead-a3ac-40af-a5c0-d7f2a514cd12","system_id":"levelo_inurba_marseille","lat":43.29534,"lon":5.38554,"is_reserved":false,"is_disabled":false,"rental_uris":{"android":"levelo://app?vid=66f9cead-a3ac-40af-a5c0-d7f2a514cd12","ios":"levelo://app?vid=66f9cead-a3ac-40af-a5c0-d7f2a514cd12"},"vehicle_type_id":"4","last_reported":1735920658,"current_range_meters":25200,"station_id":"ce4bgih2rcd13ifvqba0","pricing_plan_id":"cebpf4jnsgd1na2vs0mg"},{"bike_id":"f2c7eca6-5e2b-42bf-804d-1d4dbad03b88","system_id":"levelo_inurba_marseille","lat":43.26498,"lon":5.39539,"is_reserved":false,"is_disabled":false,"rental_uris":{"android":"levelo://app?vid=f2c7eca6-5e2b-42bf-804d-1d4dbad03b88","ios":"levelo://app?vid=f2c7eca6-5e2b-42bf-804d-1d4dbad03b88"},"vehicle_type_id":"4","last_reported":1735920658,"current_range_meters":25600,"station_id":"ce4bhi12rcd13ifvqfq0","pricing_plan_id":"cebpf4jnsgd1na2vs0mg"},{"bike_id":"a51a9451-ac06-4ec5-bee4-673ada462ecd","system_id":"levelo_inurba_marseille","lat":43.24541,"lon":5.39521,"is_reserved":false,"is_disabled":false,"rental_uris":{"android":"levelo://app?vid=a51a9451-ac06-4ec5-bee4-673ada462ecd","ios":"levelo://app?vid=a51a9451-ac06-4ec5-bee4-673ada462ecd"},"vehicle_type_id":"4","last_reported":1735920658,"current_range_meters":32400,"station_id":"ce4bhlp2rcd13ifvqgjg","pricing_plan_id":"cebpf4jnsgd1na2vs0mg"},{"bike_id":"f19568a0-9b3b-48e4-b129-b2a352114ae0","system_id":"levelo_inurba_marseille","lat":43.23194,"lon":5.35549,"is_reserved":false,"is_disabled":false,"rental_uris":{"android":"levelo://app?vid=f19568a0-9b3b-48e4-b129-b2a352114ae0","ios":"levelo://app?vid=f19568a0-9b3b-48e4-b129-b2a352114ae0"},"vehicle_type_id":"4","last_reported":1735920658,"current_range_meters":17200,"station_id":"ce4bhu92rcd13ifvqi70","pricing_plan_id":"cebpf4jnsgd1na2vs0mg"},{"bike_id":"f3c12ef4-82bd-48ff-8ba6-8f2c9a44f8b9","system_id":"levelo_inurba_marseille","lat":43.24813,"lon":5.37453,"is_reserved":false,"is_disabled":false,"rental_uris":{"android":"levelo://app?vid=f3c12ef4-82bd-48ff-8ba6-8f2c9a44f8b9","ios":"levelo://app?vid=f3c12ef4-82bd-48ff-8ba6-8f2c9a44f8b9"},"vehicle_type_id":"4","last_reported":1735920658,"current_range_meters":38800,"station_id":"ce4bhgh2rcd13ifvqfb0","pricing_plan_id":"cebpf4jnsgd1na2vs0mg"},{"bike_id":"82d28a2c-d330-4072-995b-c1d22545afbc","system_id":"levelo_inurba_marseille","lat":43.27836,"lon":5.3921,"is_reserved":false,"is_disabled":false,"rental_uris":{"android":"levelo://app?vid=82d28a2c-d330-4072-995b-c1d22545afbc","ios":"levelo://app?vid=82d28a2c-d330-4072-995b-c1d22545afbc"},"vehicle_type_id":"4","last_reported":1735920658,"current_range_meters":38800,"station_id":"ce4bhjp2rcd13ifvqga0","pricing_plan_id":"cebpf4jnsgd1na2vs0mg"},{"bike_id":"1f2b1e35-354d-42d4-b07a-96e7c65eb81b","system_id":"levelo_inurba_marseille","lat":43.25505,"lon":5.37657,"is_reserved":false,"is_disabled":false,"rental_uris":{"android":"levelo://app?vid=1f2b1e35-354d-42d4-b07a-96e7c65eb81b","ios":"levelo://app?vid=1f2b1e35-354d-42d4-b07a-96e7c65eb81b"},"vehicle_type_id":"4","last_reported":1735920658,"current_range_meters":30000,"station_id":"ce4bhh12rcd13ifvqff0","pricing_plan_id":"cebpf4jnsgd1na2vs0mg"},{"bike_id":"660aed1d-cdeb-4a3c-a6d4-d19ef9a2563b","system_id":"levelo_inurba_marseille","lat":43.29899,"lon":5.43678,"is_reserved":false,"is_disabled":false,"rental_uris":{"android":"levelo://app?vid=660aed1d-cdeb-4a3c-a6d4-d19ef9a2563b","ios":"levelo://app?vid=660aed1d-cdeb-4a3c-a6d4-d19ef9a2563b"},"vehicle_type_id":"4","last_reported":1735920658,"current_range_meters":36000,"station_id":"ce4bhpp2rcd13ifvqhfg","pricing_plan_id":"cebpf4jnsgd1na2vs0mg"},{"bike_id":"725999bb-8b32-4e5b-95fc-d63880a1b626","system_id":"levelo_inurba_marseille","lat":43.32657,"lon":5.40997,"is_reserved":false,"is_disabled":false,"rental_uris":{"android":"levelo://app?vid=725999bb-8b32-4e5b-95fc-d63880a1b626","ios":"levelo://app?vid=725999bb-8b32-4e5b-95fc-d63880a1b626"},"vehicle_type_id":"4","last_reported":1735920658,"current_range_meters":38800,"station_id":"ce4bhpp2rcd13ifvqhgg","pricing_plan_id":"cebpf4jnsgd1na2vs0mg"},{"bike_id":"7715a076-80bf-4e3f-a383-4026ed24798f","system_id":"levelo_inurba_marseille","lat":43.29631,"lon":5.37159,"is_reserved":false,"is_disabled":false,"rental_uris":{"android":"levelo://app?vid=7715a076-80bf-4e3f-a383-4026ed24798f","ios":"levelo://app?vid=7715a076-80bf-4e3f-a383-4026ed24798f"},"vehicle_type_id":"4","last_reported":1735920658,"current_range_meters":39200,"station_id":"ce4bgnh2rcd13ifvqc0g","pricing_plan_id":"cebpf4jnsgd1na2vs0mg"},{"bike_id":"eae11c21-0e68-4841-b456-38f5bd6f851c","system_id":"levelo_inurba_marseille","lat":43.26788,"lon":5.3941,"is_reserved":false,"is_disabled":false,"rental_uris":{"android":"levelo://app?vid=eae11c21-0e68-4841-b456-38f5bd6f851c","ios":"levelo://app?vid=eae11c21-0e68-4841-b456-38f5bd6f851c"},"vehicle_type_id":"4","last_reported":1735920658,"current_range_meters":23200,"station_id":"ce4bhh12rcd13ifvqfg0","pricing_plan_id":"cebpf4jnsgd1na2vs0mg"},{"bike_id":"0d1c1522-efa4-472c-98c3-e51951ad734d","system_id":"levelo_inurba_marseille","lat":43.25721,"lon":5.41106,"is_reserved":false,"is_disabled":false,"rental_uris":{"android":"levelo://app?vid=0d1c1522-efa4-472c-98c3-e51951ad734d","ios":"levelo://app?vid=0d1c1522-efa4-472c-98c3-e51951ad734d"},"vehicle_type_id":"4","last_reported":1735920658,"current_range_meters":25600,"station_id":"ce4bhkp2rcd13ifvqgd0","pricing_plan_id":"cebpf4jnsgd1na2vs0mg"},{"bike_id":"3603cabe-4957-48a6-b971-b737ca16a43d","system_id":"levelo_inurba_marseille","lat":43.32658,"lon":5.4099,"is_reserved":false,"is_disabled":false,"rental_uris":{"android":"levelo://app?vid=3603cabe-4957-48a6-b971-b737ca16a43d","ios":"levelo://app?vid=3603cabe-4957-48a6-b971-b737ca16a43d"},"vehicle_type_id":"4","last_reported":1735920658,"current_range_meters":22800,"station_id":"ce4bhpp2rcd13ifvqhgg","pricing_plan_id":"cebpf4jnsgd1na2vs0mg"},{"bike_id":"3f35ad24-0616-4407-959f-f24f6d330ccf","system_id":"levelo_inurba_marseille","lat":43.30316,"lon":5.40432,"is_reserved":false,"is_disabled":false,"rental_uris":{"android":"levelo://app?vid=3f35ad24-0616-4407-959f-f24f6d330ccf","ios":"levelo://app?vid=3f35ad24-0616-4407-959f-f24f6d330ccf"},"vehicle_type_id":"4","last_reported":1735920658,"current_range_meters":28800,"station_id":"ce4bh012rcd13ifvqd10","pricing_plan_id":"cebpf4jnsgd1na2vs0mg"},{"bike_id":"e95d7bdc-a25b-425b-99ef-fd8de5ec73db","system_id":"levelo_inurba_marseille","lat":43.30201,"lon":5.36609,"is_reserved":false,"is_disabled":false,"rental_uris":{"android":"levelo://app?vid=e95d7bdc-a25b-425b-99ef-fd8de5ec73db","ios":"levelo://app?vid=e95d7bdc-a25b-425b-99ef-fd8de5ec73db"},"vehicle_type_id":"4","last_reported":1735920658,"current_range_meters":14000,"station_id":"ce4bgrh2rcd13ifvqc8g","pricing_plan_id":"cebpf4jnsgd1na2vs0mg"},{"bike_id":"7a2f16ee-f208-479a-864c-944054ecbc82","system_id":"levelo_inurba_marseille","lat":43.266857,"lon":5.382712,"is_reserved":false,"is_disabled":false,"rental_uris":{"android":"levelo://app?vid=7a2f16ee-f208-479a-864c-944054ecbc82","ios":"levelo://app?vid=7a2f16ee-f208-479a-864c-944054ecbc82"},"vehicle_type_id":"4","last_reported":1735920658,"current_range_meters":38000,"station_id":"ce4bhg92rcd13ifvqf90","pricing_plan_id":"cebpf4jnsgd1na2vs0mg"},{"bike_id":"41ac5f59-1b87-4850-8797-d0e6220d0717","system_id":"levelo_inurba_marseille","lat":43.30135,"lon":5.38776,"is_reserved":false,"is_disabled":false,"rental_uris":{"android":"levelo://app?vid=41ac5f59-1b87-4850-8797-d0e6220d0717","ios":"levelo://app?vid=41ac5f59-1b87-4850-8797-d0e6220d0717"},"vehicle_type_id":"4","last_reported":1735920658,"current_range_meters":9600,"station_id":"ce4bhoh2rcd13ifvqh6g","pricing_plan_id":"cebpf4jnsgd1na2vs0mg"},{"bike_id":"2bd213f6-7c3b-4206-a8d7-1b059cfadb7f","system_id":"levelo_inurba_marseille","lat":43.33704,"lon":5.39187,"is_reserved":false,"is_disabled":false,"rental_uris":{"android":"levelo://app?vid=2bd213f6-7c3b-4206-a8d7-1b059cfadb7f","ios":"levelo://app?vid=2bd213f6-7c3b-4206-a8d7-1b059cfadb7f"},"vehicle_type_id":"4","last_reported":1735920658,"current_range_meters":39200,"station_id":"ce4bhr92rcd13ifvqhsg","pricing_plan_id":"cebpf4jnsgd1na2vs0mg"},{"bike_id":"4e2e926a-cc62-4529-8b24-3abbcf0f0be2","system_id":"levelo_inurba_marseille","lat":43.231938,"lon":5.355566,"is_reserved":false,"is_disabled":false,"rental_uris":{"android":"levelo://app?vid=4e2e926a-cc62-4529-8b24-3abbcf0f0be2","ios":"levelo://app?vid=4e2e926a-cc62-4529-8b24-3abbcf0f0be2"},"vehicle_type_id":"4","last_reported":1735920658,"current_range_meters":32400,"station_id":"ce4bhu92rcd13ifvqi70","pricing_plan_id":"cebpf4jnsgd1na2vs0mg"},{"bike_id":"ffefd7d2-973c-48b9-8d48-3e5c473c536e","system_id":"levelo_inurba_marseille","lat":43.29601,"lon":5.38097,"is_reserved":false,"is_disabled":false,"rental_uris":{"android":"levelo://app?vid=ffefd7d2-973c-48b9-8d48-3e5c473c536e","ios":"levelo://app?vid=ffefd7d2-973c-48b9-8d48-3e5c473c536e"},"vehicle_type_id":"4","last_reported":1735920658,"current_range_meters":30400,"station_id":"ce4bgl12rcd13ifvqbo0","pricing_plan_id":"cebpf4jnsgd1na2vs0mg"},{"bike_id":"b21f1bd8-e2a3-4c8f-a4ea-84131172fe9e","system_id":"levelo_inurba_marseille","lat":43.26058,"lon":5.39394,"is_reserved":false,"is_disabled":false,"rental_uris":{"android":"levelo://app?vid=b21f1bd8-e2a3-4c8f-a4ea-84131172fe9e","ios":"levelo://app?vid=b21f1bd8-e2a3-4c8f-a4ea-84131172fe9e"},"vehicle_type_id":"4","last_reported":1735920658,"current_range_meters":9200,"station_id":"ce4bhh92rcd13ifvqfj0","pricing_plan_id":"cebpf4jnsgd1na2vs0mg"},{"bike_id":"fad686cb-7028-4213-92df-743528ea5468","system_id":"levelo_inurba_marseille","lat":43.24183,"lon":5.39754,"is_reserved":false,"is_disabled":true,"rental_uris":{"android":"levelo://app?vid=fad686cb-7028-4213-92df-743528ea5468","ios":"levelo://app?vid=fad686cb-7028-4213-92df-743528ea5468"},"vehicle_type_id":"4","last_reported":1735920658,"current_range_meters":1600,"station_id":"ce4bhn12rcd13ifvqgpg","pricing_plan_id":"cebpf4jnsgd1na2vs0mg"},{"bike_id":"4099e364-d3d5-4e70-b9a6-6d1dbcbab17c","system_id":"levelo_inurba_marseille","lat":43.2807,"lon":5.3964,"is_reserved":false,"is_disabled":true,"rental_uris":{"android":"levelo://app?vid=4099e364-d3d5-4e70-b9a6-6d1dbcbab17c","ios":"levelo://app?vid=4099e364-d3d5-4e70-b9a6-6d1dbcbab17c"},"vehicle_type_id":"4","last_reported":1735920658,"current_range_meters":0,"station_id":"ce4bho12rcd13ifvqh2g","pricing_plan_id":"cebpf4jnsgd1na2vs0mg"},{"bike_id":"91bd215c-cf5d-49bb-b4b3-f2af815209eb","system_id":"levelo_inurba_marseille","lat":43.27637,"lon":5.36113,"is_reserved":false,"is_disabled":false,"rental_uris":{"android":"levelo://app?vid=91bd215c-cf5d-49bb-b4b3-f2af815209eb","ios":"levelo://app?vid=91bd215c-cf5d-49bb-b4b3-f2af815209eb"},"vehicle_type_id":"4","last_reported":1735920658,"current_range_meters":39200,"station_id":"ce4bgj92rcd13ifvqbe0","pricing_plan_id":"cebpf4jnsgd1na2vs0mg"},{"bike_id":"22b51c22-239c-4cc0-9eaf-a8b470392735","system_id":"levelo_inurba_marseille","lat":43.29011,"lon":5.38145,"is_reserved":false,"is_disabled":false,"rental_uris":{"android":"levelo://app?vid=22b51c22-239c-4cc0-9eaf-a8b470392735","ios":"levelo://app?vid=22b51c22-239c-4cc0-9eaf-a8b470392735"},"vehicle_type_id":"4","last_reported":1735920658,"current_range_meters":32400,"station_id":"ce4bh4p2rcd13ifvqe1g","pricing_plan_id":"cebpf4jnsgd1na2vs0mg"},{"bike_id":"791dec88-10e9-48b5-9fc6-b0acca6d5c2e","system_id":"levelo_inurba_marseille","lat":43.29311,"lon":5.37431,"is_reserved":false,"is_disabled":true,"rental_uris":{"android":"levelo://app?vid=791dec88-10e9-48b5-9fc6-b0acca6d5c2e","ios":"levelo://app?vid=791dec88-10e9-48b5-9fc6-b0acca6d5c2e"},"vehicle_type_id":"4","last_reported":1735920658,"current_range_meters":2000,"station_id":"ce4bgi12rcd13ifvqb70","pricing_plan_id":"cebpf4jnsgd1na2vs0mg"},{"bike_id":"d5898056-e293-48eb-9be1-32be6e0a4bb4","system_id":"levelo_inurba_marseille","lat":43.30131,"lon":5.38781,"is_reserved":false,"is_disabled":false,"rental_uris":{"android":"levelo://app?vid=d5898056-e293-48eb-9be1-32be6e0a4bb4","ios":"levelo://app?vid=d5898056-e293-48eb-9be1-32be6e0a4bb4"},"vehicle_type_id":"4","last_reported":1735920658,"current_range_meters":11200,"station_id":"ce4bghh2rcd13ifvqb60","pricing_plan_id":"cebpf4jnsgd1na2vs0mg"},{"bike_id":"6ca81ff8-25f4-4aaa-8b72-2ac07fd9902c","system_id":"levelo_inurba_marseille","lat":43.29804,"lon":5.38093,"is_reserved":false,"is_disabled":false,"rental_uris":{"android":"levelo://app?vid=6ca81ff8-25f4-4aaa-8b72-2ac07fd9902c","ios":"levelo://app?vid=6ca81ff8-25f4-4aaa-8b72-2ac07fd9902c"},"vehicle_type_id":"4","last_reported":1735920658,"current_range_meters":39200,"station_id":"ce4bgip2rcd13ifvqbb0","pricing_plan_id":"cebpf4jnsgd1na2vs0mg"},{"bike_id":"34617586-430d-4b7a-9eab-a1013b7c582e","system_id":"levelo_inurba_marseille","lat":43.28956,"lon":5.37826,"is_reserved":false,"is_disabled":true,"rental_uris":{"android":"levelo://app?vid=34617586-430d-4b7a-9eab-a1013b7c582e","ios":"levelo://app?vid=34617586-430d-4b7a-9eab-a1013b7c582e"},"vehicle_type_id":"4","last_reported":1735920658,"current_range_meters":31200,"station_id":"ce4bh9p2rcd13ifvqed0","pricing_plan_id":"cebpf4jnsgd1na2vs0mg"},{"bike_id":"48d2688d-946c-4cd9-95b1-87f4dc14a3ad","system_id":"levelo_inurba_marseille","lat":43.2793,"lon":5.41193,"is_reserved":false,"is_disabled":false,"rental_uris":{"android":"levelo://app?vid=48d2688d-946c-4cd9-95b1-87f4dc14a3ad","ios":"levelo://app?vid=48d2688d-946c-4cd9-95b1-87f4dc14a3ad"},"vehicle_type_id":"4","last_reported":1735920658,"current_range_meters":17600,"station_id":"","pricing_plan_id":"cebpf4jnsgd1na2vs0mg"},{"bike_id":"e86e8a6b-2981-4147-9bb2-a5ab92db9450","system_id":"levelo_inurba_marseille","lat":43.28146,"lon":5.42651,"is_reserved":false,"is_disabled":false,"rental_uris":{"android":"levelo://app?vid=e86e8a6b-2981-4147-9bb2-a5ab92db9450","ios":"levelo://app?vid=e86e8a6b-2981-4147-9bb2-a5ab92db9450"},"vehicle_type_id":"4","last_reported":1735920658,"current_range_meters":36800,"station_id":"ce4bhnh2rcd13ifvqgug","pricing_plan_id":"cebpf4jnsgd1na2vs0mg"},{"bike_id":"3c0eb1ae-dae7-45e4-bc0e-7e08b0daab8a","system_id":"levelo_inurba_marseille","lat":43.29003,"lon":5.35611,"is_reserved":false,"is_disabled":false,"rental_uris":{"android":"levelo://app?vid=3c0eb1ae-dae7-45e4-bc0e-7e08b0daab8a","ios":"levelo://app?vid=3c0eb1ae-dae7-45e4-bc0e-7e08b0daab8a"},"vehicle_type_id":"4","last_reported":1735920658,"current_range_meters":28800,"station_id":"ce4bhb92rcd13ifvqen0","pricing_plan_id":"cebpf4jnsgd1na2vs0mg"},{"bike_id":"5367a292-5564-4681-91cd-97babb89fc00","system_id":"levelo_inurba_marseille","lat":43.22935,"lon":5.35377,"is_reserved":false,"is_disabled":false,"rental_uris":{"android":"levelo://app?vid=5367a292-5564-4681-91cd-97babb89fc00","ios":"levelo://app?vid=5367a292-5564-4681-91cd-97babb89fc00"},"vehicle_type_id":"4","last_reported":1735920658,"current_range_meters":10800,"station_id":"cpo3532slgdg3j2ikp40","pricing_plan_id":"cebpf4jnsgd1na2vs0mg"},{"bike_id":"e40b8873-a7cf-4e56-b106-d515344f64c4","system_id":"levelo_inurba_marseille","lat":43.23202,"lon":5.35557,"is_reserved":false,"is_disabled":false,"rental_uris":{"android":"levelo://app?vid=e40b8873-a7cf-4e56-b106-d515344f64c4","ios":"levelo://app?vid=e40b8873-a7cf-4e56-b106-d515344f64c4"},"vehicle_type_id":"4","last_reported":1735920658,"current_range_meters":39200,"station_id":"ce4bhu92rcd13ifvqi70","pricing_plan_id":"cebpf4jnsgd1na2vs0mg"},{"bike_id":"1901c1be-b8fc-4e11-8883-885643a2a269","system_id":"levelo_inurba_marseille","lat":43.24551,"lon":5.39524,"is_reserved":false,"is_disabled":false,"rental_uris":{"android":"levelo://app?vid=1901c1be-b8fc-4e11-8883-885643a2a269","ios":"levelo://app?vid=1901c1be-b8fc-4e11-8883-885643a2a269"},"vehicle_type_id":"4","last_reported":1735920658,"current_range_meters":38800,"station_id":"ce4bhlp2rcd13ifvqgjg","pricing_plan_id":"cebpf4jnsgd1na2vs0mg"},{"bike_id":"9027064e-6565-4c6d-8145-3a52c0a6a72f","system_id":"levelo_inurba_marseille","lat":43.29853,"lon":5.36285,"is_reserved":false,"is_disabled":false,"rental_uris":{"android":"levelo://app?vid=9027064e-6565-4c6d-8145-3a52c0a6a72f","ios":"levelo://app?vid=9027064e-6565-4c6d-8145-3a52c0a6a72f"},"vehicle_type_id":"4","last_reported":1735920658,"current_range_meters":38800,"station_id":"ce4bgpp2rcd13ifvqc3g","pricing_plan_id":"cebpf4jnsgd1na2vs0mg"},{"bike_id":"5250f7d4-1da6-441d-b627-ab92cb7e088d","system_id":"levelo_inurba_marseille","lat":43.24823,"lon":5.37444,"is_reserved":false,"is_disabled":false,"rental_uris":{"android":"levelo://app?vid=5250f7d4-1da6-441d-b627-ab92cb7e088d","ios":"levelo://app?vid=5250f7d4-1da6-441d-b627-ab92cb7e088d"},"vehicle_type_id":"4","last_reported":1735920658,"current_range_meters":28400,"station_id":"ce4bhgh2rcd13ifvqfb0","pricing_plan_id":"cebpf4jnsgd1na2vs0mg"},{"bike_id":"c76f010e-8b23-4840-a7a5-a9a5d3648fa3","system_id":"levelo_inurba_marseille","lat":43.30881,"lon":5.37197,"is_reserved":false,"is_disabled":true,"rental_uris":{"android":"levelo://app?vid=c76f010e-8b23-4840-a7a5-a9a5d3648fa3","ios":"levelo://app?vid=c76f010e-8b23-4840-a7a5-a9a5d3648fa3"},"vehicle_type_id":"4","last_reported":1735920658,"current_range_meters":16000,"station_id":"ce4bguh2rcd13ifvqckg","pricing_plan_id":"cebpf4jnsgd1na2vs0mg"},{"bike_id":"6f21fba1-6f8e-47c4-a476-286cca5f9cc6","system_id":"levelo_inurba_marseille","lat":43.282776,"lon":5.350422,"is_reserved":false,"is_disabled":true,"rental_uris":{"android":"levelo://app?vid=6f21fba1-6f8e-47c4-a476-286cca5f9cc6","ios":"levelo://app?vid=6f21fba1-6f8e-47c4-a476-286cca5f9cc6"},"vehicle_type_id":"4","last_reported":1735920658,"current_range_meters":6800,"station_id":"ce4bhbp2rcd13ifvqerg","pricing_plan_id":"cebpf4jnsgd1na2vs0mg"},{"bike_id":"bb73c6f0-4b96-4a14-91d9-69d7fe919537","system_id":"levelo_inurba_marseille","lat":43.30887,"lon":5.37193,"is_reserved":false,"is_disabled":false,"rental_uris":{"android":"levelo://app?vid=bb73c6f0-4b96-4a14-91d9-69d7fe919537","ios":"levelo://app?vid=bb73c6f0-4b96-4a14-91d9-69d7fe919537"},"vehicle_type_id":"4","last_reported":1735920658,"current_range_meters":35600,"station_id":"ce4bguh2rcd13ifvqckg","pricing_plan_id":"cebpf4jnsgd1na2vs0mg"},{"bike_id":"23aac6b1-0bc7-41ef-bf59-d83f76e36f58","system_id":"levelo_inurba_marseille","lat":43.27208,"lon":5.39181,"is_reserved":false,"is_disabled":false,"rental_uris":{"android":"levelo://app?vid=23aac6b1-0bc7-41ef-bf59-d83f76e36f58","ios":"levelo://app?vid=23aac6b1-0bc7-41ef-bf59-d83f76e36f58"},"vehicle_type_id":"4","last_reported":1735920658,"current_range_meters":38000,"station_id":"ce4bhhp2rcd13ifvqfm0","pricing_plan_id":"cebpf4jnsgd1na2vs0mg"},{"bike_id":"171b9e00-16eb-4289-ad45-2a51ccd89e7a","system_id":"levelo_inurba_marseille","lat":43.29591,"lon":5.3809,"is_reserved":false,"is_disabled":false,"rental_uris":{"android":"levelo://app?vid=171b9e00-16eb-4289-ad45-2a51ccd89e7a","ios":"levelo://app?vid=171b9e00-16eb-4289-ad45-2a51ccd89e7a"},"vehicle_type_id":"4","last_reported":1735920658,"current_range_meters":38400,"station_id":"ce4bgl12rcd13ifvqbo0","pricing_plan_id":"cebpf4jnsgd1na2vs0mg"},{"bike_id":"50874147-ad7d-4c47-a309-cf04eb37d3c2","system_id":"levelo_inurba_marseille","lat":43.30799,"lon":5.37646,"is_reserved":false,"is_disabled":false,"rental_uris":{"android":"levelo://app?vid=50874147-ad7d-4c47-a309-cf04eb37d3c2","ios":"levelo://app?vid=50874147-ad7d-4c47-a309-cf04eb37d3c2"},"vehicle_type_id":"4","last_reported":1735920658,"current_range_meters":27600,"station_id":"ce4bgv92rcd13ifvqcq0","pricing_plan_id":"cebpf4jnsgd1na2vs0mg"},{"bike_id":"77f8e2be-3aba-4ae8-913a-87f21012b2d1","system_id":"levelo_inurba_marseille","lat":43.2502,"lon":5.38933,"is_reserved":false,"is_disabled":false,"rental_uris":{"android":"levelo://app?vid=77f8e2be-3aba-4ae8-913a-87f21012b2d1","ios":"levelo://app?vid=77f8e2be-3aba-4ae8-913a-87f21012b2d1"},"vehicle_type_id":"4","last_reported":1735920658,"current_range_meters":38400,"station_id":"ce4bhgp2rcd13ifvqfd0","pricing_plan_id":"cebpf4jnsgd1na2vs0mg"},{"bike_id":"1c02ae40-e43c-4632-b75b-2df9308dc3fe","system_id":"levelo_inurba_marseille","lat":43.33758,"lon":5.37445,"is_reserved":false,"is_disabled":false,"rental_uris":{"android":"levelo://app?vid=1c02ae40-e43c-4632-b75b-2df9308dc3fe","ios":"levelo://app?vid=1c02ae40-e43c-4632-b75b-2df9308dc3fe"},"vehicle_type_id":"4","last_reported":1735920658,"current_range_meters":34000,"station_id":"","pricing_plan_id":"cebpf4jnsgd1na2vs0mg"},{"bike_id":"380d9a3e-df22-4d70-b6c7-a9e2a1230a08","system_id":"levelo_inurba_marseille","lat":43.28153,"lon":5.42644,"is_reserved":false,"is_disabled":false,"rental_uris":{"android":"levelo://app?vid=380d9a3e-df22-4d70-b6c7-a9e2a1230a08","ios":"levelo://app?vid=380d9a3e-df22-4d70-b6c7-a9e2a1230a08"},"vehicle_type_id":"4","last_reported":1735920658,"current_range_meters":31200,"station_id":"ce4bhnh2rcd13ifvqgug","pricing_plan_id":"cebpf4jnsgd1na2vs0mg"},{"bike_id":"e6f0f3be-d7b1-4265-96ae-8f4aa53891e2","system_id":"levelo_inurba_marseille","lat":43.29302,"lon":5.37165,"is_reserved":false,"is_disabled":false,"rental_uris":{"android":"levelo://app?vid=e6f0f3be-d7b1-4265-96ae-8f4aa53891e2","ios":"levelo://app?vid=e6f0f3be-d7b1-4265-96ae-8f4aa53891e2"},"vehicle_type_id":"4","last_reported":1735920658,"current_range_meters":28400,"station_id":"ce4bgh92rcd13ifvqb40","pricing_plan_id":"cebpf4jnsgd1na2vs0mg"},{"bike_id":"8fec5115-1948-40f1-b552-0b366553a240","system_id":"levelo_inurba_marseille","lat":43.29254,"lon":5.40904,"is_reserved":false,"is_disabled":false,"rental_uris":{"android":"levelo://app?vid=8fec5115-1948-40f1-b552-0b366553a240","ios":"levelo://app?vid=8fec5115-1948-40f1-b552-0b366553a240"},"vehicle_type_id":"4","last_reported":1735920658,"current_range_meters":23200,"station_id":"ce4bh192rcd13ifvqdc0","pricing_plan_id":"cebpf4jnsgd1na2vs0mg"},{"bike_id":"e8b01fe0-afbd-44b6-a625-ef947d94610c","system_id":"levelo_inurba_marseille","lat":43.31729,"lon":5.42409,"is_reserved":false,"is_disabled":false,"rental_uris":{"android":"levelo://app?vid=e8b01fe0-afbd-44b6-a625-ef947d94610c","ios":"levelo://app?vid=e8b01fe0-afbd-44b6-a625-ef947d94610c"},"vehicle_type_id":"4","last_reported":1735920658,"current_range_meters":36800,"station_id":"ce4bhp92rcd13ifvqhbg","pricing_plan_id":"cebpf4jnsgd1na2vs0mg"},{"bike_id":"9f3869b7-1cc5-4ec7-927a-e16986ff99f5","system_id":"levelo_inurba_marseille","lat":43.23964,"lon":5.36623,"is_reserved":false,"is_disabled":false,"rental_uris":{"android":"levelo://app?vid=9f3869b7-1cc5-4ec7-927a-e16986ff99f5","ios":"levelo://app?vid=9f3869b7-1cc5-4ec7-927a-e16986ff99f5"},"vehicle_type_id":"4","last_reported":1735920658,"current_range_meters":28000,"station_id":"ce4bhi12rcd13ifvqfp0","pricing_plan_id":"cebpf4jnsgd1na2vs0mg"},{"bike_id":"d5355d3d-6620-4d8e-801e-d620f116c682","system_id":"levelo_inurba_marseille","lat":43.23058,"lon":5.35489,"is_reserved":false,"is_disabled":false,"rental_uris":{"android":"levelo://app?vid=d5355d3d-6620-4d8e-801e-d620f116c682","ios":"levelo://app?vid=d5355d3d-6620-4d8e-801e-d620f116c682"},"vehicle_type_id":"4","last_reported":1735920658,"current_range_meters":23200,"station_id":"cpo3342slgdg3j2ifvpg","pricing_plan_id":"cebpf4jnsgd1na2vs0mg"},{"bike_id":"93f178ed-c8d4-46ed-a60d-2cce22f04e85","system_id":"levelo_inurba_marseille","lat":43.3027,"lon":5.37697,"is_reserved":false,"is_disabled":false,"rental_uris":{"android":"levelo://app?vid=93f178ed-c8d4-46ed-a60d-2cce22f04e85","ios":"levelo://app?vid=93f178ed-c8d4-46ed-a60d-2cce22f04e85"},"vehicle_type_id":"4","last_reported":1735920658,"current_range_meters":20000,"station_id":"ce4bguh2rcd13ifvqcj0","pricing_plan_id":"cebpf4jnsgd1na2vs0mg"},{"bike_id":"5144f6af-d240-4684-bc4d-3bdf51e1ee28","system_id":"levelo_inurba_marseille","lat":43.2842,"lon":5.34986,"is_reserved":false,"is_disabled":false,"rental_uris":{"android":"levelo://app?vid=5144f6af-d240-4684-bc4d-3bdf51e1ee28","ios":"levelo://app?vid=5144f6af-d240-4684-bc4d-3bdf51e1ee28"},"vehicle_type_id":"4","last_reported":1735920658,"current_range_meters":12000,"station_id":"ce4bhbh2rcd13ifvqepg","pricing_plan_id":"cebpf4jnsgd1na2vs0mg"},{"bike_id":"81727770-80dc-467b-99e2-b6512f1d49df","system_id":"levelo_inurba_marseille","lat":43.30544,"lon":5.38431,"is_reserved":false,"is_disabled":false,"rental_uris":{"android":"levelo://app?vid=81727770-80dc-467b-99e2-b6512f1d49df","ios":"levelo://app?vid=81727770-80dc-467b-99e2-b6512f1d49df"},"vehicle_type_id":"4","last_reported":1735920658,"current_range_meters":38800,"station_id":"ce4bgg92rcd13ifvqb30","pricing_plan_id":"cebpf4jnsgd1na2vs0mg"},{"bike_id":"9106d3ff-fc86-4d68-9c8d-6412f9d842de","system_id":"levelo_inurba_marseille","lat":43.2549,"lon":5.37651,"is_reserved":false,"is_disabled":false,"rental_uris":{"android":"levelo://app?vid=9106d3ff-fc86-4d68-9c8d-6412f9d842de","ios":"levelo://app?vid=9106d3ff-fc86-4d68-9c8d-6412f9d842de"},"vehicle_type_id":"4","last_reported":1735920658,"current_range_meters":3600,"station_id":"ce4bhh12rcd13ifvqff0","pricing_plan_id":"cebpf4jnsgd1na2vs0mg"},{"bike_id":"8bda7e22-bb56-477a-98aa-7b963032ed44","system_id":"levelo_inurba_marseille","lat":43.22932,"lon":5.3538,"is_reserved":false,"is_disabled":false,"rental_uris":{"android":"levelo://app?vid=8bda7e22-bb56-477a-98aa-7b963032ed44","ios":"levelo://app?vid=8bda7e22-bb56-477a-98aa-7b963032ed44"},"vehicle_type_id":"4","last_reported":1735920658,"current_range_meters":38800,"station_id":"cpo3532slgdg3j2ikp40","pricing_plan_id":"cebpf4jnsgd1na2vs0mg"},{"bike_id":"5b51bf38-09a9-44de-9081-4c2af406011d","system_id":"levelo_inurba_marseille","lat":43.22934,"lon":5.35364,"is_reserved":false,"is_disabled":false,"rental_uris":{"android":"levelo://app?vid=5b51bf38-09a9-44de-9081-4c2af406011d","ios":"levelo://app?vid=5b51bf38-09a9-44de-9081-4c2af406011d"},"vehicle_type_id":"4","last_reported":1735920658,"current_range_meters":38800,"station_id":"cpo3532slgdg3j2ikp40","pricing_plan_id":"cebpf4jnsgd1na2vs0mg"},{"bike_id":"43d59ef0-93a1-4358-ae5d-561ebe621ad8","system_id":"levelo_inurba_marseille","lat":43.29625,"lon":5.40582,"is_reserved":false,"is_disabled":false,"rental_uris":{"android":"levelo://app?vid=43d59ef0-93a1-4358-ae5d-561ebe621ad8","ios":"levelo://app?vid=43d59ef0-93a1-4358-ae5d-561ebe621ad8"},"vehicle_type_id":"4","last_reported":1735920658,"current_range_meters":4400,"station_id":"ce4bh0h2rcd13ifvqd60","pricing_plan_id":"cebpf4jnsgd1na2vs0mg"},{"bike_id":"2d7f6de3-5c48-4923-b858-64a53ee80e91","system_id":"levelo_inurba_marseille","lat":43.30428,"lon":5.39753,"is_reserved":false,"is_disabled":false,"rental_uris":{"android":"levelo://app?vid=2d7f6de3-5c48-4923-b858-64a53ee80e91","ios":"levelo://app?vid=2d7f6de3-5c48-4923-b858-64a53ee80e91"},"vehicle_type_id":"4","last_reported":1735920658,"current_range_meters":29600,"station_id":"ce4bh092rcd13ifvqd20","pricing_plan_id":"cebpf4jnsgd1na2vs0mg"},{"bike_id":"48dab017-3f42-472f-871a-513ce2bb3aac","system_id":"levelo_inurba_marseille","lat":43.231526,"lon":5.437082,"is_reserved":false,"is_disabled":false,"rental_uris":{"android":"levelo://app?vid=48dab017-3f42-472f-871a-513ce2bb3aac","ios":"levelo://app?vid=48dab017-3f42-472f-871a-513ce2bb3aac"},"vehicle_type_id":"4","last_reported":1735920658,"current_range_meters":39200,"station_id":"ce4bhmp2rcd13ifvqgog","pricing_plan_id":"cebpf4jnsgd1na2vs0mg"},{"bike_id":"3bb8ded2-41fa-4a12-9b0b-23eab45e9e71","system_id":"levelo_inurba_marseille","lat":43.28423,"lon":5.34991,"is_reserved":false,"is_disabled":false,"rental_uris":{"android":"levelo://app?vid=3bb8ded2-41fa-4a12-9b0b-23eab45e9e71","ios":"levelo://app?vid=3bb8ded2-41fa-4a12-9b0b-23eab45e9e71"},"vehicle_type_id":"4","last_reported":1735920658,"current_range_meters":6000,"station_id":"ce4bhbh2rcd13ifvqepg","pricing_plan_id":"cebpf4jnsgd1na2vs0mg"},{"bike_id":"2b6793e3-31d0-4de5-ae76-86b29f875188","system_id":"levelo_inurba_marseille","lat":43.30176,"lon":5.37433,"is_reserved":false,"is_disabled":false,"rental_uris":{"android":"levelo://app?vid=2b6793e3-31d0-4de5-ae76-86b29f875188","ios":"levelo://app?vid=2b6793e3-31d0-4de5-ae76-86b29f875188"},"vehicle_type_id":"4","last_reported":1735920658,"current_range_meters":38800,"station_id":"ce4bgs92rcd13ifvqcc0","pricing_plan_id":"cebpf4jnsgd1na2vs0mg"},{"bike_id":"631eda89-9033-45a3-95a9-ad99bbf26810","system_id":"levelo_inurba_marseille","lat":43.31182,"lon":5.38711,"is_reserved":false,"is_disabled":false,"rental_uris":{"android":"levelo://app?vid=631eda89-9033-45a3-95a9-ad99bbf26810","ios":"levelo://app?vid=631eda89-9033-45a3-95a9-ad99bbf26810"},"vehicle_type_id":"4","last_reported":1735920658,"current_range_meters":36000,"station_id":"ce4bgv12rcd13ifvqcp0","pricing_plan_id":"cebpf4jnsgd1na2vs0mg"},{"bike_id":"d014f699-d84d-436b-b3bf-8c059d18ea89","system_id":"levelo_inurba_marseille","lat":43.22923,"lon":5.35385,"is_reserved":false,"is_disabled":false,"rental_uris":{"android":"levelo://app?vid=d014f699-d84d-436b-b3bf-8c059d18ea89","ios":"levelo://app?vid=d014f699-d84d-436b-b3bf-8c059d18ea89"},"vehicle_type_id":"4","last_reported":1735920658,"current_range_meters":26000,"station_id":"cpo3532slgdg3j2ikp40","pricing_plan_id":"cebpf4jnsgd1na2vs0mg"},{"bike_id":"dfe6ae25-a603-46cb-adec-1ccb9078e4bc","system_id":"levelo_inurba_marseille","lat":43.30549,"lon":5.38428,"is_reserved":false,"is_disabled":false,"rental_uris":{"android":"levelo://app?vid=dfe6ae25-a603-46cb-adec-1ccb9078e4bc","ios":"levelo://app?vid=dfe6ae25-a603-46cb-adec-1ccb9078e4bc"},"vehicle_type_id":"4","last_reported":1735920658,"current_range_meters":38800,"station_id":"ce4bgg92rcd13ifvqb30","pricing_plan_id":"cebpf4jnsgd1na2vs0mg"},{"bike_id":"fd286d47-106b-429f-9301-2ac57b0c25ac","system_id":"levelo_inurba_marseille","lat":43.26932,"lon":5.40273,"is_reserved":false,"is_disabled":false,"rental_uris":{"android":"levelo://app?vid=fd286d47-106b-429f-9301-2ac57b0c25ac","ios":"levelo://app?vid=fd286d47-106b-429f-9301-2ac57b0c25ac"},"vehicle_type_id":"4","last_reported":1735920658,"current_range_meters":7200,"station_id":"cjm6bp8fraef2m0cb0m0","pricing_plan_id":"cebpf4jnsgd1na2vs0mg"},{"bike_id":"c14d1989-a72f-4241-a582-39661d0bcfcf","system_id":"levelo_inurba_marseille","lat":43.23199,"lon":5.35551,"is_reserved":false,"is_disabled":false,"rental_uris":{"android":"levelo://app?vid=c14d1989-a72f-4241-a582-39661d0bcfcf","ios":"levelo://app?vid=c14d1989-a72f-4241-a582-39661d0bcfcf"},"vehicle_type_id":"4","last_reported":1735920658,"current_range_meters":39200,"station_id":"ce4bhu92rcd13ifvqi70","pricing_plan_id":"cebpf4jnsgd1na2vs0mg"},{"bike_id":"ef72cdb4-465d-4178-b952-49906f159c48","system_id":"levelo_inurba_marseille","lat":43.28156,"lon":5.42656,"is_reserved":false,"is_disabled":false,"rental_uris":{"android":"levelo://app?vid=ef72cdb4-465d-4178-b952-49906f159c48","ios":"levelo://app?vid=ef72cdb4-465d-4178-b952-49906f159c48"},"vehicle_type_id":"4","last_reported":1735920658,"current_range_meters":22000,"station_id":"ce4bhnh2rcd13ifvqgug","pricing_plan_id":"cebpf4jnsgd1na2vs0mg"},{"bike_id":"b3e08163-a271-4491-94ef-7d9af2767087","system_id":"levelo_inurba_marseille","lat":43.27209,"lon":5.3918,"is_reserved":false,"is_disabled":false,"rental_uris":{"android":"levelo://app?vid=b3e08163-a271-4491-94ef-7d9af2767087","ios":"levelo://app?vid=b3e08163-a271-4491-94ef-7d9af2767087"},"vehicle_type_id":"4","last_reported":1735920658,"current_range_meters":39200,"station_id":"ce4bhhp2rcd13ifvqfm0","pricing_plan_id":"cebpf4jnsgd1na2vs0mg"},{"bike_id":"dc1c2f02-824f-4e39-bbc0-cf1a72696261","system_id":"levelo_inurba_marseille","lat":43.30928,"lon":5.3686,"is_reserved":false,"is_disabled":false,"rental_uris":{"android":"levelo://app?vid=dc1c2f02-824f-4e39-bbc0-cf1a72696261","ios":"levelo://app?vid=dc1c2f02-824f-4e39-bbc0-cf1a72696261"},"vehicle_type_id":"4","last_reported":1735920658,"current_range_meters":38800,"station_id":"ce4bgn92rcd13ifvqbvg","pricing_plan_id":"cebpf4jnsgd1na2vs0mg"},{"bike_id":"7bbed7be-28f4-4cc7-81bb-977c0d79552f","system_id":"levelo_inurba_marseille","lat":43.23066,"lon":5.35501,"is_reserved":false,"is_disabled":false,"rental_uris":{"android":"levelo://app?vid=7bbed7be-28f4-4cc7-81bb-977c0d79552f","ios":"levelo://app?vid=7bbed7be-28f4-4cc7-81bb-977c0d79552f"},"vehicle_type_id":"4","last_reported":1735920658,"current_range_meters":23200,"station_id":"cpo3342slgdg3j2ifvpg","pricing_plan_id":"cebpf4jnsgd1na2vs0mg"},{"bike_id":"44377e14-c431-47f9-879d-d27236127509","system_id":"levelo_inurba_marseille","lat":43.25821,"lon":5.39433,"is_reserved":false,"is_disabled":false,"rental_uris":{"android":"levelo://app?vid=44377e14-c431-47f9-879d-d27236127509","ios":"levelo://app?vid=44377e14-c431-47f9-879d-d27236127509"},"vehicle_type_id":"4","last_reported":1735920658,"current_range_meters":38800,"station_id":"ce4bhip2rcd13ifvqft0","pricing_plan_id":"cebpf4jnsgd1na2vs0mg"},{"bike_id":"df45acfb-a030-47a7-8d85-50cfe0d6bd7c","system_id":"levelo_inurba_marseille","lat":43.3054,"lon":5.36556,"is_reserved":false,"is_disabled":false,"rental_uris":{"android":"levelo://app?vid=df45acfb-a030-47a7-8d85-50cfe0d6bd7c","ios":"levelo://app?vid=df45acfb-a030-47a7-8d85-50cfe0d6bd7c"},"vehicle_type_id":"4","last_reported":1735920658,"current_range_meters":28800,"station_id":"ce4bgs12rcd13ifvqcag","pricing_plan_id":"cebpf4jnsgd1na2vs0mg"},{"bike_id":"5d64fa7b-6729-4e4c-8396-79fc7626a3f6","system_id":"levelo_inurba_marseille","lat":43.29264,"lon":5.36842,"is_reserved":false,"is_disabled":false,"rental_uris":{"android":"levelo://app?vid=5d64fa7b-6729-4e4c-8396-79fc7626a3f6","ios":"levelo://app?vid=5d64fa7b-6729-4e4c-8396-79fc7626a3f6"},"vehicle_type_id":"4","last_reported":1735920658,"current_range_meters":38800,"station_id":"ce4bhbp2rcd13ifvqesg","pricing_plan_id":"cebpf4jnsgd1na2vs0mg"},{"bike_id":"2bb35dbb-6b8f-4c69-9e3e-b28d7c30ca54","system_id":"levelo_inurba_marseille","lat":43.24385,"lon":5.37054,"is_reserved":false,"is_disabled":false,"rental_uris":{"android":"levelo://app?vid=2bb35dbb-6b8f-4c69-9e3e-b28d7c30ca54","ios":"levelo://app?vid=2bb35dbb-6b8f-4c69-9e3e-b28d7c30ca54"},"vehicle_type_id":"4","last_reported":1735920658,"current_range_meters":28800,"station_id":"ce4bhhh2rcd13ifvqfk0","pricing_plan_id":"cebpf4jnsgd1na2vs0mg"},{"bike_id":"5c0e6aff-a052-4a02-848f-c8e083c5996f","system_id":"levelo_inurba_marseille","lat":43.25513,"lon":5.37641,"is_reserved":false,"is_disabled":false,"rental_uris":{"android":"levelo://app?vid=5c0e6aff-a052-4a02-848f-c8e083c5996f","ios":"levelo://app?vid=5c0e6aff-a052-4a02-848f-c8e083c5996f"},"vehicle_type_id":"4","last_reported":1735920658,"current_range_meters":19600,"station_id":"ce4bhh12rcd13ifvqff0","pricing_plan_id":"cebpf4jnsgd1na2vs0mg"},{"bike_id":"78b7a00c-0ad2-40f4-9953-a74f3c8198bb","system_id":"levelo_inurba_marseille","lat":43.30172,"lon":5.37417,"is_reserved":false,"is_disabled":false,"rental_uris":{"android":"levelo://app?vid=78b7a00c-0ad2-40f4-9953-a74f3c8198bb","ios":"levelo://app?vid=78b7a00c-0ad2-40f4-9953-a74f3c8198bb"},"vehicle_type_id":"4","last_reported":1735920658,"current_range_meters":36800,"station_id":"ce4bgs92rcd13ifvqcc0","pricing_plan_id":"cebpf4jnsgd1na2vs0mg"},{"bike_id":"a5426657-974c-4cc8-a6af-937cec720bc6","system_id":"levelo_inurba_marseille","lat":43.30194,"lon":5.36606,"is_reserved":false,"is_disabled":true,"rental_uris":{"android":"levelo://app?vid=a5426657-974c-4cc8-a6af-937cec720bc6","ios":"levelo://app?vid=a5426657-974c-4cc8-a6af-937cec720bc6"},"vehicle_type_id":"4","last_reported":1735920658,"current_range_meters":800,"station_id":"ce4bgrh2rcd13ifvqc8g","pricing_plan_id":"cebpf4jnsgd1na2vs0mg"},{"bike_id":"f1d87bf5-3985-43c2-9fde-b818f1e41c2b","system_id":"levelo_inurba_marseille","lat":43.26039,"lon":5.37549,"is_reserved":false,"is_disabled":false,"rental_uris":{"android":"levelo://app?vid=f1d87bf5-3985-43c2-9fde-b818f1e41c2b","ios":"levelo://app?vid=f1d87bf5-3985-43c2-9fde-b818f1e41c2b"},"vehicle_type_id":"4","last_reported":1735920658,"current_range_meters":39200,"station_id":"ce4bhgh2rcd13ifvqfa0","pricing_plan_id":"cebpf4jnsgd1na2vs0mg"},{"bike_id":"35bae5db-60ab-41d9-9201-c54d16be67ee","system_id":"levelo_inurba_marseille","lat":43.2293,"lon":5.35345,"is_reserved":false,"is_disabled":false,"rental_uris":{"android":"levelo://app?vid=35bae5db-60ab-41d9-9201-c54d16be67ee","ios":"levelo://app?vid=35bae5db-60ab-41d9-9201-c54d16be67ee"},"vehicle_type_id":"4","last_reported":1735920658,"current_range_meters":38800,"station_id":"cpo3532slgdg3j2ikp40","pricing_plan_id":"cebpf4jnsgd1na2vs0mg"},{"bike_id":"e7bb10c5-9260-440d-8fc3-4952251aaf8e","system_id":"levelo_inurba_marseille","lat":43.30604,"lon":5.37204,"is_reserved":false,"is_disabled":false,"rental_uris":{"android":"levelo://app?vid=e7bb10c5-9260-440d-8fc3-4952251aaf8e","ios":"levelo://app?vid=e7bb10c5-9260-440d-8fc3-4952251aaf8e"},"vehicle_type_id":"4","last_reported":1735920658,"current_range_meters":36400,"station_id":"ce4bgqh2rcd13ifvqc4g","pricing_plan_id":"cebpf4jnsgd1na2vs0mg"},{"bike_id":"9ddbd3b9-04b5-41eb-b494-5e865faf1cdf","system_id":"levelo_inurba_marseille","lat":43.27321,"lon":5.39072,"is_reserved":false,"is_disabled":true,"rental_uris":{"android":"levelo://app?vid=9ddbd3b9-04b5-41eb-b494-5e865faf1cdf","ios":"levelo://app?vid=9ddbd3b9-04b5-41eb-b494-5e865faf1cdf"},"vehicle_type_id":"4","last_reported":1735920658,"current_range_meters":0,"station_id":"ce4bhgp2rcd13ifvqfe0","pricing_plan_id":"cebpf4jnsgd1na2vs0mg"},{"bike_id":"a9b22bbb-73a2-40bd-b07d-dec778df2f53","system_id":"levelo_inurba_marseille","lat":43.27179,"lon":5.40994,"is_reserved":false,"is_disabled":false,"rental_uris":{"android":"levelo://app?vid=a9b22bbb-73a2-40bd-b07d-dec778df2f53","ios":"levelo://app?vid=a9b22bbb-73a2-40bd-b07d-dec778df2f53"},"vehicle_type_id":"4","last_reported":1735920658,"current_range_meters":28400,"station_id":"ce4bhl12rcd13ifvqgf0","pricing_plan_id":"cebpf4jnsgd1na2vs0mg"},{"bike_id":"8b2db0bd-9bb4-4fb9-b6a6-acad1a236560","system_id":"levelo_inurba_marseille","lat":43.29027,"lon":5.37567,"is_reserved":false,"is_disabled":false,"rental_uris":{"android":"levelo://app?vid=8b2db0bd-9bb4-4fb9-b6a6-acad1a236560","ios":"levelo://app?vid=8b2db0bd-9bb4-4fb9-b6a6-acad1a236560"},"vehicle_type_id":"4","last_reported":1735920658,"current_range_meters":37600,"station_id":"ce4bh692rcd13ifvqe90","pricing_plan_id":"cebpf4jnsgd1na2vs0mg"},{"bike_id":"5f5f7ba9-6657-41ba-a4d9-91df21ba5354","system_id":"levelo_inurba_marseille","lat":43.28352,"lon":5.40107,"is_reserved":false,"is_disabled":false,"rental_uris":{"android":"levelo://app?vid=5f5f7ba9-6657-41ba-a4d9-91df21ba5354","ios":"levelo://app?vid=5f5f7ba9-6657-41ba-a4d9-91df21ba5354"},"vehicle_type_id":"4","last_reported":1735920658,"current_range_meters":32800,"station_id":"","pricing_plan_id":"cebpf4jnsgd1na2vs0mg"},{"bike_id":"a3568aab-1d34-4bdf-8c0c-ec81886f6177","system_id":"levelo_inurba_marseille","lat":43.33752,"lon":5.37413,"is_reserved":false,"is_disabled":true,"rental_uris":{"android":"levelo://app?vid=a3568aab-1d34-4bdf-8c0c-ec81886f6177","ios":"levelo://app?vid=a3568aab-1d34-4bdf-8c0c-ec81886f6177"},"vehicle_type_id":"4","last_reported":1735920658,"current_range_meters":18800,"station_id":"","pricing_plan_id":"cebpf4jnsgd1na2vs0mg"},{"bike_id":"1ec84c6e-4425-49a2-a24f-9de8c9dd9129","system_id":"levelo_inurba_marseille","lat":43.29863,"lon":5.36311,"is_reserved":false,"is_disabled":false,"rental_uris":{"android":"levelo://app?vid=1ec84c6e-4425-49a2-a24f-9de8c9dd9129","ios":"levelo://app?vid=1ec84c6e-4425-49a2-a24f-9de8c9dd9129"},"vehicle_type_id":"4","last_reported":1735920658,"current_range_meters":36800,"station_id":"ce4bgpp2rcd13ifvqc3g","pricing_plan_id":"cebpf4jnsgd1na2vs0mg"},{"bike_id":"32e5156a-5826-4ab4-83b1-e6619161b1c8","system_id":"levelo_inurba_marseille","lat":43.337444,"lon":5.374475,"is_reserved":false,"is_disabled":false,"rental_uris":{"android":"levelo://app?vid=32e5156a-5826-4ab4-83b1-e6619161b1c8","ios":"levelo://app?vid=32e5156a-5826-4ab4-83b1-e6619161b1c8"},"vehicle_type_id":"4","last_reported":1735920658,"current_range_meters":28400,"station_id":"","pricing_plan_id":"cebpf4jnsgd1na2vs0mg"},