{"last_updated":1745849481,"ttl":60,"version":"2.2","data":{"bikes":[{"bike_id":"3b9d143a-b69c-428e-a8ce-9bbbe1570ea8","system_id":"levelo_inurba_marseille","lat":43.28722,"lon":5.3793,"is_reserved":false,"is_disabled":false,"rental_uris":{"android":"levelo://app?vid=3b9d143a-b69c-428e-a8ce-9bbbe1570ea8","ios":"levelo://app?vid=3b9d143a-b69c-428e-a8ce-9bbbe1570ea8"},"vehicle_type_id":"4","last_reported":1745849481,"current_range_meters":2800,"station_id":"ce4bh9p2rcd13ifvqec0","pricing_plan_id":"cebpf4jnsgd1na2vs0mg"},{"bike_id":"f7a94721-f51e-474f-878d-ba44d72027dc","system_id":"levelo_inurba_marseille","lat":43.22931,"lon":5.35376,"is_reserved":false,"is_disabled":false,"rental_uris":{"android":"levelo://app?vid=f7a94721-f51e-474f-878d-ba44d72027dc","ios":"levelo://app?vid=f7a94721-f51e-474f-878d-ba44d72027dc"},"vehicle_type_id":"4","last_reported":1745849481,"current_range_meters":3200,"station_id":"cpo3532slgdg3j2ikp40","pricing_plan_id":"cebpf4jnsgd1na2vs0mg"},{"bike_id":"d9fb459b-60d2-475f-8919-b65d0648f526","system_id":"levelo_inurba_marseille","lat":43.231756,"lon":5.399936,"is_reserved":false,"is_disabled":false,"rental_uris":{"android":"levelo://app?vid=d9fb459b-60d2-475f-8919-b65d0648f526","ios":"levelo://app?vid=d9fb459b-60d2-475f-8919-b65d0648f526"},"vehicle_type_id":"4","last_reported":1745849481,"current_range_meters":3200,"station_id":"ce4bhn12rcd13ifvqgqg","pricing_plan_id":"cebpf4jnsgd1na2vs0mg"},{"bike_id":"07f8cc29-b86f-4696-ac39-20f0f7e0a392","system_id":"levelo_inurba_marseille","lat":43.23388,"lon":5.36064,"is_reserved":false,"is_disabled":false,"rental_uris":{"android":"levelo://app?vid=07f8cc29-b86f-4696-ac39-20f0f7e0a392","ios":"levelo://app?vid=07f8cc29-b86f-4696-ac39-20f0f7e0a392"},"vehicle_type_id":"4","last_reported":1745849481,"current_range_meters":3200,"station_id":"","pricing_plan_id":"cebpf4jnsgd1na2vs0mg"},{"bike_id":"8065a1c7-e282-42c9-bd21-ad1099112680","system_id":"levelo_inurba_marseille","lat":43.284848,"lon":5.384199,"is_reserved":false,"is_disabled":false,"rental_uris":{"android":"levelo://app?vid=8065a1c7-e282-42c9-bd21-ad1099112680","ios":"levelo://app?vid=8065a1c7-e282-42c9-bd21-ad1099112680"},"vehicle_type_id":"4","last_reported":1745849481,"current_range_meters":3600,"station_id":"ce4bh692rcd13ifvqea0","pricing_plan_id":"cebpf4jnsgd1na2vs0mg"},{"bike_id":"ed32b3d4-d8f4-40e4-b254-824ac1affbb9","system_id":"levelo_inurba_marseille","lat":43.31085,"lon":5.42427,"is_reserved":false,"is_disabled":false,"rental_uris":{"android":"levelo://app?vid=ed32b3d4-d8f4-40e4-b254-824ac1affbb9","ios":"levelo://app?vid=ed32b3d4-d8f4-40e4-b254-824ac1affbb9"},"vehicle_type_id":"4","last_reported":1745849481,"current_range_meters":9200,"station_id":"ce4bhp92rcd13ifvqhag","pricing_plan_id":"cebpf4jnsgd1na2vs0mg"},{"bike_id":"cb4774af-8e1f-43b9-8239-315bbf1eab3c","system_id":"levelo_inurba_marseille","lat":43.24165,"lon":5.36388,"is_reserved":false,"is_disabled":false,"rental_uris":{"android":"levelo://app?vid=cb4774af-8e1f-43b9-8239-315bbf1eab3c","ios":"levelo://app?vid=cb4774af-8e1f-43b9-8239-315bbf1eab3c"},"vehicle_type_id":"4","last_reported":1745849481,"current_range_meters":3600,"station_id":"cpo36qri1sfpv3e86is0","pricing_plan_id":"cebpf4jnsgd1na2vs0mg"},{"bike_id":"0e2287d8-010f-4ee3-bfb7-05ab0dcfcdc4","system_id":"levelo_inurba_marseille","lat":43.31118,"lon":5.37763,"is_reserved":false,"is_disabled":false,"rental_uris":{"android":"levelo://app?vid=0e2287d8-010f-4ee3-bfb7-05ab0dcfcdc4","ios":"levelo://app?vid=0e2287d8-010f-4ee3-bfb7-05ab0dcfcdc4"},"vehicle_type_id":"4","last_reported":1745849481,"current_range_meters":3600,"station_id":"ce4bgt92rcd13ifvqcg0","pricing_plan_id":"cebpf4jnsgd1na2vs0mg"},{"bike_id":"3801613f-6a0b-4349-a142-3176b4e2e604","system_id":"levelo_inurba_marseille","lat":43.27173,"lon":5.40989,"is_reserved":false,"is_disabled":false,"rental_uris":{"android":"levelo://app?vid=3801613f-6a0b-4349-a142-3176b4e2e604","ios":"levelo://app?vid=3801613f-6a0b-4349-a142-3176b4e2e604"},"vehicle_type_id":"4","last_reported":1745849481,"current_range_meters":3600,"station_id":"ce4bhl12rcd13ifvqgf0","pricing_plan_id":"cebpf4jnsgd1na2vs0mg"},{"bike_id":"85acb73d-bb69-4646-95c5-672ff71ffe82","system_id":"levelo_inurba_marseille","lat":43.28267,"lon":5.35073,"is_reserved":false,"is_disabled":false,"rental_uris":{"android":"levelo://app?vid=85acb73d-bb69-4646-95c5-672ff71ffe82","ios":"levelo://app?vid=85acb73d-bb69-4646-95c5-672ff71ffe82"},"vehicle_type_id":"4","last_reported":1745849481,"current_range_meters":4400,"station_id":"ce4bhbp2rcd13ifvqerg","pricing_plan_id":"cebpf4jnsgd1na2vs0mg"},{"bike_id":"a013a361-5d6d-4d99-b636-806e1c86ba48","system_id":"levelo_inurba_marseille","lat":43.22937,"lon":5.35375,"is_reserved":false,"is_disabled":false,"rental_uris":{"android":"levelo://app?vid=a013a361-5d6d-4d99-b636-806e1c86ba48","ios":"levelo://app?vid=a013a361-5d6d-4d99-b636-806e1c86ba48"},"vehicle_type_id":"4","last_reported":1745849481,"current_range_meters":4400,"station_id":"cpo3532slgdg3j2ikp40","pricing_plan_id":"cebpf4jnsgd1na2vs0mg"},{"bike_id":"03cc8b26-ab7b-4a0d-a550-6096845f1cc7","system_id":"levelo_inurba_marseille","lat":43.27623,"lon":5.36103,"is_reserved":false,"is_disabled":false,"rental_uris":{"android":"levelo://app?vid=03cc8b26-ab7b-4a0d-a550-6096845f1cc7","ios":"levelo://app?vid=03cc8b26-ab7b-4a0d-a550-6096845f1cc7"},"vehicle_type_id":"4","last_reported":1745849481,"current_range_meters":4800,"station_id":"ce4bgj92rcd13ifvqbe0","pricing_plan_id":"cebpf4jnsgd1na2vs0mg"},{"bike_id":"74677f28-3596-4c5b-98de-ba4120a70f9d","system_id":"levelo_inurba_marseille","lat":43.25636,"lon":5.41196,"is_reserved":false,"is_disabled":false,"rental_uris":{"android":"levelo://app?vid=74677f28-3596-4c5b-98de-ba4120a70f9d","ios":"levelo://app?vid=74677f28-3596-4c5b-98de-ba4120a70f9d"},"vehicle_type_id":"4","last_reported":1745849481,"current_range_meters":4400,"station_id":"","pricing_plan_id":"cebpf4jnsgd1na2vs0mg"},{"bike_id":"8933bea6-80f9-4ecb-a544-061c36e9805e","system_id":"levelo_inurba_marseille","lat":43.2417,"lon":5.36391,"is_reserved":false,"is_disabled":false,"rental_uris":{"android":"levelo://app?vid=8933bea6-80f9-4ecb-a544-061c36e9805e","ios":"levelo://app?vid=8933bea6-80f9-4ecb-a544-061c36e9805e"},"vehicle_type_id":"4","last_reported":1745849481,"current_range_meters":4800,"station_id":"cpo36qri1sfpv3e86is0","pricing_plan_id":"cebpf4jnsgd1na2vs0mg"},{"bike_id":"b26c5f4a-23c9-4862-b162-7b36f735a7f0","system_id":"levelo_inurba_marseille","lat":43.29976,"lon":5.37173,"is_reserved":false,"is_disabled":false,"rental_uris":{"android":"levelo://app?vid=b26c5f4a-23c9-4862-b162-7b36f735a7f0","ios":"levelo://app?vid=b26c5f4a-23c9-4862-b162-7b36f735a7f0"},"vehicle_type_id":"4","last_reported":1745849481,"current_range_meters":4800,"station_id":"ce4bgr92rcd13ifvqc7g","pricing_plan_id":"cebpf4jnsgd1na2vs0mg"},{"bike_id":"4e4929c2-f76a-4fd1-9e64-ef4842cef7c9","system_id":"levelo_inurba_marseille","lat":43.27371,"lon":5.36255,"is_reserved":false,"is_disabled":false,"rental_uris":{"android":"levelo://app?vid=4e4929c2-f76a-4fd1-9e64-ef4842cef7c9","ios":"levelo://app?vid=4e4929c2-f76a-4fd1-9e64-ef4842cef7c9"},"vehicle_type_id":"4","last_reported":1745849481,"current_range_meters":4400,"station_id":"ce4bhbh2rcd13ifvqeo0","pricing_plan_id":"cebpf4jnsgd1na2vs0mg"},{"bike_id":"87f123c4-0adc-4ba8-8649-74e2c508ef05","system_id":"levelo_inurba_marseille","lat":43.265542,"lon":5.372833,"is_reserved":false,"is_disabled":false,"rental_uris":{"android":"levelo://app?vid=87f123c4-0adc-4ba8-8649-74e2c508ef05","ios":"levelo://app?vid=87f123c4-0adc-4ba8-8649-74e2c508ef05"},"vehicle_type_id":"4","last_reported":1745849481,"current_range_meters":6000,"station_id":"ce4bhg12rcd13ifvqf70","pricing_plan_id":"cebpf4jnsgd1na2vs0mg"},{"bike_id":"1399f272-7cda-4619-8c71-d8f6a8a2ac70","system_id":"levelo_inurba_marseille","lat":43.24807,"lon":5.37451,"is_reserved":false,"is_disabled":false,"rental_uris":{"android":"levelo://app?vid=1399f272-7cda-4619-8c71-d8f6a8a2ac70","ios":"levelo://app?vid=1399f272-7cda-4619-8c71-d8f6a8a2ac70"},"vehicle_type_id":"4","last_reported":1745849481,"current_range_meters":5600,"station_id":"ce4bhgh2rcd13ifvqfb0","pricing_plan_id":"cebpf4jnsgd1na2vs0mg"},{"bike_id":"3969f0d1-611f-45be-a650-b001acec0c53","system_id":"levelo_inurba_marseille","lat":43.29588,"lon":5.37495,"is_reserved":false,"is_disabled":false,"rental_uris":{"android":"levelo://app?vid=3969f0d1-611f-45be-a650-b001acec0c53","ios":"levelo://app?vid=3969f0d1-611f-45be-a650-b001acec0c53"},"vehicle_type_id":"4","last_reported":1745849481,"current_range_meters":6000,"station_id":"ce4bgh92rcd13ifvqb50","pricing_plan_id":"cebpf4jnsgd1na2vs0mg"},{"bike_id":"4c9a73de-c6b0-4b55-bed7-3a315915449f","system_id":"levelo_inurba_marseille","lat":43.2412,"lon":5.37731,"is_reserved":false,"is_disabled":false,"rental_uris":{"android":"levelo://app?vid=4c9a73de-c6b0-4b55-bed7-3a315915449f","ios":"levelo://app?vid=4c9a73de-c6b0-4b55-bed7-3a315915449f"},"vehicle_type_id":"4","last_reported":1745849481,"current_range_meters":6000,"station_id":"ce4bhnp2rcd13ifvqgvg","pricing_plan_id":"cebpf4jnsgd1na2vs0mg"},{"bike_id":"c35c57e9-257c-486d-adfb-723653a7eb93","system_id":"levelo_inurba_marseille","lat":43.27493,"lon":5.4246,"is_reserved":false,"is_disabled":false,"rental_uris":{"android":"levelo://app?vid=c35c57e9-257c-486d-adfb-723653a7eb93","ios":"levelo://app?vid=c35c57e9-257c-486d-adfb-723653a7eb93"},"vehicle_type_id":"4","last_reported":1745849481,"current_range_meters":6400,"station_id":"ce4bhn92rcd13ifvqgrg","pricing_plan_id":"cebpf4jnsgd1na2vs0mg"},{"bike_id":"fc8203fb-4149-4dfc-9ced-6dd4885935b4","system_id":"levelo_inurba_marseille","lat":43.29556,"lon":5.4229,"is_reserved":false,"is_disabled":false,"rental_uris":{"android":"levelo://app?vid=fc8203fb-4149-4dfc-9ced-6dd4885935b4","ios":"levelo://app?vid=fc8203fb-4149-4dfc-9ced-6dd4885935b4"},"vehicle_type_id":"4","last_reported":1745849481,"current_range_meters":6000,"station_id":"ce4bhph2rcd13ifvqhdg","pricing_plan_id":"cebpf4jnsgd1na2vs0mg"},{"bike_id":"78b9bb88-3a00-4760-8a43-e68743ab22f2","system_id":"levelo_inurba_marseille","lat":43.30306,"lon":5.36762,"is_reserved":false,"is_disabled":false,"rental_uris":{"android":"levelo://app?vid=78b9bb88-3a00-4760-8a43-e68743ab22f2","ios":"levelo://app?vid=78b9bb88-3a00-4760-8a43-e68743ab22f2"},"vehicle_type_id":"4","last_reported":1745849481,"current_range_meters":6400,"station_id":"","pricing_plan_id":"cebpf4jnsgd1na2vs0mg"},{"bike_id":"3776fa57-c2c0-40da-b67a-85aa8fa4ea7d","system_id":"levelo_inurba_marseille","lat":43.2985,"lon":5.36283,"is_reserved":false,"is_disabled":false,"rental_uris":{"android":"levelo://app?vid=3776fa57-c2c0-40da-b67a-85aa8fa4ea7d","ios":"levelo://app?vid=3776fa57-c2c0-40da-b67a-85aa8fa4ea7d"},"vehicle_type_id":"4","last_reported":1745849481,"current_range_meters":6400,"station_id":"ce4bgpp2rcd13ifvqc3g","pricing_plan_id":"cebpf4jnsgd1na2vs0mg"},{"bike_id":"c3e6ec8f-1828-4c45-89e6-2e2c42c5ce2a","system_id":"levelo_inurba_marseille","lat":43.31756,"lon":5.39015,"is_reserved":false,"is_disabled":false,"rental_uris":{"android":"levelo://app?vid=c3e6ec8f-1828-4c45-89e6-2e2c42c5ce2a","ios":"levelo://app?vid=c3e6ec8f-1828-4c45-89e6-2e2c42c5ce2a"},"vehicle_type_id":"4","last_reported":1745849481,"current_range_meters":6400,"station_id":"","pricing_plan_id":"cebpf4jnsgd1na2vs0mg"},{"bike_id":"8d6426dd-5fcf-42bc-ae8a-366dc918d617","system_id":"levelo_inurba_marseille","lat":43.28101,"lon":5.37836,"is_reserved":false,"is_disabled":false,"rental_uris":{"android":"levelo://app?vid=8d6426dd-5fcf-42bc-ae8a-366dc918d617","ios":"levelo://app?vid=8d6426dd-5fcf-42bc-ae8a-366dc918d617"},"vehicle_type_id":"4","last_reported":1745849481,"current_range_meters":6400,"station_id":"ce4bha12rcd13ifvqee0","pricing_plan_id":"cebpf4jnsgd1na2vs0mg"},{"bike_id":"ef5a622e-aa0a-4359-b3fd-ef466748c455","system_id":"levelo_inurba_marseille","lat":43.23189,"lon":5.35546,"is_reserved":false,"is_disabled":false,"rental_uris":{"android":"levelo://app?vid=ef5a622e-aa0a-4359-b3fd-ef466748c455","ios":"levelo://app?vid=ef5a622e-aa0a-4359-b3fd-ef466748c455"},"vehicle_type_id":"4","last_reported":1745849481,"current_range_meters":6400,"station_id":"ce4bhu92rcd13ifvqi70","pricing_plan_id":"cebpf4jnsgd1na2vs0mg"},{"bike_id":"62b30503-53f5-4205-9d0a-20470cf5d209","system_id":"levelo_inurba_marseille","lat":43.31366,"lon":5.3849,"is_reserved":false,"is_disabled":false,"rental_uris":{"android":"levelo://app?vid=62b30503-53f5-4205-9d0a-20470cf5d209","ios":"levelo://app?vid=62b30503-53f5-4205-9d0a-20470cf5d209"},"vehicle_type_id":"4","last_reported":1745849481,"current_range_meters":6800,"station_id":"ce4bgt92rcd13ifvqcf0","pricing_plan_id":"cebpf4jnsgd1na2vs0mg"},{"bike_id":"f604607f-a1e2-4bbd-b747-450760093aca","system_id":"levelo_inurba_marseille","lat":43.29897,"lon":5.43671,"is_reserved":false,"is_disabled":false,"rental_uris":{"android":"levelo://app?vid=f604607f-a1e2-4bbd-b747-450760093aca","ios":"levelo://app?vid=f604607f-a1e2-4bbd-b747-450760093aca"},"vehicle_type_id":"4","last_reported":1745849481,"current_range_meters":6800,"station_id":"ce4bhpp2rcd13ifvqhfg","pricing_plan_id":"cebpf4jnsgd1na2vs0mg"},{"bike_id":"6269a9ca-f4f3-4106-8cff-2b7df03796c2","system_id":"levelo_inurba_marseille","lat":43.23195,"lon":5.35549,"is_reserved":false,"is_disabled":false,"rental_uris":{"android":"levelo://app?vid=6269a9ca-f4f3-4106-8cff-2b7df03796c2","ios":"levelo://app?vid=6269a9ca-f4f3-4106-8cff-2b7df03796c2"},"vehicle_type_id":"4","last_reported":1745849481,"current_range_meters":6400,"station_id":"ce4bhu92rcd13ifvqi70","pricing_plan_id":"cebpf4jnsgd1na2vs0mg"},{"bike_id":"8ae79fb7-0582-444e-8dab-1d22e31e0f2e","system_id":"levelo_inurba_marseille","lat":43.23963,"lon":5.36626,"is_reserved":false,"is_disabled":false,"rental_uris":{"android":"levelo://app?vid=8ae79fb7-0582-444e-8dab-1d22e31e0f2e","ios":"levelo://app?vid=8ae79fb7-0582-444e-8dab-1d22e31e0f2e"},"vehicle_type_id":"4","last_reported":1745849481,"current_range_meters":7200,"station_id":"ce4bhi12rcd13ifvqfp0","pricing_plan_id":"cebpf4jnsgd1na2vs0mg"},{"bike_id":"5036d8c1-6202-466b-bcef-252a808644c9","system_id":"levelo_inurba_marseille","lat":43.32536,"lon":5.41444,"is_reserved":false,"is_disabled":false,"rental_uris":{"android":"levelo://app?vid=5036d8c1-6202-466b-bcef-252a808644c9","ios":"levelo://app?vid=5036d8c1-6202-466b-bcef-252a808644c9"},"vehicle_type_id":"4","last_reported":1745849481,"current_range_meters":7200,"station_id":"ce4bhq12rcd13ifvqhhg","pricing_plan_id":"cebpf4jnsgd1na2vs0mg"},{"bike_id":"c5684b63-b382-4edd-98be-447333a263d2","system_id":"levelo_inurba_marseille","lat":43.30907,"lon":5.36842,"is_reserved":false,"is_disabled":false,"rental_uris":{"android":"levelo://app?vid=c5684b63-b382-4edd-98be-447333a263d2","ios":"levelo://app?vid=c5684b63-b382-4edd-98be-447333a263d2"},"vehicle_type_id":"4","last_reported":1745849481,"current_range_meters":7200,"station_id":"ce4bgn92rcd13ifvqbvg","pricing_plan_id":"cebpf4jnsgd1na2vs0mg"},{"bike_id":"650d7a9e-2a85-4346-862d-6eec5b96e7b5","system_id":"levelo_inurba_marseille","lat":43.250194,"lon":5.38912,"is_reserved":false,"is_disabled":false,"rental_uris":{"android":"levelo://app?vid=650d7a9e-2a85-4346-862d-6eec5b96e7b5","ios":"levelo://app?vid=650d7a9e-2a85-4346-862d-6eec5b96e7b5"},"vehicle_type_id":"4","last_reported":1745849481,"current_range_meters":7200,"station_id":"ce4bhgp2rcd13ifvqfd0","pricing_plan_id":"cebpf4jnsgd1na2vs0mg"},{"bike_id":"ab1a3356-5be9-405a-9924-da7c313b5d85","system_id":"levelo_inurba_marseille","lat":43.26571,"lon":5.37295,"is_reserved":false,"is_disabled":false,"rental_uris":{"android":"levelo://app?vid=ab1a3356-5be9-405a-9924-da7c313b5d85","ios":"levelo://app?vid=ab1a3356-5be9-405a-9924-da7c313b5d85"},"vehicle_type_id":"4","last_reported":1745849481,"current_range_meters":8000,"station_id":"ce4bhg12rcd13ifvqf70","pricing_plan_id":"cebpf4jnsgd1na2vs0mg"},{"bike_id":"19a0c4e3-77b1-4876-ba05-b0cd57fdc313","system_id":"levelo_inurba_marseille","lat":43.30751,"lon":5.37271,"is_reserved":false,"is_disabled":false,"rental_uris":{"android":"levelo://app?vid=19a0c4e3-77b1-4876-ba05-b0cd57fdc313","ios":"levelo://app?vid=19a0c4e3-77b1-4876-ba05-b0cd57fdc313"},"vehicle_type_id":"4","last_reported":1745849481,"current_range_meters":8000,"station_id":"","pricing_plan_id":"cebpf4jnsgd1na2vs0mg"},{"bike_id":"955f4aa4-20ee-4c2e-91f7-7017dacec613","system_id":"levelo_inurba_marseille","lat":43.29274,"lon":5.3763,"is_reserved":false,"is_disabled":false,"rental_uris":{"android":"levelo://app?vid=955f4aa4-20ee-4c2e-91f7-7017dacec613","ios":"levelo://app?vid=955f4aa4-20ee-4c2e-91f7-7017dacec613"},"vehicle_type_id":"4","last_reported":1745849481,"current_range_meters":8000,"station_id":"ce4bgi12rcd13ifvqb80","pricing_plan_id":"cebpf4jnsgd1na2vs0mg"},{"bike_id":"a4c8a335-745b-4d95-97e0-7bac3cb18549","system_id":"levelo_inurba_marseille","lat":43.2812,"lon":5.39855,"is_reserved":false,"is_disabled":false,"rental_uris":{"android":"levelo://app?vid=a4c8a335-745b-4d95-97e0-7bac3cb18549","ios":"levelo://app?vid=a4c8a335-745b-4d95-97e0-7bac3cb18549"},"vehicle_type_id":"4","last_reported":1745849481,"current_range_meters":8400,"station_id":"","pricing_plan_id":"cebpf4jnsgd1na2vs0mg"},{"bike_id":"1db14274-463d-4180-bece-00dba6656848","system_id":"levelo_inurba_marseille","lat":43.23959,"lon":5.36634,"is_reserved":false,"is_disabled":false,"rental_uris":{"android":"levelo://app?vid=1db14274-463d-4180-bece-00dba6656848","ios":"levelo://app?vid=1db14274-463d-4180-bece-00dba6656848"},"vehicle_type_id":"4","last_reported":1745849481,"current_range_meters":8400,"station_id":"ce4bhi12rcd13ifvqfp0","pricing_plan_id":"cebpf4jnsgd1na2vs0mg"},{"bike_id":"51c1adc9-7cd7-4ffb-971e-7b36309eb47d","system_id":"levelo_inurba_marseille","lat":43.31071,"lon":5.36758,"is_reserved":false,"is_disabled":false,"rental_uris":{"android":"levelo://app?vid=51c1adc9-7cd7-4ffb-971e-7b36309eb47d","ios":"levelo://app?vid=51c1adc9-7cd7-4ffb-971e-7b36309eb47d"},"vehicle_type_id":"4","last_reported":1745849481,"current_range_meters":8400,"station_id":"","pricing_plan_id":"cebpf4jnsgd1na2vs0mg"},{"bike_id":"c4a718d2-e9db-42b1-8109-4e99f75fac81","system_id":"levelo_inurba_marseille","lat":43.23193,"lon":5.35551,"is_reserved":false,"is_disabled":false,"rental_uris":{"android":"levelo://app?vid=c4a718d2-e9db-42b1-8109-4e99f75fac81","ios":"levelo://app?vid=c4a718d2-e9db-42b1-8109-4e99f75fac81"},"vehicle_type_id":"4","last_reported":1745849481,"current_range_meters":8800,"station_id":"ce4bhu92rcd13ifvqi70","pricing_plan_id":"cebpf4jnsgd1na2vs0mg"},{"bike_id":"2773cfc0-05d3-405d-90e6-35b48932d041","system_id":"levelo_inurba_marseille","lat":43.24391,"lon":5.37062,"is_reserved":false,"is_disabled":false,"rental_uris":{"android":"levelo://app?vid=2773cfc0-05d3-405d-90e6-35b48932d041","ios":"levelo://app?vid=2773cfc0-05d3-405d-90e6-35b48932d041"},"vehicle_type_id":"4","last_reported":1745849481,"current_range_meters":8400,"station_id":"ce4bhhh2rcd13ifvqfk0","pricing_plan_id":"cebpf4jnsgd1na2vs0mg"},{"bike_id":"a66e70e5-b1bf-4322-ac40-b8ea00d70ed6","system_id":"levelo_inurba_marseille","lat":43.2848,"lon":5.38567,"is_reserved":false,"is_disabled":false,"rental_uris":{"android":"levelo://app?vid=a66e70e5-b1bf-4322-ac40-b8ea00d70ed6","ios":"levelo://app?vid=a66e70e5-b1bf-4322-ac40-b8ea00d70ed6"},"vehicle_type_id":"4","last_reported":1745849481,"current_range_meters":10800,"station_id":"ce4bh8p2rcd13ifvqeb0","pricing_plan_id":"cebpf4jnsgd1na2vs0mg"},{"bike_id":"8dad678b-7eb2-4916-bc73-d502c3d0f23d","system_id":"levelo_inurba_marseille","lat":43.29912,"lon":5.37474,"is_reserved":false,"is_disabled":false,"rental_uris":{"android":"levelo://app?vid=8dad678b-7eb2-4916-bc73-d502c3d0f23d","ios":"levelo://app?vid=8dad678b-7eb2-4916-bc73-d502c3d0f23d"},"vehicle_type_id":"4","last_reported":1745849481,"current_range_meters":9200,"station_id":"ce4bgjh2rcd13ifvqbg0","pricing_plan_id":"cebpf4jnsgd1na2vs0mg"},{"bike_id":"3c6fa627-b609-4b51-aab0-c6fc4fddfc7c","system_id":"levelo_inurba_marseille","lat":43.30535,"lon":5.38413,"is_reserved":false,"is_disabled":false,"rental_uris":{"android":"levelo://app?vid=3c6fa627-b609-4b51-aab0-c6fc4fddfc7c","ios":"levelo://app?vid=3c6fa627-b609-4b51-aab0-c6fc4fddfc7c"},"vehicle_type_id":"4","last_reported":1745849481,"current_range_meters":9200,"station_id":"ce4bgg92rcd13ifvqb30","pricing_plan_id":"cebpf4jnsgd1na2vs0mg"},{"bike_id":"af4f0c69-e62d-4155-b1d1-a67b45271ae1","system_id":"levelo_inurba_marseille","lat":43.24752,"lon":5.41212,"is_reserved":false,"is_disabled":false,"rental_uris":{"android":"levelo://app?vid=af4f0c69-e62d-4155-b1d1-a67b45271ae1","ios":"levelo://app?vid=af4f0c69-e62d-4155-b1d1-a67b45271ae1"},"vehicle_type_id":"4","last_reported":1745849481,"current_range_meters":9600,"station_id":"","pricing_plan_id":"cebpf4jnsgd1na2vs0mg"},{"bike_id":"a6c80b0c-536c-4a45-884f-2e1d125500ab","system_id":"levelo_inurba_marseille","lat":43.22524,"lon":5.3472,"is_reserved":false,"is_disabled":false,"rental_uris":{"android":"levelo://app?vid=a6c80b0c-536c-4a45-884f-2e1d125500ab","ios":"levelo://app?vid=a6c80b0c-536c-4a45-884f-2e1d125500ab"},"vehicle_type_id":"4","last_reported":1745849481,"current_range_meters":9600,"station_id":"st_cvj5dfep6f1abm77gieg","pricing_plan_id":"cebpf4jnsgd1na2vs0mg"},{"bike_id":"679a1104-bb2f-4313-81ae-490e909d7dd6","system_id":"levelo_inurba_marseille","lat":43.296,"lon":5.37713,"is_reserved":false,"is_disabled":true,"rental_uris":{"android":"levelo://app?vid=679a1104-bb2f-4313-81ae-490e909d7dd6","ios":"levelo://app?vid=679a1104-bb2f-4313-81ae-490e909d7dd6"},"vehicle_type_id":"4","last_reported":1745849481,"current_range_meters":9600,"station_id":"ce4bgi92rcd13ifvqb90","pricing_plan_id":"cebpf4jnsgd1na2vs0mg"},{"bike_id":"57a41005-dba4-4995-a65d-3cc07a95ba9a","system_id":"levelo_inurba_marseille","lat":43.30211,"lon":5.39466,"is_reserved":false,"is_disabled":true,"rental_uris":{"android":"levelo://app?vid=57a41005-dba4-4995-a65d-3cc07a95ba9a","ios":"levelo://app?vid=57a41005-dba4-4995-a65d-3cc07a95ba9a"},"vehicle_type_id":"4","last_reported":1745849481,"current_range_meters":9600,"station_id":"ce4bh0p2rcd13ifvqd70","pricing_plan_id":"cebpf4jnsgd1na2vs0mg"},{"bike_id":"f58e7d68-5ba2-4ff6-8fac-5b8a0a8ddd2c","system_id":"levelo_inurba_marseille","lat":43.22513,"lon":5.34785,"is_reserved":false,"is_disabled":false,"rental_uris":{"android":"levelo://app?vid=f58e7d68-5ba2-4ff6-8fac-5b8a0a8ddd2c","ios":"levelo://app?vid=f58e7d68-5ba2-4ff6-8fac-5b8a0a8ddd2c"},"vehicle_type_id":"4","last_reported":1745849481,"current_range_meters":10000,"station_id":"","pricing_plan_id":"cebpf4jnsgd1na2vs0mg"},{"bike_id":"4ed5222a-dcf9-4ee8-9034-66d4515f631e","system_id":"levelo_inurba_marseille","lat":43.225043,"lon":5.347848,"is_reserved":false,"is_disabled":false,"rental_uris":{"android":"levelo://app?vid=4ed5222a-dcf9-4ee8-9034-66d4515f631e","ios":"levelo://app?vid=4ed5222a-dcf9-4ee8-9034-66d4515f631e"},"vehicle_type_id":"4","last_reported":1745849481,"current_range_meters":10000,"station_id":"st_cvj5dfep6f1abm77gieg","pricing_plan_id":"cebpf4jnsgd1na2vs0mg"},{"bike_id":"1265278e-77c2-4bb2-87c2-90e2bf3e57b0","system_id":"levelo_inurba_marseille","lat":43.255,"lon":5.37647,"is_reserved":false,"is_disabled":false,"rental_uris":{"android":"levelo://app?vid=1265278e-77c2-4bb2-87c2-90e2bf3e57b0","ios":"levelo://app?vid=1265278e-77c2-4bb2-87c2-90e2bf3e57b0"},"vehicle_type_id":"4","last_reported":1745849481,"current_range_meters":10000,"station_id":"ce4bhh12rcd13ifvqff0","pricing_plan_id":"cebpf4jnsgd1na2vs0mg"},{"bike_id":"5d418c84-adfe-4917-ae47-0bfdec9fbbbe","system_id":"levelo_inurba_marseille","lat":43.28036,"lon":5.36938,"is_reserved":false,"is_disabled":false,"rental_uris":{"android":"levelo://app?vid=5d418c84-adfe-4917-ae47-0bfdec9fbbbe","ios":"levelo://app?vid=5d418c84-adfe-4917-ae47-0bfdec9fbbbe"},"vehicle_type_id":"4","last_reported":1745849481,"current_range_meters":10000,"station_id":"ce4bha12rcd13ifvqef0","pricing_plan_id":"cebpf4jnsgd1na2vs0mg"},{"bike_id":"9d4f8cab-7ff2-49dd-8b08-3defc92650f4","system_id":"levelo_inurba_marseille","lat":43.29003,"lon":5.35601,"is_reserved":false,"is_disabled":false,"rental_uris":{"android":"levelo://app?vid=9d4f8cab-7ff2-49dd-8b08-3defc92650f4","ios":"levelo://app?vid=9d4f8cab-7ff2-49dd-8b08-3defc92650f4"},"vehicle_type_id":"4","last_reported":1745849481,"current_range_meters":10000,"station_id":"ce4bhb92rcd13ifvqen0","pricing_plan_id":"cebpf4jnsgd1na2vs0mg"},{"bike_id":"9dbd364e-a0b2-4d9f-8ae7-e46f0edbfe5c","system_id":"levelo_inurba_marseille","lat":43.21202,"lon":5.35074,"is_reserved":false,"is_disabled":false,"rental_uris":{"android":"levelo://app?vid=9dbd364e-a0b2-4d9f-8ae7-e46f0edbfe5c","ios":"levelo://app?vid=9dbd364e-a0b2-4d9f-8ae7-e46f0edbfe5c"},"vehicle_type_id":"4","last_reported":1745849481,"current_range_meters":10000,"station_id":"st_cvj6sg6p6f1abm77japg","pricing_plan_id":"cebpf4jnsgd1na2vs0mg"},{"bike_id":"73bb5f09-36dc-4aba-9e13-18ee46825f73","system_id":"levelo_inurba_marseille","lat":43.29789,"lon":5.39334,"is_reserved":false,"is_disabled":false,"rental_uris":{"android":"levelo://app?vid=73bb5f09-36dc-4aba-9e13-18ee46825f73","ios":"levelo://app?vid=73bb5f09-36dc-4aba-9e13-18ee46825f73"},"vehicle_type_id":"4","last_reported":1745849481,"current_range_meters":10000,"station_id":"chh1huq6cuj3fo74tm60","pricing_plan_id":"cebpf4jnsgd1na2vs0mg"},{"bike_id":"b02e6c9f-7c41-4e8a-bcd8-2b944207caca","system_id":"levelo_inurba_marseille","lat":43.2816,"lon":5.42649,"is_reserved":false,"is_disabled":false,"rental_uris":{"android":"levelo://app?vid=b02e6c9f-7c41-4e8a-bcd8-2b944207caca","ios":"levelo://app?vid=b02e6c9f-7c41-4e8a-bcd8-2b944207caca"},"vehicle_type_id":"4","last_reported":1745849481,"current_range_meters":10800,"station_id":"ce4bhnh2rcd13ifvqgug","pricing_plan_id":"cebpf4jnsgd1na2vs0mg"},{"bike_id":"6d371176-aac3-483a-95b7-727a7fab27c1","system_id":"levelo_inurba_marseille","lat":43.30912,"lon":5.36852,"is_reserved":false,"is_disabled":false,"rental_uris":{"android":"levelo://app?vid=6d371176-aac3-483a-95b7-727a7fab27c1","ios":"levelo://app?vid=6d371176-aac3-483a-95b7-727a7fab27c1"},"vehicle_type_id":"4","last_reported":1745849481,"current_range_meters":10800,"station_id":"ce4bgn92rcd13ifvqbvg","pricing_plan_id":"cebpf4jnsgd1na2vs0mg"},{"bike_id":"d99beb95-24da-48b9-8811-7efc1c0bc981","system_id":"levelo_inurba_marseille","lat":43.225051,"lon":5.347837,"is_reserved":false,"is_disabled":false,"rental_uris":{"android":"levelo://app?vid=d99beb95-24da-48b9-8811-7efc1c0bc981","ios":"levelo://app?vid=d99beb95-24da-48b9-8811-7efc1c0bc981"},"vehicle_type_id":"4","last_reported":1745849481,"current_range_meters":10800,"station_id":"","pricing_plan_id":"cebpf4jnsgd1na2vs0mg"},{"bike_id":"26b25b87-6b77-4904-b344-e0bd766aede9","system_id":"levelo_inurba_marseille","lat":43.30256,"lon":5.40058,"is_reserved":false,"is_disabled":false,"rental_uris":{"android":"levelo://app?vid=26b25b87-6b77-4904-b344-e0bd766aede9","ios":"levelo://app?vid=26b25b87-6b77-4904-b344-e0bd766aede9"},"vehicle_type_id":"4","last_reported":1745849481,"current_range_meters":10800,"station_id":"ce4bgvh2rcd13ifvqcs0","pricing_plan_id":"cebpf4jnsgd1na2vs0mg"},{"bike_id":"685828f1-5a00-434d-abac-f9c9c87dbe01","system_id":"levelo_inurba_marseille","lat":43.26677,"lon":5.38267,"is_reserved":false,"is_disabled":false,"rental_uris":{"android":"levelo://app?vid=685828f1-5a00-434d-abac-f9c9c87dbe01","ios":"levelo://app?vid=685828f1-5a00-434d-abac-f9c9c87dbe01"},"vehicle_type_id":"4","last_reported":1745849481,"current_range_meters":10800,"station_id":"ce4bhg92rcd13ifvqf90","pricing_plan_id":"cebpf4jnsgd1na2vs0mg"},{"bike_id":"f4b14c2d-e306-49de-9d30-ca8fcac2e70e","system_id":"levelo_inurba_marseille","lat":43.29843,"lon":5.3627,"is_reserved":false,"is_disabled":false,"rental_uris":{"android":"levelo://app?vid=f4b14c2d-e306-49de-9d30-ca8fcac2e70e","ios":"levelo://app?vid=f4b14c2d-e306-49de-9d30-ca8fcac2e70e"},"vehicle_type_id":"4","last_reported":1745849481,"current_range_meters":11200,"station_id":"ce4bgpp2rcd13ifvqc3g","pricing_plan_id":"cebpf4jnsgd1na2vs0mg"},{"bike_id":"fdc1f496-8f08-4f0b-8be8-731717affcc5","system_id":"levelo_inurba_marseille","lat":43.27813,"lon":5.40707,"is_reserved":false,"is_disabled":false,"rental_uris":{"android":"levelo://app?vid=fdc1f496-8f08-4f0b-8be8-731717affcc5","ios":"levelo://app?vid=fdc1f496-8f08-4f0b-8be8-731717affcc5"},"vehicle_type_id":"4","last_reported":1745849481,"current_range_meters":11200,"station_id":"ce4bhnh2rcd13ifvqgtg","pricing_plan_id":"cebpf4jnsgd1na2vs0mg"},{"bike_id":"a7a56339-930a-4dec-bf7b-e2aa5c53a05d","system_id":"levelo_inurba_marseille","lat":43.31353,"lon":5.36717,"is_reserved":false,"is_disabled":false,"rental_uris":{"android":"levelo://app?vid=a7a56339-930a-4dec-bf7b-e2aa5c53a05d","ios":"levelo://app?vid=a7a56339-930a-4dec-bf7b-e2aa5c53a05d"},"vehicle_type_id":"4","last_reported":1745849481,"current_range_meters":11200,"station_id":"ce4bgr92rcd13ifvqc6g","pricing_plan_id":"cebpf4jnsgd1na2vs0mg"},{"bike_id":"748dc265-2824-4c8a-9092-d9224448fe6d","system_id":"levelo_inurba_marseille","lat":43.31376,"lon":5.36706,"is_reserved":false,"is_disabled":false,"rental_uris":{"android":"levelo://app?vid=748dc265-2824-4c8a-9092-d9224448fe6d","ios":"levelo://app?vid=748dc265-2824-4c8a-9092-d9224448fe6d"},"vehicle_type_id":"4","last_reported":1745849481,"current_range_meters":11200,"station_id":"ce4bgr92rcd13ifvqc6g","pricing_plan_id":"cebpf4jnsgd1na2vs0mg"},{"bike_id":"05145c84-b9e3-47c2-91f6-efba0dd3a65c","system_id":"levelo_inurba_marseille","lat":43.25013,"lon":5.38913,"is_reserved":false,"is_disabled":true,"rental_uris":{"android":"levelo://app?vid=05145c84-b9e3-47c2-91f6-efba0dd3a65c","ios":"levelo://app?vid=05145c84-b9e3-47c2-91f6-efba0dd3a65c"},"vehicle_type_id":"4","last_reported":1745849481,"current_range_meters":11200,"station_id":"ce4bhgp2rcd13ifvqfd0","pricing_plan_id":"cebpf4jnsgd1na2vs0mg"},{"bike_id":"a9f5e35b-7199-4e62-88ad-17466ea7316b","system_id":"levelo_inurba_marseille","lat":43.27836,"lon":5.39204,"is_reserved":false,"is_disabled":false,"rental_uris":{"android":"levelo://app?vid=a9f5e35b-7199-4e62-88ad-17466ea7316b","ios":"levelo://app?vid=a9f5e35b-7199-4e62-88ad-17466ea7316b"},"vehicle_type_id":"4","last_reported":1745849481,"current_range_meters":11200,"station_id":"ce4bhjp2rcd13ifvqga0","pricing_plan_id":"cebpf4jnsgd1na2vs0mg"},{"bike_id":"889fab24-eabf-4017-9eab-f4f25d687331","system_id":"levelo_inurba_marseille","lat":43.337695,"lon":5.374367,"is_reserved":false,"is_disabled":false,"rental_uris":{"android":"levelo://app?vid=889fab24-eabf-4017-9eab-f4f25d687331","ios":"levelo://app?vid=889fab24-eabf-4017-9eab-f4f25d687331"},"vehicle_type_id":"4","last_reported":1745849481,"current_range_meters":11600,"station_id":"","pricing_plan_id":"cebpf4jnsgd1na2vs0mg"},{"bike_id":"0722cd6f-56b8-4b08-991a-d4a721367e93","system_id":"levelo_inurba_marseille","lat":43.28985,"lon":5.36636,"is_reserved":false,"is_disabled":false,"rental_uris":{"android":"levelo://app?vid=0722cd6f-56b8-4b08-991a-d4a721367e93","ios":"levelo://app?vid=0722cd6f-56b8-4b08-991a-d4a721367e93"},"vehicle_type_id":"4","last_reported":1745849481,"current_range_meters":11200,"station_id":"ce4bhap2rcd13ifvqek0","pricing_plan_id":"cebpf4jnsgd1na2vs0mg"},{"bike_id":"2aa23f20-1a1d-4566-85b2-71f806f8c784","system_id":"levelo_inurba_marseille","lat":43.27059,"lon":5.40255,"is_reserved":false,"is_disabled":false,"rental_uris":{"android":"levelo://app?vid=2aa23f20-1a1d-4566-85b2-71f806f8c784","ios":"levelo://app?vid=2aa23f20-1a1d-4566-85b2-71f806f8c784"},"vehicle_type_id":"4","last_reported":1745849481,"current_range_meters":11600,"station_id":"ce4bhk92rcd13ifvqgc0","pricing_plan_id":"cebpf4jnsgd1na2vs0mg"},{"bike_id":"2406a6f8-68ba-4312-84f6-48aaadd5034b","system_id":"levelo_inurba_marseille","lat":43.225041,"lon":5.347847,"is_reserved":false,"is_disabled":false,"rental_uris":{"android":"levelo://app?vid=2406a6f8-68ba-4312-84f6-48aaadd5034b","ios":"levelo://app?vid=2406a6f8-68ba-4312-84f6-48aaadd5034b"},"vehicle_type_id":"4","last_reported":1745849481,"current_range_meters":12000,"station_id":"","pricing_plan_id":"cebpf4jnsgd1na2vs0mg"},{"bike_id":"f9744ed7-ae4a-483c-9cb0-c8fc8a61705d","system_id":"levelo_inurba_marseille","lat":43.231995,"lon":5.355552,"is_reserved":false,"is_disabled":false,"rental_uris":{"android":"levelo://app?vid=f9744ed7-ae4a-483c-9cb0-c8fc8a61705d","ios":"levelo://app?vid=f9744ed7-ae4a-483c-9cb0-c8fc8a61705d"},"vehicle_type_id":"4","last_reported":1745849481,"current_range_meters":12000,"station_id":"ce4bhu92rcd13ifvqi70","pricing_plan_id":"cebpf4jnsgd1na2vs0mg"},{"bike_id":"29a529f8-42d2-4af5-9f68-5632920aa58d","system_id":"levelo_inurba_marseille","lat":43.301588,"lon":5.380702,"is_reserved":false,"is_disabled":true,"rental_uris":{"android":"levelo://app?vid=29a529f8-42d2-4af5-9f68-5632920aa58d","ios":"levelo://app?vid=29a529f8-42d2-4af5-9f68-5632920aa58d"},"vehicle_type_id":"4","last_reported":1745849481,"current_range_meters":12000,"station_id":"ce4bgjp2rcd13ifvqbh0","pricing_plan_id":"cebpf4jnsgd1na2vs0mg"},{"bike_id":"dbbf4ff0-b24e-4fd7-807e-dc8172feaddb","system_id":"levelo_inurba_marseille","lat":43.27372,"lon":5.36247,"is_reserved":false,"is_disabled":false,"rental_uris":{"android":"levelo://app?vid=dbbf4ff0-b24e-4fd7-807e-dc8172feaddb","ios":"levelo://app?vid=dbbf4ff0-b24e-4fd7-807e-dc8172feaddb"},"vehicle_type_id":"4","last_reported":1745849481,"current_range_meters":12000,"station_id":"ce4bhbh2rcd13ifvqeo0","pricing_plan_id":"cebpf4jnsgd1na2vs0mg"},{"bike_id":"e5b4b90d-e268-4de2-98f4-f6d0513f8801","system_id":"levelo_inurba_marseille","lat":43.26545,"lon":5.42198,"is_reserved":false,"is_disabled":false,"rental_uris":{"android":"levelo://app?vid=e5b4b90d-e268-4de2-98f4-f6d0513f8801","ios":"levelo://app?vid=e5b4b90d-e268-4de2-98f4-f6d0513f8801"},"vehicle_type_id":"4","last_reported":1745849481,"current_range_meters":12000,"station_id":"","pricing_plan_id":"cebpf4jnsgd1na2vs0mg"},{"bike_id":"bf97afda-88b4-43c4-b375-533ade55f2fb","system_id":"levelo_inurba_marseille","lat":43.30535,"lon":5.38412,"is_reserved":false,"is_disabled":false,"rental_uris":{"android":"levelo://app?vid=bf97afda-88b4-43c4-b375-533ade55f2fb","ios":"levelo://app?vid=bf97afda-88b4-43c4-b375-533ade55f2fb"},"vehicle_type_id":"4","last_reported":1745849481,"current_range_meters":12000,"station_id":"ce4bgg92rcd13ifvqb30","pricing_plan_id":"cebpf4jnsgd1na2vs0mg"},{"bike_id":"9b2f4d66-f926-4d4d-abea-54e36619778b","system_id":"levelo_inurba_marseille","lat":43.31089,"lon":5.38378,"is_reserved":false,"is_disabled":false,"rental_uris":{"android":"levelo://app?vid=9b2f4d66-f926-4d4d-abea-54e36619778b","ios":"levelo://app?vid=9b2f4d66-f926-4d4d-abea-54e36619778b"},"vehicle_type_id":"4","last_reported":1745849481,"current_range_meters":12400,"station_id":"ce4bgv92rcd13ifvqcr0","pricing_plan_id":"cebpf4jnsgd1na2vs0mg"},{"bike_id":"855d3366-a7e3-4ffe-a2c4-1b0e4609ce26","system_id":"levelo_inurba_marseille","lat":43.2795,"lon":5.41041,"is_reserved":false,"is_disabled":false,"rental_uris":{"android":"levelo://app?vid=855d3366-a7e3-4ffe-a2c4-1b0e4609ce26","ios":"levelo://app?vid=855d3366-a7e3-4ffe-a2c4-1b0e4609ce26"},"vehicle_type_id":"4","last_reported":1745849481,"current_range_meters":12400,"station_id":"ce4bhnp2rcd13ifvqh0g","pricing_plan_id":"cebpf4jnsgd1na2vs0mg"},{"bike_id":"b049c043-3aed-477a-a225-afc1bfd6911c","system_id":"levelo_inurba_marseille","lat":43.25581,"lon":5.38225,"is_reserved":false,"is_disabled":false,"rental_uris":{"android":"levelo://app?vid=b049c043-3aed-477a-a225-afc1bfd6911c","ios":"levelo://app?vid=b049c043-3aed-477a-a225-afc1bfd6911c"},"vehicle_type_id":"4","last_reported":1745849481,"current_range_meters":12000,"station_id":"ce4bhih2rcd13ifvqfs0","pricing_plan_id":"cebpf4jnsgd1na2vs0mg"},{"bike_id":"1c9ef566-1aea-49e7-bcec-4f4a90f793b7","system_id":"levelo_inurba_marseille","lat":43.239626,"lon":5.366545,"is_reserved":false,"is_disabled":false,"rental_uris":{"android":"levelo://app?vid=1c9ef566-1aea-49e7-bcec-4f4a90f793b7","ios":"levelo://app?vid=1c9ef566-1aea-49e7-bcec-4f4a90f793b7"},"vehicle_type_id":"4","last_reported":1745849481,"current_range_meters":12800,"station_id":"ce4bhi12rcd13ifvqfp0","pricing_plan_id":"cebpf4jnsgd1na2vs0mg"},{"bike_id":"86c0598b-4818-471f-9a8b-081ecdc96572","system_id":"levelo_inurba_marseille","lat":43.25575,"lon":5.3824,"is_reserved":false,"is_disabled":false,"rental_uris":{"android":"levelo://app?vid=86c0598b-4818-471f-9a8b-081ecdc96572","ios":"levelo://app?vid=86c0598b-4818-471f-9a8b-081ecdc96572"},"vehicle_type_id":"4","last_reported":1745849481,"current_range_meters":12800,"station_id":"ce4bhih2rcd13ifvqfs0","pricing_plan_id":"cebpf4jnsgd1na2vs0mg"},{"bike_id":"7133bbdd-94ed-4097-ab07-839f3b34eb0f","system_id":"levelo_inurba_marseille","lat":43.23967,"lon":5.3663,"is_reserved":false,"is_disabled":false,"rental_uris":{"android":"levelo://app?vid=7133bbdd-94ed-4097-ab07-839f3b34eb0f","ios":"levelo://app?vid=7133bbdd-94ed-4097-ab07-839f3b34eb0f"},"vehicle_type_id":"4","last_reported":1745849481,"current_range_meters":12400,"station_id":"ce4bhi12rcd13ifvqfp0","pricing_plan_id":"cebpf4jnsgd1na2vs0mg"},{"bike_id":"ea5b7376-7a68-46b7-a647-4025a3572227","system_id":"levelo_inurba_marseille","lat":43.26567,"lon":5.37284,"is_reserved":false,"is_disabled":false,"rental_uris":{"android":"levelo://app?vid=ea5b7376-7a68-46b7-a647-4025a3572227","ios":"levelo://app?vid=ea5b7376-7a68-46b7-a647-4025a3572227"},"vehicle_type_id":"4","last_reported":1745849481,"current_range_meters":12800,"station_id":"ce4bhg12rcd13ifvqf70","pricing_plan_id":"cebpf4jnsgd1na2vs0mg"},{"bike_id":"07901af8-bb3a-45b8-9cac-eeb3b25e0441","system_id":"levelo_inurba_marseille","lat":43.290283,"lon":5.386513,"is_reserved":false,"is_disabled":false,"rental_uris":{"android":"levelo://app?vid=07901af8-bb3a-45b8-9cac-eeb3b25e0441","ios":"levelo://app?vid=07901af8-bb3a-45b8-9cac-eeb3b25e0441"},"vehicle_type_id":"4","last_reported":1745849481,"current_range_meters":10800,"station_id":"ce4bh4p2rcd13ifvqe0g","pricing_plan_id":"cebpf4jnsgd1na2vs0mg"},{"bike_id":"8de487ea-1a07-44ad-99f5-1e420d8ff376","system_id":"levelo_inurba_marseille","lat":43.290314,"lon":5.386465,"is_reserved":false,"is_disabled":false,"rental_uris":{"android":"levelo://app?vid=8de487ea-1a07-44ad-99f5-1e420d8ff376","ios":"levelo://app?vid=8de487ea-1a07-44ad-99f5-1e420d8ff376"},"vehicle_type_id":"4","last_reported":1745849481,"current_range_meters":13600,"station_id":"ce4bh4p2rcd13ifvqe0g","pricing_plan_id":"cebpf4jnsgd1na2vs0mg"},{"bike_id":"ab4612c3-85f5-4cb4-9ce2-46373d9c1c69","system_id":"levelo_inurba_marseille","lat":43.25795,"lon":5.38604,"is_reserved":false,"is_disabled":false,"rental_uris":{"android":"levelo://app?vid=ab4612c3-85f5-4cb4-9ce2-46373d9c1c69","ios":"levelo://app?vid=ab4612c3-85f5-4cb4-9ce2-46373d9c1c69"},"vehicle_type_id":"4","last_reported":1745849481,"current_range_meters":13600,"station_id":"","pricing_plan_id":"cebpf4jnsgd1na2vs0mg"},{"bike_id":"b5767cca-0e93-4afc-aae1-18c8669860ad","system_id":"levelo_inurba_marseille","lat":43.21757,"lon":5.34598,"is_reserved":false,"is_disabled":false,"rental_uris":{"android":"levelo://app?vid=b5767cca-0e93-4afc-aae1-18c8669860ad","ios":"levelo://app?vid=b5767cca-0e93-4afc-aae1-18c8669860ad"},"vehicle_type_id":"4","last_reported":1745849481,"current_range_meters":13600,"station_id":"st_cvj6r9ubvosntc0bgbag","pricing_plan_id":"cebpf4jnsgd1na2vs0mg"},{"bike_id":"8e58cb69-1578-4430-8da4-9e603b671c2c","system_id":"levelo_inurba_marseille","lat":43.23196,"lon":5.35546,"is_reserved":false,"is_disabled":false,"rental_uris":{"android":"levelo://app?vid=8e58cb69-1578-4430-8da4-9e603b671c2c","ios":"levelo://app?vid=8e58cb69-1578-4430-8da4-9e603b671c2c"},"vehicle_type_id":"4","last_reported":1745849481,"current_range_meters":13600,"station_id":"ce4bhu92rcd13ifvqi70","pricing_plan_id":"cebpf4jnsgd1na2vs0mg"},{"bike_id":"f8527f98-9dba-4767-9c49-2ee5632fd2af","system_id":"levelo_inurba_marseille","lat":43.27824,"lon":5.40718,"is_reserved":false,"is_disabled":true,"rental_uris":{"android":"levelo://app?vid=f8527f98-9dba-4767-9c49-2ee5632fd2af","ios":"levelo://app?vid=f8527f98-9dba-4767-9c49-2ee5632fd2af"},"vehicle_type_id":"4","last_reported":1745849481,"current_range_meters":13600,"station_id":"ce4bhnh2rcd13ifvqgtg","pricing_plan_id":"cebpf4jnsgd1na2vs0mg"},{"bike_id":"bc08b303-02bc-4d6d-864e-73bf44870bba","system_id":"levelo_inurba_marseille","lat":43.2318,"lon":5.39984,"is_reserved":false,"is_disabled":false,"rental_uris":{"android":"levelo://app?vid=bc08b303-02bc-4d6d-864e-73bf44870bba","ios":"levelo://app?vid=bc08b303-02bc-4d6d-864e-73bf44870bba"},"vehicle_type_id":"4","last_reported":1745849481,"current_range_meters":12800,"station_id":"ce4bhn12rcd13ifvqgqg","pricing_plan_id":"cebpf4jnsgd1na2vs0mg"},{"bike_id":"bc7e4f7e-7a6d-45e1-8d13-50c3fa265a5f","system_id":"levelo_inurba_marseille","lat":43.21758,"lon":5.346,"is_reserved":false,"is_disabled":false,"rental_uris":{"android":"levelo://app?vid=bc7e4f7e-7a6d-45e1-8d13-50c3fa265a5f","ios":"levelo://app?vid=bc7e4f7e-7a6d-45e1-8d13-50c3fa265a5f"},"vehicle_type_id":"4","last_reported":1745849481,"current_range_meters":13600,"station_id":"st_cvj6r9ubvosntc0bgbag","pricing_plan_id":"cebpf4jnsgd1na2vs0mg"},{"bike_id":"dea711b1-82be-4796-8637-e8457056719f","system_id":"levelo_inurba_marseille","lat":43.30538,"lon":5.36554,"is_reserved":false,"is_disabled":false,"rental_uris":{"android":"levelo://app?vid=dea711b1-82be-4796-8637-e8457056719f","ios":"levelo://app?vid=dea711b1-82be-4796-8637-e8457056719f"},"vehicle_type_id":"4","last_reported":1745849481,"current_range_meters":14000,"station_id":"ce4bgs12rcd13ifvqcag","pricing_plan_id":"cebpf4jnsgd1na2vs0mg"},{"bike_id":"f3e6f7ea-0b61-4cf3-825e-ef2178c4a995","system_id":"levelo_inurba_marseille","lat":43.32102,"lon":5.36791,"is_reserved":false,"is_disabled":false,"rental_uris":{"android":"levelo://app?vid=f3e6f7ea-0b61-4cf3-825e-ef2178c4a995","ios":"levelo://app?vid=f3e6f7ea-0b61-4cf3-825e-ef2178c4a995"},"vehicle_type_id":"4","last_reported":1745849481,"current_range_meters":14000,"station_id":"ce4bhrh2rcd13ifvqhug","pricing_plan_id":"cebpf4jnsgd1na2vs0mg"},{"bike_id":"f4e7471c-d017-42f8-96d8-46fefacb6311","system_id":"levelo_inurba_marseille","lat":43.27062,"lon":5.40256,"is_reserved":false,"is_disabled":false,"rental_uris":{"android":"levelo://app?vid=f4e7471c-d017-42f8-96d8-46fefacb6311","ios":"levelo://app?vid=f4e7471c-d017-42f8-96d8-46fefacb6311"},"vehicle_type_id":"4","last_reported":1745849481,"current_range_meters":14000,"station_id":"ce4bhk92rcd13ifvqgc0","pricing_plan_id":"cebpf4jnsgd1na2vs0mg"},{"bike_id":"5e731308-b640-4f73-b83e-ff4e98fbbd13","system_id":"levelo_inurba_marseille","lat":43.29272,"lon":5.40132,"is_reserved":false,"is_disabled":false,"rental_uris":{"android":"levelo://app?vid=5e731308-b640-4f73-b83e-ff4e98fbbd13","ios":"levelo://app?vid=5e731308-b640-4f73-b83e-ff4e98fbbd13"},"vehicle_type_id":"4","last_reported":1745849481,"current_range_meters":14400,"station_id":"ce4bh312rcd13ifvqdk0","pricing_plan_id":"cebpf4jnsgd1na2vs0mg"},{"bike_id":"cfbaa738-78e5-4cfd-a6d6-ed70948b480b","system_id":"levelo_inurba_marseille","lat":43.25002,"lon":5.38921,"is_reserved":false,"is_disabled":false,"rental_uris":{"android":"levelo://app?vid=cfbaa738-78e5-4cfd-a6d6-ed70948b480b","ios":"levelo://app?vid=cfbaa738-78e5-4cfd-a6d6-ed70948b480b"},"vehicle_type_id":"4","last_reported":1745849481,"current_range_meters":14000,"station_id":"ce4bhgp2rcd13ifvqfd0","pricing_plan_id":"cebpf4jnsgd1na2vs0mg"},{"bike_id":"65d052c7-ea53-401d-959e-539ea4caebdb","system_id":"levelo_inurba_marseille","lat":43.27944,"lon":5.41045,"is_reserved":false,"is_disabled":false,"rental_uris":{"android":"levelo://app?vid=65d052c7-ea53-401d-959e-539ea4caebdb","ios":"levelo://app?vid=65d052c7-ea53-401d-959e-539ea4caebdb"},"vehicle_type_id":"4","last_reported":1745849481,"current_range_meters":14800,"station_id":"ce4bhnp2rcd13ifvqh0g","pricing_plan_id":"cebpf4jnsgd1na2vs0mg"},{"bike_id":"ababa514-f50b-4147-b688-11f049fe4ab9","system_id":"levelo_inurba_marseille","lat":43.30268,"lon":5.40053,"is_reserved":false,"is_disabled":false,"rental_uris":{"android":"levelo://app?vid=ababa514-f50b-4147-b688-11f049fe4ab9","ios":"levelo://app?vid=ababa514-f50b-4147-b688-11f049fe4ab9"},"vehicle_type_id":"4","last_reported":1745849481,"current_range_meters":14800,"station_id":"ce4bgvh2rcd13ifvqcs0","pricing_plan_id":"cebpf4jnsgd1na2vs0mg"},{"bike_id":"a273dd95-99e2-4bb8-bee8-19cb9b13f516","system_id":"levelo_inurba_marseille","lat":43.29904,"lon":5.43656,"is_reserved":false,"is_disabled":false,"rental_uris":{"android":"levelo://app?vid=a273dd95-99e2-4bb8-bee8-19cb9b13f516","ios":"levelo://app?vid=a273dd95-99e2-4bb8-bee8-19cb9b13f516"},"vehicle_type_id":"4","last_reported":1745849481,"current_range_meters":14800,"station_id":"ce4bhpp2rcd13ifvqhfg","pricing_plan_id":"cebpf4jnsgd1na2vs0mg"},{"bike_id":"0af3789b-c6b8-4fb0-ba19-0e4ac11b7160","system_id":"levelo_inurba_marseille","lat":43.315024,"lon":5.372934,"is_reserved":false,"is_disabled":false,"rental_uris":{"android":"levelo://app?vid=0af3789b-c6b8-4fb0-ba19-0e4ac11b7160","ios":"levelo://app?vid=0af3789b-c6b8-4fb0-ba19-0e4ac11b7160"},"vehicle_type_id":"4","last_reported":1745849481,"current_range_meters":14800,"station_id":"ce4bgt12rcd13ifvqcd0","pricing_plan_id":"cebpf4jnsgd1na2vs0mg"},{"bike_id":"8f9f79a6-771d-4450-ad0d-2d12bfde4d02","system_id":"levelo_inurba_marseille","lat":43.2981,"lon":5.40404,"is_reserved":false,"is_disabled":false,"rental_uris":{"android":"levelo://app?vid=8f9f79a6-771d-4450-ad0d-2d12bfde4d02","ios":"levelo://app?vid=8f9f79a6-771d-4450-ad0d-2d12bfde4d02"},"vehicle_type_id":"4","last_reported":1745849481,"current_range_meters":15200,"station_id":"ce4bh112rcd13ifvqd90","pricing_plan_id":"cebpf4jnsgd1na2vs0mg"},{"bike_id":"d2661318-f83b-4bd7-a339-79d78b967530","system_id":"levelo_inurba_marseille","lat":43.29878,"lon":5.38902,"is_reserved":false,"is_disabled":false,"rental_uris":{"android":"levelo://app?vid=d2661318-f83b-4bd7-a339-79d78b967530","ios":"levelo://app?vid=d2661318-f83b-4bd7-a339-79d78b967530"},"vehicle_type_id":"4","last_reported":1745849481,"current_range_meters":14800,"station_id":"ce4bh392rcd13ifvqdl0","pricing_plan_id":"cebpf4jnsgd1na2vs0mg"},{"bike_id":"6b88ae52-4470-4609-9540-2ec7e9358c2c","system_id":"levelo_inurba_marseille","lat":43.23963,"lon":5.366321,"is_reserved":false,"is_disabled":false,"rental_uris":{"android":"levelo://app?vid=6b88ae52-4470-4609-9540-2ec7e9358c2c","ios":"levelo://app?vid=6b88ae52-4470-4609-9540-2ec7e9358c2c"},"vehicle_type_id":"4","last_reported":1745849481,"current_range_meters":15200,"station_id":"ce4bhi12rcd13ifvqfp0","pricing_plan_id":"cebpf4jnsgd1na2vs0mg"},{"bike_id":"045db907-8281-46fc-8ded-f9793ddf3b93","system_id":"levelo_inurba_marseille","lat":43.29266,"lon":5.37615,"is_reserved":false,"is_disabled":false,"rental_uris":{"android":"levelo://app?vid=045db907-8281-46fc-8ded-f9793ddf3b93","ios":"levelo://app?vid=045db907-8281-46fc-8ded-f9793ddf3b93"},"vehicle_type_id":"4","last_reported":1745849481,"current_range_meters":16000,"station_id":"ce4bgi12rcd13ifvqb80","pricing_plan_id":"cebpf4jnsgd1na2vs0mg"},{"bike_id":"97823f47-c3a9-42c6-b803-c26ad3415bd6","system_id":"levelo_inurba_marseille","lat":43.23151,"lon":5.4373,"is_reserved":false,"is_disabled":false,"rental_uris":{"android":"levelo://app?vid=97823f47-c3a9-42c6-b803-c26ad3415bd6","ios":"levelo://app?vid=97823f47-c3a9-42c6-b803-c26ad3415bd6"},"vehicle_type_id":"4","last_reported":1745849481,"current_range_meters":16000,"station_id":"ce4bhmp2rcd13ifvqgog","pricing_plan_id":"cebpf4jnsgd1na2vs0mg"},{"bike_id":"489dabad-8429-4f6d-aa1c-3aa43cd3ff4e","system_id":"levelo_inurba_marseille","lat":43.29005,"lon":5.3561,"is_reserved":false,"is_disabled":false,"rental_uris":{"android":"levelo://app?vid=489dabad-8429-4f6d-aa1c-3aa43cd3ff4e","ios":"levelo://app?vid=489dabad-8429-4f6d-aa1c-3aa43cd3ff4e"},"vehicle_type_id":"4","last_reported":1745849481,"current_range_meters":16000,"station_id":"ce4bhb92rcd13ifvqen0","pricing_plan_id":"cebpf4jnsgd1na2vs0mg"},{"bike_id":"be5faa1d-e896-438b-9774-d168add4afbc","system_id":"levelo_inurba_marseille","lat":43.29309,"lon":5.37157,"is_reserved":false,"is_disabled":false,"rental_uris":{"android":"levelo://app?vid=be5faa1d-e896-438b-9774-d168add4afbc","ios":"levelo://app?vid=be5faa1d-e896-438b-9774-d168add4afbc"},"vehicle_type_id":"4","last_reported":1745849481,"current_range_meters":15200,"station_id":"ce4bgh92rcd13ifvqb40","pricing_plan_id":"cebpf4jnsgd1na2vs0mg"},{"bike_id":"c0483c36-81ed-4873-9242-96b85d20d9fe","system_id":"levelo_inurba_marseille","lat":43.29847,"lon":5.36273,"is_reserved":false,"is_disabled":false,"rental_uris":{"android":"levelo://app?vid=c0483c36-81ed-4873-9242-96b85d20d9fe","ios":"levelo://app?vid=c0483c36-81ed-4873-9242-96b85d20d9fe"},"vehicle_type_id":"4","last_reported":1745849481,"current_range_meters":13600,"station_id":"ce4bgpp2rcd13ifvqc3g","pricing_plan_id":"cebpf4jnsgd1na2vs0mg"},{"bike_id":"28894e81-ede6-4351-84e3-e6b48081a345","system_id":"levelo_inurba_marseille","lat":43.33445,"lon":5.40054,"is_reserved":false,"is_disabled":false,"rental_uris":{"android":"levelo://app?vid=28894e81-ede6-4351-84e3-e6b48081a345","ios":"levelo://app?vid=28894e81-ede6-4351-84e3-e6b48081a345"},"vehicle_type_id":"4","last_reported":1745849481,"current_range_meters":16400,"station_id":"","pricing_plan_id":"cebpf4jnsgd1na2vs0mg"},{"bike_id":"64b4a0f6-eb4e-4a58-a49c-c2fdffc72cda","system_id":"levelo_inurba_marseille","lat":43.27579,"lon":5.38402,"is_reserved":false,"is_disabled":true,"rental_uris":{"android":"levelo://app?vid=64b4a0f6-eb4e-4a58-a49c-c2fdffc72cda","ios":"levelo://app?vid=64b4a0f6-eb4e-4a58-a49c-c2fdffc72cda"},"vehicle_type_id":"4","last_reported":1745849481,"current_range_meters":16400,"station_id":"ce4bhh92rcd13ifvqfi0","pricing_plan_id":"cebpf4jnsgd1na2vs0mg"},{"bike_id":"b3d7cca2-7d35-4030-8d40-4a8257616573","system_id":"levelo_inurba_marseille","lat":43.22504,"lon":5.347839,"is_reserved":false,"is_disabled":false,"rental_uris":{"android":"levelo://app?vid=b3d7cca2-7d35-4030-8d40-4a8257616573","ios":"levelo://app?vid=b3d7cca2-7d35-4030-8d40-4a8257616573"},"vehicle_type_id":"4","last_reported":1745849481,"current_range_meters":16400,"station_id":"","pricing_plan_id":"cebpf4jnsgd1na2vs0mg"},{"bike_id":"94edc1d1-f401-49af-8137-c47e9dd49e72","system_id":"levelo_inurba_marseille","lat":43.29557,"lon":5.42295,"is_reserved":false,"is_disabled":false,"rental_uris":{"android":"levelo://app?vid=94edc1d1-f401-49af-8137-c47e9dd49e72","ios":"levelo://app?vid=94edc1d1-f401-49af-8137-c47e9dd49e72"},"vehicle_type_id":"4","last_reported":1745849481,"current_range_meters":16000,"station_id":"ce4bhph2rcd13ifvqhdg","pricing_plan_id":"cebpf4jnsgd1na2vs0mg"},{"bike_id":"889daee8-5523-4db5-baa0-435695d9ff7a","system_id":"levelo_inurba_marseille","lat":43.30542,"lon":5.367,"is_reserved":false,"is_disabled":false,"rental_uris":{"android":"levelo://app?vid=889daee8-5523-4db5-baa0-435695d9ff7a","ios":"levelo://app?vid=889daee8-5523-4db5-baa0-435695d9ff7a"},"vehicle_type_id":"4","last_reported":1745849481,"current_range_meters":16400,"station_id":"ce4bgrp2rcd13ifvqc9g","pricing_plan_id":"cebpf4jnsgd1na2vs0mg"},{"bike_id":"29cc6b36-65a2-4157-a9c9-013bddb90a4e","system_id":"levelo_inurba_marseille","lat":43.31376,"lon":5.36724,"is_reserved":false,"is_disabled":false,"rental_uris":{"android":"levelo://app?vid=29cc6b36-65a2-4157-a9c9-013bddb90a4e","ios":"levelo://app?vid=29cc6b36-65a2-4157-a9c9-013bddb90a4e"},"vehicle_type_id":"4","last_reported":1745849481,"current_range_meters":16400,"station_id":"ce4bgr92rcd13ifvqc6g","pricing_plan_id":"cebpf4jnsgd1na2vs0mg"},{"bike_id":"881c41ad-cfa9-4f4c-921a-958c8a967ac1","system_id":"levelo_inurba_marseille","lat":43.3014,"lon":5.3808,"is_reserved":false,"is_disabled":false,"rental_uris":{"android":"levelo://app?vid=881c41ad-cfa9-4f4c-921a-958c8a967ac1","ios":"levelo://app?vid=881c41ad-cfa9-4f4c-921a-958c8a967ac1"},"vehicle_type_id":"4","last_reported":1745849481,"current_range_meters":16000,"station_id":"ce4bgjp2rcd13ifvqbh0","pricing_plan_id":"cebpf4jnsgd1na2vs0mg"},{"bike_id":"2dbe538f-273c-4102-865c-600e053f4cb5","system_id":"levelo_inurba_marseille","lat":43.24803,"lon":5.37454,"is_reserved":false,"is_disabled":false,"rental_uris":{"android":"levelo://app?vid=2dbe538f-273c-4102-865c-600e053f4cb5","ios":"levelo://app?vid=2dbe538f-273c-4102-865c-600e053f4cb5"},"vehicle_type_id":"4","last_reported":1745849481,"current_range_meters":16000,"station_id":"ce4bhgh2rcd13ifvqfb0","pricing_plan_id":"cebpf4jnsgd1na2vs0mg"},{"bike_id":"fa108a8e-5723-4a55-a723-75bf5ec12f2d","system_id":"levelo_inurba_marseille","lat":43.26799,"lon":5.39419,"is_reserved":false,"is_disabled":false,"rental_uris":{"android":"levelo://app?vid=fa108a8e-5723-4a55-a723-75bf5ec12f2d","ios":"levelo://app?vid=fa108a8e-5723-4a55-a723-75bf5ec12f2d"},"vehicle_type_id":"4","last_reported":1745849481,"current_range_meters":16000,"station_id":"ce4bhh12rcd13ifvqfg0","pricing_plan_id":"cebpf4jnsgd1na2vs0mg"},{"bike_id":"b8390791-02ea-47cc-bfda-3bd1ffc50030","system_id":"levelo_inurba_marseille","lat":43.2593,"lon":5.40899,"is_reserved":false,"is_disabled":false,"rental_uris":{"android":"levelo://app?vid=b8390791-02ea-47cc-bfda-3bd1ffc50030","ios":"levelo://app?vid=b8390791-02ea-47cc-bfda-3bd1ffc50030"},"vehicle_type_id":"4","last_reported":1745849481,"current_range_meters":16400,"station_id":"ce4bhm92rcd13ifvqglg","pricing_plan_id":"cebpf4jnsgd1na2vs0mg"},{"bike_id":"9dec3612-ac91-4cd9-a8d7-bd8071b5f29c","system_id":"levelo_inurba_marseille","lat":43.24183,"lon":5.39731,"is_reserved":false,"is_disabled":false,"rental_uris":{"android":"levelo://app?vid=9dec3612-ac91-4cd9-a8d7-bd8071b5f29c","ios":"levelo://app?vid=9dec3612-ac91-4cd9-a8d7-bd8071b5f29c"},"vehicle_type_id":"4","last_reported":1745849481,"current_range_meters":16400,"station_id":"ce4bhn12rcd13ifvqgpg","pricing_plan_id":"cebpf4jnsgd1na2vs0mg"},{"bike_id":"a834a79b-269b-4bde-ab24-91531761647f","system_id":"levelo_inurba_marseille","lat":43.29957,"lon":5.41328,"is_reserved":false,"is_disabled":false,"rental_uris":{"android":"levelo://app?vid=a834a79b-269b-4bde-ab24-91531761647f","ios":"levelo://app?vid=a834a79b-269b-4bde-ab24-91531761647f"},"vehicle_type_id":"4","last_reported":1745849481,"current_range_meters":16400,"station_id":"ce4bhp12rcd13ifvqh9g","pricing_plan_id":"cebpf4jnsgd1na2vs0mg"},{"bike_id":"e778be02-e3d7-4d94-b255-ddc4fc5d0209","system_id":"levelo_inurba_marseille","lat":43.28279,"lon":5.37411,"is_reserved":false,"is_disabled":false,"rental_uris":{"android":"levelo://app?vid=e778be02-e3d7-4d94-b255-ddc4fc5d0209","ios":"levelo://app?vid=e778be02-e3d7-4d94-b255-ddc4fc5d0209"},"vehicle_type_id":"4","last_reported":1745849481,"current_range_meters":16400,"station_id":"","pricing_plan_id":"cebpf4jnsgd1na2vs0mg"},{"bike_id":"7900363d-acd6-421f-ab01-571b036f47f2","system_id":"levelo_inurba_marseille","lat":43.301536,"lon":5.380793,"is_reserved":false,"is_disabled":false,"rental_uris":{"android":"levelo://app?vid=7900363d-acd6-421f-ab01-571b036f47f2","ios":"levelo://app?vid=7900363d-acd6-421f-ab01-571b036f47f2"},"vehicle_type_id":"4","last_reported":1745849481,"current_range_meters":16400,"station_id":"ce4bgjp2rcd13ifvqbh0","pricing_plan_id":"cebpf4jnsgd1na2vs0mg"},{"bike_id":"1c71dd62-5c1a-42e0-8da7-81eceebfb73e","system_id":"levelo_inurba_marseille","lat":43.21194,"lon":5.3507,"is_reserved":false,"is_disabled":false,"rental_uris":{"android":"levelo://app?vid=1c71dd62-5c1a-42e0-8da7-81eceebfb73e","ios":"levelo://app?vid=1c71dd62-5c1a-42e0-8da7-81eceebfb73e"},"vehicle_type_id":"4","last_reported":1745849481,"current_range_meters":16800,"station_id":"st_cvj6sg6p6f1abm77japg","pricing_plan_id":"cebpf4jnsgd1na2vs0mg"},{"bike_id":"923f8501-7d40-44db-85bf-a51b2ea797ac","system_id":"levelo_inurba_marseille","lat":43.26949,"lon":5.40289,"is_reserved":false,"is_disabled":true,"rental_uris":{"android":"levelo://app?vid=923f8501-7d40-44db-85bf-a51b2ea797ac","ios":"levelo://app?vid=923f8501-7d40-44db-85bf-a51b2ea797ac"},"vehicle_type_id":"4","last_reported":1745849481,"current_range_meters":16800,"station_id":"cjm6bp8fraef2m0cb0m0","pricing_plan_id":"cebpf4jnsgd1na2vs0mg"},{"bike_id":"9f6a75f5-b970-4a7f-b19c-5a22d1d8d28c","system_id":"levelo_inurba_marseille","lat":43.32541,"lon":5.41448,"is_reserved":false,"is_disabled":false,"rental_uris":{"android":"levelo://app?vid=9f6a75f5-b970-4a7f-b19c-5a22d1d8d28c","ios":"levelo://app?vid=9f6a75f5-b970-4a7f-b19c-5a22d1d8d28c"},"vehicle_type_id":"4","last_reported":1745849481,"current_range_meters":16800,"station_id":"ce4bhq12rcd13ifvqhhg","pricing_plan_id":"cebpf4jnsgd1na2vs0mg"},{"bike_id":"bd4dab1c-8291-4d65-9231-6b3450f4eeb7","system_id":"levelo_inurba_marseille","lat":43.29597,"lon":5.36731,"is_reserved":false,"is_disabled":false,"rental_uris":{"android":"levelo://app?vid=bd4dab1c-8291-4d65-9231-6b3450f4eeb7","ios":"levelo://app?vid=bd4dab1c-8291-4d65-9231-6b3450f4eeb7"},"vehicle_type_id":"4","last_reported":1745849481,"current_range_meters":16800,"station_id":"ce4bgph2rcd13ifvqc2g","pricing_plan_id":"cebpf4jnsgd1na2vs0mg"},{"bike_id":"2e74a1da-242a-4085-8dd5-9828433fe9f0","system_id":"levelo_inurba_marseille","lat":43.24403,"lon":5.37056,"is_reserved":false,"is_disabled":false,"rental_uris":{"android":"levelo://app?vid=2e74a1da-242a-4085-8dd5-9828433fe9f0","ios":"levelo://app?vid=2e74a1da-242a-4085-8dd5-9828433fe9f0"},"vehicle_type_id":"4","last_reported":1745849481,"current_range_meters":17600,"station_id":"ce4bhhh2rcd13ifvqfk0","pricing_plan_id":"cebpf4jnsgd1na2vs0mg"},{"bike_id":"a640b5aa-9396-4827-8f57-dd7ffd2f1a84","system_id":"levelo_inurba_marseille","lat":43.29789,"lon":5.38103,"is_reserved":false,"is_disabled":true,"rental_uris":{"android":"levelo://app?vid=a640b5aa-9396-4827-8f57-dd7ffd2f1a84","ios":"levelo://app?vid=a640b5aa-9396-4827-8f57-dd7ffd2f1a84"},"vehicle_type_id":"4","last_reported":1745849481,"current_range_meters":17200,"station_id":"ce4bgip2rcd13ifvqbb0","pricing_plan_id":"cebpf4jnsgd1na2vs0mg"},{"bike_id":"5d12ee4a-52f1-4f1a-af38-ad7a19a5a489","system_id":"levelo_inurba_marseille","lat":43.30552,"lon":5.36526,"is_reserved":false,"is_disabled":true,"rental_uris":{"android":"levelo://app?vid=5d12ee4a-52f1-4f1a-af38-ad7a19a5a489","ios":"levelo://app?vid=5d12ee4a-52f1-4f1a-af38-ad7a19a5a489"},"vehicle_type_id":"4","last_reported":1745849481,"current_range_meters":17200,"station_id":"ce4bgs12rcd13ifvqcag","pricing_plan_id":"cebpf4jnsgd1na2vs0mg"},{"bike_id":"60b96ab5-8471-40cc-b854-7593675f1e6a","system_id":"levelo_inurba_marseille","lat":43.25916,"lon":5.40882,"is_reserved":false,"is_disabled":false,"rental_uris":{"android":"levelo://app?vid=60b96ab5-8471-40cc-b854-7593675f1e6a","ios":"levelo://app?vid=60b96ab5-8471-40cc-b854-7593675f1e6a"},"vehicle_type_id":"4","last_reported":1745849481,"current_range_meters":17200,"station_id":"ce4bhm92rcd13ifvqglg","pricing_plan_id":"cebpf4jnsgd1na2vs0mg"},{"bike_id":"9691f481-2e04-4dbd-8eeb-62e0fa37616c","system_id":"levelo_inurba_marseille","lat":43.25914,"lon":5.40909,"is_reserved":false,"is_disabled":false,"rental_uris":{"android":"levelo://app?vid=9691f481-2e04-4dbd-8eeb-62e0fa37616c","ios":"levelo://app?vid=9691f481-2e04-4dbd-8eeb-62e0fa37616c"},"vehicle_type_id":"4","last_reported":1745849481,"current_range_meters":17200,"station_id":"ce4bhm92rcd13ifvqglg","pricing_plan_id":"cebpf4jnsgd1na2vs0mg"},{"bike_id":"bf9e1390-c081-4182-b4a0-95ee125720e7","system_id":"levelo_inurba_marseille","lat":43.31499,"lon":5.37316,"is_reserved":false,"is_disabled":false,"rental_uris":{"android":"levelo://app?vid=bf9e1390-c081-4182-b4a0-95ee125720e7","ios":"levelo://app?vid=bf9e1390-c081-4182-b4a0-95ee125720e7"},"vehicle_type_id":"4","last_reported":1745849481,"current_range_meters":17200,"station_id":"ce4bgt12rcd13ifvqcd0","pricing_plan_id":"cebpf4jnsgd1na2vs0mg"},{"bike_id":"489415b8-9254-45c1-b00c-e7554d56755c","system_id":"levelo_inurba_marseille","lat":43.24519,"lon":5.41214,"is_reserved":false,"is_disabled":false,"rental_uris":{"android":"levelo://app?vid=489415b8-9254-45c1-b00c-e7554d56755c","ios":"levelo://app?vid=489415b8-9254-45c1-b00c-e7554d56755c"},"vehicle_type_id":"4","last_reported":1745849481,"current_range_meters":17600,"station_id":"","pricing_plan_id":"cebpf4jnsgd1na2vs0mg"},{"bike_id":"0b824f63-ca49-429d-aeba-29c8eb5b0254","system_id":"levelo_inurba_marseille","lat":43.28419,"lon":5.34988,"is_reserved":false,"is_disabled":false,"rental_uris":{"android":"levelo://app?vid=0b824f63-ca49-429d-aeba-29c8eb5b0254","ios":"levelo://app?vid=0b824f63-ca49-429d-aeba-29c8eb5b0254"},"vehicle_type_id":"4","last_reported":1745849481,"current_range_meters":17600,"station_id":"ce4bhbh2rcd13ifvqepg","pricing_plan_id":"cebpf4jnsgd1na2vs0mg"},{"bike_id":"888538ce-4dc3-4f2e-8404-8ea4d633e1aa","system_id":"levelo_inurba_marseille","lat":43.26183,"lon":5.37448,"is_reserved":false,"is_disabled":true,"rental_uris":{"android":"levelo://app?vid=888538ce-4dc3-4f2e-8404-8ea4d633e1aa","ios":"levelo://app?vid=888538ce-4dc3-4f2e-8404-8ea4d633e1aa"},"vehicle_type_id":"4","last_reported":1745849481,"current_range_meters":17600,"station_id":"ce4bhgp2rcd13ifvqfc0","pricing_plan_id":"cebpf4jnsgd1na2vs0mg"},{"bike_id":"b79ad8b3-c47d-4ab9-bd7d-ce8dba96fd7a","system_id":"levelo_inurba_marseille","lat":43.23964,"lon":5.36628,"is_reserved":false,"is_disabled":false,"rental_uris":{"android":"levelo://app?vid=b79ad8b3-c47d-4ab9-bd7d-ce8dba96fd7a","ios":"levelo://app?vid=b79ad8b3-c47d-4ab9-bd7d-ce8dba96fd7a"},"vehicle_type_id":"4","last_reported":1745849481,"current_range_meters":17600,"station_id":"ce4bhi12rcd13ifvqfp0","pricing_plan_id":"cebpf4jnsgd1na2vs0mg"},{"bike_id":"bb10215f-ef4f-4480-bc47-7a58d94b5431","system_id":"levelo_inurba_marseille","lat":43.2558,"lon":5.38236,"is_reserved":false,"is_disabled":false,"rental_uris":{"android":"levelo://app?vid=bb10215f-ef4f-4480-bc47-7a58d94b5431","ios":"levelo://app?vid=bb10215f-ef4f-4480-bc47-7a58d94b5431"},"vehicle_type_id":"4","last_reported":1745849481,"current_range_meters":17600,"station_id":"ce4bhih2rcd13ifvqfs0","pricing_plan_id":"cebpf4jnsgd1na2vs0mg"},{"bike_id":"69eab5e9-eb1d-46be-a01d-c81f5554a6c0","system_id":"levelo_inurba_marseille","lat":43.21746,"lon":5.34596,"is_reserved":false,"is_disabled":false,"rental_uris":{"android":"levelo://app?vid=69eab5e9-eb1d-46be-a01d-c81f5554a6c0","ios":"levelo://app?vid=69eab5e9-eb1d-46be-a01d-c81f5554a6c0"},"vehicle_type_id":"4","last_reported":1745849481,"current_range_meters":18000,"station_id":"st_cvj6r9ubvosntc0bgbag","pricing_plan_id":"cebpf4jnsgd1na2vs0mg"},{"bike_id":"0f41dbe6-9ef4-4153-90ca-923a363cd5be","system_id":"levelo_inurba_marseille","lat":43.2315,"lon":5.43712,"is_reserved":false,"is_disabled":false,"rental_uris":{"android":"levelo://app?vid=0f41dbe6-9ef4-4153-90ca-923a363cd5be","ios":"levelo://app?vid=0f41dbe6-9ef4-4153-90ca-923a363cd5be"},"vehicle_type_id":"4","last_reported":1745849481,"current_range_meters":18000,"station_id":"ce4bhmp2rcd13ifvqgog","pricing_plan_id":"cebpf4jnsgd1na2vs0mg"},{"bike_id":"936b59f1-ca75-4ac4-be2c-d8e4e120b82d","system_id":"levelo_inurba_marseille","lat":43.27614,"lon":5.36107,"is_reserved":false,"is_disabled":false,"rental_uris":{"android":"levelo://app?vid=936b59f1-ca75-4ac4-be2c-d8e4e120b82d","ios":"levelo://app?vid=936b59f1-ca75-4ac4-be2c-d8e4e120b82d"},"vehicle_type_id":"4","last_reported":1745849481,"current_range_meters":18000,"station_id":"ce4bgj92rcd13ifvqbe0","pricing_plan_id":"cebpf4jnsgd1na2vs0mg"},{"bike_id":"e03aa7d0-45db-42e6-811a-92a069b87ce5","system_id":"levelo_inurba_marseille","lat":43.28273,"lon":5.35082,"is_reserved":false,"is_disabled":false,"rental_uris":{"android":"levelo://app?vid=e03aa7d0-45db-42e6-811a-92a069b87ce5","ios":"levelo://app?vid=e03aa7d0-45db-42e6-811a-92a069b87ce5"},"vehicle_type_id":"4","last_reported":1745849481,"current_range_meters":18000,"station_id":"ce4bhbp2rcd13ifvqerg","pricing_plan_id":"cebpf4jnsgd1na2vs0mg"},{"bike_id":"8f38bf71-322f-4d23-b92c-449aa7b8a3ec","system_id":"levelo_inurba_marseille","lat":43.29593,"lon":5.3773,"is_reserved":false,"is_disabled":false,"rental_uris":{"android":"levelo://app?vid=8f38bf71-322f-4d23-b92c-449aa7b8a3ec","ios":"levelo://app?vid=8f38bf71-322f-4d23-b92c-449aa7b8a3ec"},"vehicle_type_id":"4","last_reported":1745849481,"current_range_meters":18000,"station_id":"ce4bgi92rcd13ifvqb90","pricing_plan_id":"cebpf4jnsgd1na2vs0mg"},{"bike_id":"518493f9-fddf-4022-94a1-0f16c4390faf","system_id":"levelo_inurba_marseille","lat":43.30893,"lon":5.37197,"is_reserved":false,"is_disabled":false,"rental_uris":{"android":"levelo://app?vid=518493f9-fddf-4022-94a1-0f16c4390faf","ios":"levelo://app?vid=518493f9-fddf-4022-94a1-0f16c4390faf"},"vehicle_type_id":"4","last_reported":1745849481,"current_range_meters":18000,"station_id":"ce4bguh2rcd13ifvqckg","pricing_plan_id":"cebpf4jnsgd1na2vs0mg"},{"bike_id":"76ad75ea-51bb-468b-839f-2579fe99a97d","system_id":"levelo_inurba_marseille","lat":43.25002,"lon":5.38918,"is_reserved":false,"is_disabled":false,"rental_uris":{"android":"levelo://app?vid=76ad75ea-51bb-468b-839f-2579fe99a97d","ios":"levelo://app?vid=76ad75ea-51bb-468b-839f-2579fe99a97d"},"vehicle_type_id":"4","last_reported":1745849481,"current_range_meters":18800,"station_id":"ce4bhgp2rcd13ifvqfd0","pricing_plan_id":"cebpf4jnsgd1na2vs0mg"},{"bike_id":"09927ac6-f7ff-4653-b090-b50f0349ce95","system_id":"levelo_inurba_marseille","lat":43.24804,"lon":5.3745,"is_reserved":false,"is_disabled":false,"rental_uris":{"android":"levelo://app?vid=09927ac6-f7ff-4653-b090-b50f0349ce95","ios":"levelo://app?vid=09927ac6-f7ff-4653-b090-b50f0349ce95"},"vehicle_type_id":"4","last_reported":1745849481,"current_range_meters":18800,"station_id":"ce4bhgh2rcd13ifvqfb0","pricing_plan_id":"cebpf4jnsgd1na2vs0mg"},{"bike_id":"2e301011-885b-4cd7-89c6-b074eaf40bae","system_id":"levelo_inurba_marseille","lat":43.31488,"lon":5.37309,"is_reserved":false,"is_disabled":false,"rental_uris":{"android":"levelo://app?vid=2e301011-885b-4cd7-89c6-b074eaf40bae","ios":"levelo://app?vid=2e301011-885b-4cd7-89c6-b074eaf40bae"},"vehicle_type_id":"4","last_reported":1745849481,"current_range_meters":18000,"station_id":"ce4bgt12rcd13ifvqcd0","pricing_plan_id":"cebpf4jnsgd1na2vs0mg"},{"bike_id":"48747f2c-ac87-4220-a619-fbe93a78397e","system_id":"levelo_inurba_marseille","lat":43.3204,"lon":5.4157,"is_reserved":false,"is_disabled":false,"rental_uris":{"android":"levelo://app?vid=48747f2c-ac87-4220-a619-fbe93a78397e","ios":"levelo://app?vid=48747f2c-ac87-4220-a619-fbe93a78397e"},"vehicle_type_id":"4","last_reported":1745849481,"current_range_meters":19200,"station_id":"ce4bhq92rcd13ifvqhkg","pricing_plan_id":"cebpf4jnsgd1na2vs0mg"},{"bike_id":"70fbc956-14ce-4f94-8c06-1dcde704840a","system_id":"levelo_inurba_marseille","lat":43.2767,"lon":5.38876,"is_reserved":false,"is_disabled":true,"rental_uris":{"android":"levelo://app?vid=70fbc956-14ce-4f94-8c06-1dcde704840a","ios":"levelo://app?vid=70fbc956-14ce-4f94-8c06-1dcde704840a"},"vehicle_type_id":"4","last_reported":1745849481,"current_range_meters":19200,"station_id":"ce4bhi12rcd13ifvqfo0","pricing_plan_id":"cebpf4jnsgd1na2vs0mg"},{"bike_id":"7a606858-c276-4eeb-b2b1-6db27b5668c7","system_id":"levelo_inurba_marseille","lat":43.29264,"lon":5.37612,"is_reserved":false,"is_disabled":false,"rental_uris":{"android":"levelo://app?vid=7a606858-c276-4eeb-b2b1-6db27b5668c7","ios":"levelo://app?vid=7a606858-c276-4eeb-b2b1-6db27b5668c7"},"vehicle_type_id":"4","last_reported":1745849481,"current_range_meters":19200,"station_id":"ce4bgi12rcd13ifvqb80","pricing_plan_id":"cebpf4jnsgd1na2vs0mg"},{"bike_id":"6e333ce8-ce5e-4c79-8428-269542536272","system_id":"levelo_inurba_marseille","lat":43.29602,"lon":5.38102,"is_reserved":false,"is_disabled":false,"rental_uris":{"android":"levelo://app?vid=6e333ce8-ce5e-4c79-8428-269542536272","ios":"levelo://app?vid=6e333ce8-ce5e-4c79-8428-269542536272"},"vehicle_type_id":"4","last_reported":1745849481,"current_range_meters":19200,"station_id":"ce4bgl12rcd13ifvqbo0","pricing_plan_id":"cebpf4jnsgd1na2vs0mg"},{"bike_id":"22a650e2-af69-41e5-9501-328ced12ea90","system_id":"levelo_inurba_marseille","lat":43.27661,"lon":5.42218,"is_reserved":false,"is_disabled":false,"rental_uris":{"android":"levelo://app?vid=22a650e2-af69-41e5-9501-328ced12ea90","ios":"levelo://app?vid=22a650e2-af69-41e5-9501-328ced12ea90"},"vehicle_type_id":"4","last_reported":1745849481,"current_range_meters":19200,"station_id":"","pricing_plan_id":"cebpf4jnsgd1na2vs0mg"},{"bike_id":"e1462f48-b3fe-479d-81db-623a3deac2c1","system_id":"levelo_inurba_marseille","lat":43.3054,"lon":5.36721,"is_reserved":false,"is_disabled":false,"rental_uris":{"android":"levelo://app?vid=e1462f48-b3fe-479d-81db-623a3deac2c1","ios":"levelo://app?vid=e1462f48-b3fe-479d-81db-623a3deac2c1"},"vehicle_type_id":"4","last_reported":1745849481,"current_range_meters":17600,"station_id":"ce4bgrp2rcd13ifvqc9g","pricing_plan_id":"cebpf4jnsgd1na2vs0mg"},{"bike_id":"a990f424-b727-4c59-a50a-2df309014924","system_id":"levelo_inurba_marseille","lat":43.32114,"lon":5.3682,"is_reserved":false,"is_disabled":false,"rental_uris":{"android":"levelo://app?vid=a990f424-b727-4c59-a50a-2df309014924","ios":"levelo://app?vid=a990f424-b727-4c59-a50a-2df309014924"},"vehicle_type_id":"4","last_reported":1745849481,"current_range_meters":19200,"station_id":"ce4bhrh2rcd13ifvqhug","pricing_plan_id":"cebpf4jnsgd1na2vs0mg"},{"bike_id":"ab566342-f92c-435a-a238-04939b89345b","system_id":"levelo_inurba_marseille","lat":43.29617,"lon":5.38121,"is_reserved":false,"is_disabled":false,"rental_uris":{"android":"levelo://app?vid=ab566342-f92c-435a-a238-04939b89345b","ios":"levelo://app?vid=ab566342-f92c-435a-a238-04939b89345b"},"vehicle_type_id":"4","last_reported":1745849481,"current_range_meters":19200,"station_id":"ce4bgl12rcd13ifvqbo0","pricing_plan_id":"cebpf4jnsgd1na2vs0mg"},{"bike_id":"b3d16239-8841-4ab6-9846-2a9d8d4cec90","system_id":"levelo_inurba_marseille","lat":43.32367,"lon":5.3888,"is_reserved":false,"is_disabled":false,"rental_uris":{"android":"levelo://app?vid=b3d16239-8841-4ab6-9846-2a9d8d4cec90","ios":"levelo://app?vid=b3d16239-8841-4ab6-9846-2a9d8d4cec90"},"vehicle_type_id":"4","last_reported":1745849481,"current_range_meters":19200,"station_id":"ce4bhqp2rcd13ifvqhog","pricing_plan_id":"cebpf4jnsgd1na2vs0mg"},{"bike_id":"3252def0-1533-48bb-99c6-33a6747f7b85","system_id":"levelo_inurba_marseille","lat":43.23192,"lon":5.35548,"is_reserved":false,"is_disabled":false,"rental_uris":{"android":"levelo://app?vid=3252def0-1533-48bb-99c6-33a6747f7b85","ios":"levelo://app?vid=3252def0-1533-48bb-99c6-33a6747f7b85"},"vehicle_type_id":"4","last_reported":1745849481,"current_range_meters":19600,"station_id":"ce4bhu92rcd13ifvqi70","pricing_plan_id":"cebpf4jnsgd1na2vs0mg"},{"bike_id":"f464b6ed-d70c-40df-939b-591c2f9e6d6f","system_id":"levelo_inurba_marseille","lat":43.305427,"lon":5.365383,"is_reserved":false,"is_disabled":true,"rental_uris":{"android":"levelo://app?vid=f464b6ed-d70c-40df-939b-591c2f9e6d6f","ios":"levelo://app?vid=f464b6ed-d70c-40df-939b-591c2f9e6d6f"},"vehicle_type_id":"4","last_reported":1745849481,"current_range_meters":19600,"station_id":"ce4bgs12rcd13ifvqcag","pricing_plan_id":"cebpf4jnsgd1na2vs0mg"},{"bike_id":"308a7973-f017-4474-a10f-28a885ad65ca","system_id":"levelo_inurba_marseille","lat":43.29185,"lon":5.39309,"is_reserved":false,"is_disabled":false,"rental_uris":{"android":"levelo://app?vid=308a7973-f017-4474-a10f-28a885ad65ca","ios":"levelo://app?vid=308a7973-f017-4474-a10f-28a885ad65ca"},"vehicle_type_id":"4","last_reported":1745849481,"current_range_meters":19600,"station_id":"ce4bh192rcd13ifvqdd0","pricing_plan_id":"cebpf4jnsgd1na2vs0mg"},{"bike_id":"f1987611-a520-442e-9543-7c116d8592b1","system_id":"levelo_inurba_marseille","lat":43.31077,"lon":5.38364,"is_reserved":false,"is_disabled":false,"rental_uris":{"android":"levelo://app?vid=f1987611-a520-442e-9543-7c116d8592b1","ios":"levelo://app?vid=f1987611-a520-442e-9543-7c116d8592b1"},"vehicle_type_id":"4","last_reported":1745849481,"current_range_meters":20000,"station_id":"ce4bgv92rcd13ifvqcr0","pricing_plan_id":"cebpf4jnsgd1na2vs0mg"},{"bike_id":"8ccab929-cb10-4ce7-be06-85145ffed2c4","system_id":"levelo_inurba_marseille","lat":43.27621,"lon":5.36104,"is_reserved":false,"is_disabled":false,"rental_uris":{"android":"levelo://app?vid=8ccab929-cb10-4ce7-be06-85145ffed2c4","ios":"levelo://app?vid=8ccab929-cb10-4ce7-be06-85145ffed2c4"},"vehicle_type_id":"4","last_reported":1745849481,"current_range_meters":19600,"station_id":"ce4bgj92rcd13ifvqbe0","pricing_plan_id":"cebpf4jnsgd1na2vs0mg"},{"bike_id":"4af51217-75a6-4c5f-a87f-075edc6510b0","system_id":"levelo_inurba_marseille","lat":43.24196,"lon":5.39746,"is_reserved":false,"is_disabled":false,"rental_uris":{"android":"levelo://app?vid=4af51217-75a6-4c5f-a87f-075edc6510b0","ios":"levelo://app?vid=4af51217-75a6-4c5f-a87f-075edc6510b0"},"vehicle_type_id":"4","last_reported":1745849481,"current_range_meters":20000,"station_id":"ce4bhn12rcd13ifvqgpg","pricing_plan_id":"cebpf4jnsgd1na2vs0mg"},{"bike_id":"fe91386c-5c8b-4e97-8441-1312e6455598","system_id":"levelo_inurba_marseille","lat":43.27369,"lon":5.36249,"is_reserved":false,"is_disabled":false,"rental_uris":{"android":"levelo://app?vid=fe91386c-5c8b-4e97-8441-1312e6455598","ios":"levelo://app?vid=fe91386c-5c8b-4e97-8441-1312e6455598"},"vehicle_type_id":"4","last_reported":1745849481,"current_range_meters":20000,"station_id":"ce4bhbh2rcd13ifvqeo0","pricing_plan_id":"cebpf4jnsgd1na2vs0mg"},{"bike_id":"869d9eb0-5ef3-4e3a-9647-5238f03c26fc","system_id":"levelo_inurba_marseille","lat":43.2706,"lon":5.4028,"is_reserved":false,"is_disabled":false,"rental_uris":{"android":"levelo://app?vid=869d9eb0-5ef3-4e3a-9647-5238f03c26fc","ios":"levelo://app?vid=869d9eb0-5ef3-4e3a-9647-5238f03c26fc"},"vehicle_type_id":"4","last_reported":1745849481,"current_range_meters":20000,"station_id":"ce4bhk92rcd13ifvqgc0","pricing_plan_id":"cebpf4jnsgd1na2vs0mg"},{"bike_id":"4fbdfb61-97f3-4bd2-b888-b66744bc6e97","system_id":"levelo_inurba_marseille","lat":43.30512,"lon":5.36687,"is_reserved":false,"is_disabled":false,"rental_uris":{"android":"levelo://app?vid=4fbdfb61-97f3-4bd2-b888-b66744bc6e97","ios":"levelo://app?vid=4fbdfb61-97f3-4bd2-b888-b66744bc6e97"},"vehicle_type_id":"4","last_reported":1745849481,"current_range_meters":20400,"station_id":"ce4bgrp2rcd13ifvqc9g","pricing_plan_id":"cebpf4jnsgd1na2vs0mg"},{"bike_id":"50f9274f-5a54-41dc-a336-0f4333b43447","system_id":"levelo_inurba_marseille","lat":43.24184,"lon":5.39737,"is_reserved":false,"is_disabled":false,"rental_uris":{"android":"levelo://app?vid=50f9274f-5a54-41dc-a336-0f4333b43447","ios":"levelo://app?vid=50f9274f-5a54-41dc-a336-0f4333b43447"},"vehicle_type_id":"4","last_reported":1745849481,"current_range_meters":20400,"station_id":"ce4bhn12rcd13ifvqgpg","pricing_plan_id":"cebpf4jnsgd1na2vs0mg"},{"bike_id":"3fbeeb44-8613-4e55-82da-882899edc716","system_id":"levelo_inurba_marseille","lat":43.28267,"lon":5.35063,"is_reserved":false,"is_disabled":false,"rental_uris":{"android":"levelo://app?vid=3fbeeb44-8613-4e55-82da-882899edc716","ios":"levelo://app?vid=3fbeeb44-8613-4e55-82da-882899edc716"},"vehicle_type_id":"4","last_reported":1745849481,"current_range_meters":20400,"station_id":"ce4bhbp2rcd13ifvqerg","pricing_plan_id":"cebpf4jnsgd1na2vs0mg"},{"bike_id":"87273ae8-845b-4246-be8a-bd857d50de7e","system_id":"levelo_inurba_marseille","lat":43.30791,"lon":5.37643,"is_reserved":false,"is_disabled":false,"rental_uris":{"android":"levelo://app?vid=87273ae8-845b-4246-be8a-bd857d50de7e","ios":"levelo://app?vid=87273ae8-845b-4246-be8a-bd857d50de7e"},"vehicle_type_id":"4","last_reported":1745849481,"current_range_meters":20000,"station_id":"ce4bgv92rcd13ifvqcq0","pricing_plan_id":"cebpf4jnsgd1na2vs0mg"},{"bike_id":"9048a988-1cb8-4aa3-ab23-aeb571c1efe3","system_id":"levelo_inurba_marseille","lat":43.24154,"lon":5.36406,"is_reserved":false,"is_disabled":false,"rental_uris":{"android":"levelo://app?vid=9048a988-1cb8-4aa3-ab23-aeb571c1efe3","ios":"levelo://app?vid=9048a988-1cb8-4aa3-ab23-aeb571c1efe3"},"vehicle_type_id":"4","last_reported":1745849481,"current_range_meters":20400,"station_id":"cpo36qri1sfpv3e86is0","pricing_plan_id":"cebpf4jnsgd1na2vs0mg"},{"bike_id":"80a11839-0ba9-4b42-93e4-8b30d7bd688c","system_id":"levelo_inurba_marseille","lat":43.29277,"lon":5.40114,"is_reserved":false,"is_disabled":false,"rental_uris":{"android":"levelo://app?vid=80a11839-0ba9-4b42-93e4-8b30d7bd688c","ios":"levelo://app?vid=80a11839-0ba9-4b42-93e4-8b30d7bd688c"},"vehicle_type_id":"4","last_reported":1745849481,"current_range_meters":20400,"station_id":"ce4bh312rcd13ifvqdk0","pricing_plan_id":"cebpf4jnsgd1na2vs0mg"},{"bike_id":"906537d2-1566-4577-b1e8-ee76cc196c35","system_id":"levelo_inurba_marseille","lat":43.30636,"lon":5.400843,"is_reserved":false,"is_disabled":false,"rental_uris":{"android":"levelo://app?vid=906537d2-1566-4577-b1e8-ee76cc196c35","ios":"levelo://app?vid=906537d2-1566-4577-b1e8-ee76cc196c35"},"vehicle_type_id":"4","last_reported":1745849481,"current_range_meters":20000,"station_id":"ce4bh112rcd13ifvqda0","pricing_plan_id":"cebpf4jnsgd1na2vs0mg"},{"bike_id":"9b7fa801-33a3-48fa-87a5-cbb600cc51bc","system_id":"levelo_inurba_marseille","lat":43.30534,"lon":5.36553,"is_reserved":false,"is_disabled":false,"rental_uris":{"android":"levelo://app?vid=9b7fa801-33a3-48fa-87a5-cbb600cc51bc","ios":"levelo://app?vid=9b7fa801-33a3-48fa-87a5-cbb600cc51bc"},"vehicle_type_id":"4","last_reported":1745849481,"current_range_meters":20800,"station_id":"ce4bgs12rcd13ifvqcag","pricing_plan_id":"cebpf4jnsgd1na2vs0mg"},{"bike_id":"26e07c0a-ed0e-45f4-8e44-86bb188c75a2","system_id":"levelo_inurba_marseille","lat":43.28468,"lon":5.38417,"is_reserved":false,"is_disabled":false,"rental_uris":{"android":"levelo://app?vid=26e07c0a-ed0e-45f4-8e44-86bb188c75a2","ios":"levelo://app?vid=26e07c0a-ed0e-45f4-8e44-86bb188c75a2"},"vehicle_type_id":"4","last_reported":1745849481,"current_range_meters":20800,"station_id":"ce4bh512rcd13ifvqe3g","pricing_plan_id":"cebpf4jnsgd1na2vs0mg"},{"bike_id":"199f37c9-a0cb-44ca-885c-0a9eb308e4ce","system_id":"levelo_inurba_marseille","lat":43.29601,"lon":5.38101,"is_reserved":false,"is_disabled":false,"rental_uris":{"android":"levelo://app?vid=199f37c9-a0cb-44ca-885c-0a9eb308e4ce","ios":"levelo://app?vid=199f37c9-a0cb-44ca-885c-0a9eb308e4ce"},"vehicle_type_id":"4","last_reported":1745849481,"current_range_meters":20800,"station_id":"ce4bgl12rcd13ifvqbo0","pricing_plan_id":"cebpf4jnsgd1na2vs0mg"},{"bike_id":"310bb477-a970-4673-afeb-91763474ba72","system_id":"levelo_inurba_marseille","lat":43.30898,"lon":5.36844,"is_reserved":false,"is_disabled":false,"rental_uris":{"android":"levelo://app?vid=310bb477-a970-4673-afeb-91763474ba72","ios":"levelo://app?vid=310bb477-a970-4673-afeb-91763474ba72"},"vehicle_type_id":"4","last_reported":1745849481,"current_range_meters":20800,"station_id":"ce4bgn92rcd13ifvqbvg","pricing_plan_id":"cebpf4jnsgd1na2vs0mg"},{"bike_id":"99f7a8b8-cde2-4960-9c60-756a6bcbd042","system_id":"levelo_inurba_marseille","lat":43.28273,"lon":5.3507,"is_reserved":false,"is_disabled":false,"rental_uris":{"android":"levelo://app?vid=99f7a8b8-cde2-4960-9c60-756a6bcbd042","ios":"levelo://app?vid=99f7a8b8-cde2-4960-9c60-756a6bcbd042"},"vehicle_type_id":"4","last_reported":1745849481,"current_range_meters":20800,"station_id":"ce4bhbp2rcd13ifvqerg","pricing_plan_id":"cebpf4jnsgd1na2vs0mg"},{"bike_id":"b8fb290e-9247-4fd1-9e1d-40e9c72fc344","system_id":"levelo_inurba_marseille","lat":43.26946,"lon":5.38653,"is_reserved":false,"is_disabled":false,"rental_uris":{"android":"levelo://app?vid=b8fb290e-9247-4fd1-9e1d-40e9c72fc344","ios":"levelo://app?vid=b8fb290e-9247-4fd1-9e1d-40e9c72fc344"},"vehicle_type_id":"4","last_reported":1745849481,"current_range_meters":20800,"station_id":"ce4bhh92rcd13ifvqfh0","pricing_plan_id":"cebpf4jnsgd1na2vs0mg"},{"bike_id":"302c8625-8efe-41b1-8ebf-a4d31535b5ad","system_id":"levelo_inurba_marseille","lat":43.28613,"lon":5.35101,"is_reserved":false,"is_disabled":false,"rental_uris":{"android":"levelo://app?vid=302c8625-8efe-41b1-8ebf-a4d31535b5ad","ios":"levelo://app?vid=302c8625-8efe-41b1-8ebf-a4d31535b5ad"},"vehicle_type_id":"4","last_reported":1745849481,"current_range_meters":20800,"station_id":"ce4bhch2rcd13ifvqeug","pricing_plan_id":"cebpf4jnsgd1na2vs0mg"},{"bike_id":"fcdc68e3-9155-40c8-aa7a-d143db889af7","system_id":"levelo_inurba_marseille","lat":43.3042,"lon":5.41279,"is_reserved":false,"is_disabled":false,"rental_uris":{"android":"levelo://app?vid=fcdc68e3-9155-40c8-aa7a-d143db889af7","ios":"levelo://app?vid=fcdc68e3-9155-40c8-aa7a-d143db889af7"},"vehicle_type_id":"4","last_reported":1745849481,"current_range_meters":20800,"station_id":"ce4bhop2rcd13ifvqh8g","pricing_plan_id":"cebpf4jnsgd1na2vs0mg"},{"bike_id":"bae2b822-f0ac-4bf1-8006-589f7eaa600d","system_id":"levelo_inurba_marseille","lat":43.21751,"lon":5.346,"is_reserved":false,"is_disabled":false,"rental_uris":{"android":"levelo://app?vid=bae2b822-f0ac-4bf1-8006-589f7eaa600d","ios":"levelo://app?vid=bae2b822-f0ac-4bf1-8006-589f7eaa600d"},"vehicle_type_id":"4","last_reported":1745849481,"current_range_meters":20800,"station_id":"st_cvj6r9ubvosntc0bgbag","pricing_plan_id":"cebpf4jnsgd1na2vs0mg"},{"bike_id":"614acf72-bf4e-446f-b324-8fb5cce61214","system_id":"levelo_inurba_marseille","lat":43.25925,"lon":5.40897,"is_reserved":false,"is_disabled":false,"rental_uris":{"android":"levelo://app?vid=614acf72-bf4e-446f-b324-8fb5cce61214","ios":"levelo://app?vid=614acf72-bf4e-446f-b324-8fb5cce61214"},"vehicle_type_id":"4","last_reported":1745849481,"current_range_meters":21600,"station_id":"ce4bhm92rcd13ifvqglg","pricing_plan_id":"cebpf4jnsgd1na2vs0mg"},{"bike_id":"6ce64750-e619-44e4-9b8b-a53f343f6528","system_id":"levelo_inurba_marseille","lat":43.28282,"lon":5.35077,"is_reserved":false,"is_disabled":false,"rental_uris":{"android":"levelo://app?vid=6ce64750-e619-44e4-9b8b-a53f343f6528","ios":"levelo://app?vid=6ce64750-e619-44e4-9b8b-a53f343f6528"},"vehicle_type_id":"4","last_reported":1745849481,"current_range_meters":20800,"station_id":"ce4bhbp2rcd13ifvqerg","pricing_plan_id":"cebpf4jnsgd1na2vs0mg"},{"bike_id":"5741880a-6536-46de-a04e-0855b82bbf6c","system_id":"levelo_inurba_marseille","lat":43.2811,"lon":5.37869,"is_reserved":false,"is_disabled":false,"rental_uris":{"android":"levelo://app?vid=5741880a-6536-46de-a04e-0855b82bbf6c","ios":"levelo://app?vid=5741880a-6536-46de-a04e-0855b82bbf6c"},"vehicle_type_id":"4","last_reported":1745849481,"current_range_meters":21600,"station_id":"ce4bha12rcd13ifvqee0","pricing_plan_id":"cebpf4jnsgd1na2vs0mg"},{"bike_id":"9cdd3cb0-c592-4aec-9271-9e4fa0f7d124","system_id":"levelo_inurba_marseille","lat":43.29975,"lon":5.37168,"is_reserved":false,"is_disabled":false,"rental_uris":{"android":"levelo://app?vid=9cdd3cb0-c592-4aec-9271-9e4fa0f7d124","ios":"levelo://app?vid=9cdd3cb0-c592-4aec-9271-9e4fa0f7d124"},"vehicle_type_id":"4","last_reported":1745849481,"current_range_meters":21600,"station_id":"ce4bgr92rcd13ifvqc7g","pricing_plan_id":"cebpf4jnsgd1na2vs0mg"},{"bike_id":"e8cbc332-ecfd-48f0-b807-9f20e83c56c9","system_id":"levelo_inurba_marseille","lat":43.28105,"lon":5.37868,"is_reserved":false,"is_disabled":false,"rental_uris":{"android":"levelo://app?vid=e8cbc332-ecfd-48f0-b807-9f20e83c56c9","ios":"levelo://app?vid=e8cbc332-ecfd-48f0-b807-9f20e83c56c9"},"vehicle_type_id":"4","last_reported":1745849481,"current_range_meters":21600,"station_id":"ce4bha12rcd13ifvqee0","pricing_plan_id":"cebpf4jnsgd1na2vs0mg"},{"bike_id":"3ea922b3-990b-48c6-8eef-81931d0c21ee","system_id":"levelo_inurba_marseille","lat":43.32708,"lon":5.39236,"is_reserved":false,"is_disabled":false,"rental_uris":{"android":"levelo://app?vid=3ea922b3-990b-48c6-8eef-81931d0c21ee","ios":"levelo://app?vid=3ea922b3-990b-48c6-8eef-81931d0c21ee"},"vehicle_type_id":"4","last_reported":1745849481,"current_range_meters":22000,"station_id":"","pricing_plan_id":"cebpf4jnsgd1na2vs0mg"},{"bike_id":"873fc964-37d7-49a9-839a-3c53b6230527","system_id":"levelo_inurba_marseille","lat":43.30951,"lon":5.36851,"is_reserved":false,"is_disabled":false,"rental_uris":{"android":"levelo://app?vid=873fc964-37d7-49a9-839a-3c53b6230527","ios":"levelo://app?vid=873fc964-37d7-49a9-839a-3c53b6230527"},"vehicle_type_id":"4","last_reported":1745849481,"current_range_meters":22400,"station_id":"ce4bgn92rcd13ifvqbvg","pricing_plan_id":"cebpf4jnsgd1na2vs0mg"},{"bike_id":"cf01bc3d-0b69-40c4-a709-f7d14a740670","system_id":"levelo_inurba_marseille","lat":43.27051,"lon":5.40265,"is_reserved":false,"is_disabled":false,"rental_uris":{"android":"levelo://app?vid=cf01bc3d-0b69-40c4-a709-f7d14a740670","ios":"levelo://app?vid=cf01bc3d-0b69-40c4-a709-f7d14a740670"},"vehicle_type_id":"4","last_reported":1745849481,"current_range_meters":22000,"station_id":"ce4bhk92rcd13ifvqgc0","pricing_plan_id":"cebpf4jnsgd1na2vs0mg"},{"bike_id":"6b0efbab-6331-4975-b19a-447208fd8dff","system_id":"levelo_inurba_marseille","lat":43.297951,"lon":5.403835,"is_reserved":false,"is_disabled":false,"rental_uris":{"android":"levelo://app?vid=6b0efbab-6331-4975-b19a-447208fd8dff","ios":"levelo://app?vid=6b0efbab-6331-4975-b19a-447208fd8dff"},"vehicle_type_id":"4","last_reported":1745849481,"current_range_meters":22000,"station_id":"ce4bh112rcd13ifvqd90","pricing_plan_id":"cebpf4jnsgd1na2vs0mg"},{"bike_id":"1a77df08-2b1c-4a7a-8a50-d9d2e5880a7b","system_id":"levelo_inurba_marseille","lat":43.30124,"lon":5.3988,"is_reserved":false,"is_disabled":false,"rental_uris":{"android":"levelo://app?vid=1a77df08-2b1c-4a7a-8a50-d9d2e5880a7b","ios":"levelo://app?vid=1a77df08-2b1c-4a7a-8a50-d9d2e5880a7b"},"vehicle_type_id":"4","last_reported":1745849481,"current_range_meters":22400,"station_id":"ce4bh0h2rcd13ifvqd40","pricing_plan_id":"cebpf4jnsgd1na2vs0mg"},{"bike_id":"3d726cd6-0e55-43e3-a946-07c18601d793","system_id":"levelo_inurba_marseille","lat":43.26201,"lon":5.37928,"is_reserved":false,"is_disabled":false,"rental_uris":{"android":"levelo://app?vid=3d726cd6-0e55-43e3-a946-07c18601d793","ios":"levelo://app?vid=3d726cd6-0e55-43e3-a946-07c18601d793"},"vehicle_type_id":"4","last_reported":1745849481,"current_range_meters":22000,"station_id":"ce4bhjp2rcd13ifvqg90","pricing_plan_id":"cebpf4jnsgd1na2vs0mg"},{"bike_id":"08f9f056-51dc-4bad-a6e7-c58ab8052430","system_id":"levelo_inurba_marseille","lat":43.24078,"lon":5.37755,"is_reserved":false,"is_disabled":false,"rental_uris":{"android":"levelo://app?vid=08f9f056-51dc-4bad-a6e7-c58ab8052430","ios":"levelo://app?vid=08f9f056-51dc-4bad-a6e7-c58ab8052430"},"vehicle_type_id":"4","last_reported":1745849481,"current_range_meters":22000,"station_id":"ce4bhnp2rcd13ifvqgvg","pricing_plan_id":"cebpf4jnsgd1na2vs0mg"},{"bike_id":"d28933c4-662f-4d25-9238-72eb9dab5680","system_id":"levelo_inurba_marseille","lat":43.29584,"lon":5.37496,"is_reserved":false,"is_disabled":false,"rental_uris":{"android":"levelo://app?vid=d28933c4-662f-4d25-9238-72eb9dab5680","ios":"levelo://app?vid=d28933c4-662f-4d25-9238-72eb9dab5680"},"vehicle_type_id":"4","last_reported":1745849481,"current_range_meters":22400,"station_id":"ce4bgh92rcd13ifvqb50","pricing_plan_id":"cebpf4jnsgd1na2vs0mg"},{"bike_id":"2407d6f2-666d-4493-a19d-a30650054fb4","system_id":"levelo_inurba_marseille","lat":43.325423,"lon":5.41436,"is_reserved":false,"is_disabled":false,"rental_uris":{"android":"levelo://app?vid=2407d6f2-666d-4493-a19d-a30650054fb4","ios":"levelo://app?vid=2407d6f2-666d-4493-a19d-a30650054fb4"},"vehicle_type_id":"4","last_reported":1745849481,"current_range_meters":22400,"station_id":"ce4bhq12rcd13ifvqhhg","pricing_plan_id":"cebpf4jnsgd1na2vs0mg"},{"bike_id":"d61f856c-4908-45be-bb8d-0c6c0d4006c7","system_id":"levelo_inurba_marseille","lat":43.28468,"lon":5.38418,"is_reserved":false,"is_disabled":false,"rental_uris":{"android":"levelo://app?vid=d61f856c-4908-45be-bb8d-0c6c0d4006c7","ios":"levelo://app?vid=d61f856c-4908-45be-bb8d-0c6c0d4006c7"},"vehicle_type_id":"4","last_reported":1745849481,"current_range_meters":22000,"station_id":"ce4bh512rcd13ifvqe3g","pricing_plan_id":"cebpf4jnsgd1na2vs0mg"},{"bike_id":"f024310e-91c7-4e56-97a4-069e18947f40","system_id":"levelo_inurba_marseille","lat":43.31483,"lon":5.3681,"is_reserved":false,"is_disabled":false,"rental_uris":{"android":"levelo://app?vid=f024310e-91c7-4e56-97a4-069e18947f40","ios":"levelo://app?vid=f024310e-91c7-4e56-97a4-069e18947f40"},"vehicle_type_id":"4","last_reported":1745849481,"current_range_meters":22400,"station_id":"ce4bgr92rcd13ifvqc6g","pricing_plan_id":"cebpf4jnsgd1na2vs0mg"},{"bike_id":"449af6ba-6455-43d3-abb1-43f87170f2c7","system_id":"levelo_inurba_marseille","lat":43.27566,"lon":5.38418,"is_reserved":false,"is_disabled":false,"rental_uris":{"android":"levelo://app?vid=449af6ba-6455-43d3-abb1-43f87170f2c7","ios":"levelo://app?vid=449af6ba-6455-43d3-abb1-43f87170f2c7"},"vehicle_type_id":"4","last_reported":1745849481,"current_range_meters":22800,"station_id":"ce4bhh92rcd13ifvqfi0","pricing_plan_id":"cebpf4jnsgd1na2vs0mg"},{"bike_id":"5bb4052d-fa64-46f2-bdd7-a1f461ebcd39","system_id":"levelo_inurba_marseille","lat":43.31332,"lon":5.39689,"is_reserved":false,"is_disabled":false,"rental_uris":{"android":"levelo://app?vid=5bb4052d-fa64-46f2-bdd7-a1f461ebcd39","ios":"levelo://app?vid=5bb4052d-fa64-46f2-bdd7-a1f461ebcd39"},"vehicle_type_id":"4","last_reported":1745849481,"current_range_meters":23200,"station_id":"ce4bgvp2rcd13ifvqcu0","pricing_plan_id":"cebpf4jnsgd1na2vs0mg"},{"bike_id":"d4db5fb8-7feb-43b5-bfe1-9672de0837ec","system_id":"levelo_inurba_marseille","lat":43.25583,"lon":5.38225,"is_reserved":false,"is_disabled":false,"rental_uris":{"android":"levelo://app?vid=d4db5fb8-7feb-43b5-bfe1-9672de0837ec","ios":"levelo://app?vid=d4db5fb8-7feb-43b5-bfe1-9672de0837ec"},"vehicle_type_id":"4","last_reported":1745849481,"current_range_meters":22800,"station_id":"ce4bhih2rcd13ifvqfs0","pricing_plan_id":"cebpf4jnsgd1na2vs0mg"},{"bike_id":"537381da-ce11-4bd0-ac92-c70c6230f520","system_id":"levelo_inurba_marseille","lat":43.2782,"lon":5.40696,"is_reserved":false,"is_disabled":false,"rental_uris":{"android":"levelo://app?vid=537381da-ce11-4bd0-ac92-c70c6230f520","ios":"levelo://app?vid=537381da-ce11-4bd0-ac92-c70c6230f520"},"vehicle_type_id":"4","last_reported":1745849481,"current_range_meters":22800,"station_id":"ce4bhnh2rcd13ifvqgtg","pricing_plan_id":"cebpf4jnsgd1na2vs0mg"},{"bike_id":"940b7320-b328-4afe-85a6-d4d069ced16a","system_id":"levelo_inurba_marseille","lat":43.30932,"lon":5.40151,"is_reserved":false,"is_disabled":true,"rental_uris":{"android":"levelo://app?vid=940b7320-b328-4afe-85a6-d4d069ced16a","ios":"levelo://app?vid=940b7320-b328-4afe-85a6-d4d069ced16a"},"vehicle_type_id":"4","last_reported":1745849481,"current_range_meters":23200,"station_id":"ce4bgvp2rcd13ifvqct0","pricing_plan_id":"cebpf4jnsgd1na2vs0mg"},{"bike_id":"b26a0b33-650f-4f7b-8536-58a942167ba4","system_id":"levelo_inurba_marseille","lat":43.23187,"lon":5.35554,"is_reserved":false,"is_disabled":false,"rental_uris":{"android":"levelo://app?vid=b26a0b33-650f-4f7b-8536-58a942167ba4","ios":"levelo://app?vid=b26a0b33-650f-4f7b-8536-58a942167ba4"},"vehicle_type_id":"4","last_reported":1745849481,"current_range_meters":23200,"station_id":"ce4bhu92rcd13ifvqi70","pricing_plan_id":"cebpf4jnsgd1na2vs0mg"},{"bike_id":"bd798e14-fd47-4350-846b-109c83729f5d","system_id":"levelo_inurba_marseille","lat":43.29915,"lon":5.3814,"is_reserved":false,"is_disabled":false,"rental_uris":{"android":"levelo://app?vid=bd798e14-fd47-4350-846b-109c83729f5d","ios":"levelo://app?vid=bd798e14-fd47-4350-846b-109c83729f5d"},"vehicle_type_id":"4","last_reported":1745849481,"current_range_meters":23200,"station_id":"ce4bgj12rcd13ifvqbc0","pricing_plan_id":"cebpf4jnsgd1na2vs0mg"},{"bike_id":"c2813270-6c90-4a92-b563-6cba095f7984","system_id":"levelo_inurba_marseille","lat":43.3012,"lon":5.39833,"is_reserved":false,"is_disabled":false,"rental_uris":{"android":"levelo://app?vid=c2813270-6c90-4a92-b563-6cba095f7984","ios":"levelo://app?vid=c2813270-6c90-4a92-b563-6cba095f7984"},"vehicle_type_id":"4","last_reported":1745849481,"current_range_meters":22800,"station_id":"ce4bh0h2rcd13ifvqd40","pricing_plan_id":"cebpf4jnsgd1na2vs0mg"},{"bike_id":"035cdc5a-c646-4c28-82dc-a8991c21d159","system_id":"levelo_inurba_marseille","lat":43.31554,"lon":5.37308,"is_reserved":false,"is_disabled":false,"rental_uris":{"android":"levelo://app?vid=035cdc5a-c646-4c28-82dc-a8991c21d159","ios":"levelo://app?vid=035cdc5a-c646-4c28-82dc-a8991c21d159"},"vehicle_type_id":"4","last_reported":1745849481,"current_range_meters":23200,"station_id":"","pricing_plan_id":"cebpf4jnsgd1na2vs0mg"},{"bike_id":"6f07a4c6-c9d8-4425-9447-8676203a33a0","system_id":"levelo_inurba_marseille","lat":43.241669,"lon":5.363907,"is_reserved":false,"is_disabled":false,"rental_uris":{"android":"levelo://app?vid=6f07a4c6-c9d8-4425-9447-8676203a33a0","ios":"levelo://app?vid=6f07a4c6-c9d8-4425-9447-8676203a33a0"},"vehicle_type_id":"4","last_reported":1745849481,"current_range_meters":23200,"station_id":"cpo36qri1sfpv3e86is0","pricing_plan_id":"cebpf4jnsgd1na2vs0mg"},{"bike_id":"88f6416c-a8cf-48b6-bb44-3988c8b89e2f","system_id":"levelo_inurba_marseille","lat":43.24178,"lon":5.36395,"is_reserved":false,"is_disabled":false,"rental_uris":{"android":"levelo://app?vid=88f6416c-a8cf-48b6-bb44-3988c8b89e2f","ios":"levelo://app?vid=88f6416c-a8cf-48b6-bb44-3988c8b89e2f"},"vehicle_type_id":"4","last_reported":1745849481,"current_range_meters":24000,"station_id":"cpo36qri1sfpv3e86is0","pricing_plan_id":"cebpf4jnsgd1na2vs0mg"},{"bike_id":"6b6c8474-accf-4532-9e51-1771a964314d","system_id":"levelo_inurba_marseille","lat":43.29021,"lon":5.38124,"is_reserved":false,"is_disabled":false,"rental_uris":{"android":"levelo://app?vid=6b6c8474-accf-4532-9e51-1771a964314d","ios":"levelo://app?vid=6b6c8474-accf-4532-9e51-1771a964314d"},"vehicle_type_id":"4","last_reported":1745849481,"current_range_meters":23200,"station_id":"ce4bh4p2rcd13ifvqe1g","pricing_plan_id":"cebpf4jnsgd1na2vs0mg"},{"bike_id":"254a82b3-1bfa-44d0-bb2c-211fbec80e17","system_id":"levelo_inurba_marseille","lat":43.27972,"lon":5.38758,"is_reserved":false,"is_disabled":false,"rental_uris":{"android":"levelo://app?vid=254a82b3-1bfa-44d0-bb2c-211fbec80e17","ios":"levelo://app?vid=254a82b3-1bfa-44d0-bb2c-211fbec80e17"},"vehicle_type_id":"4","last_reported":1745849481,"current_range_meters":24000,"station_id":"ce4bhg12rcd13ifvqf80","pricing_plan_id":"cebpf4jnsgd1na2vs0mg"},{"bike_id":"8374e59f-a215-4814-8eeb-b09860e92f6e","system_id":"levelo_inurba_marseille","lat":43.29529,"lon":5.38541,"is_reserved":false,"is_disabled":false,"rental_uris":{"android":"levelo://app?vid=8374e59f-a215-4814-8eeb-b09860e92f6e","ios":"levelo://app?vid=8374e59f-a215-4814-8eeb-b09860e92f6e"},"vehicle_type_id":"4","last_reported":1745849481,"current_range_meters":24000,"station_id":"ce4bgih2rcd13ifvqba0","pricing_plan_id":"cebpf4jnsgd1na2vs0mg"},{"bike_id":"fce2c520-92d3-4d18-810b-8d643fc15a1a","system_id":"levelo_inurba_marseille","lat":43.23061,"lon":5.35491,"is_reserved":false,"is_disabled":false,"rental_uris":{"android":"levelo://app?vid=fce2c520-92d3-4d18-810b-8d643fc15a1a","ios":"levelo://app?vid=fce2c520-92d3-4d18-810b-8d643fc15a1a"},"vehicle_type_id":"4","last_reported":1745849481,"current_range_meters":24000,"station_id":"cpo3342slgdg3j2ifvpg","pricing_plan_id":"cebpf4jnsgd1na2vs0mg"},{"bike_id":"f1e20de4-deb7-443a-9d9a-a47a5545e87b","system_id":"levelo_inurba_marseille","lat":43.27678,"lon":5.38889,"is_reserved":false,"is_disabled":false,"rental_uris":{"android":"levelo://app?vid=f1e20de4-deb7-443a-9d9a-a47a5545e87b","ios":"levelo://app?vid=f1e20de4-deb7-443a-9d9a-a47a5545e87b"},"vehicle_type_id":"4","last_reported":1745849481,"current_range_meters":23200,"station_id":"ce4bhi12rcd13ifvqfo0","pricing_plan_id":"cebpf4jnsgd1na2vs0mg"},{"bike_id":"5ab314fd-9cc2-4919-af55-d9e7d339e51f","system_id":"levelo_inurba_marseille","lat":43.25947,"lon":5.40908,"is_reserved":false,"is_disabled":false,"rental_uris":{"android":"levelo://app?vid=5ab314fd-9cc2-4919-af55-d9e7d339e51f","ios":"levelo://app?vid=5ab314fd-9cc2-4919-af55-d9e7d339e51f"},"vehicle_type_id":"4","last_reported":1745849481,"current_range_meters":24000,"station_id":"ce4bhm92rcd13ifvqglg","pricing_plan_id":"cebpf4jnsgd1na2vs0mg"},{"bike_id":"c8b65f3a-eb68-436a-a34a-d95ddc359a8c","system_id":"levelo_inurba_marseille","lat":43.26231,"lon":5.40449,"is_reserved":false,"is_disabled":false,"rental_uris":{"android":"levelo://app?vid=c8b65f3a-eb68-436a-a34a-d95ddc359a8c","ios":"levelo://app?vid=c8b65f3a-eb68-436a-a34a-d95ddc359a8c"},"vehicle_type_id":"4","last_reported":1745849481,"current_range_meters":24000,"station_id":"ce4bhmh2rcd13ifvqgmg","pricing_plan_id":"cebpf4jnsgd1na2vs0mg"},{"bike_id":"4364fb0a-af4e-4d01-9aa1-1fe00afbc686","system_id":"levelo_inurba_marseille","lat":43.232,"lon":5.35548,"is_reserved":false,"is_disabled":false,"rental_uris":{"android":"levelo://app?vid=4364fb0a-af4e-4d01-9aa1-1fe00afbc686","ios":"levelo://app?vid=4364fb0a-af4e-4d01-9aa1-1fe00afbc686"},"vehicle_type_id":"4","last_reported":1745849481,"current_range_meters":24400,"station_id":"ce4bhu92rcd13ifvqi70","pricing_plan_id":"cebpf4jnsgd1na2vs0mg"},{"bike_id":"9eb85a53-c55c-460b-93df-91d80e7bfcef","system_id":"levelo_inurba_marseille","lat":43.32499,"lon":5.36565,"is_reserved":false,"is_disabled":false,"rental_uris":{"android":"levelo://app?vid=9eb85a53-c55c-460b-93df-91d80e7bfcef","ios":"levelo://app?vid=9eb85a53-c55c-460b-93df-91d80e7bfcef"},"vehicle_type_id":"4","last_reported":1745849481,"current_range_meters":24400,"station_id":"ce4bhs12rcd13ifvqhvg","pricing_plan_id":"cebpf4jnsgd1na2vs0mg"},{"bike_id":"e7fe20cf-ed3e-4bca-b687-5f438558eb4f","system_id":"levelo_inurba_marseille","lat":43.27367,"lon":5.36235,"is_reserved":false,"is_disabled":false,"rental_uris":{"android":"levelo://app?vid=e7fe20cf-ed3e-4bca-b687-5f438558eb4f","ios":"levelo://app?vid=e7fe20cf-ed3e-4bca-b687-5f438558eb4f"},"vehicle_type_id":"4","last_reported":1745849481,"current_range_meters":24000,"station_id":"ce4bhbh2rcd13ifvqeo0","pricing_plan_id":"cebpf4jnsgd1na2vs0mg"},{"bike_id":"8fcce59d-bba5-4c8a-bf6e-ed63c6a2630b","system_id":"levelo_inurba_marseille","lat":43.24168,"lon":5.36401,"is_reserved":false,"is_disabled":false,"rental_uris":{"android":"levelo://app?vid=8fcce59d-bba5-4c8a-bf6e-ed63c6a2630b","ios":"levelo://app?vid=8fcce59d-bba5-4c8a-bf6e-ed63c6a2630b"},"vehicle_type_id":"4","last_reported":1745849481,"current_range_meters":24400,"station_id":"cpo36qri1sfpv3e86is0","pricing_plan_id":"cebpf4jnsgd1na2vs0mg"},{"bike_id":"dc28fc6e-d680-4477-bbc1-f4611ff292f9","system_id":"levelo_inurba_marseille","lat":43.24667,"lon":5.3817,"is_reserved":false,"is_disabled":false,"rental_uris":{"android":"levelo://app?vid=dc28fc6e-d680-4477-bbc1-f4611ff292f9","ios":"levelo://app?vid=dc28fc6e-d680-4477-bbc1-f4611ff292f9"},"vehicle_type_id":"4","last_reported":1745849481,"current_range_meters":24400,"station_id":"ce4bhih2rcd13ifvqfr0","pricing_plan_id":"cebpf4jnsgd1na2vs0mg"},{"bike_id":"90ba42c0-3df3-4ede-ad71-97c50d51f22c","system_id":"levelo_inurba_marseille","lat":43.27951,"lon":5.41042,"is_reserved":false,"is_disabled":false,"rental_uris":{"android":"levelo://app?vid=90ba42c0-3df3-4ede-ad71-97c50d51f22c","ios":"levelo://app?vid=90ba42c0-3df3-4ede-ad71-97c50d51f22c"},"vehicle_type_id":"4","last_reported":1745849481,"current_range_meters":24400,"station_id":"ce4bhnp2rcd13ifvqh0g","pricing_plan_id":"cebpf4jnsgd1na2vs0mg"},{"bike_id":"652e0055-e0a1-45e4-84cd-3248924974b8","system_id":"levelo_inurba_marseille","lat":43.26545,"lon":5.37309,"is_reserved":false,"is_disabled":false,"rental_uris":{"android":"levelo://app?vid=652e0055-e0a1-45e4-84cd-3248924974b8","ios":"levelo://app?vid=652e0055-e0a1-45e4-84cd-3248924974b8"},