{"last_updated":1769030370,"ttl":60,"version":"2.2","data":{"bikes":[{"bike_id":"0b857ada-bed9-47df-869a-44f8e17a76e1","system_id":"levelo_inurba_marseille","lat":43.22574,"lon":5.41644,"is_reserved":false,"is_disabled":false,"rental_uris":{"android":"levelo://app?vid=0b857ada-bed9-47df-869a-44f8e17a76e1","ios":"levelo://app?vid=0b857ada-bed9-47df-869a-44f8e17a76e1"},"vehicle_type_id":"4","last_reported":1769030371,"current_range_meters":2800,"station_id":"st_d2o4gvlbi1j2169b742g","pricing_plan_id":"cebpf4jnsgd1na2vs0mg"},{"bike_id":"e8fee6c6-7b97-491f-b611-2895b23fd80b","system_id":"levelo_inurba_marseille","lat":43.26686,"lon":5.38264,"is_reserved":false,"is_disabled":true,"rental_uris":{"android":"levelo://app?vid=e8fee6c6-7b97-491f-b611-2895b23fd80b","ios":"levelo://app?vid=e8fee6c6-7b97-491f-b611-2895b23fd80b"},"vehicle_type_id":"4","last_reported":1769030371,"current_range_meters":2800,"station_id":"ce4bhg92rcd13ifvqf90","pricing_plan_id":"cebpf4jnsgd1na2vs0mg"},{"bike_id":"04d1fa74-7078-4e54-86c0-c9d3f7b08c45","system_id":"levelo_inurba_marseille","lat":43.25582,"lon":5.38238,"is_reserved":false,"is_disabled":false,"rental_uris":{"android":"levelo://app?vid=04d1fa74-7078-4e54-86c0-c9d3f7b08c45","ios":"levelo://app?vid=04d1fa74-7078-4e54-86c0-c9d3f7b08c45"},"vehicle_type_id":"4","last_reported":1769030371,"current_range_meters":2800,"station_id":"ce4bhih2rcd13ifvqfs0","pricing_plan_id":"cebpf4jnsgd1na2vs0mg"},{"bike_id":"2156bd5a-145f-458b-a23b-70d0927ad067","system_id":"levelo_inurba_marseille","lat":43.24397,"lon":5.37055,"is_reserved":false,"is_disabled":false,"rental_uris":{"android":"levelo://app?vid=2156bd5a-145f-458b-a23b-70d0927ad067","ios":"levelo://app?vid=2156bd5a-145f-458b-a23b-70d0927ad067"},"vehicle_type_id":"4","last_reported":1769030371,"current_range_meters":2800,"station_id":"ce4bhhh2rcd13ifvqfk0","pricing_plan_id":"cebpf4jnsgd1na2vs0mg"},{"bike_id":"208ffd30-b78e-4e10-8a77-792cb6a1f320","system_id":"levelo_inurba_marseille","lat":43.26217,"lon":5.40452,"is_reserved":false,"is_disabled":false,"rental_uris":{"android":"levelo://app?vid=208ffd30-b78e-4e10-8a77-792cb6a1f320","ios":"levelo://app?vid=208ffd30-b78e-4e10-8a77-792cb6a1f320"},"vehicle_type_id":"4","last_reported":1769030371,"current_range_meters":2800,"station_id":"ce4bhmh2rcd13ifvqgmg","pricing_plan_id":"cebpf4jnsgd1na2vs0mg"},{"bike_id":"5dbfcf3f-7cec-4c29-8168-14f9c37f7762","system_id":"levelo_inurba_marseille","lat":43.2256,"lon":5.4164,"is_reserved":false,"is_disabled":false,"rental_uris":{"android":"levelo://app?vid=5dbfcf3f-7cec-4c29-8168-14f9c37f7762","ios":"levelo://app?vid=5dbfcf3f-7cec-4c29-8168-14f9c37f7762"},"vehicle_type_id":"4","last_reported":1769030371,"current_range_meters":2800,"station_id":"st_d2o4gvlbi1j2169b742g","pricing_plan_id":"cebpf4jnsgd1na2vs0mg"},{"bike_id":"2741c75f-e485-4cb2-ba8f-7fb9826af589","system_id":"levelo_inurba_marseille","lat":43.29373,"lon":5.37868,"is_reserved":false,"is_disabled":false,"rental_uris":{"android":"levelo://app?vid=2741c75f-e485-4cb2-ba8f-7fb9826af589","ios":"levelo://app?vid=2741c75f-e485-4cb2-ba8f-7fb9826af589"},"vehicle_type_id":"4","last_reported":1769030371,"current_range_meters":2800,"station_id":"ce4bgjh2rcd13ifvqbf0","pricing_plan_id":"cebpf4jnsgd1na2vs0mg"},{"bike_id":"66160d64-23f9-4d70-b989-daa254cf260e","system_id":"levelo_inurba_marseille","lat":43.28144,"lon":5.42649,"is_reserved":false,"is_disabled":true,"rental_uris":{"android":"levelo://app?vid=66160d64-23f9-4d70-b989-daa254cf260e","ios":"levelo://app?vid=66160d64-23f9-4d70-b989-daa254cf260e"},"vehicle_type_id":"4","last_reported":1769030371,"current_range_meters":2800,"station_id":"ce4bhnh2rcd13ifvqgug","pricing_plan_id":"cebpf4jnsgd1na2vs0mg"},{"bike_id":"56aebe64-5e14-40af-99f2-62c233e94a99","system_id":"levelo_inurba_marseille","lat":43.29689,"lon":5.38744,"is_reserved":false,"is_disabled":false,"rental_uris":{"android":"levelo://app?vid=56aebe64-5e14-40af-99f2-62c233e94a99","ios":"levelo://app?vid=56aebe64-5e14-40af-99f2-62c233e94a99"},"vehicle_type_id":"4","last_reported":1769030371,"current_range_meters":2800,"station_id":"","pricing_plan_id":"cebpf4jnsgd1na2vs0mg"},{"bike_id":"35eb0f0f-42a8-4fd5-956e-bec6aa3f7ee3","system_id":"levelo_inurba_marseille","lat":43.231788,"lon":5.399988,"is_reserved":false,"is_disabled":false,"rental_uris":{"android":"levelo://app?vid=35eb0f0f-42a8-4fd5-956e-bec6aa3f7ee3","ios":"levelo://app?vid=35eb0f0f-42a8-4fd5-956e-bec6aa3f7ee3"},"vehicle_type_id":"4","last_reported":1769030371,"current_range_meters":2800,"station_id":"ce4bhn12rcd13ifvqgqg","pricing_plan_id":"cebpf4jnsgd1na2vs0mg"},{"bike_id":"2cf1ea64-26bb-4964-939a-03465aee6659","system_id":"levelo_inurba_marseille","lat":43.22558,"lon":5.41627,"is_reserved":false,"is_disabled":false,"rental_uris":{"android":"levelo://app?vid=2cf1ea64-26bb-4964-939a-03465aee6659","ios":"levelo://app?vid=2cf1ea64-26bb-4964-939a-03465aee6659"},"vehicle_type_id":"4","last_reported":1769030371,"current_range_meters":2800,"station_id":"st_d2o4gvlbi1j2169b742g","pricing_plan_id":"cebpf4jnsgd1na2vs0mg"},{"bike_id":"620c768c-60e8-4740-af4e-bec02b1b06f1","system_id":"levelo_inurba_marseille","lat":43.32906,"lon":5.38781,"is_reserved":false,"is_disabled":false,"rental_uris":{"android":"levelo://app?vid=620c768c-60e8-4740-af4e-bec02b1b06f1","ios":"levelo://app?vid=620c768c-60e8-4740-af4e-bec02b1b06f1"},"vehicle_type_id":"4","last_reported":1769030371,"current_range_meters":2800,"station_id":"","pricing_plan_id":"cebpf4jnsgd1na2vs0mg"},{"bike_id":"78231eba-f45a-43d5-8156-62d08ebd873b","system_id":"levelo_inurba_marseille","lat":43.29302,"lon":5.37148,"is_reserved":false,"is_disabled":false,"rental_uris":{"android":"levelo://app?vid=78231eba-f45a-43d5-8156-62d08ebd873b","ios":"levelo://app?vid=78231eba-f45a-43d5-8156-62d08ebd873b"},"vehicle_type_id":"4","last_reported":1769030371,"current_range_meters":2800,"station_id":"ce4bgh92rcd13ifvqb40","pricing_plan_id":"cebpf4jnsgd1na2vs0mg"},{"bike_id":"10e48f23-3a9c-4643-8bde-8aebfcd1870f","system_id":"levelo_inurba_marseille","lat":43.24659,"lon":5.38167,"is_reserved":false,"is_disabled":false,"rental_uris":{"android":"levelo://app?vid=10e48f23-3a9c-4643-8bde-8aebfcd1870f","ios":"levelo://app?vid=10e48f23-3a9c-4643-8bde-8aebfcd1870f"},"vehicle_type_id":"4","last_reported":1769030371,"current_range_meters":2800,"station_id":"ce4bhih2rcd13ifvqfr0","pricing_plan_id":"cebpf4jnsgd1na2vs0mg"},{"bike_id":"b879bdb0-3364-4e43-95d1-60b6b5fbc4d0","system_id":"levelo_inurba_marseille","lat":43.24641,"lon":5.38915,"is_reserved":false,"is_disabled":false,"rental_uris":{"android":"levelo://app?vid=b879bdb0-3364-4e43-95d1-60b6b5fbc4d0","ios":"levelo://app?vid=b879bdb0-3364-4e43-95d1-60b6b5fbc4d0"},"vehicle_type_id":"4","last_reported":1769030371,"current_range_meters":3200,"station_id":"ce4bhg12rcd13ifvqf60","pricing_plan_id":"cebpf4jnsgd1na2vs0mg"},{"bike_id":"e9cf4d98-a47d-4cc7-82f6-b2e075f45c6a","system_id":"levelo_inurba_marseille","lat":43.22564,"lon":5.41627,"is_reserved":false,"is_disabled":false,"rental_uris":{"android":"levelo://app?vid=e9cf4d98-a47d-4cc7-82f6-b2e075f45c6a","ios":"levelo://app?vid=e9cf4d98-a47d-4cc7-82f6-b2e075f45c6a"},"vehicle_type_id":"4","last_reported":1769030371,"current_range_meters":3200,"station_id":"st_d2o4gvlbi1j2169b742g","pricing_plan_id":"cebpf4jnsgd1na2vs0mg"},{"bike_id":"08d732d5-fb53-4fb8-b41b-e0bc5c88c24a","system_id":"levelo_inurba_marseille","lat":43.29798,"lon":5.39335,"is_reserved":false,"is_disabled":false,"rental_uris":{"android":"levelo://app?vid=08d732d5-fb53-4fb8-b41b-e0bc5c88c24a","ios":"levelo://app?vid=08d732d5-fb53-4fb8-b41b-e0bc5c88c24a"},"vehicle_type_id":"4","last_reported":1769030371,"current_range_meters":3200,"station_id":"chh1huq6cuj3fo74tm60","pricing_plan_id":"cebpf4jnsgd1na2vs0mg"},{"bike_id":"2ab78053-6793-4d71-a2da-e67c98ccf4a4","system_id":"levelo_inurba_marseille","lat":43.2869,"lon":5.38664,"is_reserved":false,"is_disabled":false,"rental_uris":{"android":"levelo://app?vid=2ab78053-6793-4d71-a2da-e67c98ccf4a4","ios":"levelo://app?vid=2ab78053-6793-4d71-a2da-e67c98ccf4a4"},"vehicle_type_id":"4","last_reported":1769030371,"current_range_meters":3200,"station_id":"ce4bh492rcd13ifvqdug","pricing_plan_id":"cebpf4jnsgd1na2vs0mg"},{"bike_id":"ee0649f4-b809-4aef-add5-3c8ad98310f4","system_id":"levelo_inurba_marseille","lat":43.25009,"lon":5.38924,"is_reserved":false,"is_disabled":false,"rental_uris":{"android":"levelo://app?vid=ee0649f4-b809-4aef-add5-3c8ad98310f4","ios":"levelo://app?vid=ee0649f4-b809-4aef-add5-3c8ad98310f4"},"vehicle_type_id":"4","last_reported":1769030371,"current_range_meters":3200,"station_id":"ce4bhgp2rcd13ifvqfd0","pricing_plan_id":"cebpf4jnsgd1na2vs0mg"},{"bike_id":"386404ee-f0ba-457d-90aa-b174a4c2d2a3","system_id":"levelo_inurba_marseille","lat":43.30325,"lon":5.40432,"is_reserved":false,"is_disabled":false,"rental_uris":{"android":"levelo://app?vid=386404ee-f0ba-457d-90aa-b174a4c2d2a3","ios":"levelo://app?vid=386404ee-f0ba-457d-90aa-b174a4c2d2a3"},"vehicle_type_id":"4","last_reported":1769030371,"current_range_meters":3200,"station_id":"ce4bh012rcd13ifvqd10","pricing_plan_id":"cebpf4jnsgd1na2vs0mg"},{"bike_id":"9310b86c-bb85-4d96-b85f-67341f40b9d3","system_id":"levelo_inurba_marseille","lat":43.27808,"lon":5.40714,"is_reserved":false,"is_disabled":false,"rental_uris":{"android":"levelo://app?vid=9310b86c-bb85-4d96-b85f-67341f40b9d3","ios":"levelo://app?vid=9310b86c-bb85-4d96-b85f-67341f40b9d3"},"vehicle_type_id":"4","last_reported":1769030371,"current_range_meters":3200,"station_id":"ce4bhnh2rcd13ifvqgtg","pricing_plan_id":"cebpf4jnsgd1na2vs0mg"},{"bike_id":"1a42f3a8-2ec5-42b6-a29c-4fd0023ddc50","system_id":"levelo_inurba_marseille","lat":43.2871,"lon":5.37959,"is_reserved":false,"is_disabled":true,"rental_uris":{"android":"levelo://app?vid=1a42f3a8-2ec5-42b6-a29c-4fd0023ddc50","ios":"levelo://app?vid=1a42f3a8-2ec5-42b6-a29c-4fd0023ddc50"},"vehicle_type_id":"4","last_reported":1769030371,"current_range_meters":3200,"station_id":"ce4bh9p2rcd13ifvqec0","pricing_plan_id":"cebpf4jnsgd1na2vs0mg"},{"bike_id":"a8aac60c-2118-4d11-bf66-45e62b34d0de","system_id":"levelo_inurba_marseille","lat":43.29039,"lon":5.38642,"is_reserved":false,"is_disabled":false,"rental_uris":{"android":"levelo://app?vid=a8aac60c-2118-4d11-bf66-45e62b34d0de","ios":"levelo://app?vid=a8aac60c-2118-4d11-bf66-45e62b34d0de"},"vehicle_type_id":"4","last_reported":1769030371,"current_range_meters":3200,"station_id":"ce4bh4p2rcd13ifvqe0g","pricing_plan_id":"cebpf4jnsgd1na2vs0mg"},{"bike_id":"48214cab-a20a-430a-8300-e70f3a4adf2b","system_id":"levelo_inurba_marseille","lat":43.29537,"lon":5.39046,"is_reserved":false,"is_disabled":false,"rental_uris":{"android":"levelo://app?vid=48214cab-a20a-430a-8300-e70f3a4adf2b","ios":"levelo://app?vid=48214cab-a20a-430a-8300-e70f3a4adf2b"},"vehicle_type_id":"4","last_reported":1769030371,"current_range_meters":3200,"station_id":"ce4bh3p2rcd13ifvqdp0","pricing_plan_id":"cebpf4jnsgd1na2vs0mg"},{"bike_id":"45057b36-4e0d-49b2-a5fd-921afaa91c78","system_id":"levelo_inurba_marseille","lat":43.280008,"lon":5.416648,"is_reserved":false,"is_disabled":false,"rental_uris":{"android":"levelo://app?vid=45057b36-4e0d-49b2-a5fd-921afaa91c78","ios":"levelo://app?vid=45057b36-4e0d-49b2-a5fd-921afaa91c78"},"vehicle_type_id":"4","last_reported":1769030371,"current_range_meters":3200,"station_id":"ce4bho12rcd13ifvqh1g","pricing_plan_id":"cebpf4jnsgd1na2vs0mg"},{"bike_id":"8071b732-6495-4355-8bd2-d391f59dfffd","system_id":"levelo_inurba_marseille","lat":43.21756,"lon":5.34617,"is_reserved":false,"is_disabled":false,"rental_uris":{"android":"levelo://app?vid=8071b732-6495-4355-8bd2-d391f59dfffd","ios":"levelo://app?vid=8071b732-6495-4355-8bd2-d391f59dfffd"},"vehicle_type_id":"4","last_reported":1769030371,"current_range_meters":3200,"station_id":"","pricing_plan_id":"cebpf4jnsgd1na2vs0mg"},{"bike_id":"126844c0-bf2a-40d5-a858-d01c8062a9ea","system_id":"levelo_inurba_marseille","lat":43.31285,"lon":5.40173,"is_reserved":false,"is_disabled":false,"rental_uris":{"android":"levelo://app?vid=126844c0-bf2a-40d5-a858-d01c8062a9ea","ios":"levelo://app?vid=126844c0-bf2a-40d5-a858-d01c8062a9ea"},"vehicle_type_id":"4","last_reported":1769030371,"current_range_meters":3200,"station_id":"ce4bh092rcd13ifvqd30","pricing_plan_id":"cebpf4jnsgd1na2vs0mg"},{"bike_id":"37b9b189-94d2-4e18-82aa-b813b05c81f5","system_id":"levelo_inurba_marseille","lat":43.27328,"lon":5.39084,"is_reserved":false,"is_disabled":false,"rental_uris":{"android":"levelo://app?vid=37b9b189-94d2-4e18-82aa-b813b05c81f5","ios":"levelo://app?vid=37b9b189-94d2-4e18-82aa-b813b05c81f5"},"vehicle_type_id":"4","last_reported":1769030371,"current_range_meters":3200,"station_id":"ce4bhgp2rcd13ifvqfe0","pricing_plan_id":"cebpf4jnsgd1na2vs0mg"},{"bike_id":"bd263ecd-e110-47eb-9c35-c2199c34085a","system_id":"levelo_inurba_marseille","lat":43.280007,"lon":5.40015,"is_reserved":false,"is_disabled":false,"rental_uris":{"android":"levelo://app?vid=bd263ecd-e110-47eb-9c35-c2199c34085a","ios":"levelo://app?vid=bd263ecd-e110-47eb-9c35-c2199c34085a"},"vehicle_type_id":"4","last_reported":1769030371,"current_range_meters":3600,"station_id":"ce4bho92rcd13ifvqh4g","pricing_plan_id":"cebpf4jnsgd1na2vs0mg"},{"bike_id":"02b19501-ae2b-4d21-ae93-ce26586838ae","system_id":"levelo_inurba_marseille","lat":43.29567,"lon":5.42298,"is_reserved":false,"is_disabled":false,"rental_uris":{"android":"levelo://app?vid=02b19501-ae2b-4d21-ae93-ce26586838ae","ios":"levelo://app?vid=02b19501-ae2b-4d21-ae93-ce26586838ae"},"vehicle_type_id":"4","last_reported":1769030371,"current_range_meters":3600,"station_id":"ce4bhph2rcd13ifvqhdg","pricing_plan_id":"cebpf4jnsgd1na2vs0mg"},{"bike_id":"38f89def-53d1-4cd0-8ee9-53a0272492ed","system_id":"levelo_inurba_marseille","lat":43.28861,"lon":5.4252,"is_reserved":false,"is_disabled":false,"rental_uris":{"android":"levelo://app?vid=38f89def-53d1-4cd0-8ee9-53a0272492ed","ios":"levelo://app?vid=38f89def-53d1-4cd0-8ee9-53a0272492ed"},"vehicle_type_id":"4","last_reported":1769030371,"current_range_meters":3600,"station_id":"st_d3b462108ojc7389ooeg","pricing_plan_id":"cebpf4jnsgd1na2vs0mg"},{"bike_id":"e33484e0-7a35-4b93-ab20-96b6be2bd7f2","system_id":"levelo_inurba_marseille","lat":43.317544,"lon":5.39021,"is_reserved":false,"is_disabled":false,"rental_uris":{"android":"levelo://app?vid=e33484e0-7a35-4b93-ab20-96b6be2bd7f2","ios":"levelo://app?vid=e33484e0-7a35-4b93-ab20-96b6be2bd7f2"},"vehicle_type_id":"4","last_reported":1769030371,"current_range_meters":3600,"station_id":"ce4bhqp2rcd13ifvqhng","pricing_plan_id":"cebpf4jnsgd1na2vs0mg"},{"bike_id":"ba5cf8bf-3fab-4906-a539-9829815d5bcb","system_id":"levelo_inurba_marseille","lat":43.270585,"lon":5.402545,"is_reserved":false,"is_disabled":false,"rental_uris":{"android":"levelo://app?vid=ba5cf8bf-3fab-4906-a539-9829815d5bcb","ios":"levelo://app?vid=ba5cf8bf-3fab-4906-a539-9829815d5bcb"},"vehicle_type_id":"4","last_reported":1769030371,"current_range_meters":3600,"station_id":"ce4bhk92rcd13ifvqgc0","pricing_plan_id":"cebpf4jnsgd1na2vs0mg"},{"bike_id":"8fd37eb2-3b65-4481-aaea-413cb5168da8","system_id":"levelo_inurba_marseille","lat":43.33345,"lon":5.41102,"is_reserved":false,"is_disabled":false,"rental_uris":{"android":"levelo://app?vid=8fd37eb2-3b65-4481-aaea-413cb5168da8","ios":"levelo://app?vid=8fd37eb2-3b65-4481-aaea-413cb5168da8"},"vehicle_type_id":"4","last_reported":1769030371,"current_range_meters":3600,"station_id":"","pricing_plan_id":"cebpf4jnsgd1na2vs0mg"},{"bike_id":"e298d5b4-24e2-44bb-9d8c-10ffd7cc7e7a","system_id":"levelo_inurba_marseille","lat":43.25002,"lon":5.3893,"is_reserved":false,"is_disabled":false,"rental_uris":{"android":"levelo://app?vid=e298d5b4-24e2-44bb-9d8c-10ffd7cc7e7a","ios":"levelo://app?vid=e298d5b4-24e2-44bb-9d8c-10ffd7cc7e7a"},"vehicle_type_id":"4","last_reported":1769030371,"current_range_meters":3600,"station_id":"ce4bhgp2rcd13ifvqfd0","pricing_plan_id":"cebpf4jnsgd1na2vs0mg"},{"bike_id":"5fef5d79-e9c3-4339-983d-afdd19e6bdcf","system_id":"levelo_inurba_marseille","lat":43.29256,"lon":5.38429,"is_reserved":false,"is_disabled":false,"rental_uris":{"android":"levelo://app?vid=5fef5d79-e9c3-4339-983d-afdd19e6bdcf","ios":"levelo://app?vid=5fef5d79-e9c3-4339-983d-afdd19e6bdcf"},"vehicle_type_id":"4","last_reported":1769030371,"current_range_meters":3600,"station_id":"ce4bh692rcd13ifvqea0","pricing_plan_id":"cebpf4jnsgd1na2vs0mg"},{"bike_id":"d7ffb497-21fb-432f-9120-a3d95d6b8ce1","system_id":"levelo_inurba_marseille","lat":43.2706,"lon":5.40252,"is_reserved":false,"is_disabled":false,"rental_uris":{"android":"levelo://app?vid=d7ffb497-21fb-432f-9120-a3d95d6b8ce1","ios":"levelo://app?vid=d7ffb497-21fb-432f-9120-a3d95d6b8ce1"},"vehicle_type_id":"4","last_reported":1769030371,"current_range_meters":3600,"station_id":"ce4bhk92rcd13ifvqgc0","pricing_plan_id":"cebpf4jnsgd1na2vs0mg"},{"bike_id":"a2424baa-0e5e-4ed2-9ae6-78591e46955c","system_id":"levelo_inurba_marseille","lat":43.28469,"lon":5.48392,"is_reserved":false,"is_disabled":false,"rental_uris":{"android":"levelo://app?vid=a2424baa-0e5e-4ed2-9ae6-78591e46955c","ios":"levelo://app?vid=a2424baa-0e5e-4ed2-9ae6-78591e46955c"},"vehicle_type_id":"4","last_reported":1769030371,"current_range_meters":3600,"station_id":"st_d3svhcjqgbts73a3dn0g","pricing_plan_id":"cebpf4jnsgd1na2vs0mg"},{"bike_id":"1fa63ff3-a100-48a8-877d-33eed0913c54","system_id":"levelo_inurba_marseille","lat":43.28672,"lon":5.3866,"is_reserved":false,"is_disabled":false,"rental_uris":{"android":"levelo://app?vid=1fa63ff3-a100-48a8-877d-33eed0913c54","ios":"levelo://app?vid=1fa63ff3-a100-48a8-877d-33eed0913c54"},"vehicle_type_id":"4","last_reported":1769030371,"current_range_meters":4000,"station_id":"ce4bh492rcd13ifvqdug","pricing_plan_id":"cebpf4jnsgd1na2vs0mg"},{"bike_id":"22bc7d9a-f1b5-4e7a-b894-bc59ec64767c","system_id":"levelo_inurba_marseille","lat":43.29766,"lon":5.42792,"is_reserved":false,"is_disabled":false,"rental_uris":{"android":"levelo://app?vid=22bc7d9a-f1b5-4e7a-b894-bc59ec64767c","ios":"levelo://app?vid=22bc7d9a-f1b5-4e7a-b894-bc59ec64767c"},"vehicle_type_id":"4","last_reported":1769030371,"current_range_meters":4000,"station_id":"st_d3md5207bmas73dh9klg","pricing_plan_id":"cebpf4jnsgd1na2vs0mg"},{"bike_id":"8069f374-6bb2-4df8-950d-be2e50fcd180","system_id":"levelo_inurba_marseille","lat":43.3112,"lon":5.37761,"is_reserved":false,"is_disabled":true,"rental_uris":{"android":"levelo://app?vid=8069f374-6bb2-4df8-950d-be2e50fcd180","ios":"levelo://app?vid=8069f374-6bb2-4df8-950d-be2e50fcd180"},"vehicle_type_id":"4","last_reported":1769030371,"current_range_meters":4000,"station_id":"ce4bgt92rcd13ifvqcg0","pricing_plan_id":"cebpf4jnsgd1na2vs0mg"},{"bike_id":"3c5d2fc6-2a7b-434b-bb80-73e4b09df88b","system_id":"levelo_inurba_marseille","lat":43.29697,"lon":5.36609,"is_reserved":false,"is_disabled":false,"rental_uris":{"android":"levelo://app?vid=3c5d2fc6-2a7b-434b-bb80-73e4b09df88b","ios":"levelo://app?vid=3c5d2fc6-2a7b-434b-bb80-73e4b09df88b"},"vehicle_type_id":"4","last_reported":1769030371,"current_range_meters":4000,"station_id":"ce4bgn12rcd13ifvqbt0","pricing_plan_id":"cebpf4jnsgd1na2vs0mg"},{"bike_id":"836c81e2-f192-454e-b003-dbad80208c28","system_id":"levelo_inurba_marseille","lat":43.25828,"lon":5.39428,"is_reserved":false,"is_disabled":false,"rental_uris":{"android":"levelo://app?vid=836c81e2-f192-454e-b003-dbad80208c28","ios":"levelo://app?vid=836c81e2-f192-454e-b003-dbad80208c28"},"vehicle_type_id":"4","last_reported":1769030371,"current_range_meters":4000,"station_id":"ce4bhip2rcd13ifvqft0","pricing_plan_id":"cebpf4jnsgd1na2vs0mg"},{"bike_id":"f05007e2-9edb-46b6-aa13-75de5b118ebc","system_id":"levelo_inurba_marseille","lat":43.29056,"lon":5.38667,"is_reserved":false,"is_disabled":false,"rental_uris":{"android":"levelo://app?vid=f05007e2-9edb-46b6-aa13-75de5b118ebc","ios":"levelo://app?vid=f05007e2-9edb-46b6-aa13-75de5b118ebc"},"vehicle_type_id":"4","last_reported":1769030371,"current_range_meters":4000,"station_id":"ce4bh4p2rcd13ifvqe0g","pricing_plan_id":"cebpf4jnsgd1na2vs0mg"},{"bike_id":"94b856bc-8a8a-49fc-9052-35a630264686","system_id":"levelo_inurba_marseille","lat":43.27329,"lon":5.39046,"is_reserved":false,"is_disabled":false,"rental_uris":{"android":"levelo://app?vid=94b856bc-8a8a-49fc-9052-35a630264686","ios":"levelo://app?vid=94b856bc-8a8a-49fc-9052-35a630264686"},"vehicle_type_id":"4","last_reported":1769030371,"current_range_meters":4000,"station_id":"ce4bhgp2rcd13ifvqfe0","pricing_plan_id":"cebpf4jnsgd1na2vs0mg"},{"bike_id":"5f6a0a0c-aaf7-41c1-be98-33b50db68fe6","system_id":"levelo_inurba_marseille","lat":43.26486,"lon":5.39557,"is_reserved":false,"is_disabled":true,"rental_uris":{"android":"levelo://app?vid=5f6a0a0c-aaf7-41c1-be98-33b50db68fe6","ios":"levelo://app?vid=5f6a0a0c-aaf7-41c1-be98-33b50db68fe6"},"vehicle_type_id":"4","last_reported":1769030371,"current_range_meters":4000,"station_id":"ce4bhi12rcd13ifvqfq0","pricing_plan_id":"cebpf4jnsgd1na2vs0mg"},{"bike_id":"674e3ad4-0057-4a66-86e9-d4ef9e8f9d7f","system_id":"levelo_inurba_marseille","lat":43.25342,"lon":5.42166,"is_reserved":false,"is_disabled":false,"rental_uris":{"android":"levelo://app?vid=674e3ad4-0057-4a66-86e9-d4ef9e8f9d7f","ios":"levelo://app?vid=674e3ad4-0057-4a66-86e9-d4ef9e8f9d7f"},"vehicle_type_id":"4","last_reported":1769030371,"current_range_meters":4000,"station_id":"st_d2m65c5bi1j21697t3ng","pricing_plan_id":"cebpf4jnsgd1na2vs0mg"},{"bike_id":"5e6a2e23-cc18-498f-9f67-276968f75f61","system_id":"levelo_inurba_marseille","lat":43.27413,"lon":5.39327,"is_reserved":false,"is_disabled":false,"rental_uris":{"android":"levelo://app?vid=5e6a2e23-cc18-498f-9f67-276968f75f61","ios":"levelo://app?vid=5e6a2e23-cc18-498f-9f67-276968f75f61"},"vehicle_type_id":"4","last_reported":1769030371,"current_range_meters":4000,"station_id":"","pricing_plan_id":"cebpf4jnsgd1na2vs0mg"},{"bike_id":"ba77a363-a500-48e6-bc8a-24b330f60862","system_id":"levelo_inurba_marseille","lat":43.29262,"lon":5.38458,"is_reserved":false,"is_disabled":false,"rental_uris":{"android":"levelo://app?vid=ba77a363-a500-48e6-bc8a-24b330f60862","ios":"levelo://app?vid=ba77a363-a500-48e6-bc8a-24b330f60862"},"vehicle_type_id":"4","last_reported":1769030371,"current_range_meters":4000,"station_id":"ce4bh692rcd13ifvqea0","pricing_plan_id":"cebpf4jnsgd1na2vs0mg"},{"bike_id":"75d212f5-2dae-4b21-9e67-495cb3723ca2","system_id":"levelo_inurba_marseille","lat":43.23957,"lon":5.36637,"is_reserved":false,"is_disabled":false,"rental_uris":{"android":"levelo://app?vid=75d212f5-2dae-4b21-9e67-495cb3723ca2","ios":"levelo://app?vid=75d212f5-2dae-4b21-9e67-495cb3723ca2"},"vehicle_type_id":"4","last_reported":1769030371,"current_range_meters":4000,"station_id":"ce4bhi12rcd13ifvqfp0","pricing_plan_id":"cebpf4jnsgd1na2vs0mg"},{"bike_id":"7e984f35-d0e6-4e22-b00d-bdc9742bb272","system_id":"levelo_inurba_marseille","lat":43.28705,"lon":5.3738,"is_reserved":false,"is_disabled":false,"rental_uris":{"android":"levelo://app?vid=7e984f35-d0e6-4e22-b00d-bdc9742bb272","ios":"levelo://app?vid=7e984f35-d0e6-4e22-b00d-bdc9742bb272"},"vehicle_type_id":"4","last_reported":1769030371,"current_range_meters":4000,"station_id":"ce4bh3p2rcd13ifvqdq0","pricing_plan_id":"cebpf4jnsgd1na2vs0mg"},{"bike_id":"7dec8c94-369e-4111-95bd-94da7a72318c","system_id":"levelo_inurba_marseille","lat":43.28354,"lon":5.38121,"is_reserved":false,"is_disabled":false,"rental_uris":{"android":"levelo://app?vid=7dec8c94-369e-4111-95bd-94da7a72318c","ios":"levelo://app?vid=7dec8c94-369e-4111-95bd-94da7a72318c"},"vehicle_type_id":"4","last_reported":1769030371,"current_range_meters":4000,"station_id":"ce4bh412rcd13ifvqdr0","pricing_plan_id":"cebpf4jnsgd1na2vs0mg"},{"bike_id":"a22dff2c-fc26-400c-95c2-739de4d20e68","system_id":"levelo_inurba_marseille","lat":43.28685,"lon":5.38686,"is_reserved":false,"is_disabled":false,"rental_uris":{"android":"levelo://app?vid=a22dff2c-fc26-400c-95c2-739de4d20e68","ios":"levelo://app?vid=a22dff2c-fc26-400c-95c2-739de4d20e68"},"vehicle_type_id":"4","last_reported":1769030371,"current_range_meters":4000,"station_id":"ce4bh492rcd13ifvqdug","pricing_plan_id":"cebpf4jnsgd1na2vs0mg"},{"bike_id":"59590615-afe2-4009-bc43-9e26ff5087c0","system_id":"levelo_inurba_marseille","lat":43.2902,"lon":5.38646,"is_reserved":false,"is_disabled":false,"rental_uris":{"android":"levelo://app?vid=59590615-afe2-4009-bc43-9e26ff5087c0","ios":"levelo://app?vid=59590615-afe2-4009-bc43-9e26ff5087c0"},"vehicle_type_id":"4","last_reported":1769030371,"current_range_meters":4400,"station_id":"ce4bh4p2rcd13ifvqe0g","pricing_plan_id":"cebpf4jnsgd1na2vs0mg"},{"bike_id":"5ccd4b49-397b-4ce5-a22c-752ca0560289","system_id":"levelo_inurba_marseille","lat":43.29579,"lon":5.39966,"is_reserved":false,"is_disabled":false,"rental_uris":{"android":"levelo://app?vid=5ccd4b49-397b-4ce5-a22c-752ca0560289","ios":"levelo://app?vid=5ccd4b49-397b-4ce5-a22c-752ca0560289"},"vehicle_type_id":"4","last_reported":1769030371,"current_range_meters":4400,"station_id":"ce4bh312rcd13ifvqdj0","pricing_plan_id":"cebpf4jnsgd1na2vs0mg"},{"bike_id":"fc4e3a66-55ac-450e-a159-861862597655","system_id":"levelo_inurba_marseille","lat":43.27319,"lon":5.39093,"is_reserved":false,"is_disabled":false,"rental_uris":{"android":"levelo://app?vid=fc4e3a66-55ac-450e-a159-861862597655","ios":"levelo://app?vid=fc4e3a66-55ac-450e-a159-861862597655"},"vehicle_type_id":"4","last_reported":1769030371,"current_range_meters":4400,"station_id":"ce4bhgp2rcd13ifvqfe0","pricing_plan_id":"cebpf4jnsgd1na2vs0mg"},{"bike_id":"f32f99ba-3ead-4e04-9bcb-0439bdc4e6db","system_id":"levelo_inurba_marseille","lat":43.29913,"lon":5.40302,"is_reserved":false,"is_disabled":false,"rental_uris":{"android":"levelo://app?vid=f32f99ba-3ead-4e04-9bcb-0439bdc4e6db","ios":"levelo://app?vid=f32f99ba-3ead-4e04-9bcb-0439bdc4e6db"},"vehicle_type_id":"4","last_reported":1769030371,"current_range_meters":4400,"station_id":"","pricing_plan_id":"cebpf4jnsgd1na2vs0mg"},{"bike_id":"ce4542fd-c035-493f-a9d3-5c3c2123e535","system_id":"levelo_inurba_marseille","lat":43.299168,"lon":5.374817,"is_reserved":false,"is_disabled":false,"rental_uris":{"android":"levelo://app?vid=ce4542fd-c035-493f-a9d3-5c3c2123e535","ios":"levelo://app?vid=ce4542fd-c035-493f-a9d3-5c3c2123e535"},"vehicle_type_id":"4","last_reported":1769030371,"current_range_meters":4400,"station_id":"ce4bgjh2rcd13ifvqbg0","pricing_plan_id":"cebpf4jnsgd1na2vs0mg"},{"bike_id":"8bb716ba-acd9-41b8-8ebc-25dca5eb387b","system_id":"levelo_inurba_marseille","lat":43.30307,"lon":5.36881,"is_reserved":false,"is_disabled":false,"rental_uris":{"android":"levelo://app?vid=8bb716ba-acd9-41b8-8ebc-25dca5eb387b","ios":"levelo://app?vid=8bb716ba-acd9-41b8-8ebc-25dca5eb387b"},"vehicle_type_id":"4","last_reported":1769030371,"current_range_meters":4400,"station_id":"ce4bgqh2rcd13ifvqc5g","pricing_plan_id":"cebpf4jnsgd1na2vs0mg"},{"bike_id":"0d039f66-11a1-4daa-9c3e-527b4b511ff8","system_id":"levelo_inurba_marseille","lat":43.26045,"lon":5.39366,"is_reserved":false,"is_disabled":true,"rental_uris":{"android":"levelo://app?vid=0d039f66-11a1-4daa-9c3e-527b4b511ff8","ios":"levelo://app?vid=0d039f66-11a1-4daa-9c3e-527b4b511ff8"},"vehicle_type_id":"4","last_reported":1769030371,"current_range_meters":4400,"station_id":"ce4bhh92rcd13ifvqfj0","pricing_plan_id":"cebpf4jnsgd1na2vs0mg"},{"bike_id":"12d50624-36fb-429d-be6d-b5122cf2de21","system_id":"levelo_inurba_marseille","lat":43.317547,"lon":5.389979,"is_reserved":false,"is_disabled":false,"rental_uris":{"android":"levelo://app?vid=12d50624-36fb-429d-be6d-b5122cf2de21","ios":"levelo://app?vid=12d50624-36fb-429d-be6d-b5122cf2de21"},"vehicle_type_id":"4","last_reported":1769030371,"current_range_meters":4400,"station_id":"ce4bhqp2rcd13ifvqhng","pricing_plan_id":"cebpf4jnsgd1na2vs0mg"},{"bike_id":"9ed85f30-2205-4d4d-9b08-e4294486deeb","system_id":"levelo_inurba_marseille","lat":43.27202,"lon":5.39166,"is_reserved":false,"is_disabled":false,"rental_uris":{"android":"levelo://app?vid=9ed85f30-2205-4d4d-9b08-e4294486deeb","ios":"levelo://app?vid=9ed85f30-2205-4d4d-9b08-e4294486deeb"},"vehicle_type_id":"4","last_reported":1769030371,"current_range_meters":4400,"station_id":"ce4bhhp2rcd13ifvqfm0","pricing_plan_id":"cebpf4jnsgd1na2vs0mg"},{"bike_id":"35b6fe40-81a7-4512-a22f-53f5dd76c31f","system_id":"levelo_inurba_marseille","lat":43.29252,"lon":5.38428,"is_reserved":false,"is_disabled":false,"rental_uris":{"android":"levelo://app?vid=35b6fe40-81a7-4512-a22f-53f5dd76c31f","ios":"levelo://app?vid=35b6fe40-81a7-4512-a22f-53f5dd76c31f"},"vehicle_type_id":"4","last_reported":1769030371,"current_range_meters":4400,"station_id":"ce4bh692rcd13ifvqea0","pricing_plan_id":"cebpf4jnsgd1na2vs0mg"},{"bike_id":"00b937db-a2ad-4ae8-a0bd-5b7deb088884","system_id":"levelo_inurba_marseille","lat":43.29533,"lon":5.38552,"is_reserved":false,"is_disabled":false,"rental_uris":{"android":"levelo://app?vid=00b937db-a2ad-4ae8-a0bd-5b7deb088884","ios":"levelo://app?vid=00b937db-a2ad-4ae8-a0bd-5b7deb088884"},"vehicle_type_id":"4","last_reported":1769030371,"current_range_meters":4400,"station_id":"ce4bgih2rcd13ifvqba0","pricing_plan_id":"cebpf4jnsgd1na2vs0mg"},{"bike_id":"93c7a025-127d-40b2-862c-98919fbc02da","system_id":"levelo_inurba_marseille","lat":43.23188,"lon":5.39992,"is_reserved":false,"is_disabled":false,"rental_uris":{"android":"levelo://app?vid=93c7a025-127d-40b2-862c-98919fbc02da","ios":"levelo://app?vid=93c7a025-127d-40b2-862c-98919fbc02da"},"vehicle_type_id":"4","last_reported":1769030371,"current_range_meters":4400,"station_id":"ce4bhn12rcd13ifvqgqg","pricing_plan_id":"cebpf4jnsgd1na2vs0mg"},{"bike_id":"1e9683fd-3419-4707-ab97-e3b80d5f4bea","system_id":"levelo_inurba_marseille","lat":43.27158,"lon":5.40458,"is_reserved":false,"is_disabled":false,"rental_uris":{"android":"levelo://app?vid=1e9683fd-3419-4707-ab97-e3b80d5f4bea","ios":"levelo://app?vid=1e9683fd-3419-4707-ab97-e3b80d5f4bea"},"vehicle_type_id":"4","last_reported":1769030371,"current_range_meters":4400,"station_id":"","pricing_plan_id":"cebpf4jnsgd1na2vs0mg"},{"bike_id":"1c9f2e94-25b8-432d-aac8-42f703544d49","system_id":"levelo_inurba_marseille","lat":43.225325,"lon":5.34829,"is_reserved":false,"is_disabled":false,"rental_uris":{"android":"levelo://app?vid=1c9f2e94-25b8-432d-aac8-42f703544d49","ios":"levelo://app?vid=1c9f2e94-25b8-432d-aac8-42f703544d49"},"vehicle_type_id":"4","last_reported":1769030371,"current_range_meters":4400,"station_id":"","pricing_plan_id":"cebpf4jnsgd1na2vs0mg"},{"bike_id":"2407d549-07b0-4d23-9c5a-3bbffbfc7675","system_id":"levelo_inurba_marseille","lat":43.249969,"lon":5.389364,"is_reserved":false,"is_disabled":false,"rental_uris":{"android":"levelo://app?vid=2407d549-07b0-4d23-9c5a-3bbffbfc7675","ios":"levelo://app?vid=2407d549-07b0-4d23-9c5a-3bbffbfc7675"},"vehicle_type_id":"4","last_reported":1769030371,"current_range_meters":4400,"station_id":"","pricing_plan_id":"cebpf4jnsgd1na2vs0mg"},{"bike_id":"6ce3afbb-a674-4742-9e73-f5def118c644","system_id":"levelo_inurba_marseille","lat":43.28926,"lon":5.38387,"is_reserved":false,"is_disabled":false,"rental_uris":{"android":"levelo://app?vid=6ce3afbb-a674-4742-9e73-f5def118c644","ios":"levelo://app?vid=6ce3afbb-a674-4742-9e73-f5def118c644"},"vehicle_type_id":"4","last_reported":1769030371,"current_range_meters":4400,"station_id":"ce4bh612rcd13ifvqe6g","pricing_plan_id":"cebpf4jnsgd1na2vs0mg"},{"bike_id":"e9a42ead-0d12-40f0-b190-b1b6a6eb7802","system_id":"levelo_inurba_marseille","lat":43.24809,"lon":5.3746,"is_reserved":false,"is_disabled":false,"rental_uris":{"android":"levelo://app?vid=e9a42ead-0d12-40f0-b190-b1b6a6eb7802","ios":"levelo://app?vid=e9a42ead-0d12-40f0-b190-b1b6a6eb7802"},"vehicle_type_id":"4","last_reported":1769030371,"current_range_meters":4400,"station_id":"ce4bhgh2rcd13ifvqfb0","pricing_plan_id":"cebpf4jnsgd1na2vs0mg"},{"bike_id":"5b5444c9-62cf-4182-a267-b561e9fb807b","system_id":"levelo_inurba_marseille","lat":43.27559,"lon":5.38417,"is_reserved":false,"is_disabled":false,"rental_uris":{"android":"levelo://app?vid=5b5444c9-62cf-4182-a267-b561e9fb807b","ios":"levelo://app?vid=5b5444c9-62cf-4182-a267-b561e9fb807b"},"vehicle_type_id":"4","last_reported":1769030371,"current_range_meters":4800,"station_id":"ce4bhh92rcd13ifvqfi0","pricing_plan_id":"cebpf4jnsgd1na2vs0mg"},{"bike_id":"fb2014f7-1d5f-4062-89cd-f41381344fc0","system_id":"levelo_inurba_marseille","lat":43.269312,"lon":5.402522,"is_reserved":false,"is_disabled":false,"rental_uris":{"android":"levelo://app?vid=fb2014f7-1d5f-4062-89cd-f41381344fc0","ios":"levelo://app?vid=fb2014f7-1d5f-4062-89cd-f41381344fc0"},"vehicle_type_id":"4","last_reported":1769030371,"current_range_meters":4800,"station_id":"cjm6bp8fraef2m0cb0m0","pricing_plan_id":"cebpf4jnsgd1na2vs0mg"},{"bike_id":"951d8829-e976-4f3c-b7cf-ce8d37c31a72","system_id":"levelo_inurba_marseille","lat":43.26556,"lon":5.39043,"is_reserved":false,"is_disabled":false,"rental_uris":{"android":"levelo://app?vid=951d8829-e976-4f3c-b7cf-ce8d37c31a72","ios":"levelo://app?vid=951d8829-e976-4f3c-b7cf-ce8d37c31a72"},"vehicle_type_id":"4","last_reported":1769030371,"current_range_meters":4800,"station_id":"ce4bhe12rcd13ifvqf30","pricing_plan_id":"cebpf4jnsgd1na2vs0mg"},{"bike_id":"e44dfb94-5cd4-480c-b825-9b07ead49d70","system_id":"levelo_inurba_marseille","lat":43.26946,"lon":5.38628,"is_reserved":false,"is_disabled":false,"rental_uris":{"android":"levelo://app?vid=e44dfb94-5cd4-480c-b825-9b07ead49d70","ios":"levelo://app?vid=e44dfb94-5cd4-480c-b825-9b07ead49d70"},"vehicle_type_id":"4","last_reported":1769030371,"current_range_meters":4800,"station_id":"ce4bhh92rcd13ifvqfh0","pricing_plan_id":"cebpf4jnsgd1na2vs0mg"},{"bike_id":"2351e1c9-97c0-42ed-8ba7-93d168c64106","system_id":"levelo_inurba_marseille","lat":43.29756,"lon":5.42774,"is_reserved":false,"is_disabled":false,"rental_uris":{"android":"levelo://app?vid=2351e1c9-97c0-42ed-8ba7-93d168c64106","ios":"levelo://app?vid=2351e1c9-97c0-42ed-8ba7-93d168c64106"},"vehicle_type_id":"4","last_reported":1769030371,"current_range_meters":4800,"station_id":"st_d3md5207bmas73dh9klg","pricing_plan_id":"cebpf4jnsgd1na2vs0mg"},{"bike_id":"56496f15-285b-4dff-92b3-54ffdff3e399","system_id":"levelo_inurba_marseille","lat":43.268233,"lon":5.396286,"is_reserved":false,"is_disabled":false,"rental_uris":{"android":"levelo://app?vid=56496f15-285b-4dff-92b3-54ffdff3e399","ios":"levelo://app?vid=56496f15-285b-4dff-92b3-54ffdff3e399"},"vehicle_type_id":"4","last_reported":1769030371,"current_range_meters":4800,"station_id":"","pricing_plan_id":"cebpf4jnsgd1na2vs0mg"},{"bike_id":"6b0a7910-4f3c-47d6-b165-5319282e4ed9","system_id":"levelo_inurba_marseille","lat":43.33535,"lon":5.37459,"is_reserved":false,"is_disabled":false,"rental_uris":{"android":"levelo://app?vid=6b0a7910-4f3c-47d6-b165-5319282e4ed9","ios":"levelo://app?vid=6b0a7910-4f3c-47d6-b165-5319282e4ed9"},"vehicle_type_id":"4","last_reported":1769030371,"current_range_meters":4800,"station_id":"","pricing_plan_id":"cebpf4jnsgd1na2vs0mg"},{"bike_id":"94cd4065-2da4-4578-bc78-c1ec4a590ca1","system_id":"levelo_inurba_marseille","lat":43.27623,"lon":5.42441,"is_reserved":false,"is_disabled":false,"rental_uris":{"android":"levelo://app?vid=94cd4065-2da4-4578-bc78-c1ec4a590ca1","ios":"levelo://app?vid=94cd4065-2da4-4578-bc78-c1ec4a590ca1"},"vehicle_type_id":"4","last_reported":1769030371,"current_range_meters":4800,"station_id":"","pricing_plan_id":"cebpf4jnsgd1na2vs0mg"},{"bike_id":"dd88ee0a-9abf-45c4-893e-6addebd74a1a","system_id":"levelo_inurba_marseille","lat":43.29833,"lon":5.36286,"is_reserved":false,"is_disabled":false,"rental_uris":{"android":"levelo://app?vid=dd88ee0a-9abf-45c4-893e-6addebd74a1a","ios":"levelo://app?vid=dd88ee0a-9abf-45c4-893e-6addebd74a1a"},"vehicle_type_id":"4","last_reported":1769030371,"current_range_meters":4800,"station_id":"ce4bgpp2rcd13ifvqc3g","pricing_plan_id":"cebpf4jnsgd1na2vs0mg"},{"bike_id":"81e064df-319d-4cae-bb05-3e047943ab91","system_id":"levelo_inurba_marseille","lat":43.24089,"lon":5.3777,"is_reserved":false,"is_disabled":false,"rental_uris":{"android":"levelo://app?vid=81e064df-319d-4cae-bb05-3e047943ab91","ios":"levelo://app?vid=81e064df-319d-4cae-bb05-3e047943ab91"},"vehicle_type_id":"4","last_reported":1769030371,"current_range_meters":4800,"station_id":"ce4bhnp2rcd13ifvqgvg","pricing_plan_id":"cebpf4jnsgd1na2vs0mg"},{"bike_id":"bc53fded-5652-4ab5-920f-ec142a69c388","system_id":"levelo_inurba_marseille","lat":43.29787,"lon":5.39363,"is_reserved":false,"is_disabled":false,"rental_uris":{"android":"levelo://app?vid=bc53fded-5652-4ab5-920f-ec142a69c388","ios":"levelo://app?vid=bc53fded-5652-4ab5-920f-ec142a69c388"},"vehicle_type_id":"4","last_reported":1769030371,"current_range_meters":4800,"station_id":"chh1huq6cuj3fo74tm60","pricing_plan_id":"cebpf4jnsgd1na2vs0mg"},{"bike_id":"60f9beeb-2a23-4993-979c-4f2d4506677d","system_id":"levelo_inurba_marseille","lat":43.291971,"lon":5.393204,"is_reserved":false,"is_disabled":false,"rental_uris":{"android":"levelo://app?vid=60f9beeb-2a23-4993-979c-4f2d4506677d","ios":"levelo://app?vid=60f9beeb-2a23-4993-979c-4f2d4506677d"},"vehicle_type_id":"4","last_reported":1769030371,"current_range_meters":4800,"station_id":"","pricing_plan_id":"cebpf4jnsgd1na2vs0mg"},{"bike_id":"29bfec45-ad76-429c-882a-34b6f5ca4191","system_id":"levelo_inurba_marseille","lat":43.32098,"lon":5.36799,"is_reserved":false,"is_disabled":false,"rental_uris":{"android":"levelo://app?vid=29bfec45-ad76-429c-882a-34b6f5ca4191","ios":"levelo://app?vid=29bfec45-ad76-429c-882a-34b6f5ca4191"},"vehicle_type_id":"4","last_reported":1769030371,"current_range_meters":4800,"station_id":"ce4bhrh2rcd13ifvqhug","pricing_plan_id":"cebpf4jnsgd1na2vs0mg"},{"bike_id":"a4650aea-5a7d-42ef-a184-184fe4c740ed","system_id":"levelo_inurba_marseille","lat":43.2801,"lon":5.41664,"is_reserved":false,"is_disabled":false,"rental_uris":{"android":"levelo://app?vid=a4650aea-5a7d-42ef-a184-184fe4c740ed","ios":"levelo://app?vid=a4650aea-5a7d-42ef-a184-184fe4c740ed"},"vehicle_type_id":"4","last_reported":1769030371,"current_range_meters":4800,"station_id":"ce4bho12rcd13ifvqh1g","pricing_plan_id":"cebpf4jnsgd1na2vs0mg"},{"bike_id":"92627d90-ac48-4227-8b3f-dad6aa59d4b3","system_id":"levelo_inurba_marseille","lat":43.21193,"lon":5.35062,"is_reserved":false,"is_disabled":false,"rental_uris":{"android":"levelo://app?vid=92627d90-ac48-4227-8b3f-dad6aa59d4b3","ios":"levelo://app?vid=92627d90-ac48-4227-8b3f-dad6aa59d4b3"},"vehicle_type_id":"4","last_reported":1769030371,"current_range_meters":5600,"station_id":"","pricing_plan_id":"cebpf4jnsgd1na2vs0mg"},{"bike_id":"99d65f09-c0e6-4f0f-b72f-6e110c0f1bd4","system_id":"levelo_inurba_marseille","lat":43.28991,"lon":5.37626,"is_reserved":false,"is_disabled":false,"rental_uris":{"android":"levelo://app?vid=99d65f09-c0e6-4f0f-b72f-6e110c0f1bd4","ios":"levelo://app?vid=99d65f09-c0e6-4f0f-b72f-6e110c0f1bd4"},"vehicle_type_id":"4","last_reported":1769030371,"current_range_meters":5600,"station_id":"","pricing_plan_id":"cebpf4jnsgd1na2vs0mg"},{"bike_id":"9fe9b7fa-bf5e-456b-b148-d56a572e2392","system_id":"levelo_inurba_marseille","lat":43.22567,"lon":5.41617,"is_reserved":false,"is_disabled":false,"rental_uris":{"android":"levelo://app?vid=9fe9b7fa-bf5e-456b-b148-d56a572e2392","ios":"levelo://app?vid=9fe9b7fa-bf5e-456b-b148-d56a572e2392"},"vehicle_type_id":"4","last_reported":1769030371,"current_range_meters":5600,"station_id":"st_d2o4gvlbi1j2169b742g","pricing_plan_id":"cebpf4jnsgd1na2vs0mg"},{"bike_id":"00729f81-defe-4949-ab38-da427b717ebf","system_id":"levelo_inurba_marseille","lat":43.26114,"lon":5.40478,"is_reserved":false,"is_disabled":false,"rental_uris":{"android":"levelo://app?vid=00729f81-defe-4949-ab38-da427b717ebf","ios":"levelo://app?vid=00729f81-defe-4949-ab38-da427b717ebf"},"vehicle_type_id":"4","last_reported":1769030371,"current_range_meters":5600,"station_id":"ce4bhmh2rcd13ifvqgmg","pricing_plan_id":"cebpf4jnsgd1na2vs0mg"},{"bike_id":"e89d918a-4166-4191-b158-4889e632686a","system_id":"levelo_inurba_marseille","lat":43.29262,"lon":5.38448,"is_reserved":false,"is_disabled":false,"rental_uris":{"android":"levelo://app?vid=e89d918a-4166-4191-b158-4889e632686a","ios":"levelo://app?vid=e89d918a-4166-4191-b158-4889e632686a"},"vehicle_type_id":"4","last_reported":1769030371,"current_range_meters":5600,"station_id":"ce4bh692rcd13ifvqea0","pricing_plan_id":"cebpf4jnsgd1na2vs0mg"},{"bike_id":"879af67b-1660-4e82-aa1c-7cf08d2076b6","system_id":"levelo_inurba_marseille","lat":43.28461,"lon":5.38467,"is_reserved":false,"is_disabled":false,"rental_uris":{"android":"levelo://app?vid=879af67b-1660-4e82-aa1c-7cf08d2076b6","ios":"levelo://app?vid=879af67b-1660-4e82-aa1c-7cf08d2076b6"},"vehicle_type_id":"4","last_reported":1769030371,"current_range_meters":5600,"station_id":"ce4bh512rcd13ifvqe3g","pricing_plan_id":"cebpf4jnsgd1na2vs0mg"},{"bike_id":"3949a607-bb2d-4ed5-be69-f48824ee846c","system_id":"levelo_inurba_marseille","lat":43.29865,"lon":5.36531,"is_reserved":false,"is_disabled":false,"rental_uris":{"android":"levelo://app?vid=3949a607-bb2d-4ed5-be69-f48824ee846c","ios":"levelo://app?vid=3949a607-bb2d-4ed5-be69-f48824ee846c"},"vehicle_type_id":"4","last_reported":1769030371,"current_range_meters":5600,"station_id":"","pricing_plan_id":"cebpf4jnsgd1na2vs0mg"},{"bike_id":"dd884f9c-4374-4acb-82b1-707a0b464290","system_id":"levelo_inurba_marseille","lat":43.29525,"lon":5.39055,"is_reserved":false,"is_disabled":false,"rental_uris":{"android":"levelo://app?vid=dd884f9c-4374-4acb-82b1-707a0b464290","ios":"levelo://app?vid=dd884f9c-4374-4acb-82b1-707a0b464290"},"vehicle_type_id":"4","last_reported":1769030371,"current_range_meters":5600,"station_id":"ce4bh3p2rcd13ifvqdp0","pricing_plan_id":"cebpf4jnsgd1na2vs0mg"},{"bike_id":"31c21be6-18ca-494d-8d01-2f205767068d","system_id":"levelo_inurba_marseille","lat":43.31839,"lon":5.37544,"is_reserved":false,"is_disabled":false,"rental_uris":{"android":"levelo://app?vid=31c21be6-18ca-494d-8d01-2f205767068d","ios":"levelo://app?vid=31c21be6-18ca-494d-8d01-2f205767068d"},"vehicle_type_id":"4","last_reported":1769030371,"current_range_meters":5600,"station_id":"","pricing_plan_id":"cebpf4jnsgd1na2vs0mg"},{"bike_id":"0e37b52c-57cd-4fc7-b10e-ab1e434f4b99","system_id":"levelo_inurba_marseille","lat":43.29071,"lon":5.371589,"is_reserved":false,"is_disabled":false,"rental_uris":{"android":"levelo://app?vid=0e37b52c-57cd-4fc7-b10e-ab1e434f4b99","ios":"levelo://app?vid=0e37b52c-57cd-4fc7-b10e-ab1e434f4b99"},"vehicle_type_id":"4","last_reported":1769030371,"current_range_meters":5600,"station_id":"","pricing_plan_id":"cebpf4jnsgd1na2vs0mg"},{"bike_id":"d60d69f0-11b1-4196-a1a6-b500cf4e2e4c","system_id":"levelo_inurba_marseille","lat":43.28943,"lon":5.36621,"is_reserved":false,"is_disabled":false,"rental_uris":{"android":"levelo://app?vid=d60d69f0-11b1-4196-a1a6-b500cf4e2e4c","ios":"levelo://app?vid=d60d69f0-11b1-4196-a1a6-b500cf4e2e4c"},"vehicle_type_id":"4","last_reported":1769030371,"current_range_meters":5600,"station_id":"ce4bhap2rcd13ifvqek0","pricing_plan_id":"cebpf4jnsgd1na2vs0mg"},{"bike_id":"d9d259ef-225c-4373-ba75-518a5c906d5f","system_id":"levelo_inurba_marseille","lat":43.29201,"lon":5.36057,"is_reserved":false,"is_disabled":false,"rental_uris":{"android":"levelo://app?vid=d9d259ef-225c-4373-ba75-518a5c906d5f","ios":"levelo://app?vid=d9d259ef-225c-4373-ba75-518a5c906d5f"},"vehicle_type_id":"4","last_reported":1769030371,"current_range_meters":5600,"station_id":"ce4bhbh2rcd13ifvqeqg","pricing_plan_id":"cebpf4jnsgd1na2vs0mg"},{"bike_id":"b22d708b-0728-4a7f-bfdd-5b6ccd84428d","system_id":"levelo_inurba_marseille","lat":43.27998,"lon":5.41664,"is_reserved":false,"is_disabled":false,"rental_uris":{"android":"levelo://app?vid=b22d708b-0728-4a7f-bfdd-5b6ccd84428d","ios":"levelo://app?vid=b22d708b-0728-4a7f-bfdd-5b6ccd84428d"},"vehicle_type_id":"4","last_reported":1769030371,"current_range_meters":5600,"station_id":"ce4bho12rcd13ifvqh1g","pricing_plan_id":"cebpf4jnsgd1na2vs0mg"},{"bike_id":"77040443-d183-4bca-8516-c4d9f6091f8f","system_id":"levelo_inurba_marseille","lat":43.295289,"lon":5.385465,"is_reserved":false,"is_disabled":false,"rental_uris":{"android":"levelo://app?vid=77040443-d183-4bca-8516-c4d9f6091f8f","ios":"levelo://app?vid=77040443-d183-4bca-8516-c4d9f6091f8f"},"vehicle_type_id":"4","last_reported":1769030371,"current_range_meters":5600,"station_id":"ce4bgih2rcd13ifvqba0","pricing_plan_id":"cebpf4jnsgd1na2vs0mg"},{"bike_id":"c13dd75c-dd9d-43ae-911e-14c2c7be184d","system_id":"levelo_inurba_marseille","lat":43.30928,"lon":5.40143,"is_reserved":false,"is_disabled":false,"rental_uris":{"android":"levelo://app?vid=c13dd75c-dd9d-43ae-911e-14c2c7be184d","ios":"levelo://app?vid=c13dd75c-dd9d-43ae-911e-14c2c7be184d"},"vehicle_type_id":"4","last_reported":1769030371,"current_range_meters":5600,"station_id":"ce4bgvp2rcd13ifvqct0","pricing_plan_id":"cebpf4jnsgd1na2vs0mg"},{"bike_id":"36379ecc-f580-4cc3-ac28-1068980e3530","system_id":"levelo_inurba_marseille","lat":43.290017,"lon":5.356116,"is_reserved":false,"is_disabled":false,"rental_uris":{"android":"levelo://app?vid=36379ecc-f580-4cc3-ac28-1068980e3530","ios":"levelo://app?vid=36379ecc-f580-4cc3-ac28-1068980e3530"},"vehicle_type_id":"4","last_reported":1769030371,"current_range_meters":5600,"station_id":"ce4bhbh2rcd13ifvqeo0","pricing_plan_id":"cebpf4jnsgd1na2vs0mg"},{"bike_id":"f09c06aa-a05d-4b00-b228-d8bee2b62b4f","system_id":"levelo_inurba_marseille","lat":43.32354,"lon":5.3668,"is_reserved":false,"is_disabled":false,"rental_uris":{"android":"levelo://app?vid=f09c06aa-a05d-4b00-b228-d8bee2b62b4f","ios":"levelo://app?vid=f09c06aa-a05d-4b00-b228-d8bee2b62b4f"},"vehicle_type_id":"4","last_reported":1769030371,"current_range_meters":6000,"station_id":"","pricing_plan_id":"cebpf4jnsgd1na2vs0mg"},{"bike_id":"64562a8f-fe86-4a1b-b14c-4a382af5be03","system_id":"levelo_inurba_marseille","lat":43.29034,"lon":5.38659,"is_reserved":false,"is_disabled":false,"rental_uris":{"android":"levelo://app?vid=64562a8f-fe86-4a1b-b14c-4a382af5be03","ios":"levelo://app?vid=64562a8f-fe86-4a1b-b14c-4a382af5be03"},"vehicle_type_id":"4","last_reported":1769030371,"current_range_meters":6000,"station_id":"ce4bh4p2rcd13ifvqe0g","pricing_plan_id":"cebpf4jnsgd1na2vs0mg"},{"bike_id":"a0ca7aea-4cc8-425d-97cf-53c126d70a4d","system_id":"levelo_inurba_marseille","lat":43.29258,"lon":5.38417,"is_reserved":false,"is_disabled":false,"rental_uris":{"android":"levelo://app?vid=a0ca7aea-4cc8-425d-97cf-53c126d70a4d","ios":"levelo://app?vid=a0ca7aea-4cc8-425d-97cf-53c126d70a4d"},"vehicle_type_id":"4","last_reported":1769030371,"current_range_meters":6000,"station_id":"ce4bh692rcd13ifvqea0","pricing_plan_id":"cebpf4jnsgd1na2vs0mg"},{"bike_id":"dedd883c-ff49-46e7-a27b-31461077bfed","system_id":"levelo_inurba_marseille","lat":43.29289,"lon":5.40145,"is_reserved":false,"is_disabled":false,"rental_uris":{"android":"levelo://app?vid=dedd883c-ff49-46e7-a27b-31461077bfed","ios":"levelo://app?vid=dedd883c-ff49-46e7-a27b-31461077bfed"},"vehicle_type_id":"4","last_reported":1769030371,"current_range_meters":6000,"station_id":"ce4bh312rcd13ifvqdk0","pricing_plan_id":"cebpf4jnsgd1na2vs0mg"},{"bike_id":"f73788f7-dec5-4308-a431-6e346b811946","system_id":"levelo_inurba_marseille","lat":43.30158,"lon":5.38177,"is_reserved":false,"is_disabled":false,"rental_uris":{"android":"levelo://app?vid=f73788f7-dec5-4308-a431-6e346b811946","ios":"levelo://app?vid=f73788f7-dec5-4308-a431-6e346b811946"},"vehicle_type_id":"4","last_reported":1769030371,"current_range_meters":6000,"station_id":"","pricing_plan_id":"cebpf4jnsgd1na2vs0mg"},{"bike_id":"5f477738-733e-4c98-961a-33429c5938fd","system_id":"levelo_inurba_marseille","lat":43.260586,"lon":5.393984,"is_reserved":false,"is_disabled":false,"rental_uris":{"android":"levelo://app?vid=5f477738-733e-4c98-961a-33429c5938fd","ios":"levelo://app?vid=5f477738-733e-4c98-961a-33429c5938fd"},"vehicle_type_id":"4","last_reported":1769030371,"current_range_meters":6000,"station_id":"ce4bhh92rcd13ifvqfj0","pricing_plan_id":"cebpf4jnsgd1na2vs0mg"},{"bike_id":"6f1b9a2a-353a-4450-9878-491b3917ba7d","system_id":"levelo_inurba_marseille","lat":43.26565,"lon":5.39018,"is_reserved":false,"is_disabled":false,"rental_uris":{"android":"levelo://app?vid=6f1b9a2a-353a-4450-9878-491b3917ba7d","ios":"levelo://app?vid=6f1b9a2a-353a-4450-9878-491b3917ba7d"},"vehicle_type_id":"4","last_reported":1769030371,"current_range_meters":6000,"station_id":"ce4bhe12rcd13ifvqf30","pricing_plan_id":"cebpf4jnsgd1na2vs0mg"},{"bike_id":"07334ae3-a27a-46ae-b685-938785481481","system_id":"levelo_inurba_marseille","lat":43.285,"lon":5.44117,"is_reserved":false,"is_disabled":false,"rental_uris":{"android":"levelo://app?vid=07334ae3-a27a-46ae-b685-938785481481","ios":"levelo://app?vid=07334ae3-a27a-46ae-b685-938785481481"},"vehicle_type_id":"4","last_reported":1769030371,"current_range_meters":6000,"station_id":"st_d3j3df2ikq2c7380ej80","pricing_plan_id":"cebpf4jnsgd1na2vs0mg"},{"bike_id":"5bdad711-817a-42cc-84b1-10d4beae812a","system_id":"levelo_inurba_marseille","lat":43.22535,"lon":5.41682,"is_reserved":false,"is_disabled":false,"rental_uris":{"android":"levelo://app?vid=5bdad711-817a-42cc-84b1-10d4beae812a","ios":"levelo://app?vid=5bdad711-817a-42cc-84b1-10d4beae812a"},"vehicle_type_id":"4","last_reported":1769030371,"current_range_meters":6000,"station_id":"st_d2o4gvlbi1j2169b742g","pricing_plan_id":"cebpf4jnsgd1na2vs0mg"},{"bike_id":"7cfe3ddc-94fb-469f-81d5-cb6761e93e20","system_id":"levelo_inurba_marseille","lat":43.31169,"lon":5.38718,"is_reserved":false,"is_disabled":false,"rental_uris":{"android":"levelo://app?vid=7cfe3ddc-94fb-469f-81d5-cb6761e93e20","ios":"levelo://app?vid=7cfe3ddc-94fb-469f-81d5-cb6761e93e20"},"vehicle_type_id":"4","last_reported":1769030371,"current_range_meters":6000,"station_id":"ce4bgv12rcd13ifvqcp0","pricing_plan_id":"cebpf4jnsgd1na2vs0mg"},{"bike_id":"8c9d9dd5-6ae3-4a8b-ab79-ea51ac5d3931","system_id":"levelo_inurba_marseille","lat":43.27977,"lon":5.41679,"is_reserved":false,"is_disabled":false,"rental_uris":{"android":"levelo://app?vid=8c9d9dd5-6ae3-4a8b-ab79-ea51ac5d3931","ios":"levelo://app?vid=8c9d9dd5-6ae3-4a8b-ab79-ea51ac5d3931"},"vehicle_type_id":"4","last_reported":1769030371,"current_range_meters":6000,"station_id":"ce4bho12rcd13ifvqh1g","pricing_plan_id":"cebpf4jnsgd1na2vs0mg"},{"bike_id":"965dd989-517a-4115-966e-a14093e50092","system_id":"levelo_inurba_marseille","lat":43.27051,"lon":5.40265,"is_reserved":false,"is_disabled":false,"rental_uris":{"android":"levelo://app?vid=965dd989-517a-4115-966e-a14093e50092","ios":"levelo://app?vid=965dd989-517a-4115-966e-a14093e50092"},"vehicle_type_id":"4","last_reported":1769030371,"current_range_meters":6000,"station_id":"ce4bhk92rcd13ifvqgc0","pricing_plan_id":"cebpf4jnsgd1na2vs0mg"},{"bike_id":"7cd70384-0e71-451e-8131-656b37624316","system_id":"levelo_inurba_marseille","lat":43.30177,"lon":5.39503,"is_reserved":false,"is_disabled":false,"rental_uris":{"android":"levelo://app?vid=7cd70384-0e71-451e-8131-656b37624316","ios":"levelo://app?vid=7cd70384-0e71-451e-8131-656b37624316"},"vehicle_type_id":"4","last_reported":1769030371,"current_range_meters":6000,"station_id":"ce4bh0p2rcd13ifvqd70","pricing_plan_id":"cebpf4jnsgd1na2vs0mg"},{"bike_id":"1b7535e7-29f2-4cef-a34e-eae7e23e0ac7","system_id":"levelo_inurba_marseille","lat":43.25723,"lon":5.41086,"is_reserved":false,"is_disabled":false,"rental_uris":{"android":"levelo://app?vid=1b7535e7-29f2-4cef-a34e-eae7e23e0ac7","ios":"levelo://app?vid=1b7535e7-29f2-4cef-a34e-eae7e23e0ac7"},"vehicle_type_id":"4","last_reported":1769030371,"current_range_meters":6000,"station_id":"ce4bhkp2rcd13ifvqgd0","pricing_plan_id":"cebpf4jnsgd1na2vs0mg"},{"bike_id":"aecc1364-4859-4c9d-9738-c9f63f1d04b2","system_id":"levelo_inurba_marseille","lat":43.2668,"lon":5.38272,"is_reserved":false,"is_disabled":false,"rental_uris":{"android":"levelo://app?vid=aecc1364-4859-4c9d-9738-c9f63f1d04b2","ios":"levelo://app?vid=aecc1364-4859-4c9d-9738-c9f63f1d04b2"},"vehicle_type_id":"4","last_reported":1769030371,"current_range_meters":6000,"station_id":"ce4bhg92rcd13ifvqf90","pricing_plan_id":"cebpf4jnsgd1na2vs0mg"},{"bike_id":"5d5e6254-e5e8-477d-b13b-b8c0bb7b8104","system_id":"levelo_inurba_marseille","lat":43.31265,"lon":5.40183,"is_reserved":false,"is_disabled":false,"rental_uris":{"android":"levelo://app?vid=5d5e6254-e5e8-477d-b13b-b8c0bb7b8104","ios":"levelo://app?vid=5d5e6254-e5e8-477d-b13b-b8c0bb7b8104"},"vehicle_type_id":"4","last_reported":1769030371,"current_range_meters":6000,"station_id":"ce4bh092rcd13ifvqd30","pricing_plan_id":"cebpf4jnsgd1na2vs0mg"},{"bike_id":"e6df6fb7-994b-4037-99d6-76175fe9a7d0","system_id":"levelo_inurba_marseille","lat":43.23179,"lon":5.39988,"is_reserved":false,"is_disabled":false,"rental_uris":{"android":"levelo://app?vid=e6df6fb7-994b-4037-99d6-76175fe9a7d0","ios":"levelo://app?vid=e6df6fb7-994b-4037-99d6-76175fe9a7d0"},"vehicle_type_id":"4","last_reported":1769030371,"current_range_meters":6000,"station_id":"ce4bhn12rcd13ifvqgqg","pricing_plan_id":"cebpf4jnsgd1na2vs0mg"},{"bike_id":"17e3837d-c9c2-4dda-a2b0-afa55c7ec00c","system_id":"levelo_inurba_marseille","lat":43.2923,"lon":5.3608,"is_reserved":false,"is_disabled":false,"rental_uris":{"android":"levelo://app?vid=17e3837d-c9c2-4dda-a2b0-afa55c7ec00c","ios":"levelo://app?vid=17e3837d-c9c2-4dda-a2b0-afa55c7ec00c"},"vehicle_type_id":"4","last_reported":1769030371,"current_range_meters":6000,"station_id":"ce4bhbh2rcd13ifvqeqg","pricing_plan_id":"cebpf4jnsgd1na2vs0mg"},{"bike_id":"4a7d9bed-8b10-48f0-a622-035f246ec140","system_id":"levelo_inurba_marseille","lat":43.26195,"lon":5.37943,"is_reserved":false,"is_disabled":false,"rental_uris":{"android":"levelo://app?vid=4a7d9bed-8b10-48f0-a622-035f246ec140","ios":"levelo://app?vid=4a7d9bed-8b10-48f0-a622-035f246ec140"},"vehicle_type_id":"4","last_reported":1769030371,"current_range_meters":6000,"station_id":"ce4bhjp2rcd13ifvqg90","pricing_plan_id":"cebpf4jnsgd1na2vs0mg"},{"bike_id":"ec3505f8-2e5f-442c-868b-c38116e6be45","system_id":"levelo_inurba_marseille","lat":43.24807,"lon":5.37441,"is_reserved":false,"is_disabled":false,"rental_uris":{"android":"levelo://app?vid=ec3505f8-2e5f-442c-868b-c38116e6be45","ios":"levelo://app?vid=ec3505f8-2e5f-442c-868b-c38116e6be45"},"vehicle_type_id":"4","last_reported":1769030371,"current_range_meters":6000,"station_id":"ce4bhgh2rcd13ifvqfb0","pricing_plan_id":"cebpf4jnsgd1na2vs0mg"},{"bike_id":"09708090-eb01-48c4-a317-0b7bbbd48bc6","system_id":"levelo_inurba_marseille","lat":43.27678,"lon":5.3621,"is_reserved":false,"is_disabled":false,"rental_uris":{"android":"levelo://app?vid=09708090-eb01-48c4-a317-0b7bbbd48bc6","ios":"levelo://app?vid=09708090-eb01-48c4-a317-0b7bbbd48bc6"},"vehicle_type_id":"4","last_reported":1769030371,"current_range_meters":6000,"station_id":"","pricing_plan_id":"cebpf4jnsgd1na2vs0mg"},{"bike_id":"c18b6d22-d570-4c18-b172-17707d4c832d","system_id":"levelo_inurba_marseille","lat":43.29561,"lon":5.3751,"is_reserved":false,"is_disabled":false,"rental_uris":{"android":"levelo://app?vid=c18b6d22-d570-4c18-b172-17707d4c832d","ios":"levelo://app?vid=c18b6d22-d570-4c18-b172-17707d4c832d"},"vehicle_type_id":"4","last_reported":1769030371,"current_range_meters":6000,"station_id":"ce4bgh92rcd13ifvqb50","pricing_plan_id":"cebpf4jnsgd1na2vs0mg"},{"bike_id":"fd603ab1-7fba-4f8b-9938-c63d3924c1a0","system_id":"levelo_inurba_marseille","lat":43.276242,"lon":5.361057,"is_reserved":false,"is_disabled":false,"rental_uris":{"android":"levelo://app?vid=fd603ab1-7fba-4f8b-9938-c63d3924c1a0","ios":"levelo://app?vid=fd603ab1-7fba-4f8b-9938-c63d3924c1a0"},"vehicle_type_id":"4","last_reported":1769030371,"current_range_meters":6000,"station_id":"ce4bgj92rcd13ifvqbe0","pricing_plan_id":"cebpf4jnsgd1na2vs0mg"},{"bike_id":"416786c9-5441-4ae2-97be-8dd18ff4a833","system_id":"levelo_inurba_marseille","lat":43.26564,"lon":5.40319,"is_reserved":false,"is_disabled":false,"rental_uris":{"android":"levelo://app?vid=416786c9-5441-4ae2-97be-8dd18ff4a833","ios":"levelo://app?vid=416786c9-5441-4ae2-97be-8dd18ff4a833"},"vehicle_type_id":"4","last_reported":1769030371,"current_range_meters":6000,"station_id":"ce4bhmp2rcd13ifvqgng","pricing_plan_id":"cebpf4jnsgd1na2vs0mg"},{"bike_id":"6a731fbb-7a02-4382-818c-c05e70331102","system_id":"levelo_inurba_marseille","lat":43.27072,"lon":5.423,"is_reserved":false,"is_disabled":false,"rental_uris":{"android":"levelo://app?vid=6a731fbb-7a02-4382-818c-c05e70331102","ios":"levelo://app?vid=6a731fbb-7a02-4382-818c-c05e70331102"},"vehicle_type_id":"4","last_reported":1769030371,"current_range_meters":6000,"station_id":"ce4bhk92rcd13ifvqgb0","pricing_plan_id":"cebpf4jnsgd1na2vs0mg"},{"bike_id":"4455ca85-6dc7-433d-ba56-810118fb0bb6","system_id":"levelo_inurba_marseille","lat":43.2948,"lon":5.43338,"is_reserved":false,"is_disabled":false,"rental_uris":{"android":"levelo://app?vid=4455ca85-6dc7-433d-ba56-810118fb0bb6","ios":"levelo://app?vid=4455ca85-6dc7-433d-ba56-810118fb0bb6"},"vehicle_type_id":"4","last_reported":1769030371,"current_range_meters":6400,"station_id":"st_d3j5ugp08ojc73fj9d10","pricing_plan_id":"cebpf4jnsgd1na2vs0mg"},{"bike_id":"6bf73f42-e7a1-4a58-b72e-624135013594","system_id":"levelo_inurba_marseille","lat":43.31374,"lon":5.39822,"is_reserved":false,"is_disabled":false,"rental_uris":{"android":"levelo://app?vid=6bf73f42-e7a1-4a58-b72e-624135013594","ios":"levelo://app?vid=6bf73f42-e7a1-4a58-b72e-624135013594"},"vehicle_type_id":"4","last_reported":1769030371,"current_range_meters":6400,"station_id":"ce4bgvp2rcd13ifvqcu0","pricing_plan_id":"cebpf4jnsgd1na2vs0mg"},{"bike_id":"0d073dc4-e542-4a37-9edb-04c8262d5066","system_id":"levelo_inurba_marseille","lat":43.28537,"lon":5.44092,"is_reserved":false,"is_disabled":false,"rental_uris":{"android":"levelo://app?vid=0d073dc4-e542-4a37-9edb-04c8262d5066","ios":"levelo://app?vid=0d073dc4-e542-4a37-9edb-04c8262d5066"},"vehicle_type_id":"4","last_reported":1769030371,"current_range_meters":6400,"station_id":"st_d3j3df2ikq2c7380ej80","pricing_plan_id":"cebpf4jnsgd1na2vs0mg"},{"bike_id":"68ec9f8f-1c6a-40b3-81f1-d4d82bb1838c","system_id":"levelo_inurba_marseille","lat":43.28225,"lon":5.40565,"is_reserved":false,"is_disabled":false,"rental_uris":{"android":"levelo://app?vid=68ec9f8f-1c6a-40b3-81f1-d4d82bb1838c","ios":"levelo://app?vid=68ec9f8f-1c6a-40b3-81f1-d4d82bb1838c"},"vehicle_type_id":"4","last_reported":1769030371,"current_range_meters":6400,"station_id":"","pricing_plan_id":"cebpf4jnsgd1na2vs0mg"},{"bike_id":"054e163b-1e47-4a0a-a038-a7939885860e","system_id":"levelo_inurba_marseille","lat":43.32349,"lon":5.36736,"is_reserved":false,"is_disabled":false,"rental_uris":{"android":"levelo://app?vid=054e163b-1e47-4a0a-a038-a7939885860e","ios":"levelo://app?vid=054e163b-1e47-4a0a-a038-a7939885860e"},"vehicle_type_id":"4","last_reported":1769030371,"current_range_meters":6400,"station_id":"ce4bhsh2rcd13ifvqi2g","pricing_plan_id":"cebpf4jnsgd1na2vs0mg"},{"bike_id":"ffabd398-f54b-45bd-9851-1b3115defcf6","system_id":"levelo_inurba_marseille","lat":43.24189,"lon":5.39695,"is_reserved":false,"is_disabled":false,"rental_uris":{"android":"levelo://app?vid=ffabd398-f54b-45bd-9851-1b3115defcf6","ios":"levelo://app?vid=ffabd398-f54b-45bd-9851-1b3115defcf6"},"vehicle_type_id":"4","last_reported":1769030371,"current_range_meters":6400,"station_id":"ce4bhn12rcd13ifvqgpg","pricing_plan_id":"cebpf4jnsgd1na2vs0mg"},{"bike_id":"f9bb0ce4-18f3-401e-9ec8-0504228dbd0f","system_id":"levelo_inurba_marseille","lat":43.27039,"lon":5.40279,"is_reserved":false,"is_disabled":false,"rental_uris":{"android":"levelo://app?vid=f9bb0ce4-18f3-401e-9ec8-0504228dbd0f","ios":"levelo://app?vid=f9bb0ce4-18f3-401e-9ec8-0504228dbd0f"},"vehicle_type_id":"4","last_reported":1769030371,"current_range_meters":6400,"station_id":"ce4bhk92rcd13ifvqgc0","pricing_plan_id":"cebpf4jnsgd1na2vs0mg"},{"bike_id":"3d838ace-4440-42c5-81e6-4cad3a86e9dd","system_id":"levelo_inurba_marseille","lat":43.29538,"lon":5.39039,"is_reserved":false,"is_disabled":false,"rental_uris":{"android":"levelo://app?vid=3d838ace-4440-42c5-81e6-4cad3a86e9dd","ios":"levelo://app?vid=3d838ace-4440-42c5-81e6-4cad3a86e9dd"},"vehicle_type_id":"4","last_reported":1769030371,"current_range_meters":6400,"station_id":"ce4bh3p2rcd13ifvqdp0","pricing_plan_id":"cebpf4jnsgd1na2vs0mg"},{"bike_id":"c7c76144-23b1-416e-a9ce-18579fb71224","system_id":"levelo_inurba_marseille","lat":43.29062,"lon":5.37196,"is_reserved":false,"is_disabled":false,"rental_uris":{"android":"levelo://app?vid=c7c76144-23b1-416e-a9ce-18579fb71224","ios":"levelo://app?vid=c7c76144-23b1-416e-a9ce-18579fb71224"},"vehicle_type_id":"4","last_reported":1769030371,"current_range_meters":6400,"station_id":"ce4bh5p2rcd13ifvqe4g","pricing_plan_id":"cebpf4jnsgd1na2vs0mg"},{"bike_id":"e3006b68-2895-43e3-a6a3-f525aa75c699","system_id":"levelo_inurba_marseille","lat":43.24083,"lon":5.37755,"is_reserved":false,"is_disabled":false,"rental_uris":{"android":"levelo://app?vid=e3006b68-2895-43e3-a6a3-f525aa75c699","ios":"levelo://app?vid=e3006b68-2895-43e3-a6a3-f525aa75c699"},"vehicle_type_id":"4","last_reported":1769030371,"current_range_meters":6400,"station_id":"ce4bhnp2rcd13ifvqgvg","pricing_plan_id":"cebpf4jnsgd1na2vs0mg"},{"bike_id":"b178fe28-787e-4cf2-8e9f-53564dafc878","system_id":"levelo_inurba_marseille","lat":43.29033,"lon":5.3866,"is_reserved":false,"is_disabled":false,"rental_uris":{"android":"levelo://app?vid=b178fe28-787e-4cf2-8e9f-53564dafc878","ios":"levelo://app?vid=b178fe28-787e-4cf2-8e9f-53564dafc878"},"vehicle_type_id":"4","last_reported":1769030371,"current_range_meters":6400,"station_id":"ce4bh4p2rcd13ifvqe0g","pricing_plan_id":"cebpf4jnsgd1na2vs0mg"},{"bike_id":"c70e0bb4-fab0-4654-bdca-7c1110702f66","system_id":"levelo_inurba_marseille","lat":43.23956,"lon":5.36649,"is_reserved":false,"is_disabled":false,"rental_uris":{"android":"levelo://app?vid=c70e0bb4-fab0-4654-bdca-7c1110702f66","ios":"levelo://app?vid=c70e0bb4-fab0-4654-bdca-7c1110702f66"},"vehicle_type_id":"4","last_reported":1769030371,"current_range_meters":6400,"station_id":"ce4bhi12rcd13ifvqfp0","pricing_plan_id":"cebpf4jnsgd1na2vs0mg"},{"bike_id":"673852a4-6416-4b33-a80d-5a20f826521f","system_id":"levelo_inurba_marseille","lat":43.29002,"lon":5.39025,"is_reserved":false,"is_disabled":false,"rental_uris":{"android":"levelo://app?vid=673852a4-6416-4b33-a80d-5a20f826521f","ios":"levelo://app?vid=673852a4-6416-4b33-a80d-5a20f826521f"},"vehicle_type_id":"4","last_reported":1769030371,"current_range_meters":6400,"station_id":"","pricing_plan_id":"cebpf4jnsgd1na2vs0mg"},{"bike_id":"87376c51-7b52-4611-acd2-49441baafe3f","system_id":"levelo_inurba_marseille","lat":43.24622,"lon":5.40222,"is_reserved":false,"is_disabled":false,"rental_uris":{"android":"levelo://app?vid=87376c51-7b52-4611-acd2-49441baafe3f","ios":"levelo://app?vid=87376c51-7b52-4611-acd2-49441baafe3f"},"vehicle_type_id":"4","last_reported":1769030371,"current_range_meters":6400,"station_id":"","pricing_plan_id":"cebpf4jnsgd1na2vs0mg"},{"bike_id":"72e1655d-aec3-4349-93c1-06571442ed3a","system_id":"levelo_inurba_marseille","lat":43.24658,"lon":5.38168,"is_reserved":false,"is_disabled":false,"rental_uris":{"android":"levelo://app?vid=72e1655d-aec3-4349-93c1-06571442ed3a","ios":"levelo://app?vid=72e1655d-aec3-4349-93c1-06571442ed3a"},"vehicle_type_id":"4","last_reported":1769030371,"current_range_meters":6400,"station_id":"ce4bhih2rcd13ifvqfr0","pricing_plan_id":"cebpf4jnsgd1na2vs0mg"},{"bike_id":"30e9475e-272a-4733-b2e3-f83e91a39f25","system_id":"levelo_inurba_marseille","lat":43.29274,"lon":5.38445,"is_reserved":false,"is_disabled":false,"rental_uris":{"android":"levelo://app?vid=30e9475e-272a-4733-b2e3-f83e91a39f25","ios":"levelo://app?vid=30e9475e-272a-4733-b2e3-f83e91a39f25"},"vehicle_type_id":"4","last_reported":1769030371,"current_range_meters":6400,"station_id":"ce4bh692rcd13ifvqea0","pricing_plan_id":"cebpf4jnsgd1na2vs0mg"},{"bike_id":"3583f9c1-4d47-42bf-a5eb-5d22ec11a2e1","system_id":"levelo_inurba_marseille","lat":43.29259,"lon":5.40898,"is_reserved":false,"is_disabled":false,"rental_uris":{"android":"levelo://app?vid=3583f9c1-4d47-42bf-a5eb-5d22ec11a2e1","ios":"levelo://app?vid=3583f9c1-4d47-42bf-a5eb-5d22ec11a2e1"},"vehicle_type_id":"4","last_reported":1769030371,"current_range_meters":6400,"station_id":"ce4bh192rcd13ifvqdc0","pricing_plan_id":"cebpf4jnsgd1na2vs0mg"},{"bike_id":"c055199c-bd62-490e-8577-d64c0f179897","system_id":"levelo_inurba_marseille","lat":43.28537,"lon":5.4412,"is_reserved":false,"is_disabled":false,"rental_uris":{"android":"levelo://app?vid=c055199c-bd62-490e-8577-d64c0f179897","ios":"levelo://app?vid=c055199c-bd62-490e-8577-d64c0f179897"},"vehicle_type_id":"4","last_reported":1769030371,"current_range_meters":6400,"station_id":"st_d3j3df2ikq2c7380ej80","pricing_plan_id":"cebpf4jnsgd1na2vs0mg"},{"bike_id":"93554d12-e808-454a-a29e-07410fb2b182","system_id":"levelo_inurba_marseille","lat":43.30439,"lon":5.38885,"is_reserved":false,"is_disabled":false,"rental_uris":{"android":"levelo://app?vid=93554d12-e808-454a-a29e-07410fb2b182","ios":"levelo://app?vid=93554d12-e808-454a-a29e-07410fb2b182"},"vehicle_type_id":"4","last_reported":1769030371,"current_range_meters":6800,"station_id":"ce4bgk12rcd13ifvqbi0","pricing_plan_id":"cebpf4jnsgd1na2vs0mg"},{"bike_id":"8dd5e1ae-27b7-4b13-84ee-a9d2cf511ca0","system_id":"levelo_inurba_marseille","lat":43.27911,"lon":5.37991,"is_reserved":false,"is_disabled":false,"rental_uris":{"android":"levelo://app?vid=8dd5e1ae-27b7-4b13-84ee-a9d2cf511ca0","ios":"levelo://app?vid=8dd5e1ae-27b7-4b13-84ee-a9d2cf511ca0"},"vehicle_type_id":"4","last_reported":1769030371,"current_range_meters":6800,"station_id":"ce4bhf92rcd13ifvqf50","pricing_plan_id":"cebpf4jnsgd1na2vs0mg"},{"bike_id":"94e447ef-188e-4e98-a497-4fbe709caccf","system_id":"levelo_inurba_marseille","lat":43.23957,"lon":5.36634,"is_reserved":false,"is_disabled":false,"rental_uris":{"android":"levelo://app?vid=94e447ef-188e-4e98-a497-4fbe709caccf","ios":"levelo://app?vid=94e447ef-188e-4e98-a497-4fbe709caccf"},"vehicle_type_id":"4","last_reported":1769030371,"current_range_meters":6800,"station_id":"ce4bhi12rcd13ifvqfp0","pricing_plan_id":"cebpf4jnsgd1na2vs0mg"},{"bike_id":"19c9b524-76f1-4e5d-8be9-000b11a19079","system_id":"levelo_inurba_marseille","lat":43.25009,"lon":5.38907,"is_reserved":false,"is_disabled":false,"rental_uris":{"android":"levelo://app?vid=19c9b524-76f1-4e5d-8be9-000b11a19079","ios":"levelo://app?vid=19c9b524-76f1-4e5d-8be9-000b11a19079"},"vehicle_type_id":"4","last_reported":1769030371,"current_range_meters":6800,"station_id":"ce4bhgp2rcd13ifvqfd0","pricing_plan_id":"cebpf4jnsgd1na2vs0mg"},{"bike_id":"dbecf041-f91e-46b8-a941-add245d1bc78","system_id":"levelo_inurba_marseille","lat":43.26933,"lon":5.38913,"is_reserved":false,"is_disabled":false,"rental_uris":{"android":"levelo://app?vid=dbecf041-f91e-46b8-a941-add245d1bc78","ios":"levelo://app?vid=dbecf041-f91e-46b8-a941-add245d1bc78"},"vehicle_type_id":"4","last_reported":1769030371,"current_range_meters":6800,"station_id":"ce4bhhh2rcd13ifvqfl0","pricing_plan_id":"cebpf4jnsgd1na2vs0mg"},{"bike_id":"f3a01c85-86e9-4a7c-837b-602faf4bbfde","system_id":"levelo_inurba_marseille","lat":43.27996,"lon":5.38692,"is_reserved":false,"is_disabled":false,"rental_uris":{"android":"levelo://app?vid=f3a01c85-86e9-4a7c-837b-602faf4bbfde","ios":"levelo://app?vid=f3a01c85-86e9-4a7c-837b-602faf4bbfde"},"vehicle_type_id":"4","last_reported":1769030371,"current_range_meters":6800,"station_id":"ce4bhg12rcd13ifvqf80","pricing_plan_id":"cebpf4jnsgd1na2vs0mg"},{"bike_id":"e26301b9-2ba6-4110-823c-43c3e31eef15","system_id":"levelo_inurba_marseille","lat":43.306378,"lon":5.393122,"is_reserved":false,"is_disabled":false,"rental_uris":{"android":"levelo://app?vid=e26301b9-2ba6-4110-823c-43c3e31eef15","ios":"levelo://app?vid=e26301b9-2ba6-4110-823c-43c3e31eef15"},"vehicle_type_id":"4","last_reported":1769030371,"current_range_meters":6800,"station_id":"","pricing_plan_id":"cebpf4jnsgd1na2vs0mg"},{"bike_id":"d68cd528-87dc-4a28-8471-721b0cea6df0","system_id":"levelo_inurba_marseille","lat":43.28158,"lon":5.39253,"is_reserved":false,"is_disabled":false,"rental_uris":{"android":"levelo://app?vid=d68cd528-87dc-4a28-8471-721b0cea6df0","ios":"levelo://app?vid=d68cd528-87dc-4a28-8471-721b0cea6df0"},"vehicle_type_id":"4","last_reported":1769030371,"current_range_meters":6800,"station_id":"","pricing_plan_id":"cebpf4jnsgd1na2vs0mg"},{"bike_id":"13c816e9-5043-41d0-a44f-0b67121a9c07","system_id":"levelo_inurba_marseille","lat":43.2793,"lon":5.39156,"is_reserved":false,"is_disabled":false,"rental_uris":{"android":"levelo://app?vid=13c816e9-5043-41d0-a44f-0b67121a9c07","ios":"levelo://app?vid=13c816e9-5043-41d0-a44f-0b67121a9c07"},"vehicle_type_id":"4","last_reported":1769030371,"current_range_meters":6800,"station_id":"ce4bhjp2rcd13ifvqga0","pricing_plan_id":"cebpf4jnsgd1na2vs0mg"},{"bike_id":"8c533edb-f32d-41b7-b9fd-dc650212baef","system_id":"levelo_inurba_marseille","lat":43.30634,"lon":5.40082,"is_reserved":false,"is_disabled":false,"rental_uris":{"android":"levelo://app?vid=8c533edb-f32d-41b7-b9fd-dc650212baef","ios":"levelo://app?vid=8c533edb-f32d-41b7-b9fd-dc650212baef"},"vehicle_type_id":"4","last_reported":1769030371,"current_range_meters":6800,"station_id":"ce4bh112rcd13ifvqda0","pricing_plan_id":"cebpf4jnsgd1na2vs0mg"},{"bike_id":"43448dd5-9537-449d-8160-6a955b585b98","system_id":"levelo_inurba_marseille","lat":43.25587,"lon":5.38252,"is_reserved":false,"is_disabled":false,"rental_uris":{"android":"levelo://app?vid=43448dd5-9537-449d-8160-6a955b585b98","ios":"levelo://app?vid=43448dd5-9537-449d-8160-6a955b585b98"},"vehicle_type_id":"4","last_reported":1769030371,"current_range_meters":6800,"station_id":"ce4bhih2rcd13ifvqfs0","pricing_plan_id":"cebpf4jnsgd1na2vs0mg"},{"bike_id":"65fd7955-07dd-47da-bfed-ae167c3de24b","system_id":"levelo_inurba_marseille","lat":43.27311,"lon":5.39116,"is_reserved":false,"is_disabled":false,"rental_uris":{"android":"levelo://app?vid=65fd7955-07dd-47da-bfed-ae167c3de24b","ios":"levelo://app?vid=65fd7955-07dd-47da-bfed-ae167c3de24b"},"vehicle_type_id":"4","last_reported":1769030371,"current_range_meters":7200,"station_id":"ce4bhgp2rcd13ifvqfe0","pricing_plan_id":"cebpf4jnsgd1na2vs0mg"},{"bike_id":"1c5b23bd-2ff7-41ce-9b81-d371fc2b68a7","system_id":"levelo_inurba_marseille","lat":43.29516,"lon":5.39038,"is_reserved":false,"is_disabled":false,"rental_uris":{"android":"levelo://app?vid=1c5b23bd-2ff7-41ce-9b81-d371fc2b68a7","ios":"levelo://app?vid=1c5b23bd-2ff7-41ce-9b81-d371fc2b68a7"},"vehicle_type_id":"4","last_reported":1769030371,"current_range_meters":7200,"station_id":"ce4bh3p2rcd13ifvqdp0","pricing_plan_id":"cebpf4jnsgd1na2vs0mg"},{"bike_id":"cf17c03a-4692-41b2-bc2a-ab4052bf2ea9","system_id":"levelo_inurba_marseille","lat":43.29162,"lon":5.37154,"is_reserved":false,"is_disabled":false,"rental_uris":{"android":"levelo://app?vid=cf17c03a-4692-41b2-bc2a-ab4052bf2ea9","ios":"levelo://app?vid=cf17c03a-4692-41b2-bc2a-ab4052bf2ea9"},"vehicle_type_id":"4","last_reported":1769030371,"current_range_meters":7200,"station_id":"ce4bha92rcd13ifvqeh0","pricing_plan_id":"cebpf4jnsgd1na2vs0mg"},{"bike_id":"fca00d5f-2997-436f-ba8d-58032d11c09e","system_id":"levelo_inurba_marseille","lat":43.27954,"lon":5.38722,"is_reserved":false,"is_disabled":true,"rental_uris":{"android":"levelo://app?vid=fca00d5f-2997-436f-ba8d-58032d11c09e","ios":"levelo://app?vid=fca00d5f-2997-436f-ba8d-58032d11c09e"},"vehicle_type_id":"4","last_reported":1769030371,"current_range_meters":7200,"station_id":"ce4bhg12rcd13ifvqf80","pricing_plan_id":"cebpf4jnsgd1na2vs0mg"},{"bike_id":"fe2a828f-710f-491e-b529-f22ca09a8365","system_id":"levelo_inurba_marseille","lat":43.30746,"lon":5.40943,"is_reserved":false,"is_disabled":false,"rental_uris":{"android":"levelo://app?vid=fe2a828f-710f-491e-b529-f22ca09a8365","ios":"levelo://app?vid=fe2a828f-710f-491e-b529-f22ca09a8365"},"vehicle_type_id":"4","last_reported":1769030371,"current_range_meters":7200,"station_id":"","pricing_plan_id":"cebpf4jnsgd1na2vs0mg"},{"bike_id":"861f3733-84a3-401c-abb2-b97c941b849e","system_id":"levelo_inurba_marseille","lat":43.29255,"lon":5.40905,"is_reserved":false,"is_disabled":false,"rental_uris":{"android":"levelo://app?vid=861f3733-84a3-401c-abb2-b97c941b849e","ios":"levelo://app?vid=861f3733-84a3-401c-abb2-b97c941b849e"},"vehicle_type_id":"4","last_reported":1769030371,"current_range_meters":7200,"station_id":"ce4bh192rcd13ifvqdc0","pricing_plan_id":"cebpf4jnsgd1na2vs0mg"},{"bike_id":"eaad7dcc-c797-4d78-96ea-aa702bdcc172","system_id":"levelo_inurba_marseille","lat":43.31528,"lon":5.38049,"is_reserved":false,"is_disabled":false,"rental_uris":{"android":"levelo://app?vid=eaad7dcc-c797-4d78-96ea-aa702bdcc172","ios":"levelo://app?vid=eaad7dcc-c797-4d78-96ea-aa702bdcc172"},"vehicle_type_id":"4","last_reported":1769030371,"current_range_meters":7200,"station_id":"ce4bhsp2rcd13ifvqi50","pricing_plan_id":"cebpf4jnsgd1na2vs0mg"},{"bike_id":"370a6405-fdf1-423e-a465-6cdd23b50ee2","system_id":"levelo_inurba_marseille","lat":43.29028,"lon":5.38661,"is_reserved":false,"is_disabled":true,"rental_uris":{"android":"levelo://app?vid=370a6405-fdf1-423e-a465-6cdd23b50ee2","ios":"levelo://app?vid=370a6405-fdf1-423e-a465-6cdd23b50ee2"},"vehicle_type_id":"4","last_reported":1769030371,"current_range_meters":7200,"station_id":"ce4bh4p2rcd13ifvqe0g","pricing_plan_id":"cebpf4jnsgd1na2vs0mg"},{"bike_id":"fddbb7cb-a21d-46ff-8d07-df9eecd44019","system_id":"levelo_inurba_marseille","lat":43.32061,"lon":5.36855,"is_reserved":false,"is_disabled":false,"rental_uris":{"android":"levelo://app?vid=fddbb7cb-a21d-46ff-8d07-df9eecd44019","ios":"levelo://app?vid=fddbb7cb-a21d-46ff-8d07-df9eecd44019"},"vehicle_type_id":"4","last_reported":1769030371,"current_range_meters":7200,"station_id":"ce4bhrh2rcd13ifvqhug","pricing_plan_id":"cebpf4jnsgd1na2vs0mg"},{"bike_id":"0b64e895-792b-4498-9172-5f40249c5668","system_id":"levelo_inurba_marseille","lat":43.26054,"lon":5.3941,"is_reserved":false,"is_disabled":false,"rental_uris":{"android":"levelo://app?vid=0b64e895-792b-4498-9172-5f40249c5668","ios":"levelo://app?vid=0b64e895-792b-4498-9172-5f40249c5668"},"vehicle_type_id":"4","last_reported":1769030371,"current_range_meters":7200,"station_id":"ce4bhh92rcd13ifvqfj0","pricing_plan_id":"cebpf4jnsgd1na2vs0mg"},{"bike_id":"dde7b0e0-bbd1-44de-82f6-999f8e69694c","system_id":"levelo_inurba_marseille","lat":43.25505,"lon":5.37655,"is_reserved":false,"is_disabled":false,"rental_uris":{"android":"levelo://app?vid=dde7b0e0-bbd1-44de-82f6-999f8e69694c","ios":"levelo://app?vid=dde7b0e0-bbd1-44de-82f6-999f8e69694c"},"vehicle_type_id":"4","last_reported":1769030371,"current_range_meters":7200,"station_id":"ce4bhh12rcd13ifvqff0","pricing_plan_id":"cebpf4jnsgd1na2vs0mg"},{"bike_id":"800ac751-b72d-4eb8-b5ef-7e899db1abd8","system_id":"levelo_inurba_marseille","lat":43.3272,"lon":5.39238,"is_reserved":false,"is_disabled":false,"rental_uris":{"android":"levelo://app?vid=800ac751-b72d-4eb8-b5ef-7e899db1abd8","ios":"levelo://app?vid=800ac751-b72d-4eb8-b5ef-7e899db1abd8"},"vehicle_type_id":"4","last_reported":1769030371,"current_range_meters":7200,"station_id":"","pricing_plan_id":"cebpf4jnsgd1na2vs0mg"},{"bike_id":"019ceb53-5592-4d8b-8ed7-8ec71fe45a46","system_id":"levelo_inurba_marseille","lat":43.29246,"lon":5.38459,"is_reserved":false,"is_disabled":false,"rental_uris":{"android":"levelo://app?vid=019ceb53-5592-4d8b-8ed7-8ec71fe45a46","ios":"levelo://app?vid=019ceb53-5592-4d8b-8ed7-8ec71fe45a46"},"vehicle_type_id":"4","last_reported":1769030371,"current_range_meters":7200,"station_id":"ce4bh692rcd13ifvqea0","pricing_plan_id":"cebpf4jnsgd1na2vs0mg"},{"bike_id":"b413333d-8f81-422a-a7be-ccc1db1b0db2","system_id":"levelo_inurba_marseille","lat":43.30609,"lon":5.37191,"is_reserved":false,"is_disabled":false,"rental_uris":{"android":"levelo://app?vid=b413333d-8f81-422a-a7be-ccc1db1b0db2","ios":"levelo://app?vid=b413333d-8f81-422a-a7be-ccc1db1b0db2"},"vehicle_type_id":"4","last_reported":1769030371,"current_range_meters":7200,"station_id":"ce4bgqh2rcd13ifvqc4g","pricing_plan_id":"cebpf4jnsgd1na2vs0mg"},{"bike_id":"83461687-2d6f-44e3-8195-fb721f9fb181","system_id":"levelo_inurba_marseille","lat":43.28474,"lon":5.48414,"is_reserved":false,"is_disabled":false,"rental_uris":{"android":"levelo://app?vid=83461687-2d6f-44e3-8195-fb721f9fb181","ios":"levelo://app?vid=83461687-2d6f-44e3-8195-fb721f9fb181"},"vehicle_type_id":"4","last_reported":1769030371,"current_range_meters":7200,"station_id":"","pricing_plan_id":"cebpf4jnsgd1na2vs0mg"},{"bike_id":"e7fa5a02-5141-47ca-bd0e-673584f4860d","system_id":"levelo_inurba_marseille","lat":43.32484,"lon":5.38294,"is_reserved":false,"is_disabled":false,"rental_uris":{"android":"levelo://app?vid=e7fa5a02-5141-47ca-bd0e-673584f4860d","ios":"levelo://app?vid=e7fa5a02-5141-47ca-bd0e-673584f4860d"},"vehicle_type_id":"4","last_reported":1769030371,"current_range_meters":7200,"station_id":"st_d4asgbiv49dc73anf9m0","pricing_plan_id":"cebpf4jnsgd1na2vs0mg"},{"bike_id":"6131e764-e5b9-44aa-a66a-1b45fe019e3f","system_id":"levelo_inurba_marseille","lat":43.275692,"lon":5.384182,"is_reserved":false,"is_disabled":false,"rental_uris":{"android":"levelo://app?vid=6131e764-e5b9-44aa-a66a-1b45fe019e3f","ios":"levelo://app?vid=6131e764-e5b9-44aa-a66a-1b45fe019e3f"},"vehicle_type_id":"4","last_reported":1769030371,"current_range_meters":7200,"station_id":"ce4bhh92rcd13ifvqfi0","pricing_plan_id":"cebpf4jnsgd1na2vs0mg"},{"bike_id":"db5c533d-ad6a-4cca-9da6-b7b91ac05bc1","system_id":"levelo_inurba_marseille","lat":43.21741,"lon":5.34608,"is_reserved":false,"is_disabled":false,"rental_uris":{"android":"levelo://app?vid=db5c533d-ad6a-4cca-9da6-b7b91ac05bc1","ios":"levelo://app?vid=db5c533d-ad6a-4cca-9da6-b7b91ac05bc1"},"vehicle_type_id":"4","last_reported":1769030371,"current_range_meters":7200,"station_id":"st_cvj6r9ubvosntc0bgbag","pricing_plan_id":"cebpf4jnsgd1na2vs0mg"},{"bike_id":"30471bf1-4e97-480f-9e18-3f7a93804303","system_id":"levelo_inurba_marseille","lat":43.24083,"lon":5.37763,"is_reserved":false,"is_disabled":false,"rental_uris":{"android":"levelo://app?vid=30471bf1-4e97-480f-9e18-3f7a93804303","ios":"levelo://app?vid=30471bf1-4e97-480f-9e18-3f7a93804303"},"vehicle_type_id":"4","last_reported":1769030371,"current_range_meters":7200,"station_id":"ce4bhnp2rcd13ifvqgvg","pricing_plan_id":"cebpf4jnsgd1na2vs0mg"},{"bike_id":"bfce9820-3542-42b9-90ce-6a3b06eb39fb","system_id":"levelo_inurba_marseille","lat":43.29536,"lon":5.38536,"is_reserved":false,"is_disabled":false,"rental_uris":{"android":"levelo://app?vid=bfce9820-3542-42b9-90ce-6a3b06eb39fb","ios":"levelo://app?vid=bfce9820-3542-42b9-90ce-6a3b06eb39fb"},"vehicle_type_id":"4","last_reported":1769030371,"current_range_meters":7200,"station_id":"ce4bgih2rcd13ifvqba0","pricing_plan_id":"cebpf4jnsgd1na2vs0mg"},{"bike_id":"2200e9d2-1068-424e-9d7a-bd6973ee7562","system_id":"levelo_inurba_marseille","lat":43.26573,"lon":5.39019,"is_reserved":false,"is_disabled":false,"rental_uris":{"android":"levelo://app?vid=2200e9d2-1068-424e-9d7a-bd6973ee7562","ios":"levelo://app?vid=2200e9d2-1068-424e-9d7a-bd6973ee7562"},"vehicle_type_id":"4","last_reported":1769030371,"current_range_meters":7200,"station_id":"ce4bhe12rcd13ifvqf30","pricing_plan_id":"cebpf4jnsgd1na2vs0mg"},{"bike_id":"131d083d-d299-49de-ae79-91ebeb210640","system_id":"levelo_inurba_marseille","lat":43.25714,"lon":5.41777,"is_reserved":false,"is_disabled":false,"rental_uris":{"android":"levelo://app?vid=131d083d-d299-49de-ae79-91ebeb210640","ios":"levelo://app?vid=131d083d-d299-49de-ae79-91ebeb210640"},"vehicle_type_id":"4","last_reported":1769030371,"current_range_meters":7200,"station_id":"","pricing_plan_id":"cebpf4jnsgd1na2vs0mg"},{"bike_id":"bcab90f8-9978-401b-b31e-f584a5cf5bc7","system_id":"levelo_inurba_marseille","lat":43.29527,"lon":5.38546,"is_reserved":false,"is_disabled":false,"rental_uris":{"android":"levelo://app?vid=bcab90f8-9978-401b-b31e-f584a5cf5bc7","ios":"levelo://app?vid=bcab90f8-9978-401b-b31e-f584a5cf5bc7"},"vehicle_type_id":"4","last_reported":1769030371,"current_range_meters":7200,"station_id":"ce4bgih2rcd13ifvqba0","pricing_plan_id":"cebpf4jnsgd1na2vs0mg"},{"bike_id":"9f267b1b-9ecb-4537-8b3b-db033635a9b6","system_id":"levelo_inurba_marseille","lat":43.27351,"lon":5.39107,"is_reserved":false,"is_disabled":false,"rental_uris":{"android":"levelo://app?vid=9f267b1b-9ecb-4537-8b3b-db033635a9b6","ios":"levelo://app?vid=9f267b1b-9ecb-4537-8b3b-db033635a9b6"},"vehicle_type_id":"4","last_reported":1769030371,"current_range_meters":7200,"station_id":"","pricing_plan_id":"cebpf4jnsgd1na2vs0mg"},{"bike_id":"3adec16d-5155-42e9-8054-aa464c5876f9","system_id":"levelo_inurba_marseille","lat":43.26366,"lon":5.41084,"is_reserved":false,"is_disabled":false,"rental_uris":{"android":"levelo://app?vid=3adec16d-5155-42e9-8054-aa464c5876f9","ios":"levelo://app?vid=3adec16d-5155-42e9-8054-aa464c5876f9"},"vehicle_type_id":"4","last_reported":1769030371,"current_range_meters":7200,"station_id":"st_d4e5ca6na9uc73bfl5fg","pricing_plan_id":"cebpf4jnsgd1na2vs0mg"},{"bike_id":"3ee03df3-42b3-4464-95ac-a8817159459b","system_id":"levelo_inurba_marseille","lat":43.29523,"lon":5.39031,"is_reserved":false,"is_disabled":true,"rental_uris":{"android":"levelo://app?vid=3ee03df3-42b3-4464-95ac-a8817159459b","ios":"levelo://app?vid=3ee03df3-42b3-4464-95ac-a8817159459b"},"vehicle_type_id":"4","last_reported":1769030371,"current_range_meters":8000,"station_id":"ce4bh3p2rcd13ifvqdp0","pricing_plan_id":"cebpf4jnsgd1na2vs0mg"},{"bike_id":"ebc59118-e1a4-482d-84d0-eafb34b0b9ea","system_id":"levelo_inurba_marseille","lat":43.23781,"lon":5.36621,"is_reserved":false,"is_disabled":false,"rental_uris":{"android":"levelo://app?vid=ebc59118-e1a4-482d-84d0-eafb34b0b9ea","ios":"levelo://app?vid=ebc59118-e1a4-482d-84d0-eafb34b0b9ea"},"vehicle_type_id":"4","last_reported":1769030371,"current_range_meters":8000,"station_id":"st_d3nk18o9ro0c73en2l3g","pricing_plan_id":"cebpf4jnsgd1na2vs0mg"},{"bike_id":"db3f14e4-220b-415c-9e28-2fe041e49f9a","system_id":"levelo_inurba_marseille","lat":43.26068,"lon":5.39388,"is_reserved":false,"is_disabled":false,"rental_uris":{"android":"levelo://app?vid=db3f14e4-220b-415c-9e28-2fe041e49f9a","ios":"levelo://app?vid=db3f14e4-220b-415c-9e28-2fe041e49f9a"},"vehicle_type_id":"4","last_reported":1769030371,"current_range_meters":8000,"station_id":"ce4bhh92rcd13ifvqfj0","pricing_plan_id":"cebpf4jnsgd1na2vs0mg"},{"bike_id":"58cd0546-ee0c-4f92-ba44-6393bfd47c70","system_id":"levelo_inurba_marseille","lat":43.26572,"lon":5.39021,"is_reserved":false,"is_disabled":false,"rental_uris":{"android":"levelo://app?vid=58cd0546-ee0c-4f92-ba44-6393bfd47c70","ios":"levelo://app?vid=58cd0546-ee0c-4f92-ba44-6393bfd47c70"},"vehicle_type_id":"4","last_reported":1769030371,"current_range_meters":8000,"station_id":"ce4bhe12rcd13ifvqf30","pricing_plan_id":"cebpf4jnsgd1na2vs0mg"},{"bike_id":"ca40cb4e-9b16-4c76-accb-546c53420377","system_id":"levelo_inurba_marseille","lat":43.29245,"lon":5.38439,"is_reserved":false,"is_disabled":false,"rental_uris":{"android":"levelo://app?vid=ca40cb4e-9b16-4c76-accb-546c53420377","ios":"levelo://app?vid=ca40cb4e-9b16-4c76-accb-546c53420377"},"vehicle_type_id":"4","last_reported":1769030371,"current_range_meters":8000,"station_id":"ce4bh692rcd13ifvqea0","pricing_plan_id":"cebpf4jnsgd1na2vs0mg"},{"bike_id":"607c435d-5fb0-4f63-b221-a58bdcfdc9c2","system_id":"levelo_inurba_marseille","lat":43.25,"lon":5.38926,"is_reserved":false,"is_disabled":false,"rental_uris":{"android":"levelo://app?vid=607c435d-5fb0-4f63-b221-a58bdcfdc9c2","ios":"levelo://app?vid=607c435d-5fb0-4f63-b221-a58bdcfdc9c2"},"vehicle_type_id":"4","last_reported":1769030371,"current_range_meters":8000,"station_id":"ce4bhgp2rcd13ifvqfd0","pricing_plan_id":"cebpf4jnsgd1na2vs0mg"},{"bike_id":"1043358a-6540-44be-a175-76e81d531b51","system_id":"levelo_inurba_marseille","lat":43.27906,"lon":5.38034,"is_reserved":false,"is_disabled":false,"rental_uris":{"android":"levelo://app?vid=1043358a-6540-44be-a175-76e81d531b51","ios":"levelo://app?vid=1043358a-6540-44be-a175-76e81d531b51"},"vehicle_type_id":"4","last_reported":1769030371,"current_range_meters":8000,"station_id":"ce4bhf92rcd13ifvqf50","pricing_plan_id":"cebpf4jnsgd1na2vs0mg"},{"bike_id":"e14e43c6-5ab8-456f-a706-b922b50c3dfc","system_id":"levelo_inurba_marseille","lat":43.32005,"lon":5.38149,"is_reserved":false,"is_disabled":false,"rental_uris":{"android":"levelo://app?vid=e14e43c6-5ab8-456f-a706-b922b50c3dfc","ios":"levelo://app?vid=e14e43c6-5ab8-456f-a706-b922b50c3dfc"},"vehicle_type_id":"4","last_reported":1769030371,"current_range_meters":8000,"station_id":"ce4bhr12rcd13ifvqhpg","pricing_plan_id":"cebpf4jnsgd1na2vs0mg"},{"bike_id":"bf9df301-dc0d-41cc-96a1-27301e9f819b","system_id":"levelo_inurba_marseille","lat":43.28484,"lon":5.48381,"is_reserved":false,"is_disabled":false,"rental_uris":{"android":"levelo://app?vid=bf9df301-dc0d-41cc-96a1-27301e9f819b","ios":"levelo://app?vid=bf9df301-dc0d-41cc-96a1-27301e9f819b"},"vehicle_type_id":"4","last_reported":1769030371,"current_range_meters":8000,"station_id":"","pricing_plan_id":"cebpf4jnsgd1na2vs0mg"},{"bike_id":"55357c2a-5abe-4dc3-ab12-fe87c9f9a8ba","system_id":"levelo_inurba_marseille","lat":43.28979,"lon":5.37834,"is_reserved":false,"is_disabled":false,"rental_uris":{"android":"levelo://app?vid=55357c2a-5abe-4dc3-ab12-fe87c9f9a8ba","ios":"levelo://app?vid=55357c2a-5abe-4dc3-ab12-fe87c9f9a8ba"},"vehicle_type_id":"4","last_reported":1769030371,"current_range_meters":8000,"station_id":"ce4bh9p2rcd13ifvqed0","pricing_plan_id":"cebpf4jnsgd1na2vs0mg"},{"bike_id":"7bb656a3-7bdd-49d7-93ff-73dd99fe65e5","system_id":"levelo_inurba_marseille","lat":43.28715,"lon":5.37936,"is_reserved":false,"is_disabled":false,"rental_uris":{"android":"levelo://app?vid=7bb656a3-7bdd-49d7-93ff-73dd99fe65e5","ios":"levelo://app?vid=7bb656a3-7bdd-49d7-93ff-73dd99fe65e5"},"vehicle_type_id":"4","last_reported":1769030371,"current_range_meters":8000,"station_id":"ce4bh9p2rcd13ifvqec0","pricing_plan_id":"cebpf4jnsgd1na2vs0mg"},{"bike_id":"4c7532ce-cc6f-4529-a0d2-b549e011204f","system_id":"levelo_inurba_marseille","lat":43.29523,"lon":5.3751,"is_reserved":false,"is_disabled":false,"rental_uris":{"android":"levelo://app?vid=4c7532ce-cc6f-4529-a0d2-b549e011204f","ios":"levelo://app?vid=4c7532ce-cc6f-4529-a0d2-b549e011204f"},"vehicle_type_id":"4","last_reported":1769030371,"current_range_meters":8000,"station_id":"ce4bgkp2rcd13ifvqbmg","pricing_plan_id":"cebpf4jnsgd1na2vs0mg"},{"bike_id":"1dbba7d4-d9cb-48ab-92f3-971042a326c1","system_id":"levelo_inurba_marseille","lat":43.231406,"lon":5.436944,"is_reserved":false,"is_disabled":false,"rental_uris":{"android":"levelo://app?vid=1dbba7d4-d9cb-48ab-92f3-971042a326c1","ios":"levelo://app?vid=1dbba7d4-d9cb-48ab-92f3-971042a326c1"},"vehicle_type_id":"4","last_reported":1769030371,"current_range_meters":8000,"station_id":"ce4bhmp2rcd13ifvqgog","pricing_plan_id":"cebpf4jnsgd1na2vs0mg"},{"bike_id":"92a7b094-8419-42a8-92bc-cde61631e7f4","system_id":"levelo_inurba_marseille","lat":43.29258,"lon":5.36839,"is_reserved":false,"is_disabled":false,"rental_uris":{"android":"levelo://app?vid=92a7b094-8419-42a8-92bc-cde61631e7f4","ios":"levelo://app?vid=92a7b094-8419-42a8-92bc-cde61631e7f4"},"vehicle_type_id":"4","last_reported":1769030371,"current_range_meters":8000,"station_id":"ce4bhbp2rcd13ifvqesg","pricing_plan_id":"cebpf4jnsgd1na2vs0mg"},{"bike_id":"488d3d36-c3f0-4390-80be-f0194a76248a","system_id":"levelo_inurba_marseille","lat":43.25599,"lon":5.40422,"is_reserved":false,"is_disabled":false,"rental_uris":{"android":"levelo://app?vid=488d3d36-c3f0-4390-80be-f0194a76248a","ios":"levelo://app?vid=488d3d36-c3f0-4390-80be-f0194a76248a"},"vehicle_type_id":"4","last_reported":1769030371,"current_range_meters":8000,"station_id":"","pricing_plan_id":"cebpf4jnsgd1na2vs0mg"},{"bike_id":"f67035e4-7e2f-4f61-9362-74370903fc82","system_id":"levelo_inurba_marseille","lat":43.26927,"lon":5.40263,"is_reserved":false,"is_disabled":false,"rental_uris":{"android":"levelo://app?vid=f67035e4-7e2f-4f61-9362-74370903fc82","ios":"levelo://app?vid=f67035e4-7e2f-4f61-9362-74370903fc82"},"vehicle_type_id":"4","last_reported":1769030371,"current_range_meters":8000,"station_id":"cjm6bp8fraef2m0cb0m0","pricing_plan_id":"cebpf4jnsgd1na2vs0mg"},{"bike_id":"aec5c08c-9f05-47e9-bb02-2d63b83fc483","system_id":"levelo_inurba_marseille","lat":43.26741,"lon":5.39224,"is_reserved":false,"is_disabled":false,"rental_uris":{"android":"levelo://app?vid=aec5c08c-9f05-47e9-bb02-2d63b83fc483","ios":"levelo://app?vid=aec5c08c-9f05-47e9-bb02-2d63b83fc483"},"vehicle_type_id":"4","last_reported":1769030371,"current_range_meters":8000,"station_id":"","pricing_plan_id":"cebpf4jnsgd1na2vs0mg"},{"bike_id":"42ad3ecc-0a5c-4850-9931-a019c27979e1","system_id":"levelo_inurba_marseille","lat":43.28619,"lon":5.351,"is_reserved":false,"is_disabled":false,"rental_uris":{"android":"levelo://app?vid=42ad3ecc-0a5c-4850-9931-a019c27979e1","ios":"levelo://app?vid=42ad3ecc-0a5c-4850-9931-a019c27979e1"},"vehicle_type_id":"4","last_reported":1769030371,"current_range_meters":8000,"station_id":"ce4bhch2rcd13ifvqeug","pricing_plan_id":"cebpf4jnsgd1na2vs0mg"},{"bike_id":"898d867e-99fa-44b5-b6b4-03f25b2ef6d2","system_id":"levelo_inurba_marseille","lat":43.24064,"lon":5.377516,"is_reserved":false,"is_disabled":false,"rental_uris":{"android":"levelo://app?vid=898d867e-99fa-44b5-b6b4-03f25b2ef6d2","ios":"levelo://app?vid=898d867e-99fa-44b5-b6b4-03f25b2ef6d2"},"vehicle_type_id":"4","last_reported":1769030371,"current_range_meters":8000,"station_id":"ce4bhnp2rcd13ifvqgvg","pricing_plan_id":"cebpf4jnsgd1na2vs0mg"},{"bike_id":"37f70443-56d8-4bc3-aa3d-cbd2ce8313bb","system_id":"levelo_inurba_marseille","lat":43.29315,"lon":5.37143,"is_reserved":false,"is_disabled":false,"rental_uris":{"android":"levelo://app?vid=37f70443-56d8-4bc3-aa3d-cbd2ce8313bb","ios":"levelo://app?vid=37f70443-56d8-4bc3-aa3d-cbd2ce8313bb"},"vehicle_type_id":"4","last_reported":1769030371,"current_range_meters":8000,"station_id":"ce4bgh92rcd13ifvqb40","pricing_plan_id":"cebpf4jnsgd1na2vs0mg"},{"bike_id":"fe0756b3-2d5b-441a-82e7-f5b58e884324","system_id":"levelo_inurba_marseille","lat":43.28099,"lon":5.37826,"is_reserved":false,"is_disabled":false,"rental_uris":{"android":"levelo://app?vid=fe0756b3-2d5b-441a-82e7-f5b58e884324","ios":"levelo://app?vid=fe0756b3-2d5b-441a-82e7-f5b58e884324"},"vehicle_type_id":"4","last_reported":1769030371,"current_range_meters":8000,"station_id":"ce4bha12rcd13ifvqee0","pricing_plan_id":"cebpf4jnsgd1na2vs0mg"},{"bike_id":"94d782ce-d646-4a15-909c-4c48f4840c8d","system_id":"levelo_inurba_marseille","lat":43.25817,"lon":5.39432,"is_reserved":false,"is_disabled":false,"rental_uris":{"android":"levelo://app?vid=94d782ce-d646-4a15-909c-4c48f4840c8d","ios":"levelo://app?vid=94d782ce-d646-4a15-909c-4c48f4840c8d"},"vehicle_type_id":"4","last_reported":1769030371,"current_range_meters":8000,"station_id":"ce4bhip2rcd13ifvqft0","pricing_plan_id":"cebpf4jnsgd1na2vs0mg"},{"bike_id":"13ae2b67-8d8e-41f8-bdbe-1a5027d72f92","system_id":"levelo_inurba_marseille","lat":43.29907,"lon":5.38131,"is_reserved":false,"is_disabled":false,"rental_uris":{"android":"levelo://app?vid=13ae2b67-8d8e-41f8-bdbe-1a5027d72f92","ios":"levelo://app?vid=13ae2b67-8d8e-41f8-bdbe-1a5027d72f92"},"vehicle_type_id":"4","last_reported":1769030371,"current_range_meters":8000,"station_id":"ce4bgj12rcd13ifvqbc0","pricing_plan_id":"cebpf4jnsgd1na2vs0mg"},{"bike_id":"20deef10-ed33-4ec9-9903-ad6ab49b17b3","system_id":"levelo_inurba_marseille","lat":43.24463,"lon":5.42531,"is_reserved":false,"is_disabled":false,"rental_uris":{"android":"levelo://app?vid=20deef10-ed33-4ec9-9903-ad6ab49b17b3","ios":"levelo://app?vid=20deef10-ed33-4ec9-9903-ad6ab49b17b3"},"vehicle_type_id":"4","last_reported":1769030371,"current_range_meters":8000,"station_id":"st_d4a3vfp97mjs738cd8kg","pricing_plan_id":"cebpf4jnsgd1na2vs0mg"},{"bike_id":"271022cc-095c-412d-aaed-b5bce784f231","system_id":"levelo_inurba_marseille","lat":43.29533,"lon":5.38545,"is_reserved":false,"is_disabled":false,"rental_uris":{"android":"levelo://app?vid=271022cc-095c-412d-aaed-b5bce784f231","ios":"levelo://app?vid=271022cc-095c-412d-aaed-b5bce784f231"},"vehicle_type_id":"4","last_reported":1769030371,"current_range_meters":8000,"station_id":"ce4bgih2rcd13ifvqba0","pricing_plan_id":"cebpf4jnsgd1na2vs0mg"},{"bike_id":"5e8462b0-0f32-40fd-946a-a43dc68267cc","system_id":"levelo_inurba_marseille","lat":43.294739,"lon":5.384073,"is_reserved":false,"is_disabled":false,"rental_uris":{"android":"levelo://app?vid=5e8462b0-0f32-40fd-946a-a43dc68267cc","ios":"levelo://app?vid=5e8462b0-0f32-40fd-946a-a43dc68267cc"},"vehicle_type_id":"4","last_reported":1769030371,"current_range_meters":8000,"station_id":"ce4bgih2rcd13ifvqba0","pricing_plan_id":"cebpf4jnsgd1na2vs0mg"},{"bike_id":"d4007a2e-c3f6-4374-ae39-00ad54c85eaa","system_id":"levelo_inurba_marseille","lat":43.246616,"lon":5.381704,"is_reserved":false,"is_disabled":false,"rental_uris":{"android":"levelo://app?vid=d4007a2e-c3f6-4374-ae39-00ad54c85eaa","ios":"levelo://app?vid=d4007a2e-c3f6-4374-ae39-00ad54c85eaa"},"vehicle_type_id":"4","last_reported":1769030371,"current_range_meters":8000,"station_id":"ce4bhih2rcd13ifvqfr0","pricing_plan_id":"cebpf4jnsgd1na2vs0mg"},{"bike_id":"cd656310-4221-426f-b1a2-42610d0b025b","system_id":"levelo_inurba_marseille","lat":43.237823,"lon":5.366228,"is_reserved":false,"is_disabled":false,"rental_uris":{"android":"levelo://app?vid=cd656310-4221-426f-b1a2-42610d0b025b","ios":"levelo://app?vid=cd656310-4221-426f-b1a2-42610d0b025b"},"vehicle_type_id":"4","last_reported":1769030371,"current_range_meters":8400,"station_id":"st_d3nk18o9ro0c73en2l3g","pricing_plan_id":"cebpf4jnsgd1na2vs0mg"},{"bike_id":"fc5d102e-6a36-4a5b-99d5-23cf30eec9b5","system_id":"levelo_inurba_marseille","lat":43.23196,"lon":5.35552,"is_reserved":false,"is_disabled":false,"rental_uris":{"android":"levelo://app?vid=fc5d102e-6a36-4a5b-99d5-23cf30eec9b5","ios":"levelo://app?vid=fc5d102e-6a36-4a5b-99d5-23cf30eec9b5"},"vehicle_type_id":"4","last_reported":1769030371,"current_range_meters":8400,"station_id":"ce4bhu92rcd13ifvqi70","pricing_plan_id":"cebpf4jnsgd1na2vs0mg"},{"bike_id":"bd3222b3-dffe-4214-a25c-da1b23e1c71b","system_id":"levelo_inurba_marseille","lat":43.32339,"lon":5.36724,"is_reserved":false,"is_disabled":false,"rental_uris":{"android":"levelo://app?vid=bd3222b3-dffe-4214-a25c-da1b23e1c71b","ios":"levelo://app?vid=bd3222b3-dffe-4214-a25c-da1b23e1c71b"},"vehicle_type_id":"4","last_reported":1769030371,"current_range_meters":8400,"station_id":"ce4bhsh2rcd13ifvqi2g","pricing_plan_id":"cebpf4jnsgd1na2vs0mg"},{"bike_id":"b929e316-7daf-4ac5-b86c-52d93f79e2c6","system_id":"levelo_inurba_marseille","lat":43.28576,"lon":5.39494,"is_reserved":false,"is_disabled":false,"rental_uris":{"android":"levelo://app?vid=b929e316-7daf-4ac5-b86c-52d93f79e2c6","ios":"levelo://app?vid=b929e316-7daf-4ac5-b86c-52d93f79e2c6"},"vehicle_type_id":"4","last_reported":1769030371,"current_range_meters":8400,"station_id":"ce4bh292rcd13ifvqdg0","pricing_plan_id":"cebpf4jnsgd1na2vs0mg"},{"bike_id":"729b60e2-d247-431e-ac0d-e8049040d758","system_id":"levelo_inurba_marseille","lat":43.29597,"lon":5.381,"is_reserved":false,"is_disabled":false,"rental_uris":{"android":"levelo://app?vid=729b60e2-d247-431e-ac0d-e8049040d758","ios":"levelo://app?vid=729b60e2-d247-431e-ac0d-e8049040d758"},"vehicle_type_id":"4","last_reported":1769030371,"current_range_meters":8400,"station_id":"ce4bgl12rcd13ifvqbo0","pricing_plan_id":"cebpf4jnsgd1na2vs0mg"},{"bike_id":"c5f1dd13-1281-4386-b64d-18e80e862569","system_id":"levelo_inurba_marseille","lat":43.28946,"lon":5.36627,"is_reserved":false,"is_disabled":false,"rental_uris":{"android":"levelo://app?vid=c5f1dd13-1281-4386-b64d-18e80e862569","ios":"levelo://app?vid=c5f1dd13-1281-4386-b64d-18e80e862569"},"vehicle_type_id":"4","last_reported":1769030371,"current_range_meters":8400,"station_id":"ce4bhap2rcd13ifvqek0","pricing_plan_id":"cebpf4jnsgd1na2vs0mg"},{"bike_id":"11d9f913-4a75-4aa7-a7d2-25336d44752e","system_id":"levelo_inurba_marseille","lat":43.29525,"lon":5.3854,"is_reserved":false,"is_disabled":false,"rental_uris":{"android":"levelo://app?vid=11d9f913-4a75-4aa7-a7d2-25336d44752e","ios":"levelo://app?vid=11d9f913-4a75-4aa7-a7d2-25336d44752e"},"vehicle_type_id":"4","last_reported":1769030371,"current_range_meters":8400,"station_id":"ce4bgih2rcd13ifvqba0","pricing_plan_id":"cebpf4jnsgd1na2vs0mg"},{"bike_id":"0a5a1061-a9f5-4911-95ea-3b52f54d2339","system_id":"levelo_inurba_marseille","lat":43.292821,"lon":5.368467,"is_reserved":false,"is_disabled":false,"rental_uris":{"android":"levelo://app?vid=0a5a1061-a9f5-4911-95ea-3b52f54d2339","ios":"levelo://app?vid=0a5a1061-a9f5-4911-95ea-3b52f54d2339"},"vehicle_type_id":"4","last_reported":1769030371,"current_range_meters":8400,"station_id":"ce4bhbp2rcd13ifvqesg","pricing_plan_id":"cebpf4jnsgd1na2vs0mg"},{"bike_id":"2275571d-7014-4cc7-9743-13fb9301ea8f","system_id":"levelo_inurba_marseille","lat":43.2175,"lon":5.34585,"is_reserved":false,"is_disabled":false,"rental_uris":{"android":"levelo://app?vid=2275571d-7014-4cc7-9743-13fb9301ea8f","ios":"levelo://app?vid=2275571d-7014-4cc7-9743-13fb9301ea8f"},"vehicle_type_id":"4","last_reported":1769030371,"current_range_meters":8400,"station_id":"st_cvj6r9ubvosntc0bgbag","pricing_plan_id":"cebpf4jnsgd1na2vs0mg"},{"bike_id":"d8f34b5e-d831-4a3d-8643-93f2f2dfecae","system_id":"levelo_inurba_marseille","lat":43.24189,"lon":5.3634,"is_reserved":false,"is_disabled":false,"rental_uris":{"android":"levelo://app?vid=d8f34b5e-d831-4a3d-8643-93f2f2dfecae","ios":"levelo://app?vid=d8f34b5e-d831-4a3d-8643-93f2f2dfecae"},"vehicle_type_id":"4","last_reported":1769030371,"current_range_meters":8400,"station_id":"cpo36qri1sfpv3e86is0","pricing_plan_id":"cebpf4jnsgd1na2vs0mg"},{"bike_id":"ddac16df-da7b-4c1e-8c96-25bd2dbc1226","system_id":"levelo_inurba_marseille","lat":43.32362,"lon":5.36763,"is_reserved":false,"is_disabled":false,"rental_uris":{"android":"levelo://app?vid=ddac16df-da7b-4c1e-8c96-25bd2dbc1226","ios":"levelo://app?vid=ddac16df-da7b-4c1e-8c96-25bd2dbc1226"},"vehicle_type_id":"4","last_reported":1769030371,"current_range_meters":8400,"station_id":"ce4bhsh2rcd13ifvqi2g","pricing_plan_id":"cebpf4jnsgd1na2vs0mg"},{"bike_id":"edaa06c5-5680-440d-b78a-e772f7913fa9","system_id":"levelo_inurba_marseille","lat":43.29262,"lon":5.38459,"is_reserved":false,"is_disabled":false,"rental_uris":{"android":"levelo://app?vid=edaa06c5-5680-440d-b78a-e772f7913fa9","ios":"levelo://app?vid=edaa06c5-5680-440d-b78a-e772f7913fa9"},"vehicle_type_id":"4","last_reported":1769030371,"current_range_meters":8400,"station_id":"ce4bh692rcd13ifvqea0","pricing_plan_id":"cebpf4jnsgd1na2vs0mg"},{"bike_id":"168e0ebd-7a61-4add-a9aa-beaed04832bb","system_id":"levelo_inurba_marseille","lat":43.23154,"lon":5.43719,"is_reserved":false,"is_disabled":false,"rental_uris":{"android":"levelo://app?vid=168e0ebd-7a61-4add-a9aa-beaed04832bb","ios":"levelo://app?vid=168e0ebd-7a61-4add-a9aa-beaed04832bb"},"vehicle_type_id":"4","last_reported":1769030371,"current_range_meters":8400,"station_id":"ce4bhmp2rcd13ifvqgog","pricing_plan_id":"cebpf4jnsgd1na2vs0mg"},{"bike_id":"61044dd1-fb06-4150-a7c6-457e1c0d2b88","system_id":"levelo_inurba_marseille","lat":43.23182,"lon":5.39981,"is_reserved":false,"is_disabled":false,"rental_uris":{"android":"levelo://app?vid=61044dd1-fb06-4150-a7c6-457e1c0d2b88","ios":"levelo://app?vid=61044dd1-fb06-4150-a7c6-457e1c0d2b88"},"vehicle_type_id":"4","last_reported":1769030371,"current_range_meters":8400,"station_id":"ce4bhn12rcd13ifvqgqg","pricing_plan_id":"cebpf4jnsgd1na2vs0mg"},