{"last_updated":1762870252,"ttl":60,"version":"2.2","data":{"bikes":[{"bike_id":"d7db12ce-11cc-4c98-8751-ac59baa5d7aa","system_id":"levelo_inurba_marseille","lat":43.337444,"lon":5.374475,"is_reserved":false,"is_disabled":false,"rental_uris":{"android":"levelo://app?vid=d7db12ce-11cc-4c98-8751-ac59baa5d7aa","ios":"levelo://app?vid=d7db12ce-11cc-4c98-8751-ac59baa5d7aa"},"vehicle_type_id":"4","last_reported":1762870252,"current_range_meters":0,"station_id":"","pricing_plan_id":"cebpf4jnsgd1na2vs0mg"},{"bike_id":"9dfb594c-8bae-4a21-a03c-7f565834446c","system_id":"levelo_inurba_marseille","lat":43.29336,"lon":5.37343,"is_reserved":false,"is_disabled":false,"rental_uris":{"android":"levelo://app?vid=9dfb594c-8bae-4a21-a03c-7f565834446c","ios":"levelo://app?vid=9dfb594c-8bae-4a21-a03c-7f565834446c"},"vehicle_type_id":"4","last_reported":1762870252,"current_range_meters":2800,"station_id":"","pricing_plan_id":"cebpf4jnsgd1na2vs0mg"},{"bike_id":"5ea448c9-be17-4c9d-b421-2f94a9c03759","system_id":"levelo_inurba_marseille","lat":43.23198,"lon":5.39983,"is_reserved":false,"is_disabled":true,"rental_uris":{"android":"levelo://app?vid=5ea448c9-be17-4c9d-b421-2f94a9c03759","ios":"levelo://app?vid=5ea448c9-be17-4c9d-b421-2f94a9c03759"},"vehicle_type_id":"4","last_reported":1762870252,"current_range_meters":2800,"station_id":"ce4bhn12rcd13ifvqgqg","pricing_plan_id":"cebpf4jnsgd1na2vs0mg"},{"bike_id":"3ac55e8f-0d41-4491-bdbd-48cc94f76f54","system_id":"levelo_inurba_marseille","lat":43.211964,"lon":5.350694,"is_reserved":false,"is_disabled":true,"rental_uris":{"android":"levelo://app?vid=3ac55e8f-0d41-4491-bdbd-48cc94f76f54","ios":"levelo://app?vid=3ac55e8f-0d41-4491-bdbd-48cc94f76f54"},"vehicle_type_id":"4","last_reported":1762870252,"current_range_meters":2800,"station_id":"st_cvj6sg6p6f1abm77japg","pricing_plan_id":"cebpf4jnsgd1na2vs0mg"},{"bike_id":"e5b78d69-0b14-4b95-aa06-02912863afff","system_id":"levelo_inurba_marseille","lat":43.2963,"lon":5.40596,"is_reserved":false,"is_disabled":false,"rental_uris":{"android":"levelo://app?vid=e5b78d69-0b14-4b95-aa06-02912863afff","ios":"levelo://app?vid=e5b78d69-0b14-4b95-aa06-02912863afff"},"vehicle_type_id":"4","last_reported":1762870252,"current_range_meters":2800,"station_id":"ce4bh0h2rcd13ifvqd60","pricing_plan_id":"cebpf4jnsgd1na2vs0mg"},{"bike_id":"0bbbb686-c1a7-49be-9644-49e02cdc2494","system_id":"levelo_inurba_marseille","lat":43.248047,"lon":5.374599,"is_reserved":false,"is_disabled":false,"rental_uris":{"android":"levelo://app?vid=0bbbb686-c1a7-49be-9644-49e02cdc2494","ios":"levelo://app?vid=0bbbb686-c1a7-49be-9644-49e02cdc2494"},"vehicle_type_id":"4","last_reported":1762870252,"current_range_meters":3200,"station_id":"ce4bhgh2rcd13ifvqfb0","pricing_plan_id":"cebpf4jnsgd1na2vs0mg"},{"bike_id":"6c4306e4-74fe-46bb-8a0d-b66cd38c2741","system_id":"levelo_inurba_marseille","lat":43.23189,"lon":5.35564,"is_reserved":false,"is_disabled":false,"rental_uris":{"android":"levelo://app?vid=6c4306e4-74fe-46bb-8a0d-b66cd38c2741","ios":"levelo://app?vid=6c4306e4-74fe-46bb-8a0d-b66cd38c2741"},"vehicle_type_id":"4","last_reported":1762870252,"current_range_meters":3200,"station_id":"ce4bhu92rcd13ifvqi70","pricing_plan_id":"cebpf4jnsgd1na2vs0mg"},{"bike_id":"2ef0988c-b0a1-4074-b85b-4089fd36c92a","system_id":"levelo_inurba_marseille","lat":43.21752,"lon":5.3461,"is_reserved":false,"is_disabled":false,"rental_uris":{"android":"levelo://app?vid=2ef0988c-b0a1-4074-b85b-4089fd36c92a","ios":"levelo://app?vid=2ef0988c-b0a1-4074-b85b-4089fd36c92a"},"vehicle_type_id":"4","last_reported":1762870252,"current_range_meters":3200,"station_id":"st_cvj6r9ubvosntc0bgbag","pricing_plan_id":"cebpf4jnsgd1na2vs0mg"},{"bike_id":"e3d318f9-b3b5-4926-aa61-86fc1ec78fc5","system_id":"levelo_inurba_marseille","lat":43.28723,"lon":5.36098,"is_reserved":false,"is_disabled":false,"rental_uris":{"android":"levelo://app?vid=e3d318f9-b3b5-4926-aa61-86fc1ec78fc5","ios":"levelo://app?vid=e3d318f9-b3b5-4926-aa61-86fc1ec78fc5"},"vehicle_type_id":"4","last_reported":1762870252,"current_range_meters":3200,"station_id":"cki0cbj6b192h4jlfktg","pricing_plan_id":"cebpf4jnsgd1na2vs0mg"},{"bike_id":"ea291d7e-9e3f-40a9-afbd-1a5b5ef2b7da","system_id":"levelo_inurba_marseille","lat":43.27373,"lon":5.36249,"is_reserved":false,"is_disabled":false,"rental_uris":{"android":"levelo://app?vid=ea291d7e-9e3f-40a9-afbd-1a5b5ef2b7da","ios":"levelo://app?vid=ea291d7e-9e3f-40a9-afbd-1a5b5ef2b7da"},"vehicle_type_id":"4","last_reported":1762870252,"current_range_meters":3200,"station_id":"ce4bhbh2rcd13ifvqeo0","pricing_plan_id":"cebpf4jnsgd1na2vs0mg"},{"bike_id":"ac0be0b0-60a9-4cb7-bd08-19b488685017","system_id":"levelo_inurba_marseille","lat":43.25723,"lon":5.41894,"is_reserved":false,"is_disabled":false,"rental_uris":{"android":"levelo://app?vid=ac0be0b0-60a9-4cb7-bd08-19b488685017","ios":"levelo://app?vid=ac0be0b0-60a9-4cb7-bd08-19b488685017"},"vehicle_type_id":"4","last_reported":1762870252,"current_range_meters":3200,"station_id":"","pricing_plan_id":"cebpf4jnsgd1na2vs0mg"},{"bike_id":"6000a579-bdc0-4764-86d9-f5873bca52e7","system_id":"levelo_inurba_marseille","lat":43.32473,"lon":5.36572,"is_reserved":false,"is_disabled":false,"rental_uris":{"android":"levelo://app?vid=6000a579-bdc0-4764-86d9-f5873bca52e7","ios":"levelo://app?vid=6000a579-bdc0-4764-86d9-f5873bca52e7"},"vehicle_type_id":"4","last_reported":1762870252,"current_range_meters":3600,"station_id":"ce4bhs12rcd13ifvqhvg","pricing_plan_id":"cebpf4jnsgd1na2vs0mg"},{"bike_id":"a7e0e980-eff3-4a3f-b22b-b658162fe152","system_id":"levelo_inurba_marseille","lat":43.28106,"lon":5.40147,"is_reserved":false,"is_disabled":false,"rental_uris":{"android":"levelo://app?vid=a7e0e980-eff3-4a3f-b22b-b658162fe152","ios":"levelo://app?vid=a7e0e980-eff3-4a3f-b22b-b658162fe152"},"vehicle_type_id":"4","last_reported":1762870252,"current_range_meters":3600,"station_id":"","pricing_plan_id":"cebpf4jnsgd1na2vs0mg"},{"bike_id":"ad1c8150-f69d-4cc2-bcbf-e328de393a66","system_id":"levelo_inurba_marseille","lat":43.33926,"lon":5.41514,"is_reserved":false,"is_disabled":false,"rental_uris":{"android":"levelo://app?vid=ad1c8150-f69d-4cc2-bcbf-e328de393a66","ios":"levelo://app?vid=ad1c8150-f69d-4cc2-bcbf-e328de393a66"},"vehicle_type_id":"4","last_reported":1762870252,"current_range_meters":3600,"station_id":"","pricing_plan_id":"cebpf4jnsgd1na2vs0mg"},{"bike_id":"5b08ed29-e1aa-4d44-b245-c1660e7215a5","system_id":"levelo_inurba_marseille","lat":43.26552,"lon":5.37286,"is_reserved":false,"is_disabled":false,"rental_uris":{"android":"levelo://app?vid=5b08ed29-e1aa-4d44-b245-c1660e7215a5","ios":"levelo://app?vid=5b08ed29-e1aa-4d44-b245-c1660e7215a5"},"vehicle_type_id":"4","last_reported":1762870252,"current_range_meters":4000,"station_id":"ce4bhg12rcd13ifvqf70","pricing_plan_id":"cebpf4jnsgd1na2vs0mg"},{"bike_id":"9083b79d-6fb7-413a-b742-ddd93ea56f02","system_id":"levelo_inurba_marseille","lat":43.28437,"lon":5.39201,"is_reserved":false,"is_disabled":false,"rental_uris":{"android":"levelo://app?vid=9083b79d-6fb7-413a-b742-ddd93ea56f02","ios":"levelo://app?vid=9083b79d-6fb7-413a-b742-ddd93ea56f02"},"vehicle_type_id":"4","last_reported":1762870252,"current_range_meters":4000,"station_id":"ce4bhoh2rcd13ifvqh5g","pricing_plan_id":"cebpf4jnsgd1na2vs0mg"},{"bike_id":"005cb029-7662-4a0e-b27c-100ba918751c","system_id":"levelo_inurba_marseille","lat":43.23062,"lon":5.35493,"is_reserved":false,"is_disabled":false,"rental_uris":{"android":"levelo://app?vid=005cb029-7662-4a0e-b27c-100ba918751c","ios":"levelo://app?vid=005cb029-7662-4a0e-b27c-100ba918751c"},"vehicle_type_id":"4","last_reported":1762870252,"current_range_meters":4400,"station_id":"cpo3342slgdg3j2ifvpg","pricing_plan_id":"cebpf4jnsgd1na2vs0mg"},{"bike_id":"d82049e2-e31f-4f6e-bf1f-19f79e2e4fb5","system_id":"levelo_inurba_marseille","lat":43.26059,"lon":5.39399,"is_reserved":false,"is_disabled":false,"rental_uris":{"android":"levelo://app?vid=d82049e2-e31f-4f6e-bf1f-19f79e2e4fb5","ios":"levelo://app?vid=d82049e2-e31f-4f6e-bf1f-19f79e2e4fb5"},"vehicle_type_id":"4","last_reported":1762870252,"current_range_meters":4400,"station_id":"ce4bhh92rcd13ifvqfj0","pricing_plan_id":"cebpf4jnsgd1na2vs0mg"},{"bike_id":"a78b8217-443c-4e41-8b59-d87ed39375f3","system_id":"levelo_inurba_marseille","lat":43.31364,"lon":5.36725,"is_reserved":false,"is_disabled":true,"rental_uris":{"android":"levelo://app?vid=a78b8217-443c-4e41-8b59-d87ed39375f3","ios":"levelo://app?vid=a78b8217-443c-4e41-8b59-d87ed39375f3"},"vehicle_type_id":"4","last_reported":1762870252,"current_range_meters":4400,"station_id":"","pricing_plan_id":"cebpf4jnsgd1na2vs0mg"},{"bike_id":"fcceb025-ee00-4f03-a41a-d238718040c9","system_id":"levelo_inurba_marseille","lat":43.26192,"lon":5.3745,"is_reserved":false,"is_disabled":false,"rental_uris":{"android":"levelo://app?vid=fcceb025-ee00-4f03-a41a-d238718040c9","ios":"levelo://app?vid=fcceb025-ee00-4f03-a41a-d238718040c9"},"vehicle_type_id":"4","last_reported":1762870252,"current_range_meters":4400,"station_id":"ce4bhgp2rcd13ifvqfc0","pricing_plan_id":"cebpf4jnsgd1na2vs0mg"},{"bike_id":"0895407d-0cc9-4684-93a6-d9d45c99ea56","system_id":"levelo_inurba_marseille","lat":43.29277,"lon":5.36853,"is_reserved":false,"is_disabled":false,"rental_uris":{"android":"levelo://app?vid=0895407d-0cc9-4684-93a6-d9d45c99ea56","ios":"levelo://app?vid=0895407d-0cc9-4684-93a6-d9d45c99ea56"},"vehicle_type_id":"4","last_reported":1762870252,"current_range_meters":4800,"station_id":"ce4bhbp2rcd13ifvqesg","pricing_plan_id":"cebpf4jnsgd1na2vs0mg"},{"bike_id":"cc194e48-c193-4bc3-8053-47f2e623efa5","system_id":"levelo_inurba_marseille","lat":43.27377,"lon":5.36254,"is_reserved":false,"is_disabled":false,"rental_uris":{"android":"levelo://app?vid=cc194e48-c193-4bc3-8053-47f2e623efa5","ios":"levelo://app?vid=cc194e48-c193-4bc3-8053-47f2e623efa5"},"vehicle_type_id":"4","last_reported":1762870252,"current_range_meters":4800,"station_id":"ce4bhbh2rcd13ifvqeo0","pricing_plan_id":"cebpf4jnsgd1na2vs0mg"},{"bike_id":"d35c939f-5d9d-4a30-a178-a7eb0ce01af6","system_id":"levelo_inurba_marseille","lat":43.231587,"lon":5.437076,"is_reserved":false,"is_disabled":false,"rental_uris":{"android":"levelo://app?vid=d35c939f-5d9d-4a30-a178-a7eb0ce01af6","ios":"levelo://app?vid=d35c939f-5d9d-4a30-a178-a7eb0ce01af6"},"vehicle_type_id":"4","last_reported":1762870252,"current_range_meters":4800,"station_id":"ce4bhmp2rcd13ifvqgog","pricing_plan_id":"cebpf4jnsgd1na2vs0mg"},{"bike_id":"dfdb2f39-6046-4db8-be36-9304ca2bcb01","system_id":"levelo_inurba_marseille","lat":43.217493,"lon":5.345977,"is_reserved":false,"is_disabled":false,"rental_uris":{"android":"levelo://app?vid=dfdb2f39-6046-4db8-be36-9304ca2bcb01","ios":"levelo://app?vid=dfdb2f39-6046-4db8-be36-9304ca2bcb01"},"vehicle_type_id":"4","last_reported":1762870252,"current_range_meters":4800,"station_id":"st_cvj6r9ubvosntc0bgbag","pricing_plan_id":"cebpf4jnsgd1na2vs0mg"},{"bike_id":"d9c65318-5c45-46c8-8de5-60e61f371988","system_id":"levelo_inurba_marseille","lat":43.31828,"lon":5.38249,"is_reserved":false,"is_disabled":false,"rental_uris":{"android":"levelo://app?vid=d9c65318-5c45-46c8-8de5-60e61f371988","ios":"levelo://app?vid=d9c65318-5c45-46c8-8de5-60e61f371988"},"vehicle_type_id":"4","last_reported":1762870252,"current_range_meters":5600,"station_id":"","pricing_plan_id":"cebpf4jnsgd1na2vs0mg"},{"bike_id":"5cc8ec17-08a2-446a-a81e-4fafa298d050","system_id":"levelo_inurba_marseille","lat":43.31715,"lon":5.42397,"is_reserved":false,"is_disabled":false,"rental_uris":{"android":"levelo://app?vid=5cc8ec17-08a2-446a-a81e-4fafa298d050","ios":"levelo://app?vid=5cc8ec17-08a2-446a-a81e-4fafa298d050"},"vehicle_type_id":"4","last_reported":1762870252,"current_range_meters":5600,"station_id":"ce4bhp92rcd13ifvqhbg","pricing_plan_id":"cebpf4jnsgd1na2vs0mg"},{"bike_id":"19cee5f6-acd6-4f6b-8264-023689e6563b","system_id":"levelo_inurba_marseille","lat":43.27807,"lon":5.40711,"is_reserved":false,"is_disabled":false,"rental_uris":{"android":"levelo://app?vid=19cee5f6-acd6-4f6b-8264-023689e6563b","ios":"levelo://app?vid=19cee5f6-acd6-4f6b-8264-023689e6563b"},"vehicle_type_id":"4","last_reported":1762870252,"current_range_meters":5600,"station_id":"ce4bhnh2rcd13ifvqgtg","pricing_plan_id":"cebpf4jnsgd1na2vs0mg"},{"bike_id":"4e25f664-840e-4f93-af9a-e7f6ec4ec588","system_id":"levelo_inurba_marseille","lat":43.27998,"lon":5.40016,"is_reserved":false,"is_disabled":false,"rental_uris":{"android":"levelo://app?vid=4e25f664-840e-4f93-af9a-e7f6ec4ec588","ios":"levelo://app?vid=4e25f664-840e-4f93-af9a-e7f6ec4ec588"},"vehicle_type_id":"4","last_reported":1762870252,"current_range_meters":5600,"station_id":"ce4bho92rcd13ifvqh4g","pricing_plan_id":"cebpf4jnsgd1na2vs0mg"},{"bike_id":"499f359b-78ba-4ab2-86bc-4ee6f97afc96","system_id":"levelo_inurba_marseille","lat":43.27421,"lon":5.39415,"is_reserved":false,"is_disabled":false,"rental_uris":{"android":"levelo://app?vid=499f359b-78ba-4ab2-86bc-4ee6f97afc96","ios":"levelo://app?vid=499f359b-78ba-4ab2-86bc-4ee6f97afc96"},"vehicle_type_id":"4","last_reported":1762870252,"current_range_meters":5600,"station_id":"ce4bhdp2rcd13ifvqf20","pricing_plan_id":"cebpf4jnsgd1na2vs0mg"},{"bike_id":"e472884e-2886-41d8-b07f-b890bf6cc4bb","system_id":"levelo_inurba_marseille","lat":43.3041,"lon":5.41302,"is_reserved":false,"is_disabled":false,"rental_uris":{"android":"levelo://app?vid=e472884e-2886-41d8-b07f-b890bf6cc4bb","ios":"levelo://app?vid=e472884e-2886-41d8-b07f-b890bf6cc4bb"},"vehicle_type_id":"4","last_reported":1762870252,"current_range_meters":5600,"station_id":"ce4bhop2rcd13ifvqh8g","pricing_plan_id":"cebpf4jnsgd1na2vs0mg"},{"bike_id":"18c54d74-89a3-4416-bae5-929c11d2c3b7","system_id":"levelo_inurba_marseille","lat":43.28695,"lon":5.39992,"is_reserved":false,"is_disabled":false,"rental_uris":{"android":"levelo://app?vid=18c54d74-89a3-4416-bae5-929c11d2c3b7","ios":"levelo://app?vid=18c54d74-89a3-4416-bae5-929c11d2c3b7"},"vehicle_type_id":"4","last_reported":1762870252,"current_range_meters":5600,"station_id":"ce4bho92rcd13ifvqh3g","pricing_plan_id":"cebpf4jnsgd1na2vs0mg"},{"bike_id":"056de5ef-b7f7-4cb9-b2fc-e4d0280e7216","system_id":"levelo_inurba_marseille","lat":43.26552,"lon":5.39011,"is_reserved":false,"is_disabled":false,"rental_uris":{"android":"levelo://app?vid=056de5ef-b7f7-4cb9-b2fc-e4d0280e7216","ios":"levelo://app?vid=056de5ef-b7f7-4cb9-b2fc-e4d0280e7216"},"vehicle_type_id":"4","last_reported":1762870252,"current_range_meters":5600,"station_id":"ce4bhe12rcd13ifvqf30","pricing_plan_id":"cebpf4jnsgd1na2vs0mg"},{"bike_id":"644346eb-4995-40d4-839d-eb78cbb8a283","system_id":"levelo_inurba_marseille","lat":43.25,"lon":5.38924,"is_reserved":false,"is_disabled":false,"rental_uris":{"android":"levelo://app?vid=644346eb-4995-40d4-839d-eb78cbb8a283","ios":"levelo://app?vid=644346eb-4995-40d4-839d-eb78cbb8a283"},"vehicle_type_id":"4","last_reported":1762870252,"current_range_meters":5600,"station_id":"ce4bhgp2rcd13ifvqfd0","pricing_plan_id":"cebpf4jnsgd1na2vs0mg"},{"bike_id":"e154f026-aee3-4f6f-9162-c9e8c5d87936","system_id":"levelo_inurba_marseille","lat":43.31984,"lon":5.38157,"is_reserved":false,"is_disabled":false,"rental_uris":{"android":"levelo://app?vid=e154f026-aee3-4f6f-9162-c9e8c5d87936","ios":"levelo://app?vid=e154f026-aee3-4f6f-9162-c9e8c5d87936"},"vehicle_type_id":"4","last_reported":1762870252,"current_range_meters":5600,"station_id":"ce4bhr12rcd13ifvqhpg","pricing_plan_id":"cebpf4jnsgd1na2vs0mg"},{"bike_id":"e3ecd3a1-05eb-47ff-8789-509dcedd6e21","system_id":"levelo_inurba_marseille","lat":43.2957,"lon":5.39989,"is_reserved":false,"is_disabled":false,"rental_uris":{"android":"levelo://app?vid=e3ecd3a1-05eb-47ff-8789-509dcedd6e21","ios":"levelo://app?vid=e3ecd3a1-05eb-47ff-8789-509dcedd6e21"},"vehicle_type_id":"4","last_reported":1762870252,"current_range_meters":6000,"station_id":"ce4bh312rcd13ifvqdj0","pricing_plan_id":"cebpf4jnsgd1na2vs0mg"},{"bike_id":"d711fd67-c44e-400e-a980-039b6203fe2d","system_id":"levelo_inurba_marseille","lat":43.27948,"lon":5.41038,"is_reserved":false,"is_disabled":false,"rental_uris":{"android":"levelo://app?vid=d711fd67-c44e-400e-a980-039b6203fe2d","ios":"levelo://app?vid=d711fd67-c44e-400e-a980-039b6203fe2d"},"vehicle_type_id":"4","last_reported":1762870252,"current_range_meters":6000,"station_id":"ce4bhnp2rcd13ifvqh0g","pricing_plan_id":"cebpf4jnsgd1na2vs0mg"},{"bike_id":"6cfa9f75-d136-4bef-a6f7-8b3923ffdf39","system_id":"levelo_inurba_marseille","lat":43.29523,"lon":5.39046,"is_reserved":false,"is_disabled":false,"rental_uris":{"android":"levelo://app?vid=6cfa9f75-d136-4bef-a6f7-8b3923ffdf39","ios":"levelo://app?vid=6cfa9f75-d136-4bef-a6f7-8b3923ffdf39"},"vehicle_type_id":"4","last_reported":1762870252,"current_range_meters":6000,"station_id":"ce4bh3p2rcd13ifvqdp0","pricing_plan_id":"cebpf4jnsgd1na2vs0mg"},{"bike_id":"a722294a-420e-4d2b-b9ca-1ab7fb2e2ff4","system_id":"levelo_inurba_marseille","lat":43.30146,"lon":5.39903,"is_reserved":false,"is_disabled":false,"rental_uris":{"android":"levelo://app?vid=a722294a-420e-4d2b-b9ca-1ab7fb2e2ff4","ios":"levelo://app?vid=a722294a-420e-4d2b-b9ca-1ab7fb2e2ff4"},"vehicle_type_id":"4","last_reported":1762870252,"current_range_meters":6400,"station_id":"ce4bh0h2rcd13ifvqd40","pricing_plan_id":"cebpf4jnsgd1na2vs0mg"},{"bike_id":"c2525f61-47f4-46c9-b0c9-307815565ff4","system_id":"levelo_inurba_marseille","lat":43.255099,"lon":5.376502,"is_reserved":false,"is_disabled":false,"rental_uris":{"android":"levelo://app?vid=c2525f61-47f4-46c9-b0c9-307815565ff4","ios":"levelo://app?vid=c2525f61-47f4-46c9-b0c9-307815565ff4"},"vehicle_type_id":"4","last_reported":1762870252,"current_range_meters":6400,"station_id":"ce4bhb12rcd13ifvqel0","pricing_plan_id":"cebpf4jnsgd1na2vs0mg"},{"bike_id":"4dba09d3-835d-4313-a6d8-3da20a1325dd","system_id":"levelo_inurba_marseille","lat":43.29895,"lon":5.43664,"is_reserved":false,"is_disabled":false,"rental_uris":{"android":"levelo://app?vid=4dba09d3-835d-4313-a6d8-3da20a1325dd","ios":"levelo://app?vid=4dba09d3-835d-4313-a6d8-3da20a1325dd"},"vehicle_type_id":"4","last_reported":1762870252,"current_range_meters":6400,"station_id":"ce4bhpp2rcd13ifvqhfg","pricing_plan_id":"cebpf4jnsgd1na2vs0mg"},{"bike_id":"e868f4bc-d66c-4b96-af1c-1c1c28d8d8b4","system_id":"levelo_inurba_marseille","lat":43.2844,"lon":5.39202,"is_reserved":false,"is_disabled":false,"rental_uris":{"android":"levelo://app?vid=e868f4bc-d66c-4b96-af1c-1c1c28d8d8b4","ios":"levelo://app?vid=e868f4bc-d66c-4b96-af1c-1c1c28d8d8b4"},"vehicle_type_id":"4","last_reported":1762870252,"current_range_meters":6400,"station_id":"ce4bhoh2rcd13ifvqh5g","pricing_plan_id":"cebpf4jnsgd1na2vs0mg"},{"bike_id":"afa48b9e-a086-405f-82c1-39b8a314d85e","system_id":"levelo_inurba_marseille","lat":43.22533,"lon":5.34835,"is_reserved":false,"is_disabled":false,"rental_uris":{"android":"levelo://app?vid=afa48b9e-a086-405f-82c1-39b8a314d85e","ios":"levelo://app?vid=afa48b9e-a086-405f-82c1-39b8a314d85e"},"vehicle_type_id":"4","last_reported":1762870252,"current_range_meters":6400,"station_id":"","pricing_plan_id":"cebpf4jnsgd1na2vs0mg"},{"bike_id":"3713a4d2-11e5-4461-a514-844deaa548ea","system_id":"levelo_inurba_marseille","lat":43.29249,"lon":5.37633,"is_reserved":false,"is_disabled":false,"rental_uris":{"android":"levelo://app?vid=3713a4d2-11e5-4461-a514-844deaa548ea","ios":"levelo://app?vid=3713a4d2-11e5-4461-a514-844deaa548ea"},"vehicle_type_id":"4","last_reported":1762870252,"current_range_meters":6400,"station_id":"ce4bgi12rcd13ifvqb80","pricing_plan_id":"cebpf4jnsgd1na2vs0mg"},{"bike_id":"cf43613f-abb5-47da-b6eb-65d95bbc45d4","system_id":"levelo_inurba_marseille","lat":43.30421,"lon":5.41293,"is_reserved":false,"is_disabled":false,"rental_uris":{"android":"levelo://app?vid=cf43613f-abb5-47da-b6eb-65d95bbc45d4","ios":"levelo://app?vid=cf43613f-abb5-47da-b6eb-65d95bbc45d4"},"vehicle_type_id":"4","last_reported":1762870252,"current_range_meters":6400,"station_id":"ce4bhop2rcd13ifvqh8g","pricing_plan_id":"cebpf4jnsgd1na2vs0mg"},{"bike_id":"a53ceac9-783a-48db-a5f2-426746634f44","system_id":"levelo_inurba_marseille","lat":43.30419,"lon":5.39752,"is_reserved":false,"is_disabled":false,"rental_uris":{"android":"levelo://app?vid=a53ceac9-783a-48db-a5f2-426746634f44","ios":"levelo://app?vid=a53ceac9-783a-48db-a5f2-426746634f44"},"vehicle_type_id":"4","last_reported":1762870252,"current_range_meters":6400,"station_id":"ce4bh092rcd13ifvqd20","pricing_plan_id":"cebpf4jnsgd1na2vs0mg"},{"bike_id":"1f5a8b7a-4f85-432e-8a2e-1320e8301faa","system_id":"levelo_inurba_marseille","lat":43.33131,"lon":5.37743,"is_reserved":false,"is_disabled":false,"rental_uris":{"android":"levelo://app?vid=1f5a8b7a-4f85-432e-8a2e-1320e8301faa","ios":"levelo://app?vid=1f5a8b7a-4f85-432e-8a2e-1320e8301faa"},"vehicle_type_id":"4","last_reported":1762870252,"current_range_meters":6400,"station_id":"st_d46cu089ee8s73dldbu0","pricing_plan_id":"cebpf4jnsgd1na2vs0mg"},{"bike_id":"355d0a72-63a4-43ac-addc-15604eb0aa69","system_id":"levelo_inurba_marseille","lat":43.29919,"lon":5.36389,"is_reserved":false,"is_disabled":false,"rental_uris":{"android":"levelo://app?vid=355d0a72-63a4-43ac-addc-15604eb0aa69","ios":"levelo://app?vid=355d0a72-63a4-43ac-addc-15604eb0aa69"},"vehicle_type_id":"4","last_reported":1762870252,"current_range_meters":6400,"station_id":"","pricing_plan_id":"cebpf4jnsgd1na2vs0mg"},{"bike_id":"dca1e28f-271e-464a-809c-93d445a6c34f","system_id":"levelo_inurba_marseille","lat":43.2439,"lon":5.37059,"is_reserved":false,"is_disabled":false,"rental_uris":{"android":"levelo://app?vid=dca1e28f-271e-464a-809c-93d445a6c34f","ios":"levelo://app?vid=dca1e28f-271e-464a-809c-93d445a6c34f"},"vehicle_type_id":"4","last_reported":1762870252,"current_range_meters":6800,"station_id":"ce4bhhh2rcd13ifvqfk0","pricing_plan_id":"cebpf4jnsgd1na2vs0mg"},{"bike_id":"ab8c3c26-7f2c-44cb-819f-81becbcc3d6c","system_id":"levelo_inurba_marseille","lat":43.304202,"lon":5.397342,"is_reserved":false,"is_disabled":true,"rental_uris":{"android":"levelo://app?vid=ab8c3c26-7f2c-44cb-819f-81becbcc3d6c","ios":"levelo://app?vid=ab8c3c26-7f2c-44cb-819f-81becbcc3d6c"},"vehicle_type_id":"4","last_reported":1762870252,"current_range_meters":6800,"station_id":"ce4bh092rcd13ifvqd20","pricing_plan_id":"cebpf4jnsgd1na2vs0mg"},{"bike_id":"028cc1c0-f64e-43f1-acad-2c0d80c97636","system_id":"levelo_inurba_marseille","lat":43.29199,"lon":5.358,"is_reserved":false,"is_disabled":false,"rental_uris":{"android":"levelo://app?vid=028cc1c0-f64e-43f1-acad-2c0d80c97636","ios":"levelo://app?vid=028cc1c0-f64e-43f1-acad-2c0d80c97636"},"vehicle_type_id":"4","last_reported":1762870252,"current_range_meters":6800,"station_id":"ce4bhb12rcd13ifvqel0","pricing_plan_id":"cebpf4jnsgd1na2vs0mg"},{"bike_id":"d045cc96-28c3-4ce5-b170-9a1b65f34ca8","system_id":"levelo_inurba_marseille","lat":43.28868,"lon":5.3586,"is_reserved":false,"is_disabled":false,"rental_uris":{"android":"levelo://app?vid=d045cc96-28c3-4ce5-b170-9a1b65f34ca8","ios":"levelo://app?vid=d045cc96-28c3-4ce5-b170-9a1b65f34ca8"},"vehicle_type_id":"4","last_reported":1762870252,"current_range_meters":6800,"station_id":"ce4bhb12rcd13ifvqem0","pricing_plan_id":"cebpf4jnsgd1na2vs0mg"},{"bike_id":"dbf672f9-6f16-4c32-b6f9-26abc49649c7","system_id":"levelo_inurba_marseille","lat":43.31165,"lon":5.38718,"is_reserved":false,"is_disabled":false,"rental_uris":{"android":"levelo://app?vid=dbf672f9-6f16-4c32-b6f9-26abc49649c7","ios":"levelo://app?vid=dbf672f9-6f16-4c32-b6f9-26abc49649c7"},"vehicle_type_id":"4","last_reported":1762870252,"current_range_meters":6800,"station_id":"ce4bgv12rcd13ifvqcp0","pricing_plan_id":"cebpf4jnsgd1na2vs0mg"},{"bike_id":"23279486-000c-4e41-8ede-7f39c2e47f56","system_id":"levelo_inurba_marseille","lat":43.21188,"lon":5.35074,"is_reserved":false,"is_disabled":false,"rental_uris":{"android":"levelo://app?vid=23279486-000c-4e41-8ede-7f39c2e47f56","ios":"levelo://app?vid=23279486-000c-4e41-8ede-7f39c2e47f56"},"vehicle_type_id":"4","last_reported":1762870252,"current_range_meters":6800,"station_id":"st_cvj6sg6p6f1abm77japg","pricing_plan_id":"cebpf4jnsgd1na2vs0mg"},{"bike_id":"3902342b-8600-4c1c-ab9f-d8426a1630fb","system_id":"levelo_inurba_marseille","lat":43.29305,"lon":5.3715,"is_reserved":false,"is_disabled":false,"rental_uris":{"android":"levelo://app?vid=3902342b-8600-4c1c-ab9f-d8426a1630fb","ios":"levelo://app?vid=3902342b-8600-4c1c-ab9f-d8426a1630fb"},"vehicle_type_id":"4","last_reported":1762870252,"current_range_meters":7200,"station_id":"ce4bgh92rcd13ifvqb40","pricing_plan_id":"cebpf4jnsgd1na2vs0mg"},{"bike_id":"a153bb7a-facf-4d89-8fb0-01e6272ba505","system_id":"levelo_inurba_marseille","lat":43.26973,"lon":5.38831,"is_reserved":false,"is_disabled":false,"rental_uris":{"android":"levelo://app?vid=a153bb7a-facf-4d89-8fb0-01e6272ba505","ios":"levelo://app?vid=a153bb7a-facf-4d89-8fb0-01e6272ba505"},"vehicle_type_id":"4","last_reported":1762870252,"current_range_meters":7200,"station_id":"","pricing_plan_id":"cebpf4jnsgd1na2vs0mg"},{"bike_id":"c620c9fc-398f-4dca-8fdd-2b652311235d","system_id":"levelo_inurba_marseille","lat":43.21192,"lon":5.35069,"is_reserved":false,"is_disabled":true,"rental_uris":{"android":"levelo://app?vid=c620c9fc-398f-4dca-8fdd-2b652311235d","ios":"levelo://app?vid=c620c9fc-398f-4dca-8fdd-2b652311235d"},"vehicle_type_id":"4","last_reported":1762870252,"current_range_meters":7200,"station_id":"st_cvj6sg6p6f1abm77japg","pricing_plan_id":"cebpf4jnsgd1na2vs0mg"},{"bike_id":"b957d8a2-8438-4626-a8cc-8bd5bc765e42","system_id":"levelo_inurba_marseille","lat":43.260683,"lon":5.393984,"is_reserved":false,"is_disabled":false,"rental_uris":{"android":"levelo://app?vid=b957d8a2-8438-4626-a8cc-8bd5bc765e42","ios":"levelo://app?vid=b957d8a2-8438-4626-a8cc-8bd5bc765e42"},"vehicle_type_id":"4","last_reported":1762870252,"current_range_meters":7200,"station_id":"ce4bhh92rcd13ifvqfj0","pricing_plan_id":"cebpf4jnsgd1na2vs0mg"},{"bike_id":"285edc02-c40d-4315-906b-2d38b29ac259","system_id":"levelo_inurba_marseille","lat":43.3377,"lon":5.37475,"is_reserved":false,"is_disabled":false,"rental_uris":{"android":"levelo://app?vid=285edc02-c40d-4315-906b-2d38b29ac259","ios":"levelo://app?vid=285edc02-c40d-4315-906b-2d38b29ac259"},"vehicle_type_id":"4","last_reported":1762870252,"current_range_meters":8000,"station_id":"","pricing_plan_id":"cebpf4jnsgd1na2vs0mg"},{"bike_id":"6766f49f-d2eb-4084-b1d0-c37b579ab39a","system_id":"levelo_inurba_marseille","lat":43.27373,"lon":5.36259,"is_reserved":false,"is_disabled":false,"rental_uris":{"android":"levelo://app?vid=6766f49f-d2eb-4084-b1d0-c37b579ab39a","ios":"levelo://app?vid=6766f49f-d2eb-4084-b1d0-c37b579ab39a"},"vehicle_type_id":"4","last_reported":1762870252,"current_range_meters":8000,"station_id":"ce4bhbh2rcd13ifvqeo0","pricing_plan_id":"cebpf4jnsgd1na2vs0mg"},{"bike_id":"64a20e40-a6fd-48eb-a2d5-705239f93aec","system_id":"levelo_inurba_marseille","lat":43.21192,"lon":5.35071,"is_reserved":false,"is_disabled":false,"rental_uris":{"android":"levelo://app?vid=64a20e40-a6fd-48eb-a2d5-705239f93aec","ios":"levelo://app?vid=64a20e40-a6fd-48eb-a2d5-705239f93aec"},"vehicle_type_id":"4","last_reported":1762870252,"current_range_meters":8000,"station_id":"st_cvj6sg6p6f1abm77japg","pricing_plan_id":"cebpf4jnsgd1na2vs0mg"},{"bike_id":"0ac9890f-bcbb-458a-af41-f8a63cd30cb6","system_id":"levelo_inurba_marseille","lat":43.25569,"lon":5.38248,"is_reserved":false,"is_disabled":false,"rental_uris":{"android":"levelo://app?vid=0ac9890f-bcbb-458a-af41-f8a63cd30cb6","ios":"levelo://app?vid=0ac9890f-bcbb-458a-af41-f8a63cd30cb6"},"vehicle_type_id":"4","last_reported":1762870252,"current_range_meters":8000,"station_id":"ce4bhih2rcd13ifvqfs0","pricing_plan_id":"cebpf4jnsgd1na2vs0mg"},{"bike_id":"d315980f-e55c-4a2b-8743-e45ce3622e8d","system_id":"levelo_inurba_marseille","lat":43.28478,"lon":5.48401,"is_reserved":false,"is_disabled":false,"rental_uris":{"android":"levelo://app?vid=d315980f-e55c-4a2b-8743-e45ce3622e8d","ios":"levelo://app?vid=d315980f-e55c-4a2b-8743-e45ce3622e8d"},"vehicle_type_id":"4","last_reported":1762870252,"current_range_meters":8000,"station_id":"st_d3svhcjqgbts73a3dn0g","pricing_plan_id":"cebpf4jnsgd1na2vs0mg"},{"bike_id":"6095f4b2-69b4-49b1-8873-3f19ca8b0fad","system_id":"levelo_inurba_marseille","lat":43.290355,"lon":5.381276,"is_reserved":false,"is_disabled":false,"rental_uris":{"android":"levelo://app?vid=6095f4b2-69b4-49b1-8873-3f19ca8b0fad","ios":"levelo://app?vid=6095f4b2-69b4-49b1-8873-3f19ca8b0fad"},"vehicle_type_id":"4","last_reported":1762870252,"current_range_meters":8000,"station_id":"","pricing_plan_id":"cebpf4jnsgd1na2vs0mg"},{"bike_id":"fec0bb63-8783-4d5a-8054-9b02344780b6","system_id":"levelo_inurba_marseille","lat":43.21755,"lon":5.3459,"is_reserved":false,"is_disabled":false,"rental_uris":{"android":"levelo://app?vid=fec0bb63-8783-4d5a-8054-9b02344780b6","ios":"levelo://app?vid=fec0bb63-8783-4d5a-8054-9b02344780b6"},"vehicle_type_id":"4","last_reported":1762870252,"current_range_meters":8000,"station_id":"st_cvj6r9ubvosntc0bgbag","pricing_plan_id":"cebpf4jnsgd1na2vs0mg"},{"bike_id":"99f555dd-b87a-4899-bc4d-afec626c1e28","system_id":"levelo_inurba_marseille","lat":43.28478,"lon":5.48408,"is_reserved":false,"is_disabled":false,"rental_uris":{"android":"levelo://app?vid=99f555dd-b87a-4899-bc4d-afec626c1e28","ios":"levelo://app?vid=99f555dd-b87a-4899-bc4d-afec626c1e28"},"vehicle_type_id":"4","last_reported":1762870252,"current_range_meters":8000,"station_id":"","pricing_plan_id":"cebpf4jnsgd1na2vs0mg"},{"bike_id":"3e65a08b-de65-4a71-a764-03ec509745d6","system_id":"levelo_inurba_marseille","lat":43.211922,"lon":5.350737,"is_reserved":false,"is_disabled":false,"rental_uris":{"android":"levelo://app?vid=3e65a08b-de65-4a71-a764-03ec509745d6","ios":"levelo://app?vid=3e65a08b-de65-4a71-a764-03ec509745d6"},"vehicle_type_id":"4","last_reported":1762870252,"current_range_meters":8000,"station_id":"ce4bha12rcd13ifvqef0","pricing_plan_id":"cebpf4jnsgd1na2vs0mg"},{"bike_id":"64b63aef-7c8c-48e6-8d97-7db7ee139095","system_id":"levelo_inurba_marseille","lat":43.21188,"lon":5.35071,"is_reserved":false,"is_disabled":false,"rental_uris":{"android":"levelo://app?vid=64b63aef-7c8c-48e6-8d97-7db7ee139095","ios":"levelo://app?vid=64b63aef-7c8c-48e6-8d97-7db7ee139095"},"vehicle_type_id":"4","last_reported":1762870252,"current_range_meters":8400,"station_id":"st_cvj6sg6p6f1abm77japg","pricing_plan_id":"cebpf4jnsgd1na2vs0mg"},{"bike_id":"a71525cc-aaa4-47d4-86c4-1b11dfa2bb9d","system_id":"levelo_inurba_marseille","lat":43.2962,"lon":5.3773,"is_reserved":false,"is_disabled":false,"rental_uris":{"android":"levelo://app?vid=a71525cc-aaa4-47d4-86c4-1b11dfa2bb9d","ios":"levelo://app?vid=a71525cc-aaa4-47d4-86c4-1b11dfa2bb9d"},"vehicle_type_id":"4","last_reported":1762870252,"current_range_meters":8400,"station_id":"ce4bgi92rcd13ifvqb90","pricing_plan_id":"cebpf4jnsgd1na2vs0mg"},{"bike_id":"1d80f4dd-2352-4315-81af-42c042c7fe37","system_id":"levelo_inurba_marseille","lat":43.288498,"lon":5.393244,"is_reserved":false,"is_disabled":true,"rental_uris":{"android":"levelo://app?vid=1d80f4dd-2352-4315-81af-42c042c7fe37","ios":"levelo://app?vid=1d80f4dd-2352-4315-81af-42c042c7fe37"},"vehicle_type_id":"4","last_reported":1762870252,"current_range_meters":8400,"station_id":"ce4bh2p2rcd13ifvqdi0","pricing_plan_id":"cebpf4jnsgd1na2vs0mg"},{"bike_id":"692eff5b-3d4f-4c2f-8476-6529ebe43ac0","system_id":"levelo_inurba_marseille","lat":43.28349,"lon":5.38104,"is_reserved":false,"is_disabled":false,"rental_uris":{"android":"levelo://app?vid=692eff5b-3d4f-4c2f-8476-6529ebe43ac0","ios":"levelo://app?vid=692eff5b-3d4f-4c2f-8476-6529ebe43ac0"},"vehicle_type_id":"4","last_reported":1762870252,"current_range_meters":8400,"station_id":"ce4bh412rcd13ifvqdr0","pricing_plan_id":"cebpf4jnsgd1na2vs0mg"},{"bike_id":"c0f9fd85-43f7-4dad-9679-7593581a1294","system_id":"levelo_inurba_marseille","lat":43.23187,"lon":5.35574,"is_reserved":false,"is_disabled":false,"rental_uris":{"android":"levelo://app?vid=c0f9fd85-43f7-4dad-9679-7593581a1294","ios":"levelo://app?vid=c0f9fd85-43f7-4dad-9679-7593581a1294"},"vehicle_type_id":"4","last_reported":1762870252,"current_range_meters":8400,"station_id":"ce4bhu92rcd13ifvqi70","pricing_plan_id":"cebpf4jnsgd1na2vs0mg"},{"bike_id":"dbdbbe80-4401-4369-b9da-7c7be09979bc","system_id":"levelo_inurba_marseille","lat":43.30897,"lon":5.37187,"is_reserved":false,"is_disabled":false,"rental_uris":{"android":"levelo://app?vid=dbdbbe80-4401-4369-b9da-7c7be09979bc","ios":"levelo://app?vid=dbdbbe80-4401-4369-b9da-7c7be09979bc"},"vehicle_type_id":"4","last_reported":1762870252,"current_range_meters":8400,"station_id":"ce4bguh2rcd13ifvqckg","pricing_plan_id":"cebpf4jnsgd1na2vs0mg"},{"bike_id":"b2be4fa2-44ee-40dc-acc7-1755c74f1c5d","system_id":"levelo_inurba_marseille","lat":43.29733,"lon":5.41117,"is_reserved":false,"is_disabled":false,"rental_uris":{"android":"levelo://app?vid=b2be4fa2-44ee-40dc-acc7-1755c74f1c5d","ios":"levelo://app?vid=b2be4fa2-44ee-40dc-acc7-1755c74f1c5d"},"vehicle_type_id":"4","last_reported":1762870252,"current_range_meters":8400,"station_id":"","pricing_plan_id":"cebpf4jnsgd1na2vs0mg"},{"bike_id":"1648104b-81bc-4751-ace2-e97e844cd43d","system_id":"levelo_inurba_marseille","lat":43.284821,"lon":5.483922,"is_reserved":false,"is_disabled":false,"rental_uris":{"android":"levelo://app?vid=1648104b-81bc-4751-ace2-e97e844cd43d","ios":"levelo://app?vid=1648104b-81bc-4751-ace2-e97e844cd43d"},"vehicle_type_id":"4","last_reported":1762870252,"current_range_meters":8400,"station_id":"st_d3svhcjqgbts73a3dn0g","pricing_plan_id":"cebpf4jnsgd1na2vs0mg"},{"bike_id":"349b2ad9-adea-4dd9-9ac9-fffb121b5424","system_id":"levelo_inurba_marseille","lat":43.29892,"lon":5.37537,"is_reserved":false,"is_disabled":false,"rental_uris":{"android":"levelo://app?vid=349b2ad9-adea-4dd9-9ac9-fffb121b5424","ios":"levelo://app?vid=349b2ad9-adea-4dd9-9ac9-fffb121b5424"},"vehicle_type_id":"4","last_reported":1762870252,"current_range_meters":8800,"station_id":"","pricing_plan_id":"cebpf4jnsgd1na2vs0mg"},{"bike_id":"aef4b542-8f89-444a-bf6c-205c18b5a7ab","system_id":"levelo_inurba_marseille","lat":43.22934,"lon":5.35378,"is_reserved":false,"is_disabled":false,"rental_uris":{"android":"levelo://app?vid=aef4b542-8f89-444a-bf6c-205c18b5a7ab","ios":"levelo://app?vid=aef4b542-8f89-444a-bf6c-205c18b5a7ab"},"vehicle_type_id":"4","last_reported":1762870252,"current_range_meters":8800,"station_id":"cpo3532slgdg3j2ikp40","pricing_plan_id":"cebpf4jnsgd1na2vs0mg"},{"bike_id":"dfa96966-6d2c-4918-bf53-d9b00d9db1e6","system_id":"levelo_inurba_marseille","lat":43.27846,"lon":5.39215,"is_reserved":false,"is_disabled":false,"rental_uris":{"android":"levelo://app?vid=dfa96966-6d2c-4918-bf53-d9b00d9db1e6","ios":"levelo://app?vid=dfa96966-6d2c-4918-bf53-d9b00d9db1e6"},"vehicle_type_id":"4","last_reported":1762870252,"current_range_meters":8800,"station_id":"ce4bhjp2rcd13ifvqga0","pricing_plan_id":"cebpf4jnsgd1na2vs0mg"},{"bike_id":"a62cd740-54ab-478d-84ff-39a2ba6e3eec","system_id":"levelo_inurba_marseille","lat":43.29277,"lon":5.368467,"is_reserved":false,"is_disabled":false,"rental_uris":{"android":"levelo://app?vid=a62cd740-54ab-478d-84ff-39a2ba6e3eec","ios":"levelo://app?vid=a62cd740-54ab-478d-84ff-39a2ba6e3eec"},"vehicle_type_id":"4","last_reported":1762870252,"current_range_meters":8800,"station_id":"ce4bhbp2rcd13ifvqesg","pricing_plan_id":"cebpf4jnsgd1na2vs0mg"},{"bike_id":"eeaff790-5c88-42a3-88f5-0c21d3f34b31","system_id":"levelo_inurba_marseille","lat":43.28267,"lon":5.35074,"is_reserved":false,"is_disabled":false,"rental_uris":{"android":"levelo://app?vid=eeaff790-5c88-42a3-88f5-0c21d3f34b31","ios":"levelo://app?vid=eeaff790-5c88-42a3-88f5-0c21d3f34b31"},"vehicle_type_id":"4","last_reported":1762870252,"current_range_meters":8800,"station_id":"ce4bhbp2rcd13ifvqerg","pricing_plan_id":"cebpf4jnsgd1na2vs0mg"},{"bike_id":"a6bdf21f-a1d2-4def-a11f-b6f07d15f833","system_id":"levelo_inurba_marseille","lat":43.30086,"lon":5.38294,"is_reserved":false,"is_disabled":false,"rental_uris":{"android":"levelo://app?vid=a6bdf21f-a1d2-4def-a11f-b6f07d15f833","ios":"levelo://app?vid=a6bdf21f-a1d2-4def-a11f-b6f07d15f833"},"vehicle_type_id":"4","last_reported":1762870252,"current_range_meters":8800,"station_id":"","pricing_plan_id":"cebpf4jnsgd1na2vs0mg"},{"bike_id":"88c73795-aba4-4e42-9dd4-be7914b96bba","system_id":"levelo_inurba_marseille","lat":43.29759,"lon":5.42795,"is_reserved":false,"is_disabled":false,"rental_uris":{"android":"levelo://app?vid=88c73795-aba4-4e42-9dd4-be7914b96bba","ios":"levelo://app?vid=88c73795-aba4-4e42-9dd4-be7914b96bba"},"vehicle_type_id":"4","last_reported":1762870252,"current_range_meters":8800,"station_id":"st_d3md5207bmas73dh9klg","pricing_plan_id":"cebpf4jnsgd1na2vs0mg"},{"bike_id":"3bddd6ed-57d6-4450-b480-890bc38a07ed","system_id":"levelo_inurba_marseille","lat":43.23966,"lon":5.36643,"is_reserved":false,"is_disabled":false,"rental_uris":{"android":"levelo://app?vid=3bddd6ed-57d6-4450-b480-890bc38a07ed","ios":"levelo://app?vid=3bddd6ed-57d6-4450-b480-890bc38a07ed"},"vehicle_type_id":"4","last_reported":1762870252,"current_range_meters":9200,"station_id":"ce4bhi12rcd13ifvqfp0","pricing_plan_id":"cebpf4jnsgd1na2vs0mg"},{"bike_id":"6e6913ab-5565-44c2-bf61-26805575b411","system_id":"levelo_inurba_marseille","lat":43.29811,"lon":5.44085,"is_reserved":false,"is_disabled":false,"rental_uris":{"android":"levelo://app?vid=6e6913ab-5565-44c2-bf61-26805575b411","ios":"levelo://app?vid=6e6913ab-5565-44c2-bf61-26805575b411"},"vehicle_type_id":"4","last_reported":1762870252,"current_range_meters":9200,"station_id":"st_d3jp68qikq2c7381ktn0","pricing_plan_id":"cebpf4jnsgd1na2vs0mg"},{"bike_id":"c7a653bf-78a0-4c17-99dd-7da7db86003b","system_id":"levelo_inurba_marseille","lat":43.23966,"lon":5.36655,"is_reserved":false,"is_disabled":false,"rental_uris":{"android":"levelo://app?vid=c7a653bf-78a0-4c17-99dd-7da7db86003b","ios":"levelo://app?vid=c7a653bf-78a0-4c17-99dd-7da7db86003b"},"vehicle_type_id":"4","last_reported":1762870252,"current_range_meters":9200,"station_id":"ce4bhi12rcd13ifvqfp0","pricing_plan_id":"cebpf4jnsgd1na2vs0mg"},{"bike_id":"ffd46dfc-4ece-409e-beb4-a0c10e27f778","system_id":"levelo_inurba_marseille","lat":43.28435,"lon":5.39197,"is_reserved":false,"is_disabled":false,"rental_uris":{"android":"levelo://app?vid=ffd46dfc-4ece-409e-beb4-a0c10e27f778","ios":"levelo://app?vid=ffd46dfc-4ece-409e-beb4-a0c10e27f778"},"vehicle_type_id":"4","last_reported":1762870252,"current_range_meters":9200,"station_id":"ce4bhoh2rcd13ifvqh5g","pricing_plan_id":"cebpf4jnsgd1na2vs0mg"},{"bike_id":"dbb0cabb-3f5e-4154-a89e-d2a3a69a975b","system_id":"levelo_inurba_marseille","lat":43.30333,"lon":5.40439,"is_reserved":false,"is_disabled":false,"rental_uris":{"android":"levelo://app?vid=dbb0cabb-3f5e-4154-a89e-d2a3a69a975b","ios":"levelo://app?vid=dbb0cabb-3f5e-4154-a89e-d2a3a69a975b"},"vehicle_type_id":"4","last_reported":1762870252,"current_range_meters":9200,"station_id":"ce4bh012rcd13ifvqd10","pricing_plan_id":"cebpf4jnsgd1na2vs0mg"},{"bike_id":"0a0d87ee-447f-48c7-a9cd-e00ba4e992a2","system_id":"levelo_inurba_marseille","lat":43.288694,"lon":5.425236,"is_reserved":false,"is_disabled":false,"rental_uris":{"android":"levelo://app?vid=0a0d87ee-447f-48c7-a9cd-e00ba4e992a2","ios":"levelo://app?vid=0a0d87ee-447f-48c7-a9cd-e00ba4e992a2"},"vehicle_type_id":"4","last_reported":1762870252,"current_range_meters":9200,"station_id":"st_d3b462108ojc7389ooeg","pricing_plan_id":"cebpf4jnsgd1na2vs0mg"},{"bike_id":"e0467342-2ee8-4c36-aeb9-27d25d94ead5","system_id":"levelo_inurba_marseille","lat":43.28148,"lon":5.42641,"is_reserved":false,"is_disabled":true,"rental_uris":{"android":"levelo://app?vid=e0467342-2ee8-4c36-aeb9-27d25d94ead5","ios":"levelo://app?vid=e0467342-2ee8-4c36-aeb9-27d25d94ead5"},"vehicle_type_id":"4","last_reported":1762870252,"current_range_meters":9200,"station_id":"ce4bhnh2rcd13ifvqgug","pricing_plan_id":"cebpf4jnsgd1na2vs0mg"},{"bike_id":"d14a3070-960e-421d-b5dc-419b8cc88005","system_id":"levelo_inurba_marseille","lat":43.31551,"lon":5.37653,"is_reserved":false,"is_disabled":false,"rental_uris":{"android":"levelo://app?vid=d14a3070-960e-421d-b5dc-419b8cc88005","ios":"levelo://app?vid=d14a3070-960e-421d-b5dc-419b8cc88005"},"vehicle_type_id":"4","last_reported":1762870252,"current_range_meters":9200,"station_id":"","pricing_plan_id":"cebpf4jnsgd1na2vs0mg"},{"bike_id":"9f355e8a-abb4-4312-8fb4-6dc9605db176","system_id":"levelo_inurba_marseille","lat":43.30888,"lon":5.37205,"is_reserved":false,"is_disabled":false,"rental_uris":{"android":"levelo://app?vid=9f355e8a-abb4-4312-8fb4-6dc9605db176","ios":"levelo://app?vid=9f355e8a-abb4-4312-8fb4-6dc9605db176"},"vehicle_type_id":"4","last_reported":1762870252,"current_range_meters":9200,"station_id":"ce4bguh2rcd13ifvqckg","pricing_plan_id":"cebpf4jnsgd1na2vs0mg"},{"bike_id":"d4a86094-56fb-4627-b9a3-90b7de619fd0","system_id":"levelo_inurba_marseille","lat":43.28465,"lon":5.48426,"is_reserved":false,"is_disabled":false,"rental_uris":{"android":"levelo://app?vid=d4a86094-56fb-4627-b9a3-90b7de619fd0","ios":"levelo://app?vid=d4a86094-56fb-4627-b9a3-90b7de619fd0"},"vehicle_type_id":"4","last_reported":1762870252,"current_range_meters":9600,"station_id":"","pricing_plan_id":"cebpf4jnsgd1na2vs0mg"},{"bike_id":"5b1982e7-0eb7-4dfc-9df6-df35063bcd63","system_id":"levelo_inurba_marseille","lat":43.273705,"lon":5.362556,"is_reserved":false,"is_disabled":false,"rental_uris":{"android":"levelo://app?vid=5b1982e7-0eb7-4dfc-9df6-df35063bcd63","ios":"levelo://app?vid=5b1982e7-0eb7-4dfc-9df6-df35063bcd63"},"vehicle_type_id":"4","last_reported":1762870252,"current_range_meters":9600,"station_id":"ce4bhbh2rcd13ifvqeo0","pricing_plan_id":"cebpf4jnsgd1na2vs0mg"},{"bike_id":"674b288b-9e36-4859-80e5-c17cc4190e34","system_id":"levelo_inurba_marseille","lat":43.30947,"lon":5.39064,"is_reserved":false,"is_disabled":false,"rental_uris":{"android":"levelo://app?vid=674b288b-9e36-4859-80e5-c17cc4190e34","ios":"levelo://app?vid=674b288b-9e36-4859-80e5-c17cc4190e34"},"vehicle_type_id":"4","last_reported":1762870252,"current_range_meters":9600,"station_id":"ce4bgup2rcd13ifvqco0","pricing_plan_id":"cebpf4jnsgd1na2vs0mg"},{"bike_id":"a96804d0-6bb9-4a8e-984b-51efb756dd70","system_id":"levelo_inurba_marseille","lat":43.27064,"lon":5.40256,"is_reserved":false,"is_disabled":false,"rental_uris":{"android":"levelo://app?vid=a96804d0-6bb9-4a8e-984b-51efb756dd70","ios":"levelo://app?vid=a96804d0-6bb9-4a8e-984b-51efb756dd70"},"vehicle_type_id":"4","last_reported":1762870252,"current_range_meters":9600,"station_id":"ce4bhk92rcd13ifvqgc0","pricing_plan_id":"cebpf4jnsgd1na2vs0mg"},{"bike_id":"c484d78b-7a8d-499e-916b-1fc6eb27b26d","system_id":"levelo_inurba_marseille","lat":43.27056,"lon":5.4026,"is_reserved":false,"is_disabled":false,"rental_uris":{"android":"levelo://app?vid=c484d78b-7a8d-499e-916b-1fc6eb27b26d","ios":"levelo://app?vid=c484d78b-7a8d-499e-916b-1fc6eb27b26d"},"vehicle_type_id":"4","last_reported":1762870252,"current_range_meters":10000,"station_id":"ce4bhk92rcd13ifvqgc0","pricing_plan_id":"cebpf4jnsgd1na2vs0mg"},{"bike_id":"87cfedf8-a454-442b-a247-a3de9420935b","system_id":"levelo_inurba_marseille","lat":43.31074,"lon":5.38351,"is_reserved":false,"is_disabled":false,"rental_uris":{"android":"levelo://app?vid=87cfedf8-a454-442b-a247-a3de9420935b","ios":"levelo://app?vid=87cfedf8-a454-442b-a247-a3de9420935b"},"vehicle_type_id":"4","last_reported":1762870252,"current_range_meters":10000,"station_id":"ce4bgv92rcd13ifvqcr0","pricing_plan_id":"cebpf4jnsgd1na2vs0mg"},{"bike_id":"ff087dac-12f7-44c4-80e9-1f707a8f5fdd","system_id":"levelo_inurba_marseille","lat":43.25505,"lon":5.37661,"is_reserved":false,"is_disabled":false,"rental_uris":{"android":"levelo://app?vid=ff087dac-12f7-44c4-80e9-1f707a8f5fdd","ios":"levelo://app?vid=ff087dac-12f7-44c4-80e9-1f707a8f5fdd"},"vehicle_type_id":"4","last_reported":1762870252,"current_range_meters":10000,"station_id":"ce4bhh12rcd13ifvqff0","pricing_plan_id":"cebpf4jnsgd1na2vs0mg"},{"bike_id":"4e226879-1039-40de-abb5-4505565eb518","system_id":"levelo_inurba_marseille","lat":43.211912,"lon":5.350769,"is_reserved":false,"is_disabled":false,"rental_uris":{"android":"levelo://app?vid=4e226879-1039-40de-abb5-4505565eb518","ios":"levelo://app?vid=4e226879-1039-40de-abb5-4505565eb518"},"vehicle_type_id":"4","last_reported":1762870252,"current_range_meters":10000,"station_id":"st_cvj5dfep6f1abm77gieg","pricing_plan_id":"cebpf4jnsgd1na2vs0mg"},{"bike_id":"4f328563-fcaa-4985-980d-0f06e1c8857e","system_id":"levelo_inurba_marseille","lat":43.28265,"lon":5.35072,"is_reserved":false,"is_disabled":false,"rental_uris":{"android":"levelo://app?vid=4f328563-fcaa-4985-980d-0f06e1c8857e","ios":"levelo://app?vid=4f328563-fcaa-4985-980d-0f06e1c8857e"},"vehicle_type_id":"4","last_reported":1762870252,"current_range_meters":10000,"station_id":"ce4bhbp2rcd13ifvqerg","pricing_plan_id":"cebpf4jnsgd1na2vs0mg"},{"bike_id":"fd46e7f4-1160-41b4-8761-f448e9ef826d","system_id":"levelo_inurba_marseille","lat":43.2957,"lon":5.3999,"is_reserved":false,"is_disabled":false,"rental_uris":{"android":"levelo://app?vid=fd46e7f4-1160-41b4-8761-f448e9ef826d","ios":"levelo://app?vid=fd46e7f4-1160-41b4-8761-f448e9ef826d"},"vehicle_type_id":"4","last_reported":1762870252,"current_range_meters":10000,"station_id":"ce4bh312rcd13ifvqdj0","pricing_plan_id":"cebpf4jnsgd1na2vs0mg"},{"bike_id":"5369ca34-7723-43dc-a1d0-03c4269b2e4a","system_id":"levelo_inurba_marseille","lat":43.31243,"lon":5.37864,"is_reserved":false,"is_disabled":false,"rental_uris":{"android":"levelo://app?vid=5369ca34-7723-43dc-a1d0-03c4269b2e4a","ios":"levelo://app?vid=5369ca34-7723-43dc-a1d0-03c4269b2e4a"},"vehicle_type_id":"4","last_reported":1762870252,"current_range_meters":10800,"station_id":"","pricing_plan_id":"cebpf4jnsgd1na2vs0mg"},{"bike_id":"313ffc51-321d-4e24-938c-c3497456ba5c","system_id":"levelo_inurba_marseille","lat":43.276176,"lon":5.360997,"is_reserved":false,"is_disabled":false,"rental_uris":{"android":"levelo://app?vid=313ffc51-321d-4e24-938c-c3497456ba5c","ios":"levelo://app?vid=313ffc51-321d-4e24-938c-c3497456ba5c"},"vehicle_type_id":"4","last_reported":1762870252,"current_range_meters":10800,"station_id":"ce4bgj92rcd13ifvqbe0","pricing_plan_id":"cebpf4jnsgd1na2vs0mg"},{"bike_id":"4b75f4f1-28cd-4ac7-9b5c-b069daf52b29","system_id":"levelo_inurba_marseille","lat":43.31807,"lon":5.37428,"is_reserved":false,"is_disabled":false,"rental_uris":{"android":"levelo://app?vid=4b75f4f1-28cd-4ac7-9b5c-b069daf52b29","ios":"levelo://app?vid=4b75f4f1-28cd-4ac7-9b5c-b069daf52b29"},"vehicle_type_id":"4","last_reported":1762870252,"current_range_meters":10800,"station_id":"","pricing_plan_id":"cebpf4jnsgd1na2vs0mg"},{"bike_id":"69aff1d4-05e6-4619-92db-0e4a943e4f45","system_id":"levelo_inurba_marseille","lat":43.30474,"lon":5.37902,"is_reserved":false,"is_disabled":true,"rental_uris":{"android":"levelo://app?vid=69aff1d4-05e6-4619-92db-0e4a943e4f45","ios":"levelo://app?vid=69aff1d4-05e6-4619-92db-0e4a943e4f45"},"vehicle_type_id":"4","last_reported":1762870252,"current_range_meters":10800,"station_id":"ce4bgup2rcd13ifvqcn0","pricing_plan_id":"cebpf4jnsgd1na2vs0mg"},{"bike_id":"38060efd-ed0d-4fc8-a558-2a407ef2a801","system_id":"levelo_inurba_marseille","lat":43.31691,"lon":5.43685,"is_reserved":false,"is_disabled":false,"rental_uris":{"android":"levelo://app?vid=38060efd-ed0d-4fc8-a558-2a407ef2a801","ios":"levelo://app?vid=38060efd-ed0d-4fc8-a558-2a407ef2a801"},"vehicle_type_id":"4","last_reported":1762870252,"current_range_meters":10800,"station_id":"ce4bhp92rcd13ifvqhcg","pricing_plan_id":"cebpf4jnsgd1na2vs0mg"},{"bike_id":"5acfb4f2-ec5e-450f-9319-769d75ee38b3","system_id":"levelo_inurba_marseille","lat":43.284805,"lon":5.483997,"is_reserved":false,"is_disabled":false,"rental_uris":{"android":"levelo://app?vid=5acfb4f2-ec5e-450f-9319-769d75ee38b3","ios":"levelo://app?vid=5acfb4f2-ec5e-450f-9319-769d75ee38b3"},"vehicle_type_id":"4","last_reported":1762870252,"current_range_meters":10800,"station_id":"st_d3svhcjqgbts73a3dn0g","pricing_plan_id":"cebpf4jnsgd1na2vs0mg"},{"bike_id":"5bb896f2-dec6-4193-88dc-e86ff5a402fd","system_id":"levelo_inurba_marseille","lat":43.298077,"lon":5.440632,"is_reserved":false,"is_disabled":false,"rental_uris":{"android":"levelo://app?vid=5bb896f2-dec6-4193-88dc-e86ff5a402fd","ios":"levelo://app?vid=5bb896f2-dec6-4193-88dc-e86ff5a402fd"},"vehicle_type_id":"4","last_reported":1762870252,"current_range_meters":10800,"station_id":"st_d3jp68qikq2c7381ktn0","pricing_plan_id":"cebpf4jnsgd1na2vs0mg"},{"bike_id":"a9f7d7c7-1b4f-4759-8863-ee0e8307111f","system_id":"levelo_inurba_marseille","lat":43.297887,"lon":5.39334,"is_reserved":false,"is_disabled":false,"rental_uris":{"android":"levelo://app?vid=a9f7d7c7-1b4f-4759-8863-ee0e8307111f","ios":"levelo://app?vid=a9f7d7c7-1b4f-4759-8863-ee0e8307111f"},"vehicle_type_id":"4","last_reported":1762870252,"current_range_meters":10800,"station_id":"chh1huq6cuj3fo74tm60","pricing_plan_id":"cebpf4jnsgd1na2vs0mg"},{"bike_id":"c37a07d0-759c-4ac5-a3f5-b314b9032f52","system_id":"levelo_inurba_marseille","lat":43.299743,"lon":5.38193,"is_reserved":false,"is_disabled":false,"rental_uris":{"android":"levelo://app?vid=c37a07d0-759c-4ac5-a3f5-b314b9032f52","ios":"levelo://app?vid=c37a07d0-759c-4ac5-a3f5-b314b9032f52"},"vehicle_type_id":"4","last_reported":1762870252,"current_range_meters":11200,"station_id":"","pricing_plan_id":"cebpf4jnsgd1na2vs0mg"},{"bike_id":"405216c2-86b8-4e96-9c71-dc6ea892bc48","system_id":"levelo_inurba_marseille","lat":43.29262,"lon":5.38436,"is_reserved":false,"is_disabled":false,"rental_uris":{"android":"levelo://app?vid=405216c2-86b8-4e96-9c71-dc6ea892bc48","ios":"levelo://app?vid=405216c2-86b8-4e96-9c71-dc6ea892bc48"},"vehicle_type_id":"4","last_reported":1762870252,"current_range_meters":11200,"station_id":"ce4bh692rcd13ifvqea0","pricing_plan_id":"cebpf4jnsgd1na2vs0mg"},{"bike_id":"838690c7-2ce7-4151-836c-d8f9ec26f09c","system_id":"levelo_inurba_marseille","lat":43.249976,"lon":5.389305,"is_reserved":false,"is_disabled":false,"rental_uris":{"android":"levelo://app?vid=838690c7-2ce7-4151-836c-d8f9ec26f09c","ios":"levelo://app?vid=838690c7-2ce7-4151-836c-d8f9ec26f09c"},"vehicle_type_id":"4","last_reported":1762870252,"current_range_meters":11200,"station_id":"ce4bhgp2rcd13ifvqfd0","pricing_plan_id":"cebpf4jnsgd1na2vs0mg"},{"bike_id":"fde62476-e1e0-44fd-986f-9307e01bb966","system_id":"levelo_inurba_marseille","lat":43.30895,"lon":5.36895,"is_reserved":false,"is_disabled":false,"rental_uris":{"android":"levelo://app?vid=fde62476-e1e0-44fd-986f-9307e01bb966","ios":"levelo://app?vid=fde62476-e1e0-44fd-986f-9307e01bb966"},"vehicle_type_id":"4","last_reported":1762870252,"current_range_meters":11200,"station_id":"ce4bgn92rcd13ifvqbvg","pricing_plan_id":"cebpf4jnsgd1na2vs0mg"},{"bike_id":"c5972d04-4f2a-4646-ae90-eb007a82fe19","system_id":"levelo_inurba_marseille","lat":43.23051,"lon":5.35499,"is_reserved":false,"is_disabled":false,"rental_uris":{"android":"levelo://app?vid=c5972d04-4f2a-4646-ae90-eb007a82fe19","ios":"levelo://app?vid=c5972d04-4f2a-4646-ae90-eb007a82fe19"},"vehicle_type_id":"4","last_reported":1762870252,"current_range_meters":11200,"station_id":"cpo3342slgdg3j2ifvpg","pricing_plan_id":"cebpf4jnsgd1na2vs0mg"},{"bike_id":"17ab77d6-f2ef-420b-9e2f-8838b340bbff","system_id":"levelo_inurba_marseille","lat":43.291956,"lon":5.358052,"is_reserved":false,"is_disabled":false,"rental_uris":{"android":"levelo://app?vid=17ab77d6-f2ef-420b-9e2f-8838b340bbff","ios":"levelo://app?vid=17ab77d6-f2ef-420b-9e2f-8838b340bbff"},"vehicle_type_id":"4","last_reported":1762870252,"current_range_meters":11200,"station_id":"ce4bhb12rcd13ifvqel0","pricing_plan_id":"cebpf4jnsgd1na2vs0mg"},{"bike_id":"112f2010-edcd-45f0-a146-690919586ff1","system_id":"levelo_inurba_marseille","lat":43.22931,"lon":5.35378,"is_reserved":false,"is_disabled":false,"rental_uris":{"android":"levelo://app?vid=112f2010-edcd-45f0-a146-690919586ff1","ios":"levelo://app?vid=112f2010-edcd-45f0-a146-690919586ff1"},"vehicle_type_id":"4","last_reported":1762870252,"current_range_meters":11200,"station_id":"cpo3532slgdg3j2ikp40","pricing_plan_id":"cebpf4jnsgd1na2vs0mg"},{"bike_id":"5f951acd-4387-43e1-8d9a-524f96501bf3","system_id":"levelo_inurba_marseille","lat":43.21748,"lon":5.3462,"is_reserved":false,"is_disabled":false,"rental_uris":{"android":"levelo://app?vid=5f951acd-4387-43e1-8d9a-524f96501bf3","ios":"levelo://app?vid=5f951acd-4387-43e1-8d9a-524f96501bf3"},"vehicle_type_id":"4","last_reported":1762870252,"current_range_meters":11600,"station_id":"st_cvj6r9ubvosntc0bgbag","pricing_plan_id":"cebpf4jnsgd1na2vs0mg"},{"bike_id":"38c922e6-37cd-47dc-af88-f07475112c2a","system_id":"levelo_inurba_marseille","lat":43.3212,"lon":5.3885,"is_reserved":false,"is_disabled":false,"rental_uris":{"android":"levelo://app?vid=38c922e6-37cd-47dc-af88-f07475112c2a","ios":"levelo://app?vid=38c922e6-37cd-47dc-af88-f07475112c2a"},"vehicle_type_id":"4","last_reported":1762870252,"current_range_meters":11600,"station_id":"","pricing_plan_id":"cebpf4jnsgd1na2vs0mg"},{"bike_id":"fd8fe60f-b89f-40fa-8afe-1fb06c83c7ff","system_id":"levelo_inurba_marseille","lat":43.24154,"lon":5.36424,"is_reserved":false,"is_disabled":false,"rental_uris":{"android":"levelo://app?vid=fd8fe60f-b89f-40fa-8afe-1fb06c83c7ff","ios":"levelo://app?vid=fd8fe60f-b89f-40fa-8afe-1fb06c83c7ff"},"vehicle_type_id":"4","last_reported":1762870252,"current_range_meters":11600,"station_id":"cpo36qri1sfpv3e86is0","pricing_plan_id":"cebpf4jnsgd1na2vs0mg"},{"bike_id":"bcd03af1-0a6f-420f-8cd8-e76f739ecf22","system_id":"levelo_inurba_marseille","lat":43.25543,"lon":5.38279,"is_reserved":false,"is_disabled":false,"rental_uris":{"android":"levelo://app?vid=bcd03af1-0a6f-420f-8cd8-e76f739ecf22","ios":"levelo://app?vid=bcd03af1-0a6f-420f-8cd8-e76f739ecf22"},"vehicle_type_id":"4","last_reported":1762870252,"current_range_meters":11600,"station_id":"ce4bhih2rcd13ifvqfs0","pricing_plan_id":"cebpf4jnsgd1na2vs0mg"},{"bike_id":"90d3fcb5-8682-4f30-b368-b03cb44b05b4","system_id":"levelo_inurba_marseille","lat":43.26925,"lon":5.40268,"is_reserved":false,"is_disabled":false,"rental_uris":{"android":"levelo://app?vid=90d3fcb5-8682-4f30-b368-b03cb44b05b4","ios":"levelo://app?vid=90d3fcb5-8682-4f30-b368-b03cb44b05b4"},"vehicle_type_id":"4","last_reported":1762870252,"current_range_meters":11600,"station_id":"cjm6bp8fraef2m0cb0m0","pricing_plan_id":"cebpf4jnsgd1na2vs0mg"},{"bike_id":"3f334cc0-ddac-4cc1-8292-ec4a0639b17c","system_id":"levelo_inurba_marseille","lat":43.28858,"lon":5.42521,"is_reserved":false,"is_disabled":false,"rental_uris":{"android":"levelo://app?vid=3f334cc0-ddac-4cc1-8292-ec4a0639b17c","ios":"levelo://app?vid=3f334cc0-ddac-4cc1-8292-ec4a0639b17c"},"vehicle_type_id":"4","last_reported":1762870252,"current_range_meters":11600,"station_id":"st_d3b462108ojc7389ooeg","pricing_plan_id":"cebpf4jnsgd1na2vs0mg"},{"bike_id":"a08765e5-c52c-45c9-9cd5-bf6d0b8a23dd","system_id":"levelo_inurba_marseille","lat":43.33157,"lon":5.37687,"is_reserved":false,"is_disabled":false,"rental_uris":{"android":"levelo://app?vid=a08765e5-c52c-45c9-9cd5-bf6d0b8a23dd","ios":"levelo://app?vid=a08765e5-c52c-45c9-9cd5-bf6d0b8a23dd"},"vehicle_type_id":"4","last_reported":1762870252,"current_range_meters":11600,"station_id":"st_d46cu089ee8s73dldbu0","pricing_plan_id":"cebpf4jnsgd1na2vs0mg"},{"bike_id":"312f5281-f9f7-4344-b38b-c410e7b69a9d","system_id":"levelo_inurba_marseille","lat":43.23969,"lon":5.36653,"is_reserved":false,"is_disabled":false,"rental_uris":{"android":"levelo://app?vid=312f5281-f9f7-4344-b38b-c410e7b69a9d","ios":"levelo://app?vid=312f5281-f9f7-4344-b38b-c410e7b69a9d"},"vehicle_type_id":"4","last_reported":1762870252,"current_range_meters":11600,"station_id":"ce4bhi12rcd13ifvqfp0","pricing_plan_id":"cebpf4jnsgd1na2vs0mg"},{"bike_id":"bcec3f19-205d-4d8d-af41-1729aa329635","system_id":"levelo_inurba_marseille","lat":43.27938,"lon":5.41054,"is_reserved":false,"is_disabled":false,"rental_uris":{"android":"levelo://app?vid=bcec3f19-205d-4d8d-af41-1729aa329635","ios":"levelo://app?vid=bcec3f19-205d-4d8d-af41-1729aa329635"},"vehicle_type_id":"4","last_reported":1762870252,"current_range_meters":11600,"station_id":"ce4bhnp2rcd13ifvqh0g","pricing_plan_id":"cebpf4jnsgd1na2vs0mg"},{"bike_id":"27015ad6-a8d1-4fce-b123-0142b5771f32","system_id":"levelo_inurba_marseille","lat":43.211979,"lon":5.350757,"is_reserved":false,"is_disabled":false,"rental_uris":{"android":"levelo://app?vid=27015ad6-a8d1-4fce-b123-0142b5771f32","ios":"levelo://app?vid=27015ad6-a8d1-4fce-b123-0142b5771f32"},"vehicle_type_id":"4","last_reported":1762870252,"current_range_meters":11600,"station_id":"","pricing_plan_id":"cebpf4jnsgd1na2vs0mg"},{"bike_id":"12eccf29-26c8-4f5e-afdb-a5b8cd3f3f5b","system_id":"levelo_inurba_marseille","lat":43.309322,"lon":5.401366,"is_reserved":false,"is_disabled":false,"rental_uris":{"android":"levelo://app?vid=12eccf29-26c8-4f5e-afdb-a5b8cd3f3f5b","ios":"levelo://app?vid=12eccf29-26c8-4f5e-afdb-a5b8cd3f3f5b"},"vehicle_type_id":"4","last_reported":1762870252,"current_range_meters":12000,"station_id":"","pricing_plan_id":"cebpf4jnsgd1na2vs0mg"},{"bike_id":"c0fea017-2183-4bea-8e99-5ce3eb72b868","system_id":"levelo_inurba_marseille","lat":43.317027,"lon":5.377572,"is_reserved":false,"is_disabled":false,"rental_uris":{"android":"levelo://app?vid=c0fea017-2183-4bea-8e99-5ce3eb72b868","ios":"levelo://app?vid=c0fea017-2183-4bea-8e99-5ce3eb72b868"},"vehicle_type_id":"4","last_reported":1762870252,"current_range_meters":12000,"station_id":"ce4bgth2rcd13ifvqch0","pricing_plan_id":"cebpf4jnsgd1na2vs0mg"},{"bike_id":"cb9baa6e-b883-4d76-9615-9c7c0dba7027","system_id":"levelo_inurba_marseille","lat":43.24795,"lon":5.37462,"is_reserved":false,"is_disabled":false,"rental_uris":{"android":"levelo://app?vid=cb9baa6e-b883-4d76-9615-9c7c0dba7027","ios":"levelo://app?vid=cb9baa6e-b883-4d76-9615-9c7c0dba7027"},"vehicle_type_id":"4","last_reported":1762870252,"current_range_meters":12000,"station_id":"ce4bhgh2rcd13ifvqfb0","pricing_plan_id":"cebpf4jnsgd1na2vs0mg"},{"bike_id":"d54952de-c2c9-4463-b55a-b35b39e9463c","system_id":"levelo_inurba_marseille","lat":43.298206,"lon":5.440657,"is_reserved":false,"is_disabled":false,"rental_uris":{"android":"levelo://app?vid=d54952de-c2c9-4463-b55a-b35b39e9463c","ios":"levelo://app?vid=d54952de-c2c9-4463-b55a-b35b39e9463c"},"vehicle_type_id":"4","last_reported":1762870252,"current_range_meters":12000,"station_id":"st_d3jp68qikq2c7381ktn0","pricing_plan_id":"cebpf4jnsgd1na2vs0mg"},{"bike_id":"f5178d04-5e2f-4300-ad89-ca4a8698f31a","system_id":"levelo_inurba_marseille","lat":43.24804,"lon":5.374522,"is_reserved":false,"is_disabled":false,"rental_uris":{"android":"levelo://app?vid=f5178d04-5e2f-4300-ad89-ca4a8698f31a","ios":"levelo://app?vid=f5178d04-5e2f-4300-ad89-ca4a8698f31a"},"vehicle_type_id":"4","last_reported":1762870252,"current_range_meters":12000,"station_id":"ce4bhgh2rcd13ifvqfb0","pricing_plan_id":"cebpf4jnsgd1na2vs0mg"},{"bike_id":"82b35d51-0c35-417c-8a61-22fe88f04d62","system_id":"levelo_inurba_marseille","lat":43.29846,"lon":5.36294,"is_reserved":false,"is_disabled":false,"rental_uris":{"android":"levelo://app?vid=82b35d51-0c35-417c-8a61-22fe88f04d62","ios":"levelo://app?vid=82b35d51-0c35-417c-8a61-22fe88f04d62"},"vehicle_type_id":"4","last_reported":1762870252,"current_range_meters":12400,"station_id":"ce4bgpp2rcd13ifvqc3g","pricing_plan_id":"cebpf4jnsgd1na2vs0mg"},{"bike_id":"3871ebcf-4a28-4b22-beb9-9220e15dd9fe","system_id":"levelo_inurba_marseille","lat":43.2848,"lon":5.484008,"is_reserved":false,"is_disabled":false,"rental_uris":{"android":"levelo://app?vid=3871ebcf-4a28-4b22-beb9-9220e15dd9fe","ios":"levelo://app?vid=3871ebcf-4a28-4b22-beb9-9220e15dd9fe"},"vehicle_type_id":"4","last_reported":1762870252,"current_range_meters":12400,"station_id":"st_d3svhcjqgbts73a3dn0g","pricing_plan_id":"cebpf4jnsgd1na2vs0mg"},{"bike_id":"632413be-1e2d-41b9-a90f-5f33a6ff6c0e","system_id":"levelo_inurba_marseille","lat":43.249975,"lon":5.389236,"is_reserved":false,"is_disabled":false,"rental_uris":{"android":"levelo://app?vid=632413be-1e2d-41b9-a90f-5f33a6ff6c0e","ios":"levelo://app?vid=632413be-1e2d-41b9-a90f-5f33a6ff6c0e"},"vehicle_type_id":"4","last_reported":1762870252,"current_range_meters":12400,"station_id":"ce4bhgp2rcd13ifvqfd0","pricing_plan_id":"cebpf4jnsgd1na2vs0mg"},{"bike_id":"70c28227-9f9a-4a3f-869c-c93a1777b2dd","system_id":"levelo_inurba_marseille","lat":43.26194,"lon":5.3745,"is_reserved":false,"is_disabled":false,"rental_uris":{"android":"levelo://app?vid=70c28227-9f9a-4a3f-869c-c93a1777b2dd","ios":"levelo://app?vid=70c28227-9f9a-4a3f-869c-c93a1777b2dd"},"vehicle_type_id":"4","last_reported":1762870252,"current_range_meters":12400,"station_id":"ce4bhgp2rcd13ifvqfc0","pricing_plan_id":"cebpf4jnsgd1na2vs0mg"},{"bike_id":"71a961e6-e0d3-4ba5-a7f0-41e06706bcd2","system_id":"levelo_inurba_marseille","lat":43.21191,"lon":5.35081,"is_reserved":false,"is_disabled":false,"rental_uris":{"android":"levelo://app?vid=71a961e6-e0d3-4ba5-a7f0-41e06706bcd2","ios":"levelo://app?vid=71a961e6-e0d3-4ba5-a7f0-41e06706bcd2"},"vehicle_type_id":"4","last_reported":1762870252,"current_range_meters":12400,"station_id":"st_cvj6sg6p6f1abm77japg","pricing_plan_id":"cebpf4jnsgd1na2vs0mg"},{"bike_id":"4a392cd4-0e9e-4acc-9ed4-f14baadd93d7","system_id":"levelo_inurba_marseille","lat":43.32132,"lon":5.36791,"is_reserved":false,"is_disabled":false,"rental_uris":{"android":"levelo://app?vid=4a392cd4-0e9e-4acc-9ed4-f14baadd93d7","ios":"levelo://app?vid=4a392cd4-0e9e-4acc-9ed4-f14baadd93d7"},"vehicle_type_id":"4","last_reported":1762870252,"current_range_meters":12800,"station_id":"","pricing_plan_id":"cebpf4jnsgd1na2vs0mg"},{"bike_id":"a875cb80-760a-48f4-80fc-adc3ae4c0013","system_id":"levelo_inurba_marseille","lat":43.26029,"lon":5.37548,"is_reserved":false,"is_disabled":false,"rental_uris":{"android":"levelo://app?vid=a875cb80-760a-48f4-80fc-adc3ae4c0013","ios":"levelo://app?vid=a875cb80-760a-48f4-80fc-adc3ae4c0013"},"vehicle_type_id":"4","last_reported":1762870252,"current_range_meters":12800,"station_id":"ce4bhgh2rcd13ifvqfa0","pricing_plan_id":"cebpf4jnsgd1na2vs0mg"},{"bike_id":"172a1479-a5a8-4a14-96d6-945fbc77b377","system_id":"levelo_inurba_marseille","lat":43.31983,"lon":5.38155,"is_reserved":false,"is_disabled":false,"rental_uris":{"android":"levelo://app?vid=172a1479-a5a8-4a14-96d6-945fbc77b377","ios":"levelo://app?vid=172a1479-a5a8-4a14-96d6-945fbc77b377"},"vehicle_type_id":"4","last_reported":1762870252,"current_range_meters":12800,"station_id":"ce4bhr12rcd13ifvqhpg","pricing_plan_id":"cebpf4jnsgd1na2vs0mg"},{"bike_id":"e1341e9c-2940-49ff-9da0-dd7bac4aab14","system_id":"levelo_inurba_marseille","lat":43.29272,"lon":5.36847,"is_reserved":false,"is_disabled":false,"rental_uris":{"android":"levelo://app?vid=e1341e9c-2940-49ff-9da0-dd7bac4aab14","ios":"levelo://app?vid=e1341e9c-2940-49ff-9da0-dd7bac4aab14"},"vehicle_type_id":"4","last_reported":1762870252,"current_range_meters":12800,"station_id":"ce4bhbp2rcd13ifvqesg","pricing_plan_id":"cebpf4jnsgd1na2vs0mg"},{"bike_id":"ba518277-51bf-4388-8d20-e5aaabda291b","system_id":"levelo_inurba_marseille","lat":43.2418,"lon":5.39723,"is_reserved":false,"is_disabled":false,"rental_uris":{"android":"levelo://app?vid=ba518277-51bf-4388-8d20-e5aaabda291b","ios":"levelo://app?vid=ba518277-51bf-4388-8d20-e5aaabda291b"},"vehicle_type_id":"4","last_reported":1762870252,"current_range_meters":12800,"station_id":"ce4bhn12rcd13ifvqgpg","pricing_plan_id":"cebpf4jnsgd1na2vs0mg"},{"bike_id":"98c3d8dc-966f-4a9b-8001-71c41e2faeca","system_id":"levelo_inurba_marseille","lat":43.28464,"lon":5.3589,"is_reserved":false,"is_disabled":false,"rental_uris":{"android":"levelo://app?vid=98c3d8dc-966f-4a9b-8001-71c41e2faeca","ios":"levelo://app?vid=98c3d8dc-966f-4a9b-8001-71c41e2faeca"},"vehicle_type_id":"4","last_reported":1762870252,"current_range_meters":12800,"station_id":"ce4bhah2rcd13ifvqei0","pricing_plan_id":"cebpf4jnsgd1na2vs0mg"},{"bike_id":"3be9a261-27db-46f1-80ec-1609473dd6a3","system_id":"levelo_inurba_marseille","lat":43.21186,"lon":5.35074,"is_reserved":false,"is_disabled":false,"rental_uris":{"android":"levelo://app?vid=3be9a261-27db-46f1-80ec-1609473dd6a3","ios":"levelo://app?vid=3be9a261-27db-46f1-80ec-1609473dd6a3"},"vehicle_type_id":"4","last_reported":1762870252,"current_range_meters":13600,"station_id":"st_cvj6sg6p6f1abm77japg","pricing_plan_id":"cebpf4jnsgd1na2vs0mg"},{"bike_id":"911976bf-e79d-466f-a6fa-934427f9d35d","system_id":"levelo_inurba_marseille","lat":43.25817,"lon":5.39436,"is_reserved":false,"is_disabled":false,"rental_uris":{"android":"levelo://app?vid=911976bf-e79d-466f-a6fa-934427f9d35d","ios":"levelo://app?vid=911976bf-e79d-466f-a6fa-934427f9d35d"},"vehicle_type_id":"4","last_reported":1762870252,"current_range_meters":13600,"station_id":"ce4bhip2rcd13ifvqft0","pricing_plan_id":"cebpf4jnsgd1na2vs0mg"},{"bike_id":"1152c84a-a055-4f29-9b92-843214c87d0f","system_id":"levelo_inurba_marseille","lat":43.22562,"lon":5.41637,"is_reserved":false,"is_disabled":false,"rental_uris":{"android":"levelo://app?vid=1152c84a-a055-4f29-9b92-843214c87d0f","ios":"levelo://app?vid=1152c84a-a055-4f29-9b92-843214c87d0f"},"vehicle_type_id":"4","last_reported":1762870252,"current_range_meters":13600,"station_id":"st_d2o4gvlbi1j2169b742g","pricing_plan_id":"cebpf4jnsgd1na2vs0mg"},{"bike_id":"12b08d40-ee75-4532-acf9-93b39418c2d9","system_id":"levelo_inurba_marseille","lat":43.27607,"lon":5.36112,"is_reserved":false,"is_disabled":false,"rental_uris":{"android":"levelo://app?vid=12b08d40-ee75-4532-acf9-93b39418c2d9","ios":"levelo://app?vid=12b08d40-ee75-4532-acf9-93b39418c2d9"},"vehicle_type_id":"4","last_reported":1762870252,"current_range_meters":13600,"station_id":"ce4bgj92rcd13ifvqbe0","pricing_plan_id":"cebpf4jnsgd1na2vs0mg"},{"bike_id":"722f7e0f-46d9-4be9-997c-6a53c83a7527","system_id":"levelo_inurba_marseille","lat":43.28036,"lon":5.36947,"is_reserved":false,"is_disabled":true,"rental_uris":{"android":"levelo://app?vid=722f7e0f-46d9-4be9-997c-6a53c83a7527","ios":"levelo://app?vid=722f7e0f-46d9-4be9-997c-6a53c83a7527"},"vehicle_type_id":"4","last_reported":1762870252,"current_range_meters":13600,"station_id":"ce4bha12rcd13ifvqef0","pricing_plan_id":"cebpf4jnsgd1na2vs0mg"},{"bike_id":"42bd7eaa-a853-4b82-9d84-352dbc011c2d","system_id":"levelo_inurba_marseille","lat":43.21199,"lon":5.35064,"is_reserved":false,"is_disabled":false,"rental_uris":{"android":"levelo://app?vid=42bd7eaa-a853-4b82-9d84-352dbc011c2d","ios":"levelo://app?vid=42bd7eaa-a853-4b82-9d84-352dbc011c2d"},"vehicle_type_id":"4","last_reported":1762870252,"current_range_meters":13600,"station_id":"st_cvj6sg6p6f1abm77japg","pricing_plan_id":"cebpf4jnsgd1na2vs0mg"},{"bike_id":"dc9399a6-68ac-4bce-a28c-89dbbb7d0681","system_id":"levelo_inurba_marseille","lat":43.28771,"lon":5.40837,"is_reserved":false,"is_disabled":true,"rental_uris":{"android":"levelo://app?vid=dc9399a6-68ac-4bce-a28c-89dbbb7d0681","ios":"levelo://app?vid=dc9399a6-68ac-4bce-a28c-89dbbb7d0681"},"vehicle_type_id":"4","last_reported":1762870252,"current_range_meters":13600,"station_id":"","pricing_plan_id":"cebpf4jnsgd1na2vs0mg"},{"bike_id":"e2c0865d-493f-4360-a4d2-c2df9cc0e34d","system_id":"levelo_inurba_marseille","lat":43.28722,"lon":5.36095,"is_reserved":false,"is_disabled":false,"rental_uris":{"android":"levelo://app?vid=e2c0865d-493f-4360-a4d2-c2df9cc0e34d","ios":"levelo://app?vid=e2c0865d-493f-4360-a4d2-c2df9cc0e34d"},"vehicle_type_id":"4","last_reported":1762870252,"current_range_meters":14000,"station_id":"cki0cbj6b192h4jlfktg","pricing_plan_id":"cebpf4jnsgd1na2vs0mg"},{"bike_id":"b163e344-51c7-4161-b309-f4ec1d23d27f","system_id":"levelo_inurba_marseille","lat":43.306083,"lon":5.372317,"is_reserved":false,"is_disabled":false,"rental_uris":{"android":"levelo://app?vid=b163e344-51c7-4161-b309-f4ec1d23d27f","ios":"levelo://app?vid=b163e344-51c7-4161-b309-f4ec1d23d27f"},"vehicle_type_id":"4","last_reported":1762870252,"current_range_meters":14000,"station_id":"ce4bgqh2rcd13ifvqc4g","pricing_plan_id":"cebpf4jnsgd1na2vs0mg"},{"bike_id":"8784dfbe-12d8-418e-a570-f8b36d552a31","system_id":"levelo_inurba_marseille","lat":43.2737,"lon":5.36258,"is_reserved":false,"is_disabled":false,"rental_uris":{"android":"levelo://app?vid=8784dfbe-12d8-418e-a570-f8b36d552a31","ios":"levelo://app?vid=8784dfbe-12d8-418e-a570-f8b36d552a31"},"vehicle_type_id":"4","last_reported":1762870252,"current_range_meters":14000,"station_id":"ce4bhbh2rcd13ifvqeo0","pricing_plan_id":"cebpf4jnsgd1na2vs0mg"},{"bike_id":"ac571466-1dc3-4aea-b277-4afec8514b82","system_id":"levelo_inurba_marseille","lat":43.279405,"lon":5.410402,"is_reserved":false,"is_disabled":false,"rental_uris":{"android":"levelo://app?vid=ac571466-1dc3-4aea-b277-4afec8514b82","ios":"levelo://app?vid=ac571466-1dc3-4aea-b277-4afec8514b82"},"vehicle_type_id":"4","last_reported":1762870252,"current_range_meters":14000,"station_id":"ce4bhnp2rcd13ifvqh0g","pricing_plan_id":"cebpf4jnsgd1na2vs0mg"},{"bike_id":"5d79d3d2-8302-4150-97d5-df980714ace1","system_id":"levelo_inurba_marseille","lat":43.23197,"lon":5.35568,"is_reserved":false,"is_disabled":false,"rental_uris":{"android":"levelo://app?vid=5d79d3d2-8302-4150-97d5-df980714ace1","ios":"levelo://app?vid=5d79d3d2-8302-4150-97d5-df980714ace1"},"vehicle_type_id":"4","last_reported":1762870252,"current_range_meters":14400,"station_id":"ce4bhu92rcd13ifvqi70","pricing_plan_id":"cebpf4jnsgd1na2vs0mg"},{"bike_id":"0d99d113-8953-4587-8656-a8ad5dc8d796","system_id":"levelo_inurba_marseille","lat":43.21184,"lon":5.35091,"is_reserved":false,"is_disabled":false,"rental_uris":{"android":"levelo://app?vid=0d99d113-8953-4587-8656-a8ad5dc8d796","ios":"levelo://app?vid=0d99d113-8953-4587-8656-a8ad5dc8d796"},"vehicle_type_id":"4","last_reported":1762870252,"current_range_meters":14400,"station_id":"st_cvj6sg6p6f1abm77japg","pricing_plan_id":"cebpf4jnsgd1na2vs0mg"},{"bike_id":"21b3123e-f92d-44de-9dd8-7035f5f631dc","system_id":"levelo_inurba_marseille","lat":43.2256,"lon":5.41628,"is_reserved":false,"is_disabled":false,"rental_uris":{"android":"levelo://app?vid=21b3123e-f92d-44de-9dd8-7035f5f631dc","ios":"levelo://app?vid=21b3123e-f92d-44de-9dd8-7035f5f631dc"},"vehicle_type_id":"4","last_reported":1762870252,"current_range_meters":14400,"station_id":"st_d2o4gvlbi1j2169b742g","pricing_plan_id":"cebpf4jnsgd1na2vs0mg"},{"bike_id":"6074fdb0-9c6a-4633-a6ab-ba27f05f7e0d","system_id":"levelo_inurba_marseille","lat":43.26554,"lon":5.37286,"is_reserved":false,"is_disabled":false,"rental_uris":{"android":"levelo://app?vid=6074fdb0-9c6a-4633-a6ab-ba27f05f7e0d","ios":"levelo://app?vid=6074fdb0-9c6a-4633-a6ab-ba27f05f7e0d"},"vehicle_type_id":"4","last_reported":1762870252,"current_range_meters":14400,"station_id":"ce4bhg12rcd13ifvqf70","pricing_plan_id":"cebpf4jnsgd1na2vs0mg"},{"bike_id":"ea1efa08-6906-4685-bacf-cb1962cde622","system_id":"levelo_inurba_marseille","lat":43.3014,"lon":5.38069,"is_reserved":false,"is_disabled":false,"rental_uris":{"android":"levelo://app?vid=ea1efa08-6906-4685-bacf-cb1962cde622","ios":"levelo://app?vid=ea1efa08-6906-4685-bacf-cb1962cde622"},"vehicle_type_id":"4","last_reported":1762870252,"current_range_meters":14800,"station_id":"ce4bgjp2rcd13ifvqbh0","pricing_plan_id":"cebpf4jnsgd1na2vs0mg"},{"bike_id":"f5417f4d-949e-4e67-98e5-76361662c515","system_id":"levelo_inurba_marseille","lat":43.25498,"lon":5.37661,"is_reserved":false,"is_disabled":false,"rental_uris":{"android":"levelo://app?vid=f5417f4d-949e-4e67-98e5-76361662c515","ios":"levelo://app?vid=f5417f4d-949e-4e67-98e5-76361662c515"},"vehicle_type_id":"4","last_reported":1762870252,"current_range_meters":14800,"station_id":"ce4bhh12rcd13ifvqff0","pricing_plan_id":"cebpf4jnsgd1na2vs0mg"},{"bike_id":"ac029cc9-31d4-4bcc-b083-2d229e9f9161","system_id":"levelo_inurba_marseille","lat":43.229387,"lon":5.353811,"is_reserved":false,"is_disabled":false,"rental_uris":{"android":"levelo://app?vid=ac029cc9-31d4-4bcc-b083-2d229e9f9161","ios":"levelo://app?vid=ac029cc9-31d4-4bcc-b083-2d229e9f9161"},"vehicle_type_id":"4","last_reported":1762870252,"current_range_meters":14800,"station_id":"cpo3532slgdg3j2ikp40","pricing_plan_id":"cebpf4jnsgd1na2vs0mg"},{"bike_id":"0c89ecfd-d0db-41d5-9c29-a93af32cd13c","system_id":"levelo_inurba_marseille","lat":43.22927,"lon":5.35377,"is_reserved":false,"is_disabled":false,"rental_uris":{"android":"levelo://app?vid=0c89ecfd-d0db-41d5-9c29-a93af32cd13c","ios":"levelo://app?vid=0c89ecfd-d0db-41d5-9c29-a93af32cd13c"},"vehicle_type_id":"4","last_reported":1762870252,"current_range_meters":14800,"station_id":"cpo3532slgdg3j2ikp40","pricing_plan_id":"cebpf4jnsgd1na2vs0mg"},{"bike_id":"28e36cd3-4665-4002-a55e-04a45eaa3992","system_id":"levelo_inurba_marseille","lat":43.33151,"lon":5.37713,"is_reserved":false,"is_disabled":false,"rental_uris":{"android":"levelo://app?vid=28e36cd3-4665-4002-a55e-04a45eaa3992","ios":"levelo://app?vid=28e36cd3-4665-4002-a55e-04a45eaa3992"},"vehicle_type_id":"4","last_reported":1762870252,"current_range_meters":14800,"station_id":"st_d46cu089ee8s73dldbu0","pricing_plan_id":"cebpf4jnsgd1na2vs0mg"},{"bike_id":"c52d13c3-951c-4624-8e41-90e3d7bb0bea","system_id":"levelo_inurba_marseille","lat":43.301535,"lon":5.381047,"is_reserved":false,"is_disabled":false,"rental_uris":{"android":"levelo://app?vid=c52d13c3-951c-4624-8e41-90e3d7bb0bea","ios":"levelo://app?vid=c52d13c3-951c-4624-8e41-90e3d7bb0bea"},"vehicle_type_id":"4","last_reported":1762870252,"current_range_meters":14800,"station_id":"","pricing_plan_id":"cebpf4jnsgd1na2vs0mg"},{"bike_id":"b259621f-2fe6-4b30-92e0-2292fee32f1f","system_id":"levelo_inurba_marseille","lat":43.2803,"lon":5.36955,"is_reserved":false,"is_disabled":true,"rental_uris":{"android":"levelo://app?vid=b259621f-2fe6-4b30-92e0-2292fee32f1f","ios":"levelo://app?vid=b259621f-2fe6-4b30-92e0-2292fee32f1f"},"vehicle_type_id":"4","last_reported":1762870252,"current_range_meters":14800,"station_id":"ce4bha12rcd13ifvqef0","pricing_plan_id":"cebpf4jnsgd1na2vs0mg"},{"bike_id":"ebe6be58-f4e1-43a4-918a-89cf0638ec6b","system_id":"levelo_inurba_marseille","lat":43.28606,"lon":5.35107,"is_reserved":false,"is_disabled":false,"rental_uris":{"android":"levelo://app?vid=ebe6be58-f4e1-43a4-918a-89cf0638ec6b","ios":"levelo://app?vid=ebe6be58-f4e1-43a4-918a-89cf0638ec6b"},"vehicle_type_id":"4","last_reported":1762870252,"current_range_meters":14800,"station_id":"ce4bhch2rcd13ifvqeug","pricing_plan_id":"cebpf4jnsgd1na2vs0mg"},{"bike_id":"7f87af53-e458-4ba7-8115-b009c67cd892","system_id":"levelo_inurba_marseille","lat":43.30587,"lon":5.39358,"is_reserved":false,"is_disabled":false,"rental_uris":{"android":"levelo://app?vid=7f87af53-e458-4ba7-8115-b009c67cd892","ios":"levelo://app?vid=7f87af53-e458-4ba7-8115-b009c67cd892"},"vehicle_type_id":"4","last_reported":1762870252,"current_range_meters":14800,"station_id":"ce4bh0p2rcd13ifvqd80","pricing_plan_id":"cebpf4jnsgd1na2vs0mg"},{"bike_id":"54136a75-1b65-49e2-bf0a-c8c60db77a9e","system_id":"levelo_inurba_marseille","lat":43.28858,"lon":5.35841,"is_reserved":false,"is_disabled":false,"rental_uris":{"android":"levelo://app?vid=54136a75-1b65-49e2-bf0a-c8c60db77a9e","ios":"levelo://app?vid=54136a75-1b65-49e2-bf0a-c8c60db77a9e"},"vehicle_type_id":"4","last_reported":1762870252,"current_range_meters":15200,"station_id":"ce4bhb12rcd13ifvqem0","pricing_plan_id":"cebpf4jnsgd1na2vs0mg"},{"bike_id":"8573e18d-4ba1-4145-a66c-08d0ce7830e5","system_id":"levelo_inurba_marseille","lat":43.24998,"lon":5.38934,"is_reserved":false,"is_disabled":false,"rental_uris":{"android":"levelo://app?vid=8573e18d-4ba1-4145-a66c-08d0ce7830e5","ios":"levelo://app?vid=8573e18d-4ba1-4145-a66c-08d0ce7830e5"},"vehicle_type_id":"4","last_reported":1762870252,"current_range_meters":15200,"station_id":"ce4bhgp2rcd13ifvqfd0","pricing_plan_id":"cebpf4jnsgd1na2vs0mg"},{"bike_id":"44adcb76-c006-4072-ae0e-292678f5813f","system_id":"levelo_inurba_marseille","lat":43.28441,"lon":5.3504,"is_reserved":false,"is_disabled":false,"rental_uris":{"android":"levelo://app?vid=44adcb76-c006-4072-ae0e-292678f5813f","ios":"levelo://app?vid=44adcb76-c006-4072-ae0e-292678f5813f"},"vehicle_type_id":"4","last_reported":1762870252,"current_range_meters":15200,"station_id":"ce4bhbh2rcd13ifvqepg","pricing_plan_id":"cebpf4jnsgd1na2vs0mg"},{"bike_id":"ff6737aa-ac2e-4181-aa23-eed1d4fa3397","system_id":"levelo_inurba_marseille","lat":43.30584,"lon":5.3935,"is_reserved":false,"is_disabled":false,"rental_uris":{"android":"levelo://app?vid=ff6737aa-ac2e-4181-aa23-eed1d4fa3397","ios":"levelo://app?vid=ff6737aa-ac2e-4181-aa23-eed1d4fa3397"},"vehicle_type_id":"4","last_reported":1762870252,"current_range_meters":15200,"station_id":"ce4bh0p2rcd13ifvqd80","pricing_plan_id":"cebpf4jnsgd1na2vs0mg"},{"bike_id":"e13b78db-2231-48a0-b9e0-a153f32a43f4","system_id":"levelo_inurba_marseille","lat":43.23057,"lon":5.35495,"is_reserved":false,"is_disabled":false,"rental_uris":{"android":"levelo://app?vid=e13b78db-2231-48a0-b9e0-a153f32a43f4","ios":"levelo://app?vid=e13b78db-2231-48a0-b9e0-a153f32a43f4"},"vehicle_type_id":"4","last_reported":1762870252,"current_range_meters":15200,"station_id":"cpo3342slgdg3j2ifvpg","pricing_plan_id":"cebpf4jnsgd1na2vs0mg"},{"bike_id":"84aade2c-4b39-4bce-814f-cfa3d6ed46f7","system_id":"levelo_inurba_marseille","lat":43.28478,"lon":5.48393,"is_reserved":false,"is_disabled":false,"rental_uris":{"android":"levelo://app?vid=84aade2c-4b39-4bce-814f-cfa3d6ed46f7","ios":"levelo://app?vid=84aade2c-4b39-4bce-814f-cfa3d6ed46f7"},"vehicle_type_id":"4","last_reported":1762870252,"current_range_meters":15200,"station_id":"st_d3svhcjqgbts73a3dn0g","pricing_plan_id":"cebpf4jnsgd1na2vs0mg"},{"bike_id":"03a7318b-5a03-4d4c-82e2-5647dfb1efef","system_id":"levelo_inurba_marseille","lat":43.29713,"lon":5.37698,"is_reserved":false,"is_disabled":false,"rental_uris":{"android":"levelo://app?vid=03a7318b-5a03-4d4c-82e2-5647dfb1efef","ios":"levelo://app?vid=03a7318b-5a03-4d4c-82e2-5647dfb1efef"},"vehicle_type_id":"4","last_reported":1762870252,"current_range_meters":15200,"station_id":"ce4bgkh2rcd13ifvqbl0","pricing_plan_id":"cebpf4jnsgd1na2vs0mg"},{"bike_id":"e47ae3d8-3ec8-40fa-9ea4-abf0f10e05a5","system_id":"levelo_inurba_marseille","lat":43.29786,"lon":5.37107,"is_reserved":false,"is_disabled":false,"rental_uris":{"android":"levelo://app?vid=e47ae3d8-3ec8-40fa-9ea4-abf0f10e05a5","ios":"levelo://app?vid=e47ae3d8-3ec8-40fa-9ea4-abf0f10e05a5"},"vehicle_type_id":"4","last_reported":1762870252,"current_range_meters":15200,"station_id":"ce4bgop2rcd13ifvqc1g","pricing_plan_id":"cebpf4jnsgd1na2vs0mg"},{"bike_id":"3675fcb9-4257-4c23-936c-1064c6107c79","system_id":"levelo_inurba_marseille","lat":43.28873,"lon":5.425184,"is_reserved":false,"is_disabled":false,"rental_uris":{"android":"levelo://app?vid=3675fcb9-4257-4c23-936c-1064c6107c79","ios":"levelo://app?vid=3675fcb9-4257-4c23-936c-1064c6107c79"},"vehicle_type_id":"4","last_reported":1762870252,"current_range_meters":15200,"station_id":"st_d3b462108ojc7389ooeg","pricing_plan_id":"cebpf4jnsgd1na2vs0mg"},{"bike_id":"68a24acd-a9fb-4a3b-9fa4-84e3eef81ada","system_id":"levelo_inurba_marseille","lat":43.28945,"lon":5.36666,"is_reserved":false,"is_disabled":false,"rental_uris":{"android":"levelo://app?vid=68a24acd-a9fb-4a3b-9fa4-84e3eef81ada","ios":"levelo://app?vid=68a24acd-a9fb-4a3b-9fa4-84e3eef81ada"},"vehicle_type_id":"4","last_reported":1762870252,"current_range_meters":16000,"station_id":"ce4bhap2rcd13ifvqek0","pricing_plan_id":"cebpf4jnsgd1na2vs0mg"},{"bike_id":"456d72dd-b1ec-4f85-925a-f8fe4127b496","system_id":"levelo_inurba_marseille","lat":43.273772,"lon":5.362478,"is_reserved":false,"is_disabled":false,"rental_uris":{"android":"levelo://app?vid=456d72dd-b1ec-4f85-925a-f8fe4127b496","ios":"levelo://app?vid=456d72dd-b1ec-4f85-925a-f8fe4127b496"},"vehicle_type_id":"4","last_reported":1762870252,"current_range_meters":16000,"station_id":"ce4bhbh2rcd13ifvqeo0","pricing_plan_id":"cebpf4jnsgd1na2vs0mg"},{"bike_id":"c47023ab-2905-4a00-af93-ffd0b768cdc9","system_id":"levelo_inurba_marseille","lat":43.28857,"lon":5.42537,"is_reserved":false,"is_disabled":false,"rental_uris":{"android":"levelo://app?vid=c47023ab-2905-4a00-af93-ffd0b768cdc9","ios":"levelo://app?vid=c47023ab-2905-4a00-af93-ffd0b768cdc9"},"vehicle_type_id":"4","last_reported":1762870252,"current_range_meters":16000,"station_id":"st_d3b462108ojc7389ooeg","pricing_plan_id":"cebpf4jnsgd1na2vs0mg"},{"bike_id":"10832612-bd6d-4d64-947f-699f60d0c3eb","system_id":"levelo_inurba_marseille","lat":43.297665,"lon":5.388979,"is_reserved":false,"is_disabled":false,"rental_uris":{"android":"levelo://app?vid=10832612-bd6d-4d64-947f-699f60d0c3eb","ios":"levelo://app?vid=10832612-bd6d-4d64-947f-699f60d0c3eb"},"vehicle_type_id":"4","last_reported":1762870252,"current_range_meters":16000,"station_id":"","pricing_plan_id":"cebpf4jnsgd1na2vs0mg"},{"bike_id":"d07b902f-e0b8-41cc-b221-714bf2651e15","system_id":"levelo_inurba_marseille","lat":43.28867,"lon":5.4252,"is_reserved":false,"is_disabled":false,"rental_uris":{"android":"levelo://app?vid=d07b902f-e0b8-41cc-b221-714bf2651e15","ios":"levelo://app?vid=d07b902f-e0b8-41cc-b221-714bf2651e15"},"vehicle_type_id":"4","last_reported":1762870252,"current_range_meters":16000,"station_id":"st_d3b462108ojc7389ooeg","pricing_plan_id":"cebpf4jnsgd1na2vs0mg"},{"bike_id":"8cc01210-81b4-4f09-a0df-d3b7dd94afb7","system_id":"levelo_inurba_marseille","lat":43.24638,"lon":5.38902,"is_reserved":false,"is_disabled":false,"rental_uris":{"android":"levelo://app?vid=8cc01210-81b4-4f09-a0df-d3b7dd94afb7","ios":"levelo://app?vid=8cc01210-81b4-4f09-a0df-d3b7dd94afb7"},"vehicle_type_id":"4","last_reported":1762870252,"current_range_meters":16000,"station_id":"ce4bhg12rcd13ifvqf60","pricing_plan_id":"cebpf4jnsgd1na2vs0mg"},{"bike_id":"f83af9c0-8fda-43ee-82eb-a7ff9fef258e","system_id":"levelo_inurba_marseille","lat":43.29001,"lon":5.35614,"is_reserved":false,"is_disabled":false,"rental_uris":{"android":"levelo://app?vid=f83af9c0-8fda-43ee-82eb-a7ff9fef258e","ios":"levelo://app?vid=f83af9c0-8fda-43ee-82eb-a7ff9fef258e"},"vehicle_type_id":"4","last_reported":1762870252,"current_range_meters":16400,"station_id":"ce4bhb92rcd13ifvqen0","pricing_plan_id":"cebpf4jnsgd1na2vs0mg"},{"bike_id":"67f21b4e-7bd4-4f2b-a672-c410c5f88d67","system_id":"levelo_inurba_marseille","lat":43.28517,"lon":5.44126,"is_reserved":false,"is_disabled":false,"rental_uris":{"android":"levelo://app?vid=67f21b4e-7bd4-4f2b-a672-c410c5f88d67","ios":"levelo://app?vid=67f21b4e-7bd4-4f2b-a672-c410c5f88d67"},"vehicle_type_id":"4","last_reported":1762870252,"current_range_meters":16400,"station_id":"st_d3j3df2ikq2c7380ej80","pricing_plan_id":"cebpf4jnsgd1na2vs0mg"},{"bike_id":"b1eae50a-8d67-4cb1-864f-83a94e017e67","system_id":"levelo_inurba_marseille","lat":43.326655,"lon":5.40953,"is_reserved":false,"is_disabled":false,"rental_uris":{"android":"levelo://app?vid=b1eae50a-8d67-4cb1-864f-83a94e017e67","ios":"levelo://app?vid=b1eae50a-8d67-4cb1-864f-83a94e017e67"},"vehicle_type_id":"4","last_reported":1762870252,"current_range_meters":16400,"station_id":"ce4bhpp2rcd13ifvqhgg","pricing_plan_id":"cebpf4jnsgd1na2vs0mg"},{"bike_id":"f09b69fd-4220-4b51-8365-9a85828617f1","system_id":"levelo_inurba_marseille","lat":43.330268,"lon":5.390397,"is_reserved":false,"is_disabled":false,"rental_uris":{"android":"levelo://app?vid=f09b69fd-4220-4b51-8365-9a85828617f1","ios":"levelo://app?vid=f09b69fd-4220-4b51-8365-9a85828617f1"},"vehicle_type_id":"4","last_reported":1762870252,"current_range_meters":16400,"station_id":"ce4bhr92rcd13ifvqhrg","pricing_plan_id":"cebpf4jnsgd1na2vs0mg"},{"bike_id":"32162483-923a-4e23-8738-bf029245f9f0","system_id":"levelo_inurba_marseille","lat":43.28471,"lon":5.38422,"is_reserved":false,"is_disabled":true,"rental_uris":{"android":"levelo://app?vid=32162483-923a-4e23-8738-bf029245f9f0","ios":"levelo://app?vid=32162483-923a-4e23-8738-bf029245f9f0"},"vehicle_type_id":"4","last_reported":1762870252,"current_range_meters":16400,"station_id":"ce4bh512rcd13ifvqe3g","pricing_plan_id":"cebpf4jnsgd1na2vs0mg"},{"bike_id":"d2e8f11f-4b2f-4529-a0ae-3ac538769ec8","system_id":"levelo_inurba_marseille","lat":43.23071,"lon":5.35491,"is_reserved":false,"is_disabled":false,"rental_uris":{"android":"levelo://app?vid=d2e8f11f-4b2f-4529-a0ae-3ac538769ec8","ios":"levelo://app?vid=d2e8f11f-4b2f-4529-a0ae-3ac538769ec8"},"vehicle_type_id":"4","last_reported":1762870252,"current_range_meters":16800,"station_id":"cpo3342slgdg3j2ifvpg","pricing_plan_id":"cebpf4jnsgd1na2vs0mg"},{"bike_id":"958b6545-b7ff-4c8b-967c-ea2338184bf1","system_id":"levelo_inurba_marseille","lat":43.22563,"lon":5.41621,"is_reserved":false,"is_disabled":false,"rental_uris":{"android":"levelo://app?vid=958b6545-b7ff-4c8b-967c-ea2338184bf1","ios":"levelo://app?vid=958b6545-b7ff-4c8b-967c-ea2338184bf1"},"vehicle_type_id":"4","last_reported":1762870252,"current_range_meters":16800,"station_id":"st_d2o4gvlbi1j2169b742g","pricing_plan_id":"cebpf4jnsgd1na2vs0mg"},{"bike_id":"14c4c79d-54a2-43ff-b01b-d18f58077d1e","system_id":"levelo_inurba_marseille","lat":43.285966,"lon":5.350223,"is_reserved":false,"is_disabled":false,"rental_uris":{"android":"levelo://app?vid=14c4c79d-54a2-43ff-b01b-d18f58077d1e","ios":"levelo://app?vid=14c4c79d-54a2-43ff-b01b-d18f58077d1e"},"vehicle_type_id":"4","last_reported":1762870252,"current_range_meters":16800,"station_id":"","pricing_plan_id":"cebpf4jnsgd1na2vs0mg"},{"bike_id":"d6b79378-2800-40d4-9ead-f64bc4836417","system_id":"levelo_inurba_marseille","lat":43.25493,"lon":5.37668,"is_reserved":false,"is_disabled":false,"rental_uris":{"android":"levelo://app?vid=d6b79378-2800-40d4-9ead-f64bc4836417","ios":"levelo://app?vid=d6b79378-2800-40d4-9ead-f64bc4836417"},"vehicle_type_id":"4","last_reported":1762870252,"current_range_meters":16800,"station_id":"ce4bhh12rcd13ifvqff0","pricing_plan_id":"cebpf4jnsgd1na2vs0mg"},{"bike_id":"194ccba3-e27a-47f2-96d1-c65a50ce720e","system_id":"levelo_inurba_marseille","lat":43.27375,"lon":5.36262,"is_reserved":false,"is_disabled":false,"rental_uris":{"android":"levelo://app?vid=194ccba3-e27a-47f2-96d1-c65a50ce720e","ios":"levelo://app?vid=194ccba3-e27a-47f2-96d1-c65a50ce720e"},"vehicle_type_id":"4","last_reported":1762870252,"current_range_meters":16800,"station_id":"ce4bhb12rcd13ifvqem0","pricing_plan_id":"cebpf4jnsgd1na2vs0mg"},{"bike_id":"50b661f0-112f-4780-95bd-167a8c61a238","system_id":"levelo_inurba_marseille","lat":43.21187,"lon":5.35082,"is_reserved":false,"is_disabled":true,"rental_uris":{"android":"levelo://app?vid=50b661f0-112f-4780-95bd-167a8c61a238","ios":"levelo://app?vid=50b661f0-112f-4780-95bd-167a8c61a238"},"vehicle_type_id":"4","last_reported":1762870252,"current_range_meters":16800,"station_id":"st_cvj6sg6p6f1abm77japg","pricing_plan_id":"cebpf4jnsgd1na2vs0mg"},{"bike_id":"138acbc8-a44a-45ec-9d4e-f41258a8778e","system_id":"levelo_inurba_marseille","lat":43.29818,"lon":5.44059,"is_reserved":false,"is_disabled":false,"rental_uris":{"android":"levelo://app?vid=138acbc8-a44a-45ec-9d4e-f41258a8778e","ios":"levelo://app?vid=138acbc8-a44a-45ec-9d4e-f41258a8778e"},"vehicle_type_id":"4","last_reported":1762870252,"current_range_meters":16800,"station_id":"st_d3jp68qikq2c7381ktn0","pricing_plan_id":"cebpf4jnsgd1na2vs0mg"},{"bike_id":"1c87c2a8-93f8-4c13-b852-4572e1eb3930","system_id":"levelo_inurba_marseille","lat":43.27068,"lon":5.42268,"is_reserved":false,"is_disabled":false,"rental_uris":{"android":"levelo://app?vid=1c87c2a8-93f8-4c13-b852-4572e1eb3930","ios":"levelo://app?vid=1c87c2a8-93f8-4c13-b852-4572e1eb3930"},"vehicle_type_id":"4","last_reported":1762870252,"current_range_meters":16800,"station_id":"ce4bhk92rcd13ifvqgb0","pricing_plan_id":"cebpf4jnsgd1na2vs0mg"},{"bike_id":"c8998f34-4a28-4b86-966f-d12aebeffc31","system_id":"levelo_inurba_marseille","lat":43.3054,"lon":5.36709,"is_reserved":false,"is_disabled":false,"rental_uris":{"android":"levelo://app?vid=c8998f34-4a28-4b86-966f-d12aebeffc31","ios":"levelo://app?vid=c8998f34-4a28-4b86-966f-d12aebeffc31"},"vehicle_type_id":"4","last_reported":1762870252,"current_range_meters":16800,"station_id":"ce4bgrp2rcd13ifvqc9g","pricing_plan_id":"cebpf4jnsgd1na2vs0mg"},{"bike_id":"11c31477-b65a-47eb-bdaf-7d82bf8606d9","system_id":"levelo_inurba_marseille","lat":43.29008,"lon":5.35612,"is_reserved":false,"is_disabled":false,"rental_uris":{"android":"levelo://app?vid=11c31477-b65a-47eb-bdaf-7d82bf8606d9","ios":"levelo://app?vid=11c31477-b65a-47eb-bdaf-7d82bf8606d9"},"vehicle_type_id":"4","last_reported":1762870252,"current_range_meters":17200,"station_id":"ce4bhb92rcd13ifvqen0","pricing_plan_id":"cebpf4jnsgd1na2vs0mg"},{"bike_id":"2a509c9d-affa-4988-86e4-6a371959141c","system_id":"levelo_inurba_marseille","lat":43.255816,"lon":5.382266,"is_reserved":false,"is_disabled":false,"rental_uris":{"android":"levelo://app?vid=2a509c9d-affa-4988-86e4-6a371959141c","ios":"levelo://app?vid=2a509c9d-affa-4988-86e4-6a371959141c"},"vehicle_type_id":"4","last_reported":1762870252,"current_range_meters":17200,"station_id":"ce4bhih2rcd13ifvqfs0","pricing_plan_id":"cebpf4jnsgd1na2vs0mg"},{"bike_id":"59092e0b-8e2c-49e1-8126-64ad7629b05f","system_id":"levelo_inurba_marseille","lat":43.24273,"lon":5.39249,"is_reserved":false,"is_disabled":false,"rental_uris":{"android":"levelo://app?vid=59092e0b-8e2c-49e1-8126-64ad7629b05f","ios":"levelo://app?vid=59092e0b-8e2c-49e1-8126-64ad7629b05f"},"vehicle_type_id":"4","last_reported":1762870252,"current_range_meters":17200,"station_id":"","pricing_plan_id":"cebpf4jnsgd1na2vs0mg"},{"bike_id":"0fe81ef8-eb80-4a3e-94fa-0c7e76b11812","system_id":"levelo_inurba_marseille","lat":43.22561,"lon":5.41644,"is_reserved":false,"is_disabled":false,"rental_uris":{"android":"levelo://app?vid=0fe81ef8-eb80-4a3e-94fa-0c7e76b11812","ios":"levelo://app?vid=0fe81ef8-eb80-4a3e-94fa-0c7e76b11812"},"vehicle_type_id":"4","last_reported":1762870252,"current_range_meters":17200,"station_id":"st_d2o4gvlbi1j2169b742g","pricing_plan_id":"cebpf4jnsgd1na2vs0mg"},{"bike_id":"e5072903-b867-4d8e-a478-9934ce296bde","system_id":"levelo_inurba_marseille","lat":43.29116,"lon":5.39057,"is_reserved":false,"is_disabled":false,"rental_uris":{"android":"levelo://app?vid=e5072903-b867-4d8e-a478-9934ce296bde","ios":"levelo://app?vid=e5072903-b867-4d8e-a478-9934ce296bde"},"vehicle_type_id":"4","last_reported":1762870252,"current_range_meters":17200,"station_id":"","pricing_plan_id":"cebpf4jnsgd1na2vs0mg"},{"bike_id":"2b337186-5672-4087-8da2-b3ab6d078c9c","system_id":"levelo_inurba_marseille","lat":43.217436,"lon":5.346093,"is_reserved":false,"is_disabled":false,"rental_uris":{"android":"levelo://app?vid=2b337186-5672-4087-8da2-b3ab6d078c9c","ios":"levelo://app?vid=2b337186-5672-4087-8da2-b3ab6d078c9c"},"vehicle_type_id":"4","last_reported":1762870252,"current_range_meters":17200,"station_id":"st_cvj6r9ubvosntc0bgbag","pricing_plan_id":"cebpf4jnsgd1na2vs0mg"},{"bike_id":"87f91ed8-5710-43df-8936-cc0666117399","system_id":"levelo_inurba_marseille","lat":43.23777,"lon":5.36634,"is_reserved":false,"is_disabled":false,"rental_uris":{"android":"levelo://app?vid=87f91ed8-5710-43df-8936-cc0666117399","ios":"levelo://app?vid=87f91ed8-5710-43df-8936-cc0666117399"},"vehicle_type_id":"4","last_reported":1762870252,"current_range_meters":17200,"station_id":"st_d3nk18o9ro0c73en2l3g","pricing_plan_id":"cebpf4jnsgd1na2vs0mg"},{"bike_id":"8eb5bd1a-a2a2-4b8a-b727-241a5e891360","system_id":"levelo_inurba_marseille","lat":43.2826,"lon":5.3508,"is_reserved":false,"is_disabled":false,"rental_uris":{"android":"levelo://app?vid=8eb5bd1a-a2a2-4b8a-b727-241a5e891360","ios":"levelo://app?vid=8eb5bd1a-a2a2-4b8a-b727-241a5e891360"},"vehicle_type_id":"4","last_reported":1762870252,"current_range_meters":17200,"station_id":"ce4bhbp2rcd13ifvqerg","pricing_plan_id":"cebpf4jnsgd1na2vs0mg"},{"bike_id":"e26730d9-d775-470c-bdea-e378dba7cda5","system_id":"levelo_inurba_marseille","lat":43.27361,"lon":5.36258,"is_reserved":false,"is_disabled":false,"rental_uris":{"android":"levelo://app?vid=e26730d9-d775-470c-bdea-e378dba7cda5","ios":"levelo://app?vid=e26730d9-d775-470c-bdea-e378dba7cda5"},"vehicle_type_id":"4","last_reported":1762870252,"current_range_meters":17200,"station_id":"ce4bhbh2rcd13ifvqeo0","pricing_plan_id":"cebpf4jnsgd1na2vs0mg"},{"bike_id":"c0f341b8-4ffd-42e9-a749-512db46f9b04","system_id":"levelo_inurba_marseille","lat":43.21212,"lon":5.35069,"is_reserved":false,"is_disabled":false,"rental_uris":{"android":"levelo://app?vid=c0f341b8-4ffd-42e9-a749-512db46f9b04","ios":"levelo://app?vid=c0f341b8-4ffd-42e9-a749-512db46f9b04"},"vehicle_type_id":"4","last_reported":1762870252,"current_range_meters":17600,"station_id":"st_cvj6sg6p6f1abm77japg","pricing_plan_id":"cebpf4jnsgd1na2vs0mg"},{"bike_id":"20136aa7-c2ce-4ffd-a9f0-958ea4793911","system_id":"levelo_inurba_marseille","lat":43.29629,"lon":5.40595,"is_reserved":false,"is_disabled":false,"rental_uris":{"android":"levelo://app?vid=20136aa7-c2ce-4ffd-a9f0-958ea4793911","ios":"levelo://app?vid=20136aa7-c2ce-4ffd-a9f0-958ea4793911"},"vehicle_type_id":"4","last_reported":1762870252,"current_range_meters":17600,"station_id":"ce4bh0h2rcd13ifvqd60","pricing_plan_id":"cebpf4jnsgd1na2vs0mg"},{"bike_id":"e22922e3-2f77-41ba-aa02-bca50b94f841","system_id":"levelo_inurba_marseille","lat":43.29304,"lon":5.37177,"is_reserved":false,"is_disabled":false,"rental_uris":{"android":"levelo://app?vid=e22922e3-2f77-41ba-aa02-bca50b94f841","ios":"levelo://app?vid=e22922e3-2f77-41ba-aa02-bca50b94f841"},"vehicle_type_id":"4","last_reported":1762870252,"current_range_meters":17600,"station_id":"ce4bgh92rcd13ifvqb40","pricing_plan_id":"cebpf4jnsgd1na2vs0mg"},{"bike_id":"5ddb7ec7-68d4-4a96-bf16-378a83f52348","system_id":"levelo_inurba_marseille","lat":43.28407,"lon":5.37524,"is_reserved":false,"is_disabled":false,"rental_uris":{"android":"levelo://app?vid=5ddb7ec7-68d4-4a96-bf16-378a83f52348","ios":"levelo://app?vid=5ddb7ec7-68d4-4a96-bf16-378a83f52348"},"vehicle_type_id":"4","last_reported":1762870252,"current_range_meters":17600,"station_id":"ce4bh412rcd13ifvqds0","pricing_plan_id":"cebpf4jnsgd1na2vs0mg"},{"bike_id":"750c5a1f-2533-4113-9881-1a2be48ba0a7","system_id":"levelo_inurba_marseille","lat":43.28835,"lon":5.35855,"is_reserved":false,"is_disabled":false,"rental_uris":{"android":"levelo://app?vid=750c5a1f-2533-4113-9881-1a2be48ba0a7","ios":"levelo://app?vid=750c5a1f-2533-4113-9881-1a2be48ba0a7"},"vehicle_type_id":"4","last_reported":1762870252,"current_range_meters":17600,"station_id":"ce4bhb12rcd13ifvqem0","pricing_plan_id":"cebpf4jnsgd1na2vs0mg"},{"bike_id":"abb0f07d-c804-480e-9ca9-09df1008d554","system_id":"levelo_inurba_marseille","lat":43.27359,"lon":5.36251,"is_reserved":false,"is_disabled":false,"rental_uris":{"android":"levelo://app?vid=abb0f07d-c804-480e-9ca9-09df1008d554","ios":"levelo://app?vid=abb0f07d-c804-480e-9ca9-09df1008d554"},"vehicle_type_id":"4","last_reported":1762870252,"current_range_meters":17600,"station_id":"ce4bhbh2rcd13ifvqeo0","pricing_plan_id":"cebpf4jnsgd1na2vs0mg"},{"bike_id":"04c7ac25-3cc5-4719-8396-8cb02b8dfd15","system_id":"levelo_inurba_marseille","lat":43.25085,"lon":5.3952,"is_reserved":false,"is_disabled":false,"rental_uris":{"android":"levelo://app?vid=04c7ac25-3cc5-4719-8396-8cb02b8dfd15","ios":"levelo://app?vid=04c7ac25-3cc5-4719-8396-8cb02b8dfd15"},"vehicle_type_id":"4","last_reported":1762870252,"current_range_meters":17600,"station_id":"ce4bhm12rcd13ifvqgkg","pricing_plan_id":"cebpf4jnsgd1na2vs0mg"},{"bike_id":"224a1ba3-4c9a-4c5d-abfc-f8db901f3bfe","system_id":"levelo_inurba_marseille","lat":43.28415,"lon":5.34985,"is_reserved":false,"is_disabled":false,"rental_uris":{"android":"levelo://app?vid=224a1ba3-4c9a-4c5d-abfc-f8db901f3bfe","ios":"levelo://app?vid=224a1ba3-4c9a-4c5d-abfc-f8db901f3bfe"},"vehicle_type_id":"4","last_reported":1762870252,"current_range_meters":17600,"station_id":"ce4bhbh2rcd13ifvqepg","pricing_plan_id":"cebpf4jnsgd1na2vs0mg"},{"bike_id":"c2b13543-ae87-4324-9d0b-473d3cca745c","system_id":"levelo_inurba_marseille","lat":43.243915,"lon":5.370728,"is_reserved":false,"is_disabled":false,"rental_uris":{"android":"levelo://app?vid=c2b13543-ae87-4324-9d0b-473d3cca745c","ios":"levelo://app?vid=c2b13543-ae87-4324-9d0b-473d3cca745c"},"vehicle_type_id":"4","last_reported":1762870252,"current_range_meters":17600,"station_id":"ce4bhhh2rcd13ifvqfk0","pricing_plan_id":"cebpf4jnsgd1na2vs0mg"},{"bike_id":"5804ac99-3bd4-4091-bff1-7487e9285e0c","system_id":"levelo_inurba_marseille","lat":43.29185,"lon":5.37583,"is_reserved":false,"is_disabled":false,"rental_uris":{"android":"levelo://app?vid=5804ac99-3bd4-4091-bff1-7487e9285e0c","ios":"levelo://app?vid=5804ac99-3bd4-4091-bff1-7487e9285e0c"},"vehicle_type_id":"4","last_reported":1762870252,"current_range_meters":17600,"station_id":"","pricing_plan_id":"cebpf4jnsgd1na2vs0mg"},{"bike_id":"93ff4334-3238-4645-aa5b-b66992313456","system_id":"levelo_inurba_marseille","lat":43.21188,"lon":5.35079,"is_reserved":false,"is_disabled":false,"rental_uris":{"android":"levelo://app?vid=93ff4334-3238-4645-aa5b-b66992313456","ios":"levelo://app?vid=93ff4334-3238-4645-aa5b-b66992313456"},"vehicle_type_id":"4","last_reported":1762870252,"current_range_meters":17600,"station_id":"st_cvj6sg6p6f1abm77japg","pricing_plan_id":"cebpf4jnsgd1na2vs0mg"},{"bike_id":"dfe8f111-f188-459f-9e32-7f25f4074b2a","system_id":"levelo_inurba_marseille","lat":43.30926,"lon":5.40159,"is_reserved":false,"is_disabled":false,"rental_uris":{"android":"levelo://app?vid=dfe8f111-f188-459f-9e32-7f25f4074b2a","ios":"levelo://app?vid=dfe8f111-f188-459f-9e32-7f25f4074b2a"},"vehicle_type_id":"4","last_reported":1762870252,"current_range_meters":17600,"station_id":"ce4bgvp2rcd13ifvqct0","pricing_plan_id":"cebpf4jnsgd1na2vs0mg"},{"bike_id":"cae8c237-20be-40a1-ad78-d7eb4e81ebc6","system_id":"levelo_inurba_marseille","lat":43.30375,"lon":5.42487,"is_reserved":false,"is_disabled":false,"rental_uris":{"android":"levelo://app?vid=cae8c237-20be-40a1-ad78-d7eb4e81ebc6","ios":"levelo://app?vid=cae8c237-20be-40a1-ad78-d7eb4e81ebc6"},"vehicle_type_id":"4","last_reported":1762870252,"current_range_meters":17600,"station_id":"ce4bhoh2rcd13ifvqh6g","pricing_plan_id":"cebpf4jnsgd1na2vs0mg"},{"bike_id":"8a552518-5a0f-4c30-8bdd-2c8799326311","system_id":"levelo_inurba_marseille","lat":43.229284,"lon":5.353688,"is_reserved":false,"is_disabled":false,"rental_uris":{"android":"levelo://app?vid=8a552518-5a0f-4c30-8bdd-2c8799326311","ios":"levelo://app?vid=8a552518-5a0f-4c30-8bdd-2c8799326311"},"vehicle_type_id":"4","last_reported":1762870252,"current_range_meters":17600,"station_id":"cpo3532slgdg3j2ikp40","pricing_plan_id":"cebpf4jnsgd1na2vs0mg"},{"bike_id":"ae1e442c-2e49-4ab3-a9e4-a2b32e3699e7","system_id":"levelo_inurba_marseille","lat":43.28619,"lon":5.37053,"is_reserved":false,"is_disabled":false,"rental_uris":{"android":"levelo://app?vid=ae1e442c-2e49-4ab3-a9e4-a2b32e3699e7","ios":"levelo://app?vid=ae1e442c-2e49-4ab3-a9e4-a2b32e3699e7"},"vehicle_type_id":"4","last_reported":1762870252,"current_range_meters":17600,"station_id":"ce4bht12rcd13ifvqi60","pricing_plan_id":"cebpf4jnsgd1na2vs0mg"},{"bike_id":"24576411-bddd-4c30-838b-560561a34033","system_id":"levelo_inurba_marseille","lat":43.278169,"lon":5.40712,"is_reserved":false,"is_disabled":false,"rental_uris":{"android":"levelo://app?vid=24576411-bddd-4c30-838b-560561a34033","ios":"levelo://app?vid=24576411-bddd-4c30-838b-560561a34033"},"vehicle_type_id":"4","last_reported":1762870252,"current_range_meters":17600,"station_id":"ce4bhnh2rcd13ifvqgtg","pricing_plan_id":"cebpf4jnsgd1na2vs0mg"},{"bike_id":"acbb65bc-33c1-4a32-bbc4-e92bb90688ec","system_id":"levelo_inurba_marseille","lat":43.275665,"lon":5.384316,"is_reserved":false,"is_disabled":false,"rental_uris":{"android":"levelo://app?vid=acbb65bc-33c1-4a32-bbc4-e92bb90688ec","ios":"levelo://app?vid=acbb65bc-33c1-4a32-bbc4-e92bb90688ec"},