{"last_updated":1685833592,"ttl":30,"version":"2.2","data":{"bikes":[{"bike_id":"b540663e-ddfd-4d0c-bff0-6562bb7285b6","system_id":"levelo_inurba_marseille","lat":43.309076,"lon":5.368465,"is_reserved":false,"is_disabled":false,"rental_uris":{"android":"levelo://app?vid=b540663e-ddfd-4d0c-bff0-6562bb7285b6","ios":"levelo://app?vid=b540663e-ddfd-4d0c-bff0-6562bb7285b6"},"vehicle_type_id":"4","last_reported":1685833592,"current_range_meters":8000,"station_id":"ce4bgn92rcd13ifvqbvg","pricing_plan_id":"free"},{"bike_id":"0d1e63fd-f18e-4bbd-a7d3-f4d00afcd323","system_id":"levelo_inurba_marseille","lat":43.314811,"lon":5.373103,"is_reserved":false,"is_disabled":false,"rental_uris":{"android":"levelo://app?vid=0d1e63fd-f18e-4bbd-a7d3-f4d00afcd323","ios":"levelo://app?vid=0d1e63fd-f18e-4bbd-a7d3-f4d00afcd323"},"vehicle_type_id":"4","last_reported":1685833592,"current_range_meters":17600,"station_id":"ce4bgt12rcd13ifvqcd0","pricing_plan_id":"free"},{"bike_id":"4d43e892-ec90-4fce-8475-f727fed3851f","system_id":"levelo_inurba_marseille","lat":43.31927,"lon":5.36679,"is_reserved":false,"is_disabled":false,"rental_uris":{"android":"levelo://app?vid=4d43e892-ec90-4fce-8475-f727fed3851f","ios":"levelo://app?vid=4d43e892-ec90-4fce-8475-f727fed3851f"},"vehicle_type_id":"4","last_reported":1685833592,"current_range_meters":3200,"station_id":"","pricing_plan_id":"free"},{"bike_id":"c6d606f1-6e15-4673-bc61-6e8efda8e598","system_id":"levelo_inurba_marseille","lat":43.305368,"lon":5.367343,"is_reserved":false,"is_disabled":false,"rental_uris":{"android":"levelo://app?vid=c6d606f1-6e15-4673-bc61-6e8efda8e598","ios":"levelo://app?vid=c6d606f1-6e15-4673-bc61-6e8efda8e598"},"vehicle_type_id":"4","last_reported":1685833592,"current_range_meters":28800,"station_id":"ce4bgrp2rcd13ifvqc9g","pricing_plan_id":"free"},{"bike_id":"535e6112-5666-42ec-a276-9dc7063c4dbd","system_id":"levelo_inurba_marseille","lat":43.311131,"lon":5.377651,"is_reserved":false,"is_disabled":false,"rental_uris":{"android":"levelo://app?vid=535e6112-5666-42ec-a276-9dc7063c4dbd","ios":"levelo://app?vid=535e6112-5666-42ec-a276-9dc7063c4dbd"},"vehicle_type_id":"4","last_reported":1685833592,"current_range_meters":26800,"station_id":"ce4bgt92rcd13ifvqcg0","pricing_plan_id":"free"},{"bike_id":"dff3f640-4b80-48f8-8dfe-074c2de3a61b","system_id":"levelo_inurba_marseille","lat":43.311131,"lon":5.377651,"is_reserved":false,"is_disabled":false,"rental_uris":{"android":"levelo://app?vid=dff3f640-4b80-48f8-8dfe-074c2de3a61b","ios":"levelo://app?vid=dff3f640-4b80-48f8-8dfe-074c2de3a61b"},"vehicle_type_id":"4","last_reported":1685833592,"current_range_meters":26000,"station_id":"ce4bgt92rcd13ifvqcg0","pricing_plan_id":"free"},{"bike_id":"e188480c-e2b1-4507-9011-63007e5c669b","system_id":"levelo_inurba_marseille","lat":43.30185,"lon":5.36625,"is_reserved":false,"is_disabled":false,"rental_uris":{"android":"levelo://app?vid=e188480c-e2b1-4507-9011-63007e5c669b","ios":"levelo://app?vid=e188480c-e2b1-4507-9011-63007e5c669b"},"vehicle_type_id":"4","last_reported":1685833592,"current_range_meters":9600,"station_id":"ce4bgrh2rcd13ifvqc8g","pricing_plan_id":"free"},{"bike_id":"84e0603c-0ed0-4f3e-ae97-c3dc6680e467","system_id":"levelo_inurba_marseille","lat":43.304606,"lon":5.379026,"is_reserved":false,"is_disabled":false,"rental_uris":{"android":"levelo://app?vid=84e0603c-0ed0-4f3e-ae97-c3dc6680e467","ios":"levelo://app?vid=84e0603c-0ed0-4f3e-ae97-c3dc6680e467"},"vehicle_type_id":"4","last_reported":1685833592,"current_range_meters":20800,"station_id":"ce4bgup2rcd13ifvqcn0","pricing_plan_id":"free"},{"bike_id":"994fd81e-6db6-4408-acc8-bec511d624f9","system_id":"levelo_inurba_marseille","lat":43.319935,"lon":5.381699,"is_reserved":false,"is_disabled":false,"rental_uris":{"android":"levelo://app?vid=994fd81e-6db6-4408-acc8-bec511d624f9","ios":"levelo://app?vid=994fd81e-6db6-4408-acc8-bec511d624f9"},"vehicle_type_id":"4","last_reported":1685833592,"current_range_meters":19200,"station_id":"ce4bhr12rcd13ifvqhpg","pricing_plan_id":"free"},{"bike_id":"1f1dc83b-8ccb-4689-a2db-9ce7e1fda49c","system_id":"levelo_inurba_marseille","lat":43.319935,"lon":5.381699,"is_reserved":false,"is_disabled":false,"rental_uris":{"android":"levelo://app?vid=1f1dc83b-8ccb-4689-a2db-9ce7e1fda49c","ios":"levelo://app?vid=1f1dc83b-8ccb-4689-a2db-9ce7e1fda49c"},"vehicle_type_id":"4","last_reported":1685833592,"current_range_meters":5600,"station_id":"ce4bhr12rcd13ifvqhpg","pricing_plan_id":"free"},{"bike_id":"580c91f6-6c87-4823-b79b-d87cf2e683c9","system_id":"levelo_inurba_marseille","lat":43.319935,"lon":5.381699,"is_reserved":false,"is_disabled":false,"rental_uris":{"android":"levelo://app?vid=580c91f6-6c87-4823-b79b-d87cf2e683c9","ios":"levelo://app?vid=580c91f6-6c87-4823-b79b-d87cf2e683c9"},"vehicle_type_id":"4","last_reported":1685833592,"current_range_meters":1200,"station_id":"ce4bhr12rcd13ifvqhpg","pricing_plan_id":"free"},{"bike_id":"ce0eafea-7a28-40e5-b49f-bbdc4e411c48","system_id":"levelo_inurba_marseille","lat":43.319935,"lon":5.381699,"is_reserved":false,"is_disabled":false,"rental_uris":{"android":"levelo://app?vid=ce0eafea-7a28-40e5-b49f-bbdc4e411c48","ios":"levelo://app?vid=ce0eafea-7a28-40e5-b49f-bbdc4e411c48"},"vehicle_type_id":"4","last_reported":1685833592,"current_range_meters":12800,"station_id":"ce4bhr12rcd13ifvqhpg","pricing_plan_id":"free"},{"bike_id":"c3ccfd1b-d59a-46b8-a52d-0a4015ad552b","system_id":"levelo_inurba_marseille","lat":43.31593,"lon":5.38416,"is_reserved":false,"is_disabled":false,"rental_uris":{"android":"levelo://app?vid=c3ccfd1b-d59a-46b8-a52d-0a4015ad552b","ios":"levelo://app?vid=c3ccfd1b-d59a-46b8-a52d-0a4015ad552b"},"vehicle_type_id":"4","last_reported":1685833592,"current_range_meters":14400,"station_id":"","pricing_plan_id":"free"},{"bike_id":"c84bd8a6-8dc8-4237-b84e-d0753762c0a2","system_id":"levelo_inurba_marseille","lat":43.313571,"lon":5.384829,"is_reserved":false,"is_disabled":false,"rental_uris":{"android":"levelo://app?vid=c84bd8a6-8dc8-4237-b84e-d0753762c0a2","ios":"levelo://app?vid=c84bd8a6-8dc8-4237-b84e-d0753762c0a2"},"vehicle_type_id":"4","last_reported":1685833592,"current_range_meters":30800,"station_id":"ce4bgt92rcd13ifvqcf0","pricing_plan_id":"free"},{"bike_id":"d9d247d9-9e28-4497-a65e-365a07986a7d","system_id":"levelo_inurba_marseille","lat":43.313571,"lon":5.384829,"is_reserved":false,"is_disabled":false,"rental_uris":{"android":"levelo://app?vid=d9d247d9-9e28-4497-a65e-365a07986a7d","ios":"levelo://app?vid=d9d247d9-9e28-4497-a65e-365a07986a7d"},"vehicle_type_id":"4","last_reported":1685833592,"current_range_meters":28400,"station_id":"ce4bgt92rcd13ifvqcf0","pricing_plan_id":"free"},{"bike_id":"b63943a0-9453-49fc-97d6-3e8255097f96","system_id":"levelo_inurba_marseille","lat":43.313571,"lon":5.384829,"is_reserved":false,"is_disabled":false,"rental_uris":{"android":"levelo://app?vid=b63943a0-9453-49fc-97d6-3e8255097f96","ios":"levelo://app?vid=b63943a0-9453-49fc-97d6-3e8255097f96"},"vehicle_type_id":"4","last_reported":1685833592,"current_range_meters":19200,"station_id":"ce4bgt92rcd13ifvqcf0","pricing_plan_id":"free"},{"bike_id":"cc361804-82e5-4efb-8f6d-531287b81982","system_id":"levelo_inurba_marseille","lat":43.313571,"lon":5.384829,"is_reserved":false,"is_disabled":false,"rental_uris":{"android":"levelo://app?vid=cc361804-82e5-4efb-8f6d-531287b81982","ios":"levelo://app?vid=cc361804-82e5-4efb-8f6d-531287b81982"},"vehicle_type_id":"4","last_reported":1685833592,"current_range_meters":31200,"station_id":"ce4bgt92rcd13ifvqcf0","pricing_plan_id":"free"},{"bike_id":"014b1ba4-b036-4608-93b8-019877ce1832","system_id":"levelo_inurba_marseille","lat":43.313571,"lon":5.384829,"is_reserved":false,"is_disabled":false,"rental_uris":{"android":"levelo://app?vid=014b1ba4-b036-4608-93b8-019877ce1832","ios":"levelo://app?vid=014b1ba4-b036-4608-93b8-019877ce1832"},"vehicle_type_id":"4","last_reported":1685833592,"current_range_meters":18800,"station_id":"ce4bgt92rcd13ifvqcf0","pricing_plan_id":"free"},{"bike_id":"77b1248e-24c5-490f-b5ae-5d0da8693aeb","system_id":"levelo_inurba_marseille","lat":43.31354,"lon":5.38495,"is_reserved":false,"is_disabled":false,"rental_uris":{"android":"levelo://app?vid=77b1248e-24c5-490f-b5ae-5d0da8693aeb","ios":"levelo://app?vid=77b1248e-24c5-490f-b5ae-5d0da8693aeb"},"vehicle_type_id":"4","last_reported":1685833592,"current_range_meters":31200,"station_id":"ce4bgt92rcd13ifvqcf0","pricing_plan_id":"free"},{"bike_id":"4157aaea-f9d2-49f9-8400-c19e150a5d82","system_id":"levelo_inurba_marseille","lat":43.313571,"lon":5.384829,"is_reserved":false,"is_disabled":false,"rental_uris":{"android":"levelo://app?vid=4157aaea-f9d2-49f9-8400-c19e150a5d82","ios":"levelo://app?vid=4157aaea-f9d2-49f9-8400-c19e150a5d82"},"vehicle_type_id":"4","last_reported":1685833592,"current_range_meters":23600,"station_id":"ce4bgt92rcd13ifvqcf0","pricing_plan_id":"free"},{"bike_id":"3e49beaf-5af3-433f-aa1f-36d7e66c0ad7","system_id":"levelo_inurba_marseille","lat":43.311722,"lon":5.387247,"is_reserved":false,"is_disabled":false,"rental_uris":{"android":"levelo://app?vid=3e49beaf-5af3-433f-aa1f-36d7e66c0ad7","ios":"levelo://app?vid=3e49beaf-5af3-433f-aa1f-36d7e66c0ad7"},"vehicle_type_id":"4","last_reported":1685833592,"current_range_meters":30400,"station_id":"ce4bgv12rcd13ifvqcp0","pricing_plan_id":"free"},{"bike_id":"b9cf6557-2db2-4828-97f1-13a369745ef6","system_id":"levelo_inurba_marseille","lat":43.32758,"lon":5.37477,"is_reserved":false,"is_disabled":false,"rental_uris":{"android":"levelo://app?vid=b9cf6557-2db2-4828-97f1-13a369745ef6","ios":"levelo://app?vid=b9cf6557-2db2-4828-97f1-13a369745ef6"},"vehicle_type_id":"4","last_reported":1685833592,"current_range_meters":6400,"station_id":"","pricing_plan_id":"free"},{"bike_id":"7471a15a-8df8-4add-84bd-45df5e608ff2","system_id":"levelo_inurba_marseille","lat":43.309589,"lon":5.390258,"is_reserved":false,"is_disabled":false,"rental_uris":{"android":"levelo://app?vid=7471a15a-8df8-4add-84bd-45df5e608ff2","ios":"levelo://app?vid=7471a15a-8df8-4add-84bd-45df5e608ff2"},"vehicle_type_id":"4","last_reported":1685833592,"current_range_meters":28800,"station_id":"ce4bgup2rcd13ifvqco0","pricing_plan_id":"free"},{"bike_id":"f12d9acb-b4e5-4a3c-8d44-42b099ebde0c","system_id":"levelo_inurba_marseille","lat":43.309589,"lon":5.390258,"is_reserved":false,"is_disabled":false,"rental_uris":{"android":"levelo://app?vid=f12d9acb-b4e5-4a3c-8d44-42b099ebde0c","ios":"levelo://app?vid=f12d9acb-b4e5-4a3c-8d44-42b099ebde0c"},"vehicle_type_id":"4","last_reported":1685833592,"current_range_meters":20800,"station_id":"ce4bgup2rcd13ifvqco0","pricing_plan_id":"free"},{"bike_id":"4879a260-9f1b-402b-bd89-3bac325db973","system_id":"levelo_inurba_marseille","lat":43.317557,"lon":5.390173,"is_reserved":false,"is_disabled":false,"rental_uris":{"android":"levelo://app?vid=4879a260-9f1b-402b-bd89-3bac325db973","ios":"levelo://app?vid=4879a260-9f1b-402b-bd89-3bac325db973"},"vehicle_type_id":"4","last_reported":1685833592,"current_range_meters":4000,"station_id":"ce4bhqp2rcd13ifvqhng","pricing_plan_id":"free"},{"bike_id":"92baffbb-31d4-451d-9d2c-a8b115aa4739","system_id":"levelo_inurba_marseille","lat":43.317557,"lon":5.390173,"is_reserved":false,"is_disabled":false,"rental_uris":{"android":"levelo://app?vid=92baffbb-31d4-451d-9d2c-a8b115aa4739","ios":"levelo://app?vid=92baffbb-31d4-451d-9d2c-a8b115aa4739"},"vehicle_type_id":"4","last_reported":1685833592,"current_range_meters":18800,"station_id":"ce4bhqp2rcd13ifvqhng","pricing_plan_id":"free"},{"bike_id":"c51dd003-5c0f-4568-9d83-864645c6cab7","system_id":"levelo_inurba_marseille","lat":43.317557,"lon":5.390173,"is_reserved":false,"is_disabled":false,"rental_uris":{"android":"levelo://app?vid=c51dd003-5c0f-4568-9d83-864645c6cab7","ios":"levelo://app?vid=c51dd003-5c0f-4568-9d83-864645c6cab7"},"vehicle_type_id":"4","last_reported":1685833592,"current_range_meters":4000,"station_id":"ce4bhqp2rcd13ifvqhng","pricing_plan_id":"free"},{"bike_id":"a5aaf8a8-b676-497f-92d4-c454aa45c212","system_id":"levelo_inurba_marseille","lat":43.32367,"lon":5.388836,"is_reserved":false,"is_disabled":false,"rental_uris":{"android":"levelo://app?vid=a5aaf8a8-b676-497f-92d4-c454aa45c212","ios":"levelo://app?vid=a5aaf8a8-b676-497f-92d4-c454aa45c212"},"vehicle_type_id":"4","last_reported":1685833592,"current_range_meters":400,"station_id":"ce4bhqp2rcd13ifvqhog","pricing_plan_id":"free"},{"bike_id":"b4a8a89d-3c98-4de8-98d5-d897b82539ca","system_id":"levelo_inurba_marseille","lat":43.32367,"lon":5.388836,"is_reserved":false,"is_disabled":false,"rental_uris":{"android":"levelo://app?vid=b4a8a89d-3c98-4de8-98d5-d897b82539ca","ios":"levelo://app?vid=b4a8a89d-3c98-4de8-98d5-d897b82539ca"},"vehicle_type_id":"4","last_reported":1685833592,"current_range_meters":20400,"station_id":"ce4bhqp2rcd13ifvqhog","pricing_plan_id":"free"},{"bike_id":"1619b961-36bd-4a7d-a354-b4d8cf39a904","system_id":"levelo_inurba_marseille","lat":43.32367,"lon":5.388836,"is_reserved":false,"is_disabled":false,"rental_uris":{"android":"levelo://app?vid=1619b961-36bd-4a7d-a354-b4d8cf39a904","ios":"levelo://app?vid=1619b961-36bd-4a7d-a354-b4d8cf39a904"},"vehicle_type_id":"4","last_reported":1685833592,"current_range_meters":11600,"station_id":"ce4bhqp2rcd13ifvqhog","pricing_plan_id":"free"},{"bike_id":"ce28f952-0366-40af-af5d-12fd1e486cbf","system_id":"levelo_inurba_marseille","lat":43.32367,"lon":5.388836,"is_reserved":false,"is_disabled":false,"rental_uris":{"android":"levelo://app?vid=ce28f952-0366-40af-af5d-12fd1e486cbf","ios":"levelo://app?vid=ce28f952-0366-40af-af5d-12fd1e486cbf"},"vehicle_type_id":"4","last_reported":1685833592,"current_range_meters":29200,"station_id":"ce4bhqp2rcd13ifvqhog","pricing_plan_id":"free"},{"bike_id":"0062f11d-ebdc-47dc-9119-988c9160dbfc","system_id":"levelo_inurba_marseille","lat":43.292749,"lon":5.368402,"is_reserved":false,"is_disabled":false,"rental_uris":{"android":"levelo://app?vid=0062f11d-ebdc-47dc-9119-988c9160dbfc","ios":"levelo://app?vid=0062f11d-ebdc-47dc-9119-988c9160dbfc"},"vehicle_type_id":"4","last_reported":1685833592,"current_range_meters":1200,"station_id":"ce4bhbp2rcd13ifvqesg","pricing_plan_id":"free"},{"bike_id":"c32f7363-c622-4f13-9048-728a274b40ce","system_id":"levelo_inurba_marseille","lat":43.29297,"lon":5.37165,"is_reserved":false,"is_disabled":false,"rental_uris":{"android":"levelo://app?vid=c32f7363-c622-4f13-9048-728a274b40ce","ios":"levelo://app?vid=c32f7363-c622-4f13-9048-728a274b40ce"},"vehicle_type_id":"4","last_reported":1685833592,"current_range_meters":31200,"station_id":"","pricing_plan_id":"free"},{"bike_id":"54b6b121-ed7f-4892-a7c4-ab976d2f6f33","system_id":"levelo_inurba_marseille","lat":43.30302,"lon":5.39201,"is_reserved":false,"is_disabled":false,"rental_uris":{"android":"levelo://app?vid=54b6b121-ed7f-4892-a7c4-ab976d2f6f33","ios":"levelo://app?vid=54b6b121-ed7f-4892-a7c4-ab976d2f6f33"},"vehicle_type_id":"4","last_reported":1685833592,"current_range_meters":8400,"station_id":"ce4bgkh2rcd13ifvqbk0","pricing_plan_id":"free"},{"bike_id":"9eb6767b-216e-47ae-ade7-31b02b43d6c6","system_id":"levelo_inurba_marseille","lat":43.292311,"lon":5.360731,"is_reserved":false,"is_disabled":false,"rental_uris":{"android":"levelo://app?vid=9eb6767b-216e-47ae-ade7-31b02b43d6c6","ios":"levelo://app?vid=9eb6767b-216e-47ae-ade7-31b02b43d6c6"},"vehicle_type_id":"4","last_reported":1685833592,"current_range_meters":28800,"station_id":"ce4bhbh2rcd13ifvqeqg","pricing_plan_id":"free"},{"bike_id":"e906d83e-5055-425b-a163-45e6ad0539c7","system_id":"levelo_inurba_marseille","lat":43.292311,"lon":5.360731,"is_reserved":false,"is_disabled":false,"rental_uris":{"android":"levelo://app?vid=e906d83e-5055-425b-a163-45e6ad0539c7","ios":"levelo://app?vid=e906d83e-5055-425b-a163-45e6ad0539c7"},"vehicle_type_id":"4","last_reported":1685833592,"current_range_meters":31200,"station_id":"ce4bhbh2rcd13ifvqeqg","pricing_plan_id":"free"},{"bike_id":"b3970308-a358-4c8d-b8dc-ce497471e78c","system_id":"levelo_inurba_marseille","lat":43.29192,"lon":5.35793,"is_reserved":false,"is_disabled":false,"rental_uris":{"android":"levelo://app?vid=b3970308-a358-4c8d-b8dc-ce497471e78c","ios":"levelo://app?vid=b3970308-a358-4c8d-b8dc-ce497471e78c"},"vehicle_type_id":"4","last_reported":1685833592,"current_range_meters":31200,"station_id":"ce4bhb12rcd13ifvqel0","pricing_plan_id":"free"},{"bike_id":"00fc914c-b6cf-4625-ada5-781182dd1438","system_id":"levelo_inurba_marseille","lat":43.309038,"lon":5.396546,"is_reserved":false,"is_disabled":false,"rental_uris":{"android":"levelo://app?vid=00fc914c-b6cf-4625-ada5-781182dd1438","ios":"levelo://app?vid=00fc914c-b6cf-4625-ada5-781182dd1438"},"vehicle_type_id":"4","last_reported":1685833592,"current_range_meters":0,"station_id":"ce4bh012rcd13ifvqcv0","pricing_plan_id":"free"},{"bike_id":"9cbabaa0-1e90-4ca2-bfb8-3b456442e307","system_id":"levelo_inurba_marseille","lat":43.309038,"lon":5.396546,"is_reserved":false,"is_disabled":false,"rental_uris":{"android":"levelo://app?vid=9cbabaa0-1e90-4ca2-bfb8-3b456442e307","ios":"levelo://app?vid=9cbabaa0-1e90-4ca2-bfb8-3b456442e307"},"vehicle_type_id":"4","last_reported":1685833592,"current_range_meters":22400,"station_id":"ce4bh012rcd13ifvqcv0","pricing_plan_id":"free"},{"bike_id":"291a178c-f7ac-4b5b-8b20-fbd6ae82a33c","system_id":"levelo_inurba_marseille","lat":43.309038,"lon":5.396546,"is_reserved":false,"is_disabled":false,"rental_uris":{"android":"levelo://app?vid=291a178c-f7ac-4b5b-8b20-fbd6ae82a33c","ios":"levelo://app?vid=291a178c-f7ac-4b5b-8b20-fbd6ae82a33c"},"vehicle_type_id":"4","last_reported":1685833592,"current_range_meters":18400,"station_id":"ce4bh012rcd13ifvqcv0","pricing_plan_id":"free"},{"bike_id":"8d4526bb-0eb7-412c-9b1c-f481ae53bf1d","system_id":"levelo_inurba_marseille","lat":43.290779,"lon":5.371482,"is_reserved":false,"is_disabled":false,"rental_uris":{"android":"levelo://app?vid=8d4526bb-0eb7-412c-9b1c-f481ae53bf1d","ios":"levelo://app?vid=8d4526bb-0eb7-412c-9b1c-f481ae53bf1d"},"vehicle_type_id":"4","last_reported":1685833592,"current_range_meters":31200,"station_id":"ce4bh5p2rcd13ifvqe4g","pricing_plan_id":"free"},{"bike_id":"094aa63c-dd1b-4391-ab61-348c49ce5dd0","system_id":"levelo_inurba_marseille","lat":43.29071,"lon":5.3715,"is_reserved":false,"is_disabled":false,"rental_uris":{"android":"levelo://app?vid=094aa63c-dd1b-4391-ab61-348c49ce5dd0","ios":"levelo://app?vid=094aa63c-dd1b-4391-ab61-348c49ce5dd0"},"vehicle_type_id":"4","last_reported":1685833592,"current_range_meters":23200,"station_id":"ce4bh5p2rcd13ifvqe4g","pricing_plan_id":"free"},{"bike_id":"a1d588f9-8125-4a8f-9f59-c1cf1bdc5430","system_id":"levelo_inurba_marseille","lat":43.32814,"lon":5.38924,"is_reserved":false,"is_disabled":false,"rental_uris":{"android":"levelo://app?vid=a1d588f9-8125-4a8f-9f59-c1cf1bdc5430","ios":"levelo://app?vid=a1d588f9-8125-4a8f-9f59-c1cf1bdc5430"},"vehicle_type_id":"4","last_reported":1685833592,"current_range_meters":15200,"station_id":"","pricing_plan_id":"free"},{"bike_id":"cc0e9865-cc92-4ff5-a38c-f17a97ac5661","system_id":"levelo_inurba_marseille","lat":43.29062,"lon":5.37171,"is_reserved":false,"is_disabled":false,"rental_uris":{"android":"levelo://app?vid=cc0e9865-cc92-4ff5-a38c-f17a97ac5661","ios":"levelo://app?vid=cc0e9865-cc92-4ff5-a38c-f17a97ac5661"},"vehicle_type_id":"4","last_reported":1685833592,"current_range_meters":31200,"station_id":"ce4bh5p2rcd13ifvqe4g","pricing_plan_id":"free"},{"bike_id":"81cbda9b-12c6-4df8-8ba2-4ac854f1a33d","system_id":"levelo_inurba_marseille","lat":43.290779,"lon":5.371482,"is_reserved":false,"is_disabled":false,"rental_uris":{"android":"levelo://app?vid=81cbda9b-12c6-4df8-8ba2-4ac854f1a33d","ios":"levelo://app?vid=81cbda9b-12c6-4df8-8ba2-4ac854f1a33d"},"vehicle_type_id":"4","last_reported":1685833592,"current_range_meters":30800,"station_id":"ce4bh5p2rcd13ifvqe4g","pricing_plan_id":"free"},{"bike_id":"ab3281fc-39f2-4569-b770-cdd34d720290","system_id":"levelo_inurba_marseille","lat":43.290624,"lon":5.359245,"is_reserved":false,"is_disabled":false,"rental_uris":{"android":"levelo://app?vid=ab3281fc-39f2-4569-b770-cdd34d720290","ios":"levelo://app?vid=ab3281fc-39f2-4569-b770-cdd34d720290"},"vehicle_type_id":"4","last_reported":1685833592,"current_range_meters":2400,"station_id":"ce4bha92rcd13ifvqeg0","pricing_plan_id":"free"},{"bike_id":"ab9fc59a-640a-40be-886b-ea61460bde57","system_id":"levelo_inurba_marseille","lat":43.29037,"lon":5.3591,"is_reserved":false,"is_disabled":false,"rental_uris":{"android":"levelo://app?vid=ab9fc59a-640a-40be-886b-ea61460bde57","ios":"levelo://app?vid=ab9fc59a-640a-40be-886b-ea61460bde57"},"vehicle_type_id":"4","last_reported":1685833592,"current_range_meters":20000,"station_id":"","pricing_plan_id":"free"},{"bike_id":"4f8d7fb1-add7-44ea-98e8-ee60ffdebadd","system_id":"levelo_inurba_marseille","lat":43.290631,"lon":5.359244,"is_reserved":false,"is_disabled":false,"rental_uris":{"android":"levelo://app?vid=4f8d7fb1-add7-44ea-98e8-ee60ffdebadd","ios":"levelo://app?vid=4f8d7fb1-add7-44ea-98e8-ee60ffdebadd"},"vehicle_type_id":"4","last_reported":1685833592,"current_range_meters":8800,"station_id":"ce4bha92rcd13ifvqeg0","pricing_plan_id":"free"},{"bike_id":"b30fce2f-5ddf-426f-b4a1-68823225cecf","system_id":"levelo_inurba_marseille","lat":43.294153,"lon":5.386305,"is_reserved":false,"is_disabled":false,"rental_uris":{"android":"levelo://app?vid=b30fce2f-5ddf-426f-b4a1-68823225cecf","ios":"levelo://app?vid=b30fce2f-5ddf-426f-b4a1-68823225cecf"},"vehicle_type_id":"4","last_reported":1685833592,"current_range_meters":28000,"station_id":"ce4bh2h2rcd13ifvqdh0","pricing_plan_id":"free"},{"bike_id":"8e46e89d-ab62-4423-8d5d-8742687bd7ae","system_id":"levelo_inurba_marseille","lat":43.294153,"lon":5.386305,"is_reserved":false,"is_disabled":false,"rental_uris":{"android":"levelo://app?vid=8e46e89d-ab62-4423-8d5d-8742687bd7ae","ios":"levelo://app?vid=8e46e89d-ab62-4423-8d5d-8742687bd7ae"},"vehicle_type_id":"4","last_reported":1685833592,"current_range_meters":27600,"station_id":"ce4bh2h2rcd13ifvqdh0","pricing_plan_id":"free"},{"bike_id":"0a8aba60-b51b-427d-be66-8709066b23d1","system_id":"levelo_inurba_marseille","lat":43.33211,"lon":5.38558,"is_reserved":false,"is_disabled":false,"rental_uris":{"android":"levelo://app?vid=0a8aba60-b51b-427d-be66-8709066b23d1","ios":"levelo://app?vid=0a8aba60-b51b-427d-be66-8709066b23d1"},"vehicle_type_id":"4","last_reported":1685833592,"current_range_meters":27600,"station_id":"","pricing_plan_id":"free"},{"bike_id":"ece4a0bd-e886-4699-9325-d0ca174226c9","system_id":"levelo_inurba_marseille","lat":43.30433,"lon":5.39747,"is_reserved":false,"is_disabled":false,"rental_uris":{"android":"levelo://app?vid=ece4a0bd-e886-4699-9325-d0ca174226c9","ios":"levelo://app?vid=ece4a0bd-e886-4699-9325-d0ca174226c9"},"vehicle_type_id":"4","last_reported":1685833592,"current_range_meters":2000,"station_id":"ce4bh092rcd13ifvqd20","pricing_plan_id":"free"},{"bike_id":"1c4a5d89-01bc-4130-9591-e3ca4cb1ba1e","system_id":"levelo_inurba_marseille","lat":43.33038,"lon":5.38917,"is_reserved":false,"is_disabled":false,"rental_uris":{"android":"levelo://app?vid=1c4a5d89-01bc-4130-9591-e3ca4cb1ba1e","ios":"levelo://app?vid=1c4a5d89-01bc-4130-9591-e3ca4cb1ba1e"},"vehicle_type_id":"4","last_reported":1685833592,"current_range_meters":28000,"station_id":"ce4bhr92rcd13ifvqhrg","pricing_plan_id":"free"},{"bike_id":"5cbcf543-d288-404c-bac6-328ef38ba2d8","system_id":"levelo_inurba_marseille","lat":43.33039,"lon":5.3892,"is_reserved":false,"is_disabled":false,"rental_uris":{"android":"levelo://app?vid=5cbcf543-d288-404c-bac6-328ef38ba2d8","ios":"levelo://app?vid=5cbcf543-d288-404c-bac6-328ef38ba2d8"},"vehicle_type_id":"4","last_reported":1685833592,"current_range_meters":22000,"station_id":"ce4bhr92rcd13ifvqhrg","pricing_plan_id":"free"},{"bike_id":"dcb00244-aef9-4eec-91cd-42ea75ebd82c","system_id":"levelo_inurba_marseille","lat":43.33047,"lon":5.38908,"is_reserved":false,"is_disabled":false,"rental_uris":{"android":"levelo://app?vid=dcb00244-aef9-4eec-91cd-42ea75ebd82c","ios":"levelo://app?vid=dcb00244-aef9-4eec-91cd-42ea75ebd82c"},"vehicle_type_id":"4","last_reported":1685833592,"current_range_meters":6000,"station_id":"ce4bhr92rcd13ifvqhrg","pricing_plan_id":"free"},{"bike_id":"05f1a2c7-d830-495c-86b8-292585194459","system_id":"levelo_inurba_marseille","lat":43.3304,"lon":5.38921,"is_reserved":false,"is_disabled":false,"rental_uris":{"android":"levelo://app?vid=05f1a2c7-d830-495c-86b8-292585194459","ios":"levelo://app?vid=05f1a2c7-d830-495c-86b8-292585194459"},"vehicle_type_id":"4","last_reported":1685833592,"current_range_meters":21600,"station_id":"ce4bhr92rcd13ifvqhrg","pricing_plan_id":"free"},{"bike_id":"0456b2c1-8a4f-4e94-ae33-a548e7711bcf","system_id":"levelo_inurba_marseille","lat":43.33045,"lon":5.38915,"is_reserved":false,"is_disabled":false,"rental_uris":{"android":"levelo://app?vid=0456b2c1-8a4f-4e94-ae33-a548e7711bcf","ios":"levelo://app?vid=0456b2c1-8a4f-4e94-ae33-a548e7711bcf"},"vehicle_type_id":"4","last_reported":1685833592,"current_range_meters":14800,"station_id":"ce4bhr92rcd13ifvqhrg","pricing_plan_id":"free"},{"bike_id":"e2b942e0-3901-4124-a71d-a8535684af38","system_id":"levelo_inurba_marseille","lat":43.33046,"lon":5.38914,"is_reserved":false,"is_disabled":false,"rental_uris":{"android":"levelo://app?vid=e2b942e0-3901-4124-a71d-a8535684af38","ios":"levelo://app?vid=e2b942e0-3901-4124-a71d-a8535684af38"},"vehicle_type_id":"4","last_reported":1685833592,"current_range_meters":28800,"station_id":"ce4bhr92rcd13ifvqhrg","pricing_plan_id":"free"},{"bike_id":"fb27c29a-419a-4561-a252-1ed0ab5dd97b","system_id":"levelo_inurba_marseille","lat":43.28888,"lon":5.37213,"is_reserved":false,"is_disabled":false,"rental_uris":{"android":"levelo://app?vid=fb27c29a-419a-4561-a252-1ed0ab5dd97b","ios":"levelo://app?vid=fb27c29a-419a-4561-a252-1ed0ab5dd97b"},"vehicle_type_id":"4","last_reported":1685833592,"current_range_meters":18400,"station_id":"","pricing_plan_id":"free"},{"bike_id":"c0c7548a-9b4d-412d-a5db-283f06cbad57","system_id":"levelo_inurba_marseille","lat":43.31191,"lon":5.4012,"is_reserved":false,"is_disabled":false,"rental_uris":{"android":"levelo://app?vid=c0c7548a-9b4d-412d-a5db-283f06cbad57","ios":"levelo://app?vid=c0c7548a-9b4d-412d-a5db-283f06cbad57"},"vehicle_type_id":"4","last_reported":1685833592,"current_range_meters":2000,"station_id":"","pricing_plan_id":"free"},{"bike_id":"ced50438-44b2-4b06-817c-cc4813b62ae0","system_id":"levelo_inurba_marseille","lat":43.28856,"lon":5.358371,"is_reserved":false,"is_disabled":false,"rental_uris":{"android":"levelo://app?vid=ced50438-44b2-4b06-817c-cc4813b62ae0","ios":"levelo://app?vid=ced50438-44b2-4b06-817c-cc4813b62ae0"},"vehicle_type_id":"4","last_reported":1685833592,"current_range_meters":22800,"station_id":"ce4bhb12rcd13ifvqem0","pricing_plan_id":"free"},{"bike_id":"1dc2cc99-6997-4e64-abe8-10878865daff","system_id":"levelo_inurba_marseille","lat":43.30934,"lon":5.4013,"is_reserved":false,"is_disabled":false,"rental_uris":{"android":"levelo://app?vid=1dc2cc99-6997-4e64-abe8-10878865daff","ios":"levelo://app?vid=1dc2cc99-6997-4e64-abe8-10878865daff"},"vehicle_type_id":"4","last_reported":1685833592,"current_range_meters":16000,"station_id":"","pricing_plan_id":"free"},{"bike_id":"8f950625-af2d-4089-844d-37bd38107aa9","system_id":"levelo_inurba_marseille","lat":43.33751,"lon":5.3744,"is_reserved":false,"is_disabled":false,"rental_uris":{"android":"levelo://app?vid=8f950625-af2d-4089-844d-37bd38107aa9","ios":"levelo://app?vid=8f950625-af2d-4089-844d-37bd38107aa9"},"vehicle_type_id":"4","last_reported":1685833592,"current_range_meters":30800,"station_id":"","pricing_plan_id":"free"},{"bike_id":"cf0caa37-cec8-408b-98f7-37211a80813c","system_id":"levelo_inurba_marseille","lat":43.33754,"lon":5.37423,"is_reserved":false,"is_disabled":false,"rental_uris":{"android":"levelo://app?vid=cf0caa37-cec8-408b-98f7-37211a80813c","ios":"levelo://app?vid=cf0caa37-cec8-408b-98f7-37211a80813c"},"vehicle_type_id":"4","last_reported":1685833592,"current_range_meters":29600,"station_id":"","pricing_plan_id":"free"},{"bike_id":"675927e0-ab95-41a0-80be-7ee111a218f5","system_id":"levelo_inurba_marseille","lat":43.3375,"lon":5.37472,"is_reserved":false,"is_disabled":false,"rental_uris":{"android":"levelo://app?vid=675927e0-ab95-41a0-80be-7ee111a218f5","ios":"levelo://app?vid=675927e0-ab95-41a0-80be-7ee111a218f5"},"vehicle_type_id":"4","last_reported":1685833592,"current_range_meters":30000,"station_id":"","pricing_plan_id":"free"},{"bike_id":"99dfc315-6bd3-4770-a14f-dd00504c7b4b","system_id":"levelo_inurba_marseille","lat":43.30642,"lon":5.401031,"is_reserved":false,"is_disabled":false,"rental_uris":{"android":"levelo://app?vid=99dfc315-6bd3-4770-a14f-dd00504c7b4b","ios":"levelo://app?vid=99dfc315-6bd3-4770-a14f-dd00504c7b4b"},"vehicle_type_id":"4","last_reported":1685833592,"current_range_meters":28000,"station_id":"ce4bh112rcd13ifvqda0","pricing_plan_id":"free"},{"bike_id":"b2aa88e1-f835-42f3-b050-88b0b16d4ac2","system_id":"levelo_inurba_marseille","lat":43.301117,"lon":5.398795,"is_reserved":false,"is_disabled":false,"rental_uris":{"android":"levelo://app?vid=b2aa88e1-f835-42f3-b050-88b0b16d4ac2","ios":"levelo://app?vid=b2aa88e1-f835-42f3-b050-88b0b16d4ac2"},"vehicle_type_id":"4","last_reported":1685833592,"current_range_meters":3600,"station_id":"ce4bh0h2rcd13ifvqd40","pricing_plan_id":"free"},{"bike_id":"2ded25c7-acaa-49c0-8e56-e59fb688a1d2","system_id":"levelo_inurba_marseille","lat":43.30247,"lon":5.4008,"is_reserved":false,"is_disabled":false,"rental_uris":{"android":"levelo://app?vid=2ded25c7-acaa-49c0-8e56-e59fb688a1d2","ios":"levelo://app?vid=2ded25c7-acaa-49c0-8e56-e59fb688a1d2"},"vehicle_type_id":"4","last_reported":1685833592,"current_range_meters":5200,"station_id":"","pricing_plan_id":"free"},{"bike_id":"490ad145-f310-4356-98b7-217e31d6000b","system_id":"levelo_inurba_marseille","lat":43.313571,"lon":5.384829,"is_reserved":false,"is_disabled":false,"rental_uris":{"android":"levelo://app?vid=490ad145-f310-4356-98b7-217e31d6000b","ios":"levelo://app?vid=490ad145-f310-4356-98b7-217e31d6000b"},"vehicle_type_id":"4","last_reported":1685833592,"current_range_meters":19200,"station_id":"ce4bgt92rcd13ifvqcf0","pricing_plan_id":"free"},{"bike_id":"21db09dc-573e-4c8f-87f7-ca2ce145debc","system_id":"levelo_inurba_marseille","lat":43.291994,"lon":5.392907,"is_reserved":false,"is_disabled":false,"rental_uris":{"android":"levelo://app?vid=21db09dc-573e-4c8f-87f7-ca2ce145debc","ios":"levelo://app?vid=21db09dc-573e-4c8f-87f7-ca2ce145debc"},"vehicle_type_id":"4","last_reported":1685833592,"current_range_meters":28400,"station_id":"ce4bh192rcd13ifvqdd0","pricing_plan_id":"free"},{"bike_id":"a0989496-32ac-412d-838b-43b12e39272b","system_id":"levelo_inurba_marseille","lat":43.284538,"lon":5.358657,"is_reserved":false,"is_disabled":false,"rental_uris":{"android":"levelo://app?vid=a0989496-32ac-412d-838b-43b12e39272b","ios":"levelo://app?vid=a0989496-32ac-412d-838b-43b12e39272b"},"vehicle_type_id":"4","last_reported":1685833592,"current_range_meters":29600,"station_id":"ce4bhah2rcd13ifvqei0","pricing_plan_id":"free"},{"bike_id":"85b2321c-2979-4bb1-9990-f0d7eed5d3d1","system_id":"levelo_inurba_marseille","lat":43.284538,"lon":5.358657,"is_reserved":false,"is_disabled":false,"rental_uris":{"android":"levelo://app?vid=85b2321c-2979-4bb1-9990-f0d7eed5d3d1","ios":"levelo://app?vid=85b2321c-2979-4bb1-9990-f0d7eed5d3d1"},"vehicle_type_id":"4","last_reported":1685833592,"current_range_meters":30000,"station_id":"ce4bhah2rcd13ifvqei0","pricing_plan_id":"free"},{"bike_id":"ecbb49cc-fb2d-4314-902e-f7c29d56dedf","system_id":"levelo_inurba_marseille","lat":43.284534,"lon":5.358662,"is_reserved":false,"is_disabled":false,"rental_uris":{"android":"levelo://app?vid=ecbb49cc-fb2d-4314-902e-f7c29d56dedf","ios":"levelo://app?vid=ecbb49cc-fb2d-4314-902e-f7c29d56dedf"},"vehicle_type_id":"4","last_reported":1685833592,"current_range_meters":30800,"station_id":"ce4bhah2rcd13ifvqei0","pricing_plan_id":"free"},{"bike_id":"c59f92ed-7f3f-4c65-90f0-b99748492ef7","system_id":"levelo_inurba_marseille","lat":43.284534,"lon":5.358662,"is_reserved":false,"is_disabled":false,"rental_uris":{"android":"levelo://app?vid=c59f92ed-7f3f-4c65-90f0-b99748492ef7","ios":"levelo://app?vid=c59f92ed-7f3f-4c65-90f0-b99748492ef7"},"vehicle_type_id":"4","last_reported":1685833592,"current_range_meters":30400,"station_id":"ce4bhah2rcd13ifvqei0","pricing_plan_id":"free"},{"bike_id":"fe8e2a7c-d84a-4d14-ae3c-3aa34858121c","system_id":"levelo_inurba_marseille","lat":43.285856,"lon":5.350771,"is_reserved":false,"is_disabled":false,"rental_uris":{"android":"levelo://app?vid=fe8e2a7c-d84a-4d14-ae3c-3aa34858121c","ios":"levelo://app?vid=fe8e2a7c-d84a-4d14-ae3c-3aa34858121c"},"vehicle_type_id":"4","last_reported":1685833592,"current_range_meters":31200,"station_id":"ce4bhch2rcd13ifvqeug","pricing_plan_id":"free"},{"bike_id":"a4dd79d3-e374-4269-bde9-461b49d0c5a6","system_id":"levelo_inurba_marseille","lat":43.28615,"lon":5.35105,"is_reserved":false,"is_disabled":false,"rental_uris":{"android":"levelo://app?vid=a4dd79d3-e374-4269-bde9-461b49d0c5a6","ios":"levelo://app?vid=a4dd79d3-e374-4269-bde9-461b49d0c5a6"},"vehicle_type_id":"4","last_reported":1685833592,"current_range_meters":14000,"station_id":"","pricing_plan_id":"free"},{"bike_id":"0318ca7b-fcde-4898-96b5-0b325392a244","system_id":"levelo_inurba_marseille","lat":43.285856,"lon":5.350771,"is_reserved":false,"is_disabled":false,"rental_uris":{"android":"levelo://app?vid=0318ca7b-fcde-4898-96b5-0b325392a244","ios":"levelo://app?vid=0318ca7b-fcde-4898-96b5-0b325392a244"},"vehicle_type_id":"4","last_reported":1685833592,"current_range_meters":31200,"station_id":"ce4bhch2rcd13ifvqeug","pricing_plan_id":"free"},{"bike_id":"0a5e25f5-e34a-4905-8427-38a3f4f7cb23","system_id":"levelo_inurba_marseille","lat":43.28617,"lon":5.35097,"is_reserved":false,"is_disabled":false,"rental_uris":{"android":"levelo://app?vid=0a5e25f5-e34a-4905-8427-38a3f4f7cb23","ios":"levelo://app?vid=0a5e25f5-e34a-4905-8427-38a3f4f7cb23"},"vehicle_type_id":"4","last_reported":1685833592,"current_range_meters":26000,"station_id":"","pricing_plan_id":"free"},{"bike_id":"3e09b0fa-dd8c-4079-8346-e8dd3caf896d","system_id":"levelo_inurba_marseille","lat":43.28616,"lon":5.35099,"is_reserved":false,"is_disabled":false,"rental_uris":{"android":"levelo://app?vid=3e09b0fa-dd8c-4079-8346-e8dd3caf896d","ios":"levelo://app?vid=3e09b0fa-dd8c-4079-8346-e8dd3caf896d"},"vehicle_type_id":"4","last_reported":1685833592,"current_range_meters":31200,"station_id":"","pricing_plan_id":"free"},{"bike_id":"c030ed44-1097-48a9-8354-bbbbde62a048","system_id":"levelo_inurba_marseille","lat":43.286151,"lon":5.351004,"is_reserved":false,"is_disabled":false,"rental_uris":{"android":"levelo://app?vid=c030ed44-1097-48a9-8354-bbbbde62a048","ios":"levelo://app?vid=c030ed44-1097-48a9-8354-bbbbde62a048"},"vehicle_type_id":"4","last_reported":1685833592,"current_range_meters":30800,"station_id":"","pricing_plan_id":"free"},{"bike_id":"810b2257-cd2e-4601-b06b-605319169af8","system_id":"levelo_inurba_marseille","lat":43.285848,"lon":5.350787,"is_reserved":false,"is_disabled":false,"rental_uris":{"android":"levelo://app?vid=810b2257-cd2e-4601-b06b-605319169af8","ios":"levelo://app?vid=810b2257-cd2e-4601-b06b-605319169af8"},"vehicle_type_id":"4","last_reported":1685833592,"current_range_meters":31200,"station_id":"ce4bhch2rcd13ifvqeug","pricing_plan_id":"free"},{"bike_id":"b205e703-9cc6-479d-b47b-dcec15459f4d","system_id":"levelo_inurba_marseille","lat":43.32666,"lon":5.40378,"is_reserved":false,"is_disabled":false,"rental_uris":{"android":"levelo://app?vid=b205e703-9cc6-479d-b47b-dcec15459f4d","ios":"levelo://app?vid=b205e703-9cc6-479d-b47b-dcec15459f4d"},"vehicle_type_id":"4","last_reported":1685833592,"current_range_meters":15600,"station_id":"","pricing_plan_id":"free"},{"bike_id":"7abde23f-6359-4a17-bba2-16292bf78416","system_id":"levelo_inurba_marseille","lat":43.284793,"lon":5.384119,"is_reserved":false,"is_disabled":false,"rental_uris":{"android":"levelo://app?vid=7abde23f-6359-4a17-bba2-16292bf78416","ios":"levelo://app?vid=7abde23f-6359-4a17-bba2-16292bf78416"},"vehicle_type_id":"4","last_reported":1685833592,"current_range_meters":22000,"station_id":"ce4bh512rcd13ifvqe3g","pricing_plan_id":"free"},{"bike_id":"2a6abed7-eca0-4fa3-9186-7aa4bf8a3397","system_id":"levelo_inurba_marseille","lat":43.283498,"lon":5.380948,"is_reserved":false,"is_disabled":false,"rental_uris":{"android":"levelo://app?vid=2a6abed7-eca0-4fa3-9186-7aa4bf8a3397","ios":"levelo://app?vid=2a6abed7-eca0-4fa3-9186-7aa4bf8a3397"},"vehicle_type_id":"4","last_reported":1685833592,"current_range_meters":25600,"station_id":"ce4bh412rcd13ifvqdr0","pricing_plan_id":"free"},{"bike_id":"4f9f692d-b24b-40c2-918c-7c5abd72ef5d","system_id":"levelo_inurba_marseille","lat":43.2842,"lon":5.34982,"is_reserved":false,"is_disabled":false,"rental_uris":{"android":"levelo://app?vid=4f9f692d-b24b-40c2-918c-7c5abd72ef5d","ios":"levelo://app?vid=4f9f692d-b24b-40c2-918c-7c5abd72ef5d"},"vehicle_type_id":"4","last_reported":1685833592,"current_range_meters":20400,"station_id":"ce4bhbh2rcd13ifvqepg","pricing_plan_id":"free"},{"bike_id":"7a1d97cc-4344-4001-8911-be3637f392ad","system_id":"levelo_inurba_marseille","lat":43.284219,"lon":5.3497,"is_reserved":false,"is_disabled":false,"rental_uris":{"android":"levelo://app?vid=7a1d97cc-4344-4001-8911-be3637f392ad","ios":"levelo://app?vid=7a1d97cc-4344-4001-8911-be3637f392ad"},"vehicle_type_id":"4","last_reported":1685833592,"current_range_meters":27600,"station_id":"ce4bhbh2rcd13ifvqepg","pricing_plan_id":"free"},{"bike_id":"32e8f0cc-be0d-40d4-bbb6-ba64324deebb","system_id":"levelo_inurba_marseille","lat":43.284219,"lon":5.3497,"is_reserved":false,"is_disabled":false,"rental_uris":{"android":"levelo://app?vid=32e8f0cc-be0d-40d4-bbb6-ba64324deebb","ios":"levelo://app?vid=32e8f0cc-be0d-40d4-bbb6-ba64324deebb"},"vehicle_type_id":"4","last_reported":1685833592,"current_range_meters":30800,"station_id":"ce4bhbh2rcd13ifvqepg","pricing_plan_id":"free"},{"bike_id":"7333e7ce-4b15-4635-b5dd-7c3766900e2f","system_id":"levelo_inurba_marseille","lat":43.284083,"lon":5.349732,"is_reserved":false,"is_disabled":false,"rental_uris":{"android":"levelo://app?vid=7333e7ce-4b15-4635-b5dd-7c3766900e2f","ios":"levelo://app?vid=7333e7ce-4b15-4635-b5dd-7c3766900e2f"},"vehicle_type_id":"4","last_reported":1685833592,"current_range_meters":31200,"station_id":"ce4bhbh2rcd13ifvqepg","pricing_plan_id":"free"},{"bike_id":"145c0f29-6cbb-4e56-b32f-bbdf7964bf06","system_id":"levelo_inurba_marseille","lat":43.282754,"lon":5.350519,"is_reserved":false,"is_disabled":false,"rental_uris":{"android":"levelo://app?vid=145c0f29-6cbb-4e56-b32f-bbdf7964bf06","ios":"levelo://app?vid=145c0f29-6cbb-4e56-b32f-bbdf7964bf06"},"vehicle_type_id":"4","last_reported":1685833592,"current_range_meters":3200,"station_id":"ce4bhbp2rcd13ifvqerg","pricing_plan_id":"free"},{"bike_id":"621fb9b7-bb13-4617-a9d4-f14ce39f4607","system_id":"levelo_inurba_marseille","lat":43.29041,"lon":5.399634,"is_reserved":false,"is_disabled":false,"rental_uris":{"android":"levelo://app?vid=621fb9b7-bb13-4617-a9d4-f14ce39f4607","ios":"levelo://app?vid=621fb9b7-bb13-4617-a9d4-f14ce39f4607"},"vehicle_type_id":"4","last_reported":1685833592,"current_range_meters":4400,"station_id":"ce4bh392rcd13ifvqdm0","pricing_plan_id":"free"},{"bike_id":"5f3a2a93-7acd-455b-98a8-a6d147f27c84","system_id":"levelo_inurba_marseille","lat":43.296263,"lon":5.40601,"is_reserved":false,"is_disabled":false,"rental_uris":{"android":"levelo://app?vid=5f3a2a93-7acd-455b-98a8-a6d147f27c84","ios":"levelo://app?vid=5f3a2a93-7acd-455b-98a8-a6d147f27c84"},"vehicle_type_id":"4","last_reported":1685833592,"current_range_meters":30000,"station_id":"ce4bh0h2rcd13ifvqd60","pricing_plan_id":"free"},{"bike_id":"4d02723e-7a65-4fab-897b-55af28a09286","system_id":"levelo_inurba_marseille","lat":43.304188,"lon":5.412904,"is_reserved":false,"is_disabled":false,"rental_uris":{"android":"levelo://app?vid=4d02723e-7a65-4fab-897b-55af28a09286","ios":"levelo://app?vid=4d02723e-7a65-4fab-897b-55af28a09286"},"vehicle_type_id":"4","last_reported":1685833592,"current_range_meters":17200,"station_id":"ce4bhop2rcd13ifvqh8g","pricing_plan_id":"free"},{"bike_id":"acbdf0ee-3a1c-4d33-bba3-a284e6c96190","system_id":"levelo_inurba_marseille","lat":43.304188,"lon":5.412904,"is_reserved":false,"is_disabled":false,"rental_uris":{"android":"levelo://app?vid=acbdf0ee-3a1c-4d33-bba3-a284e6c96190","ios":"levelo://app?vid=acbdf0ee-3a1c-4d33-bba3-a284e6c96190"},"vehicle_type_id":"4","last_reported":1685833592,"current_range_meters":9200,"station_id":"ce4bhop2rcd13ifvqh8g","pricing_plan_id":"free"},{"bike_id":"d7861dd7-926b-4d57-b0ec-0898e516baa7","system_id":"levelo_inurba_marseille","lat":43.27901,"lon":5.38005,"is_reserved":false,"is_disabled":false,"rental_uris":{"android":"levelo://app?vid=d7861dd7-926b-4d57-b0ec-0898e516baa7","ios":"levelo://app?vid=d7861dd7-926b-4d57-b0ec-0898e516baa7"},"vehicle_type_id":"4","last_reported":1685833592,"current_range_meters":31200,"station_id":"","pricing_plan_id":"free"},{"bike_id":"df6b56a1-41a1-4691-b2ef-e0dc9f7e1e15","system_id":"levelo_inurba_marseille","lat":43.286926,"lon":5.399946,"is_reserved":false,"is_disabled":false,"rental_uris":{"android":"levelo://app?vid=df6b56a1-41a1-4691-b2ef-e0dc9f7e1e15","ios":"levelo://app?vid=df6b56a1-41a1-4691-b2ef-e0dc9f7e1e15"},"vehicle_type_id":"4","last_reported":1685833592,"current_range_meters":18800,"station_id":"","pricing_plan_id":"free"},{"bike_id":"e7fd5a8a-1e9e-4726-8419-3a57976e3383","system_id":"levelo_inurba_marseille","lat":43.279742,"lon":5.38744,"is_reserved":false,"is_disabled":false,"rental_uris":{"android":"levelo://app?vid=e7fd5a8a-1e9e-4726-8419-3a57976e3383","ios":"levelo://app?vid=e7fd5a8a-1e9e-4726-8419-3a57976e3383"},"vehicle_type_id":"4","last_reported":1685833592,"current_range_meters":29600,"station_id":"ce4bhg12rcd13ifvqf80","pricing_plan_id":"free"},{"bike_id":"6a393bd7-90bb-4794-9445-d37322c69d35","system_id":"levelo_inurba_marseille","lat":43.299579,"lon":5.413255,"is_reserved":false,"is_disabled":false,"rental_uris":{"android":"levelo://app?vid=6a393bd7-90bb-4794-9445-d37322c69d35","ios":"levelo://app?vid=6a393bd7-90bb-4794-9445-d37322c69d35"},"vehicle_type_id":"4","last_reported":1685833592,"current_range_meters":30000,"station_id":"ce4bhp12rcd13ifvqh9g","pricing_plan_id":"free"},{"bike_id":"f535a6da-e294-4da7-8bb0-bfd29eed5333","system_id":"levelo_inurba_marseille","lat":43.30404,"lon":5.41552,"is_reserved":false,"is_disabled":false,"rental_uris":{"android":"levelo://app?vid=f535a6da-e294-4da7-8bb0-bfd29eed5333","ios":"levelo://app?vid=f535a6da-e294-4da7-8bb0-bfd29eed5333"},"vehicle_type_id":"4","last_reported":1685833592,"current_range_meters":0,"station_id":"","pricing_plan_id":"free"},{"bike_id":"dc8f80d5-2f09-42a2-8d42-c551eaba3133","system_id":"levelo_inurba_marseille","lat":43.292569,"lon":5.409107,"is_reserved":false,"is_disabled":false,"rental_uris":{"android":"levelo://app?vid=dc8f80d5-2f09-42a2-8d42-c551eaba3133","ios":"levelo://app?vid=dc8f80d5-2f09-42a2-8d42-c551eaba3133"},"vehicle_type_id":"4","last_reported":1685833592,"current_range_meters":26800,"station_id":"ce4bh192rcd13ifvqdc0","pricing_plan_id":"free"},{"bike_id":"ae0aa24d-9fbc-44d8-8331-b6fec41ae18b","system_id":"levelo_inurba_marseille","lat":43.280784,"lon":5.396622,"is_reserved":false,"is_disabled":false,"rental_uris":{"android":"levelo://app?vid=ae0aa24d-9fbc-44d8-8331-b6fec41ae18b","ios":"levelo://app?vid=ae0aa24d-9fbc-44d8-8331-b6fec41ae18b"},"vehicle_type_id":"4","last_reported":1685833592,"current_range_meters":31200,"station_id":"ce4bho12rcd13ifvqh2g","pricing_plan_id":"free"},{"bike_id":"7582fb74-5451-446b-ad0d-1483e414e02b","system_id":"levelo_inurba_marseille","lat":43.280784,"lon":5.396622,"is_reserved":false,"is_disabled":false,"rental_uris":{"android":"levelo://app?vid=7582fb74-5451-446b-ad0d-1483e414e02b","ios":"levelo://app?vid=7582fb74-5451-446b-ad0d-1483e414e02b"},"vehicle_type_id":"4","last_reported":1685833592,"current_range_meters":31200,"station_id":"ce4bho12rcd13ifvqh2g","pricing_plan_id":"free"},{"bike_id":"f0bfe120-5962-4c32-b4d1-ece241139030","system_id":"levelo_inurba_marseille","lat":43.280784,"lon":5.396622,"is_reserved":false,"is_disabled":false,"rental_uris":{"android":"levelo://app?vid=f0bfe120-5962-4c32-b4d1-ece241139030","ios":"levelo://app?vid=f0bfe120-5962-4c32-b4d1-ece241139030"},"vehicle_type_id":"4","last_reported":1685833592,"current_range_meters":19200,"station_id":"ce4bho12rcd13ifvqh2g","pricing_plan_id":"free"},{"bike_id":"e1d3d640-d733-4874-817f-e9df379d0109","system_id":"levelo_inurba_marseille","lat":43.27582,"lon":5.38416,"is_reserved":false,"is_disabled":false,"rental_uris":{"android":"levelo://app?vid=e1d3d640-d733-4874-817f-e9df379d0109","ios":"levelo://app?vid=e1d3d640-d733-4874-817f-e9df379d0109"},"vehicle_type_id":"4","last_reported":1685833592,"current_range_meters":30800,"station_id":"","pricing_plan_id":"free"},{"bike_id":"aece11da-abe5-4650-ba29-dfec19e336af","system_id":"levelo_inurba_marseille","lat":43.33612,"lon":5.410321,"is_reserved":false,"is_disabled":false,"rental_uris":{"android":"levelo://app?vid=aece11da-abe5-4650-ba29-dfec19e336af","ios":"levelo://app?vid=aece11da-abe5-4650-ba29-dfec19e336af"},"vehicle_type_id":"4","last_reported":1685833592,"current_range_meters":30800,"station_id":"ce4bhqh2rcd13ifvqhmg","pricing_plan_id":"free"},{"bike_id":"8608971e-0a5b-45d4-bea0-6cd6e58cd09f","system_id":"levelo_inurba_marseille","lat":43.33612,"lon":5.410321,"is_reserved":false,"is_disabled":false,"rental_uris":{"android":"levelo://app?vid=8608971e-0a5b-45d4-bea0-6cd6e58cd09f","ios":"levelo://app?vid=8608971e-0a5b-45d4-bea0-6cd6e58cd09f"},"vehicle_type_id":"4","last_reported":1685833592,"current_range_meters":13600,"station_id":"ce4bhqh2rcd13ifvqhmg","pricing_plan_id":"free"},{"bike_id":"449eeb59-bd7e-4175-860b-36c5840ef090","system_id":"levelo_inurba_marseille","lat":43.336134,"lon":5.410341,"is_reserved":false,"is_disabled":false,"rental_uris":{"android":"levelo://app?vid=449eeb59-bd7e-4175-860b-36c5840ef090","ios":"levelo://app?vid=449eeb59-bd7e-4175-860b-36c5840ef090"},"vehicle_type_id":"4","last_reported":1685833592,"current_range_meters":30000,"station_id":"ce4bhqh2rcd13ifvqhmg","pricing_plan_id":"free"},{"bike_id":"9e3e9364-2c59-49d2-ad66-90ae6c254e2b","system_id":"levelo_inurba_marseille","lat":43.336134,"lon":5.410341,"is_reserved":false,"is_disabled":false,"rental_uris":{"android":"levelo://app?vid=9e3e9364-2c59-49d2-ad66-90ae6c254e2b","ios":"levelo://app?vid=9e3e9364-2c59-49d2-ad66-90ae6c254e2b"},"vehicle_type_id":"4","last_reported":1685833592,"current_range_meters":17600,"station_id":"ce4bhqh2rcd13ifvqhmg","pricing_plan_id":"free"},{"bike_id":"9908a2eb-cceb-4359-b2f6-31b6ef3dee84","system_id":"levelo_inurba_marseille","lat":43.275243,"lon":5.384237,"is_reserved":false,"is_disabled":false,"rental_uris":{"android":"levelo://app?vid=9908a2eb-cceb-4359-b2f6-31b6ef3dee84","ios":"levelo://app?vid=9908a2eb-cceb-4359-b2f6-31b6ef3dee84"},"vehicle_type_id":"4","last_reported":1685833592,"current_range_meters":24400,"station_id":"ce4bhe12rcd13ifvqf30","pricing_plan_id":"free"},{"bike_id":"43f9c923-8741-4944-aac8-e3dd16f9f910","system_id":"levelo_inurba_marseille","lat":43.317121,"lon":5.423936,"is_reserved":false,"is_disabled":false,"rental_uris":{"android":"levelo://app?vid=43f9c923-8741-4944-aac8-e3dd16f9f910","ios":"levelo://app?vid=43f9c923-8741-4944-aac8-e3dd16f9f910"},"vehicle_type_id":"4","last_reported":1685833592,"current_range_meters":29200,"station_id":"ce4bhp92rcd13ifvqhbg","pricing_plan_id":"free"},{"bike_id":"1734bc3f-0d75-4a76-91b0-05dbde8debea","system_id":"levelo_inurba_marseille","lat":43.317121,"lon":5.423936,"is_reserved":false,"is_disabled":false,"rental_uris":{"android":"levelo://app?vid=1734bc3f-0d75-4a76-91b0-05dbde8debea","ios":"levelo://app?vid=1734bc3f-0d75-4a76-91b0-05dbde8debea"},"vehicle_type_id":"4","last_reported":1685833592,"current_range_meters":6800,"station_id":"ce4bhp92rcd13ifvqhbg","pricing_plan_id":"free"},{"bike_id":"9db9545d-f63d-42be-a674-9c25625f916b","system_id":"levelo_inurba_marseille","lat":43.294,"lon":5.41899,"is_reserved":false,"is_disabled":false,"rental_uris":{"android":"levelo://app?vid=9db9545d-f63d-42be-a674-9c25625f916b","ios":"levelo://app?vid=9db9545d-f63d-42be-a674-9c25625f916b"},"vehicle_type_id":"4","last_reported":1685833592,"current_range_meters":10400,"station_id":"","pricing_plan_id":"free"},{"bike_id":"4d80717c-1ab1-4ff1-8e16-4b8981f90281","system_id":"levelo_inurba_marseille","lat":43.32828,"lon":5.42133,"is_reserved":false,"is_disabled":false,"rental_uris":{"android":"levelo://app?vid=4d80717c-1ab1-4ff1-8e16-4b8981f90281","ios":"levelo://app?vid=4d80717c-1ab1-4ff1-8e16-4b8981f90281"},"vehicle_type_id":"4","last_reported":1685833592,"current_range_meters":28400,"station_id":"","pricing_plan_id":"free"},{"bike_id":"81feb41d-fe3a-4bb0-afdc-0abd1cebd339","system_id":"levelo_inurba_marseille","lat":43.295523,"lon":5.422926,"is_reserved":false,"is_disabled":false,"rental_uris":{"android":"levelo://app?vid=81feb41d-fe3a-4bb0-afdc-0abd1cebd339","ios":"levelo://app?vid=81feb41d-fe3a-4bb0-afdc-0abd1cebd339"},"vehicle_type_id":"4","last_reported":1685833592,"current_range_meters":20000,"station_id":"ce4bhph2rcd13ifvqhdg","pricing_plan_id":"free"},{"bike_id":"477c9b24-a1bd-4af2-9e3a-7a10b9af13d1","system_id":"levelo_inurba_marseille","lat":43.31708,"lon":5.43312,"is_reserved":false,"is_disabled":false,"rental_uris":{"android":"levelo://app?vid=477c9b24-a1bd-4af2-9e3a-7a10b9af13d1","ios":"levelo://app?vid=477c9b24-a1bd-4af2-9e3a-7a10b9af13d1"},"vehicle_type_id":"4","last_reported":1685833592,"current_range_meters":0,"station_id":"","pricing_plan_id":"free"},{"bike_id":"b557ba17-de7e-4403-86b9-baf4bf48ed1b","system_id":"levelo_inurba_marseille","lat":43.280003,"lon":5.416656,"is_reserved":false,"is_disabled":false,"rental_uris":{"android":"levelo://app?vid=b557ba17-de7e-4403-86b9-baf4bf48ed1b","ios":"levelo://app?vid=b557ba17-de7e-4403-86b9-baf4bf48ed1b"},"vehicle_type_id":"4","last_reported":1685833592,"current_range_meters":31200,"station_id":"ce4bho12rcd13ifvqh1g","pricing_plan_id":"free"},{"bike_id":"47f9f9ed-249a-439d-b417-2e62e3013491","system_id":"levelo_inurba_marseille","lat":43.27996,"lon":5.416624,"is_reserved":false,"is_disabled":false,"rental_uris":{"android":"levelo://app?vid=47f9f9ed-249a-439d-b417-2e62e3013491","ios":"levelo://app?vid=47f9f9ed-249a-439d-b417-2e62e3013491"},"vehicle_type_id":"4","last_reported":1685833592,"current_range_meters":31200,"station_id":"ce4bho12rcd13ifvqh1g","pricing_plan_id":"free"},{"bike_id":"bf8176d7-3c9a-4666-9476-80921713d8fb","system_id":"levelo_inurba_marseille","lat":43.27988,"lon":5.41663,"is_reserved":false,"is_disabled":false,"rental_uris":{"android":"levelo://app?vid=bf8176d7-3c9a-4666-9476-80921713d8fb","ios":"levelo://app?vid=bf8176d7-3c9a-4666-9476-80921713d8fb"},"vehicle_type_id":"4","last_reported":1685833592,"current_range_meters":30800,"station_id":"ce4bho12rcd13ifvqh1g","pricing_plan_id":"free"},{"bike_id":"9aea0ca1-b346-425d-a79a-14fc2c79905d","system_id":"levelo_inurba_marseille","lat":43.27984,"lon":5.41661,"is_reserved":false,"is_disabled":false,"rental_uris":{"android":"levelo://app?vid=9aea0ca1-b346-425d-a79a-14fc2c79905d","ios":"levelo://app?vid=9aea0ca1-b346-425d-a79a-14fc2c79905d"},"vehicle_type_id":"4","last_reported":1685833592,"current_range_meters":31200,"station_id":"ce4bho12rcd13ifvqh1g","pricing_plan_id":"free"},{"bike_id":"9a910898-7923-4b86-a109-ded213d8eccb","system_id":"levelo_inurba_marseille","lat":43.30797,"lon":5.43519,"is_reserved":false,"is_disabled":false,"rental_uris":{"android":"levelo://app?vid=9a910898-7923-4b86-a109-ded213d8eccb","ios":"levelo://app?vid=9a910898-7923-4b86-a109-ded213d8eccb"},"vehicle_type_id":"4","last_reported":1685833592,"current_range_meters":10800,"station_id":"","pricing_plan_id":"free"},{"bike_id":"81869761-2445-46df-9590-537958ab446d","system_id":"levelo_inurba_marseille","lat":43.261782,"lon":5.374515,"is_reserved":false,"is_disabled":false,"rental_uris":{"android":"levelo://app?vid=81869761-2445-46df-9590-537958ab446d","ios":"levelo://app?vid=81869761-2445-46df-9590-537958ab446d"},"vehicle_type_id":"4","last_reported":1685833592,"current_range_meters":16000,"station_id":"ce4bhgp2rcd13ifvqfc0","pricing_plan_id":"free"},{"bike_id":"df10fb49-c04c-4b39-bc2b-80ff33ae96b5","system_id":"levelo_inurba_marseille","lat":43.262012,"lon":5.379307,"is_reserved":false,"is_disabled":false,"rental_uris":{"android":"levelo://app?vid=df10fb49-c04c-4b39-bc2b-80ff33ae96b5","ios":"levelo://app?vid=df10fb49-c04c-4b39-bc2b-80ff33ae96b5"},"vehicle_type_id":"4","last_reported":1685833592,"current_range_meters":2800,"station_id":"ce4bhjp2rcd13ifvqg90","pricing_plan_id":"free"},{"bike_id":"5021f0dd-313f-455e-9425-4f69e8a44370","system_id":"levelo_inurba_marseille","lat":43.267959,"lon":5.402687,"is_reserved":false,"is_disabled":false,"rental_uris":{"android":"levelo://app?vid=5021f0dd-313f-455e-9425-4f69e8a44370","ios":"levelo://app?vid=5021f0dd-313f-455e-9425-4f69e8a44370"},"vehicle_type_id":"4","last_reported":1685833592,"current_range_meters":21600,"station_id":"ce501612rcd8frsf0b60","pricing_plan_id":"free"},{"bike_id":"6f6d7296-38ef-4491-a895-770e8a20c9d5","system_id":"levelo_inurba_marseille","lat":43.267959,"lon":5.402687,"is_reserved":false,"is_disabled":false,"rental_uris":{"android":"levelo://app?vid=6f6d7296-38ef-4491-a895-770e8a20c9d5","ios":"levelo://app?vid=6f6d7296-38ef-4491-a895-770e8a20c9d5"},"vehicle_type_id":"4","last_reported":1685833592,"current_range_meters":31200,"station_id":"ce501612rcd8frsf0b60","pricing_plan_id":"free"},{"bike_id":"84b89d8a-5385-40a2-a867-5787d43838eb","system_id":"levelo_inurba_marseille","lat":43.255756,"lon":5.382303,"is_reserved":false,"is_disabled":false,"rental_uris":{"android":"levelo://app?vid=84b89d8a-5385-40a2-a867-5787d43838eb","ios":"levelo://app?vid=84b89d8a-5385-40a2-a867-5787d43838eb"},"vehicle_type_id":"4","last_reported":1685833592,"current_range_meters":0,"station_id":"ce4bhih2rcd13ifvqfs0","pricing_plan_id":"free"},{"bike_id":"6e0f58f2-d18b-478d-9505-cf2a9172480d","system_id":"levelo_inurba_marseille","lat":43.255756,"lon":5.382303,"is_reserved":false,"is_disabled":false,"rental_uris":{"android":"levelo://app?vid=6e0f58f2-d18b-478d-9505-cf2a9172480d","ios":"levelo://app?vid=6e0f58f2-d18b-478d-9505-cf2a9172480d"},"vehicle_type_id":"4","last_reported":1685833592,"current_range_meters":800,"station_id":"ce4bhih2rcd13ifvqfs0","pricing_plan_id":"free"},{"bike_id":"0b2e7a19-1538-43bf-9f9d-718dead8b83e","system_id":"levelo_inurba_marseille","lat":43.270721,"lon":5.422764,"is_reserved":false,"is_disabled":false,"rental_uris":{"android":"levelo://app?vid=0b2e7a19-1538-43bf-9f9d-718dead8b83e","ios":"levelo://app?vid=0b2e7a19-1538-43bf-9f9d-718dead8b83e"},"vehicle_type_id":"4","last_reported":1685833592,"current_range_meters":31600,"station_id":"ce4bhk92rcd13ifvqgb0","pricing_plan_id":"free"},{"bike_id":"8f87b84b-9bce-42d0-b2f6-5811a0549e80","system_id":"levelo_inurba_marseille","lat":43.270721,"lon":5.422764,"is_reserved":false,"is_disabled":false,"rental_uris":{"android":"levelo://app?vid=8f87b84b-9bce-42d0-b2f6-5811a0549e80","ios":"levelo://app?vid=8f87b84b-9bce-42d0-b2f6-5811a0549e80"},"vehicle_type_id":"4","last_reported":1685833592,"current_range_meters":8400,"station_id":"ce4bhk92rcd13ifvqgb0","pricing_plan_id":"free"},{"bike_id":"59b0b156-85c5-4d6e-adae-60eb76d35fb5","system_id":"levelo_inurba_marseille","lat":43.258658,"lon":5.398935,"is_reserved":false,"is_disabled":false,"rental_uris":{"android":"levelo://app?vid=59b0b156-85c5-4d6e-adae-60eb76d35fb5","ios":"levelo://app?vid=59b0b156-85c5-4d6e-adae-60eb76d35fb5"},"vehicle_type_id":"4","last_reported":1685833592,"current_range_meters":3600,"station_id":"ce4bhl92rcd13ifvqghg","pricing_plan_id":"free"},{"bike_id":"605a70ba-7a48-4c59-a639-b804d004800d","system_id":"levelo_inurba_marseille","lat":43.258658,"lon":5.398935,"is_reserved":false,"is_disabled":false,"rental_uris":{"android":"levelo://app?vid=605a70ba-7a48-4c59-a639-b804d004800d","ios":"levelo://app?vid=605a70ba-7a48-4c59-a639-b804d004800d"},"vehicle_type_id":"4","last_reported":1685833592,"current_range_meters":8800,"station_id":"ce4bhl92rcd13ifvqghg","pricing_plan_id":"free"},{"bike_id":"8a065f1c-914c-4e39-9a27-b733ec5a900d","system_id":"levelo_inurba_marseille","lat":43.25306,"lon":5.37875,"is_reserved":false,"is_disabled":false,"rental_uris":{"android":"levelo://app?vid=8a065f1c-914c-4e39-9a27-b733ec5a900d","ios":"levelo://app?vid=8a065f1c-914c-4e39-9a27-b733ec5a900d"},"vehicle_type_id":"4","last_reported":1685833592,"current_range_meters":24800,"station_id":"","pricing_plan_id":"free"},{"bike_id":"41c2590e-164d-41e9-b96b-588d43dd2f8b","system_id":"levelo_inurba_marseille","lat":43.28604,"lon":5.44207,"is_reserved":false,"is_disabled":false,"rental_uris":{"android":"levelo://app?vid=41c2590e-164d-41e9-b96b-588d43dd2f8b","ios":"levelo://app?vid=41c2590e-164d-41e9-b96b-588d43dd2f8b"},"vehicle_type_id":"4","last_reported":1685833592,"current_range_meters":6400,"station_id":"","pricing_plan_id":"free"},{"bike_id":"e370656b-f8e3-4af5-b780-09cad9cf5f70","system_id":"levelo_inurba_marseille","lat":43.25939,"lon":5.40894,"is_reserved":false,"is_disabled":false,"rental_uris":{"android":"levelo://app?vid=e370656b-f8e3-4af5-b780-09cad9cf5f70","ios":"levelo://app?vid=e370656b-f8e3-4af5-b780-09cad9cf5f70"},"vehicle_type_id":"4","last_reported":1685833592,"current_range_meters":21600,"station_id":"","pricing_plan_id":"free"},{"bike_id":"d5810f77-7e40-44af-8225-1c2616617c36","system_id":"levelo_inurba_marseille","lat":43.259013,"lon":5.409301,"is_reserved":false,"is_disabled":false,"rental_uris":{"android":"levelo://app?vid=d5810f77-7e40-44af-8225-1c2616617c36","ios":"levelo://app?vid=d5810f77-7e40-44af-8225-1c2616617c36"},"vehicle_type_id":"4","last_reported":1685833592,"current_range_meters":0,"station_id":"ce4bhm92rcd13ifvqglg","pricing_plan_id":"free"},{"bike_id":"42570abe-9464-4d01-954c-350ce70f2edd","system_id":"levelo_inurba_marseille","lat":43.259013,"lon":5.409301,"is_reserved":false,"is_disabled":false,"rental_uris":{"android":"levelo://app?vid=42570abe-9464-4d01-954c-350ce70f2edd","ios":"levelo://app?vid=42570abe-9464-4d01-954c-350ce70f2edd"},"vehicle_type_id":"4","last_reported":1685833592,"current_range_meters":0,"station_id":"ce4bhm92rcd13ifvqglg","pricing_plan_id":"free"},{"bike_id":"86a495a9-785d-42c3-97c7-a735e2c9ca95","system_id":"levelo_inurba_marseille","lat":43.34444,"lon":5.44246,"is_reserved":false,"is_disabled":false,"rental_uris":{"android":"levelo://app?vid=86a495a9-785d-42c3-97c7-a735e2c9ca95","ios":"levelo://app?vid=86a495a9-785d-42c3-97c7-a735e2c9ca95"},"vehicle_type_id":"4","last_reported":1685833592,"current_range_meters":0,"station_id":"","pricing_plan_id":"free"},{"bike_id":"8c144228-13a0-40b7-b166-241efe05d24e","system_id":"levelo_inurba_marseille","lat":43.250966,"lon":5.395186,"is_reserved":false,"is_disabled":false,"rental_uris":{"android":"levelo://app?vid=8c144228-13a0-40b7-b166-241efe05d24e","ios":"levelo://app?vid=8c144228-13a0-40b7-b166-241efe05d24e"},"vehicle_type_id":"4","last_reported":1685833592,"current_range_meters":28000,"station_id":"ce4bhm12rcd13ifvqgkg","pricing_plan_id":"free"},{"bike_id":"9c3fcb89-6ae5-4333-a785-b409b7ec25eb","system_id":"levelo_inurba_marseille","lat":43.25102,"lon":5.403214,"is_reserved":false,"is_disabled":false,"rental_uris":{"android":"levelo://app?vid=9c3fcb89-6ae5-4333-a785-b409b7ec25eb","ios":"levelo://app?vid=9c3fcb89-6ae5-4333-a785-b409b7ec25eb"},"vehicle_type_id":"4","last_reported":1685833592,"current_range_meters":24000,"station_id":"ce4bhlh2rcd13ifvqgig","pricing_plan_id":"free"},{"bike_id":"828d5a38-fe8c-4448-a6c4-190d3c86c8d3","system_id":"levelo_inurba_marseille","lat":43.25102,"lon":5.403214,"is_reserved":false,"is_disabled":false,"rental_uris":{"android":"levelo://app?vid=828d5a38-fe8c-4448-a6c4-190d3c86c8d3","ios":"levelo://app?vid=828d5a38-fe8c-4448-a6c4-190d3c86c8d3"},"vehicle_type_id":"4","last_reported":1685833592,"current_range_meters":24400,"station_id":"ce4bhlh2rcd13ifvqgig","pricing_plan_id":"free"},{"bike_id":"d093a5ee-64a6-4242-b1a3-a6fbe75fc32c","system_id":"levelo_inurba_marseille","lat":43.24693,"lon":5.382096,"is_reserved":false,"is_disabled":false,"rental_uris":{"android":"levelo://app?vid=d093a5ee-64a6-4242-b1a3-a6fbe75fc32c","ios":"levelo://app?vid=d093a5ee-64a6-4242-b1a3-a6fbe75fc32c"},"vehicle_type_id":"4","last_reported":1685833592,"current_range_meters":29200,"station_id":"ce4bhih2rcd13ifvqfr0","pricing_plan_id":"free"},{"bike_id":"1e003efd-26cb-4df0-8d71-14ab271fe6d7","system_id":"levelo_inurba_marseille","lat":43.24693,"lon":5.382096,"is_reserved":false,"is_disabled":false,"rental_uris":{"android":"levelo://app?vid=1e003efd-26cb-4df0-8d71-14ab271fe6d7","ios":"levelo://app?vid=1e003efd-26cb-4df0-8d71-14ab271fe6d7"},"vehicle_type_id":"4","last_reported":1685833592,"current_range_meters":6400,"station_id":"ce4bhih2rcd13ifvqfr0","pricing_plan_id":"free"},{"bike_id":"d0c04dbf-3d2f-498f-a99b-804f2fbcf9bb","system_id":"levelo_inurba_marseille","lat":43.25102,"lon":5.403214,"is_reserved":false,"is_disabled":false,"rental_uris":{"android":"levelo://app?vid=d0c04dbf-3d2f-498f-a99b-804f2fbcf9bb","ios":"levelo://app?vid=d0c04dbf-3d2f-498f-a99b-804f2fbcf9bb"},"vehicle_type_id":"4","last_reported":1685833592,"current_range_meters":9200,"station_id":"ce4bhlh2rcd13ifvqgig","pricing_plan_id":"free"},{"bike_id":"f277476f-c1af-4af4-bd2b-8692a39b5ef6","system_id":"levelo_inurba_marseille","lat":43.25102,"lon":5.403214,"is_reserved":false,"is_disabled":false,"rental_uris":{"android":"levelo://app?vid=f277476f-c1af-4af4-bd2b-8692a39b5ef6","ios":"levelo://app?vid=f277476f-c1af-4af4-bd2b-8692a39b5ef6"},"vehicle_type_id":"4","last_reported":1685833592,"current_range_meters":27200,"station_id":"ce4bhlh2rcd13ifvqgig","pricing_plan_id":"free"},{"bike_id":"8ae77b5e-541a-4803-94e5-50e8fc075cbd","system_id":"levelo_inurba_marseille","lat":43.24462,"lon":5.36911,"is_reserved":false,"is_disabled":false,"rental_uris":{"android":"levelo://app?vid=8ae77b5e-541a-4803-94e5-50e8fc075cbd","ios":"levelo://app?vid=8ae77b5e-541a-4803-94e5-50e8fc075cbd"},"vehicle_type_id":"4","last_reported":1685833592,"current_range_meters":31200,"station_id":"","pricing_plan_id":"free"},{"bike_id":"dd82276e-dc35-4665-b6b6-2677520e1e56","system_id":"levelo_inurba_marseille","lat":43.246467,"lon":5.388984,"is_reserved":false,"is_disabled":false,"rental_uris":{"android":"levelo://app?vid=dd82276e-dc35-4665-b6b6-2677520e1e56","ios":"levelo://app?vid=dd82276e-dc35-4665-b6b6-2677520e1e56"},"vehicle_type_id":"4","last_reported":1685833592,"current_range_meters":31600,"station_id":"ce4bhg12rcd13ifvqf60","pricing_plan_id":"free"},{"bike_id":"5d413320-2d93-47df-9016-dd82954c80b5","system_id":"levelo_inurba_marseille","lat":43.24662,"lon":5.39195,"is_reserved":false,"is_disabled":false,"rental_uris":{"android":"levelo://app?vid=5d413320-2d93-47df-9016-dd82954c80b5","ios":"levelo://app?vid=5d413320-2d93-47df-9016-dd82954c80b5"},"vehicle_type_id":"4","last_reported":1685833592,"current_range_meters":26400,"station_id":"","pricing_plan_id":"free"},{"bike_id":"f48f61f2-f413-4add-8bc7-fa009bc0b679","system_id":"levelo_inurba_marseille","lat":43.24643,"lon":5.39158,"is_reserved":false,"is_disabled":false,"rental_uris":{"android":"levelo://app?vid=f48f61f2-f413-4add-8bc7-fa009bc0b679","ios":"levelo://app?vid=f48f61f2-f413-4add-8bc7-fa009bc0b679"},"vehicle_type_id":"4","last_reported":1685833592,"current_range_meters":19600,"station_id":"","pricing_plan_id":"free"},{"bike_id":"90ec6158-08ad-4670-8a96-0a5e300cb0d7","system_id":"levelo_inurba_marseille","lat":43.24597,"lon":5.38974,"is_reserved":false,"is_disabled":false,"rental_uris":{"android":"levelo://app?vid=90ec6158-08ad-4670-8a96-0a5e300cb0d7","ios":"levelo://app?vid=90ec6158-08ad-4670-8a96-0a5e300cb0d7"},"vehicle_type_id":"4","last_reported":1685833592,"current_range_meters":8800,"station_id":"","pricing_plan_id":"free"},{"bike_id":"d2e2ede2-d1c4-44a0-8668-e5f3b8db4ffd","system_id":"levelo_inurba_marseille","lat":43.243884,"lon":5.370737,"is_reserved":false,"is_disabled":false,"rental_uris":{"android":"levelo://app?vid=d2e2ede2-d1c4-44a0-8668-e5f3b8db4ffd","ios":"levelo://app?vid=d2e2ede2-d1c4-44a0-8668-e5f3b8db4ffd"},"vehicle_type_id":"4","last_reported":1685833592,"current_range_meters":24800,"station_id":"ce4bhhh2rcd13ifvqfk0","pricing_plan_id":"free"},{"bike_id":"2c8cb84b-1112-4638-840b-42a6227cf279","system_id":"levelo_inurba_marseille","lat":43.28927,"lon":5.45716,"is_reserved":false,"is_disabled":false,"rental_uris":{"android":"levelo://app?vid=2c8cb84b-1112-4638-840b-42a6227cf279","ios":"levelo://app?vid=2c8cb84b-1112-4638-840b-42a6227cf279"},"vehicle_type_id":"4","last_reported":1685833592,"current_range_meters":10400,"station_id":"","pricing_plan_id":"free"},{"bike_id":"27775441-1d6a-4956-bf71-a83355e67459","system_id":"levelo_inurba_marseille","lat":43.24075,"lon":5.37747,"is_reserved":false,"is_disabled":false,"rental_uris":{"android":"levelo://app?vid=27775441-1d6a-4956-bf71-a83355e67459","ios":"levelo://app?vid=27775441-1d6a-4956-bf71-a83355e67459"},"vehicle_type_id":"4","last_reported":1685833592,"current_range_meters":28400,"station_id":"","pricing_plan_id":"free"},{"bike_id":"4fe7c7a0-1594-4ca1-ab48-d1ec74551abf","system_id":"levelo_inurba_marseille","lat":43.241782,"lon":5.397261,"is_reserved":false,"is_disabled":false,"rental_uris":{"android":"levelo://app?vid=4fe7c7a0-1594-4ca1-ab48-d1ec74551abf","ios":"levelo://app?vid=4fe7c7a0-1594-4ca1-ab48-d1ec74551abf"},"vehicle_type_id":"4","last_reported":1685833592,"current_range_meters":0,"station_id":"ce4bhn12rcd13ifvqgpg","pricing_plan_id":"free"},{"bike_id":"e774b157-950f-45eb-b7d7-f274fe066f42","system_id":"levelo_inurba_marseille","lat":43.241782,"lon":5.397261,"is_reserved":false,"is_disabled":false,"rental_uris":{"android":"levelo://app?vid=e774b157-950f-45eb-b7d7-f274fe066f42","ios":"levelo://app?vid=e774b157-950f-45eb-b7d7-f274fe066f42"},"vehicle_type_id":"4","last_reported":1685833592,"current_range_meters":0,"station_id":"ce4bhn12rcd13ifvqgpg","pricing_plan_id":"free"},{"bike_id":"ab7243ed-cdcd-496e-9a3a-d1e56ac8ca29","system_id":"levelo_inurba_marseille","lat":43.24179,"lon":5.39735,"is_reserved":false,"is_disabled":false,"rental_uris":{"android":"levelo://app?vid=ab7243ed-cdcd-496e-9a3a-d1e56ac8ca29","ios":"levelo://app?vid=ab7243ed-cdcd-496e-9a3a-d1e56ac8ca29"},"vehicle_type_id":"4","last_reported":1685833592,"current_range_meters":11200,"station_id":"ce4bhn12rcd13ifvqgpg","pricing_plan_id":"free"},{"bike_id":"36be0654-a594-495b-a31c-6463ea32f1be","system_id":"levelo_inurba_marseille","lat":43.3038,"lon":5.47462,"is_reserved":false,"is_disabled":false,"rental_uris":{"android":"levelo://app?vid=36be0654-a594-495b-a31c-6463ea32f1be","ios":"levelo://app?vid=36be0654-a594-495b-a31c-6463ea32f1be"},"vehicle_type_id":"4","last_reported":1685833592,"current_range_meters":2000,"station_id":"","pricing_plan_id":"free"},{"bike_id":"97911575-0740-4ace-9259-7ac6b2b09d9e","system_id":"levelo_inurba_marseille","lat":43.28787,"lon":5.47071,"is_reserved":false,"is_disabled":false,"rental_uris":{"android":"levelo://app?vid=97911575-0740-4ace-9259-7ac6b2b09d9e","ios":"levelo://app?vid=97911575-0740-4ace-9259-7ac6b2b09d9e"},"vehicle_type_id":"4","last_reported":1685833592,"current_range_meters":400,"station_id":"","pricing_plan_id":"free"},{"bike_id":"90ed07aa-f2bc-4ccd-9108-a7b9dbdda05f","system_id":"levelo_inurba_marseille","lat":43.231923,"lon":5.355545,"is_reserved":false,"is_disabled":false,"rental_uris":{"android":"levelo://app?vid=90ed07aa-f2bc-4ccd-9108-a7b9dbdda05f","ios":"levelo://app?vid=90ed07aa-f2bc-4ccd-9108-a7b9dbdda05f"},"vehicle_type_id":"4","last_reported":1685833592,"current_range_meters":27200,"station_id":"ce4bhu92rcd13ifvqi70","pricing_plan_id":"free"},{"bike_id":"8d36cd0f-05b8-42de-9e10-9935cdb33bec","system_id":"levelo_inurba_marseille","lat":43.231919,"lon":5.355532,"is_reserved":false,"is_disabled":false,"rental_uris":{"android":"levelo://app?vid=8d36cd0f-05b8-42de-9e10-9935cdb33bec","ios":"levelo://app?vid=8d36cd0f-05b8-42de-9e10-9935cdb33bec"},"vehicle_type_id":"4","last_reported":1685833592,"current_range_meters":25600,"station_id":"ce4bhu92rcd13ifvqi70","pricing_plan_id":"free"},{"bike_id":"0403bdd3-d33f-41aa-b926-3449fdd04957","system_id":"levelo_inurba_marseille","lat":43.231923,"lon":5.355545,"is_reserved":false,"is_disabled":false,"rental_uris":{"android":"levelo://app?vid=0403bdd3-d33f-41aa-b926-3449fdd04957","ios":"levelo://app?vid=0403bdd3-d33f-41aa-b926-3449fdd04957"},"vehicle_type_id":"4","last_reported":1685833592,"current_range_meters":1200,"station_id":"ce4bhu92rcd13ifvqi70","pricing_plan_id":"free"},{"bike_id":"279e9fad-4948-4770-8e47-0a1f47c5fae8","system_id":"levelo_inurba_marseille","lat":43.231919,"lon":5.355532,"is_reserved":false,"is_disabled":false,"rental_uris":{"android":"levelo://app?vid=279e9fad-4948-4770-8e47-0a1f47c5fae8","ios":"levelo://app?vid=279e9fad-4948-4770-8e47-0a1f47c5fae8"},"vehicle_type_id":"4","last_reported":1685833592,"current_range_meters":29200,"station_id":"ce4bhu92rcd13ifvqi70","pricing_plan_id":"free"},{"bike_id":"3915b033-9705-42c2-be41-1677e4599d93","system_id":"levelo_inurba_marseille","lat":43.231923,"lon":5.355545,"is_reserved":false,"is_disabled":false,"rental_uris":{"android":"levelo://app?vid=3915b033-9705-42c2-be41-1677e4599d93","ios":"levelo://app?vid=3915b033-9705-42c2-be41-1677e4599d93"},"vehicle_type_id":"4","last_reported":1685833592,"current_range_meters":10000,"station_id":"ce4bhu92rcd13ifvqi70","pricing_plan_id":"free"}]}}