{"last_updated":1753863428,"ttl":60,"version":"2.2","data":{"bikes":[{"bike_id":"9e636b11-f09d-4708-8edd-606ef74f1066","system_id":"levelo_inurba_marseille","lat":43.259818,"lon":5.372455,"is_reserved":false,"is_disabled":false,"rental_uris":{"android":"levelo://app?vid=9e636b11-f09d-4708-8edd-606ef74f1066","ios":"levelo://app?vid=9e636b11-f09d-4708-8edd-606ef74f1066"},"vehicle_type_id":"4","last_reported":1753863429,"current_range_meters":2800,"station_id":"","pricing_plan_id":"cebpf4jnsgd1na2vs0mg"},{"bike_id":"83fdb9f2-ef9d-4a70-8333-65f103ec90ae","system_id":"levelo_inurba_marseille","lat":43.273725,"lon":5.362589,"is_reserved":false,"is_disabled":true,"rental_uris":{"android":"levelo://app?vid=83fdb9f2-ef9d-4a70-8333-65f103ec90ae","ios":"levelo://app?vid=83fdb9f2-ef9d-4a70-8333-65f103ec90ae"},"vehicle_type_id":"4","last_reported":1753863429,"current_range_meters":2800,"station_id":"ce4bhbh2rcd13ifvqeo0","pricing_plan_id":"cebpf4jnsgd1na2vs0mg"},{"bike_id":"3152576e-d602-4c3f-980e-717f41aed773","system_id":"levelo_inurba_marseille","lat":43.33737,"lon":5.37465,"is_reserved":false,"is_disabled":false,"rental_uris":{"android":"levelo://app?vid=3152576e-d602-4c3f-980e-717f41aed773","ios":"levelo://app?vid=3152576e-d602-4c3f-980e-717f41aed773"},"vehicle_type_id":"4","last_reported":1753863429,"current_range_meters":2800,"station_id":"","pricing_plan_id":"cebpf4jnsgd1na2vs0mg"},{"bike_id":"70a8d4a7-459e-47ea-a19c-673a43f1724f","system_id":"levelo_inurba_marseille","lat":43.305401,"lon":5.365609,"is_reserved":false,"is_disabled":false,"rental_uris":{"android":"levelo://app?vid=70a8d4a7-459e-47ea-a19c-673a43f1724f","ios":"levelo://app?vid=70a8d4a7-459e-47ea-a19c-673a43f1724f"},"vehicle_type_id":"4","last_reported":1753863429,"current_range_meters":3200,"station_id":"ce4bgs12rcd13ifvqcag","pricing_plan_id":"cebpf4jnsgd1na2vs0mg"},{"bike_id":"70c2e8b8-47e3-4846-ac55-d803c1bc1df9","system_id":"levelo_inurba_marseille","lat":43.30636,"lon":5.40081,"is_reserved":false,"is_disabled":false,"rental_uris":{"android":"levelo://app?vid=70c2e8b8-47e3-4846-ac55-d803c1bc1df9","ios":"levelo://app?vid=70c2e8b8-47e3-4846-ac55-d803c1bc1df9"},"vehicle_type_id":"4","last_reported":1753863429,"current_range_meters":3200,"station_id":"ce4bh112rcd13ifvqda0","pricing_plan_id":"cebpf4jnsgd1na2vs0mg"},{"bike_id":"a91e042f-0591-44bd-bd75-d2a6ddbdc904","system_id":"levelo_inurba_marseille","lat":43.32498,"lon":5.36591,"is_reserved":false,"is_disabled":false,"rental_uris":{"android":"levelo://app?vid=a91e042f-0591-44bd-bd75-d2a6ddbdc904","ios":"levelo://app?vid=a91e042f-0591-44bd-bd75-d2a6ddbdc904"},"vehicle_type_id":"4","last_reported":1753863429,"current_range_meters":3200,"station_id":"ce4bhs12rcd13ifvqhvg","pricing_plan_id":"cebpf4jnsgd1na2vs0mg"},{"bike_id":"d97a6734-a5cc-4822-ad8c-48590b3feb38","system_id":"levelo_inurba_marseille","lat":43.29007,"lon":5.35608,"is_reserved":false,"is_disabled":false,"rental_uris":{"android":"levelo://app?vid=d97a6734-a5cc-4822-ad8c-48590b3feb38","ios":"levelo://app?vid=d97a6734-a5cc-4822-ad8c-48590b3feb38"},"vehicle_type_id":"4","last_reported":1753863429,"current_range_meters":3200,"station_id":"ce4bhb92rcd13ifvqen0","pricing_plan_id":"cebpf4jnsgd1na2vs0mg"},{"bike_id":"64f258c6-1e92-4dd0-a4f6-11b336a5b138","system_id":"levelo_inurba_marseille","lat":43.22516,"lon":5.34776,"is_reserved":false,"is_disabled":false,"rental_uris":{"android":"levelo://app?vid=64f258c6-1e92-4dd0-a4f6-11b336a5b138","ios":"levelo://app?vid=64f258c6-1e92-4dd0-a4f6-11b336a5b138"},"vehicle_type_id":"4","last_reported":1753863429,"current_range_meters":3200,"station_id":"st_cvj5dfep6f1abm77gieg","pricing_plan_id":"cebpf4jnsgd1na2vs0mg"},{"bike_id":"5915c484-bd7c-435f-bca1-185e1e80dfcf","system_id":"levelo_inurba_marseille","lat":43.23157,"lon":5.43712,"is_reserved":false,"is_disabled":false,"rental_uris":{"android":"levelo://app?vid=5915c484-bd7c-435f-bca1-185e1e80dfcf","ios":"levelo://app?vid=5915c484-bd7c-435f-bca1-185e1e80dfcf"},"vehicle_type_id":"4","last_reported":1753863429,"current_range_meters":4000,"station_id":"ce4bhmp2rcd13ifvqgog","pricing_plan_id":"cebpf4jnsgd1na2vs0mg"},{"bike_id":"6888f4e5-ece4-4cf5-9b95-3b3058011898","system_id":"levelo_inurba_marseille","lat":43.28378,"lon":5.38639,"is_reserved":false,"is_disabled":false,"rental_uris":{"android":"levelo://app?vid=6888f4e5-ece4-4cf5-9b95-3b3058011898","ios":"levelo://app?vid=6888f4e5-ece4-4cf5-9b95-3b3058011898"},"vehicle_type_id":"4","last_reported":1753863429,"current_range_meters":4000,"station_id":"ce4bh492rcd13ifvqdvg","pricing_plan_id":"cebpf4jnsgd1na2vs0mg"},{"bike_id":"80915a30-ef88-4d81-b5d1-969d1c17a42d","system_id":"levelo_inurba_marseille","lat":43.30398,"lon":5.40808,"is_reserved":false,"is_disabled":false,"rental_uris":{"android":"levelo://app?vid=80915a30-ef88-4d81-b5d1-969d1c17a42d","ios":"levelo://app?vid=80915a30-ef88-4d81-b5d1-969d1c17a42d"},"vehicle_type_id":"4","last_reported":1753863429,"current_range_meters":4800,"station_id":"","pricing_plan_id":"cebpf4jnsgd1na2vs0mg"},{"bike_id":"8a569b31-55c0-441f-9435-5ac594ac9c22","system_id":"levelo_inurba_marseille","lat":43.297302,"lon":5.374166,"is_reserved":false,"is_disabled":false,"rental_uris":{"android":"levelo://app?vid=8a569b31-55c0-441f-9435-5ac594ac9c22","ios":"levelo://app?vid=8a569b31-55c0-441f-9435-5ac594ac9c22"},"vehicle_type_id":"4","last_reported":1753863429,"current_range_meters":4800,"station_id":"","pricing_plan_id":"cebpf4jnsgd1na2vs0mg"},{"bike_id":"444f3367-ff60-47e8-98b8-db3f6ec2d31a","system_id":"levelo_inurba_marseille","lat":43.31692,"lon":5.40473,"is_reserved":false,"is_disabled":false,"rental_uris":{"android":"levelo://app?vid=444f3367-ff60-47e8-98b8-db3f6ec2d31a","ios":"levelo://app?vid=444f3367-ff60-47e8-98b8-db3f6ec2d31a"},"vehicle_type_id":"4","last_reported":1753863429,"current_range_meters":4800,"station_id":"ce4bh012rcd13ifvqd00","pricing_plan_id":"cebpf4jnsgd1na2vs0mg"},{"bike_id":"95dd70e4-879c-49e7-b318-a6c71b22a43e","system_id":"levelo_inurba_marseille","lat":43.2703,"lon":5.39295,"is_reserved":false,"is_disabled":false,"rental_uris":{"android":"levelo://app?vid=95dd70e4-879c-49e7-b318-a6c71b22a43e","ios":"levelo://app?vid=95dd70e4-879c-49e7-b318-a6c71b22a43e"},"vehicle_type_id":"4","last_reported":1753863429,"current_range_meters":4800,"station_id":"","pricing_plan_id":"cebpf4jnsgd1na2vs0mg"},{"bike_id":"5c4efa7d-abfa-4548-85cc-d2740f6eda12","system_id":"levelo_inurba_marseille","lat":43.28001,"lon":5.41663,"is_reserved":false,"is_disabled":false,"rental_uris":{"android":"levelo://app?vid=5c4efa7d-abfa-4548-85cc-d2740f6eda12","ios":"levelo://app?vid=5c4efa7d-abfa-4548-85cc-d2740f6eda12"},"vehicle_type_id":"4","last_reported":1753863429,"current_range_meters":4800,"station_id":"ce4bho12rcd13ifvqh1g","pricing_plan_id":"cebpf4jnsgd1na2vs0mg"},{"bike_id":"209c73e6-1f69-4d13-9fed-77cb46eecd05","system_id":"levelo_inurba_marseille","lat":43.34681,"lon":5.38065,"is_reserved":false,"is_disabled":false,"rental_uris":{"android":"levelo://app?vid=209c73e6-1f69-4d13-9fed-77cb46eecd05","ios":"levelo://app?vid=209c73e6-1f69-4d13-9fed-77cb46eecd05"},"vehicle_type_id":"4","last_reported":1753863429,"current_range_meters":4800,"station_id":"","pricing_plan_id":"cebpf4jnsgd1na2vs0mg"},{"bike_id":"181c8049-4fb7-4c27-a6b2-7bb8fea4f09f","system_id":"levelo_inurba_marseille","lat":43.29532,"lon":5.39268,"is_reserved":false,"is_disabled":false,"rental_uris":{"android":"levelo://app?vid=181c8049-4fb7-4c27-a6b2-7bb8fea4f09f","ios":"levelo://app?vid=181c8049-4fb7-4c27-a6b2-7bb8fea4f09f"},"vehicle_type_id":"4","last_reported":1753863429,"current_range_meters":5600,"station_id":"","pricing_plan_id":"cebpf4jnsgd1na2vs0mg"},{"bike_id":"65e3db07-f188-422b-b687-3d06cfe2bcf8","system_id":"levelo_inurba_marseille","lat":43.28045,"lon":5.35009,"is_reserved":false,"is_disabled":false,"rental_uris":{"android":"levelo://app?vid=65e3db07-f188-422b-b687-3d06cfe2bcf8","ios":"levelo://app?vid=65e3db07-f188-422b-b687-3d06cfe2bcf8"},"vehicle_type_id":"4","last_reported":1753863429,"current_range_meters":5600,"station_id":"","pricing_plan_id":"cebpf4jnsgd1na2vs0mg"},{"bike_id":"33fcb21c-c852-42dc-b5e2-5943f88ed909","system_id":"levelo_inurba_marseille","lat":43.26558,"lon":5.37293,"is_reserved":false,"is_disabled":false,"rental_uris":{"android":"levelo://app?vid=33fcb21c-c852-42dc-b5e2-5943f88ed909","ios":"levelo://app?vid=33fcb21c-c852-42dc-b5e2-5943f88ed909"},"vehicle_type_id":"4","last_reported":1753863429,"current_range_meters":6400,"station_id":"ce4bhg12rcd13ifvqf70","pricing_plan_id":"cebpf4jnsgd1na2vs0mg"},{"bike_id":"7ead535a-e7f2-4489-9051-59e4f5eeec8a","system_id":"levelo_inurba_marseille","lat":43.3069,"lon":5.37336,"is_reserved":false,"is_disabled":false,"rental_uris":{"android":"levelo://app?vid=7ead535a-e7f2-4489-9051-59e4f5eeec8a","ios":"levelo://app?vid=7ead535a-e7f2-4489-9051-59e4f5eeec8a"},"vehicle_type_id":"4","last_reported":1753863429,"current_range_meters":6400,"station_id":"","pricing_plan_id":"cebpf4jnsgd1na2vs0mg"},{"bike_id":"6ef635bb-c3ab-457f-ac76-abe513320c87","system_id":"levelo_inurba_marseille","lat":43.29572,"lon":5.375125,"is_reserved":false,"is_disabled":false,"rental_uris":{"android":"levelo://app?vid=6ef635bb-c3ab-457f-ac76-abe513320c87","ios":"levelo://app?vid=6ef635bb-c3ab-457f-ac76-abe513320c87"},"vehicle_type_id":"4","last_reported":1753863429,"current_range_meters":6400,"station_id":"ce4bgh92rcd13ifvqb50","pricing_plan_id":"cebpf4jnsgd1na2vs0mg"},{"bike_id":"882bdff1-651a-41c1-9ab0-596f43205cf1","system_id":"levelo_inurba_marseille","lat":43.337444,"lon":5.374475,"is_reserved":false,"is_disabled":false,"rental_uris":{"android":"levelo://app?vid=882bdff1-651a-41c1-9ab0-596f43205cf1","ios":"levelo://app?vid=882bdff1-651a-41c1-9ab0-596f43205cf1"},"vehicle_type_id":"4","last_reported":1753863429,"current_range_meters":6800,"station_id":"ce4bgkp2rcd13ifvqbmg","pricing_plan_id":"cebpf4jnsgd1na2vs0mg"},{"bike_id":"92383e12-1bb9-481d-8178-8f4713781f5b","system_id":"levelo_inurba_marseille","lat":43.29267,"lon":5.37613,"is_reserved":false,"is_disabled":false,"rental_uris":{"android":"levelo://app?vid=92383e12-1bb9-481d-8178-8f4713781f5b","ios":"levelo://app?vid=92383e12-1bb9-481d-8178-8f4713781f5b"},"vehicle_type_id":"4","last_reported":1753863429,"current_range_meters":6800,"station_id":"ce4bgi12rcd13ifvqb80","pricing_plan_id":"cebpf4jnsgd1na2vs0mg"},{"bike_id":"370ae9b0-a2a5-4171-8a99-35a3daa5d2ab","system_id":"levelo_inurba_marseille","lat":43.284186,"lon":5.349826,"is_reserved":false,"is_disabled":false,"rental_uris":{"android":"levelo://app?vid=370ae9b0-a2a5-4171-8a99-35a3daa5d2ab","ios":"levelo://app?vid=370ae9b0-a2a5-4171-8a99-35a3daa5d2ab"},"vehicle_type_id":"4","last_reported":1753863429,"current_range_meters":6800,"station_id":"ce4bhbh2rcd13ifvqepg","pricing_plan_id":"cebpf4jnsgd1na2vs0mg"},{"bike_id":"115c2104-8a6d-426c-80f2-975c04e60097","system_id":"levelo_inurba_marseille","lat":43.32345,"lon":5.3674,"is_reserved":false,"is_disabled":false,"rental_uris":{"android":"levelo://app?vid=115c2104-8a6d-426c-80f2-975c04e60097","ios":"levelo://app?vid=115c2104-8a6d-426c-80f2-975c04e60097"},"vehicle_type_id":"4","last_reported":1753863429,"current_range_meters":6800,"station_id":"ce4bhsh2rcd13ifvqi2g","pricing_plan_id":"cebpf4jnsgd1na2vs0mg"},{"bike_id":"363cd716-fe3b-4131-b0d7-bfb529d3966c","system_id":"levelo_inurba_marseille","lat":43.29779,"lon":5.371,"is_reserved":false,"is_disabled":false,"rental_uris":{"android":"levelo://app?vid=363cd716-fe3b-4131-b0d7-bfb529d3966c","ios":"levelo://app?vid=363cd716-fe3b-4131-b0d7-bfb529d3966c"},"vehicle_type_id":"4","last_reported":1753863429,"current_range_meters":6800,"station_id":"ce4bgop2rcd13ifvqc1g","pricing_plan_id":"cebpf4jnsgd1na2vs0mg"},{"bike_id":"149fbe11-3bce-47a0-b584-c7c7bd6bb12f","system_id":"levelo_inurba_marseille","lat":43.21625,"lon":5.34466,"is_reserved":false,"is_disabled":false,"rental_uris":{"android":"levelo://app?vid=149fbe11-3bce-47a0-b584-c7c7bd6bb12f","ios":"levelo://app?vid=149fbe11-3bce-47a0-b584-c7c7bd6bb12f"},"vehicle_type_id":"4","last_reported":1753863429,"current_range_meters":6800,"station_id":"","pricing_plan_id":"cebpf4jnsgd1na2vs0mg"},{"bike_id":"659c7904-19bb-4955-983f-1faf3a94e873","system_id":"levelo_inurba_marseille","lat":43.25115,"lon":5.40319,"is_reserved":false,"is_disabled":false,"rental_uris":{"android":"levelo://app?vid=659c7904-19bb-4955-983f-1faf3a94e873","ios":"levelo://app?vid=659c7904-19bb-4955-983f-1faf3a94e873"},"vehicle_type_id":"4","last_reported":1753863429,"current_range_meters":7200,"station_id":"ce4bhlh2rcd13ifvqgig","pricing_plan_id":"cebpf4jnsgd1na2vs0mg"},{"bike_id":"99433346-4276-4217-8da5-a8a78e52d3bb","system_id":"levelo_inurba_marseille","lat":43.29037,"lon":5.375608,"is_reserved":false,"is_disabled":false,"rental_uris":{"android":"levelo://app?vid=99433346-4276-4217-8da5-a8a78e52d3bb","ios":"levelo://app?vid=99433346-4276-4217-8da5-a8a78e52d3bb"},"vehicle_type_id":"4","last_reported":1753863429,"current_range_meters":7200,"station_id":"ce4bh692rcd13ifvqe90","pricing_plan_id":"cebpf4jnsgd1na2vs0mg"},{"bike_id":"64d16de7-cb0f-4526-b27b-218cfae2b026","system_id":"levelo_inurba_marseille","lat":43.32347,"lon":5.36718,"is_reserved":false,"is_disabled":false,"rental_uris":{"android":"levelo://app?vid=64d16de7-cb0f-4526-b27b-218cfae2b026","ios":"levelo://app?vid=64d16de7-cb0f-4526-b27b-218cfae2b026"},"vehicle_type_id":"4","last_reported":1753863429,"current_range_meters":7200,"station_id":"ce4bhsh2rcd13ifvqi2g","pricing_plan_id":"cebpf4jnsgd1na2vs0mg"},{"bike_id":"cddd9b8c-112d-4632-848d-e1334166c4cb","system_id":"levelo_inurba_marseille","lat":43.29711,"lon":5.37689,"is_reserved":false,"is_disabled":false,"rental_uris":{"android":"levelo://app?vid=cddd9b8c-112d-4632-848d-e1334166c4cb","ios":"levelo://app?vid=cddd9b8c-112d-4632-848d-e1334166c4cb"},"vehicle_type_id":"4","last_reported":1753863429,"current_range_meters":7200,"station_id":"ce4bgkh2rcd13ifvqbl0","pricing_plan_id":"cebpf4jnsgd1na2vs0mg"},{"bike_id":"2a3a9f20-00d1-4c95-a093-ba8e28724bc0","system_id":"levelo_inurba_marseille","lat":43.306889,"lon":5.375576,"is_reserved":false,"is_disabled":false,"rental_uris":{"android":"levelo://app?vid=2a3a9f20-00d1-4c95-a093-ba8e28724bc0","ios":"levelo://app?vid=2a3a9f20-00d1-4c95-a093-ba8e28724bc0"},"vehicle_type_id":"4","last_reported":1753863429,"current_range_meters":7200,"station_id":"","pricing_plan_id":"cebpf4jnsgd1na2vs0mg"},{"bike_id":"ee294293-b484-40ec-a941-e6b5b62a025b","system_id":"levelo_inurba_marseille","lat":43.21189,"lon":5.350736,"is_reserved":false,"is_disabled":false,"rental_uris":{"android":"levelo://app?vid=ee294293-b484-40ec-a941-e6b5b62a025b","ios":"levelo://app?vid=ee294293-b484-40ec-a941-e6b5b62a025b"},"vehicle_type_id":"4","last_reported":1753863429,"current_range_meters":8000,"station_id":"st_cvj6sg6p6f1abm77japg","pricing_plan_id":"cebpf4jnsgd1na2vs0mg"},{"bike_id":"3b08c7fe-da62-4fb4-8da1-3e8b0064e2d8","system_id":"levelo_inurba_marseille","lat":43.308905,"lon":5.396431,"is_reserved":false,"is_disabled":false,"rental_uris":{"android":"levelo://app?vid=3b08c7fe-da62-4fb4-8da1-3e8b0064e2d8","ios":"levelo://app?vid=3b08c7fe-da62-4fb4-8da1-3e8b0064e2d8"},"vehicle_type_id":"4","last_reported":1753863429,"current_range_meters":8000,"station_id":"ce4bh012rcd13ifvqcv0","pricing_plan_id":"cebpf4jnsgd1na2vs0mg"},{"bike_id":"6ece6d3c-2e2e-4625-81f6-1bd7ab7fe783","system_id":"levelo_inurba_marseille","lat":43.30169,"lon":5.38081,"is_reserved":false,"is_disabled":false,"rental_uris":{"android":"levelo://app?vid=6ece6d3c-2e2e-4625-81f6-1bd7ab7fe783","ios":"levelo://app?vid=6ece6d3c-2e2e-4625-81f6-1bd7ab7fe783"},"vehicle_type_id":"4","last_reported":1753863429,"current_range_meters":8000,"station_id":"ce4bgjp2rcd13ifvqbh0","pricing_plan_id":"cebpf4jnsgd1na2vs0mg"},{"bike_id":"03512f84-cd81-4d92-a653-768493ed1b9f","system_id":"levelo_inurba_marseille","lat":43.29847,"lon":5.36272,"is_reserved":false,"is_disabled":false,"rental_uris":{"android":"levelo://app?vid=03512f84-cd81-4d92-a653-768493ed1b9f","ios":"levelo://app?vid=03512f84-cd81-4d92-a653-768493ed1b9f"},"vehicle_type_id":"4","last_reported":1753863429,"current_range_meters":7200,"station_id":"ce4bgpp2rcd13ifvqc3g","pricing_plan_id":"cebpf4jnsgd1na2vs0mg"},{"bike_id":"d4b0442d-37e3-4887-8827-87b59f4e9086","system_id":"levelo_inurba_marseille","lat":43.2977,"lon":5.38108,"is_reserved":false,"is_disabled":false,"rental_uris":{"android":"levelo://app?vid=d4b0442d-37e3-4887-8827-87b59f4e9086","ios":"levelo://app?vid=d4b0442d-37e3-4887-8827-87b59f4e9086"},"vehicle_type_id":"4","last_reported":1753863429,"current_range_meters":8000,"station_id":"","pricing_plan_id":"cebpf4jnsgd1na2vs0mg"},{"bike_id":"fb9eedb1-c7f7-4794-a1e0-c02d192d0347","system_id":"levelo_inurba_marseille","lat":43.30952,"lon":5.3903,"is_reserved":false,"is_disabled":false,"rental_uris":{"android":"levelo://app?vid=fb9eedb1-c7f7-4794-a1e0-c02d192d0347","ios":"levelo://app?vid=fb9eedb1-c7f7-4794-a1e0-c02d192d0347"},"vehicle_type_id":"4","last_reported":1753863429,"current_range_meters":8000,"station_id":"ce4bgup2rcd13ifvqco0","pricing_plan_id":"cebpf4jnsgd1na2vs0mg"},{"bike_id":"aa94a41f-646e-4237-919d-507b2ab1412e","system_id":"levelo_inurba_marseille","lat":43.27194,"lon":5.39168,"is_reserved":false,"is_disabled":false,"rental_uris":{"android":"levelo://app?vid=aa94a41f-646e-4237-919d-507b2ab1412e","ios":"levelo://app?vid=aa94a41f-646e-4237-919d-507b2ab1412e"},"vehicle_type_id":"4","last_reported":1753863429,"current_range_meters":8000,"station_id":"ce4bhhp2rcd13ifvqfm0","pricing_plan_id":"cebpf4jnsgd1na2vs0mg"},{"bike_id":"bb650ed0-d989-4f7c-9fda-1512931e29aa","system_id":"levelo_inurba_marseille","lat":43.29974,"lon":5.37208,"is_reserved":false,"is_disabled":false,"rental_uris":{"android":"levelo://app?vid=bb650ed0-d989-4f7c-9fda-1512931e29aa","ios":"levelo://app?vid=bb650ed0-d989-4f7c-9fda-1512931e29aa"},"vehicle_type_id":"4","last_reported":1753863429,"current_range_meters":8000,"station_id":"ce4bgr92rcd13ifvqc7g","pricing_plan_id":"cebpf4jnsgd1na2vs0mg"},{"bike_id":"7e9aeb8e-f66f-43c2-a59d-c0e42783ddbc","system_id":"levelo_inurba_marseille","lat":43.253989,"lon":5.418976,"is_reserved":false,"is_disabled":false,"rental_uris":{"android":"levelo://app?vid=7e9aeb8e-f66f-43c2-a59d-c0e42783ddbc","ios":"levelo://app?vid=7e9aeb8e-f66f-43c2-a59d-c0e42783ddbc"},"vehicle_type_id":"4","last_reported":1753863429,"current_range_meters":8400,"station_id":"","pricing_plan_id":"cebpf4jnsgd1na2vs0mg"},{"bike_id":"37fcf059-83b8-4b6e-bc28-0c83f77e3c05","system_id":"levelo_inurba_marseille","lat":43.22557,"lon":5.34759,"is_reserved":false,"is_disabled":false,"rental_uris":{"android":"levelo://app?vid=37fcf059-83b8-4b6e-bc28-0c83f77e3c05","ios":"levelo://app?vid=37fcf059-83b8-4b6e-bc28-0c83f77e3c05"},"vehicle_type_id":"4","last_reported":1753863429,"current_range_meters":8400,"station_id":"","pricing_plan_id":"cebpf4jnsgd1na2vs0mg"},{"bike_id":"7cc1da72-5a84-4656-af48-1b30d4971806","system_id":"levelo_inurba_marseille","lat":43.26225,"lon":5.39847,"is_reserved":false,"is_disabled":false,"rental_uris":{"android":"levelo://app?vid=7cc1da72-5a84-4656-af48-1b30d4971806","ios":"levelo://app?vid=7cc1da72-5a84-4656-af48-1b30d4971806"},"vehicle_type_id":"4","last_reported":1753863429,"current_range_meters":8400,"station_id":"","pricing_plan_id":"cebpf4jnsgd1na2vs0mg"},{"bike_id":"a8f33e8c-d590-49e9-bb0e-6f0eabb174c1","system_id":"levelo_inurba_marseille","lat":43.3053,"lon":5.36696,"is_reserved":false,"is_disabled":false,"rental_uris":{"android":"levelo://app?vid=a8f33e8c-d590-49e9-bb0e-6f0eabb174c1","ios":"levelo://app?vid=a8f33e8c-d590-49e9-bb0e-6f0eabb174c1"},"vehicle_type_id":"4","last_reported":1753863429,"current_range_meters":8400,"station_id":"ce4bgrp2rcd13ifvqc9g","pricing_plan_id":"cebpf4jnsgd1na2vs0mg"},{"bike_id":"b75a439a-68a8-4ba3-89f3-7f38a4e0b99c","system_id":"levelo_inurba_marseille","lat":43.3375,"lon":5.37461,"is_reserved":false,"is_disabled":false,"rental_uris":{"android":"levelo://app?vid=b75a439a-68a8-4ba3-89f3-7f38a4e0b99c","ios":"levelo://app?vid=b75a439a-68a8-4ba3-89f3-7f38a4e0b99c"},"vehicle_type_id":"4","last_reported":1753863429,"current_range_meters":8800,"station_id":"","pricing_plan_id":"cebpf4jnsgd1na2vs0mg"},{"bike_id":"23a9cf6b-0941-4984-afb3-d88ba9b1188d","system_id":"levelo_inurba_marseille","lat":43.26206,"lon":5.37446,"is_reserved":false,"is_disabled":false,"rental_uris":{"android":"levelo://app?vid=23a9cf6b-0941-4984-afb3-d88ba9b1188d","ios":"levelo://app?vid=23a9cf6b-0941-4984-afb3-d88ba9b1188d"},"vehicle_type_id":"4","last_reported":1753863429,"current_range_meters":8800,"station_id":"ce4bhgp2rcd13ifvqfc0","pricing_plan_id":"cebpf4jnsgd1na2vs0mg"},{"bike_id":"b5e469a6-8e8f-4b1a-91cc-e9f6f04151ad","system_id":"levelo_inurba_marseille","lat":43.29579,"lon":5.43683,"is_reserved":false,"is_disabled":false,"rental_uris":{"android":"levelo://app?vid=b5e469a6-8e8f-4b1a-91cc-e9f6f04151ad","ios":"levelo://app?vid=b5e469a6-8e8f-4b1a-91cc-e9f6f04151ad"},"vehicle_type_id":"4","last_reported":1753863429,"current_range_meters":8800,"station_id":"","pricing_plan_id":"cebpf4jnsgd1na2vs0mg"},{"bike_id":"55201a9e-328f-452a-8b58-b76f0e5a4511","system_id":"levelo_inurba_marseille","lat":43.23181,"lon":5.400041,"is_reserved":false,"is_disabled":true,"rental_uris":{"android":"levelo://app?vid=55201a9e-328f-452a-8b58-b76f0e5a4511","ios":"levelo://app?vid=55201a9e-328f-452a-8b58-b76f0e5a4511"},"vehicle_type_id":"4","last_reported":1753863429,"current_range_meters":8800,"station_id":"ce4bhn12rcd13ifvqgqg","pricing_plan_id":"cebpf4jnsgd1na2vs0mg"},{"bike_id":"145808b6-bd6e-4373-a5f8-64c90b6b6c82","system_id":"levelo_inurba_marseille","lat":43.31391,"lon":5.36661,"is_reserved":false,"is_disabled":false,"rental_uris":{"android":"levelo://app?vid=145808b6-bd6e-4373-a5f8-64c90b6b6c82","ios":"levelo://app?vid=145808b6-bd6e-4373-a5f8-64c90b6b6c82"},"vehicle_type_id":"4","last_reported":1753863429,"current_range_meters":8800,"station_id":"","pricing_plan_id":"cebpf4jnsgd1na2vs0mg"},{"bike_id":"b91eea8e-5bfd-4015-80e3-c6a73f1ee420","system_id":"levelo_inurba_marseille","lat":43.321105,"lon":5.36771,"is_reserved":false,"is_disabled":false,"rental_uris":{"android":"levelo://app?vid=b91eea8e-5bfd-4015-80e3-c6a73f1ee420","ios":"levelo://app?vid=b91eea8e-5bfd-4015-80e3-c6a73f1ee420"},"vehicle_type_id":"4","last_reported":1753863429,"current_range_meters":8800,"station_id":"ce4bhrh2rcd13ifvqhug","pricing_plan_id":"cebpf4jnsgd1na2vs0mg"},{"bike_id":"7e77a525-6de3-427f-8fea-3116f5eed69b","system_id":"levelo_inurba_marseille","lat":43.27425,"lon":5.39412,"is_reserved":false,"is_disabled":false,"rental_uris":{"android":"levelo://app?vid=7e77a525-6de3-427f-8fea-3116f5eed69b","ios":"levelo://app?vid=7e77a525-6de3-427f-8fea-3116f5eed69b"},"vehicle_type_id":"4","last_reported":1753863429,"current_range_meters":9200,"station_id":"ce4bhdp2rcd13ifvqf20","pricing_plan_id":"cebpf4jnsgd1na2vs0mg"},{"bike_id":"ca224554-ecbb-4d5b-90e2-c8e8adc80c7f","system_id":"levelo_inurba_marseille","lat":43.30192,"lon":5.36619,"is_reserved":false,"is_disabled":false,"rental_uris":{"android":"levelo://app?vid=ca224554-ecbb-4d5b-90e2-c8e8adc80c7f","ios":"levelo://app?vid=ca224554-ecbb-4d5b-90e2-c8e8adc80c7f"},"vehicle_type_id":"4","last_reported":1753863429,"current_range_meters":9200,"station_id":"ce4bgrh2rcd13ifvqc8g","pricing_plan_id":"cebpf4jnsgd1na2vs0mg"},{"bike_id":"91dedfa9-6c8d-437a-a4ea-107111842acd","system_id":"levelo_inurba_marseille","lat":43.28056,"lon":5.36931,"is_reserved":false,"is_disabled":false,"rental_uris":{"android":"levelo://app?vid=91dedfa9-6c8d-437a-a4ea-107111842acd","ios":"levelo://app?vid=91dedfa9-6c8d-437a-a4ea-107111842acd"},"vehicle_type_id":"4","last_reported":1753863429,"current_range_meters":9200,"station_id":"ce4bha12rcd13ifvqef0","pricing_plan_id":"cebpf4jnsgd1na2vs0mg"},{"bike_id":"a5d21f19-a2f8-4c79-9341-84f97b97beb0","system_id":"levelo_inurba_marseille","lat":43.33389,"lon":5.40082,"is_reserved":false,"is_disabled":false,"rental_uris":{"android":"levelo://app?vid=a5d21f19-a2f8-4c79-9341-84f97b97beb0","ios":"levelo://app?vid=a5d21f19-a2f8-4c79-9341-84f97b97beb0"},"vehicle_type_id":"4","last_reported":1753863429,"current_range_meters":9200,"station_id":"","pricing_plan_id":"cebpf4jnsgd1na2vs0mg"},{"bike_id":"73c28b44-fb9a-4083-b9eb-e60de241e4cb","system_id":"levelo_inurba_marseille","lat":43.32363,"lon":5.38887,"is_reserved":false,"is_disabled":false,"rental_uris":{"android":"levelo://app?vid=73c28b44-fb9a-4083-b9eb-e60de241e4cb","ios":"levelo://app?vid=73c28b44-fb9a-4083-b9eb-e60de241e4cb"},"vehicle_type_id":"4","last_reported":1753863429,"current_range_meters":9600,"station_id":"ce4bhqp2rcd13ifvqhog","pricing_plan_id":"cebpf4jnsgd1na2vs0mg"},{"bike_id":"da913aa8-3d8c-4ab2-b48f-187998fd2a99","system_id":"levelo_inurba_marseille","lat":43.29858,"lon":5.36287,"is_reserved":false,"is_disabled":false,"rental_uris":{"android":"levelo://app?vid=da913aa8-3d8c-4ab2-b48f-187998fd2a99","ios":"levelo://app?vid=da913aa8-3d8c-4ab2-b48f-187998fd2a99"},"vehicle_type_id":"4","last_reported":1753863429,"current_range_meters":9600,"station_id":"ce4bgpp2rcd13ifvqc3g","pricing_plan_id":"cebpf4jnsgd1na2vs0mg"},{"bike_id":"24256dfb-30b8-44fe-a71a-46c10cfa4edc","system_id":"levelo_inurba_marseille","lat":43.31369,"lon":5.36722,"is_reserved":false,"is_disabled":false,"rental_uris":{"android":"levelo://app?vid=24256dfb-30b8-44fe-a71a-46c10cfa4edc","ios":"levelo://app?vid=24256dfb-30b8-44fe-a71a-46c10cfa4edc"},"vehicle_type_id":"4","last_reported":1753863429,"current_range_meters":9600,"station_id":"ce4bgr92rcd13ifvqc6g","pricing_plan_id":"cebpf4jnsgd1na2vs0mg"},{"bike_id":"b0f2b2c1-b378-4164-a22b-6eceaa434acc","system_id":"levelo_inurba_marseille","lat":43.29219,"lon":5.42695,"is_reserved":false,"is_disabled":false,"rental_uris":{"android":"levelo://app?vid=b0f2b2c1-b378-4164-a22b-6eceaa434acc","ios":"levelo://app?vid=b0f2b2c1-b378-4164-a22b-6eceaa434acc"},"vehicle_type_id":"4","last_reported":1753863429,"current_range_meters":9600,"station_id":"","pricing_plan_id":"cebpf4jnsgd1na2vs0mg"},{"bike_id":"a4ee2dcd-4c4f-415e-a6ee-b0b0c00440a0","system_id":"levelo_inurba_marseille","lat":43.28276,"lon":5.35059,"is_reserved":false,"is_disabled":false,"rental_uris":{"android":"levelo://app?vid=a4ee2dcd-4c4f-415e-a6ee-b0b0c00440a0","ios":"levelo://app?vid=a4ee2dcd-4c4f-415e-a6ee-b0b0c00440a0"},"vehicle_type_id":"4","last_reported":1753863429,"current_range_meters":9200,"station_id":"ce4bhbp2rcd13ifvqerg","pricing_plan_id":"cebpf4jnsgd1na2vs0mg"},{"bike_id":"0dc99cab-1546-4588-8ef9-e9c6ae8e0a6f","system_id":"levelo_inurba_marseille","lat":43.23064,"lon":5.35492,"is_reserved":false,"is_disabled":false,"rental_uris":{"android":"levelo://app?vid=0dc99cab-1546-4588-8ef9-e9c6ae8e0a6f","ios":"levelo://app?vid=0dc99cab-1546-4588-8ef9-e9c6ae8e0a6f"},"vehicle_type_id":"4","last_reported":1753863429,"current_range_meters":9600,"station_id":"cpo3342slgdg3j2ifvpg","pricing_plan_id":"cebpf4jnsgd1na2vs0mg"},{"bike_id":"036b9385-ac6e-4636-91bb-e02909e77d53","system_id":"levelo_inurba_marseille","lat":43.321167,"lon":5.367883,"is_reserved":false,"is_disabled":false,"rental_uris":{"android":"levelo://app?vid=036b9385-ac6e-4636-91bb-e02909e77d53","ios":"levelo://app?vid=036b9385-ac6e-4636-91bb-e02909e77d53"},"vehicle_type_id":"4","last_reported":1753863429,"current_range_meters":9600,"station_id":"ce4bhrh2rcd13ifvqhug","pricing_plan_id":"cebpf4jnsgd1na2vs0mg"},{"bike_id":"d58153b4-6256-4388-8959-5863413d6765","system_id":"levelo_inurba_marseille","lat":43.29843,"lon":5.3626,"is_reserved":false,"is_disabled":false,"rental_uris":{"android":"levelo://app?vid=d58153b4-6256-4388-8959-5863413d6765","ios":"levelo://app?vid=d58153b4-6256-4388-8959-5863413d6765"},"vehicle_type_id":"4","last_reported":1753863429,"current_range_meters":9600,"station_id":"ce4bgpp2rcd13ifvqc3g","pricing_plan_id":"cebpf4jnsgd1na2vs0mg"},{"bike_id":"7234b995-9d69-4c31-8729-297dc79e79a3","system_id":"levelo_inurba_marseille","lat":43.25953,"lon":5.40912,"is_reserved":false,"is_disabled":false,"rental_uris":{"android":"levelo://app?vid=7234b995-9d69-4c31-8729-297dc79e79a3","ios":"levelo://app?vid=7234b995-9d69-4c31-8729-297dc79e79a3"},"vehicle_type_id":"4","last_reported":1753863429,"current_range_meters":9600,"station_id":"ce4bhm92rcd13ifvqglg","pricing_plan_id":"cebpf4jnsgd1na2vs0mg"},{"bike_id":"1d9c8f69-ee78-4f0e-b9ef-f3cf3fc9103f","system_id":"levelo_inurba_marseille","lat":43.23189,"lon":5.35544,"is_reserved":false,"is_disabled":false,"rental_uris":{"android":"levelo://app?vid=1d9c8f69-ee78-4f0e-b9ef-f3cf3fc9103f","ios":"levelo://app?vid=1d9c8f69-ee78-4f0e-b9ef-f3cf3fc9103f"},"vehicle_type_id":"4","last_reported":1753863429,"current_range_meters":10000,"station_id":"ce4bhu92rcd13ifvqi70","pricing_plan_id":"cebpf4jnsgd1na2vs0mg"},{"bike_id":"f73f8966-8b7e-457a-8b9d-c5b89ce65a5c","system_id":"levelo_inurba_marseille","lat":43.28413,"lon":5.34989,"is_reserved":false,"is_disabled":true,"rental_uris":{"android":"levelo://app?vid=f73f8966-8b7e-457a-8b9d-c5b89ce65a5c","ios":"levelo://app?vid=f73f8966-8b7e-457a-8b9d-c5b89ce65a5c"},"vehicle_type_id":"4","last_reported":1753863429,"current_range_meters":10000,"station_id":"ce4bhbh2rcd13ifvqepg","pricing_plan_id":"cebpf4jnsgd1na2vs0mg"},{"bike_id":"32a71bae-12fc-4517-b448-ebcc8115090b","system_id":"levelo_inurba_marseille","lat":43.29265,"lon":5.37625,"is_reserved":false,"is_disabled":false,"rental_uris":{"android":"levelo://app?vid=32a71bae-12fc-4517-b448-ebcc8115090b","ios":"levelo://app?vid=32a71bae-12fc-4517-b448-ebcc8115090b"},"vehicle_type_id":"4","last_reported":1753863429,"current_range_meters":10000,"station_id":"ce4bgi12rcd13ifvqb80","pricing_plan_id":"cebpf4jnsgd1na2vs0mg"},{"bike_id":"3f2e4588-2f11-45a0-9570-5e81f866b02f","system_id":"levelo_inurba_marseille","lat":43.31675,"lon":5.37759,"is_reserved":false,"is_disabled":false,"rental_uris":{"android":"levelo://app?vid=3f2e4588-2f11-45a0-9570-5e81f866b02f","ios":"levelo://app?vid=3f2e4588-2f11-45a0-9570-5e81f866b02f"},"vehicle_type_id":"4","last_reported":1753863429,"current_range_meters":10000,"station_id":"ce4bgth2rcd13ifvqch0","pricing_plan_id":"cebpf4jnsgd1na2vs0mg"},{"bike_id":"b7234136-bf62-4ef1-9964-a9c43529d354","system_id":"levelo_inurba_marseille","lat":43.31845,"lon":5.39396,"is_reserved":false,"is_disabled":false,"rental_uris":{"android":"levelo://app?vid=b7234136-bf62-4ef1-9964-a9c43529d354","ios":"levelo://app?vid=b7234136-bf62-4ef1-9964-a9c43529d354"},"vehicle_type_id":"4","last_reported":1753863429,"current_range_meters":10000,"station_id":"","pricing_plan_id":"cebpf4jnsgd1na2vs0mg"},{"bike_id":"3a9e996e-b832-4144-9f31-b5a457f7c20e","system_id":"levelo_inurba_marseille","lat":43.29053,"lon":5.35906,"is_reserved":false,"is_disabled":false,"rental_uris":{"android":"levelo://app?vid=3a9e996e-b832-4144-9f31-b5a457f7c20e","ios":"levelo://app?vid=3a9e996e-b832-4144-9f31-b5a457f7c20e"},"vehicle_type_id":"4","last_reported":1753863429,"current_range_meters":10000,"station_id":"ce4bha92rcd13ifvqeg0","pricing_plan_id":"cebpf4jnsgd1na2vs0mg"},{"bike_id":"a6cf96ef-5002-481d-9cd7-7b0e3d9819e6","system_id":"levelo_inurba_marseille","lat":43.29874,"lon":5.39722,"is_reserved":false,"is_disabled":false,"rental_uris":{"android":"levelo://app?vid=a6cf96ef-5002-481d-9cd7-7b0e3d9819e6","ios":"levelo://app?vid=a6cf96ef-5002-481d-9cd7-7b0e3d9819e6"},"vehicle_type_id":"4","last_reported":1753863429,"current_range_meters":10000,"station_id":"ce4bh0h2rcd13ifvqd50","pricing_plan_id":"cebpf4jnsgd1na2vs0mg"},{"bike_id":"e137dc03-26cf-440c-b3ea-1ea522645199","system_id":"levelo_inurba_marseille","lat":43.280815,"lon":5.396626,"is_reserved":false,"is_disabled":false,"rental_uris":{"android":"levelo://app?vid=e137dc03-26cf-440c-b3ea-1ea522645199","ios":"levelo://app?vid=e137dc03-26cf-440c-b3ea-1ea522645199"},"vehicle_type_id":"4","last_reported":1753863429,"current_range_meters":10000,"station_id":"","pricing_plan_id":"cebpf4jnsgd1na2vs0mg"},{"bike_id":"e9624a09-b572-4bcb-944b-ef4683557984","system_id":"levelo_inurba_marseille","lat":43.23056,"lon":5.35494,"is_reserved":false,"is_disabled":true,"rental_uris":{"android":"levelo://app?vid=e9624a09-b572-4bcb-944b-ef4683557984","ios":"levelo://app?vid=e9624a09-b572-4bcb-944b-ef4683557984"},"vehicle_type_id":"4","last_reported":1753863429,"current_range_meters":10000,"station_id":"cpo3342slgdg3j2ifvpg","pricing_plan_id":"cebpf4jnsgd1na2vs0mg"},{"bike_id":"e821e31a-1165-4015-a272-618d57f40e4f","system_id":"levelo_inurba_marseille","lat":43.29599,"lon":5.38094,"is_reserved":false,"is_disabled":false,"rental_uris":{"android":"levelo://app?vid=e821e31a-1165-4015-a272-618d57f40e4f","ios":"levelo://app?vid=e821e31a-1165-4015-a272-618d57f40e4f"},"vehicle_type_id":"4","last_reported":1753863429,"current_range_meters":10800,"station_id":"ce4bgl12rcd13ifvqbo0","pricing_plan_id":"cebpf4jnsgd1na2vs0mg"},{"bike_id":"ab666d87-3e70-4814-9ff2-9c4c5eb8d522","system_id":"levelo_inurba_marseille","lat":43.32136,"lon":5.36768,"is_reserved":false,"is_disabled":false,"rental_uris":{"android":"levelo://app?vid=ab666d87-3e70-4814-9ff2-9c4c5eb8d522","ios":"levelo://app?vid=ab666d87-3e70-4814-9ff2-9c4c5eb8d522"},"vehicle_type_id":"4","last_reported":1753863429,"current_range_meters":10800,"station_id":"","pricing_plan_id":"cebpf4jnsgd1na2vs0mg"},{"bike_id":"9f48b346-faec-4f38-972b-4f84c66eb5e2","system_id":"levelo_inurba_marseille","lat":43.29548,"lon":5.37496,"is_reserved":false,"is_disabled":false,"rental_uris":{"android":"levelo://app?vid=9f48b346-faec-4f38-972b-4f84c66eb5e2","ios":"levelo://app?vid=9f48b346-faec-4f38-972b-4f84c66eb5e2"},"vehicle_type_id":"4","last_reported":1753863429,"current_range_meters":11200,"station_id":"ce4bgkp2rcd13ifvqbmg","pricing_plan_id":"cebpf4jnsgd1na2vs0mg"},{"bike_id":"a027973f-c8c9-4811-a512-806c935b4c27","system_id":"levelo_inurba_marseille","lat":43.21214,"lon":5.35088,"is_reserved":false,"is_disabled":false,"rental_uris":{"android":"levelo://app?vid=a027973f-c8c9-4811-a512-806c935b4c27","ios":"levelo://app?vid=a027973f-c8c9-4811-a512-806c935b4c27"},"vehicle_type_id":"4","last_reported":1753863429,"current_range_meters":11200,"station_id":"st_cvj6sg6p6f1abm77japg","pricing_plan_id":"cebpf4jnsgd1na2vs0mg"},{"bike_id":"8871fe07-e1ee-44a8-a557-d542f67d9324","system_id":"levelo_inurba_marseille","lat":43.28718,"lon":5.37935,"is_reserved":false,"is_disabled":false,"rental_uris":{"android":"levelo://app?vid=8871fe07-e1ee-44a8-a557-d542f67d9324","ios":"levelo://app?vid=8871fe07-e1ee-44a8-a557-d542f67d9324"},"vehicle_type_id":"4","last_reported":1753863429,"current_range_meters":11200,"station_id":"ce4bh9p2rcd13ifvqec0","pricing_plan_id":"cebpf4jnsgd1na2vs0mg"},{"bike_id":"45aac5c3-2446-4ec7-8f39-4ac0d7e020e1","system_id":"levelo_inurba_marseille","lat":43.23193,"lon":5.3999,"is_reserved":false,"is_disabled":false,"rental_uris":{"android":"levelo://app?vid=45aac5c3-2446-4ec7-8f39-4ac0d7e020e1","ios":"levelo://app?vid=45aac5c3-2446-4ec7-8f39-4ac0d7e020e1"},"vehicle_type_id":"4","last_reported":1753863429,"current_range_meters":11600,"station_id":"ce4bhn12rcd13ifvqgqg","pricing_plan_id":"cebpf4jnsgd1na2vs0mg"},{"bike_id":"ed2653a8-cef8-419b-b19a-e1a7f6058aa9","system_id":"levelo_inurba_marseille","lat":43.23194,"lon":5.35549,"is_reserved":false,"is_disabled":false,"rental_uris":{"android":"levelo://app?vid=ed2653a8-cef8-419b-b19a-e1a7f6058aa9","ios":"levelo://app?vid=ed2653a8-cef8-419b-b19a-e1a7f6058aa9"},"vehicle_type_id":"4","last_reported":1753863429,"current_range_meters":11600,"station_id":"ce4bhu92rcd13ifvqi70","pricing_plan_id":"cebpf4jnsgd1na2vs0mg"},{"bike_id":"5af96fbf-8e7d-48b2-940d-ad1702f3b7c6","system_id":"levelo_inurba_marseille","lat":43.28623,"lon":5.3706,"is_reserved":false,"is_disabled":false,"rental_uris":{"android":"levelo://app?vid=5af96fbf-8e7d-48b2-940d-ad1702f3b7c6","ios":"levelo://app?vid=5af96fbf-8e7d-48b2-940d-ad1702f3b7c6"},"vehicle_type_id":"4","last_reported":1753863429,"current_range_meters":11600,"station_id":"ce4bht12rcd13ifvqi60","pricing_plan_id":"cebpf4jnsgd1na2vs0mg"},{"bike_id":"431d40db-954f-490b-905f-c59a66798509","system_id":"levelo_inurba_marseille","lat":43.25001,"lon":5.38939,"is_reserved":false,"is_disabled":false,"rental_uris":{"android":"levelo://app?vid=431d40db-954f-490b-905f-c59a66798509","ios":"levelo://app?vid=431d40db-954f-490b-905f-c59a66798509"},"vehicle_type_id":"4","last_reported":1753863429,"current_range_meters":11600,"station_id":"ce4bhgp2rcd13ifvqfd0","pricing_plan_id":"cebpf4jnsgd1na2vs0mg"},{"bike_id":"2e397900-529c-4043-861b-635ddeb95abe","system_id":"levelo_inurba_marseille","lat":43.31372,"lon":5.36767,"is_reserved":false,"is_disabled":false,"rental_uris":{"android":"levelo://app?vid=2e397900-529c-4043-861b-635ddeb95abe","ios":"levelo://app?vid=2e397900-529c-4043-861b-635ddeb95abe"},"vehicle_type_id":"4","last_reported":1753863429,"current_range_meters":11600,"station_id":"ce4bgr92rcd13ifvqc6g","pricing_plan_id":"cebpf4jnsgd1na2vs0mg"},{"bike_id":"938becca-5de5-4c97-bb97-3e45de7eff02","system_id":"levelo_inurba_marseille","lat":43.23188,"lon":5.399886,"is_reserved":false,"is_disabled":false,"rental_uris":{"android":"levelo://app?vid=938becca-5de5-4c97-bb97-3e45de7eff02","ios":"levelo://app?vid=938becca-5de5-4c97-bb97-3e45de7eff02"},"vehicle_type_id":"4","last_reported":1753863429,"current_range_meters":11600,"station_id":"ce4bhn12rcd13ifvqgqg","pricing_plan_id":"cebpf4jnsgd1na2vs0mg"},{"bike_id":"ef65f066-de96-432a-a3bf-b1b3ad0e62a1","system_id":"levelo_inurba_marseille","lat":43.32101,"lon":5.36811,"is_reserved":false,"is_disabled":false,"rental_uris":{"android":"levelo://app?vid=ef65f066-de96-432a-a3bf-b1b3ad0e62a1","ios":"levelo://app?vid=ef65f066-de96-432a-a3bf-b1b3ad0e62a1"},"vehicle_type_id":"4","last_reported":1753863429,"current_range_meters":11600,"station_id":"ce4bhrh2rcd13ifvqhug","pricing_plan_id":"cebpf4jnsgd1na2vs0mg"},{"bike_id":"b53671b1-7291-431f-8886-5df0cd98407c","system_id":"levelo_inurba_marseille","lat":43.30093,"lon":5.39057,"is_reserved":false,"is_disabled":false,"rental_uris":{"android":"levelo://app?vid=b53671b1-7291-431f-8886-5df0cd98407c","ios":"levelo://app?vid=b53671b1-7291-431f-8886-5df0cd98407c"},"vehicle_type_id":"4","last_reported":1753863429,"current_range_meters":11600,"station_id":"ce4bh192rcd13ifvqdb0","pricing_plan_id":"cebpf4jnsgd1na2vs0mg"},{"bike_id":"965cb629-b3d9-4a5a-912d-e7f818618cc3","system_id":"levelo_inurba_marseille","lat":43.30951,"lon":5.39038,"is_reserved":false,"is_disabled":false,"rental_uris":{"android":"levelo://app?vid=965cb629-b3d9-4a5a-912d-e7f818618cc3","ios":"levelo://app?vid=965cb629-b3d9-4a5a-912d-e7f818618cc3"},"vehicle_type_id":"4","last_reported":1753863429,"current_range_meters":11600,"station_id":"ce4bgup2rcd13ifvqco0","pricing_plan_id":"cebpf4jnsgd1na2vs0mg"},{"bike_id":"00de3457-bb26-4f86-be97-d29604933a4d","system_id":"levelo_inurba_marseille","lat":43.286427,"lon":5.371713,"is_reserved":false,"is_disabled":false,"rental_uris":{"android":"levelo://app?vid=00de3457-bb26-4f86-be97-d29604933a4d","ios":"levelo://app?vid=00de3457-bb26-4f86-be97-d29604933a4d"},"vehicle_type_id":"4","last_reported":1753863429,"current_range_meters":11600,"station_id":"","pricing_plan_id":"cebpf4jnsgd1na2vs0mg"},{"bike_id":"b48f5dd0-6dba-4454-bab2-8fe0e77c0439","system_id":"levelo_inurba_marseille","lat":43.241688,"lon":5.363883,"is_reserved":false,"is_disabled":false,"rental_uris":{"android":"levelo://app?vid=b48f5dd0-6dba-4454-bab2-8fe0e77c0439","ios":"levelo://app?vid=b48f5dd0-6dba-4454-bab2-8fe0e77c0439"},"vehicle_type_id":"4","last_reported":1753863429,"current_range_meters":12000,"station_id":"cpo36qri1sfpv3e86is0","pricing_plan_id":"cebpf4jnsgd1na2vs0mg"},{"bike_id":"c52264be-f098-4c49-b7c7-f4798bc7196f","system_id":"levelo_inurba_marseille","lat":43.24097,"lon":5.363246,"is_reserved":false,"is_disabled":false,"rental_uris":{"android":"levelo://app?vid=c52264be-f098-4c49-b7c7-f4798bc7196f","ios":"levelo://app?vid=c52264be-f098-4c49-b7c7-f4798bc7196f"},"vehicle_type_id":"4","last_reported":1753863429,"current_range_meters":12000,"station_id":"ce4bhi12rcd13ifvqfp0","pricing_plan_id":"cebpf4jnsgd1na2vs0mg"},{"bike_id":"a3dee983-3a57-4c3f-81b3-946d59684355","system_id":"levelo_inurba_marseille","lat":43.30952,"lon":5.3903,"is_reserved":false,"is_disabled":false,"rental_uris":{"android":"levelo://app?vid=a3dee983-3a57-4c3f-81b3-946d59684355","ios":"levelo://app?vid=a3dee983-3a57-4c3f-81b3-946d59684355"},"vehicle_type_id":"4","last_reported":1753863429,"current_range_meters":12000,"station_id":"ce4bgup2rcd13ifvqco0","pricing_plan_id":"cebpf4jnsgd1na2vs0mg"},{"bike_id":"c20b0e63-9b3e-4b98-a321-7a09cecccd35","system_id":"levelo_inurba_marseille","lat":43.2417,"lon":5.36391,"is_reserved":false,"is_disabled":false,"rental_uris":{"android":"levelo://app?vid=c20b0e63-9b3e-4b98-a321-7a09cecccd35","ios":"levelo://app?vid=c20b0e63-9b3e-4b98-a321-7a09cecccd35"},"vehicle_type_id":"4","last_reported":1753863429,"current_range_meters":12000,"station_id":"cpo36qri1sfpv3e86is0","pricing_plan_id":"cebpf4jnsgd1na2vs0mg"},{"bike_id":"07011de4-93e6-44b9-910b-3084325b7fe4","system_id":"levelo_inurba_marseille","lat":43.32685,"lon":5.39561,"is_reserved":false,"is_disabled":false,"rental_uris":{"android":"levelo://app?vid=07011de4-93e6-44b9-910b-3084325b7fe4","ios":"levelo://app?vid=07011de4-93e6-44b9-910b-3084325b7fe4"},"vehicle_type_id":"4","last_reported":1753863429,"current_range_meters":12000,"station_id":"","pricing_plan_id":"cebpf4jnsgd1na2vs0mg"},{"bike_id":"56803618-f4bb-4562-889c-f29edfe1f004","system_id":"levelo_inurba_marseille","lat":43.29609,"lon":5.38099,"is_reserved":false,"is_disabled":false,"rental_uris":{"android":"levelo://app?vid=56803618-f4bb-4562-889c-f29edfe1f004","ios":"levelo://app?vid=56803618-f4bb-4562-889c-f29edfe1f004"},"vehicle_type_id":"4","last_reported":1753863429,"current_range_meters":12000,"station_id":"ce4bgl12rcd13ifvqbo0","pricing_plan_id":"cebpf4jnsgd1na2vs0mg"},{"bike_id":"cb30d5a1-6776-4ffa-b252-5340200d88d2","system_id":"levelo_inurba_marseille","lat":43.2511,"lon":5.40329,"is_reserved":false,"is_disabled":false,"rental_uris":{"android":"levelo://app?vid=cb30d5a1-6776-4ffa-b252-5340200d88d2","ios":"levelo://app?vid=cb30d5a1-6776-4ffa-b252-5340200d88d2"},"vehicle_type_id":"4","last_reported":1753863429,"current_range_meters":12000,"station_id":"ce4bhlh2rcd13ifvqgig","pricing_plan_id":"cebpf4jnsgd1na2vs0mg"},{"bike_id":"4c063a38-d881-4560-8a91-4a1888d38870","system_id":"levelo_inurba_marseille","lat":43.28158,"lon":5.42639,"is_reserved":false,"is_disabled":false,"rental_uris":{"android":"levelo://app?vid=4c063a38-d881-4560-8a91-4a1888d38870","ios":"levelo://app?vid=4c063a38-d881-4560-8a91-4a1888d38870"},"vehicle_type_id":"4","last_reported":1753863429,"current_range_meters":12400,"station_id":"ce4bhnh2rcd13ifvqgug","pricing_plan_id":"cebpf4jnsgd1na2vs0mg"},{"bike_id":"3d4696de-a064-4a37-9930-53ec06ebfbfd","system_id":"levelo_inurba_marseille","lat":43.31253,"lon":5.36857,"is_reserved":false,"is_disabled":false,"rental_uris":{"android":"levelo://app?vid=3d4696de-a064-4a37-9930-53ec06ebfbfd","ios":"levelo://app?vid=3d4696de-a064-4a37-9930-53ec06ebfbfd"},"vehicle_type_id":"4","last_reported":1753863429,"current_range_meters":12000,"station_id":"ce4bgl92rcd13ifvqbq0","pricing_plan_id":"cebpf4jnsgd1na2vs0mg"},{"bike_id":"e04978f3-d665-4a61-ae50-6a07923d04b6","system_id":"levelo_inurba_marseille","lat":43.28407,"lon":5.34994,"is_reserved":false,"is_disabled":false,"rental_uris":{"android":"levelo://app?vid=e04978f3-d665-4a61-ae50-6a07923d04b6","ios":"levelo://app?vid=e04978f3-d665-4a61-ae50-6a07923d04b6"},"vehicle_type_id":"4","last_reported":1753863429,"current_range_meters":12400,"station_id":"ce4bhbh2rcd13ifvqepg","pricing_plan_id":"cebpf4jnsgd1na2vs0mg"},{"bike_id":"58d60ef7-501e-48a0-a97f-c0e09ff3aab0","system_id":"levelo_inurba_marseille","lat":43.222792,"lon":5.345958,"is_reserved":false,"is_disabled":false,"rental_uris":{"android":"levelo://app?vid=58d60ef7-501e-48a0-a97f-c0e09ff3aab0","ios":"levelo://app?vid=58d60ef7-501e-48a0-a97f-c0e09ff3aab0"},"vehicle_type_id":"4","last_reported":1753863429,"current_range_meters":12400,"station_id":"ce4bhp92rcd13ifvqhag","pricing_plan_id":"cebpf4jnsgd1na2vs0mg"},{"bike_id":"135ab1ea-fc9a-4785-9240-6bfa3adf7c7c","system_id":"levelo_inurba_marseille","lat":43.3239,"lon":5.36778,"is_reserved":false,"is_disabled":false,"rental_uris":{"android":"levelo://app?vid=135ab1ea-fc9a-4785-9240-6bfa3adf7c7c","ios":"levelo://app?vid=135ab1ea-fc9a-4785-9240-6bfa3adf7c7c"},"vehicle_type_id":"4","last_reported":1753863429,"current_range_meters":12800,"station_id":"","pricing_plan_id":"cebpf4jnsgd1na2vs0mg"},{"bike_id":"0589adf5-02d3-40da-b5b6-c249c95d437f","system_id":"levelo_inurba_marseille","lat":43.25004,"lon":5.38936,"is_reserved":false,"is_disabled":false,"rental_uris":{"android":"levelo://app?vid=0589adf5-02d3-40da-b5b6-c249c95d437f","ios":"levelo://app?vid=0589adf5-02d3-40da-b5b6-c249c95d437f"},"vehicle_type_id":"4","last_reported":1753863429,"current_range_meters":12800,"station_id":"ce4bhgp2rcd13ifvqfd0","pricing_plan_id":"cebpf4jnsgd1na2vs0mg"},{"bike_id":"e835e740-02a8-4b55-b83d-8f7e332e158e","system_id":"levelo_inurba_marseille","lat":43.23059,"lon":5.35487,"is_reserved":false,"is_disabled":false,"rental_uris":{"android":"levelo://app?vid=e835e740-02a8-4b55-b83d-8f7e332e158e","ios":"levelo://app?vid=e835e740-02a8-4b55-b83d-8f7e332e158e"},"vehicle_type_id":"4","last_reported":1753863429,"current_range_meters":12800,"station_id":"cpo3342slgdg3j2ifvpg","pricing_plan_id":"cebpf4jnsgd1na2vs0mg"},{"bike_id":"3c65e3a4-d98b-4db2-8d36-951b9612ba65","system_id":"levelo_inurba_marseille","lat":43.231906,"lon":5.355517,"is_reserved":false,"is_disabled":false,"rental_uris":{"android":"levelo://app?vid=3c65e3a4-d98b-4db2-8d36-951b9612ba65","ios":"levelo://app?vid=3c65e3a4-d98b-4db2-8d36-951b9612ba65"},"vehicle_type_id":"4","last_reported":1753863429,"current_range_meters":12800,"station_id":"ce4bhu92rcd13ifvqi70","pricing_plan_id":"cebpf4jnsgd1na2vs0mg"},{"bike_id":"f129605f-c561-462b-9dd8-38b1fae764e6","system_id":"levelo_inurba_marseille","lat":43.323564,"lon":5.367566,"is_reserved":false,"is_disabled":false,"rental_uris":{"android":"levelo://app?vid=f129605f-c561-462b-9dd8-38b1fae764e6","ios":"levelo://app?vid=f129605f-c561-462b-9dd8-38b1fae764e6"},"vehicle_type_id":"4","last_reported":1753863429,"current_range_meters":12800,"station_id":"ce4bhsh2rcd13ifvqi2g","pricing_plan_id":"cebpf4jnsgd1na2vs0mg"},{"bike_id":"afb489fd-6216-426a-9e69-3c1c6e6360e1","system_id":"levelo_inurba_marseille","lat":43.27565,"lon":5.38428,"is_reserved":false,"is_disabled":false,"rental_uris":{"android":"levelo://app?vid=afb489fd-6216-426a-9e69-3c1c6e6360e1","ios":"levelo://app?vid=afb489fd-6216-426a-9e69-3c1c6e6360e1"},"vehicle_type_id":"4","last_reported":1753863429,"current_range_meters":13600,"station_id":"ce4bhh92rcd13ifvqfi0","pricing_plan_id":"cebpf4jnsgd1na2vs0mg"},{"bike_id":"aafc3bc1-c1be-40f5-91e7-c27bec18fc48","system_id":"levelo_inurba_marseille","lat":43.271965,"lon":5.409887,"is_reserved":false,"is_disabled":false,"rental_uris":{"android":"levelo://app?vid=aafc3bc1-c1be-40f5-91e7-c27bec18fc48","ios":"levelo://app?vid=aafc3bc1-c1be-40f5-91e7-c27bec18fc48"},"vehicle_type_id":"4","last_reported":1753863429,"current_range_meters":13600,"station_id":"ce4bhl12rcd13ifvqgf0","pricing_plan_id":"cebpf4jnsgd1na2vs0mg"},{"bike_id":"056e4f3d-4ab7-42da-9834-2ca05b8a0f52","system_id":"levelo_inurba_marseille","lat":43.314782,"lon":5.368545,"is_reserved":false,"is_disabled":false,"rental_uris":{"android":"levelo://app?vid=056e4f3d-4ab7-42da-9834-2ca05b8a0f52","ios":"levelo://app?vid=056e4f3d-4ab7-42da-9834-2ca05b8a0f52"},"vehicle_type_id":"4","last_reported":1753863429,"current_range_meters":13600,"station_id":"","pricing_plan_id":"cebpf4jnsgd1na2vs0mg"},{"bike_id":"9eec0301-4694-4b5a-824c-d28ac74d4fc4","system_id":"levelo_inurba_marseille","lat":43.26223,"lon":5.37437,"is_reserved":false,"is_disabled":false,"rental_uris":{"android":"levelo://app?vid=9eec0301-4694-4b5a-824c-d28ac74d4fc4","ios":"levelo://app?vid=9eec0301-4694-4b5a-824c-d28ac74d4fc4"},"vehicle_type_id":"4","last_reported":1753863429,"current_range_meters":13600,"station_id":"ce4bhgp2rcd13ifvqfc0","pricing_plan_id":"cebpf4jnsgd1na2vs0mg"},{"bike_id":"bd29920e-d0ec-4d53-9907-b0ffd0db20b8","system_id":"levelo_inurba_marseille","lat":43.29173,"lon":5.3715,"is_reserved":false,"is_disabled":false,"rental_uris":{"android":"levelo://app?vid=bd29920e-d0ec-4d53-9907-b0ffd0db20b8","ios":"levelo://app?vid=bd29920e-d0ec-4d53-9907-b0ffd0db20b8"},"vehicle_type_id":"4","last_reported":1753863429,"current_range_meters":14000,"station_id":"ce4bha92rcd13ifvqeh0","pricing_plan_id":"cebpf4jnsgd1na2vs0mg"},{"bike_id":"73d0de2e-50e0-4c91-b1b8-0c051c13e4a0","system_id":"levelo_inurba_marseille","lat":43.33606,"lon":5.4103,"is_reserved":false,"is_disabled":false,"rental_uris":{"android":"levelo://app?vid=73d0de2e-50e0-4c91-b1b8-0c051c13e4a0","ios":"levelo://app?vid=73d0de2e-50e0-4c91-b1b8-0c051c13e4a0"},"vehicle_type_id":"4","last_reported":1753863429,"current_range_meters":14000,"station_id":"ce4bhqh2rcd13ifvqhmg","pricing_plan_id":"cebpf4jnsgd1na2vs0mg"},{"bike_id":"27121016-03d3-4670-9ce6-a156435b86ae","system_id":"levelo_inurba_marseille","lat":43.32355,"lon":5.4061,"is_reserved":false,"is_disabled":false,"rental_uris":{"android":"levelo://app?vid=27121016-03d3-4670-9ce6-a156435b86ae","ios":"levelo://app?vid=27121016-03d3-4670-9ce6-a156435b86ae"},"vehicle_type_id":"4","last_reported":1753863429,"current_range_meters":14000,"station_id":"ce4bhq92rcd13ifvqhjg","pricing_plan_id":"cebpf4jnsgd1na2vs0mg"},{"bike_id":"9bcbc714-ca2f-4747-a28c-5113df8dde84","system_id":"levelo_inurba_marseille","lat":43.31259,"lon":5.36857,"is_reserved":false,"is_disabled":false,"rental_uris":{"android":"levelo://app?vid=9bcbc714-ca2f-4747-a28c-5113df8dde84","ios":"levelo://app?vid=9bcbc714-ca2f-4747-a28c-5113df8dde84"},"vehicle_type_id":"4","last_reported":1753863429,"current_range_meters":14000,"station_id":"ce4bgl92rcd13ifvqbq0","pricing_plan_id":"cebpf4jnsgd1na2vs0mg"},{"bike_id":"23cb5642-15b1-4dff-8751-77349dab4204","system_id":"levelo_inurba_marseille","lat":43.229412,"lon":5.3536,"is_reserved":false,"is_disabled":false,"rental_uris":{"android":"levelo://app?vid=23cb5642-15b1-4dff-8751-77349dab4204","ios":"levelo://app?vid=23cb5642-15b1-4dff-8751-77349dab4204"},"vehicle_type_id":"4","last_reported":1753863429,"current_range_meters":14000,"station_id":"cpo3532slgdg3j2ikp40","pricing_plan_id":"cebpf4jnsgd1na2vs0mg"},{"bike_id":"85d95a9a-bae1-4127-a50f-dff98ce29fd5","system_id":"levelo_inurba_marseille","lat":43.32493,"lon":5.37418,"is_reserved":false,"is_disabled":false,"rental_uris":{"android":"levelo://app?vid=85d95a9a-bae1-4127-a50f-dff98ce29fd5","ios":"levelo://app?vid=85d95a9a-bae1-4127-a50f-dff98ce29fd5"},"vehicle_type_id":"4","last_reported":1753863429,"current_range_meters":14000,"station_id":"","pricing_plan_id":"cebpf4jnsgd1na2vs0mg"},{"bike_id":"5e8f93b1-c097-4ab4-9e98-848c9e7ef233","system_id":"levelo_inurba_marseille","lat":43.29199,"lon":5.35812,"is_reserved":false,"is_disabled":false,"rental_uris":{"android":"levelo://app?vid=5e8f93b1-c097-4ab4-9e98-848c9e7ef233","ios":"levelo://app?vid=5e8f93b1-c097-4ab4-9e98-848c9e7ef233"},"vehicle_type_id":"4","last_reported":1753863429,"current_range_meters":14000,"station_id":"ce4bhb12rcd13ifvqel0","pricing_plan_id":"cebpf4jnsgd1na2vs0mg"},{"bike_id":"671701a9-7243-46ba-9df9-fa49b6935265","system_id":"levelo_inurba_marseille","lat":43.2599,"lon":5.3724,"is_reserved":false,"is_disabled":false,"rental_uris":{"android":"levelo://app?vid=671701a9-7243-46ba-9df9-fa49b6935265","ios":"levelo://app?vid=671701a9-7243-46ba-9df9-fa49b6935265"},"vehicle_type_id":"4","last_reported":1753863429,"current_range_meters":14000,"station_id":"","pricing_plan_id":"cebpf4jnsgd1na2vs0mg"},{"bike_id":"24ddc855-9db1-447b-8cc7-fb33f85a47fb","system_id":"levelo_inurba_marseille","lat":43.30595,"lon":5.37213,"is_reserved":false,"is_disabled":false,"rental_uris":{"android":"levelo://app?vid=24ddc855-9db1-447b-8cc7-fb33f85a47fb","ios":"levelo://app?vid=24ddc855-9db1-447b-8cc7-fb33f85a47fb"},"vehicle_type_id":"4","last_reported":1753863429,"current_range_meters":14000,"station_id":"ce4bgqh2rcd13ifvqc4g","pricing_plan_id":"cebpf4jnsgd1na2vs0mg"},{"bike_id":"58393c2c-caac-478a-92a7-0dad0c9ca20d","system_id":"levelo_inurba_marseille","lat":43.268,"lon":5.39436,"is_reserved":false,"is_disabled":false,"rental_uris":{"android":"levelo://app?vid=58393c2c-caac-478a-92a7-0dad0c9ca20d","ios":"levelo://app?vid=58393c2c-caac-478a-92a7-0dad0c9ca20d"},"vehicle_type_id":"4","last_reported":1753863429,"current_range_meters":14000,"station_id":"ce4bhh12rcd13ifvqfg0","pricing_plan_id":"cebpf4jnsgd1na2vs0mg"},{"bike_id":"7a2e82e0-8302-4549-adc9-89b5e6842920","system_id":"levelo_inurba_marseille","lat":43.323733,"lon":5.388743,"is_reserved":false,"is_disabled":false,"rental_uris":{"android":"levelo://app?vid=7a2e82e0-8302-4549-adc9-89b5e6842920","ios":"levelo://app?vid=7a2e82e0-8302-4549-adc9-89b5e6842920"},"vehicle_type_id":"4","last_reported":1753863429,"current_range_meters":14000,"station_id":"ce4bhqp2rcd13ifvqhog","pricing_plan_id":"cebpf4jnsgd1na2vs0mg"},{"bike_id":"a6a46ae2-d764-44ee-baf2-a76e49bd9084","system_id":"levelo_inurba_marseille","lat":43.269777,"lon":5.40294,"is_reserved":false,"is_disabled":false,"rental_uris":{"android":"levelo://app?vid=a6a46ae2-d764-44ee-baf2-a76e49bd9084","ios":"levelo://app?vid=a6a46ae2-d764-44ee-baf2-a76e49bd9084"},"vehicle_type_id":"4","last_reported":1753863429,"current_range_meters":14000,"station_id":"cjm6bp8fraef2m0cb0m0","pricing_plan_id":"cebpf4jnsgd1na2vs0mg"},{"bike_id":"a36bd7ba-074a-442d-8f4e-bb3cc65a52a2","system_id":"levelo_inurba_marseille","lat":43.29198,"lon":5.39627,"is_reserved":false,"is_disabled":false,"rental_uris":{"android":"levelo://app?vid=a36bd7ba-074a-442d-8f4e-bb3cc65a52a2","ios":"levelo://app?vid=a36bd7ba-074a-442d-8f4e-bb3cc65a52a2"},"vehicle_type_id":"4","last_reported":1753863429,"current_range_meters":14400,"station_id":"","pricing_plan_id":"cebpf4jnsgd1na2vs0mg"},{"bike_id":"9ef0bad5-595e-4d28-90ae-6550089f4a98","system_id":"levelo_inurba_marseille","lat":43.30549,"lon":5.36679,"is_reserved":false,"is_disabled":false,"rental_uris":{"android":"levelo://app?vid=9ef0bad5-595e-4d28-90ae-6550089f4a98","ios":"levelo://app?vid=9ef0bad5-595e-4d28-90ae-6550089f4a98"},"vehicle_type_id":"4","last_reported":1753863429,"current_range_meters":14400,"station_id":"ce4bgrp2rcd13ifvqc9g","pricing_plan_id":"cebpf4jnsgd1na2vs0mg"},{"bike_id":"c686771c-e4d6-4ee5-934b-f3ca190b833e","system_id":"levelo_inurba_marseille","lat":43.32765,"lon":5.39204,"is_reserved":false,"is_disabled":false,"rental_uris":{"android":"levelo://app?vid=c686771c-e4d6-4ee5-934b-f3ca190b833e","ios":"levelo://app?vid=c686771c-e4d6-4ee5-934b-f3ca190b833e"},"vehicle_type_id":"4","last_reported":1753863429,"current_range_meters":14400,"station_id":"","pricing_plan_id":"cebpf4jnsgd1na2vs0mg"},{"bike_id":"915513aa-2ef0-4e1b-9aa3-73608a47efab","system_id":"levelo_inurba_marseille","lat":43.2252,"lon":5.34773,"is_reserved":false,"is_disabled":false,"rental_uris":{"android":"levelo://app?vid=915513aa-2ef0-4e1b-9aa3-73608a47efab","ios":"levelo://app?vid=915513aa-2ef0-4e1b-9aa3-73608a47efab"},"vehicle_type_id":"4","last_reported":1753863429,"current_range_meters":14400,"station_id":"st_cvj5dfep6f1abm77gieg","pricing_plan_id":"cebpf4jnsgd1na2vs0mg"},{"bike_id":"35cc7ba5-569b-4b35-be94-1e1a6ce20e36","system_id":"levelo_inurba_marseille","lat":43.30313,"lon":5.36887,"is_reserved":false,"is_disabled":false,"rental_uris":{"android":"levelo://app?vid=35cc7ba5-569b-4b35-be94-1e1a6ce20e36","ios":"levelo://app?vid=35cc7ba5-569b-4b35-be94-1e1a6ce20e36"},"vehicle_type_id":"4","last_reported":1753863429,"current_range_meters":14400,"station_id":"ce4bgqh2rcd13ifvqc5g","pricing_plan_id":"cebpf4jnsgd1na2vs0mg"},{"bike_id":"bc84d725-bb67-404d-b921-db03ae244e8a","system_id":"levelo_inurba_marseille","lat":43.31376,"lon":5.36773,"is_reserved":false,"is_disabled":false,"rental_uris":{"android":"levelo://app?vid=bc84d725-bb67-404d-b921-db03ae244e8a","ios":"levelo://app?vid=bc84d725-bb67-404d-b921-db03ae244e8a"},"vehicle_type_id":"4","last_reported":1753863429,"current_range_meters":14800,"station_id":"","pricing_plan_id":"cebpf4jnsgd1na2vs0mg"},{"bike_id":"a8cb0696-e3c5-42bf-8e8b-31897b360093","system_id":"levelo_inurba_marseille","lat":43.2985,"lon":5.36288,"is_reserved":false,"is_disabled":false,"rental_uris":{"android":"levelo://app?vid=a8cb0696-e3c5-42bf-8e8b-31897b360093","ios":"levelo://app?vid=a8cb0696-e3c5-42bf-8e8b-31897b360093"},"vehicle_type_id":"4","last_reported":1753863429,"current_range_meters":14800,"station_id":"ce4bgpp2rcd13ifvqc3g","pricing_plan_id":"cebpf4jnsgd1na2vs0mg"},{"bike_id":"b958e876-273b-40f7-a30c-a3cdc266298a","system_id":"levelo_inurba_marseille","lat":43.31244,"lon":5.36879,"is_reserved":false,"is_disabled":false,"rental_uris":{"android":"levelo://app?vid=b958e876-273b-40f7-a30c-a3cdc266298a","ios":"levelo://app?vid=b958e876-273b-40f7-a30c-a3cdc266298a"},"vehicle_type_id":"4","last_reported":1753863429,"current_range_meters":14800,"station_id":"ce4bgl92rcd13ifvqbq0","pricing_plan_id":"cebpf4jnsgd1na2vs0mg"},{"bike_id":"2fad1b6f-d0b7-4211-9b9d-661d7c090096","system_id":"levelo_inurba_marseille","lat":43.298109,"lon":5.433347,"is_reserved":false,"is_disabled":false,"rental_uris":{"android":"levelo://app?vid=2fad1b6f-d0b7-4211-9b9d-661d7c090096","ios":"levelo://app?vid=2fad1b6f-d0b7-4211-9b9d-661d7c090096"},"vehicle_type_id":"4","last_reported":1753863429,"current_range_meters":14800,"station_id":"","pricing_plan_id":"cebpf4jnsgd1na2vs0mg"},{"bike_id":"ae6c8428-e39e-40be-9df7-f418521aa777","system_id":"levelo_inurba_marseille","lat":43.22926,"lon":5.35362,"is_reserved":false,"is_disabled":false,"rental_uris":{"android":"levelo://app?vid=ae6c8428-e39e-40be-9df7-f418521aa777","ios":"levelo://app?vid=ae6c8428-e39e-40be-9df7-f418521aa777"},"vehicle_type_id":"4","last_reported":1753863429,"current_range_meters":14800,"station_id":"cpo3532slgdg3j2ikp40","pricing_plan_id":"cebpf4jnsgd1na2vs0mg"},{"bike_id":"116d91c8-22c6-44b9-ad68-dfbfbe9e23dc","system_id":"levelo_inurba_marseille","lat":43.32482,"lon":5.36581,"is_reserved":false,"is_disabled":false,"rental_uris":{"android":"levelo://app?vid=116d91c8-22c6-44b9-ad68-dfbfbe9e23dc","ios":"levelo://app?vid=116d91c8-22c6-44b9-ad68-dfbfbe9e23dc"},"vehicle_type_id":"4","last_reported":1753863429,"current_range_meters":14800,"station_id":"ce4bhs12rcd13ifvqhvg","pricing_plan_id":"cebpf4jnsgd1na2vs0mg"},{"bike_id":"86b65df4-ccb6-49ae-9150-a558076d5627","system_id":"levelo_inurba_marseille","lat":43.303192,"lon":5.404213,"is_reserved":false,"is_disabled":false,"rental_uris":{"android":"levelo://app?vid=86b65df4-ccb6-49ae-9150-a558076d5627","ios":"levelo://app?vid=86b65df4-ccb6-49ae-9150-a558076d5627"},"vehicle_type_id":"4","last_reported":1753863429,"current_range_meters":14800,"station_id":"ce4bh012rcd13ifvqd10","pricing_plan_id":"cebpf4jnsgd1na2vs0mg"},{"bike_id":"5ff7b424-be72-460e-9279-c80ac3b388ac","system_id":"levelo_inurba_marseille","lat":43.23211,"lon":5.39999,"is_reserved":false,"is_disabled":false,"rental_uris":{"android":"levelo://app?vid=5ff7b424-be72-460e-9279-c80ac3b388ac","ios":"levelo://app?vid=5ff7b424-be72-460e-9279-c80ac3b388ac"},"vehicle_type_id":"4","last_reported":1753863429,"current_range_meters":14800,"station_id":"ce4bhn12rcd13ifvqgqg","pricing_plan_id":"cebpf4jnsgd1na2vs0mg"},{"bike_id":"3d60e95a-8706-4e13-b31f-ac7a913f607a","system_id":"levelo_inurba_marseille","lat":43.22946,"lon":5.35381,"is_reserved":false,"is_disabled":false,"rental_uris":{"android":"levelo://app?vid=3d60e95a-8706-4e13-b31f-ac7a913f607a","ios":"levelo://app?vid=3d60e95a-8706-4e13-b31f-ac7a913f607a"},"vehicle_type_id":"4","last_reported":1753863429,"current_range_meters":15200,"station_id":"cpo3532slgdg3j2ikp40","pricing_plan_id":"cebpf4jnsgd1na2vs0mg"},{"bike_id":"3b0fc468-0f53-43b2-bdc9-2accbf6297e5","system_id":"levelo_inurba_marseille","lat":43.29657,"lon":5.37932,"is_reserved":false,"is_disabled":false,"rental_uris":{"android":"levelo://app?vid=3b0fc468-0f53-43b2-bdc9-2accbf6297e5","ios":"levelo://app?vid=3b0fc468-0f53-43b2-bdc9-2accbf6297e5"},"vehicle_type_id":"4","last_reported":1753863429,"current_range_meters":15200,"station_id":"","pricing_plan_id":"cebpf4jnsgd1na2vs0mg"},{"bike_id":"b44d763b-4f92-4731-b76a-85ebcd91acd5","system_id":"levelo_inurba_marseille","lat":43.30206,"lon":5.37138,"is_reserved":false,"is_disabled":false,"rental_uris":{"android":"levelo://app?vid=b44d763b-4f92-4731-b76a-85ebcd91acd5","ios":"levelo://app?vid=b44d763b-4f92-4731-b76a-85ebcd91acd5"},"vehicle_type_id":"4","last_reported":1753863429,"current_range_meters":15200,"station_id":"","pricing_plan_id":"cebpf4jnsgd1na2vs0mg"},{"bike_id":"97e0cc1c-fa5d-41b9-8b72-3eed848ec1f7","system_id":"levelo_inurba_marseille","lat":43.330295,"lon":5.390706,"is_reserved":false,"is_disabled":false,"rental_uris":{"android":"levelo://app?vid=97e0cc1c-fa5d-41b9-8b72-3eed848ec1f7","ios":"levelo://app?vid=97e0cc1c-fa5d-41b9-8b72-3eed848ec1f7"},"vehicle_type_id":"4","last_reported":1753863429,"current_range_meters":15200,"station_id":"ce4bhr92rcd13ifvqhrg","pricing_plan_id":"cebpf4jnsgd1na2vs0mg"},{"bike_id":"08a4daad-92c6-4c11-9b37-74d84de06af8","system_id":"levelo_inurba_marseille","lat":43.30317,"lon":5.36908,"is_reserved":false,"is_disabled":false,"rental_uris":{"android":"levelo://app?vid=08a4daad-92c6-4c11-9b37-74d84de06af8","ios":"levelo://app?vid=08a4daad-92c6-4c11-9b37-74d84de06af8"},"vehicle_type_id":"4","last_reported":1753863429,"current_range_meters":15200,"station_id":"ce4bgqh2rcd13ifvqc5g","pricing_plan_id":"cebpf4jnsgd1na2vs0mg"},{"bike_id":"96e3ef03-ebd1-4704-94c5-7f685f92d4dc","system_id":"levelo_inurba_marseille","lat":43.28424,"lon":5.3755,"is_reserved":false,"is_disabled":false,"rental_uris":{"android":"levelo://app?vid=96e3ef03-ebd1-4704-94c5-7f685f92d4dc","ios":"levelo://app?vid=96e3ef03-ebd1-4704-94c5-7f685f92d4dc"},"vehicle_type_id":"4","last_reported":1753863429,"current_range_meters":15200,"station_id":"ce4bh412rcd13ifvqds0","pricing_plan_id":"cebpf4jnsgd1na2vs0mg"},{"bike_id":"19295018-235d-4f62-9c12-0203c908e699","system_id":"levelo_inurba_marseille","lat":43.22919,"lon":5.35394,"is_reserved":false,"is_disabled":false,"rental_uris":{"android":"levelo://app?vid=19295018-235d-4f62-9c12-0203c908e699","ios":"levelo://app?vid=19295018-235d-4f62-9c12-0203c908e699"},"vehicle_type_id":"4","last_reported":1753863429,"current_range_meters":16000,"station_id":"cpo3532slgdg3j2ikp40","pricing_plan_id":"cebpf4jnsgd1na2vs0mg"},{"bike_id":"6f47bd7d-3516-4b85-8609-2fce8d195afb","system_id":"levelo_inurba_marseille","lat":43.30523,"lon":5.36543,"is_reserved":false,"is_disabled":false,"rental_uris":{"android":"levelo://app?vid=6f47bd7d-3516-4b85-8609-2fce8d195afb","ios":"levelo://app?vid=6f47bd7d-3516-4b85-8609-2fce8d195afb"},"vehicle_type_id":"4","last_reported":1753863429,"current_range_meters":16000,"station_id":"ce4bgs12rcd13ifvqcag","pricing_plan_id":"cebpf4jnsgd1na2vs0mg"},{"bike_id":"5f72df66-2d68-4c6e-a917-44e1dcfede98","system_id":"levelo_inurba_marseille","lat":43.22931,"lon":5.353872,"is_reserved":false,"is_disabled":false,"rental_uris":{"android":"levelo://app?vid=5f72df66-2d68-4c6e-a917-44e1dcfede98","ios":"levelo://app?vid=5f72df66-2d68-4c6e-a917-44e1dcfede98"},"vehicle_type_id":"4","last_reported":1753863429,"current_range_meters":16000,"station_id":"cpo3532slgdg3j2ikp40","pricing_plan_id":"cebpf4jnsgd1na2vs0mg"},{"bike_id":"6a664d4b-940c-4c07-9452-a9104589cf3a","system_id":"levelo_inurba_marseille","lat":43.29554,"lon":5.42269,"is_reserved":false,"is_disabled":false,"rental_uris":{"android":"levelo://app?vid=6a664d4b-940c-4c07-9452-a9104589cf3a","ios":"levelo://app?vid=6a664d4b-940c-4c07-9452-a9104589cf3a"},"vehicle_type_id":"4","last_reported":1753863429,"current_range_meters":16000,"station_id":"ce4bhph2rcd13ifvqhdg","pricing_plan_id":"cebpf4jnsgd1na2vs0mg"},{"bike_id":"63df3ed0-ab57-49e3-b624-fbbc108909d9","system_id":"levelo_inurba_marseille","lat":43.282647,"lon":5.350533,"is_reserved":false,"is_disabled":false,"rental_uris":{"android":"levelo://app?vid=63df3ed0-ab57-49e3-b624-fbbc108909d9","ios":"levelo://app?vid=63df3ed0-ab57-49e3-b624-fbbc108909d9"},"vehicle_type_id":"4","last_reported":1753863429,"current_range_meters":16000,"station_id":"ce4bhbp2rcd13ifvqerg","pricing_plan_id":"cebpf4jnsgd1na2vs0mg"},{"bike_id":"daabd21d-fe72-4bef-9caa-c5886e1b6fe4","system_id":"levelo_inurba_marseille","lat":43.31997,"lon":5.37459,"is_reserved":false,"is_disabled":false,"rental_uris":{"android":"levelo://app?vid=daabd21d-fe72-4bef-9caa-c5886e1b6fe4","ios":"levelo://app?vid=daabd21d-fe72-4bef-9caa-c5886e1b6fe4"},"vehicle_type_id":"4","last_reported":1753863429,"current_range_meters":16000,"station_id":"","pricing_plan_id":"cebpf4jnsgd1na2vs0mg"},{"bike_id":"6b5a8423-59e6-41e0-9800-c3f91ce1824a","system_id":"levelo_inurba_marseille","lat":43.24692,"lon":5.38168,"is_reserved":false,"is_disabled":true,"rental_uris":{"android":"levelo://app?vid=6b5a8423-59e6-41e0-9800-c3f91ce1824a","ios":"levelo://app?vid=6b5a8423-59e6-41e0-9800-c3f91ce1824a"},"vehicle_type_id":"4","last_reported":1753863429,"current_range_meters":16000,"station_id":"ce4bhih2rcd13ifvqfr0","pricing_plan_id":"cebpf4jnsgd1na2vs0mg"},{"bike_id":"bba660a4-64e7-41bf-a51f-980ab0eacd81","system_id":"levelo_inurba_marseille","lat":43.28703,"lon":5.37388,"is_reserved":false,"is_disabled":false,"rental_uris":{"android":"levelo://app?vid=bba660a4-64e7-41bf-a51f-980ab0eacd81","ios":"levelo://app?vid=bba660a4-64e7-41bf-a51f-980ab0eacd81"},"vehicle_type_id":"4","last_reported":1753863429,"current_range_meters":16000,"station_id":"ce4bh3p2rcd13ifvqdq0","pricing_plan_id":"cebpf4jnsgd1na2vs0mg"},{"bike_id":"a05992f6-1f51-4dbf-8921-4ad77bab57e9","system_id":"levelo_inurba_marseille","lat":43.24167,"lon":5.36389,"is_reserved":false,"is_disabled":false,"rental_uris":{"android":"levelo://app?vid=a05992f6-1f51-4dbf-8921-4ad77bab57e9","ios":"levelo://app?vid=a05992f6-1f51-4dbf-8921-4ad77bab57e9"},"vehicle_type_id":"4","last_reported":1753863429,"current_range_meters":16000,"station_id":"cpo36qri1sfpv3e86is0","pricing_plan_id":"cebpf4jnsgd1na2vs0mg"},{"bike_id":"746c3209-aa97-4d6e-bb69-2a85cdd5ec72","system_id":"levelo_inurba_marseille","lat":43.22511,"lon":5.34783,"is_reserved":false,"is_disabled":false,"rental_uris":{"android":"levelo://app?vid=746c3209-aa97-4d6e-bb69-2a85cdd5ec72","ios":"levelo://app?vid=746c3209-aa97-4d6e-bb69-2a85cdd5ec72"},"vehicle_type_id":"4","last_reported":1753863429,"current_range_meters":16000,"station_id":"st_cvj5dfep6f1abm77gieg","pricing_plan_id":"cebpf4jnsgd1na2vs0mg"},{"bike_id":"212e5cba-9e3e-4729-afba-f536276883e1","system_id":"levelo_inurba_marseille","lat":43.25002,"lon":5.38927,"is_reserved":false,"is_disabled":false,"rental_uris":{"android":"levelo://app?vid=212e5cba-9e3e-4729-afba-f536276883e1","ios":"levelo://app?vid=212e5cba-9e3e-4729-afba-f536276883e1"},"vehicle_type_id":"4","last_reported":1753863429,"current_range_meters":16000,"station_id":"ce4bhgp2rcd13ifvqfd0","pricing_plan_id":"cebpf4jnsgd1na2vs0mg"},{"bike_id":"1dc3f058-b499-4a71-890c-0492cdb7c3da","system_id":"levelo_inurba_marseille","lat":43.30905,"lon":5.36838,"is_reserved":false,"is_disabled":false,"rental_uris":{"android":"levelo://app?vid=1dc3f058-b499-4a71-890c-0492cdb7c3da","ios":"levelo://app?vid=1dc3f058-b499-4a71-890c-0492cdb7c3da"},"vehicle_type_id":"4","last_reported":1753863429,"current_range_meters":16400,"station_id":"ce4bgn92rcd13ifvqbvg","pricing_plan_id":"cebpf4jnsgd1na2vs0mg"},{"bike_id":"8423498e-f13f-4fe9-a2a7-49d2f1d71a92","system_id":"levelo_inurba_marseille","lat":43.30816,"lon":5.38161,"is_reserved":false,"is_disabled":false,"rental_uris":{"android":"levelo://app?vid=8423498e-f13f-4fe9-a2a7-49d2f1d71a92","ios":"levelo://app?vid=8423498e-f13f-4fe9-a2a7-49d2f1d71a92"},"vehicle_type_id":"4","last_reported":1753863429,"current_range_meters":16400,"station_id":"ce4bgt12rcd13ifvqce0","pricing_plan_id":"cebpf4jnsgd1na2vs0mg"},{"bike_id":"273dfd20-7606-4c0d-939b-5385302b4941","system_id":"levelo_inurba_marseille","lat":43.30275,"lon":5.37702,"is_reserved":false,"is_disabled":false,"rental_uris":{"android":"levelo://app?vid=273dfd20-7606-4c0d-939b-5385302b4941","ios":"levelo://app?vid=273dfd20-7606-4c0d-939b-5385302b4941"},"vehicle_type_id":"4","last_reported":1753863429,"current_range_meters":16400,"station_id":"ce4bguh2rcd13ifvqcj0","pricing_plan_id":"cebpf4jnsgd1na2vs0mg"},{"bike_id":"feae27af-ed33-41f6-8fae-34610606c482","system_id":"levelo_inurba_marseille","lat":43.29851,"lon":5.36283,"is_reserved":false,"is_disabled":false,"rental_uris":{"android":"levelo://app?vid=feae27af-ed33-41f6-8fae-34610606c482","ios":"levelo://app?vid=feae27af-ed33-41f6-8fae-34610606c482"},"vehicle_type_id":"4","last_reported":1753863429,"current_range_meters":16400,"station_id":"ce4bgpp2rcd13ifvqc3g","pricing_plan_id":"cebpf4jnsgd1na2vs0mg"},{"bike_id":"2e1bdbd1-042c-4bf4-b623-908b6301c20d","system_id":"levelo_inurba_marseille","lat":43.28134,"lon":5.44217,"is_reserved":false,"is_disabled":false,"rental_uris":{"android":"levelo://app?vid=2e1bdbd1-042c-4bf4-b623-908b6301c20d","ios":"levelo://app?vid=2e1bdbd1-042c-4bf4-b623-908b6301c20d"},"vehicle_type_id":"4","last_reported":1753863429,"current_range_meters":16400,"station_id":"","pricing_plan_id":"cebpf4jnsgd1na2vs0mg"},{"bike_id":"0642bec0-d5df-45d1-8f24-13fa0bd6adc2","system_id":"levelo_inurba_marseille","lat":43.27819,"lon":5.40712,"is_reserved":false,"is_disabled":false,"rental_uris":{"android":"levelo://app?vid=0642bec0-d5df-45d1-8f24-13fa0bd6adc2","ios":"levelo://app?vid=0642bec0-d5df-45d1-8f24-13fa0bd6adc2"},"vehicle_type_id":"4","last_reported":1753863429,"current_range_meters":16400,"station_id":"ce4bhnh2rcd13ifvqgtg","pricing_plan_id":"cebpf4jnsgd1na2vs0mg"},{"bike_id":"006989d0-e964-4aa4-ad1e-5b81a65c337e","system_id":"levelo_inurba_marseille","lat":43.308,"lon":5.38164,"is_reserved":false,"is_disabled":true,"rental_uris":{"android":"levelo://app?vid=006989d0-e964-4aa4-ad1e-5b81a65c337e","ios":"levelo://app?vid=006989d0-e964-4aa4-ad1e-5b81a65c337e"},"vehicle_type_id":"4","last_reported":1753863429,"current_range_meters":16400,"station_id":"ce4bgt12rcd13ifvqce0","pricing_plan_id":"cebpf4jnsgd1na2vs0mg"},{"bike_id":"3ade2723-600a-4a28-a636-9f0444046ba7","system_id":"levelo_inurba_marseille","lat":43.25953,"lon":5.40911,"is_reserved":false,"is_disabled":false,"rental_uris":{"android":"levelo://app?vid=3ade2723-600a-4a28-a636-9f0444046ba7","ios":"levelo://app?vid=3ade2723-600a-4a28-a636-9f0444046ba7"},"vehicle_type_id":"4","last_reported":1753863429,"current_range_meters":16800,"station_id":"ce4bhm92rcd13ifvqglg","pricing_plan_id":"cebpf4jnsgd1na2vs0mg"},{"bike_id":"9faf8368-723f-4478-b2ee-6d1c98ce3ae4","system_id":"levelo_inurba_marseille","lat":43.26218,"lon":5.40457,"is_reserved":false,"is_disabled":false,"rental_uris":{"android":"levelo://app?vid=9faf8368-723f-4478-b2ee-6d1c98ce3ae4","ios":"levelo://app?vid=9faf8368-723f-4478-b2ee-6d1c98ce3ae4"},"vehicle_type_id":"4","last_reported":1753863429,"current_range_meters":16800,"station_id":"ce4bhmh2rcd13ifvqgmg","pricing_plan_id":"cebpf4jnsgd1na2vs0mg"},{"bike_id":"bcbed5c7-801f-4c2e-a5ba-4f68ea29a5aa","system_id":"levelo_inurba_marseille","lat":43.27967,"lon":5.38716,"is_reserved":false,"is_disabled":false,"rental_uris":{"android":"levelo://app?vid=bcbed5c7-801f-4c2e-a5ba-4f68ea29a5aa","ios":"levelo://app?vid=bcbed5c7-801f-4c2e-a5ba-4f68ea29a5aa"},"vehicle_type_id":"4","last_reported":1753863429,"current_range_meters":16800,"station_id":"ce4bhg12rcd13ifvqf80","pricing_plan_id":"cebpf4jnsgd1na2vs0mg"},{"bike_id":"6590494b-43e7-43e0-b312-c754fd5ea433","system_id":"levelo_inurba_marseille","lat":43.29063,"lon":5.43006,"is_reserved":false,"is_disabled":false,"rental_uris":{"android":"levelo://app?vid=6590494b-43e7-43e0-b312-c754fd5ea433","ios":"levelo://app?vid=6590494b-43e7-43e0-b312-c754fd5ea433"},"vehicle_type_id":"4","last_reported":1753863429,"current_range_meters":16800,"station_id":"","pricing_plan_id":"cebpf4jnsgd1na2vs0mg"},{"bike_id":"1a0ca16f-4b93-4052-acd5-440501907ad3","system_id":"levelo_inurba_marseille","lat":43.23193,"lon":5.35569,"is_reserved":false,"is_disabled":false,"rental_uris":{"android":"levelo://app?vid=1a0ca16f-4b93-4052-acd5-440501907ad3","ios":"levelo://app?vid=1a0ca16f-4b93-4052-acd5-440501907ad3"},"vehicle_type_id":"4","last_reported":1753863429,"current_range_meters":16800,"station_id":"ce4bhu92rcd13ifvqi70","pricing_plan_id":"cebpf4jnsgd1na2vs0mg"},{"bike_id":"b89ad748-f7c1-4685-8c85-3009b186b7d0","system_id":"levelo_inurba_marseille","lat":43.24815,"lon":5.374614,"is_reserved":false,"is_disabled":false,"rental_uris":{"android":"levelo://app?vid=b89ad748-f7c1-4685-8c85-3009b186b7d0","ios":"levelo://app?vid=b89ad748-f7c1-4685-8c85-3009b186b7d0"},"vehicle_type_id":"4","last_reported":1753863429,"current_range_meters":16800,"station_id":"ce4bhgh2rcd13ifvqfb0","pricing_plan_id":"cebpf4jnsgd1na2vs0mg"},{"bike_id":"8077d35e-f4ff-4742-af36-c1d3f7faf71c","system_id":"levelo_inurba_marseille","lat":43.30557,"lon":5.36552,"is_reserved":false,"is_disabled":false,"rental_uris":{"android":"levelo://app?vid=8077d35e-f4ff-4742-af36-c1d3f7faf71c","ios":"levelo://app?vid=8077d35e-f4ff-4742-af36-c1d3f7faf71c"},"vehicle_type_id":"4","last_reported":1753863429,"current_range_meters":17200,"station_id":"ce4bgs12rcd13ifvqcag","pricing_plan_id":"cebpf4jnsgd1na2vs0mg"},{"bike_id":"fc72750c-8629-412d-8606-ffe7b2eda556","system_id":"levelo_inurba_marseille","lat":43.275,"lon":5.42475,"is_reserved":false,"is_disabled":false,"rental_uris":{"android":"levelo://app?vid=fc72750c-8629-412d-8606-ffe7b2eda556","ios":"levelo://app?vid=fc72750c-8629-412d-8606-ffe7b2eda556"},"vehicle_type_id":"4","last_reported":1753863429,"current_range_meters":17200,"station_id":"ce4bhn92rcd13ifvqgrg","pricing_plan_id":"cebpf4jnsgd1na2vs0mg"},{"bike_id":"2c4400c7-2bd6-4d8f-805d-b1037b3fe518","system_id":"levelo_inurba_marseille","lat":43.22503,"lon":5.34768,"is_reserved":false,"is_disabled":false,"rental_uris":{"android":"levelo://app?vid=2c4400c7-2bd6-4d8f-805d-b1037b3fe518","ios":"levelo://app?vid=2c4400c7-2bd6-4d8f-805d-b1037b3fe518"},"vehicle_type_id":"4","last_reported":1753863429,"current_range_meters":17200,"station_id":"st_cvj5dfep6f1abm77gieg","pricing_plan_id":"cebpf4jnsgd1na2vs0mg"},{"bike_id":"271533f1-085f-4d07-8441-90540a5aee7c","system_id":"levelo_inurba_marseille","lat":43.3056,"lon":5.36535,"is_reserved":false,"is_disabled":false,"rental_uris":{"android":"levelo://app?vid=271533f1-085f-4d07-8441-90540a5aee7c","ios":"levelo://app?vid=271533f1-085f-4d07-8441-90540a5aee7c"},"vehicle_type_id":"4","last_reported":1753863429,"current_range_meters":17200,"station_id":"ce4bgs12rcd13ifvqcag","pricing_plan_id":"cebpf4jnsgd1na2vs0mg"},{"bike_id":"6edee4fe-46f2-43ea-a18a-6ec975f8373c","system_id":"levelo_inurba_marseille","lat":43.28853,"lon":5.358465,"is_reserved":false,"is_disabled":false,"rental_uris":{"android":"levelo://app?vid=6edee4fe-46f2-43ea-a18a-6ec975f8373c","ios":"levelo://app?vid=6edee4fe-46f2-43ea-a18a-6ec975f8373c"},"vehicle_type_id":"4","last_reported":1753863429,"current_range_meters":17200,"station_id":"","pricing_plan_id":"cebpf4jnsgd1na2vs0mg"},{"bike_id":"6261aae1-bcb4-4a00-888e-7789f7437da9","system_id":"levelo_inurba_marseille","lat":43.30528,"lon":5.36534,"is_reserved":false,"is_disabled":false,"rental_uris":{"android":"levelo://app?vid=6261aae1-bcb4-4a00-888e-7789f7437da9","ios":"levelo://app?vid=6261aae1-bcb4-4a00-888e-7789f7437da9"},"vehicle_type_id":"4","last_reported":1753863429,"current_range_meters":17200,"station_id":"ce4bgs12rcd13ifvqcag","pricing_plan_id":"cebpf4jnsgd1na2vs0mg"},{"bike_id":"b4e22d7a-25cf-4328-b44d-366b87f14ef6","system_id":"levelo_inurba_marseille","lat":43.29852,"lon":5.3628,"is_reserved":false,"is_disabled":false,"rental_uris":{"android":"levelo://app?vid=b4e22d7a-25cf-4328-b44d-366b87f14ef6","ios":"levelo://app?vid=b4e22d7a-25cf-4328-b44d-366b87f14ef6"},"vehicle_type_id":"4","last_reported":1753863429,"current_range_meters":17600,"station_id":"ce4bgpp2rcd13ifvqc3g","pricing_plan_id":"cebpf4jnsgd1na2vs0mg"},{"bike_id":"c28b1fad-3023-43ce-95db-8c39a053285f","system_id":"levelo_inurba_marseille","lat":43.29376,"lon":5.37842,"is_reserved":false,"is_disabled":false,"rental_uris":{"android":"levelo://app?vid=c28b1fad-3023-43ce-95db-8c39a053285f","ios":"levelo://app?vid=c28b1fad-3023-43ce-95db-8c39a053285f"},"vehicle_type_id":"4","last_reported":1753863429,"current_range_meters":17600,"station_id":"ce4bgjh2rcd13ifvqbf0","pricing_plan_id":"cebpf4jnsgd1na2vs0mg"},{"bike_id":"cd135ec5-1f0e-488f-a7bf-0e94c2e06e6f","system_id":"levelo_inurba_marseille","lat":43.211953,"lon":5.35069,"is_reserved":false,"is_disabled":false,"rental_uris":{"android":"levelo://app?vid=cd135ec5-1f0e-488f-a7bf-0e94c2e06e6f","ios":"levelo://app?vid=cd135ec5-1f0e-488f-a7bf-0e94c2e06e6f"},"vehicle_type_id":"4","last_reported":1753863429,"current_range_meters":17600,"station_id":"st_cvj6sg6p6f1abm77japg","pricing_plan_id":"cebpf4jnsgd1na2vs0mg"},{"bike_id":"852f5771-b9c6-4501-8261-280a421e4281","system_id":"levelo_inurba_marseille","lat":43.29356,"lon":5.37827,"is_reserved":false,"is_disabled":false,"rental_uris":{"android":"levelo://app?vid=852f5771-b9c6-4501-8261-280a421e4281","ios":"levelo://app?vid=852f5771-b9c6-4501-8261-280a421e4281"},"vehicle_type_id":"4","last_reported":1753863429,"current_range_meters":17600,"station_id":"ce4bgjh2rcd13ifvqbf0","pricing_plan_id":"cebpf4jnsgd1na2vs0mg"},{"bike_id":"3dc94204-2f3e-4b8d-a98a-2eebdfcaff10","system_id":"levelo_inurba_marseille","lat":43.22473,"lon":5.34808,"is_reserved":false,"is_disabled":false,"rental_uris":{"android":"levelo://app?vid=3dc94204-2f3e-4b8d-a98a-2eebdfcaff10","ios":"levelo://app?vid=3dc94204-2f3e-4b8d-a98a-2eebdfcaff10"},"vehicle_type_id":"4","last_reported":1753863429,"current_range_meters":17600,"station_id":"st_cvj5dfep6f1abm77gieg","pricing_plan_id":"cebpf4jnsgd1na2vs0mg"},{"bike_id":"44fba189-4145-48fe-8de2-468f444c22cc","system_id":"levelo_inurba_marseille","lat":43.29532,"lon":5.39033,"is_reserved":false,"is_disabled":false,"rental_uris":{"android":"levelo://app?vid=44fba189-4145-48fe-8de2-468f444c22cc","ios":"levelo://app?vid=44fba189-4145-48fe-8de2-468f444c22cc"},"vehicle_type_id":"4","last_reported":1753863429,"current_range_meters":17600,"station_id":"ce4bh3p2rcd13ifvqdp0","pricing_plan_id":"cebpf4jnsgd1na2vs0mg"},{"bike_id":"52aa1d0d-4466-44b5-a116-ec1102c8f422","system_id":"levelo_inurba_marseille","lat":43.32891,"lon":5.36046,"is_reserved":false,"is_disabled":false,"rental_uris":{"android":"levelo://app?vid=52aa1d0d-4466-44b5-a116-ec1102c8f422","ios":"levelo://app?vid=52aa1d0d-4466-44b5-a116-ec1102c8f422"},"vehicle_type_id":"4","last_reported":1753863429,"current_range_meters":17600,"station_id":"","pricing_plan_id":"cebpf4jnsgd1na2vs0mg"},{"bike_id":"aff1c2a6-2116-45b8-9d9e-2b8797d6e9ec","system_id":"levelo_inurba_marseille","lat":43.2871,"lon":5.37394,"is_reserved":false,"is_disabled":false,"rental_uris":{"android":"levelo://app?vid=aff1c2a6-2116-45b8-9d9e-2b8797d6e9ec","ios":"levelo://app?vid=aff1c2a6-2116-45b8-9d9e-2b8797d6e9ec"},"vehicle_type_id":"4","last_reported":1753863429,"current_range_meters":18000,"station_id":"ce4bh3p2rcd13ifvqdq0","pricing_plan_id":"cebpf4jnsgd1na2vs0mg"},{"bike_id":"85571ceb-5dfe-407f-a57f-e3e4a5c0e31a","system_id":"levelo_inurba_marseille","lat":43.241917,"lon":5.396784,"is_reserved":false,"is_disabled":false,"rental_uris":{"android":"levelo://app?vid=85571ceb-5dfe-407f-a57f-e3e4a5c0e31a","ios":"levelo://app?vid=85571ceb-5dfe-407f-a57f-e3e4a5c0e31a"},"vehicle_type_id":"4","last_reported":1753863429,"current_range_meters":18000,"station_id":"ce4bhn12rcd13ifvqgpg","pricing_plan_id":"cebpf4jnsgd1na2vs0mg"},{"bike_id":"08ca8ae8-b77c-49d8-b9a3-9de07830275f","system_id":"levelo_inurba_marseille","lat":43.27502,"lon":5.42466,"is_reserved":false,"is_disabled":false,"rental_uris":{"android":"levelo://app?vid=08ca8ae8-b77c-49d8-b9a3-9de07830275f","ios":"levelo://app?vid=08ca8ae8-b77c-49d8-b9a3-9de07830275f"},"vehicle_type_id":"4","last_reported":1753863429,"current_range_meters":18000,"station_id":"ce4bhn92rcd13ifvqgrg","pricing_plan_id":"cebpf4jnsgd1na2vs0mg"},{"bike_id":"d1ef298e-87b7-47a5-aaec-79fd9c0baa71","system_id":"levelo_inurba_marseille","lat":43.248127,"lon":5.374544,"is_reserved":false,"is_disabled":false,"rental_uris":{"android":"levelo://app?vid=d1ef298e-87b7-47a5-aaec-79fd9c0baa71","ios":"levelo://app?vid=d1ef298e-87b7-47a5-aaec-79fd9c0baa71"},"vehicle_type_id":"4","last_reported":1753863429,"current_range_meters":18000,"station_id":"ce4bhgh2rcd13ifvqfb0","pricing_plan_id":"cebpf4jnsgd1na2vs0mg"},{"bike_id":"27e3af3a-615b-4cc9-8468-7f9a0e895f93","system_id":"levelo_inurba_marseille","lat":43.3055,"lon":5.36691,"is_reserved":false,"is_disabled":false,"rental_uris":{"android":"levelo://app?vid=27e3af3a-615b-4cc9-8468-7f9a0e895f93","ios":"levelo://app?vid=27e3af3a-615b-4cc9-8468-7f9a0e895f93"},"vehicle_type_id":"4","last_reported":1753863429,"current_range_meters":18000,"station_id":"ce4bgrp2rcd13ifvqc9g","pricing_plan_id":"cebpf4jnsgd1na2vs0mg"},{"bike_id":"fe2f1dfa-2cc9-4944-a1f9-0768b165a58d","system_id":"levelo_inurba_marseille","lat":43.29585,"lon":5.36746,"is_reserved":false,"is_disabled":false,"rental_uris":{"android":"levelo://app?vid=fe2f1dfa-2cc9-4944-a1f9-0768b165a58d","ios":"levelo://app?vid=fe2f1dfa-2cc9-4944-a1f9-0768b165a58d"},"vehicle_type_id":"4","last_reported":1753863429,"current_range_meters":18000,"station_id":"ce4bgph2rcd13ifvqc2g","pricing_plan_id":"cebpf4jnsgd1na2vs0mg"},{"bike_id":"4e89d95e-ce67-45de-8b3d-0ea076f5f747","system_id":"levelo_inurba_marseille","lat":43.26201,"lon":5.37928,"is_reserved":false,"is_disabled":false,"rental_uris":{"android":"levelo://app?vid=4e89d95e-ce67-45de-8b3d-0ea076f5f747","ios":"levelo://app?vid=4e89d95e-ce67-45de-8b3d-0ea076f5f747"},"vehicle_type_id":"4","last_reported":1753863429,"current_range_meters":18000,"station_id":"ce4bhjp2rcd13ifvqg90","pricing_plan_id":"cebpf4jnsgd1na2vs0mg"},{"bike_id":"871e7e11-0bfd-47b3-858c-c917f2eae162","system_id":"levelo_inurba_marseille","lat":43.31249,"lon":5.36885,"is_reserved":false,"is_disabled":false,"rental_uris":{"android":"levelo://app?vid=871e7e11-0bfd-47b3-858c-c917f2eae162","ios":"levelo://app?vid=871e7e11-0bfd-47b3-858c-c917f2eae162"},"vehicle_type_id":"4","last_reported":1753863429,"current_range_meters":18000,"station_id":"ce4bgl92rcd13ifvqbq0","pricing_plan_id":"cebpf4jnsgd1na2vs0mg"},{"bike_id":"1126f44e-6002-4232-b288-2d61f3000e14","system_id":"levelo_inurba_marseille","lat":43.30555,"lon":5.36682,"is_reserved":false,"is_disabled":false,"rental_uris":{"android":"levelo://app?vid=1126f44e-6002-4232-b288-2d61f3000e14","ios":"levelo://app?vid=1126f44e-6002-4232-b288-2d61f3000e14"},"vehicle_type_id":"4","last_reported":1753863429,"current_range_meters":18000,"station_id":"ce4bgrp2rcd13ifvqc9g","pricing_plan_id":"cebpf4jnsgd1na2vs0mg"},{"bike_id":"551b48cf-b36e-42f9-b824-d8123f03961a","system_id":"levelo_inurba_marseille","lat":43.26681,"lon":5.38262,"is_reserved":false,"is_disabled":false,"rental_uris":{"android":"levelo://app?vid=551b48cf-b36e-42f9-b824-d8123f03961a","ios":"levelo://app?vid=551b48cf-b36e-42f9-b824-d8123f03961a"},"vehicle_type_id":"4","last_reported":1753863429,"current_range_meters":18800,"station_id":"ce4bhg92rcd13ifvqf90","pricing_plan_id":"cebpf4jnsgd1na2vs0mg"},{"bike_id":"76d1f38f-96c6-4c79-bf8c-b8d8e9ae0662","system_id":"levelo_inurba_marseille","lat":43.25922,"lon":5.40923,"is_reserved":false,"is_disabled":false,"rental_uris":{"android":"levelo://app?vid=76d1f38f-96c6-4c79-bf8c-b8d8e9ae0662","ios":"levelo://app?vid=76d1f38f-96c6-4c79-bf8c-b8d8e9ae0662"},"vehicle_type_id":"4","last_reported":1753863429,"current_range_meters":18800,"station_id":"ce4bhm92rcd13ifvqglg","pricing_plan_id":"cebpf4jnsgd1na2vs0mg"},{"bike_id":"d126d3e6-8f43-4d1e-929c-1f29f5f64def","system_id":"levelo_inurba_marseille","lat":43.323687,"lon":5.388828,"is_reserved":false,"is_disabled":false,"rental_uris":{"android":"levelo://app?vid=d126d3e6-8f43-4d1e-929c-1f29f5f64def","ios":"levelo://app?vid=d126d3e6-8f43-4d1e-929c-1f29f5f64def"},"vehicle_type_id":"4","last_reported":1753863429,"current_range_meters":18800,"station_id":"ce4bhqp2rcd13ifvqhog","pricing_plan_id":"cebpf4jnsgd1na2vs0mg"},{"bike_id":"12a220c8-0b1b-4330-8cc1-7ededba84a81","system_id":"levelo_inurba_marseille","lat":43.23151,"lon":5.43714,"is_reserved":false,"is_disabled":false,"rental_uris":{"android":"levelo://app?vid=12a220c8-0b1b-4330-8cc1-7ededba84a81","ios":"levelo://app?vid=12a220c8-0b1b-4330-8cc1-7ededba84a81"},"vehicle_type_id":"4","last_reported":1753863429,"current_range_meters":18800,"station_id":"ce4bhmp2rcd13ifvqgog","pricing_plan_id":"cebpf4jnsgd1na2vs0mg"},{"bike_id":"8f59c147-dfd6-49a3-9e5e-ab3a1985d1cb","system_id":"levelo_inurba_marseille","lat":43.29275,"lon":5.36839,"is_reserved":false,"is_disabled":false,"rental_uris":{"android":"levelo://app?vid=8f59c147-dfd6-49a3-9e5e-ab3a1985d1cb","ios":"levelo://app?vid=8f59c147-dfd6-49a3-9e5e-ab3a1985d1cb"},"vehicle_type_id":"4","last_reported":1753863429,"current_range_meters":18800,"station_id":"ce4bhbp2rcd13ifvqesg","pricing_plan_id":"cebpf4jnsgd1na2vs0mg"},{"bike_id":"cf8482f5-25fe-47f1-831f-4ef3321069ee","system_id":"levelo_inurba_marseille","lat":43.27312,"lon":5.39093,"is_reserved":false,"is_disabled":false,"rental_uris":{"android":"levelo://app?vid=cf8482f5-25fe-47f1-831f-4ef3321069ee","ios":"levelo://app?vid=cf8482f5-25fe-47f1-831f-4ef3321069ee"},"vehicle_type_id":"4","last_reported":1753863429,"current_range_meters":18800,"station_id":"ce4bhgp2rcd13ifvqfe0","pricing_plan_id":"cebpf4jnsgd1na2vs0mg"},{"bike_id":"556a3f9a-3b78-43f8-9b22-743e8eafdfe7","system_id":"levelo_inurba_marseille","lat":43.25502,"lon":5.37647,"is_reserved":false,"is_disabled":false,"rental_uris":{"android":"levelo://app?vid=556a3f9a-3b78-43f8-9b22-743e8eafdfe7","ios":"levelo://app?vid=556a3f9a-3b78-43f8-9b22-743e8eafdfe7"},"vehicle_type_id":"4","last_reported":1753863429,"current_range_meters":18800,"station_id":"ce4bhh12rcd13ifvqff0","pricing_plan_id":"cebpf4jnsgd1na2vs0mg"},{"bike_id":"23c5ff6b-8cac-4dff-9b59-ceed36159023","system_id":"levelo_inurba_marseille","lat":43.230619,"lon":5.355013,"is_reserved":false,"is_disabled":false,"rental_uris":{"android":"levelo://app?vid=23c5ff6b-8cac-4dff-9b59-ceed36159023","ios":"levelo://app?vid=23c5ff6b-8cac-4dff-9b59-ceed36159023"},"vehicle_type_id":"4","last_reported":1753863429,"current_range_meters":18800,"station_id":"cpo3342slgdg3j2ifvpg","pricing_plan_id":"cebpf4jnsgd1na2vs0mg"},{"bike_id":"b90e29ee-bdd3-4f60-b3b6-69cddf8b8fe4","system_id":"levelo_inurba_marseille","lat":43.25869,"lon":5.39886,"is_reserved":false,"is_disabled":false,"rental_uris":{"android":"levelo://app?vid=b90e29ee-bdd3-4f60-b3b6-69cddf8b8fe4","ios":"levelo://app?vid=b90e29ee-bdd3-4f60-b3b6-69cddf8b8fe4"},"vehicle_type_id":"4","last_reported":1753863429,"current_range_meters":18800,"station_id":"ce4bhl92rcd13ifvqghg","pricing_plan_id":"cebpf4jnsgd1na2vs0mg"},{"bike_id":"6f945904-e30e-4baa-be01-1bd0424776dc","system_id":"levelo_inurba_marseille","lat":43.23201,"lon":5.35595,"is_reserved":false,"is_disabled":false,"rental_uris":{"android":"levelo://app?vid=6f945904-e30e-4baa-be01-1bd0424776dc","ios":"levelo://app?vid=6f945904-e30e-4baa-be01-1bd0424776dc"},"vehicle_type_id":"4","last_reported":1753863429,"current_range_meters":18800,"station_id":"ce4bhu92rcd13ifvqi70","pricing_plan_id":"cebpf4jnsgd1na2vs0mg"},{"bike_id":"34be742c-6e59-4c4c-a509-950f8293f589","system_id":"levelo_inurba_marseille","lat":43.22934,"lon":5.35373,"is_reserved":false,"is_disabled":false,"rental_uris":{"android":"levelo://app?vid=34be742c-6e59-4c4c-a509-950f8293f589","ios":"levelo://app?vid=34be742c-6e59-4c4c-a509-950f8293f589"},"vehicle_type_id":"4","last_reported":1753863429,"current_range_meters":18800,"station_id":"cpo3532slgdg3j2ikp40","pricing_plan_id":"cebpf4jnsgd1na2vs0mg"},{"bike_id":"82421548-9820-4ad4-b3c2-dfb64180eb25","system_id":"levelo_inurba_marseille","lat":43.212024,"lon":5.350702,"is_reserved":false,"is_disabled":false,"rental_uris":{"android":"levelo://app?vid=82421548-9820-4ad4-b3c2-dfb64180eb25","ios":"levelo://app?vid=82421548-9820-4ad4-b3c2-dfb64180eb25"},"vehicle_type_id":"4","last_reported":1753863429,"current_range_meters":18800,"station_id":"st_cvj6sg6p6f1abm77japg","pricing_plan_id":"cebpf4jnsgd1na2vs0mg"},{"bike_id":"6d4a8c8c-d8c5-4215-a06a-7475cf4d5132","system_id":"levelo_inurba_marseille","lat":43.28034,"lon":5.36934,"is_reserved":false,"is_disabled":false,"rental_uris":{"android":"levelo://app?vid=6d4a8c8c-d8c5-4215-a06a-7475cf4d5132","ios":"levelo://app?vid=6d4a8c8c-d8c5-4215-a06a-7475cf4d5132"},"vehicle_type_id":"4","last_reported":1753863429,"current_range_meters":19200,"station_id":"ce4bha12rcd13ifvqef0","pricing_plan_id":"cebpf4jnsgd1na2vs0mg"},{"bike_id":"c48e6e64-9d08-4fca-a774-7cc6169cfde3","system_id":"levelo_inurba_marseille","lat":43.298373,"lon":5.382965,"is_reserved":false,"is_disabled":false,"rental_uris":{"android":"levelo://app?vid=c48e6e64-9d08-4fca-a774-7cc6169cfde3","ios":"levelo://app?vid=c48e6e64-9d08-4fca-a774-7cc6169cfde3"},"vehicle_type_id":"4","last_reported":1753863429,"current_range_meters":19200,"station_id":"","pricing_plan_id":"cebpf4jnsgd1na2vs0mg"},{"bike_id":"b7e63ea0-539d-443d-ab1d-49b82a6a1b6b","system_id":"levelo_inurba_marseille","lat":43.2314,"lon":5.43716,"is_reserved":false,"is_disabled":false,"rental_uris":{"android":"levelo://app?vid=b7e63ea0-539d-443d-ab1d-49b82a6a1b6b","ios":"levelo://app?vid=b7e63ea0-539d-443d-ab1d-49b82a6a1b6b"},"vehicle_type_id":"4","last_reported":1753863429,"current_range_meters":19200,"station_id":"ce4bhmp2rcd13ifvqgog","pricing_plan_id":"cebpf4jnsgd1na2vs0mg"},{"bike_id":"25e759e4-f440-4d0c-b9fb-08bf90848adc","system_id":"levelo_inurba_marseille","lat":43.29848,"lon":5.3627,"is_reserved":false,"is_disabled":false,"rental_uris":{"android":"levelo://app?vid=25e759e4-f440-4d0c-b9fb-08bf90848adc","ios":"levelo://app?vid=25e759e4-f440-4d0c-b9fb-08bf90848adc"},"vehicle_type_id":"4","last_reported":1753863429,"current_range_meters":19200,"station_id":"ce4bgpp2rcd13ifvqc3g","pricing_plan_id":"cebpf4jnsgd1na2vs0mg"},{"bike_id":"11f531e6-a2d5-473d-8088-0681c481d3e6","system_id":"levelo_inurba_marseille","lat":43.25117,"lon":5.40315,"is_reserved":false,"is_disabled":false,"rental_uris":{"android":"levelo://app?vid=11f531e6-a2d5-473d-8088-0681c481d3e6","ios":"levelo://app?vid=11f531e6-a2d5-473d-8088-0681c481d3e6"},"vehicle_type_id":"4","last_reported":1753863429,"current_range_meters":19200,"station_id":"ce4bhlh2rcd13ifvqgig","pricing_plan_id":"cebpf4jnsgd1na2vs0mg"},{"bike_id":"f605ff71-c624-4936-a518-95ee9acc86fd","system_id":"levelo_inurba_marseille","lat":43.22504,"lon":5.34807,"is_reserved":false,"is_disabled":false,"rental_uris":{"android":"levelo://app?vid=f605ff71-c624-4936-a518-95ee9acc86fd","ios":"levelo://app?vid=f605ff71-c624-4936-a518-95ee9acc86fd"},"vehicle_type_id":"4","last_reported":1753863429,"current_range_meters":19200,"station_id":"st_cvj5dfep6f1abm77gieg","pricing_plan_id":"cebpf4jnsgd1na2vs0mg"},{"bike_id":"02dff666-8007-4eee-8739-65d8925c2470","system_id":"levelo_inurba_marseille","lat":43.3092,"lon":5.36858,"is_reserved":false,"is_disabled":false,"rental_uris":{"android":"levelo://app?vid=02dff666-8007-4eee-8739-65d8925c2470","ios":"levelo://app?vid=02dff666-8007-4eee-8739-65d8925c2470"},"vehicle_type_id":"4","last_reported":1753863429,"current_range_meters":19200,"station_id":"ce4bgn92rcd13ifvqbvg","pricing_plan_id":"cebpf4jnsgd1na2vs0mg"},{"bike_id":"9f5fba08-5d1a-4a60-9f27-a4f6e760f703","system_id":"levelo_inurba_marseille","lat":43.323511,"lon":5.367375,"is_reserved":false,"is_disabled":false,"rental_uris":{"android":"levelo://app?vid=9f5fba08-5d1a-4a60-9f27-a4f6e760f703","ios":"levelo://app?vid=9f5fba08-5d1a-4a60-9f27-a4f6e760f703"},"vehicle_type_id":"4","last_reported":1753863429,"current_range_meters":19200,"station_id":"ce4bhsh2rcd13ifvqi2g","pricing_plan_id":"cebpf4jnsgd1na2vs0mg"},{"bike_id":"c06d255d-e88c-40da-a4fd-45a0e1788d10","system_id":"levelo_inurba_marseille","lat":43.23153,"lon":5.43718,"is_reserved":false,"is_disabled":false,"rental_uris":{"android":"levelo://app?vid=c06d255d-e88c-40da-a4fd-45a0e1788d10","ios":"levelo://app?vid=c06d255d-e88c-40da-a4fd-45a0e1788d10"},"vehicle_type_id":"4","last_reported":1753863429,"current_range_meters":19200,"station_id":"ce4bhmp2rcd13ifvqgog","pricing_plan_id":"cebpf4jnsgd1na2vs0mg"},{"bike_id":"779f16c9-be4e-43db-b028-12a31c95d841","system_id":"levelo_inurba_marseille","lat":43.25003,"lon":5.38935,"is_reserved":false,"is_disabled":false,"rental_uris":{"android":"levelo://app?vid=779f16c9-be4e-43db-b028-12a31c95d841","ios":"levelo://app?vid=779f16c9-be4e-43db-b028-12a31c95d841"},"vehicle_type_id":"4","last_reported":1753863429,"current_range_meters":19200,"station_id":"ce4bhgp2rcd13ifvqfd0","pricing_plan_id":"cebpf4jnsgd1na2vs0mg"},{"bike_id":"d8f1ea63-2b2f-4d21-9b8b-d398c7af1f74","system_id":"levelo_inurba_marseille","lat":43.259359,"lon":5.40908,"is_reserved":false,"is_disabled":false,"rental_uris":{"android":"levelo://app?vid=d8f1ea63-2b2f-4d21-9b8b-d398c7af1f74","ios":"levelo://app?vid=d8f1ea63-2b2f-4d21-9b8b-d398c7af1f74"},"vehicle_type_id":"4","last_reported":1753863429,"current_range_meters":19600,"station_id":"","pricing_plan_id":"cebpf4jnsgd1na2vs0mg"},{"bike_id":"c9b491c1-c5b5-43c1-8295-bacd160dbee8","system_id":"levelo_inurba_marseille","lat":43.31122,"lon":5.37761,"is_reserved":false,"is_disabled":false,"rental_uris":{"android":"levelo://app?vid=c9b491c1-c5b5-43c1-8295-bacd160dbee8","ios":"levelo://app?vid=c9b491c1-c5b5-43c1-8295-bacd160dbee8"},"vehicle_type_id":"4","last_reported":1753863429,"current_range_meters":19600,"station_id":"ce4bgt92rcd13ifvqcg0","pricing_plan_id":"cebpf4jnsgd1na2vs0mg"},{"bike_id":"4f311b95-16d0-4152-9b03-677da880350c","system_id":"levelo_inurba_marseille","lat":43.23966,"lon":5.36621,"is_reserved":false,"is_disabled":false,"rental_uris":{"android":"levelo://app?vid=4f311b95-16d0-4152-9b03-677da880350c","ios":"levelo://app?vid=4f311b95-16d0-4152-9b03-677da880350c"},"vehicle_type_id":"4","last_reported":1753863429,"current_range_meters":19600,"station_id":"ce4bhi12rcd13ifvqfp0","pricing_plan_id":"cebpf4jnsgd1na2vs0mg"},{"bike_id":"d0e68786-d337-4e6e-9ee9-8bd9daa48758","system_id":"levelo_inurba_marseille","lat":43.24814,"lon":5.37451,"is_reserved":false,"is_disabled":false,"rental_uris":{"android":"levelo://app?vid=d0e68786-d337-4e6e-9ee9-8bd9daa48758","ios":"levelo://app?vid=d0e68786-d337-4e6e-9ee9-8bd9daa48758"},"vehicle_type_id":"4","last_reported":1753863429,"current_range_meters":19600,"station_id":"ce4bhgh2rcd13ifvqfb0","pricing_plan_id":"cebpf4jnsgd1na2vs0mg"},{"bike_id":"0ec6b756-ef9c-423b-9995-462e18b7c0a4","system_id":"levelo_inurba_marseille","lat":43.313383,"lon":5.397052,"is_reserved":false,"is_disabled":false,"rental_uris":{"android":"levelo://app?vid=0ec6b756-ef9c-423b-9995-462e18b7c0a4","ios":"levelo://app?vid=0ec6b756-ef9c-423b-9995-462e18b7c0a4"},"vehicle_type_id":"4","last_reported":1753863429,"current_range_meters":19600,"station_id":"ce4bgvp2rcd13ifvqcu0","pricing_plan_id":"cebpf4jnsgd1na2vs0mg"},{"bike_id":"494c5a8a-12f4-4041-938e-ee6eb5cbc702","system_id":"levelo_inurba_marseille","lat":43.28994,"lon":5.35603,"is_reserved":false,"is_disabled":true,"rental_uris":{"android":"levelo://app?vid=494c5a8a-12f4-4041-938e-ee6eb5cbc702","ios":"levelo://app?vid=494c5a8a-12f4-4041-938e-ee6eb5cbc702"},"vehicle_type_id":"4","last_reported":1753863429,"current_range_meters":19600,"station_id":"ce4bhb92rcd13ifvqen0","pricing_plan_id":"cebpf4jnsgd1na2vs0mg"},{"bike_id":"c8d9e16b-3d47-4395-b964-e8d906b81668","system_id":"levelo_inurba_marseille","lat":43.268677,"lon":5.370266,"is_reserved":false,"is_disabled":false,"rental_uris":{"android":"levelo://app?vid=c8d9e16b-3d47-4395-b964-e8d906b81668","ios":"levelo://app?vid=c8d9e16b-3d47-4395-b964-e8d906b81668"},"vehicle_type_id":"4","last_reported":1753863429,"current_range_meters":19600,"station_id":"","pricing_plan_id":"cebpf4jnsgd1na2vs0mg"},{"bike_id":"82178a1b-bb08-4da8-aa8a-3f881f9b30a7","system_id":"levelo_inurba_marseille","lat":43.269315,"lon":5.402553,"is_reserved":false,"is_disabled":false,"rental_uris":{"android":"levelo://app?vid=82178a1b-bb08-4da8-aa8a-3f881f9b30a7","ios":"levelo://app?vid=82178a1b-bb08-4da8-aa8a-3f881f9b30a7"},"vehicle_type_id":"4","last_reported":1753863429,"current_range_meters":19600,"station_id":"cjm6bp8fraef2m0cb0m0","pricing_plan_id":"cebpf4jnsgd1na2vs0mg"},{"bike_id":"3f8d70ae-895b-4507-b070-2ff8c80e486f","system_id":"levelo_inurba_marseille","lat":43.241657,"lon":5.363912,"is_reserved":false,"is_disabled":false,"rental_uris":{"android":"levelo://app?vid=3f8d70ae-895b-4507-b070-2ff8c80e486f","ios":"levelo://app?vid=3f8d70ae-895b-4507-b070-2ff8c80e486f"},"vehicle_type_id":"4","last_reported":1753863429,"current_range_meters":19600,"station_id":"cpo36qri1sfpv3e86is0","pricing_plan_id":"cebpf4jnsgd1na2vs0mg"},{"bike_id":"02ba587b-fdc4-4538-91bf-a3fcb628a435","system_id":"levelo_inurba_marseille","lat":43.34613,"lon":5.4488,"is_reserved":false,"is_disabled":false,"rental_uris":{"android":"levelo://app?vid=02ba587b-fdc4-4538-91bf-a3fcb628a435","ios":"levelo://app?vid=02ba587b-fdc4-4538-91bf-a3fcb628a435"},"vehicle_type_id":"4","last_reported":1753863429,"current_range_meters":19600,"station_id":"","pricing_plan_id":"cebpf4jnsgd1na2vs0mg"},{"bike_id":"011fd654-e76c-4060-82ef-48cab0762fbe","system_id":"levelo_inurba_marseille","lat":43.229418,"lon":5.35363,"is_reserved":false,"is_disabled":false,"rental_uris":{"android":"levelo://app?vid=011fd654-e76c-4060-82ef-48cab0762fbe","ios":"levelo://app?vid=011fd654-e76c-4060-82ef-48cab0762fbe"},"vehicle_type_id":"4","last_reported":1753863429,"current_range_meters":19600,"station_id":"cpo3532slgdg3j2ikp40","pricing_plan_id":"cebpf4jnsgd1na2vs0mg"},{"bike_id":"e6076a94-3fae-4db8-9048-f76bbd60af67","system_id":"levelo_inurba_marseille","lat":43.24659,"lon":5.38905,"is_reserved":false,"is_disabled":false,"rental_uris":{"android":"levelo://app?vid=e6076a94-3fae-4db8-9048-f76bbd60af67","ios":"levelo://app?vid=e6076a94-3fae-4db8-9048-f76bbd60af67"},"vehicle_type_id":"4","last_reported":1753863429,"current_range_meters":20000,"station_id":"ce4bhg12rcd13ifvqf60","pricing_plan_id":"cebpf4jnsgd1na2vs0mg"},{"bike_id":"b565b853-9616-4ab3-9cae-8b1d09dd4831","system_id":"levelo_inurba_marseille","lat":43.22503,"lon":5.34784,"is_reserved":false,"is_disabled":false,"rental_uris":{"android":"levelo://app?vid=b565b853-9616-4ab3-9cae-8b1d09dd4831","ios":"levelo://app?vid=b565b853-9616-4ab3-9cae-8b1d09dd4831"},"vehicle_type_id":"4","last_reported":1753863429,"current_range_meters":20000,"station_id":"st_cvj5dfep6f1abm77gieg","pricing_plan_id":"cebpf4jnsgd1na2vs0mg"},{"bike_id":"20782440-32e2-4e26-a85a-d8b01db73401","system_id":"levelo_inurba_marseille","lat":43.241657,"lon":5.363964,"is_reserved":false,"is_disabled":false,"rental_uris":{"android":"levelo://app?vid=20782440-32e2-4e26-a85a-d8b01db73401","ios":"levelo://app?vid=20782440-32e2-4e26-a85a-d8b01db73401"},"vehicle_type_id":"4","last_reported":1753863429,"current_range_meters":20000,"station_id":"cpo36qri1sfpv3e86is0","pricing_plan_id":"cebpf4jnsgd1na2vs0mg"},