{"last_updated":1685041506,"ttl":30,"version":"2.2","data":{"bikes":[{"bike_id":"16886ed2-3efc-4514-9fb3-465b9327ab39","system_id":"levelo_inurba_marseille","lat":43.312239,"lon":5.368562,"is_reserved":false,"is_disabled":false,"rental_uris":{"android":"levelo://app?vid=16886ed2-3efc-4514-9fb3-465b9327ab39","ios":"levelo://app?vid=16886ed2-3efc-4514-9fb3-465b9327ab39"},"vehicle_type_id":"4","last_reported":1685041506,"current_range_meters":13600,"station_id":"ce4bgl92rcd13ifvqbq0","pricing_plan_id":"free"},{"bike_id":"59ece59f-1c84-4943-9a8b-14961a00f501","system_id":"levelo_inurba_marseille","lat":43.309076,"lon":5.368465,"is_reserved":false,"is_disabled":false,"rental_uris":{"android":"levelo://app?vid=59ece59f-1c84-4943-9a8b-14961a00f501","ios":"levelo://app?vid=59ece59f-1c84-4943-9a8b-14961a00f501"},"vehicle_type_id":"4","last_reported":1685041506,"current_range_meters":12400,"station_id":"ce4bgn92rcd13ifvqbvg","pricing_plan_id":"free"},{"bike_id":"8b09bf5b-e46f-4e49-b262-56c99e7d92e9","system_id":"levelo_inurba_marseille","lat":43.309076,"lon":5.368465,"is_reserved":false,"is_disabled":false,"rental_uris":{"android":"levelo://app?vid=8b09bf5b-e46f-4e49-b262-56c99e7d92e9","ios":"levelo://app?vid=8b09bf5b-e46f-4e49-b262-56c99e7d92e9"},"vehicle_type_id":"4","last_reported":1685041506,"current_range_meters":12800,"station_id":"ce4bgn92rcd13ifvqbvg","pricing_plan_id":"free"},{"bike_id":"5faddb9d-a20b-4d47-b2ea-a6c19f13ccf6","system_id":"levelo_inurba_marseille","lat":43.309076,"lon":5.368465,"is_reserved":false,"is_disabled":false,"rental_uris":{"android":"levelo://app?vid=5faddb9d-a20b-4d47-b2ea-a6c19f13ccf6","ios":"levelo://app?vid=5faddb9d-a20b-4d47-b2ea-a6c19f13ccf6"},"vehicle_type_id":"4","last_reported":1685041506,"current_range_meters":27200,"station_id":"ce4bgn92rcd13ifvqbvg","pricing_plan_id":"free"},{"bike_id":"7df4165b-f56a-460e-b4ec-3b31125cb256","system_id":"levelo_inurba_marseille","lat":43.314811,"lon":5.373103,"is_reserved":false,"is_disabled":false,"rental_uris":{"android":"levelo://app?vid=7df4165b-f56a-460e-b4ec-3b31125cb256","ios":"levelo://app?vid=7df4165b-f56a-460e-b4ec-3b31125cb256"},"vehicle_type_id":"4","last_reported":1685041506,"current_range_meters":13200,"station_id":"ce4bgt12rcd13ifvqcd0","pricing_plan_id":"free"},{"bike_id":"deccbc28-701a-49fd-ad8e-4eeecc8aad7f","system_id":"levelo_inurba_marseille","lat":43.308614,"lon":5.372098,"is_reserved":false,"is_disabled":false,"rental_uris":{"android":"levelo://app?vid=deccbc28-701a-49fd-ad8e-4eeecc8aad7f","ios":"levelo://app?vid=deccbc28-701a-49fd-ad8e-4eeecc8aad7f"},"vehicle_type_id":"4","last_reported":1685041506,"current_range_meters":12000,"station_id":"ce4bguh2rcd13ifvqckg","pricing_plan_id":"free"},{"bike_id":"2d241f26-1cbd-4b9b-973c-b12a69274059","system_id":"levelo_inurba_marseille","lat":43.305368,"lon":5.367343,"is_reserved":false,"is_disabled":false,"rental_uris":{"android":"levelo://app?vid=2d241f26-1cbd-4b9b-973c-b12a69274059","ios":"levelo://app?vid=2d241f26-1cbd-4b9b-973c-b12a69274059"},"vehicle_type_id":"4","last_reported":1685041506,"current_range_meters":9200,"station_id":"ce4bgrp2rcd13ifvqc9g","pricing_plan_id":"free"},{"bike_id":"80a5f827-0a10-4b91-a3f1-977cace69a15","system_id":"levelo_inurba_marseille","lat":43.311131,"lon":5.377651,"is_reserved":false,"is_disabled":false,"rental_uris":{"android":"levelo://app?vid=80a5f827-0a10-4b91-a3f1-977cace69a15","ios":"levelo://app?vid=80a5f827-0a10-4b91-a3f1-977cace69a15"},"vehicle_type_id":"4","last_reported":1685041506,"current_range_meters":1200,"station_id":"ce4bgt92rcd13ifvqcg0","pricing_plan_id":"free"},{"bike_id":"d2de3be9-d36f-4963-be8f-1dc2f77dc2ac","system_id":"levelo_inurba_marseille","lat":43.31116,"lon":5.37772,"is_reserved":false,"is_disabled":false,"rental_uris":{"android":"levelo://app?vid=d2de3be9-d36f-4963-be8f-1dc2f77dc2ac","ios":"levelo://app?vid=d2de3be9-d36f-4963-be8f-1dc2f77dc2ac"},"vehicle_type_id":"4","last_reported":1685041506,"current_range_meters":6400,"station_id":"ce4bgt92rcd13ifvqcg0","pricing_plan_id":"free"},{"bike_id":"16e7282a-4eed-47c3-83b3-d7e0dee6c006","system_id":"levelo_inurba_marseille","lat":43.317075,"lon":5.377367,"is_reserved":false,"is_disabled":false,"rental_uris":{"android":"levelo://app?vid=16e7282a-4eed-47c3-83b3-d7e0dee6c006","ios":"levelo://app?vid=16e7282a-4eed-47c3-83b3-d7e0dee6c006"},"vehicle_type_id":"4","last_reported":1685041506,"current_range_meters":21200,"station_id":"ce4bgth2rcd13ifvqch0","pricing_plan_id":"free"},{"bike_id":"2ab4639f-70ee-4cae-8aea-667b4c6c63d0","system_id":"levelo_inurba_marseille","lat":43.317075,"lon":5.377367,"is_reserved":false,"is_disabled":false,"rental_uris":{"android":"levelo://app?vid=2ab4639f-70ee-4cae-8aea-667b4c6c63d0","ios":"levelo://app?vid=2ab4639f-70ee-4cae-8aea-667b4c6c63d0"},"vehicle_type_id":"4","last_reported":1685041506,"current_range_meters":16400,"station_id":"ce4bgth2rcd13ifvqch0","pricing_plan_id":"free"},{"bike_id":"b6855b1f-51d1-440e-8236-2a00d5254915","system_id":"levelo_inurba_marseille","lat":43.317075,"lon":5.377367,"is_reserved":false,"is_disabled":false,"rental_uris":{"android":"levelo://app?vid=b6855b1f-51d1-440e-8236-2a00d5254915","ios":"levelo://app?vid=b6855b1f-51d1-440e-8236-2a00d5254915"},"vehicle_type_id":"4","last_reported":1685041506,"current_range_meters":18800,"station_id":"ce4bgth2rcd13ifvqch0","pricing_plan_id":"free"},{"bike_id":"68553df9-2b4c-4244-a834-2447f191355a","system_id":"levelo_inurba_marseille","lat":43.317075,"lon":5.377367,"is_reserved":false,"is_disabled":false,"rental_uris":{"android":"levelo://app?vid=68553df9-2b4c-4244-a834-2447f191355a","ios":"levelo://app?vid=68553df9-2b4c-4244-a834-2447f191355a"},"vehicle_type_id":"4","last_reported":1685041506,"current_range_meters":6000,"station_id":"ce4bgth2rcd13ifvqch0","pricing_plan_id":"free"},{"bike_id":"1e3654da-4ca8-4941-8c9e-d7ae66415c19","system_id":"levelo_inurba_marseille","lat":43.317075,"lon":5.377367,"is_reserved":false,"is_disabled":false,"rental_uris":{"android":"levelo://app?vid=1e3654da-4ca8-4941-8c9e-d7ae66415c19","ios":"levelo://app?vid=1e3654da-4ca8-4941-8c9e-d7ae66415c19"},"vehicle_type_id":"4","last_reported":1685041506,"current_range_meters":20400,"station_id":"ce4bgth2rcd13ifvqch0","pricing_plan_id":"free"},{"bike_id":"3022569d-6af5-45bd-8997-a0f8c384be8e","system_id":"levelo_inurba_marseille","lat":43.317075,"lon":5.377367,"is_reserved":false,"is_disabled":false,"rental_uris":{"android":"levelo://app?vid=3022569d-6af5-45bd-8997-a0f8c384be8e","ios":"levelo://app?vid=3022569d-6af5-45bd-8997-a0f8c384be8e"},"vehicle_type_id":"4","last_reported":1685041506,"current_range_meters":27200,"station_id":"ce4bgth2rcd13ifvqch0","pricing_plan_id":"free"},{"bike_id":"a9c13a70-c564-49a5-81b4-c2e9b591221c","system_id":"levelo_inurba_marseille","lat":43.317075,"lon":5.377367,"is_reserved":false,"is_disabled":false,"rental_uris":{"android":"levelo://app?vid=a9c13a70-c564-49a5-81b4-c2e9b591221c","ios":"levelo://app?vid=a9c13a70-c564-49a5-81b4-c2e9b591221c"},"vehicle_type_id":"4","last_reported":1685041506,"current_range_meters":18000,"station_id":"ce4bgth2rcd13ifvqch0","pricing_plan_id":"free"},{"bike_id":"7b06dc8c-a57b-40ab-a84e-e88877074cf1","system_id":"levelo_inurba_marseille","lat":43.317075,"lon":5.377367,"is_reserved":false,"is_disabled":false,"rental_uris":{"android":"levelo://app?vid=7b06dc8c-a57b-40ab-a84e-e88877074cf1","ios":"levelo://app?vid=7b06dc8c-a57b-40ab-a84e-e88877074cf1"},"vehicle_type_id":"4","last_reported":1685041506,"current_range_meters":9600,"station_id":"ce4bgth2rcd13ifvqch0","pricing_plan_id":"free"},{"bike_id":"8d3b898a-41aa-4f28-b1a2-33ce656ae17f","system_id":"levelo_inurba_marseille","lat":43.317075,"lon":5.377367,"is_reserved":false,"is_disabled":false,"rental_uris":{"android":"levelo://app?vid=8d3b898a-41aa-4f28-b1a2-33ce656ae17f","ios":"levelo://app?vid=8d3b898a-41aa-4f28-b1a2-33ce656ae17f"},"vehicle_type_id":"4","last_reported":1685041506,"current_range_meters":24000,"station_id":"ce4bgth2rcd13ifvqch0","pricing_plan_id":"free"},{"bike_id":"fd38c318-e10c-4ea0-8386-140691495f8d","system_id":"levelo_inurba_marseille","lat":43.31713,"lon":5.37832,"is_reserved":false,"is_disabled":false,"rental_uris":{"android":"levelo://app?vid=fd38c318-e10c-4ea0-8386-140691495f8d","ios":"levelo://app?vid=fd38c318-e10c-4ea0-8386-140691495f8d"},"vehicle_type_id":"4","last_reported":1685041506,"current_range_meters":27600,"station_id":"","pricing_plan_id":"free"},{"bike_id":"4c5ae5f9-3932-4f1e-9e4f-ebe0a11e0845","system_id":"levelo_inurba_marseille","lat":43.315289,"lon":5.380349,"is_reserved":false,"is_disabled":false,"rental_uris":{"android":"levelo://app?vid=4c5ae5f9-3932-4f1e-9e4f-ebe0a11e0845","ios":"levelo://app?vid=4c5ae5f9-3932-4f1e-9e4f-ebe0a11e0845"},"vehicle_type_id":"4","last_reported":1685041506,"current_range_meters":16000,"station_id":"ce4bhsp2rcd13ifvqi50","pricing_plan_id":"free"},{"bike_id":"158480b5-70e7-4425-a5ba-1cd69d6f5fe9","system_id":"levelo_inurba_marseille","lat":43.315289,"lon":5.380349,"is_reserved":false,"is_disabled":false,"rental_uris":{"android":"levelo://app?vid=158480b5-70e7-4425-a5ba-1cd69d6f5fe9","ios":"levelo://app?vid=158480b5-70e7-4425-a5ba-1cd69d6f5fe9"},"vehicle_type_id":"4","last_reported":1685041506,"current_range_meters":28800,"station_id":"ce4bhsp2rcd13ifvqi50","pricing_plan_id":"free"},{"bike_id":"0e7c03d7-dfe3-476e-8802-303cd1233f2f","system_id":"levelo_inurba_marseille","lat":43.315289,"lon":5.380349,"is_reserved":false,"is_disabled":false,"rental_uris":{"android":"levelo://app?vid=0e7c03d7-dfe3-476e-8802-303cd1233f2f","ios":"levelo://app?vid=0e7c03d7-dfe3-476e-8802-303cd1233f2f"},"vehicle_type_id":"4","last_reported":1685041506,"current_range_meters":24000,"station_id":"ce4bhsp2rcd13ifvqi50","pricing_plan_id":"free"},{"bike_id":"a06fe5f2-5a1f-49d5-943e-fc912d081c45","system_id":"levelo_inurba_marseille","lat":43.301939,"lon":5.366286,"is_reserved":false,"is_disabled":false,"rental_uris":{"android":"levelo://app?vid=a06fe5f2-5a1f-49d5-943e-fc912d081c45","ios":"levelo://app?vid=a06fe5f2-5a1f-49d5-943e-fc912d081c45"},"vehicle_type_id":"4","last_reported":1685041506,"current_range_meters":5200,"station_id":"ce4bgrh2rcd13ifvqc8g","pricing_plan_id":"free"},{"bike_id":"8ec0e5ea-8bad-4b26-b363-0d20b2d7c4cf","system_id":"levelo_inurba_marseille","lat":43.308012,"lon":5.381511,"is_reserved":false,"is_disabled":false,"rental_uris":{"android":"levelo://app?vid=8ec0e5ea-8bad-4b26-b363-0d20b2d7c4cf","ios":"levelo://app?vid=8ec0e5ea-8bad-4b26-b363-0d20b2d7c4cf"},"vehicle_type_id":"4","last_reported":1685041506,"current_range_meters":0,"station_id":"ce4bgt12rcd13ifvqce0","pricing_plan_id":"free"},{"bike_id":"10127af6-1ca4-4620-8c57-ba82a12ae47b","system_id":"levelo_inurba_marseille","lat":43.308012,"lon":5.381511,"is_reserved":false,"is_disabled":false,"rental_uris":{"android":"levelo://app?vid=10127af6-1ca4-4620-8c57-ba82a12ae47b","ios":"levelo://app?vid=10127af6-1ca4-4620-8c57-ba82a12ae47b"},"vehicle_type_id":"4","last_reported":1685041506,"current_range_meters":0,"station_id":"ce4bgt12rcd13ifvqce0","pricing_plan_id":"free"},{"bike_id":"0f2040cc-e19c-4917-b2a6-8047c1ffcc28","system_id":"levelo_inurba_marseille","lat":43.304606,"lon":5.379026,"is_reserved":false,"is_disabled":false,"rental_uris":{"android":"levelo://app?vid=0f2040cc-e19c-4917-b2a6-8047c1ffcc28","ios":"levelo://app?vid=0f2040cc-e19c-4917-b2a6-8047c1ffcc28"},"vehicle_type_id":"4","last_reported":1685041506,"current_range_meters":12800,"station_id":"ce4bgup2rcd13ifvqcn0","pricing_plan_id":"free"},{"bike_id":"e5571f58-adb6-49b7-8c86-2d757ae8e1a0","system_id":"levelo_inurba_marseille","lat":43.319935,"lon":5.381699,"is_reserved":false,"is_disabled":false,"rental_uris":{"android":"levelo://app?vid=e5571f58-adb6-49b7-8c86-2d757ae8e1a0","ios":"levelo://app?vid=e5571f58-adb6-49b7-8c86-2d757ae8e1a0"},"vehicle_type_id":"4","last_reported":1685041506,"current_range_meters":21600,"station_id":"ce4bhr12rcd13ifvqhpg","pricing_plan_id":"free"},{"bike_id":"bfdcad51-97fc-4fc5-8b82-c545596782cd","system_id":"levelo_inurba_marseille","lat":43.319935,"lon":5.381699,"is_reserved":false,"is_disabled":false,"rental_uris":{"android":"levelo://app?vid=bfdcad51-97fc-4fc5-8b82-c545596782cd","ios":"levelo://app?vid=bfdcad51-97fc-4fc5-8b82-c545596782cd"},"vehicle_type_id":"4","last_reported":1685041506,"current_range_meters":31200,"station_id":"ce4bhr12rcd13ifvqhpg","pricing_plan_id":"free"},{"bike_id":"530a238a-2fe4-4ada-b174-d32325afbdf2","system_id":"levelo_inurba_marseille","lat":43.31995,"lon":5.38149,"is_reserved":false,"is_disabled":false,"rental_uris":{"android":"levelo://app?vid=530a238a-2fe4-4ada-b174-d32325afbdf2","ios":"levelo://app?vid=530a238a-2fe4-4ada-b174-d32325afbdf2"},"vehicle_type_id":"4","last_reported":1685041506,"current_range_meters":28800,"station_id":"ce4bhr12rcd13ifvqhpg","pricing_plan_id":"free"},{"bike_id":"ec2bf9d8-bdcd-4d00-823b-5e25cb80cc6b","system_id":"levelo_inurba_marseille","lat":43.319935,"lon":5.381699,"is_reserved":false,"is_disabled":false,"rental_uris":{"android":"levelo://app?vid=ec2bf9d8-bdcd-4d00-823b-5e25cb80cc6b","ios":"levelo://app?vid=ec2bf9d8-bdcd-4d00-823b-5e25cb80cc6b"},"vehicle_type_id":"4","last_reported":1685041506,"current_range_meters":30800,"station_id":"ce4bhr12rcd13ifvqhpg","pricing_plan_id":"free"},{"bike_id":"ed0af2c9-d311-4056-bf56-2135ca45404c","system_id":"levelo_inurba_marseille","lat":43.31998,"lon":5.38148,"is_reserved":false,"is_disabled":false,"rental_uris":{"android":"levelo://app?vid=ed0af2c9-d311-4056-bf56-2135ca45404c","ios":"levelo://app?vid=ed0af2c9-d311-4056-bf56-2135ca45404c"},"vehicle_type_id":"4","last_reported":1685041506,"current_range_meters":22000,"station_id":"ce4bhr12rcd13ifvqhpg","pricing_plan_id":"free"},{"bike_id":"e7f9e557-7aab-43d8-8e20-32a2b55893af","system_id":"levelo_inurba_marseille","lat":43.31999,"lon":5.38154,"is_reserved":false,"is_disabled":false,"rental_uris":{"android":"levelo://app?vid=e7f9e557-7aab-43d8-8e20-32a2b55893af","ios":"levelo://app?vid=e7f9e557-7aab-43d8-8e20-32a2b55893af"},"vehicle_type_id":"4","last_reported":1685041506,"current_range_meters":8400,"station_id":"ce4bhr12rcd13ifvqhpg","pricing_plan_id":"free"},{"bike_id":"c906fdd5-8c40-4206-a3b9-d22b9704e528","system_id":"levelo_inurba_marseille","lat":43.31999,"lon":5.38154,"is_reserved":false,"is_disabled":false,"rental_uris":{"android":"levelo://app?vid=c906fdd5-8c40-4206-a3b9-d22b9704e528","ios":"levelo://app?vid=c906fdd5-8c40-4206-a3b9-d22b9704e528"},"vehicle_type_id":"4","last_reported":1685041506,"current_range_meters":13600,"station_id":"ce4bhr12rcd13ifvqhpg","pricing_plan_id":"free"},{"bike_id":"67d771cf-5063-4f6f-8d01-432caa748b18","system_id":"levelo_inurba_marseille","lat":43.32004,"lon":5.38155,"is_reserved":false,"is_disabled":false,"rental_uris":{"android":"levelo://app?vid=67d771cf-5063-4f6f-8d01-432caa748b18","ios":"levelo://app?vid=67d771cf-5063-4f6f-8d01-432caa748b18"},"vehicle_type_id":"4","last_reported":1685041506,"current_range_meters":10000,"station_id":"ce4bhr12rcd13ifvqhpg","pricing_plan_id":"free"},{"bike_id":"44901d41-a62f-42f9-8cc7-dbf3ecc8a7ac","system_id":"levelo_inurba_marseille","lat":43.31999,"lon":5.38162,"is_reserved":false,"is_disabled":false,"rental_uris":{"android":"levelo://app?vid=44901d41-a62f-42f9-8cc7-dbf3ecc8a7ac","ios":"levelo://app?vid=44901d41-a62f-42f9-8cc7-dbf3ecc8a7ac"},"vehicle_type_id":"4","last_reported":1685041506,"current_range_meters":22800,"station_id":"","pricing_plan_id":"free"},{"bike_id":"5ac2fe43-85c7-472b-b3f7-4192c6da01ce","system_id":"levelo_inurba_marseille","lat":43.320076,"lon":5.381696,"is_reserved":false,"is_disabled":false,"rental_uris":{"android":"levelo://app?vid=5ac2fe43-85c7-472b-b3f7-4192c6da01ce","ios":"levelo://app?vid=5ac2fe43-85c7-472b-b3f7-4192c6da01ce"},"vehicle_type_id":"4","last_reported":1685041506,"current_range_meters":20400,"station_id":"","pricing_plan_id":"free"},{"bike_id":"82a674d0-9661-4c41-bb07-043359a7a75c","system_id":"levelo_inurba_marseille","lat":43.31362,"lon":5.38488,"is_reserved":false,"is_disabled":false,"rental_uris":{"android":"levelo://app?vid=82a674d0-9661-4c41-bb07-043359a7a75c","ios":"levelo://app?vid=82a674d0-9661-4c41-bb07-043359a7a75c"},"vehicle_type_id":"4","last_reported":1685041506,"current_range_meters":29200,"station_id":"ce4bgt92rcd13ifvqcf0","pricing_plan_id":"free"},{"bike_id":"d4b0c2b6-4e7a-43aa-b1a1-ee583cc5e17a","system_id":"levelo_inurba_marseille","lat":43.313571,"lon":5.384829,"is_reserved":false,"is_disabled":false,"rental_uris":{"android":"levelo://app?vid=d4b0c2b6-4e7a-43aa-b1a1-ee583cc5e17a","ios":"levelo://app?vid=d4b0c2b6-4e7a-43aa-b1a1-ee583cc5e17a"},"vehicle_type_id":"4","last_reported":1685041506,"current_range_meters":28800,"station_id":"ce4bgt92rcd13ifvqcf0","pricing_plan_id":"free"},{"bike_id":"3822388a-a307-4bb3-bd87-f7cf392cd2bf","system_id":"levelo_inurba_marseille","lat":43.31356,"lon":5.38498,"is_reserved":false,"is_disabled":false,"rental_uris":{"android":"levelo://app?vid=3822388a-a307-4bb3-bd87-f7cf392cd2bf","ios":"levelo://app?vid=3822388a-a307-4bb3-bd87-f7cf392cd2bf"},"vehicle_type_id":"4","last_reported":1685041506,"current_range_meters":22000,"station_id":"ce4bgt92rcd13ifvqcf0","pricing_plan_id":"free"},{"bike_id":"7ff0cf0c-f9cb-4047-bca4-1219b301fb5d","system_id":"levelo_inurba_marseille","lat":43.313571,"lon":5.384829,"is_reserved":false,"is_disabled":false,"rental_uris":{"android":"levelo://app?vid=7ff0cf0c-f9cb-4047-bca4-1219b301fb5d","ios":"levelo://app?vid=7ff0cf0c-f9cb-4047-bca4-1219b301fb5d"},"vehicle_type_id":"4","last_reported":1685041506,"current_range_meters":31200,"station_id":"ce4bgt92rcd13ifvqcf0","pricing_plan_id":"free"},{"bike_id":"f5a4def4-33af-42aa-b3e9-fdd1c8544708","system_id":"levelo_inurba_marseille","lat":43.313571,"lon":5.384829,"is_reserved":false,"is_disabled":false,"rental_uris":{"android":"levelo://app?vid=f5a4def4-33af-42aa-b3e9-fdd1c8544708","ios":"levelo://app?vid=f5a4def4-33af-42aa-b3e9-fdd1c8544708"},"vehicle_type_id":"4","last_reported":1685041506,"current_range_meters":30000,"station_id":"ce4bgt92rcd13ifvqcf0","pricing_plan_id":"free"},{"bike_id":"2bcae5bf-4a8c-4409-8465-fe7b2a623f94","system_id":"levelo_inurba_marseille","lat":43.313571,"lon":5.384829,"is_reserved":false,"is_disabled":false,"rental_uris":{"android":"levelo://app?vid=2bcae5bf-4a8c-4409-8465-fe7b2a623f94","ios":"levelo://app?vid=2bcae5bf-4a8c-4409-8465-fe7b2a623f94"},"vehicle_type_id":"4","last_reported":1685041506,"current_range_meters":31200,"station_id":"ce4bgt92rcd13ifvqcf0","pricing_plan_id":"free"},{"bike_id":"0c720b82-381d-4ab9-9d1e-99c9d3ba7e6e","system_id":"levelo_inurba_marseille","lat":43.313571,"lon":5.384829,"is_reserved":false,"is_disabled":false,"rental_uris":{"android":"levelo://app?vid=0c720b82-381d-4ab9-9d1e-99c9d3ba7e6e","ios":"levelo://app?vid=0c720b82-381d-4ab9-9d1e-99c9d3ba7e6e"},"vehicle_type_id":"4","last_reported":1685041506,"current_range_meters":31200,"station_id":"ce4bgt92rcd13ifvqcf0","pricing_plan_id":"free"},{"bike_id":"f55e4134-39f4-4986-bf03-aed9ef054d2a","system_id":"levelo_inurba_marseille","lat":43.31365,"lon":5.38503,"is_reserved":false,"is_disabled":false,"rental_uris":{"android":"levelo://app?vid=f55e4134-39f4-4986-bf03-aed9ef054d2a","ios":"levelo://app?vid=f55e4134-39f4-4986-bf03-aed9ef054d2a"},"vehicle_type_id":"4","last_reported":1685041506,"current_range_meters":30000,"station_id":"ce4bgt92rcd13ifvqcf0","pricing_plan_id":"free"},{"bike_id":"0d6739ca-c2fe-4c7a-a843-4491068a992b","system_id":"levelo_inurba_marseille","lat":43.3137,"lon":5.38514,"is_reserved":false,"is_disabled":false,"rental_uris":{"android":"levelo://app?vid=0d6739ca-c2fe-4c7a-a843-4491068a992b","ios":"levelo://app?vid=0d6739ca-c2fe-4c7a-a843-4491068a992b"},"vehicle_type_id":"4","last_reported":1685041506,"current_range_meters":27200,"station_id":"ce4bgt92rcd13ifvqcf0","pricing_plan_id":"free"},{"bike_id":"b6bf6c0f-b627-4ae7-ac1e-538d4c56a1f1","system_id":"levelo_inurba_marseille","lat":43.29942,"lon":5.36557,"is_reserved":false,"is_disabled":false,"rental_uris":{"android":"levelo://app?vid=b6bf6c0f-b627-4ae7-ac1e-538d4c56a1f1","ios":"levelo://app?vid=b6bf6c0f-b627-4ae7-ac1e-538d4c56a1f1"},"vehicle_type_id":"4","last_reported":1685041506,"current_range_meters":800,"station_id":"ce4bgm92rcd13ifvqbr0","pricing_plan_id":"free"},{"bike_id":"66535571-30d0-45ec-aa3d-aba9716e087a","system_id":"levelo_inurba_marseille","lat":43.299243,"lon":5.37481,"is_reserved":false,"is_disabled":false,"rental_uris":{"android":"levelo://app?vid=66535571-30d0-45ec-aa3d-aba9716e087a","ios":"levelo://app?vid=66535571-30d0-45ec-aa3d-aba9716e087a"},"vehicle_type_id":"4","last_reported":1685041506,"current_range_meters":18000,"station_id":"ce4bgjh2rcd13ifvqbg0","pricing_plan_id":"free"},{"bike_id":"4c101760-d6a8-4b46-818b-05f7aa074875","system_id":"levelo_inurba_marseille","lat":43.297794,"lon":5.370888,"is_reserved":false,"is_disabled":false,"rental_uris":{"android":"levelo://app?vid=4c101760-d6a8-4b46-818b-05f7aa074875","ios":"levelo://app?vid=4c101760-d6a8-4b46-818b-05f7aa074875"},"vehicle_type_id":"4","last_reported":1685041506,"current_range_meters":1600,"station_id":"ce4bgop2rcd13ifvqc1g","pricing_plan_id":"free"},{"bike_id":"74a69ce9-7415-476a-a274-cac876876160","system_id":"levelo_inurba_marseille","lat":43.297774,"lon":5.370875,"is_reserved":false,"is_disabled":false,"rental_uris":{"android":"levelo://app?vid=74a69ce9-7415-476a-a274-cac876876160","ios":"levelo://app?vid=74a69ce9-7415-476a-a274-cac876876160"},"vehicle_type_id":"4","last_reported":1685041506,"current_range_meters":12800,"station_id":"ce4bgop2rcd13ifvqc1g","pricing_plan_id":"free"},{"bike_id":"92be4395-ba94-4cec-a32c-c343991e705c","system_id":"levelo_inurba_marseille","lat":43.297794,"lon":5.370888,"is_reserved":false,"is_disabled":false,"rental_uris":{"android":"levelo://app?vid=92be4395-ba94-4cec-a32c-c343991e705c","ios":"levelo://app?vid=92be4395-ba94-4cec-a32c-c343991e705c"},"vehicle_type_id":"4","last_reported":1685041506,"current_range_meters":14400,"station_id":"ce4bgop2rcd13ifvqc1g","pricing_plan_id":"free"},{"bike_id":"33d64a15-7d9d-4fb0-ae0e-1b1b07ff9aea","system_id":"levelo_inurba_marseille","lat":43.328371,"lon":5.366909,"is_reserved":false,"is_disabled":false,"rental_uris":{"android":"levelo://app?vid=33d64a15-7d9d-4fb0-ae0e-1b1b07ff9aea","ios":"levelo://app?vid=33d64a15-7d9d-4fb0-ae0e-1b1b07ff9aea"},"vehicle_type_id":"4","last_reported":1685041506,"current_range_meters":30400,"station_id":"ce4bhs92rcd13ifvqi0g","pricing_plan_id":"free"},{"bike_id":"fad50468-bff6-4eb0-bc39-08e7203bec60","system_id":"levelo_inurba_marseille","lat":43.328371,"lon":5.366912,"is_reserved":false,"is_disabled":false,"rental_uris":{"android":"levelo://app?vid=fad50468-bff6-4eb0-bc39-08e7203bec60","ios":"levelo://app?vid=fad50468-bff6-4eb0-bc39-08e7203bec60"},"vehicle_type_id":"4","last_reported":1685041506,"current_range_meters":17200,"station_id":"ce4bhs92rcd13ifvqi0g","pricing_plan_id":"free"},{"bike_id":"07d0f5f8-594a-4c99-bd5f-efd86e16327f","system_id":"levelo_inurba_marseille","lat":43.328371,"lon":5.366912,"is_reserved":false,"is_disabled":false,"rental_uris":{"android":"levelo://app?vid=07d0f5f8-594a-4c99-bd5f-efd86e16327f","ios":"levelo://app?vid=07d0f5f8-594a-4c99-bd5f-efd86e16327f"},"vehicle_type_id":"4","last_reported":1685041506,"current_range_meters":11200,"station_id":"ce4bhs92rcd13ifvqi0g","pricing_plan_id":"free"},{"bike_id":"5776c0fc-b7c8-471b-bce1-ca30f47e9fb9","system_id":"levelo_inurba_marseille","lat":43.328371,"lon":5.366909,"is_reserved":false,"is_disabled":false,"rental_uris":{"android":"levelo://app?vid=5776c0fc-b7c8-471b-bce1-ca30f47e9fb9","ios":"levelo://app?vid=5776c0fc-b7c8-471b-bce1-ca30f47e9fb9"},"vehicle_type_id":"4","last_reported":1685041506,"current_range_meters":4000,"station_id":"ce4bhs92rcd13ifvqi0g","pricing_plan_id":"free"},{"bike_id":"beb58a24-32df-4292-805e-75c74c187706","system_id":"levelo_inurba_marseille","lat":43.328371,"lon":5.366912,"is_reserved":false,"is_disabled":false,"rental_uris":{"android":"levelo://app?vid=beb58a24-32df-4292-805e-75c74c187706","ios":"levelo://app?vid=beb58a24-32df-4292-805e-75c74c187706"},"vehicle_type_id":"4","last_reported":1685041506,"current_range_meters":30400,"station_id":"ce4bhs92rcd13ifvqi0g","pricing_plan_id":"free"},{"bike_id":"1acc9c82-a049-49b2-8802-6e37cdd32a71","system_id":"levelo_inurba_marseille","lat":43.328371,"lon":5.366912,"is_reserved":false,"is_disabled":false,"rental_uris":{"android":"levelo://app?vid=1acc9c82-a049-49b2-8802-6e37cdd32a71","ios":"levelo://app?vid=1acc9c82-a049-49b2-8802-6e37cdd32a71"},"vehicle_type_id":"4","last_reported":1685041506,"current_range_meters":26000,"station_id":"ce4bhs92rcd13ifvqi0g","pricing_plan_id":"free"},{"bike_id":"cd2ff10f-681c-4c0d-b23b-ed356d56ba93","system_id":"levelo_inurba_marseille","lat":43.328371,"lon":5.366912,"is_reserved":false,"is_disabled":false,"rental_uris":{"android":"levelo://app?vid=cd2ff10f-681c-4c0d-b23b-ed356d56ba93","ios":"levelo://app?vid=cd2ff10f-681c-4c0d-b23b-ed356d56ba93"},"vehicle_type_id":"4","last_reported":1685041506,"current_range_meters":27600,"station_id":"ce4bhs92rcd13ifvqi0g","pricing_plan_id":"free"},{"bike_id":"4a30cadb-f231-4029-8ba6-2c441e835d6c","system_id":"levelo_inurba_marseille","lat":43.29714,"lon":5.36605,"is_reserved":false,"is_disabled":false,"rental_uris":{"android":"levelo://app?vid=4a30cadb-f231-4029-8ba6-2c441e835d6c","ios":"levelo://app?vid=4a30cadb-f231-4029-8ba6-2c441e835d6c"},"vehicle_type_id":"4","last_reported":1685041506,"current_range_meters":23200,"station_id":"","pricing_plan_id":"free"},{"bike_id":"4fe812b5-a152-4f6f-a5e4-5b2d482ba70f","system_id":"levelo_inurba_marseille","lat":43.32836,"lon":5.36685,"is_reserved":false,"is_disabled":false,"rental_uris":{"android":"levelo://app?vid=4fe812b5-a152-4f6f-a5e4-5b2d482ba70f","ios":"levelo://app?vid=4fe812b5-a152-4f6f-a5e4-5b2d482ba70f"},"vehicle_type_id":"4","last_reported":1685041506,"current_range_meters":18000,"station_id":"ce4bhs92rcd13ifvqi0g","pricing_plan_id":"free"},{"bike_id":"3d39b48d-c19b-4941-bd80-9be9be2037de","system_id":"levelo_inurba_marseille","lat":43.29638,"lon":5.37156,"is_reserved":false,"is_disabled":false,"rental_uris":{"android":"levelo://app?vid=3d39b48d-c19b-4941-bd80-9be9be2037de","ios":"levelo://app?vid=3d39b48d-c19b-4941-bd80-9be9be2037de"},"vehicle_type_id":"4","last_reported":1685041506,"current_range_meters":13600,"station_id":"","pricing_plan_id":"free"},{"bike_id":"7e31aac8-1497-4c5d-9eec-4d5d6c897037","system_id":"levelo_inurba_marseille","lat":43.296131,"lon":5.370791,"is_reserved":false,"is_disabled":false,"rental_uris":{"android":"levelo://app?vid=7e31aac8-1497-4c5d-9eec-4d5d6c897037","ios":"levelo://app?vid=7e31aac8-1497-4c5d-9eec-4d5d6c897037"},"vehicle_type_id":"4","last_reported":1685041506,"current_range_meters":14800,"station_id":"ce4bgnh2rcd13ifvqc0g","pricing_plan_id":"free"},{"bike_id":"7187ccfd-8c7a-4cc5-91e7-248a68a678e4","system_id":"levelo_inurba_marseille","lat":43.31675,"lon":5.38964,"is_reserved":false,"is_disabled":false,"rental_uris":{"android":"levelo://app?vid=7187ccfd-8c7a-4cc5-91e7-248a68a678e4","ios":"levelo://app?vid=7187ccfd-8c7a-4cc5-91e7-248a68a678e4"},"vehicle_type_id":"4","last_reported":1685041506,"current_range_meters":400,"station_id":"","pricing_plan_id":"free"},{"bike_id":"d783dc22-1c62-4066-ab1c-01379ee10e07","system_id":"levelo_inurba_marseille","lat":43.309589,"lon":5.390258,"is_reserved":false,"is_disabled":false,"rental_uris":{"android":"levelo://app?vid=d783dc22-1c62-4066-ab1c-01379ee10e07","ios":"levelo://app?vid=d783dc22-1c62-4066-ab1c-01379ee10e07"},"vehicle_type_id":"4","last_reported":1685041506,"current_range_meters":10400,"station_id":"ce4bgup2rcd13ifvqco0","pricing_plan_id":"free"},{"bike_id":"fcabca5a-2884-4478-9a81-19994fe86ceb","system_id":"levelo_inurba_marseille","lat":43.31756,"lon":5.39009,"is_reserved":false,"is_disabled":false,"rental_uris":{"android":"levelo://app?vid=fcabca5a-2884-4478-9a81-19994fe86ceb","ios":"levelo://app?vid=fcabca5a-2884-4478-9a81-19994fe86ceb"},"vehicle_type_id":"4","last_reported":1685041506,"current_range_meters":13600,"station_id":"ce4bhqp2rcd13ifvqhng","pricing_plan_id":"free"},{"bike_id":"5b32b1e8-c723-476c-af48-33ab3bfd2e02","system_id":"levelo_inurba_marseille","lat":43.31756,"lon":5.39018,"is_reserved":false,"is_disabled":false,"rental_uris":{"android":"levelo://app?vid=5b32b1e8-c723-476c-af48-33ab3bfd2e02","ios":"levelo://app?vid=5b32b1e8-c723-476c-af48-33ab3bfd2e02"},"vehicle_type_id":"4","last_reported":1685041506,"current_range_meters":21200,"station_id":"ce4bhqp2rcd13ifvqhng","pricing_plan_id":"free"},{"bike_id":"2813de7a-5053-4219-8ae4-5362f9f39205","system_id":"levelo_inurba_marseille","lat":43.317557,"lon":5.390173,"is_reserved":false,"is_disabled":false,"rental_uris":{"android":"levelo://app?vid=2813de7a-5053-4219-8ae4-5362f9f39205","ios":"levelo://app?vid=2813de7a-5053-4219-8ae4-5362f9f39205"},"vehicle_type_id":"4","last_reported":1685041506,"current_range_meters":28400,"station_id":"ce4bhqp2rcd13ifvqhng","pricing_plan_id":"free"},{"bike_id":"58da987b-b257-43da-86a2-cb972b225b54","system_id":"levelo_inurba_marseille","lat":43.304278,"lon":5.388868,"is_reserved":false,"is_disabled":false,"rental_uris":{"android":"levelo://app?vid=58da987b-b257-43da-86a2-cb972b225b54","ios":"levelo://app?vid=58da987b-b257-43da-86a2-cb972b225b54"},"vehicle_type_id":"4","last_reported":1685041506,"current_range_meters":30800,"station_id":"ce4bgk12rcd13ifvqbi0","pricing_plan_id":"free"},{"bike_id":"13732298-bd60-48c4-b628-4d8b65710060","system_id":"levelo_inurba_marseille","lat":43.304274,"lon":5.388873,"is_reserved":false,"is_disabled":false,"rental_uris":{"android":"levelo://app?vid=13732298-bd60-48c4-b628-4d8b65710060","ios":"levelo://app?vid=13732298-bd60-48c4-b628-4d8b65710060"},"vehicle_type_id":"4","last_reported":1685041506,"current_range_meters":6400,"station_id":"ce4bgk12rcd13ifvqbi0","pricing_plan_id":"free"},{"bike_id":"f3cb4034-739c-443f-9b15-6d089d5f34c2","system_id":"levelo_inurba_marseille","lat":43.299707,"lon":5.384859,"is_reserved":false,"is_disabled":false,"rental_uris":{"android":"levelo://app?vid=f3cb4034-739c-443f-9b15-6d089d5f34c2","ios":"levelo://app?vid=f3cb4034-739c-443f-9b15-6d089d5f34c2"},"vehicle_type_id":"4","last_reported":1685041506,"current_range_meters":24000,"station_id":"ce4bgj92rcd13ifvqbd0","pricing_plan_id":"free"},{"bike_id":"a3e7d48f-417e-42b5-aac7-8e3854ee99cf","system_id":"levelo_inurba_marseille","lat":43.299707,"lon":5.384859,"is_reserved":false,"is_disabled":false,"rental_uris":{"android":"levelo://app?vid=a3e7d48f-417e-42b5-aac7-8e3854ee99cf","ios":"levelo://app?vid=a3e7d48f-417e-42b5-aac7-8e3854ee99cf"},"vehicle_type_id":"4","last_reported":1685041506,"current_range_meters":6400,"station_id":"ce4bgj92rcd13ifvqbd0","pricing_plan_id":"free"},{"bike_id":"eb9b4585-9689-4df8-b62d-c1a1c0a69de8","system_id":"levelo_inurba_marseille","lat":43.29531,"lon":5.37506,"is_reserved":false,"is_disabled":false,"rental_uris":{"android":"levelo://app?vid=eb9b4585-9689-4df8-b62d-c1a1c0a69de8","ios":"levelo://app?vid=eb9b4585-9689-4df8-b62d-c1a1c0a69de8"},"vehicle_type_id":"4","last_reported":1685041506,"current_range_meters":0,"station_id":"ce4bgkp2rcd13ifvqbmg","pricing_plan_id":"free"},{"bike_id":"279c51ba-b3a1-44bd-acfe-84fcb4cc9270","system_id":"levelo_inurba_marseille","lat":43.295279,"lon":5.375048,"is_reserved":false,"is_disabled":false,"rental_uris":{"android":"levelo://app?vid=279c51ba-b3a1-44bd-acfe-84fcb4cc9270","ios":"levelo://app?vid=279c51ba-b3a1-44bd-acfe-84fcb4cc9270"},"vehicle_type_id":"4","last_reported":1685041506,"current_range_meters":7200,"station_id":"ce4bgkp2rcd13ifvqbmg","pricing_plan_id":"free"},{"bike_id":"376a5e9f-a10b-4c02-8317-d78fc4474342","system_id":"levelo_inurba_marseille","lat":43.295279,"lon":5.375048,"is_reserved":false,"is_disabled":false,"rental_uris":{"android":"levelo://app?vid=376a5e9f-a10b-4c02-8317-d78fc4474342","ios":"levelo://app?vid=376a5e9f-a10b-4c02-8317-d78fc4474342"},"vehicle_type_id":"4","last_reported":1685041506,"current_range_meters":26000,"station_id":"ce4bgkp2rcd13ifvqbmg","pricing_plan_id":"free"},{"bike_id":"96c91e5e-1df6-4a07-8ff7-600bd9d1f35f","system_id":"levelo_inurba_marseille","lat":43.32367,"lon":5.388836,"is_reserved":false,"is_disabled":false,"rental_uris":{"android":"levelo://app?vid=96c91e5e-1df6-4a07-8ff7-600bd9d1f35f","ios":"levelo://app?vid=96c91e5e-1df6-4a07-8ff7-600bd9d1f35f"},"vehicle_type_id":"4","last_reported":1685041506,"current_range_meters":22800,"station_id":"ce4bhqp2rcd13ifvqhog","pricing_plan_id":"free"},{"bike_id":"3387ee38-92c2-4b02-b8c8-686b78e298c9","system_id":"levelo_inurba_marseille","lat":43.32367,"lon":5.388836,"is_reserved":false,"is_disabled":false,"rental_uris":{"android":"levelo://app?vid=3387ee38-92c2-4b02-b8c8-686b78e298c9","ios":"levelo://app?vid=3387ee38-92c2-4b02-b8c8-686b78e298c9"},"vehicle_type_id":"4","last_reported":1685041506,"current_range_meters":18000,"station_id":"ce4bhqp2rcd13ifvqhog","pricing_plan_id":"free"},{"bike_id":"beb16068-a6ef-439e-89d1-3e7cf4b21683","system_id":"levelo_inurba_marseille","lat":43.32367,"lon":5.388836,"is_reserved":false,"is_disabled":false,"rental_uris":{"android":"levelo://app?vid=beb16068-a6ef-439e-89d1-3e7cf4b21683","ios":"levelo://app?vid=beb16068-a6ef-439e-89d1-3e7cf4b21683"},"vehicle_type_id":"4","last_reported":1685041506,"current_range_meters":7600,"station_id":"ce4bhqp2rcd13ifvqhog","pricing_plan_id":"free"},{"bike_id":"88b34a39-4bf0-470e-b1d2-b4c68bf70e2d","system_id":"levelo_inurba_marseille","lat":43.29529,"lon":5.385581,"is_reserved":false,"is_disabled":false,"rental_uris":{"android":"levelo://app?vid=88b34a39-4bf0-470e-b1d2-b4c68bf70e2d","ios":"levelo://app?vid=88b34a39-4bf0-470e-b1d2-b4c68bf70e2d"},"vehicle_type_id":"4","last_reported":1685041506,"current_range_meters":24000,"station_id":"ce4bgih2rcd13ifvqba0","pricing_plan_id":"free"},{"bike_id":"eb919dee-7924-4349-b9ec-b54f7f96aefd","system_id":"levelo_inurba_marseille","lat":43.32367,"lon":5.388836,"is_reserved":false,"is_disabled":false,"rental_uris":{"android":"levelo://app?vid=eb919dee-7924-4349-b9ec-b54f7f96aefd","ios":"levelo://app?vid=eb919dee-7924-4349-b9ec-b54f7f96aefd"},"vehicle_type_id":"4","last_reported":1685041506,"current_range_meters":22800,"station_id":"ce4bhqp2rcd13ifvqhog","pricing_plan_id":"free"},{"bike_id":"3f245026-7545-4924-a951-14be0bedc89e","system_id":"levelo_inurba_marseille","lat":43.31292,"lon":5.39379,"is_reserved":false,"is_disabled":false,"rental_uris":{"android":"levelo://app?vid=3f245026-7545-4924-a951-14be0bedc89e","ios":"levelo://app?vid=3f245026-7545-4924-a951-14be0bedc89e"},"vehicle_type_id":"4","last_reported":1685041506,"current_range_meters":800,"station_id":"","pricing_plan_id":"free"},{"bike_id":"5eeb74c1-a122-4972-9f01-8e8529a76e7c","system_id":"levelo_inurba_marseille","lat":43.292749,"lon":5.368398,"is_reserved":false,"is_disabled":false,"rental_uris":{"android":"levelo://app?vid=5eeb74c1-a122-4972-9f01-8e8529a76e7c","ios":"levelo://app?vid=5eeb74c1-a122-4972-9f01-8e8529a76e7c"},"vehicle_type_id":"4","last_reported":1685041506,"current_range_meters":14400,"station_id":"ce4bhbp2rcd13ifvqesg","pricing_plan_id":"free"},{"bike_id":"6c2040e4-aa58-4ba2-81d5-8c50e2104dae","system_id":"levelo_inurba_marseille","lat":43.293249,"lon":5.371578,"is_reserved":false,"is_disabled":false,"rental_uris":{"android":"levelo://app?vid=6c2040e4-aa58-4ba2-81d5-8c50e2104dae","ios":"levelo://app?vid=6c2040e4-aa58-4ba2-81d5-8c50e2104dae"},"vehicle_type_id":"4","last_reported":1685041506,"current_range_meters":1200,"station_id":"ce4bgh92rcd13ifvqb40","pricing_plan_id":"free"},{"bike_id":"e6ec7b48-647e-4308-ba38-8b25faf90bf2","system_id":"levelo_inurba_marseille","lat":43.29274,"lon":5.3684,"is_reserved":false,"is_disabled":false,"rental_uris":{"android":"levelo://app?vid=e6ec7b48-647e-4308-ba38-8b25faf90bf2","ios":"levelo://app?vid=e6ec7b48-647e-4308-ba38-8b25faf90bf2"},"vehicle_type_id":"4","last_reported":1685041506,"current_range_meters":24400,"station_id":"ce4bhbp2rcd13ifvqesg","pricing_plan_id":"free"},{"bike_id":"9f904752-b5df-4647-9a93-dc8b72aa4c9d","system_id":"levelo_inurba_marseille","lat":43.292749,"lon":5.368402,"is_reserved":false,"is_disabled":false,"rental_uris":{"android":"levelo://app?vid=9f904752-b5df-4647-9a93-dc8b72aa4c9d","ios":"levelo://app?vid=9f904752-b5df-4647-9a93-dc8b72aa4c9d"},"vehicle_type_id":"4","last_reported":1685041506,"current_range_meters":2000,"station_id":"ce4bhbp2rcd13ifvqesg","pricing_plan_id":"free"},{"bike_id":"41ce04f8-f492-4463-b024-a57cb0b04106","system_id":"levelo_inurba_marseille","lat":43.305994,"lon":5.393687,"is_reserved":false,"is_disabled":false,"rental_uris":{"android":"levelo://app?vid=41ce04f8-f492-4463-b024-a57cb0b04106","ios":"levelo://app?vid=41ce04f8-f492-4463-b024-a57cb0b04106"},"vehicle_type_id":"4","last_reported":1685041506,"current_range_meters":24800,"station_id":"ce4bh0p2rcd13ifvqd80","pricing_plan_id":"free"},{"bike_id":"e71f015d-ca84-4a07-885e-e0f7acd7c605","system_id":"levelo_inurba_marseille","lat":43.2936,"lon":5.37835,"is_reserved":false,"is_disabled":false,"rental_uris":{"android":"levelo://app?vid=e71f015d-ca84-4a07-885e-e0f7acd7c605","ios":"levelo://app?vid=e71f015d-ca84-4a07-885e-e0f7acd7c605"},"vehicle_type_id":"4","last_reported":1685041506,"current_range_meters":3200,"station_id":"ce4bgjh2rcd13ifvqbf0","pricing_plan_id":"free"},{"bike_id":"09cc53dc-b047-4496-8a75-c8cf90a9f78d","system_id":"levelo_inurba_marseille","lat":43.292311,"lon":5.360731,"is_reserved":false,"is_disabled":false,"rental_uris":{"android":"levelo://app?vid=09cc53dc-b047-4496-8a75-c8cf90a9f78d","ios":"levelo://app?vid=09cc53dc-b047-4496-8a75-c8cf90a9f78d"},"vehicle_type_id":"4","last_reported":1685041506,"current_range_meters":28400,"station_id":"ce4bhbh2rcd13ifvqeqg","pricing_plan_id":"free"},{"bike_id":"998e40ca-5cfd-4e4d-bc59-1fc90ee814f0","system_id":"levelo_inurba_marseille","lat":43.298764,"lon":5.388973,"is_reserved":false,"is_disabled":false,"rental_uris":{"android":"levelo://app?vid=998e40ca-5cfd-4e4d-bc59-1fc90ee814f0","ios":"levelo://app?vid=998e40ca-5cfd-4e4d-bc59-1fc90ee814f0"},"vehicle_type_id":"4","last_reported":1685041506,"current_range_meters":4400,"station_id":"ce4bh392rcd13ifvqdl0","pricing_plan_id":"free"},{"bike_id":"b28ee3e7-1426-4d1a-b9d1-fe4978bd5cb2","system_id":"levelo_inurba_marseille","lat":43.292663,"lon":5.376394,"is_reserved":false,"is_disabled":false,"rental_uris":{"android":"levelo://app?vid=b28ee3e7-1426-4d1a-b9d1-fe4978bd5cb2","ios":"levelo://app?vid=b28ee3e7-1426-4d1a-b9d1-fe4978bd5cb2"},"vehicle_type_id":"4","last_reported":1685041506,"current_range_meters":10000,"station_id":"ce4bgi12rcd13ifvqb80","pricing_plan_id":"free"},{"bike_id":"9c14c84b-6dd5-4faa-96bd-837ff439282e","system_id":"levelo_inurba_marseille","lat":43.298764,"lon":5.388973,"is_reserved":false,"is_disabled":false,"rental_uris":{"android":"levelo://app?vid=9c14c84b-6dd5-4faa-96bd-837ff439282e","ios":"levelo://app?vid=9c14c84b-6dd5-4faa-96bd-837ff439282e"},"vehicle_type_id":"4","last_reported":1685041506,"current_range_meters":29600,"station_id":"ce4bh392rcd13ifvqdl0","pricing_plan_id":"free"},{"bike_id":"d4615a8a-ad1b-483b-831c-5a0372d7c007","system_id":"levelo_inurba_marseille","lat":43.298764,"lon":5.388973,"is_reserved":false,"is_disabled":false,"rental_uris":{"android":"levelo://app?vid=d4615a8a-ad1b-483b-831c-5a0372d7c007","ios":"levelo://app?vid=d4615a8a-ad1b-483b-831c-5a0372d7c007"},"vehicle_type_id":"4","last_reported":1685041506,"current_range_meters":0,"station_id":"ce4bh392rcd13ifvqdl0","pricing_plan_id":"free"},{"bike_id":"727ff35d-efe3-431d-abbf-019ad196eb78","system_id":"levelo_inurba_marseille","lat":43.291671,"lon":5.371575,"is_reserved":false,"is_disabled":false,"rental_uris":{"android":"levelo://app?vid=727ff35d-efe3-431d-abbf-019ad196eb78","ios":"levelo://app?vid=727ff35d-efe3-431d-abbf-019ad196eb78"},"vehicle_type_id":"4","last_reported":1685041506,"current_range_meters":400,"station_id":"ce4bha92rcd13ifvqeh0","pricing_plan_id":"free"},{"bike_id":"ad2f3f7f-3989-48ba-a4b7-5ccd751a7170","system_id":"levelo_inurba_marseille","lat":43.291675,"lon":5.371583,"is_reserved":false,"is_disabled":false,"rental_uris":{"android":"levelo://app?vid=ad2f3f7f-3989-48ba-a4b7-5ccd751a7170","ios":"levelo://app?vid=ad2f3f7f-3989-48ba-a4b7-5ccd751a7170"},"vehicle_type_id":"4","last_reported":1685041506,"current_range_meters":10000,"station_id":"ce4bha92rcd13ifvqeh0","pricing_plan_id":"free"},{"bike_id":"556c6db1-2600-4c2b-9521-aae8453517c1","system_id":"levelo_inurba_marseille","lat":43.29138,"lon":5.36646,"is_reserved":false,"is_disabled":false,"rental_uris":{"android":"levelo://app?vid=556c6db1-2600-4c2b-9521-aae8453517c1","ios":"levelo://app?vid=556c6db1-2600-4c2b-9521-aae8453517c1"},"vehicle_type_id":"4","last_reported":1685041506,"current_range_meters":25200,"station_id":"","pricing_plan_id":"free"},{"bike_id":"252d5d62-5cde-4375-8ec3-3b42e2f52d43","system_id":"levelo_inurba_marseille","lat":43.291675,"lon":5.371583,"is_reserved":false,"is_disabled":false,"rental_uris":{"android":"levelo://app?vid=252d5d62-5cde-4375-8ec3-3b42e2f52d43","ios":"levelo://app?vid=252d5d62-5cde-4375-8ec3-3b42e2f52d43"},"vehicle_type_id":"4","last_reported":1685041506,"current_range_meters":19200,"station_id":"ce4bha92rcd13ifvqeh0","pricing_plan_id":"free"},{"bike_id":"5d8bfa25-868c-4914-a81d-245d7d1d2193","system_id":"levelo_inurba_marseille","lat":43.31327,"lon":5.39686,"is_reserved":false,"is_disabled":false,"rental_uris":{"android":"levelo://app?vid=5d8bfa25-868c-4914-a81d-245d7d1d2193","ios":"levelo://app?vid=5d8bfa25-868c-4914-a81d-245d7d1d2193"},"vehicle_type_id":"4","last_reported":1685041506,"current_range_meters":11600,"station_id":"ce4bgvp2rcd13ifvqcu0","pricing_plan_id":"free"},{"bike_id":"0f978702-b106-43e0-a10e-680e6d9adaad","system_id":"levelo_inurba_marseille","lat":43.30887,"lon":5.39641,"is_reserved":false,"is_disabled":false,"rental_uris":{"android":"levelo://app?vid=0f978702-b106-43e0-a10e-680e6d9adaad","ios":"levelo://app?vid=0f978702-b106-43e0-a10e-680e6d9adaad"},"vehicle_type_id":"4","last_reported":1685041506,"current_range_meters":4400,"station_id":"ce4bh012rcd13ifvqcv0","pricing_plan_id":"free"},{"bike_id":"57664484-835a-468a-be02-139f838f1d1c","system_id":"levelo_inurba_marseille","lat":43.31324,"lon":5.39691,"is_reserved":false,"is_disabled":false,"rental_uris":{"android":"levelo://app?vid=57664484-835a-468a-be02-139f838f1d1c","ios":"levelo://app?vid=57664484-835a-468a-be02-139f838f1d1c"},"vehicle_type_id":"4","last_reported":1685041506,"current_range_meters":15600,"station_id":"ce4bgvp2rcd13ifvqcu0","pricing_plan_id":"free"},{"bike_id":"e02614c2-7bf8-4e8d-a15f-a06210531c6e","system_id":"levelo_inurba_marseille","lat":43.29193,"lon":5.35789,"is_reserved":false,"is_disabled":false,"rental_uris":{"android":"levelo://app?vid=e02614c2-7bf8-4e8d-a15f-a06210531c6e","ios":"levelo://app?vid=e02614c2-7bf8-4e8d-a15f-a06210531c6e"},"vehicle_type_id":"4","last_reported":1685041506,"current_range_meters":23600,"station_id":"ce4bhb12rcd13ifvqel0","pricing_plan_id":"free"},{"bike_id":"e02f95be-d3b8-4492-af7e-5c18369a125e","system_id":"levelo_inurba_marseille","lat":43.31326,"lon":5.39693,"is_reserved":false,"is_disabled":false,"rental_uris":{"android":"levelo://app?vid=e02f95be-d3b8-4492-af7e-5c18369a125e","ios":"levelo://app?vid=e02f95be-d3b8-4492-af7e-5c18369a125e"},"vehicle_type_id":"4","last_reported":1685041506,"current_range_meters":11600,"station_id":"ce4bgvp2rcd13ifvqcu0","pricing_plan_id":"free"},{"bike_id":"2672ac12-4489-4faa-9202-cf9080d4db0b","system_id":"levelo_inurba_marseille","lat":43.31329,"lon":5.39693,"is_reserved":false,"is_disabled":false,"rental_uris":{"android":"levelo://app?vid=2672ac12-4489-4faa-9202-cf9080d4db0b","ios":"levelo://app?vid=2672ac12-4489-4faa-9202-cf9080d4db0b"},"vehicle_type_id":"4","last_reported":1685041506,"current_range_meters":21200,"station_id":"ce4bgvp2rcd13ifvqcu0","pricing_plan_id":"free"},{"bike_id":"c6e6e02c-dc44-4728-9e2c-a48dc35086fd","system_id":"levelo_inurba_marseille","lat":43.31331,"lon":5.39693,"is_reserved":false,"is_disabled":false,"rental_uris":{"android":"levelo://app?vid=c6e6e02c-dc44-4728-9e2c-a48dc35086fd","ios":"levelo://app?vid=c6e6e02c-dc44-4728-9e2c-a48dc35086fd"},"vehicle_type_id":"4","last_reported":1685041506,"current_range_meters":31200,"station_id":"ce4bgvp2rcd13ifvqcu0","pricing_plan_id":"free"},{"bike_id":"c937aa2c-6bb3-4485-9f4a-93f044777dc5","system_id":"levelo_inurba_marseille","lat":43.31329,"lon":5.39694,"is_reserved":false,"is_disabled":false,"rental_uris":{"android":"levelo://app?vid=c937aa2c-6bb3-4485-9f4a-93f044777dc5","ios":"levelo://app?vid=c937aa2c-6bb3-4485-9f4a-93f044777dc5"},"vehicle_type_id":"4","last_reported":1685041506,"current_range_meters":30400,"station_id":"ce4bgvp2rcd13ifvqcu0","pricing_plan_id":"free"},{"bike_id":"41bbeb05-d04f-4cf1-b635-648f9030715b","system_id":"levelo_inurba_marseille","lat":43.31332,"lon":5.39694,"is_reserved":false,"is_disabled":false,"rental_uris":{"android":"levelo://app?vid=41bbeb05-d04f-4cf1-b635-648f9030715b","ios":"levelo://app?vid=41bbeb05-d04f-4cf1-b635-648f9030715b"},"vehicle_type_id":"4","last_reported":1685041506,"current_range_meters":18000,"station_id":"ce4bgvp2rcd13ifvqcu0","pricing_plan_id":"free"},{"bike_id":"dde9dbd3-7076-4e5e-aeeb-ab5f4b156427","system_id":"levelo_inurba_marseille","lat":43.29191,"lon":5.35787,"is_reserved":false,"is_disabled":false,"rental_uris":{"android":"levelo://app?vid=dde9dbd3-7076-4e5e-aeeb-ab5f4b156427","ios":"levelo://app?vid=dde9dbd3-7076-4e5e-aeeb-ab5f4b156427"},"vehicle_type_id":"4","last_reported":1685041506,"current_range_meters":28400,"station_id":"ce4bhb12rcd13ifvqel0","pricing_plan_id":"free"},{"bike_id":"ce6dba37-9887-49c1-9106-bf1b39eb4f3e","system_id":"levelo_inurba_marseille","lat":43.3133,"lon":5.39695,"is_reserved":false,"is_disabled":false,"rental_uris":{"android":"levelo://app?vid=ce6dba37-9887-49c1-9106-bf1b39eb4f3e","ios":"levelo://app?vid=ce6dba37-9887-49c1-9106-bf1b39eb4f3e"},"vehicle_type_id":"4","last_reported":1685041506,"current_range_meters":31200,"station_id":"ce4bgvp2rcd13ifvqcu0","pricing_plan_id":"free"},{"bike_id":"c7c7f819-f196-43ce-9356-6bf838b2caff","system_id":"levelo_inurba_marseille","lat":43.31331,"lon":5.39696,"is_reserved":false,"is_disabled":false,"rental_uris":{"android":"levelo://app?vid=c7c7f819-f196-43ce-9356-6bf838b2caff","ios":"levelo://app?vid=c7c7f819-f196-43ce-9356-6bf838b2caff"},"vehicle_type_id":"4","last_reported":1685041506,"current_range_meters":20400,"station_id":"ce4bgvp2rcd13ifvqcu0","pricing_plan_id":"free"},{"bike_id":"42532ece-1c94-4b86-85cb-a0830d342fe9","system_id":"levelo_inurba_marseille","lat":43.309038,"lon":5.396546,"is_reserved":false,"is_disabled":false,"rental_uris":{"android":"levelo://app?vid=42532ece-1c94-4b86-85cb-a0830d342fe9","ios":"levelo://app?vid=42532ece-1c94-4b86-85cb-a0830d342fe9"},"vehicle_type_id":"4","last_reported":1685041506,"current_range_meters":21200,"station_id":"ce4bh012rcd13ifvqcv0","pricing_plan_id":"free"},{"bike_id":"d7f8035f-fefd-44ba-b51a-5abb0736b14c","system_id":"levelo_inurba_marseille","lat":43.30891,"lon":5.39654,"is_reserved":false,"is_disabled":false,"rental_uris":{"android":"levelo://app?vid=d7f8035f-fefd-44ba-b51a-5abb0736b14c","ios":"levelo://app?vid=d7f8035f-fefd-44ba-b51a-5abb0736b14c"},"vehicle_type_id":"4","last_reported":1685041506,"current_range_meters":28000,"station_id":"ce4bh012rcd13ifvqcv0","pricing_plan_id":"free"},{"bike_id":"67843c64-397d-4728-a46c-88274731f089","system_id":"levelo_inurba_marseille","lat":43.30895,"lon":5.39657,"is_reserved":false,"is_disabled":false,"rental_uris":{"android":"levelo://app?vid=67843c64-397d-4728-a46c-88274731f089","ios":"levelo://app?vid=67843c64-397d-4728-a46c-88274731f089"},"vehicle_type_id":"4","last_reported":1685041506,"current_range_meters":14400,"station_id":"ce4bh012rcd13ifvqcv0","pricing_plan_id":"free"},{"bike_id":"77154d2a-c6c7-4993-87f7-ee684302a65d","system_id":"levelo_inurba_marseille","lat":43.309038,"lon":5.396546,"is_reserved":false,"is_disabled":false,"rental_uris":{"android":"levelo://app?vid=77154d2a-c6c7-4993-87f7-ee684302a65d","ios":"levelo://app?vid=77154d2a-c6c7-4993-87f7-ee684302a65d"},"vehicle_type_id":"4","last_reported":1685041506,"current_range_meters":1600,"station_id":"ce4bh012rcd13ifvqcv0","pricing_plan_id":"free"},{"bike_id":"3994ace3-302d-4f53-aec0-3011bad29ec4","system_id":"levelo_inurba_marseille","lat":43.313194,"lon":5.397133,"is_reserved":false,"is_disabled":false,"rental_uris":{"android":"levelo://app?vid=3994ace3-302d-4f53-aec0-3011bad29ec4","ios":"levelo://app?vid=3994ace3-302d-4f53-aec0-3011bad29ec4"},"vehicle_type_id":"4","last_reported":1685041506,"current_range_meters":1200,"station_id":"ce4bgvp2rcd13ifvqcu0","pricing_plan_id":"free"},{"bike_id":"4ba92edb-42f5-46dc-a37f-cfa2af35162a","system_id":"levelo_inurba_marseille","lat":43.290779,"lon":5.371482,"is_reserved":false,"is_disabled":false,"rental_uris":{"android":"levelo://app?vid=4ba92edb-42f5-46dc-a37f-cfa2af35162a","ios":"levelo://app?vid=4ba92edb-42f5-46dc-a37f-cfa2af35162a"},"vehicle_type_id":"4","last_reported":1685041506,"current_range_meters":30800,"station_id":"ce4bh5p2rcd13ifvqe4g","pricing_plan_id":"free"},{"bike_id":"f15089dd-14e8-46d7-9310-b8970c3ae4d3","system_id":"levelo_inurba_marseille","lat":43.302008,"lon":5.394694,"is_reserved":false,"is_disabled":false,"rental_uris":{"android":"levelo://app?vid=f15089dd-14e8-46d7-9310-b8970c3ae4d3","ios":"levelo://app?vid=f15089dd-14e8-46d7-9310-b8970c3ae4d3"},"vehicle_type_id":"4","last_reported":1685041506,"current_range_meters":20800,"station_id":"ce4bh0p2rcd13ifvqd70","pricing_plan_id":"free"},{"bike_id":"8e7768be-099d-41f0-9f78-ef437547b12d","system_id":"levelo_inurba_marseille","lat":43.290624,"lon":5.359245,"is_reserved":false,"is_disabled":false,"rental_uris":{"android":"levelo://app?vid=8e7768be-099d-41f0-9f78-ef437547b12d","ios":"levelo://app?vid=8e7768be-099d-41f0-9f78-ef437547b12d"},"vehicle_type_id":"4","last_reported":1685041506,"current_range_meters":0,"station_id":"ce4bha92rcd13ifvqeg0","pricing_plan_id":"free"},{"bike_id":"cda0c97a-610e-464f-9630-88a7ae104ddf","system_id":"levelo_inurba_marseille","lat":43.302008,"lon":5.394694,"is_reserved":false,"is_disabled":false,"rental_uris":{"android":"levelo://app?vid=cda0c97a-610e-464f-9630-88a7ae104ddf","ios":"levelo://app?vid=cda0c97a-610e-464f-9630-88a7ae104ddf"},"vehicle_type_id":"4","last_reported":1685041506,"current_range_meters":29200,"station_id":"ce4bh0p2rcd13ifvqd70","pricing_plan_id":"free"},{"bike_id":"92d530e3-0827-4d94-af49-d1e07adfe5a8","system_id":"levelo_inurba_marseille","lat":43.289468,"lon":5.363719,"is_reserved":false,"is_disabled":false,"rental_uris":{"android":"levelo://app?vid=92d530e3-0827-4d94-af49-d1e07adfe5a8","ios":"levelo://app?vid=92d530e3-0827-4d94-af49-d1e07adfe5a8"},"vehicle_type_id":"4","last_reported":1685041506,"current_range_meters":2000,"station_id":"ce4bhc92rcd13ifvqetg","pricing_plan_id":"free"},{"bike_id":"b7ec7cda-98c1-472d-b555-db07409eef84","system_id":"levelo_inurba_marseille","lat":43.290624,"lon":5.359245,"is_reserved":false,"is_disabled":false,"rental_uris":{"android":"levelo://app?vid=b7ec7cda-98c1-472d-b555-db07409eef84","ios":"levelo://app?vid=b7ec7cda-98c1-472d-b555-db07409eef84"},"vehicle_type_id":"4","last_reported":1685041506,"current_range_meters":8800,"station_id":"ce4bha92rcd13ifvqeg0","pricing_plan_id":"free"},{"bike_id":"74718228-9eb9-4cef-80fa-62ea2febaff8","system_id":"levelo_inurba_marseille","lat":43.290631,"lon":5.359244,"is_reserved":false,"is_disabled":false,"rental_uris":{"android":"levelo://app?vid=74718228-9eb9-4cef-80fa-62ea2febaff8","ios":"levelo://app?vid=74718228-9eb9-4cef-80fa-62ea2febaff8"},"vehicle_type_id":"4","last_reported":1685041506,"current_range_meters":9200,"station_id":"ce4bha92rcd13ifvqeg0","pricing_plan_id":"free"},{"bike_id":"46094afd-0c11-450e-9b85-5f7881e02939","system_id":"levelo_inurba_marseille","lat":43.290624,"lon":5.359245,"is_reserved":false,"is_disabled":false,"rental_uris":{"android":"levelo://app?vid=46094afd-0c11-450e-9b85-5f7881e02939","ios":"levelo://app?vid=46094afd-0c11-450e-9b85-5f7881e02939"},"vehicle_type_id":"4","last_reported":1685041506,"current_range_meters":12400,"station_id":"ce4bha92rcd13ifvqeg0","pricing_plan_id":"free"},{"bike_id":"7fd2a885-5182-44b4-8439-1969132c96c8","system_id":"levelo_inurba_marseille","lat":43.290624,"lon":5.359245,"is_reserved":false,"is_disabled":false,"rental_uris":{"android":"levelo://app?vid=7fd2a885-5182-44b4-8439-1969132c96c8","ios":"levelo://app?vid=7fd2a885-5182-44b4-8439-1969132c96c8"},"vehicle_type_id":"4","last_reported":1685041506,"current_range_meters":22800,"station_id":"ce4bha92rcd13ifvqeg0","pricing_plan_id":"free"},{"bike_id":"7e40cefa-fc11-4dc3-a03a-00bafa327b52","system_id":"levelo_inurba_marseille","lat":43.29127,"lon":5.355774,"is_reserved":false,"is_disabled":false,"rental_uris":{"android":"levelo://app?vid=7e40cefa-fc11-4dc3-a03a-00bafa327b52","ios":"levelo://app?vid=7e40cefa-fc11-4dc3-a03a-00bafa327b52"},"vehicle_type_id":"4","last_reported":1685041506,"current_range_meters":400,"station_id":"","pricing_plan_id":"free"},{"bike_id":"c076431b-3949-407d-979f-eb31085c912c","system_id":"levelo_inurba_marseille","lat":43.290624,"lon":5.359245,"is_reserved":false,"is_disabled":false,"rental_uris":{"android":"levelo://app?vid=c076431b-3949-407d-979f-eb31085c912c","ios":"levelo://app?vid=c076431b-3949-407d-979f-eb31085c912c"},"vehicle_type_id":"4","last_reported":1685041506,"current_range_meters":4400,"station_id":"ce4bha92rcd13ifvqeg0","pricing_plan_id":"free"},{"bike_id":"93bb3c4a-91d1-49ba-909b-000affd59b77","system_id":"levelo_inurba_marseille","lat":43.294153,"lon":5.386305,"is_reserved":false,"is_disabled":false,"rental_uris":{"android":"levelo://app?vid=93bb3c4a-91d1-49ba-909b-000affd59b77","ios":"levelo://app?vid=93bb3c4a-91d1-49ba-909b-000affd59b77"},"vehicle_type_id":"4","last_reported":1685041506,"current_range_meters":9200,"station_id":"ce4bh2h2rcd13ifvqdh0","pricing_plan_id":"free"},{"bike_id":"84bf5b51-08d5-4487-8310-eebfb58b5b46","system_id":"levelo_inurba_marseille","lat":43.294153,"lon":5.386305,"is_reserved":false,"is_disabled":false,"rental_uris":{"android":"levelo://app?vid=84bf5b51-08d5-4487-8310-eebfb58b5b46","ios":"levelo://app?vid=84bf5b51-08d5-4487-8310-eebfb58b5b46"},"vehicle_type_id":"4","last_reported":1685041506,"current_range_meters":24000,"station_id":"ce4bh2h2rcd13ifvqdh0","pricing_plan_id":"free"},{"bike_id":"a86ef089-dd8d-434f-ad0d-1c70c1447d88","system_id":"levelo_inurba_marseille","lat":43.290319,"lon":5.375732,"is_reserved":false,"is_disabled":false,"rental_uris":{"android":"levelo://app?vid=a86ef089-dd8d-434f-ad0d-1c70c1447d88","ios":"levelo://app?vid=a86ef089-dd8d-434f-ad0d-1c70c1447d88"},"vehicle_type_id":"4","last_reported":1685041506,"current_range_meters":27600,"station_id":"ce4bh692rcd13ifvqe90","pricing_plan_id":"free"},{"bike_id":"cce11d7a-b866-4408-9052-9b851943c309","system_id":"levelo_inurba_marseille","lat":43.294153,"lon":5.386305,"is_reserved":false,"is_disabled":false,"rental_uris":{"android":"levelo://app?vid=cce11d7a-b866-4408-9052-9b851943c309","ios":"levelo://app?vid=cce11d7a-b866-4408-9052-9b851943c309"},"vehicle_type_id":"4","last_reported":1685041506,"current_range_meters":0,"station_id":"ce4bh2h2rcd13ifvqdh0","pricing_plan_id":"free"},{"bike_id":"007fc23f-b81a-4045-ad26-e297c2486d8c","system_id":"levelo_inurba_marseille","lat":43.294162,"lon":5.386292,"is_reserved":false,"is_disabled":false,"rental_uris":{"android":"levelo://app?vid=007fc23f-b81a-4045-ad26-e297c2486d8c","ios":"levelo://app?vid=007fc23f-b81a-4045-ad26-e297c2486d8c"},"vehicle_type_id":"4","last_reported":1685041506,"current_range_meters":15600,"station_id":"ce4bh2h2rcd13ifvqdh0","pricing_plan_id":"free"},{"bike_id":"6fff2e10-ab2a-4a3d-9796-a27739d7d9f1","system_id":"levelo_inurba_marseille","lat":43.289184,"lon":5.366408,"is_reserved":false,"is_disabled":false,"rental_uris":{"android":"levelo://app?vid=6fff2e10-ab2a-4a3d-9796-a27739d7d9f1","ios":"levelo://app?vid=6fff2e10-ab2a-4a3d-9796-a27739d7d9f1"},"vehicle_type_id":"4","last_reported":1685041506,"current_range_meters":26000,"station_id":"ce4bhap2rcd13ifvqek0","pricing_plan_id":"free"},{"bike_id":"023435c7-71ee-4de5-bf34-b751028e5f8d","system_id":"levelo_inurba_marseille","lat":43.289184,"lon":5.366408,"is_reserved":false,"is_disabled":false,"rental_uris":{"android":"levelo://app?vid=023435c7-71ee-4de5-bf34-b751028e5f8d","ios":"levelo://app?vid=023435c7-71ee-4de5-bf34-b751028e5f8d"},"vehicle_type_id":"4","last_reported":1685041506,"current_range_meters":24000,"station_id":"ce4bhap2rcd13ifvqek0","pricing_plan_id":"free"},{"bike_id":"1e964181-b4d3-4b1c-9540-48b2cb4d866f","system_id":"levelo_inurba_marseille","lat":43.289184,"lon":5.366408,"is_reserved":false,"is_disabled":false,"rental_uris":{"android":"levelo://app?vid=1e964181-b4d3-4b1c-9540-48b2cb4d866f","ios":"levelo://app?vid=1e964181-b4d3-4b1c-9540-48b2cb4d866f"},"vehicle_type_id":"4","last_reported":1685041506,"current_range_meters":18000,"station_id":"ce4bhap2rcd13ifvqek0","pricing_plan_id":"free"},{"bike_id":"ec07271e-a29b-4240-af1c-0083f557cfd7","system_id":"levelo_inurba_marseille","lat":43.294162,"lon":5.386292,"is_reserved":false,"is_disabled":false,"rental_uris":{"android":"levelo://app?vid=ec07271e-a29b-4240-af1c-0083f557cfd7","ios":"levelo://app?vid=ec07271e-a29b-4240-af1c-0083f557cfd7"},"vehicle_type_id":"4","last_reported":1685041506,"current_range_meters":18000,"station_id":"ce4bh2h2rcd13ifvqdh0","pricing_plan_id":"free"},{"bike_id":"29252147-906a-4ba7-92d3-137c32fd3cad","system_id":"levelo_inurba_marseille","lat":43.289184,"lon":5.366408,"is_reserved":false,"is_disabled":false,"rental_uris":{"android":"levelo://app?vid=29252147-906a-4ba7-92d3-137c32fd3cad","ios":"levelo://app?vid=29252147-906a-4ba7-92d3-137c32fd3cad"},"vehicle_type_id":"4","last_reported":1685041506,"current_range_meters":15600,"station_id":"ce4bhap2rcd13ifvqek0","pricing_plan_id":"free"},{"bike_id":"40166860-736d-416d-92ab-3b4b568a79a1","system_id":"levelo_inurba_marseille","lat":43.289468,"lon":5.363719,"is_reserved":false,"is_disabled":false,"rental_uris":{"android":"levelo://app?vid=40166860-736d-416d-92ab-3b4b568a79a1","ios":"levelo://app?vid=40166860-736d-416d-92ab-3b4b568a79a1"},"vehicle_type_id":"4","last_reported":1685041506,"current_range_meters":0,"station_id":"ce4bhc92rcd13ifvqetg","pricing_plan_id":"free"},{"bike_id":"174ec496-e863-4b99-a8d1-e78e40cd6e7c","system_id":"levelo_inurba_marseille","lat":43.2894,"lon":5.36404,"is_reserved":false,"is_disabled":false,"rental_uris":{"android":"levelo://app?vid=174ec496-e863-4b99-a8d1-e78e40cd6e7c","ios":"levelo://app?vid=174ec496-e863-4b99-a8d1-e78e40cd6e7c"},"vehicle_type_id":"4","last_reported":1685041506,"current_range_meters":8000,"station_id":"ce4bhc92rcd13ifvqetg","pricing_plan_id":"free"},{"bike_id":"77470f0c-2971-4d06-b60a-66f3fa0d4437","system_id":"levelo_inurba_marseille","lat":43.294162,"lon":5.386292,"is_reserved":false,"is_disabled":false,"rental_uris":{"android":"levelo://app?vid=77470f0c-2971-4d06-b60a-66f3fa0d4437","ios":"levelo://app?vid=77470f0c-2971-4d06-b60a-66f3fa0d4437"},"vehicle_type_id":"4","last_reported":1685041506,"current_range_meters":30800,"station_id":"ce4bh2h2rcd13ifvqdh0","pricing_plan_id":"free"},{"bike_id":"daef30bc-890e-494b-abb6-5e44c0a91610","system_id":"levelo_inurba_marseille","lat":43.289468,"lon":5.363719,"is_reserved":false,"is_disabled":false,"rental_uris":{"android":"levelo://app?vid=daef30bc-890e-494b-abb6-5e44c0a91610","ios":"levelo://app?vid=daef30bc-890e-494b-abb6-5e44c0a91610"},"vehicle_type_id":"4","last_reported":1685041506,"current_range_meters":29600,"station_id":"ce4bhc92rcd13ifvqetg","pricing_plan_id":"free"},{"bike_id":"68945396-e549-4752-b8d1-5403d849a218","system_id":"levelo_inurba_marseille","lat":43.289184,"lon":5.366408,"is_reserved":false,"is_disabled":false,"rental_uris":{"android":"levelo://app?vid=68945396-e549-4752-b8d1-5403d849a218","ios":"levelo://app?vid=68945396-e549-4752-b8d1-5403d849a218"},"vehicle_type_id":"4","last_reported":1685041506,"current_range_meters":17600,"station_id":"ce4bhap2rcd13ifvqek0","pricing_plan_id":"free"},{"bike_id":"5dcf238d-3e39-4c71-96e7-fde0fc71d493","system_id":"levelo_inurba_marseille","lat":43.29268,"lon":5.38433,"is_reserved":false,"is_disabled":false,"rental_uris":{"android":"levelo://app?vid=5dcf238d-3e39-4c71-96e7-fde0fc71d493","ios":"levelo://app?vid=5dcf238d-3e39-4c71-96e7-fde0fc71d493"},"vehicle_type_id":"4","last_reported":1685041506,"current_range_meters":2000,"station_id":"ce4bh692rcd13ifvqea0","pricing_plan_id":"free"},{"bike_id":"d9b522e5-ee55-4ced-85af-be43b0cbee66","system_id":"levelo_inurba_marseille","lat":43.292644,"lon":5.384257,"is_reserved":false,"is_disabled":false,"rental_uris":{"android":"levelo://app?vid=d9b522e5-ee55-4ced-85af-be43b0cbee66","ios":"levelo://app?vid=d9b522e5-ee55-4ced-85af-be43b0cbee66"},"vehicle_type_id":"4","last_reported":1685041506,"current_range_meters":15200,"station_id":"ce4bh692rcd13ifvqea0","pricing_plan_id":"free"},{"bike_id":"a872d810-285d-4461-b6ab-222db558740f","system_id":"levelo_inurba_marseille","lat":43.292644,"lon":5.384257,"is_reserved":false,"is_disabled":false,"rental_uris":{"android":"levelo://app?vid=a872d810-285d-4461-b6ab-222db558740f","ios":"levelo://app?vid=a872d810-285d-4461-b6ab-222db558740f"},"vehicle_type_id":"4","last_reported":1685041506,"current_range_meters":19600,"station_id":"ce4bh692rcd13ifvqea0","pricing_plan_id":"free"},{"bike_id":"36785397-5075-48fd-91fe-f8a0f8a3d289","system_id":"levelo_inurba_marseille","lat":43.29265,"lon":5.3843,"is_reserved":false,"is_disabled":false,"rental_uris":{"android":"levelo://app?vid=36785397-5075-48fd-91fe-f8a0f8a3d289","ios":"levelo://app?vid=36785397-5075-48fd-91fe-f8a0f8a3d289"},"vehicle_type_id":"4","last_reported":1685041506,"current_range_meters":14400,"station_id":"ce4bh692rcd13ifvqea0","pricing_plan_id":"free"},{"bike_id":"1ebfd546-9705-4de8-bcad-6f50c3c6f345","system_id":"levelo_inurba_marseille","lat":43.292644,"lon":5.384257,"is_reserved":false,"is_disabled":false,"rental_uris":{"android":"levelo://app?vid=1ebfd546-9705-4de8-bcad-6f50c3c6f345","ios":"levelo://app?vid=1ebfd546-9705-4de8-bcad-6f50c3c6f345"},"vehicle_type_id":"4","last_reported":1685041506,"current_range_meters":6800,"station_id":"ce4bh692rcd13ifvqea0","pricing_plan_id":"free"},{"bike_id":"6fd5886f-b301-41b0-86b9-7b38920d5e9d","system_id":"levelo_inurba_marseille","lat":43.292644,"lon":5.384257,"is_reserved":false,"is_disabled":false,"rental_uris":{"android":"levelo://app?vid=6fd5886f-b301-41b0-86b9-7b38920d5e9d","ios":"levelo://app?vid=6fd5886f-b301-41b0-86b9-7b38920d5e9d"},"vehicle_type_id":"4","last_reported":1685041506,"current_range_meters":20000,"station_id":"ce4bh692rcd13ifvqea0","pricing_plan_id":"free"},{"bike_id":"a93470f3-f36a-40d7-9251-452dda564f68","system_id":"levelo_inurba_marseille","lat":43.29268,"lon":5.38438,"is_reserved":false,"is_disabled":false,"rental_uris":{"android":"levelo://app?vid=a93470f3-f36a-40d7-9251-452dda564f68","ios":"levelo://app?vid=a93470f3-f36a-40d7-9251-452dda564f68"},"vehicle_type_id":"4","last_reported":1685041506,"current_range_meters":3200,"station_id":"ce4bh692rcd13ifvqea0","pricing_plan_id":"free"},{"bike_id":"1c6daa2a-9e4f-4b60-b1c2-72a42ef35dc9","system_id":"levelo_inurba_marseille","lat":43.29265,"lon":5.38432,"is_reserved":false,"is_disabled":false,"rental_uris":{"android":"levelo://app?vid=1c6daa2a-9e4f-4b60-b1c2-72a42ef35dc9","ios":"levelo://app?vid=1c6daa2a-9e4f-4b60-b1c2-72a42ef35dc9"},"vehicle_type_id":"4","last_reported":1685041506,"current_range_meters":0,"station_id":"ce4bh692rcd13ifvqea0","pricing_plan_id":"free"},{"bike_id":"9f19c9d2-c235-46bc-a46f-5603b7ca4c44","system_id":"levelo_inurba_marseille","lat":43.29263,"lon":5.38433,"is_reserved":false,"is_disabled":false,"rental_uris":{"android":"levelo://app?vid=9f19c9d2-c235-46bc-a46f-5603b7ca4c44","ios":"levelo://app?vid=9f19c9d2-c235-46bc-a46f-5603b7ca4c44"},"vehicle_type_id":"4","last_reported":1685041506,"current_range_meters":13600,"station_id":"ce4bh692rcd13ifvqea0","pricing_plan_id":"free"},{"bike_id":"29431858-0247-4926-aef6-f857faa23c01","system_id":"levelo_inurba_marseille","lat":43.292644,"lon":5.384257,"is_reserved":false,"is_disabled":false,"rental_uris":{"android":"levelo://app?vid=29431858-0247-4926-aef6-f857faa23c01","ios":"levelo://app?vid=29431858-0247-4926-aef6-f857faa23c01"},"vehicle_type_id":"4","last_reported":1685041506,"current_range_meters":2400,"station_id":"ce4bh692rcd13ifvqea0","pricing_plan_id":"free"},{"bike_id":"8f56df4f-09aa-4892-9f76-b03800b12f93","system_id":"levelo_inurba_marseille","lat":43.292644,"lon":5.384257,"is_reserved":false,"is_disabled":false,"rental_uris":{"android":"levelo://app?vid=8f56df4f-09aa-4892-9f76-b03800b12f93","ios":"levelo://app?vid=8f56df4f-09aa-4892-9f76-b03800b12f93"},"vehicle_type_id":"4","last_reported":1685041506,"current_range_meters":14000,"station_id":"ce4bh692rcd13ifvqea0","pricing_plan_id":"free"},{"bike_id":"6761983b-6592-4d29-9da3-376fc9768344","system_id":"levelo_inurba_marseille","lat":43.29264,"lon":5.38447,"is_reserved":false,"is_disabled":false,"rental_uris":{"android":"levelo://app?vid=6761983b-6592-4d29-9da3-376fc9768344","ios":"levelo://app?vid=6761983b-6592-4d29-9da3-376fc9768344"},"vehicle_type_id":"4","last_reported":1685041506,"current_range_meters":20400,"station_id":"ce4bh692rcd13ifvqea0","pricing_plan_id":"free"},{"bike_id":"f6e1f631-709c-4110-86a9-4b6f5f36a9b3","system_id":"levelo_inurba_marseille","lat":43.29258,"lon":5.38439,"is_reserved":false,"is_disabled":false,"rental_uris":{"android":"levelo://app?vid=f6e1f631-709c-4110-86a9-4b6f5f36a9b3","ios":"levelo://app?vid=f6e1f631-709c-4110-86a9-4b6f5f36a9b3"},"vehicle_type_id":"4","last_reported":1685041506,"current_range_meters":24000,"station_id":"ce4bh692rcd13ifvqea0","pricing_plan_id":"free"},{"bike_id":"4188d6dc-1a71-4aad-a94e-33fb5adc152a","system_id":"levelo_inurba_marseille","lat":43.292644,"lon":5.384257,"is_reserved":false,"is_disabled":false,"rental_uris":{"android":"levelo://app?vid=4188d6dc-1a71-4aad-a94e-33fb5adc152a","ios":"levelo://app?vid=4188d6dc-1a71-4aad-a94e-33fb5adc152a"},"vehicle_type_id":"4","last_reported":1685041506,"current_range_meters":14000,"station_id":"ce4bh692rcd13ifvqea0","pricing_plan_id":"free"},{"bike_id":"9c4d8a27-8546-4d56-b366-570f965f705b","system_id":"levelo_inurba_marseille","lat":43.290104,"lon":5.356111,"is_reserved":false,"is_disabled":false,"rental_uris":{"android":"levelo://app?vid=9c4d8a27-8546-4d56-b366-570f965f705b","ios":"levelo://app?vid=9c4d8a27-8546-4d56-b366-570f965f705b"},"vehicle_type_id":"4","last_reported":1685041506,"current_range_meters":6400,"station_id":"ce4bhb92rcd13ifvqen0","pricing_plan_id":"free"},{"bike_id":"c6a5616a-9f0f-484e-8508-8e6a342418d3","system_id":"levelo_inurba_marseille","lat":43.290104,"lon":5.356111,"is_reserved":false,"is_disabled":false,"rental_uris":{"android":"levelo://app?vid=c6a5616a-9f0f-484e-8508-8e6a342418d3","ios":"levelo://app?vid=c6a5616a-9f0f-484e-8508-8e6a342418d3"},"vehicle_type_id":"4","last_reported":1685041506,"current_range_meters":17600,"station_id":"ce4bhb92rcd13ifvqen0","pricing_plan_id":"free"},{"bike_id":"ef4714e3-c532-4b61-8fa6-f5dd6d8ed9c8","system_id":"levelo_inurba_marseille","lat":43.290104,"lon":5.356111,"is_reserved":false,"is_disabled":false,"rental_uris":{"android":"levelo://app?vid=ef4714e3-c532-4b61-8fa6-f5dd6d8ed9c8","ios":"levelo://app?vid=ef4714e3-c532-4b61-8fa6-f5dd6d8ed9c8"},"vehicle_type_id":"4","last_reported":1685041506,"current_range_meters":26400,"station_id":"ce4bhb92rcd13ifvqen0","pricing_plan_id":"free"},{"bike_id":"2fc6a0f2-fb3d-4c2a-9bac-ee25d8d53cfd","system_id":"levelo_inurba_marseille","lat":43.290103,"lon":5.356114,"is_reserved":false,"is_disabled":false,"rental_uris":{"android":"levelo://app?vid=2fc6a0f2-fb3d-4c2a-9bac-ee25d8d53cfd","ios":"levelo://app?vid=2fc6a0f2-fb3d-4c2a-9bac-ee25d8d53cfd"},"vehicle_type_id":"4","last_reported":1685041506,"current_range_meters":28400,"station_id":"ce4bhb92rcd13ifvqen0","pricing_plan_id":"free"},{"bike_id":"be15daf6-a56c-4659-9a19-ac5207f1b5b5","system_id":"levelo_inurba_marseille","lat":43.290103,"lon":5.356114,"is_reserved":false,"is_disabled":false,"rental_uris":{"android":"levelo://app?vid=be15daf6-a56c-4659-9a19-ac5207f1b5b5","ios":"levelo://app?vid=be15daf6-a56c-4659-9a19-ac5207f1b5b5"},"vehicle_type_id":"4","last_reported":1685041506,"current_range_meters":4000,"station_id":"ce4bhb92rcd13ifvqen0","pricing_plan_id":"free"},{"bike_id":"aa78726e-3e2d-42ab-84a5-73cc8e4f065b","system_id":"levelo_inurba_marseille","lat":43.288501,"lon":5.393087,"is_reserved":false,"is_disabled":false,"rental_uris":{"android":"levelo://app?vid=aa78726e-3e2d-42ab-84a5-73cc8e4f065b","ios":"levelo://app?vid=aa78726e-3e2d-42ab-84a5-73cc8e4f065b"},"vehicle_type_id":"4","last_reported":1685041506,"current_range_meters":21600,"station_id":"ce4bh2p2rcd13ifvqdi0","pricing_plan_id":"free"},{"bike_id":"bd24535c-7b70-452f-bae4-d4ad0f6e1520","system_id":"levelo_inurba_marseille","lat":43.295169,"lon":5.390426,"is_reserved":false,"is_disabled":false,"rental_uris":{"android":"levelo://app?vid=bd24535c-7b70-452f-bae4-d4ad0f6e1520","ios":"levelo://app?vid=bd24535c-7b70-452f-bae4-d4ad0f6e1520"},"vehicle_type_id":"4","last_reported":1685041506,"current_range_meters":10800,"station_id":"ce4bh3p2rcd13ifvqdp0","pricing_plan_id":"free"},{"bike_id":"4147a40b-3036-4588-824b-1e07f8bf1df9","system_id":"levelo_inurba_marseille","lat":43.295169,"lon":5.390426,"is_reserved":false,"is_disabled":false,"rental_uris":{"android":"levelo://app?vid=4147a40b-3036-4588-824b-1e07f8bf1df9","ios":"levelo://app?vid=4147a40b-3036-4588-824b-1e07f8bf1df9"},"vehicle_type_id":"4","last_reported":1685041506,"current_range_meters":2800,"station_id":"ce4bh3p2rcd13ifvqdp0","pricing_plan_id":"free"},{"bike_id":"f0100229-7850-4b89-8de8-899ca32a95be","system_id":"levelo_inurba_marseille","lat":43.295169,"lon":5.390426,"is_reserved":false,"is_disabled":false,"rental_uris":{"android":"levelo://app?vid=f0100229-7850-4b89-8de8-899ca32a95be","ios":"levelo://app?vid=f0100229-7850-4b89-8de8-899ca32a95be"},"vehicle_type_id":"4","last_reported":1685041506,"current_range_meters":4000,"station_id":"ce4bh3p2rcd13ifvqdp0","pricing_plan_id":"free"},{"bike_id":"63f26b49-860c-4f88-9ba1-0ce463e607ed","system_id":"levelo_inurba_marseille","lat":43.2901,"lon":5.381269,"is_reserved":false,"is_disabled":false,"rental_uris":{"android":"levelo://app?vid=63f26b49-860c-4f88-9ba1-0ce463e607ed","ios":"levelo://app?vid=63f26b49-860c-4f88-9ba1-0ce463e607ed"},"vehicle_type_id":"4","last_reported":1685041506,"current_range_meters":20400,"station_id":"ce4bh4p2rcd13ifvqe1g","pricing_plan_id":"free"},{"bike_id":"ea5c3482-3a64-4f89-be31-73579da87b00","system_id":"levelo_inurba_marseille","lat":43.29012,"lon":5.38134,"is_reserved":false,"is_disabled":false,"rental_uris":{"android":"levelo://app?vid=ea5c3482-3a64-4f89-be31-73579da87b00","ios":"levelo://app?vid=ea5c3482-3a64-4f89-be31-73579da87b00"},"vehicle_type_id":"4","last_reported":1685041506,"current_range_meters":1600,"station_id":"ce4bh4p2rcd13ifvqe1g","pricing_plan_id":"free"},{"bike_id":"5554ee69-e4ee-44a0-a1a5-2e011643d216","system_id":"levelo_inurba_marseille","lat":43.290094,"lon":5.381264,"is_reserved":false,"is_disabled":false,"rental_uris":{"android":"levelo://app?vid=5554ee69-e4ee-44a0-a1a5-2e011643d216","ios":"levelo://app?vid=5554ee69-e4ee-44a0-a1a5-2e011643d216"},"vehicle_type_id":"4","last_reported":1685041506,"current_range_meters":27600,"station_id":"ce4bh4p2rcd13ifvqe1g","pricing_plan_id":"free"},{"bike_id":"8bfa470c-5c59-47b2-8ba3-4ef42c85f24e","system_id":"levelo_inurba_marseille","lat":43.28856,"lon":5.358371,"is_reserved":false,"is_disabled":false,"rental_uris":{"android":"levelo://app?vid=8bfa470c-5c59-47b2-8ba3-4ef42c85f24e","ios":"levelo://app?vid=8bfa470c-5c59-47b2-8ba3-4ef42c85f24e"},"vehicle_type_id":"4","last_reported":1685041506,"current_range_meters":14800,"station_id":"ce4bhb12rcd13ifvqem0","pricing_plan_id":"free"},{"bike_id":"9838698d-aee1-47c7-8a64-77e3ff5ff69b","system_id":"levelo_inurba_marseille","lat":43.30642,"lon":5.401031,"is_reserved":false,"is_disabled":false,"rental_uris":{"android":"levelo://app?vid=9838698d-aee1-47c7-8a64-77e3ff5ff69b","ios":"levelo://app?vid=9838698d-aee1-47c7-8a64-77e3ff5ff69b"},"vehicle_type_id":"4","last_reported":1685041506,"current_range_meters":31200,"station_id":"ce4bh112rcd13ifvqda0","pricing_plan_id":"free"},{"bike_id":"083096cd-c3bb-4705-a074-9b9d2c67bf25","system_id":"levelo_inurba_marseille","lat":43.30642,"lon":5.401031,"is_reserved":false,"is_disabled":false,"rental_uris":{"android":"levelo://app?vid=083096cd-c3bb-4705-a074-9b9d2c67bf25","ios":"levelo://app?vid=083096cd-c3bb-4705-a074-9b9d2c67bf25"},"vehicle_type_id":"4","last_reported":1685041506,"current_range_meters":31200,"station_id":"ce4bh112rcd13ifvqda0","pricing_plan_id":"free"},{"bike_id":"6fad0bd5-3c7c-4da1-bb0f-f0eef050ba54","system_id":"levelo_inurba_marseille","lat":43.30646,"lon":5.40078,"is_reserved":false,"is_disabled":false,"rental_uris":{"android":"levelo://app?vid=6fad0bd5-3c7c-4da1-bb0f-f0eef050ba54","ios":"levelo://app?vid=6fad0bd5-3c7c-4da1-bb0f-f0eef050ba54"},"vehicle_type_id":"4","last_reported":1685041506,"current_range_meters":31600,"station_id":"ce4bh112rcd13ifvqda0","pricing_plan_id":"free"},{"bike_id":"deccdead-3a19-4eb1-a04e-30061fe6dc26","system_id":"levelo_inurba_marseille","lat":43.33756,"lon":5.37455,"is_reserved":false,"is_disabled":false,"rental_uris":{"android":"levelo://app?vid=deccdead-3a19-4eb1-a04e-30061fe6dc26","ios":"levelo://app?vid=deccdead-3a19-4eb1-a04e-30061fe6dc26"},"vehicle_type_id":"4","last_reported":1685041506,"current_range_meters":20000,"station_id":"","pricing_plan_id":"free"},{"bike_id":"5d058b52-6859-4deb-9e6f-85d1f5b0a8f9","system_id":"levelo_inurba_marseille","lat":43.30642,"lon":5.401031,"is_reserved":false,"is_disabled":false,"rental_uris":{"android":"levelo://app?vid=5d058b52-6859-4deb-9e6f-85d1f5b0a8f9","ios":"levelo://app?vid=5d058b52-6859-4deb-9e6f-85d1f5b0a8f9"},"vehicle_type_id":"4","last_reported":1685041506,"current_range_meters":31200,"station_id":"ce4bh112rcd13ifvqda0","pricing_plan_id":"free"},{"bike_id":"95d058cb-87d4-419b-b1eb-8e2b82398b0a","system_id":"levelo_inurba_marseille","lat":43.33766,"lon":5.37421,"is_reserved":false,"is_disabled":false,"rental_uris":{"android":"levelo://app?vid=95d058cb-87d4-419b-b1eb-8e2b82398b0a","ios":"levelo://app?vid=95d058cb-87d4-419b-b1eb-8e2b82398b0a"},"vehicle_type_id":"4","last_reported":1685041506,"current_range_meters":31200,"station_id":"","pricing_plan_id":"free"},{"bike_id":"cc5f86cf-3f4d-447d-bb4a-7bead1e1614b","system_id":"levelo_inurba_marseille","lat":43.30642,"lon":5.401031,"is_reserved":false,"is_disabled":false,"rental_uris":{"android":"levelo://app?vid=cc5f86cf-3f4d-447d-bb4a-7bead1e1614b","ios":"levelo://app?vid=cc5f86cf-3f4d-447d-bb4a-7bead1e1614b"},"vehicle_type_id":"4","last_reported":1685041506,"current_range_meters":25600,"station_id":"ce4bh112rcd13ifvqda0","pricing_plan_id":"free"},{"bike_id":"a9f4f80e-a023-491c-a369-dd352e99e93b","system_id":"levelo_inurba_marseille","lat":43.30642,"lon":5.401031,"is_reserved":false,"is_disabled":false,"rental_uris":{"android":"levelo://app?vid=a9f4f80e-a023-491c-a369-dd352e99e93b","ios":"levelo://app?vid=a9f4f80e-a023-491c-a369-dd352e99e93b"},"vehicle_type_id":"4","last_reported":1685041506,"current_range_meters":5600,"station_id":"ce4bh112rcd13ifvqda0","pricing_plan_id":"free"},{"bike_id":"07c191ba-b6c2-47b5-ab46-9d81a2c9f55e","system_id":"levelo_inurba_marseille","lat":43.30642,"lon":5.401031,"is_reserved":false,"is_disabled":false,"rental_uris":{"android":"levelo://app?vid=07c191ba-b6c2-47b5-ab46-9d81a2c9f55e","ios":"levelo://app?vid=07c191ba-b6c2-47b5-ab46-9d81a2c9f55e"},"vehicle_type_id":"4","last_reported":1685041506,"current_range_meters":21600,"station_id":"ce4bh112rcd13ifvqda0","pricing_plan_id":"free"},{"bike_id":"ddc6a36f-1b16-4202-a857-b31ac8fd7f4f","system_id":"levelo_inurba_marseille","lat":43.28668,"lon":5.36355,"is_reserved":false,"is_disabled":false,"rental_uris":{"android":"levelo://app?vid=ddc6a36f-1b16-4202-a857-b31ac8fd7f4f","ios":"levelo://app?vid=ddc6a36f-1b16-4202-a857-b31ac8fd7f4f"},"vehicle_type_id":"4","last_reported":1685041506,"current_range_meters":20000,"station_id":"ce4bhah2rcd13ifvqej0","pricing_plan_id":"free"},{"bike_id":"a5d6b348-66b7-404e-a4f4-2b1a76c94bcc","system_id":"levelo_inurba_marseille","lat":43.286593,"lon":5.363346,"is_reserved":false,"is_disabled":false,"rental_uris":{"android":"levelo://app?vid=a5d6b348-66b7-404e-a4f4-2b1a76c94bcc","ios":"levelo://app?vid=a5d6b348-66b7-404e-a4f4-2b1a76c94bcc"},"vehicle_type_id":"4","last_reported":1685041506,"current_range_meters":22000,"station_id":"ce4bhah2rcd13ifvqej0","pricing_plan_id":"free"},{"bike_id":"36c1bea0-1448-4850-b4f1-3e5f50adc30f","system_id":"levelo_inurba_marseille","lat":43.30442,"lon":5.40106,"is_reserved":false,"is_disabled":false,"rental_uris":{"android":"levelo://app?vid=36c1bea0-1448-4850-b4f1-3e5f50adc30f","ios":"levelo://app?vid=36c1bea0-1448-4850-b4f1-3e5f50adc30f"},"vehicle_type_id":"4","last_reported":1685041506,"current_range_meters":22800,"station_id":"","pricing_plan_id":"free"},{"bike_id":"4e2b48b3-c160-41d0-90b3-b86915bf7a41","system_id":"levelo_inurba_marseille","lat":43.28666,"lon":5.3635,"is_reserved":false,"is_disabled":false,"rental_uris":{"android":"levelo://app?vid=4e2b48b3-c160-41d0-90b3-b86915bf7a41","ios":"levelo://app?vid=4e2b48b3-c160-41d0-90b3-b86915bf7a41"},"vehicle_type_id":"4","last_reported":1685041506,"current_range_meters":4800,"station_id":"ce4bhah2rcd13ifvqej0","pricing_plan_id":"free"},{"bike_id":"1713220b-d444-46b9-9b54-9512b7b168cf","system_id":"levelo_inurba_marseille","lat":43.30437,"lon":5.40106,"is_reserved":false,"is_disabled":false,"rental_uris":{"android":"levelo://app?vid=1713220b-d444-46b9-9b54-9512b7b168cf","ios":"levelo://app?vid=1713220b-d444-46b9-9b54-9512b7b168cf"},"vehicle_type_id":"4","last_reported":1685041506,"current_range_meters":8400,"station_id":"","pricing_plan_id":"free"},{"bike_id":"c188641d-4fa5-4b79-a2e8-0486eac4d5df","system_id":"levelo_inurba_marseille","lat":43.298681,"lon":5.397225,"is_reserved":false,"is_disabled":false,"rental_uris":{"android":"levelo://app?vid=c188641d-4fa5-4b79-a2e8-0486eac4d5df","ios":"levelo://app?vid=c188641d-4fa5-4b79-a2e8-0486eac4d5df"},"vehicle_type_id":"4","last_reported":1685041506,"current_range_meters":5600,"station_id":"ce4bh0h2rcd13ifvqd50","pricing_plan_id":"free"},{"bike_id":"af28018d-d377-46e0-85d2-fee01a6c5dd3","system_id":"levelo_inurba_marseille","lat":43.290345,"lon":5.38646,"is_reserved":false,"is_disabled":false,"rental_uris":{"android":"levelo://app?vid=af28018d-d377-46e0-85d2-fee01a6c5dd3","ios":"levelo://app?vid=af28018d-d377-46e0-85d2-fee01a6c5dd3"},"vehicle_type_id":"4","last_reported":1685041506,"current_range_meters":10000,"station_id":"ce4bh4p2rcd13ifvqe0g","pricing_plan_id":"free"},{"bike_id":"1131f9d3-83dd-4076-b420-dfa0e9f34b6d","system_id":"levelo_inurba_marseille","lat":43.290336,"lon":5.386425,"is_reserved":false,"is_disabled":false,"rental_uris":{"android":"levelo://app?vid=1131f9d3-83dd-4076-b420-dfa0e9f34b6d","ios":"levelo://app?vid=1131f9d3-83dd-4076-b420-dfa0e9f34b6d"},"vehicle_type_id":"4","last_reported":1685041506,"current_range_meters":800,"station_id":"ce4bh4p2rcd13ifvqe0g","pricing_plan_id":"free"},{"bike_id":"2ee21d4f-ba61-493e-ab30-1ccbbe57752f","system_id":"levelo_inurba_marseille","lat":43.290336,"lon":5.386425,"is_reserved":false,"is_disabled":false,"rental_uris":{"android":"levelo://app?vid=2ee21d4f-ba61-493e-ab30-1ccbbe57752f","ios":"levelo://app?vid=2ee21d4f-ba61-493e-ab30-1ccbbe57752f"},"vehicle_type_id":"4","last_reported":1685041506,"current_range_meters":21600,"station_id":"ce4bh4p2rcd13ifvqe0g","pricing_plan_id":"free"},{"bike_id":"034b4523-6cb3-4c57-846f-4585021cf21c","system_id":"levelo_inurba_marseille","lat":43.286039,"lon":5.370681,"is_reserved":false,"is_disabled":false,"rental_uris":{"android":"levelo://app?vid=034b4523-6cb3-4c57-846f-4585021cf21c","ios":"levelo://app?vid=034b4523-6cb3-4c57-846f-4585021cf21c"},"vehicle_type_id":"4","last_reported":1685041506,"current_range_meters":31200,"station_id":"ce4bht12rcd13ifvqi60","pricing_plan_id":"free"},{"bike_id":"a06e7db5-50a6-4dc8-aad4-5ee9c2baefb1","system_id":"levelo_inurba_marseille","lat":43.287184,"lon":5.37937,"is_reserved":false,"is_disabled":false,"rental_uris":{"android":"levelo://app?vid=a06e7db5-50a6-4dc8-aad4-5ee9c2baefb1","ios":"levelo://app?vid=a06e7db5-50a6-4dc8-aad4-5ee9c2baefb1"},"vehicle_type_id":"4","last_reported":1685041506,"current_range_meters":22000,"station_id":"ce4bh9p2rcd13ifvqec0","pricing_plan_id":"free"},{"bike_id":"ac8d3601-70e2-40b3-a623-47806f0be8a3","system_id":"levelo_inurba_marseille","lat":43.316517,"lon":5.404375,"is_reserved":false,"is_disabled":false,"rental_uris":{"android":"levelo://app?vid=ac8d3601-70e2-40b3-a623-47806f0be8a3","ios":"levelo://app?vid=ac8d3601-70e2-40b3-a623-47806f0be8a3"},"vehicle_type_id":"4","last_reported":1685041506,"current_range_meters":18400,"station_id":"ce4bh012rcd13ifvqd00","pricing_plan_id":"free"},{"bike_id":"2afc5c45-85b0-4c9d-9c7e-3a28041e0cfd","system_id":"levelo_inurba_marseille","lat":43.316517,"lon":5.404375,"is_reserved":false,"is_disabled":false,"rental_uris":{"android":"levelo://app?vid=2afc5c45-85b0-4c9d-9c7e-3a28041e0cfd","ios":"levelo://app?vid=2afc5c45-85b0-4c9d-9c7e-3a28041e0cfd"},"vehicle_type_id":"4","last_reported":1685041506,"current_range_meters":6800,"station_id":"ce4bh012rcd13ifvqd00","pricing_plan_id":"free"},{"bike_id":"e72e9d66-0074-4358-9e47-30785ab18eca","system_id":"levelo_inurba_marseille","lat":43.316517,"lon":5.404375,"is_reserved":false,"is_disabled":false,"rental_uris":{"android":"levelo://app?vid=e72e9d66-0074-4358-9e47-30785ab18eca","ios":"levelo://app?vid=e72e9d66-0074-4358-9e47-30785ab18eca"},"vehicle_type_id":"4","last_reported":1685041506,"current_range_meters":17200,"station_id":"ce4bh012rcd13ifvqd00","pricing_plan_id":"free"},{"bike_id":"61c6624a-ba9d-4d32-a276-2d94fbbac671","system_id":"levelo_inurba_marseille","lat":43.316517,"lon":5.404375,"is_reserved":false,"is_disabled":false,"rental_uris":{"android":"levelo://app?vid=61c6624a-ba9d-4d32-a276-2d94fbbac671","ios":"levelo://app?vid=61c6624a-ba9d-4d32-a276-2d94fbbac671"},"vehicle_type_id":"4","last_reported":1685041506,"current_range_meters":0,"station_id":"ce4bh012rcd13ifvqd00","pricing_plan_id":"free"},{"bike_id":"75c79153-7ecb-4403-9a12-1a690696fb11","system_id":"levelo_inurba_marseille","lat":43.291994,"lon":5.392907,"is_reserved":false,"is_disabled":false,"rental_uris":{"android":"levelo://app?vid=75c79153-7ecb-4403-9a12-1a690696fb11","ios":"levelo://app?vid=75c79153-7ecb-4403-9a12-1a690696fb11"},"vehicle_type_id":"4","last_reported":1685041506,"current_range_meters":11200,"station_id":"ce4bh192rcd13ifvqdd0","pricing_plan_id":"free"},{"bike_id":"adcfeaed-e4ff-4a61-895f-b15d1dbc3d97","system_id":"levelo_inurba_marseille","lat":43.28466,"lon":5.35891,"is_reserved":false,"is_disabled":false,"rental_uris":{"android":"levelo://app?vid=adcfeaed-e4ff-4a61-895f-b15d1dbc3d97","ios":"levelo://app?vid=adcfeaed-e4ff-4a61-895f-b15d1dbc3d97"},"vehicle_type_id":"4","last_reported":1685041506,"current_range_meters":12400,"station_id":"ce4bhah2rcd13ifvqei0","pricing_plan_id":"free"},{"bike_id":"7962ad5d-ad33-4204-9d55-4a8d329337a5","system_id":"levelo_inurba_marseille","lat":43.284534,"lon":5.358662,"is_reserved":false,"is_disabled":false,"rental_uris":{"android":"levelo://app?vid=7962ad5d-ad33-4204-9d55-4a8d329337a5","ios":"levelo://app?vid=7962ad5d-ad33-4204-9d55-4a8d329337a5"},"vehicle_type_id":"4","last_reported":1685041506,"current_range_meters":23600,"station_id":"ce4bhah2rcd13ifvqei0","pricing_plan_id":"free"},{"bike_id":"9692d33d-b6bf-4011-ad22-61c8db77ae77","system_id":"levelo_inurba_marseille","lat":43.28458,"lon":5.35905,"is_reserved":false,"is_disabled":false,"rental_uris":{"android":"levelo://app?vid=9692d33d-b6bf-4011-ad22-61c8db77ae77","ios":"levelo://app?vid=9692d33d-b6bf-4011-ad22-61c8db77ae77"},"vehicle_type_id":"4","last_reported":1685041506,"current_range_meters":20000,"station_id":"ce4bhah2rcd13ifvqei0","pricing_plan_id":"free"},{"bike_id":"e9d12227-3906-47e6-bec4-9dd5fa5036e5","system_id":"levelo_inurba_marseille","lat":43.284534,"lon":5.358662,"is_reserved":false,"is_disabled":false,"rental_uris":{"android":"levelo://app?vid=e9d12227-3906-47e6-bec4-9dd5fa5036e5","ios":"levelo://app?vid=e9d12227-3906-47e6-bec4-9dd5fa5036e5"},"vehicle_type_id":"4","last_reported":1685041506,"current_range_meters":3600,"station_id":"ce4bhah2rcd13ifvqei0","pricing_plan_id":"free"},{"bike_id":"d2178468-d881-4598-aa23-41b88a1685fe","system_id":"levelo_inurba_marseille","lat":43.284534,"lon":5.358662,"is_reserved":false,"is_disabled":false,"rental_uris":{"android":"levelo://app?vid=d2178468-d881-4598-aa23-41b88a1685fe","ios":"levelo://app?vid=d2178468-d881-4598-aa23-41b88a1685fe"},"vehicle_type_id":"4","last_reported":1685041506,"current_range_meters":0,"station_id":"ce4bhah2rcd13ifvqei0","pricing_plan_id":"free"},{"bike_id":"3a986c88-10e0-409d-8334-15e95451b916","system_id":"levelo_inurba_marseille","lat":43.284534,"lon":5.358662,"is_reserved":false,"is_disabled":false,"rental_uris":{"android":"levelo://app?vid=3a986c88-10e0-409d-8334-15e95451b916","ios":"levelo://app?vid=3a986c88-10e0-409d-8334-15e95451b916"},"vehicle_type_id":"4","last_reported":1685041506,"current_range_meters":22400,"station_id":"ce4bhah2rcd13ifvqei0","pricing_plan_id":"free"},{"bike_id":"e808930f-460b-4f29-93a1-454345034d26","system_id":"levelo_inurba_marseille","lat":43.285848,"lon":5.350787,"is_reserved":false,"is_disabled":false,"rental_uris":{"android":"levelo://app?vid=e808930f-460b-4f29-93a1-454345034d26","ios":"levelo://app?vid=e808930f-460b-4f29-93a1-454345034d26"},"vehicle_type_id":"4","last_reported":1685041506,"current_range_meters":22000,"station_id":"ce4bhch2rcd13ifvqeug","pricing_plan_id":"free"},{"bike_id":"235cc89c-291d-4a5a-9c79-e9fc2e36f557","system_id":"levelo_inurba_marseille","lat":43.285848,"lon":5.350787,"is_reserved":false,"is_disabled":false,"rental_uris":{"android":"levelo://app?vid=235cc89c-291d-4a5a-9c79-e9fc2e36f557","ios":"levelo://app?vid=235cc89c-291d-4a5a-9c79-e9fc2e36f557"},"vehicle_type_id":"4","last_reported":1685041506,"current_range_meters":4000,"station_id":"ce4bhch2rcd13ifvqeug","pricing_plan_id":"free"},{"bike_id":"d6f0b22c-5c20-42b4-91a7-ddc7a3d1ec12","system_id":"levelo_inurba_marseille","lat":43.285848,"lon":5.350787,"is_reserved":false,"is_disabled":false,"rental_uris":{"android":"levelo://app?vid=d6f0b22c-5c20-42b4-91a7-ddc7a3d1ec12","ios":"levelo://app?vid=d6f0b22c-5c20-42b4-91a7-ddc7a3d1ec12"},"vehicle_type_id":"4","last_reported":1685041506,"current_range_meters":28400,"station_id":"ce4bhch2rcd13ifvqeug","pricing_plan_id":"free"},{"bike_id":"4e14ca5b-c462-4cf6-84ba-fa4f2b01d9e8","system_id":"levelo_inurba_marseille","lat":43.285848,"lon":5.350787,"is_reserved":false,"is_disabled":false,"rental_uris":{"android":"levelo://app?vid=4e14ca5b-c462-4cf6-84ba-fa4f2b01d9e8","ios":"levelo://app?vid=4e14ca5b-c462-4cf6-84ba-fa4f2b01d9e8"},"vehicle_type_id":"4","last_reported":1685041506,"current_range_meters":23600,"station_id":"ce4bhch2rcd13ifvqeug","pricing_plan_id":"free"},{"bike_id":"df6f627d-b282-4cb1-b6d3-dfcaee964372","system_id":"levelo_inurba_marseille","lat":43.285848,"lon":5.350787,"is_reserved":false,"is_disabled":false,"rental_uris":{"android":"levelo://app?vid=df6f627d-b282-4cb1-b6d3-dfcaee964372","ios":"levelo://app?vid=df6f627d-b282-4cb1-b6d3-dfcaee964372"},"vehicle_type_id":"4","last_reported":1685041506,"current_range_meters":19600,"station_id":"ce4bhch2rcd13ifvqeug","pricing_plan_id":"free"},{"bike_id":"3bfc1e1d-dba6-4b3e-9159-7de725dff9fe","system_id":"levelo_inurba_marseille","lat":43.285856,"lon":5.350771,"is_reserved":false,"is_disabled":false,"rental_uris":{"android":"levelo://app?vid=3bfc1e1d-dba6-4b3e-9159-7de725dff9fe","ios":"levelo://app?vid=3bfc1e1d-dba6-4b3e-9159-7de725dff9fe"},"vehicle_type_id":"4","last_reported":1685041506,"current_range_meters":3200,"station_id":"ce4bhch2rcd13ifvqeug","pricing_plan_id":"free"},{"bike_id":"e7e7450c-7be7-45fc-89d0-a172597c0b6f","system_id":"levelo_inurba_marseille","lat":43.285856,"lon":5.350771,"is_reserved":false,"is_disabled":false,"rental_uris":{"android":"levelo://app?vid=e7e7450c-7be7-45fc-89d0-a172597c0b6f","ios":"levelo://app?vid=e7e7450c-7be7-45fc-89d0-a172597c0b6f"},"vehicle_type_id":"4","last_reported":1685041506,"current_range_meters":1600,"station_id":"ce4bhch2rcd13ifvqeug","pricing_plan_id":"free"},{"bike_id":"c63d323c-280a-4add-989f-321b3a242dda","system_id":"levelo_inurba_marseille","lat":43.285856,"lon":5.350771,"is_reserved":false,"is_disabled":false,"rental_uris":{"android":"levelo://app?vid=c63d323c-280a-4add-989f-321b3a242dda","ios":"levelo://app?vid=c63d323c-280a-4add-989f-321b3a242dda"},"vehicle_type_id":"4","last_reported":1685041506,"current_range_meters":5600,"station_id":"ce4bhch2rcd13ifvqeug","pricing_plan_id":"free"},{"bike_id":"97fa6013-c421-4998-aa23-bdd3a7b9ab33","system_id":"levelo_inurba_marseille","lat":43.295713,"lon":5.399639,"is_reserved":false,"is_disabled":false,"rental_uris":{"android":"levelo://app?vid=97fa6013-c421-4998-aa23-bdd3a7b9ab33","ios":"levelo://app?vid=97fa6013-c421-4998-aa23-bdd3a7b9ab33"},"vehicle_type_id":"4","last_reported":1685041506,"current_range_meters":20400,"station_id":"ce4bh312rcd13ifvqdj0","pricing_plan_id":"free"},{"bike_id":"dfd04176-405d-48ba-bbce-661fc45e7ded","system_id":"levelo_inurba_marseille","lat":43.295713,"lon":5.399639,"is_reserved":false,"is_disabled":false,"rental_uris":{"android":"levelo://app?vid=dfd04176-405d-48ba-bbce-661fc45e7ded","ios":"levelo://app?vid=dfd04176-405d-48ba-bbce-661fc45e7ded"},"vehicle_type_id":"4","last_reported":1685041506,"current_range_meters":29200,"station_id":"ce4bh312rcd13ifvqdj0","pricing_plan_id":"free"},{"bike_id":"aaa6c6ba-1952-4042-a94c-f5b9da6eb549","system_id":"levelo_inurba_marseille","lat":43.295713,"lon":5.399639,"is_reserved":false,"is_disabled":false,"rental_uris":{"android":"levelo://app?vid=aaa6c6ba-1952-4042-a94c-f5b9da6eb549","ios":"levelo://app?vid=aaa6c6ba-1952-4042-a94c-f5b9da6eb549"},"vehicle_type_id":"4","last_reported":1685041506,"current_range_meters":8800,"station_id":"ce4bh312rcd13ifvqdj0","pricing_plan_id":"free"},{"bike_id":"8650bdde-50ca-4dce-b475-78ced0bd1056","system_id":"levelo_inurba_marseille","lat":43.286595,"lon":5.386795,"is_reserved":false,"is_disabled":false,"rental_uris":{"android":"levelo://app?vid=8650bdde-50ca-4dce-b475-78ced0bd1056","ios":"levelo://app?vid=8650bdde-50ca-4dce-b475-78ced0bd1056"},"vehicle_type_id":"4","last_reported":1685041506,"current_range_meters":17200,"station_id":"ce4bh492rcd13ifvqdug","pricing_plan_id":"free"},{"bike_id":"7d10f6b8-747d-47d9-bcb1-68eee032aef3","system_id":"levelo_inurba_marseille","lat":43.286595,"lon":5.386795,"is_reserved":false,"is_disabled":false,"rental_uris":{"android":"levelo://app?vid=7d10f6b8-747d-47d9-bcb1-68eee032aef3","ios":"levelo://app?vid=7d10f6b8-747d-47d9-bcb1-68eee032aef3"},"vehicle_type_id":"4","last_reported":1685041506,"current_range_meters":7600,"station_id":"ce4bh492rcd13ifvqdug","pricing_plan_id":"free"},{"bike_id":"0bf2293a-8310-44ca-bd9c-5e0da3780606","system_id":"levelo_inurba_marseille","lat":43.323464,"lon":5.406297,"is_reserved":false,"is_disabled":false,"rental_uris":{"android":"levelo://app?vid=0bf2293a-8310-44ca-bd9c-5e0da3780606","ios":"levelo://app?vid=0bf2293a-8310-44ca-bd9c-5e0da3780606"},"vehicle_type_id":"4","last_reported":1685041506,"current_range_meters":31200,"station_id":"ce4bhq92rcd13ifvqhjg","pricing_plan_id":"free"},{"bike_id":"d0248441-1b9c-410f-918e-bda3250b3bf5","system_id":"levelo_inurba_marseille","lat":43.323464,"lon":5.406297,"is_reserved":false,"is_disabled":false,"rental_uris":{"android":"levelo://app?vid=d0248441-1b9c-410f-918e-bda3250b3bf5","ios":"levelo://app?vid=d0248441-1b9c-410f-918e-bda3250b3bf5"},"vehicle_type_id":"4","last_reported":1685041506,"current_range_meters":31200,"station_id":"ce4bhq92rcd13ifvqhjg","pricing_plan_id":"free"},{"bike_id":"c7675e98-db95-41eb-b4bb-3820e0b35d0b","system_id":"levelo_inurba_marseille","lat":43.32339,"lon":5.40618,"is_reserved":false,"is_disabled":false,"rental_uris":{"android":"levelo://app?vid=c7675e98-db95-41eb-b4bb-3820e0b35d0b","ios":"levelo://app?vid=c7675e98-db95-41eb-b4bb-3820e0b35d0b"},"vehicle_type_id":"4","last_reported":1685041506,"current_range_meters":25600,"station_id":"ce4bhq92rcd13ifvqhjg","pricing_plan_id":"free"},{"bike_id":"c6dd1343-97b1-4973-83cc-c2d989982782","system_id":"levelo_inurba_marseille","lat":43.323464,"lon":5.406297,"is_reserved":false,"is_disabled":false,"rental_uris":{"android":"levelo://app?vid=c6dd1343-97b1-4973-83cc-c2d989982782","ios":"levelo://app?vid=c6dd1343-97b1-4973-83cc-c2d989982782"},"vehicle_type_id":"4","last_reported":1685041506,"current_range_meters":31200,"station_id":"ce4bhq92rcd13ifvqhjg","pricing_plan_id":"free"},{"bike_id":"7bf45c5d-bb2a-4ce4-81f0-580e634cf9da","system_id":"levelo_inurba_marseille","lat":43.284793,"lon":5.384113,"is_reserved":false,"is_disabled":false,"rental_uris":{"android":"levelo://app?vid=7bf45c5d-bb2a-4ce4-81f0-580e634cf9da","ios":"levelo://app?vid=7bf45c5d-bb2a-4ce4-81f0-580e634cf9da"},"vehicle_type_id":"4","last_reported":1685041506,"current_range_meters":24400,"station_id":"ce4bh512rcd13ifvqe3g","pricing_plan_id":"free"},{"bike_id":"c1227df7-654b-4e98-9442-075b32b11607","system_id":"levelo_inurba_marseille","lat":43.28855,"lon":5.39311,"is_reserved":false,"is_disabled":false,"rental_uris":{"android":"levelo://app?vid=c1227df7-654b-4e98-9442-075b32b11607","ios":"levelo://app?vid=c1227df7-654b-4e98-9442-075b32b11607"},"vehicle_type_id":"4","last_reported":1685041506,"current_range_meters":6400,"station_id":"ce4bh2p2rcd13ifvqdi0","pricing_plan_id":"free"},{"bike_id":"68660ebc-a406-4bf5-89ea-11e650f20ad6","system_id":"levelo_inurba_marseille","lat":43.288501,"lon":5.393087,"is_reserved":false,"is_disabled":false,"rental_uris":{"android":"levelo://app?vid=68660ebc-a406-4bf5-89ea-11e650f20ad6","ios":"levelo://app?vid=68660ebc-a406-4bf5-89ea-11e650f20ad6"},"vehicle_type_id":"4","last_reported":1685041506,"current_range_meters":24400,"station_id":"ce4bh2p2rcd13ifvqdi0","pricing_plan_id":"free"},{"bike_id":"3be4a096-30ea-41f4-be9b-57ec72515514","system_id":"levelo_inurba_marseille","lat":43.284219,"lon":5.3497,"is_reserved":false,"is_disabled":false,"rental_uris":{"android":"levelo://app?vid=3be4a096-30ea-41f4-be9b-57ec72515514","ios":"levelo://app?vid=3be4a096-30ea-41f4-be9b-57ec72515514"},"vehicle_type_id":"4","last_reported":1685041506,"current_range_meters":30400,"station_id":"ce4bhbh2rcd13ifvqepg","pricing_plan_id":"free"},{"bike_id":"bc15ceee-f03b-410e-a526-49b363c0ee7d","system_id":"levelo_inurba_marseille","lat":43.283498,"lon":5.380948,"is_reserved":false,"is_disabled":false,"rental_uris":{"android":"levelo://app?vid=bc15ceee-f03b-410e-a526-49b363c0ee7d","ios":"levelo://app?vid=bc15ceee-f03b-410e-a526-49b363c0ee7d"},"vehicle_type_id":"4","last_reported":1685041506,"current_range_meters":20800,"station_id":"ce4bh412rcd13ifvqdr0","pricing_plan_id":"free"},{"bike_id":"df1880ac-d231-4326-8b39-c3d013dbb8ca","system_id":"levelo_inurba_marseille","lat":43.32147,"lon":5.40782,"is_reserved":false,"is_disabled":false,"rental_uris":{"android":"levelo://app?vid=df1880ac-d231-4326-8b39-c3d013dbb8ca","ios":"levelo://app?vid=df1880ac-d231-4326-8b39-c3d013dbb8ca"},"vehicle_type_id":"4","last_reported":1685041506,"current_range_meters":22400,"station_id":"","pricing_plan_id":"free"},{"bike_id":"47edfcfe-db84-4795-b5d8-625793b1a752","system_id":"levelo_inurba_marseille","lat":43.283498,"lon":5.380948,"is_reserved":false,"is_disabled":false,"rental_uris":{"android":"levelo://app?vid=47edfcfe-db84-4795-b5d8-625793b1a752","ios":"levelo://app?vid=47edfcfe-db84-4795-b5d8-625793b1a752"},"vehicle_type_id":"4","last_reported":1685041506,"current_range_meters":800,"station_id":"ce4bh412rcd13ifvqdr0","pricing_plan_id":"free"},{"bike_id":"3732221a-d415-4c3c-9572-73f56a05f529","system_id":"levelo_inurba_marseille","lat":43.284219,"lon":5.3497,"is_reserved":false,"is_disabled":false,"rental_uris":{"android":"levelo://app?vid=3732221a-d415-4c3c-9572-73f56a05f529","ios":"levelo://app?vid=3732221a-d415-4c3c-9572-73f56a05f529"},"vehicle_type_id":"4","last_reported":1685041506,"current_range_meters":31200,"station_id":"ce4bhbh2rcd13ifvqepg","pricing_plan_id":"free"},{"bike_id":"cb15ba1e-ccad-4e3e-afdb-2f079a6b4a93","system_id":"levelo_inurba_marseille","lat":43.284219,"lon":5.3497,"is_reserved":false,"is_disabled":false,"rental_uris":{"android":"levelo://app?vid=cb15ba1e-ccad-4e3e-afdb-2f079a6b4a93","ios":"levelo://app?vid=cb15ba1e-ccad-4e3e-afdb-2f079a6b4a93"},"vehicle_type_id":"4","last_reported":1685041506,"current_range_meters":19600,"station_id":"ce4bhbh2rcd13ifvqepg","pricing_plan_id":"free"},{"bike_id":"3410b6b1-78c4-4363-aab7-2b2a3fee5fc9","system_id":"levelo_inurba_marseille","lat":43.284219,"lon":5.3497,"is_reserved":false,"is_disabled":false,"rental_uris":{"android":"levelo://app?vid=3410b6b1-78c4-4363-aab7-2b2a3fee5fc9","ios":"levelo://app?vid=3410b6b1-78c4-4363-aab7-2b2a3fee5fc9"},"vehicle_type_id":"4","last_reported":1685041506,"current_range_meters":6800,"station_id":"ce4bhbh2rcd13ifvqepg","pricing_plan_id":"free"},{"bike_id":"b4a325cb-429f-45e9-bec0-4493ec0f5e9f","system_id":"levelo_inurba_marseille","lat":43.283498,"lon":5.380948,"is_reserved":false,"is_disabled":false,"rental_uris":{"android":"levelo://app?vid=b4a325cb-429f-45e9-bec0-4493ec0f5e9f","ios":"levelo://app?vid=b4a325cb-429f-45e9-bec0-4493ec0f5e9f"},"vehicle_type_id":"4","last_reported":1685041506,"current_range_meters":22400,"station_id":"ce4bh412rcd13ifvqdr0","pricing_plan_id":"free"},{"bike_id":"e2ec6e30-3b62-47e8-8e4a-ccd53ddcee53","system_id":"levelo_inurba_marseille","lat":43.284217,"lon":5.349697,"is_reserved":false,"is_disabled":false,"rental_uris":{"android":"levelo://app?vid=e2ec6e30-3b62-47e8-8e4a-ccd53ddcee53","ios":"levelo://app?vid=e2ec6e30-3b62-47e8-8e4a-ccd53ddcee53"},"vehicle_type_id":"4","last_reported":1685041506,"current_range_meters":14800,"station_id":"ce4bhbh2rcd13ifvqepg","pricing_plan_id":"free"},{"bike_id":"234d2dc2-ffb5-4180-a8a5-e1e9ced296c8","system_id":"levelo_inurba_marseille","lat":43.284219,"lon":5.3497,"is_reserved":false,"is_disabled":false,"rental_uris":{"android":"levelo://app?vid=234d2dc2-ffb5-4180-a8a5-e1e9ced296c8","ios":"levelo://app?vid=234d2dc2-ffb5-4180-a8a5-e1e9ced296c8"},"vehicle_type_id":"4","last_reported":1685041506,"current_range_meters":6800,"station_id":"ce4bhbh2rcd13ifvqepg","pricing_plan_id":"free"},{"bike_id":"7be1d48e-d084-4cd4-9284-a17909ec8395","system_id":"levelo_inurba_marseille","lat":43.284217,"lon":5.349697,"is_reserved":false,"is_disabled":false,"rental_uris":{"android":"levelo://app?vid=7be1d48e-d084-4cd4-9284-a17909ec8395","ios":"levelo://app?vid=7be1d48e-d084-4cd4-9284-a17909ec8395"},"vehicle_type_id":"4","last_reported":1685041506,"current_range_meters":2000,"station_id":"ce4bhbh2rcd13ifvqepg","pricing_plan_id":"free"},{"bike_id":"61454170-be10-4fcb-bd45-90eec6a69796","system_id":"levelo_inurba_marseille","lat":43.292724,"lon":5.401131,"is_reserved":false,"is_disabled":false,"rental_uris":{"android":"levelo://app?vid=61454170-be10-4fcb-bd45-90eec6a69796","ios":"levelo://app?vid=61454170-be10-4fcb-bd45-90eec6a69796"},