{"last_updated":1740434931,"ttl":60,"version":"2.2","data":{"bikes":[{"bike_id":"8825da9a-338a-43f1-904f-825e636e0a6d","system_id":"levelo_inurba_marseille","lat":43.2872,"lon":5.37953,"is_reserved":false,"is_disabled":false,"rental_uris":{"android":"levelo://app?vid=8825da9a-338a-43f1-904f-825e636e0a6d","ios":"levelo://app?vid=8825da9a-338a-43f1-904f-825e636e0a6d"},"vehicle_type_id":"4","last_reported":1740434931,"current_range_meters":2800,"station_id":"ce4bh9p2rcd13ifvqec0","pricing_plan_id":"cebpf4jnsgd1na2vs0mg"},{"bike_id":"50a03b29-b76f-4fb2-91d7-00d2a75d785c","system_id":"levelo_inurba_marseille","lat":43.29278,"lon":5.37595,"is_reserved":false,"is_disabled":true,"rental_uris":{"android":"levelo://app?vid=50a03b29-b76f-4fb2-91d7-00d2a75d785c","ios":"levelo://app?vid=50a03b29-b76f-4fb2-91d7-00d2a75d785c"},"vehicle_type_id":"4","last_reported":1740434931,"current_range_meters":2800,"station_id":"ce4bgi12rcd13ifvqb80","pricing_plan_id":"cebpf4jnsgd1na2vs0mg"},{"bike_id":"413dc171-4546-4050-9354-c607ae4433bf","system_id":"levelo_inurba_marseille","lat":43.30171,"lon":5.3959,"is_reserved":false,"is_disabled":true,"rental_uris":{"android":"levelo://app?vid=413dc171-4546-4050-9354-c607ae4433bf","ios":"levelo://app?vid=413dc171-4546-4050-9354-c607ae4433bf"},"vehicle_type_id":"4","last_reported":1740434931,"current_range_meters":3600,"station_id":"","pricing_plan_id":"cebpf4jnsgd1na2vs0mg"},{"bike_id":"bfc97526-62a2-48cb-99f3-1b18aa89fa06","system_id":"levelo_inurba_marseille","lat":43.23185,"lon":5.39986,"is_reserved":false,"is_disabled":false,"rental_uris":{"android":"levelo://app?vid=bfc97526-62a2-48cb-99f3-1b18aa89fa06","ios":"levelo://app?vid=bfc97526-62a2-48cb-99f3-1b18aa89fa06"},"vehicle_type_id":"4","last_reported":1740434931,"current_range_meters":3200,"station_id":"ce4bhn12rcd13ifvqgqg","pricing_plan_id":"cebpf4jnsgd1na2vs0mg"},{"bike_id":"765fc17e-e50a-4f0b-83ff-e89b8206b447","system_id":"levelo_inurba_marseille","lat":43.28078,"lon":5.39664,"is_reserved":false,"is_disabled":true,"rental_uris":{"android":"levelo://app?vid=765fc17e-e50a-4f0b-83ff-e89b8206b447","ios":"levelo://app?vid=765fc17e-e50a-4f0b-83ff-e89b8206b447"},"vehicle_type_id":"4","last_reported":1740434931,"current_range_meters":3600,"station_id":"ce4bho12rcd13ifvqh2g","pricing_plan_id":"cebpf4jnsgd1na2vs0mg"},{"bike_id":"8c39fbcb-bc41-49a9-ad4d-cc55d2a50515","system_id":"levelo_inurba_marseille","lat":43.29521,"lon":5.39048,"is_reserved":false,"is_disabled":true,"rental_uris":{"android":"levelo://app?vid=8c39fbcb-bc41-49a9-ad4d-cc55d2a50515","ios":"levelo://app?vid=8c39fbcb-bc41-49a9-ad4d-cc55d2a50515"},"vehicle_type_id":"4","last_reported":1740434931,"current_range_meters":4000,"station_id":"ce4bh3p2rcd13ifvqdp0","pricing_plan_id":"cebpf4jnsgd1na2vs0mg"},{"bike_id":"b609ced8-e52f-4c2f-a3d6-07b4933dd33b","system_id":"levelo_inurba_marseille","lat":43.26213,"lon":5.40456,"is_reserved":false,"is_disabled":false,"rental_uris":{"android":"levelo://app?vid=b609ced8-e52f-4c2f-a3d6-07b4933dd33b","ios":"levelo://app?vid=b609ced8-e52f-4c2f-a3d6-07b4933dd33b"},"vehicle_type_id":"4","last_reported":1740434931,"current_range_meters":3600,"station_id":"ce4bhmh2rcd13ifvqgmg","pricing_plan_id":"cebpf4jnsgd1na2vs0mg"},{"bike_id":"665af2df-6860-409b-8f65-24d6bda5fd47","system_id":"levelo_inurba_marseille","lat":43.26567,"lon":5.39087,"is_reserved":false,"is_disabled":false,"rental_uris":{"android":"levelo://app?vid=665af2df-6860-409b-8f65-24d6bda5fd47","ios":"levelo://app?vid=665af2df-6860-409b-8f65-24d6bda5fd47"},"vehicle_type_id":"4","last_reported":1740434931,"current_range_meters":5600,"station_id":"ce4bhe12rcd13ifvqf30","pricing_plan_id":"cebpf4jnsgd1na2vs0mg"},{"bike_id":"76b417ec-d64b-4105-bb54-e1299d1ff102","system_id":"levelo_inurba_marseille","lat":43.27947,"lon":5.41039,"is_reserved":false,"is_disabled":true,"rental_uris":{"android":"levelo://app?vid=76b417ec-d64b-4105-bb54-e1299d1ff102","ios":"levelo://app?vid=76b417ec-d64b-4105-bb54-e1299d1ff102"},"vehicle_type_id":"4","last_reported":1740434931,"current_range_meters":4800,"station_id":"ce4bhnp2rcd13ifvqh0g","pricing_plan_id":"cebpf4jnsgd1na2vs0mg"},{"bike_id":"ae695e9d-e18f-4fc5-b553-bbc79bf561d1","system_id":"levelo_inurba_marseille","lat":43.27367,"lon":5.36259,"is_reserved":false,"is_disabled":false,"rental_uris":{"android":"levelo://app?vid=ae695e9d-e18f-4fc5-b553-bbc79bf561d1","ios":"levelo://app?vid=ae695e9d-e18f-4fc5-b553-bbc79bf561d1"},"vehicle_type_id":"4","last_reported":1740434931,"current_range_meters":1600,"station_id":"ce4bhbh2rcd13ifvqeo0","pricing_plan_id":"cebpf4jnsgd1na2vs0mg"},{"bike_id":"97d726ed-4183-4544-8274-4d89eaa2f547","system_id":"levelo_inurba_marseille","lat":43.25716,"lon":5.41125,"is_reserved":false,"is_disabled":false,"rental_uris":{"android":"levelo://app?vid=97d726ed-4183-4544-8274-4d89eaa2f547","ios":"levelo://app?vid=97d726ed-4183-4544-8274-4d89eaa2f547"},"vehicle_type_id":"4","last_reported":1740434931,"current_range_meters":6000,"station_id":"ce4bhkp2rcd13ifvqgd0","pricing_plan_id":"cebpf4jnsgd1na2vs0mg"},{"bike_id":"16a64962-c840-403e-8215-260ce50518b7","system_id":"levelo_inurba_marseille","lat":43.28156,"lon":5.42648,"is_reserved":false,"is_disabled":true,"rental_uris":{"android":"levelo://app?vid=16a64962-c840-403e-8215-260ce50518b7","ios":"levelo://app?vid=16a64962-c840-403e-8215-260ce50518b7"},"vehicle_type_id":"4","last_reported":1740434931,"current_range_meters":6400,"station_id":"ce4bhnh2rcd13ifvqgug","pricing_plan_id":"cebpf4jnsgd1na2vs0mg"},{"bike_id":"0423d920-4043-4652-b688-10bf2d3098cd","system_id":"levelo_inurba_marseille","lat":43.25583,"lon":5.38218,"is_reserved":false,"is_disabled":false,"rental_uris":{"android":"levelo://app?vid=0423d920-4043-4652-b688-10bf2d3098cd","ios":"levelo://app?vid=0423d920-4043-4652-b688-10bf2d3098cd"},"vehicle_type_id":"4","last_reported":1740434931,"current_range_meters":6400,"station_id":"ce4bhih2rcd13ifvqfs0","pricing_plan_id":"cebpf4jnsgd1na2vs0mg"},{"bike_id":"80655659-a270-46de-a2c1-6ad4df112438","system_id":"levelo_inurba_marseille","lat":43.25674,"lon":5.41908,"is_reserved":false,"is_disabled":false,"rental_uris":{"android":"levelo://app?vid=80655659-a270-46de-a2c1-6ad4df112438","ios":"levelo://app?vid=80655659-a270-46de-a2c1-6ad4df112438"},"vehicle_type_id":"4","last_reported":1740434931,"current_range_meters":6800,"station_id":"","pricing_plan_id":"cebpf4jnsgd1na2vs0mg"},{"bike_id":"4bdb11ed-2e69-4a29-89f4-73b2de8e29b1","system_id":"levelo_inurba_marseille","lat":43.24544,"lon":5.3956,"is_reserved":false,"is_disabled":false,"rental_uris":{"android":"levelo://app?vid=4bdb11ed-2e69-4a29-89f4-73b2de8e29b1","ios":"levelo://app?vid=4bdb11ed-2e69-4a29-89f4-73b2de8e29b1"},"vehicle_type_id":"4","last_reported":1740434931,"current_range_meters":6400,"station_id":"ce4bhlp2rcd13ifvqgjg","pricing_plan_id":"cebpf4jnsgd1na2vs0mg"},{"bike_id":"7764cb33-5426-4b94-909c-ac480986db17","system_id":"levelo_inurba_marseille","lat":43.29341,"lon":5.37254,"is_reserved":false,"is_disabled":false,"rental_uris":{"android":"levelo://app?vid=7764cb33-5426-4b94-909c-ac480986db17","ios":"levelo://app?vid=7764cb33-5426-4b94-909c-ac480986db17"},"vehicle_type_id":"4","last_reported":1740434931,"current_range_meters":6400,"station_id":"","pricing_plan_id":"cebpf4jnsgd1na2vs0mg"},{"bike_id":"96abab4b-c5af-4f9f-ae32-aba47129cb81","system_id":"levelo_inurba_marseille","lat":43.26229,"lon":5.40453,"is_reserved":false,"is_disabled":false,"rental_uris":{"android":"levelo://app?vid=96abab4b-c5af-4f9f-ae32-aba47129cb81","ios":"levelo://app?vid=96abab4b-c5af-4f9f-ae32-aba47129cb81"},"vehicle_type_id":"4","last_reported":1740434931,"current_range_meters":6800,"station_id":"ce4bhmh2rcd13ifvqgmg","pricing_plan_id":"cebpf4jnsgd1na2vs0mg"},{"bike_id":"4e76829f-70cf-4d94-80fd-c186bc55f908","system_id":"levelo_inurba_marseille","lat":43.279883,"lon":5.416641,"is_reserved":false,"is_disabled":false,"rental_uris":{"android":"levelo://app?vid=4e76829f-70cf-4d94-80fd-c186bc55f908","ios":"levelo://app?vid=4e76829f-70cf-4d94-80fd-c186bc55f908"},"vehicle_type_id":"4","last_reported":1740434931,"current_range_meters":6800,"station_id":"ce4bho12rcd13ifvqh1g","pricing_plan_id":"cebpf4jnsgd1na2vs0mg"},{"bike_id":"079ede2b-32fe-4362-bd93-5c53508ec4a3","system_id":"levelo_inurba_marseille","lat":43.32367,"lon":5.38882,"is_reserved":false,"is_disabled":false,"rental_uris":{"android":"levelo://app?vid=079ede2b-32fe-4362-bd93-5c53508ec4a3","ios":"levelo://app?vid=079ede2b-32fe-4362-bd93-5c53508ec4a3"},"vehicle_type_id":"4","last_reported":1740434931,"current_range_meters":6800,"station_id":"ce4bhqp2rcd13ifvqhog","pricing_plan_id":"cebpf4jnsgd1na2vs0mg"},{"bike_id":"bddf8e7b-3da7-4773-b7ae-9c6dd1337414","system_id":"levelo_inurba_marseille","lat":43.28148,"lon":5.42643,"is_reserved":false,"is_disabled":false,"rental_uris":{"android":"levelo://app?vid=bddf8e7b-3da7-4773-b7ae-9c6dd1337414","ios":"levelo://app?vid=bddf8e7b-3da7-4773-b7ae-9c6dd1337414"},"vehicle_type_id":"4","last_reported":1740434931,"current_range_meters":7200,"station_id":"ce4bhnh2rcd13ifvqgug","pricing_plan_id":"cebpf4jnsgd1na2vs0mg"},{"bike_id":"872afaaa-bd53-4f3a-b6c6-c3ab0e1ee98f","system_id":"levelo_inurba_marseille","lat":43.29883,"lon":5.38901,"is_reserved":false,"is_disabled":false,"rental_uris":{"android":"levelo://app?vid=872afaaa-bd53-4f3a-b6c6-c3ab0e1ee98f","ios":"levelo://app?vid=872afaaa-bd53-4f3a-b6c6-c3ab0e1ee98f"},"vehicle_type_id":"4","last_reported":1740434931,"current_range_meters":7200,"station_id":"ce4bh392rcd13ifvqdl0","pricing_plan_id":"cebpf4jnsgd1na2vs0mg"},{"bike_id":"59422e92-f9f1-4326-97e8-7da3700ed321","system_id":"levelo_inurba_marseille","lat":43.264946,"lon":5.39541,"is_reserved":false,"is_disabled":false,"rental_uris":{"android":"levelo://app?vid=59422e92-f9f1-4326-97e8-7da3700ed321","ios":"levelo://app?vid=59422e92-f9f1-4326-97e8-7da3700ed321"},"vehicle_type_id":"4","last_reported":1740434931,"current_range_meters":8000,"station_id":"ce4bh312rcd13ifvqdj0","pricing_plan_id":"cebpf4jnsgd1na2vs0mg"},{"bike_id":"3e3bde6f-8dc0-41cf-8fe6-f850e893e1da","system_id":"levelo_inurba_marseille","lat":43.27947,"lon":5.41043,"is_reserved":false,"is_disabled":false,"rental_uris":{"android":"levelo://app?vid=3e3bde6f-8dc0-41cf-8fe6-f850e893e1da","ios":"levelo://app?vid=3e3bde6f-8dc0-41cf-8fe6-f850e893e1da"},"vehicle_type_id":"4","last_reported":1740434931,"current_range_meters":7200,"station_id":"ce4bhnp2rcd13ifvqh0g","pricing_plan_id":"cebpf4jnsgd1na2vs0mg"},{"bike_id":"2ce5a7a3-ebc5-4542-8581-83c42fa52a52","system_id":"levelo_inurba_marseille","lat":43.30933,"lon":5.39049,"is_reserved":false,"is_disabled":true,"rental_uris":{"android":"levelo://app?vid=2ce5a7a3-ebc5-4542-8581-83c42fa52a52","ios":"levelo://app?vid=2ce5a7a3-ebc5-4542-8581-83c42fa52a52"},"vehicle_type_id":"4","last_reported":1740434931,"current_range_meters":8400,"station_id":"ce4bgup2rcd13ifvqco0","pricing_plan_id":"cebpf4jnsgd1na2vs0mg"},{"bike_id":"9912bd3b-182f-467c-92db-65e052c11af3","system_id":"levelo_inurba_marseille","lat":43.242607,"lon":5.438386,"is_reserved":false,"is_disabled":false,"rental_uris":{"android":"levelo://app?vid=9912bd3b-182f-467c-92db-65e052c11af3","ios":"levelo://app?vid=9912bd3b-182f-467c-92db-65e052c11af3"},"vehicle_type_id":"4","last_reported":1740434931,"current_range_meters":8000,"station_id":"","pricing_plan_id":"cebpf4jnsgd1na2vs0mg"},{"bike_id":"735470d2-1397-44a5-b56e-f70aa7aef316","system_id":"levelo_inurba_marseille","lat":43.25112,"lon":5.40323,"is_reserved":false,"is_disabled":false,"rental_uris":{"android":"levelo://app?vid=735470d2-1397-44a5-b56e-f70aa7aef316","ios":"levelo://app?vid=735470d2-1397-44a5-b56e-f70aa7aef316"},"vehicle_type_id":"4","last_reported":1740434931,"current_range_meters":1600,"station_id":"ce4bhlh2rcd13ifvqgig","pricing_plan_id":"cebpf4jnsgd1na2vs0mg"},{"bike_id":"87bbda1f-0db0-4d79-a046-a87b5e94995a","system_id":"levelo_inurba_marseille","lat":43.24169,"lon":5.36397,"is_reserved":false,"is_disabled":false,"rental_uris":{"android":"levelo://app?vid=87bbda1f-0db0-4d79-a046-a87b5e94995a","ios":"levelo://app?vid=87bbda1f-0db0-4d79-a046-a87b5e94995a"},"vehicle_type_id":"4","last_reported":1740434931,"current_range_meters":8400,"station_id":"cpo36qri1sfpv3e86is0","pricing_plan_id":"cebpf4jnsgd1na2vs0mg"},{"bike_id":"f80a79d6-1c74-4e76-8ed2-23203ade1d35","system_id":"levelo_inurba_marseille","lat":43.27822,"lon":5.40672,"is_reserved":false,"is_disabled":false,"rental_uris":{"android":"levelo://app?vid=f80a79d6-1c74-4e76-8ed2-23203ade1d35","ios":"levelo://app?vid=f80a79d6-1c74-4e76-8ed2-23203ade1d35"},"vehicle_type_id":"4","last_reported":1740434931,"current_range_meters":8400,"station_id":"ce4bhnh2rcd13ifvqgtg","pricing_plan_id":"cebpf4jnsgd1na2vs0mg"},{"bike_id":"216bb77f-c769-4011-8970-e66d63254aa2","system_id":"levelo_inurba_marseille","lat":43.29918,"lon":5.37853,"is_reserved":false,"is_disabled":false,"rental_uris":{"android":"levelo://app?vid=216bb77f-c769-4011-8970-e66d63254aa2","ios":"levelo://app?vid=216bb77f-c769-4011-8970-e66d63254aa2"},"vehicle_type_id":"4","last_reported":1740434931,"current_range_meters":8800,"station_id":"","pricing_plan_id":"cebpf4jnsgd1na2vs0mg"},{"bike_id":"4c676afd-aabb-48c7-9c62-f89205cd3f4a","system_id":"levelo_inurba_marseille","lat":43.27812,"lon":5.40714,"is_reserved":false,"is_disabled":false,"rental_uris":{"android":"levelo://app?vid=4c676afd-aabb-48c7-9c62-f89205cd3f4a","ios":"levelo://app?vid=4c676afd-aabb-48c7-9c62-f89205cd3f4a"},"vehicle_type_id":"4","last_reported":1740434931,"current_range_meters":8400,"station_id":"ce4bhnh2rcd13ifvqgtg","pricing_plan_id":"cebpf4jnsgd1na2vs0mg"},{"bike_id":"99e11aa5-2a69-4b97-b202-0544f0eb0875","system_id":"levelo_inurba_marseille","lat":43.27996,"lon":5.41667,"is_reserved":false,"is_disabled":false,"rental_uris":{"android":"levelo://app?vid=99e11aa5-2a69-4b97-b202-0544f0eb0875","ios":"levelo://app?vid=99e11aa5-2a69-4b97-b202-0544f0eb0875"},"vehicle_type_id":"4","last_reported":1740434931,"current_range_meters":8400,"station_id":"ce4bho12rcd13ifvqh1g","pricing_plan_id":"cebpf4jnsgd1na2vs0mg"},{"bike_id":"7e26a3e9-4c57-4918-aa17-698a0ce4ac78","system_id":"levelo_inurba_marseille","lat":43.30692,"lon":5.37495,"is_reserved":false,"is_disabled":false,"rental_uris":{"android":"levelo://app?vid=7e26a3e9-4c57-4918-aa17-698a0ce4ac78","ios":"levelo://app?vid=7e26a3e9-4c57-4918-aa17-698a0ce4ac78"},"vehicle_type_id":"4","last_reported":1740434931,"current_range_meters":8400,"station_id":"","pricing_plan_id":"cebpf4jnsgd1na2vs0mg"},{"bike_id":"17da1feb-9abe-4e1d-9544-5a842d8f1b8a","system_id":"levelo_inurba_marseille","lat":43.27809,"lon":5.40722,"is_reserved":false,"is_disabled":false,"rental_uris":{"android":"levelo://app?vid=17da1feb-9abe-4e1d-9544-5a842d8f1b8a","ios":"levelo://app?vid=17da1feb-9abe-4e1d-9544-5a842d8f1b8a"},"vehicle_type_id":"4","last_reported":1740434931,"current_range_meters":8400,"station_id":"ce4bhnh2rcd13ifvqgtg","pricing_plan_id":"cebpf4jnsgd1na2vs0mg"},{"bike_id":"5b7b3143-c922-4b62-9780-1c8638559b87","system_id":"levelo_inurba_marseille","lat":43.31657,"lon":5.39622,"is_reserved":false,"is_disabled":false,"rental_uris":{"android":"levelo://app?vid=5b7b3143-c922-4b62-9780-1c8638559b87","ios":"levelo://app?vid=5b7b3143-c922-4b62-9780-1c8638559b87"},"vehicle_type_id":"4","last_reported":1740434931,"current_range_meters":8800,"station_id":"","pricing_plan_id":"cebpf4jnsgd1na2vs0mg"},{"bike_id":"5f618fd8-4c1d-4b98-9d96-80413e9c5e2b","system_id":"levelo_inurba_marseille","lat":43.32349,"lon":5.4062,"is_reserved":false,"is_disabled":true,"rental_uris":{"android":"levelo://app?vid=5f618fd8-4c1d-4b98-9d96-80413e9c5e2b","ios":"levelo://app?vid=5f618fd8-4c1d-4b98-9d96-80413e9c5e2b"},"vehicle_type_id":"4","last_reported":1740434931,"current_range_meters":8800,"station_id":"ce4bhq92rcd13ifvqhjg","pricing_plan_id":"cebpf4jnsgd1na2vs0mg"},{"bike_id":"bd1c9204-109d-453d-a655-cc2878aad0c5","system_id":"levelo_inurba_marseille","lat":43.29905,"lon":5.43668,"is_reserved":false,"is_disabled":false,"rental_uris":{"android":"levelo://app?vid=bd1c9204-109d-453d-a655-cc2878aad0c5","ios":"levelo://app?vid=bd1c9204-109d-453d-a655-cc2878aad0c5"},"vehicle_type_id":"4","last_reported":1740434931,"current_range_meters":8800,"station_id":"ce4bhpp2rcd13ifvqhfg","pricing_plan_id":"cebpf4jnsgd1na2vs0mg"},{"bike_id":"b2e3ecc5-9178-4f96-a507-539eb2bf82c4","system_id":"levelo_inurba_marseille","lat":43.32364,"lon":5.38878,"is_reserved":false,"is_disabled":false,"rental_uris":{"android":"levelo://app?vid=b2e3ecc5-9178-4f96-a507-539eb2bf82c4","ios":"levelo://app?vid=b2e3ecc5-9178-4f96-a507-539eb2bf82c4"},"vehicle_type_id":"4","last_reported":1740434931,"current_range_meters":9200,"station_id":"ce4bhqp2rcd13ifvqhog","pricing_plan_id":"cebpf4jnsgd1na2vs0mg"},{"bike_id":"838cbc23-851d-4061-951a-ef34293e55b4","system_id":"levelo_inurba_marseille","lat":43.30356,"lon":5.41878,"is_reserved":false,"is_disabled":false,"rental_uris":{"android":"levelo://app?vid=838cbc23-851d-4061-951a-ef34293e55b4","ios":"levelo://app?vid=838cbc23-851d-4061-951a-ef34293e55b4"},"vehicle_type_id":"4","last_reported":1740434931,"current_range_meters":8800,"station_id":"ce4bhop2rcd13ifvqh7g","pricing_plan_id":"cebpf4jnsgd1na2vs0mg"},{"bike_id":"8788e12a-f05c-45b2-9570-f7c7ac9b560c","system_id":"levelo_inurba_marseille","lat":43.27929,"lon":5.41054,"is_reserved":false,"is_disabled":false,"rental_uris":{"android":"levelo://app?vid=8788e12a-f05c-45b2-9570-f7c7ac9b560c","ios":"levelo://app?vid=8788e12a-f05c-45b2-9570-f7c7ac9b560c"},"vehicle_type_id":"4","last_reported":1740434931,"current_range_meters":9200,"station_id":"ce4bhnp2rcd13ifvqh0g","pricing_plan_id":"cebpf4jnsgd1na2vs0mg"},{"bike_id":"e49232ce-36e0-478c-a319-bb8d76abfc7f","system_id":"levelo_inurba_marseille","lat":43.29719,"lon":5.36605,"is_reserved":false,"is_disabled":false,"rental_uris":{"android":"levelo://app?vid=e49232ce-36e0-478c-a319-bb8d76abfc7f","ios":"levelo://app?vid=e49232ce-36e0-478c-a319-bb8d76abfc7f"},"vehicle_type_id":"4","last_reported":1740434931,"current_range_meters":9600,"station_id":"ce4bgn12rcd13ifvqbt0","pricing_plan_id":"cebpf4jnsgd1na2vs0mg"},{"bike_id":"f5e523f2-246d-474c-808f-a050215d7059","system_id":"levelo_inurba_marseille","lat":43.23195,"lon":5.35595,"is_reserved":false,"is_disabled":false,"rental_uris":{"android":"levelo://app?vid=f5e523f2-246d-474c-808f-a050215d7059","ios":"levelo://app?vid=f5e523f2-246d-474c-808f-a050215d7059"},"vehicle_type_id":"4","last_reported":1740434931,"current_range_meters":9600,"station_id":"ce4bhu92rcd13ifvqi70","pricing_plan_id":"cebpf4jnsgd1na2vs0mg"},{"bike_id":"044b4f75-9277-46f1-b9dc-51a9b2d09618","system_id":"levelo_inurba_marseille","lat":43.2705,"lon":5.40261,"is_reserved":false,"is_disabled":false,"rental_uris":{"android":"levelo://app?vid=044b4f75-9277-46f1-b9dc-51a9b2d09618","ios":"levelo://app?vid=044b4f75-9277-46f1-b9dc-51a9b2d09618"},"vehicle_type_id":"4","last_reported":1740434931,"current_range_meters":12000,"station_id":"ce4bhk92rcd13ifvqgc0","pricing_plan_id":"cebpf4jnsgd1na2vs0mg"},{"bike_id":"da0a113e-a981-49bc-a2b9-3bea86e6c760","system_id":"levelo_inurba_marseille","lat":43.31279,"lon":5.40166,"is_reserved":false,"is_disabled":false,"rental_uris":{"android":"levelo://app?vid=da0a113e-a981-49bc-a2b9-3bea86e6c760","ios":"levelo://app?vid=da0a113e-a981-49bc-a2b9-3bea86e6c760"},"vehicle_type_id":"4","last_reported":1740434931,"current_range_meters":9600,"station_id":"ce4bh092rcd13ifvqd30","pricing_plan_id":"cebpf4jnsgd1na2vs0mg"},{"bike_id":"a03f1e5c-6ee2-493b-8528-d8322245ef54","system_id":"levelo_inurba_marseille","lat":43.2791,"lon":5.39583,"is_reserved":false,"is_disabled":false,"rental_uris":{"android":"levelo://app?vid=a03f1e5c-6ee2-493b-8528-d8322245ef54","ios":"levelo://app?vid=a03f1e5c-6ee2-493b-8528-d8322245ef54"},"vehicle_type_id":"4","last_reported":1740434931,"current_range_meters":9600,"station_id":"ce4bhf92rcd13ifvqf40","pricing_plan_id":"cebpf4jnsgd1na2vs0mg"},{"bike_id":"446313c8-37fc-4f36-b9c3-a1d481dfb62b","system_id":"levelo_inurba_marseille","lat":43.26813,"lon":5.41129,"is_reserved":false,"is_disabled":false,"rental_uris":{"android":"levelo://app?vid=446313c8-37fc-4f36-b9c3-a1d481dfb62b","ios":"levelo://app?vid=446313c8-37fc-4f36-b9c3-a1d481dfb62b"},"vehicle_type_id":"4","last_reported":1740434931,"current_range_meters":10000,"station_id":"","pricing_plan_id":"cebpf4jnsgd1na2vs0mg"},{"bike_id":"ab771808-fdf6-4ffc-9b5a-6ec6f2d5aa30","system_id":"levelo_inurba_marseille","lat":43.29696,"lon":5.36606,"is_reserved":false,"is_disabled":false,"rental_uris":{"android":"levelo://app?vid=ab771808-fdf6-4ffc-9b5a-6ec6f2d5aa30","ios":"levelo://app?vid=ab771808-fdf6-4ffc-9b5a-6ec6f2d5aa30"},"vehicle_type_id":"4","last_reported":1740434931,"current_range_meters":10000,"station_id":"ce4bgn12rcd13ifvqbt0","pricing_plan_id":"cebpf4jnsgd1na2vs0mg"},{"bike_id":"294edc22-1901-4d5e-bb34-9bc4f65c5bd4","system_id":"levelo_inurba_marseille","lat":43.23177,"lon":5.39994,"is_reserved":false,"is_disabled":false,"rental_uris":{"android":"levelo://app?vid=294edc22-1901-4d5e-bb34-9bc4f65c5bd4","ios":"levelo://app?vid=294edc22-1901-4d5e-bb34-9bc4f65c5bd4"},"vehicle_type_id":"4","last_reported":1740434931,"current_range_meters":10000,"station_id":"ce4bhn12rcd13ifvqgqg","pricing_plan_id":"cebpf4jnsgd1na2vs0mg"},{"bike_id":"b72264de-d072-4c80-b404-f4b5240a1b06","system_id":"levelo_inurba_marseille","lat":43.2954,"lon":5.38538,"is_reserved":false,"is_disabled":false,"rental_uris":{"android":"levelo://app?vid=b72264de-d072-4c80-b404-f4b5240a1b06","ios":"levelo://app?vid=b72264de-d072-4c80-b404-f4b5240a1b06"},"vehicle_type_id":"4","last_reported":1740434931,"current_range_meters":10000,"station_id":"ce4bgih2rcd13ifvqba0","pricing_plan_id":"cebpf4jnsgd1na2vs0mg"},{"bike_id":"37df152e-bb86-475e-91f1-cd8724bc9c17","system_id":"levelo_inurba_marseille","lat":43.31759,"lon":5.39011,"is_reserved":false,"is_disabled":false,"rental_uris":{"android":"levelo://app?vid=37df152e-bb86-475e-91f1-cd8724bc9c17","ios":"levelo://app?vid=37df152e-bb86-475e-91f1-cd8724bc9c17"},"vehicle_type_id":"4","last_reported":1740434931,"current_range_meters":9600,"station_id":"ce4bhqp2rcd13ifvqhng","pricing_plan_id":"cebpf4jnsgd1na2vs0mg"},{"bike_id":"1a0b050f-f33f-48d2-9894-613d93a341cc","system_id":"levelo_inurba_marseille","lat":43.23213,"lon":5.39957,"is_reserved":false,"is_disabled":false,"rental_uris":{"android":"levelo://app?vid=1a0b050f-f33f-48d2-9894-613d93a341cc","ios":"levelo://app?vid=1a0b050f-f33f-48d2-9894-613d93a341cc"},"vehicle_type_id":"4","last_reported":1740434931,"current_range_meters":10800,"station_id":"ce4bhn12rcd13ifvqgqg","pricing_plan_id":"cebpf4jnsgd1na2vs0mg"},{"bike_id":"19a8f35e-59c5-4bff-a8e1-1e0d52f1d0ca","system_id":"levelo_inurba_marseille","lat":43.28436,"lon":5.39186,"is_reserved":false,"is_disabled":false,"rental_uris":{"android":"levelo://app?vid=19a8f35e-59c5-4bff-a8e1-1e0d52f1d0ca","ios":"levelo://app?vid=19a8f35e-59c5-4bff-a8e1-1e0d52f1d0ca"},"vehicle_type_id":"4","last_reported":1740434931,"current_range_meters":10800,"station_id":"ce4bhoh2rcd13ifvqh5g","pricing_plan_id":"cebpf4jnsgd1na2vs0mg"},{"bike_id":"e37ffcf5-bb0c-47f5-a826-7f04d919fa4b","system_id":"levelo_inurba_marseille","lat":43.28454,"lon":5.35909,"is_reserved":false,"is_disabled":false,"rental_uris":{"android":"levelo://app?vid=e37ffcf5-bb0c-47f5-a826-7f04d919fa4b","ios":"levelo://app?vid=e37ffcf5-bb0c-47f5-a826-7f04d919fa4b"},"vehicle_type_id":"4","last_reported":1740434931,"current_range_meters":11200,"station_id":"ce4bhah2rcd13ifvqei0","pricing_plan_id":"cebpf4jnsgd1na2vs0mg"},{"bike_id":"d525ca76-caa8-4a03-90d9-340115dcba41","system_id":"levelo_inurba_marseille","lat":43.29866,"lon":5.38857,"is_reserved":false,"is_disabled":false,"rental_uris":{"android":"levelo://app?vid=d525ca76-caa8-4a03-90d9-340115dcba41","ios":"levelo://app?vid=d525ca76-caa8-4a03-90d9-340115dcba41"},"vehicle_type_id":"4","last_reported":1740434931,"current_range_meters":10800,"station_id":"ce4bh392rcd13ifvqdl0","pricing_plan_id":"cebpf4jnsgd1na2vs0mg"},{"bike_id":"545f68d9-63a2-4948-a6b8-8f51f7c5f52a","system_id":"levelo_inurba_marseille","lat":43.2826,"lon":5.35064,"is_reserved":false,"is_disabled":false,"rental_uris":{"android":"levelo://app?vid=545f68d9-63a2-4948-a6b8-8f51f7c5f52a","ios":"levelo://app?vid=545f68d9-63a2-4948-a6b8-8f51f7c5f52a"},"vehicle_type_id":"4","last_reported":1740434931,"current_range_meters":11200,"station_id":"ce4bhbp2rcd13ifvqerg","pricing_plan_id":"cebpf4jnsgd1na2vs0mg"},{"bike_id":"60b558e9-c2ce-4e57-905e-a11156fb05d2","system_id":"levelo_inurba_marseille","lat":43.29874,"lon":5.38937,"is_reserved":false,"is_disabled":false,"rental_uris":{"android":"levelo://app?vid=60b558e9-c2ce-4e57-905e-a11156fb05d2","ios":"levelo://app?vid=60b558e9-c2ce-4e57-905e-a11156fb05d2"},"vehicle_type_id":"4","last_reported":1740434931,"current_range_meters":10800,"station_id":"ce4bh392rcd13ifvqdl0","pricing_plan_id":"cebpf4jnsgd1na2vs0mg"},{"bike_id":"7a54af2b-83b1-4aee-8413-844b3f79ac9e","system_id":"levelo_inurba_marseille","lat":43.31358,"lon":5.38491,"is_reserved":false,"is_disabled":false,"rental_uris":{"android":"levelo://app?vid=7a54af2b-83b1-4aee-8413-844b3f79ac9e","ios":"levelo://app?vid=7a54af2b-83b1-4aee-8413-844b3f79ac9e"},"vehicle_type_id":"4","last_reported":1740434931,"current_range_meters":10800,"station_id":"ce4bgt92rcd13ifvqcf0","pricing_plan_id":"cebpf4jnsgd1na2vs0mg"},{"bike_id":"abf0d019-05c2-4831-8e31-d690223b44e1","system_id":"levelo_inurba_marseille","lat":43.29023,"lon":5.38637,"is_reserved":false,"is_disabled":false,"rental_uris":{"android":"levelo://app?vid=abf0d019-05c2-4831-8e31-d690223b44e1","ios":"levelo://app?vid=abf0d019-05c2-4831-8e31-d690223b44e1"},"vehicle_type_id":"4","last_reported":1740434931,"current_range_meters":11200,"station_id":"ce4bh4p2rcd13ifvqe0g","pricing_plan_id":"cebpf4jnsgd1na2vs0mg"},{"bike_id":"d6e9473b-dc2e-415e-a49b-32762a351f28","system_id":"levelo_inurba_marseille","lat":43.28842,"lon":5.35865,"is_reserved":false,"is_disabled":false,"rental_uris":{"android":"levelo://app?vid=d6e9473b-dc2e-415e-a49b-32762a351f28","ios":"levelo://app?vid=d6e9473b-dc2e-415e-a49b-32762a351f28"},"vehicle_type_id":"4","last_reported":1740434931,"current_range_meters":11200,"station_id":"ce4bhb12rcd13ifvqem0","pricing_plan_id":"cebpf4jnsgd1na2vs0mg"},{"bike_id":"ce08e129-3210-4784-8e00-3661099c392d","system_id":"levelo_inurba_marseille","lat":43.29888,"lon":5.43679,"is_reserved":false,"is_disabled":false,"rental_uris":{"android":"levelo://app?vid=ce08e129-3210-4784-8e00-3661099c392d","ios":"levelo://app?vid=ce08e129-3210-4784-8e00-3661099c392d"},"vehicle_type_id":"4","last_reported":1740434931,"current_range_meters":11200,"station_id":"ce4bhpp2rcd13ifvqhfg","pricing_plan_id":"cebpf4jnsgd1na2vs0mg"},{"bike_id":"43283546-0c6f-4116-b0be-3b4e91fa7c5f","system_id":"levelo_inurba_marseille","lat":43.29419,"lon":5.38522,"is_reserved":false,"is_disabled":false,"rental_uris":{"android":"levelo://app?vid=43283546-0c6f-4116-b0be-3b4e91fa7c5f","ios":"levelo://app?vid=43283546-0c6f-4116-b0be-3b4e91fa7c5f"},"vehicle_type_id":"4","last_reported":1740434931,"current_range_meters":11200,"station_id":"","pricing_plan_id":"cebpf4jnsgd1na2vs0mg"},{"bike_id":"f3e2d31b-bf16-4d93-8358-e1b5fc69cdb1","system_id":"levelo_inurba_marseille","lat":43.28095,"lon":5.3986,"is_reserved":false,"is_disabled":false,"rental_uris":{"android":"levelo://app?vid=f3e2d31b-bf16-4d93-8358-e1b5fc69cdb1","ios":"levelo://app?vid=f3e2d31b-bf16-4d93-8358-e1b5fc69cdb1"},"vehicle_type_id":"4","last_reported":1740434931,"current_range_meters":11200,"station_id":"","pricing_plan_id":"cebpf4jnsgd1na2vs0mg"},{"bike_id":"0d86b6de-ddbd-4bbb-9bf1-ef0af2e74c96","system_id":"levelo_inurba_marseille","lat":43.2681,"lon":5.40259,"is_reserved":false,"is_disabled":false,"rental_uris":{"android":"levelo://app?vid=0d86b6de-ddbd-4bbb-9bf1-ef0af2e74c96","ios":"levelo://app?vid=0d86b6de-ddbd-4bbb-9bf1-ef0af2e74c96"},"vehicle_type_id":"4","last_reported":1740434931,"current_range_meters":11200,"station_id":"ce501612rcd8frsf0b60","pricing_plan_id":"cebpf4jnsgd1na2vs0mg"},{"bike_id":"054a8c13-e003-4a19-8213-3d429c22f36e","system_id":"levelo_inurba_marseille","lat":43.241637,"lon":5.363926,"is_reserved":false,"is_disabled":false,"rental_uris":{"android":"levelo://app?vid=054a8c13-e003-4a19-8213-3d429c22f36e","ios":"levelo://app?vid=054a8c13-e003-4a19-8213-3d429c22f36e"},"vehicle_type_id":"4","last_reported":1740434931,"current_range_meters":11600,"station_id":"cpo36qri1sfpv3e86is0","pricing_plan_id":"cebpf4jnsgd1na2vs0mg"},{"bike_id":"7017dd5d-52f3-4f63-b9b0-ffdb8d04bba3","system_id":"levelo_inurba_marseille","lat":43.29713,"lon":5.38419,"is_reserved":false,"is_disabled":false,"rental_uris":{"android":"levelo://app?vid=7017dd5d-52f3-4f63-b9b0-ffdb8d04bba3","ios":"levelo://app?vid=7017dd5d-52f3-4f63-b9b0-ffdb8d04bba3"},"vehicle_type_id":"4","last_reported":1740434931,"current_range_meters":11600,"station_id":"","pricing_plan_id":"cebpf4jnsgd1na2vs0mg"},{"bike_id":"cafd7f33-9808-404a-b6af-22e15a18d7e0","system_id":"levelo_inurba_marseille","lat":43.29051,"lon":5.35906,"is_reserved":false,"is_disabled":false,"rental_uris":{"android":"levelo://app?vid=cafd7f33-9808-404a-b6af-22e15a18d7e0","ios":"levelo://app?vid=cafd7f33-9808-404a-b6af-22e15a18d7e0"},"vehicle_type_id":"4","last_reported":1740434931,"current_range_meters":12000,"station_id":"ce4bha92rcd13ifvqeg0","pricing_plan_id":"cebpf4jnsgd1na2vs0mg"},{"bike_id":"7333f5f0-71fa-4cf2-9e94-a5d02574b956","system_id":"levelo_inurba_marseille","lat":43.2835,"lon":5.38646,"is_reserved":false,"is_disabled":false,"rental_uris":{"android":"levelo://app?vid=7333f5f0-71fa-4cf2-9e94-a5d02574b956","ios":"levelo://app?vid=7333f5f0-71fa-4cf2-9e94-a5d02574b956"},"vehicle_type_id":"4","last_reported":1740434931,"current_range_meters":12000,"station_id":"ce4bh492rcd13ifvqdvg","pricing_plan_id":"cebpf4jnsgd1na2vs0mg"},{"bike_id":"1a0800cc-db12-4d19-b417-0b86d50c26de","system_id":"levelo_inurba_marseille","lat":43.26556,"lon":5.37282,"is_reserved":false,"is_disabled":false,"rental_uris":{"android":"levelo://app?vid=1a0800cc-db12-4d19-b417-0b86d50c26de","ios":"levelo://app?vid=1a0800cc-db12-4d19-b417-0b86d50c26de"},"vehicle_type_id":"4","last_reported":1740434931,"current_range_meters":12400,"station_id":"ce4bhg12rcd13ifvqf70","pricing_plan_id":"cebpf4jnsgd1na2vs0mg"},{"bike_id":"c8ac5d5c-ac5b-42a0-b37c-1ee0be279889","system_id":"levelo_inurba_marseille","lat":43.2884,"lon":5.35862,"is_reserved":false,"is_disabled":false,"rental_uris":{"android":"levelo://app?vid=c8ac5d5c-ac5b-42a0-b37c-1ee0be279889","ios":"levelo://app?vid=c8ac5d5c-ac5b-42a0-b37c-1ee0be279889"},"vehicle_type_id":"4","last_reported":1740434931,"current_range_meters":12000,"station_id":"ce4bhb12rcd13ifvqem0","pricing_plan_id":"cebpf4jnsgd1na2vs0mg"},{"bike_id":"0bad05ad-939e-4072-80eb-2d68e698bd0b","system_id":"levelo_inurba_marseille","lat":43.2978,"lon":5.39349,"is_reserved":false,"is_disabled":false,"rental_uris":{"android":"levelo://app?vid=0bad05ad-939e-4072-80eb-2d68e698bd0b","ios":"levelo://app?vid=0bad05ad-939e-4072-80eb-2d68e698bd0b"},"vehicle_type_id":"4","last_reported":1740434931,"current_range_meters":12400,"station_id":"chh1huq6cuj3fo74tm60","pricing_plan_id":"cebpf4jnsgd1na2vs0mg"},{"bike_id":"0338d931-1b59-4131-9010-881f558f192e","system_id":"levelo_inurba_marseille","lat":43.28851,"lon":5.35854,"is_reserved":false,"is_disabled":false,"rental_uris":{"android":"levelo://app?vid=0338d931-1b59-4131-9010-881f558f192e","ios":"levelo://app?vid=0338d931-1b59-4131-9010-881f558f192e"},"vehicle_type_id":"4","last_reported":1740434931,"current_range_meters":12800,"station_id":"ce4bhb12rcd13ifvqem0","pricing_plan_id":"cebpf4jnsgd1na2vs0mg"},{"bike_id":"c806e66a-ae05-45b4-b912-01c1e8730711","system_id":"levelo_inurba_marseille","lat":43.293023,"lon":5.371558,"is_reserved":false,"is_disabled":false,"rental_uris":{"android":"levelo://app?vid=c806e66a-ae05-45b4-b912-01c1e8730711","ios":"levelo://app?vid=c806e66a-ae05-45b4-b912-01c1e8730711"},"vehicle_type_id":"4","last_reported":1740434931,"current_range_meters":12400,"station_id":"ce4bgh92rcd13ifvqb40","pricing_plan_id":"cebpf4jnsgd1na2vs0mg"},{"bike_id":"130ab319-f673-4e36-9717-343d196c6cce","system_id":"levelo_inurba_marseille","lat":43.23176,"lon":5.40004,"is_reserved":false,"is_disabled":false,"rental_uris":{"android":"levelo://app?vid=130ab319-f673-4e36-9717-343d196c6cce","ios":"levelo://app?vid=130ab319-f673-4e36-9717-343d196c6cce"},"vehicle_type_id":"4","last_reported":1740434931,"current_range_meters":12400,"station_id":"ce4bhn12rcd13ifvqgqg","pricing_plan_id":"cebpf4jnsgd1na2vs0mg"},{"bike_id":"d90fc6d7-871e-4fc4-950b-c963063affa1","system_id":"levelo_inurba_marseille","lat":43.25087,"lon":5.39511,"is_reserved":false,"is_disabled":false,"rental_uris":{"android":"levelo://app?vid=d90fc6d7-871e-4fc4-950b-c963063affa1","ios":"levelo://app?vid=d90fc6d7-871e-4fc4-950b-c963063affa1"},"vehicle_type_id":"4","last_reported":1740434931,"current_range_meters":12800,"station_id":"ce4bhm12rcd13ifvqgkg","pricing_plan_id":"cebpf4jnsgd1na2vs0mg"},{"bike_id":"7f181951-663b-4b43-bc95-635b70105685","system_id":"levelo_inurba_marseille","lat":43.30604,"lon":5.37228,"is_reserved":false,"is_disabled":false,"rental_uris":{"android":"levelo://app?vid=7f181951-663b-4b43-bc95-635b70105685","ios":"levelo://app?vid=7f181951-663b-4b43-bc95-635b70105685"},"vehicle_type_id":"4","last_reported":1740434931,"current_range_meters":12400,"station_id":"ce4bgqh2rcd13ifvqc4g","pricing_plan_id":"cebpf4jnsgd1na2vs0mg"},{"bike_id":"d9a1f7ae-7837-4268-a9b4-f34563c0a14f","system_id":"levelo_inurba_marseille","lat":43.28682,"lon":5.36351,"is_reserved":false,"is_disabled":false,"rental_uris":{"android":"levelo://app?vid=d9a1f7ae-7837-4268-a9b4-f34563c0a14f","ios":"levelo://app?vid=d9a1f7ae-7837-4268-a9b4-f34563c0a14f"},"vehicle_type_id":"4","last_reported":1740434931,"current_range_meters":12400,"station_id":"ce4bhah2rcd13ifvqej0","pricing_plan_id":"cebpf4jnsgd1na2vs0mg"},{"bike_id":"18b4ecad-07e0-467d-bffe-ed8a07dff029","system_id":"levelo_inurba_marseille","lat":43.291903,"lon":5.39325,"is_reserved":false,"is_disabled":false,"rental_uris":{"android":"levelo://app?vid=18b4ecad-07e0-467d-bffe-ed8a07dff029","ios":"levelo://app?vid=18b4ecad-07e0-467d-bffe-ed8a07dff029"},"vehicle_type_id":"4","last_reported":1740434931,"current_range_meters":9600,"station_id":"ce4bh192rcd13ifvqdd0","pricing_plan_id":"cebpf4jnsgd1na2vs0mg"},{"bike_id":"6973d6f6-2714-49f6-8e4d-226f2db3c6c6","system_id":"levelo_inurba_marseille","lat":43.28265,"lon":5.3506,"is_reserved":false,"is_disabled":false,"rental_uris":{"android":"levelo://app?vid=6973d6f6-2714-49f6-8e4d-226f2db3c6c6","ios":"levelo://app?vid=6973d6f6-2714-49f6-8e4d-226f2db3c6c6"},"vehicle_type_id":"4","last_reported":1740434931,"current_range_meters":12800,"station_id":"ce4bhbp2rcd13ifvqerg","pricing_plan_id":"cebpf4jnsgd1na2vs0mg"},{"bike_id":"d630238b-e434-4009-a114-1268aae217f8","system_id":"levelo_inurba_marseille","lat":43.292023,"lon":5.393338,"is_reserved":false,"is_disabled":false,"rental_uris":{"android":"levelo://app?vid=d630238b-e434-4009-a114-1268aae217f8","ios":"levelo://app?vid=d630238b-e434-4009-a114-1268aae217f8"},"vehicle_type_id":"4","last_reported":1740434931,"current_range_meters":12800,"station_id":"ce4bh192rcd13ifvqdd0","pricing_plan_id":"cebpf4jnsgd1na2vs0mg"},{"bike_id":"ef18fbd6-85fe-4257-aaef-cd0fcf515452","system_id":"levelo_inurba_marseille","lat":43.3032,"lon":5.40462,"is_reserved":false,"is_disabled":false,"rental_uris":{"android":"levelo://app?vid=ef18fbd6-85fe-4257-aaef-cd0fcf515452","ios":"levelo://app?vid=ef18fbd6-85fe-4257-aaef-cd0fcf515452"},"vehicle_type_id":"4","last_reported":1740434931,"current_range_meters":12800,"station_id":"ce4bh012rcd13ifvqd10","pricing_plan_id":"cebpf4jnsgd1na2vs0mg"},{"bike_id":"3fc75de2-3def-4a7c-b0c2-670a2cfd0e3b","system_id":"levelo_inurba_marseille","lat":43.29203,"lon":5.39332,"is_reserved":false,"is_disabled":false,"rental_uris":{"android":"levelo://app?vid=3fc75de2-3def-4a7c-b0c2-670a2cfd0e3b","ios":"levelo://app?vid=3fc75de2-3def-4a7c-b0c2-670a2cfd0e3b"},"vehicle_type_id":"4","last_reported":1740434931,"current_range_meters":12800,"station_id":"ce4bh192rcd13ifvqdd0","pricing_plan_id":"cebpf4jnsgd1na2vs0mg"},{"bike_id":"1448f5f3-044d-4d3d-b6cf-7df10f455979","system_id":"levelo_inurba_marseille","lat":43.306,"lon":5.37224,"is_reserved":false,"is_disabled":false,"rental_uris":{"android":"levelo://app?vid=1448f5f3-044d-4d3d-b6cf-7df10f455979","ios":"levelo://app?vid=1448f5f3-044d-4d3d-b6cf-7df10f455979"},"vehicle_type_id":"4","last_reported":1740434931,"current_range_meters":12800,"station_id":"ce4bgqh2rcd13ifvqc4g","pricing_plan_id":"cebpf4jnsgd1na2vs0mg"},{"bike_id":"7152cafa-1634-4db9-9fd6-93705c425f63","system_id":"levelo_inurba_marseille","lat":43.31999,"lon":5.38161,"is_reserved":false,"is_disabled":false,"rental_uris":{"android":"levelo://app?vid=7152cafa-1634-4db9-9fd6-93705c425f63","ios":"levelo://app?vid=7152cafa-1634-4db9-9fd6-93705c425f63"},"vehicle_type_id":"4","last_reported":1740434931,"current_range_meters":12800,"station_id":"ce4bhr12rcd13ifvqhpg","pricing_plan_id":"cebpf4jnsgd1na2vs0mg"},{"bike_id":"674cb057-5d42-4512-ae8c-448c1f63016b","system_id":"levelo_inurba_marseille","lat":43.30362,"lon":5.39443,"is_reserved":false,"is_disabled":false,"rental_uris":{"android":"levelo://app?vid=674cb057-5d42-4512-ae8c-448c1f63016b","ios":"levelo://app?vid=674cb057-5d42-4512-ae8c-448c1f63016b"},"vehicle_type_id":"4","last_reported":1740434931,"current_range_meters":13600,"station_id":"","pricing_plan_id":"cebpf4jnsgd1na2vs0mg"},{"bike_id":"d9539a63-7677-4fd2-a172-046d356a2529","system_id":"levelo_inurba_marseille","lat":43.29985,"lon":5.37188,"is_reserved":false,"is_disabled":false,"rental_uris":{"android":"levelo://app?vid=d9539a63-7677-4fd2-a172-046d356a2529","ios":"levelo://app?vid=d9539a63-7677-4fd2-a172-046d356a2529"},"vehicle_type_id":"4","last_reported":1740434931,"current_range_meters":13600,"station_id":"ce4bgr92rcd13ifvqc7g","pricing_plan_id":"cebpf4jnsgd1na2vs0mg"},{"bike_id":"ce37476d-88a8-4f83-9893-e3f4fffefa17","system_id":"levelo_inurba_marseille","lat":43.29877,"lon":5.38906,"is_reserved":false,"is_disabled":false,"rental_uris":{"android":"levelo://app?vid=ce37476d-88a8-4f83-9893-e3f4fffefa17","ios":"levelo://app?vid=ce37476d-88a8-4f83-9893-e3f4fffefa17"},"vehicle_type_id":"4","last_reported":1740434931,"current_range_meters":13600,"station_id":"ce4bh392rcd13ifvqdl0","pricing_plan_id":"cebpf4jnsgd1na2vs0mg"},{"bike_id":"e5c275a2-a964-47d8-9489-ed1126cf4cef","system_id":"levelo_inurba_marseille","lat":43.29629,"lon":5.37921,"is_reserved":false,"is_disabled":false,"rental_uris":{"android":"levelo://app?vid=e5c275a2-a964-47d8-9489-ed1126cf4cef","ios":"levelo://app?vid=e5c275a2-a964-47d8-9489-ed1126cf4cef"},"vehicle_type_id":"4","last_reported":1740434931,"current_range_meters":13600,"station_id":"","pricing_plan_id":"cebpf4jnsgd1na2vs0mg"},{"bike_id":"6881749d-7210-4820-b4d5-9b5c0c11cb42","system_id":"levelo_inurba_marseille","lat":43.25681,"lon":5.39737,"is_reserved":false,"is_disabled":false,"rental_uris":{"android":"levelo://app?vid=6881749d-7210-4820-b4d5-9b5c0c11cb42","ios":"levelo://app?vid=6881749d-7210-4820-b4d5-9b5c0c11cb42"},"vehicle_type_id":"4","last_reported":1740434931,"current_range_meters":13600,"station_id":"","pricing_plan_id":"cebpf4jnsgd1na2vs0mg"},{"bike_id":"4303d40f-4d82-4cee-83e0-f18743480161","system_id":"levelo_inurba_marseille","lat":43.28661,"lon":5.36366,"is_reserved":false,"is_disabled":false,"rental_uris":{"android":"levelo://app?vid=4303d40f-4d82-4cee-83e0-f18743480161","ios":"levelo://app?vid=4303d40f-4d82-4cee-83e0-f18743480161"},"vehicle_type_id":"4","last_reported":1740434931,"current_range_meters":13600,"station_id":"ce4bhah2rcd13ifvqej0","pricing_plan_id":"cebpf4jnsgd1na2vs0mg"},{"bike_id":"10dd55a1-011a-4e63-b7b9-4f648aad5aad","system_id":"levelo_inurba_marseille","lat":43.29277,"lon":5.40117,"is_reserved":false,"is_disabled":false,"rental_uris":{"android":"levelo://app?vid=10dd55a1-011a-4e63-b7b9-4f648aad5aad","ios":"levelo://app?vid=10dd55a1-011a-4e63-b7b9-4f648aad5aad"},"vehicle_type_id":"4","last_reported":1740434931,"current_range_meters":13600,"station_id":"ce4bh312rcd13ifvqdk0","pricing_plan_id":"cebpf4jnsgd1na2vs0mg"},{"bike_id":"d2610799-3b25-4010-8a8a-a9ba4108f5fb","system_id":"levelo_inurba_marseille","lat":43.25007,"lon":5.38908,"is_reserved":false,"is_disabled":false,"rental_uris":{"android":"levelo://app?vid=d2610799-3b25-4010-8a8a-a9ba4108f5fb","ios":"levelo://app?vid=d2610799-3b25-4010-8a8a-a9ba4108f5fb"},"vehicle_type_id":"4","last_reported":1740434931,"current_range_meters":14000,"station_id":"ce4bhgp2rcd13ifvqfd0","pricing_plan_id":"cebpf4jnsgd1na2vs0mg"},{"bike_id":"64b31661-9e5a-46b2-8f94-ad465732c441","system_id":"levelo_inurba_marseille","lat":43.23184,"lon":5.39974,"is_reserved":false,"is_disabled":false,"rental_uris":{"android":"levelo://app?vid=64b31661-9e5a-46b2-8f94-ad465732c441","ios":"levelo://app?vid=64b31661-9e5a-46b2-8f94-ad465732c441"},"vehicle_type_id":"4","last_reported":1740434931,"current_range_meters":14000,"station_id":"ce4bhn12rcd13ifvqgqg","pricing_plan_id":"cebpf4jnsgd1na2vs0mg"},{"bike_id":"58f3e1c8-8a3c-4bac-a0b8-dcd83c22abb9","system_id":"levelo_inurba_marseille","lat":43.31322,"lon":5.39688,"is_reserved":false,"is_disabled":false,"rental_uris":{"android":"levelo://app?vid=58f3e1c8-8a3c-4bac-a0b8-dcd83c22abb9","ios":"levelo://app?vid=58f3e1c8-8a3c-4bac-a0b8-dcd83c22abb9"},"vehicle_type_id":"4","last_reported":1740434931,"current_range_meters":13600,"station_id":"ce4bgvp2rcd13ifvqcu0","pricing_plan_id":"cebpf4jnsgd1na2vs0mg"},{"bike_id":"c7141c64-f04f-4dca-bf0b-c87dedcef0a3","system_id":"levelo_inurba_marseille","lat":43.30248,"lon":5.40073,"is_reserved":false,"is_disabled":false,"rental_uris":{"android":"levelo://app?vid=c7141c64-f04f-4dca-bf0b-c87dedcef0a3","ios":"levelo://app?vid=c7141c64-f04f-4dca-bf0b-c87dedcef0a3"},"vehicle_type_id":"4","last_reported":1740434931,"current_range_meters":14400,"station_id":"ce4bgvh2rcd13ifvqcs0","pricing_plan_id":"cebpf4jnsgd1na2vs0mg"},{"bike_id":"bfa9685d-08c6-470b-9281-df9fdec5f34c","system_id":"levelo_inurba_marseille","lat":43.28423,"lon":5.34982,"is_reserved":false,"is_disabled":false,"rental_uris":{"android":"levelo://app?vid=bfa9685d-08c6-470b-9281-df9fdec5f34c","ios":"levelo://app?vid=bfa9685d-08c6-470b-9281-df9fdec5f34c"},"vehicle_type_id":"4","last_reported":1740434931,"current_range_meters":14800,"station_id":"ce4bhbh2rcd13ifvqepg","pricing_plan_id":"cebpf4jnsgd1na2vs0mg"},{"bike_id":"760eb658-016e-422a-925a-e97810424e09","system_id":"levelo_inurba_marseille","lat":43.27975,"lon":5.41021,"is_reserved":false,"is_disabled":false,"rental_uris":{"android":"levelo://app?vid=760eb658-016e-422a-925a-e97810424e09","ios":"levelo://app?vid=760eb658-016e-422a-925a-e97810424e09"},"vehicle_type_id":"4","last_reported":1740434931,"current_range_meters":14400,"station_id":"ce4bhnp2rcd13ifvqh0g","pricing_plan_id":"cebpf4jnsgd1na2vs0mg"},{"bike_id":"893f0949-de5b-4083-b654-3fa44fd95a90","system_id":"levelo_inurba_marseille","lat":43.292782,"lon":5.368386,"is_reserved":false,"is_disabled":false,"rental_uris":{"android":"levelo://app?vid=893f0949-de5b-4083-b654-3fa44fd95a90","ios":"levelo://app?vid=893f0949-de5b-4083-b654-3fa44fd95a90"},"vehicle_type_id":"4","last_reported":1740434931,"current_range_meters":14800,"station_id":"ce4bhbp2rcd13ifvqesg","pricing_plan_id":"cebpf4jnsgd1na2vs0mg"},{"bike_id":"4536875f-604a-454e-9383-c4f436e97a01","system_id":"levelo_inurba_marseille","lat":43.2808,"lon":5.39652,"is_reserved":false,"is_disabled":false,"rental_uris":{"android":"levelo://app?vid=4536875f-604a-454e-9383-c4f436e97a01","ios":"levelo://app?vid=4536875f-604a-454e-9383-c4f436e97a01"},"vehicle_type_id":"4","last_reported":1740434931,"current_range_meters":12800,"station_id":"ce4bho12rcd13ifvqh2g","pricing_plan_id":"cebpf4jnsgd1na2vs0mg"},{"bike_id":"763a38cd-b50b-4187-a9a7-e0318d9aae60","system_id":"levelo_inurba_marseille","lat":43.25025,"lon":5.38901,"is_reserved":false,"is_disabled":false,"rental_uris":{"android":"levelo://app?vid=763a38cd-b50b-4187-a9a7-e0318d9aae60","ios":"levelo://app?vid=763a38cd-b50b-4187-a9a7-e0318d9aae60"},"vehicle_type_id":"4","last_reported":1740434931,"current_range_meters":14400,"station_id":"ce4bhgp2rcd13ifvqfd0","pricing_plan_id":"cebpf4jnsgd1na2vs0mg"},{"bike_id":"e64e46d5-fee0-4a08-bbbb-70ecb47282ad","system_id":"levelo_inurba_marseille","lat":43.29519,"lon":5.39395,"is_reserved":false,"is_disabled":false,"rental_uris":{"android":"levelo://app?vid=e64e46d5-fee0-4a08-bbbb-70ecb47282ad","ios":"levelo://app?vid=e64e46d5-fee0-4a08-bbbb-70ecb47282ad"},"vehicle_type_id":"4","last_reported":1740434931,"current_range_meters":14800,"station_id":"ce4bh292rcd13ifvqdf0","pricing_plan_id":"cebpf4jnsgd1na2vs0mg"},{"bike_id":"922c8324-0eab-448b-8c27-9c04e2258bca","system_id":"levelo_inurba_marseille","lat":43.31163,"lon":5.38716,"is_reserved":false,"is_disabled":false,"rental_uris":{"android":"levelo://app?vid=922c8324-0eab-448b-8c27-9c04e2258bca","ios":"levelo://app?vid=922c8324-0eab-448b-8c27-9c04e2258bca"},"vehicle_type_id":"4","last_reported":1740434931,"current_range_meters":14400,"station_id":"ce4bgv12rcd13ifvqcp0","pricing_plan_id":"cebpf4jnsgd1na2vs0mg"},{"bike_id":"03c502df-c0d3-4ad7-b038-d3923b426e2e","system_id":"levelo_inurba_marseille","lat":43.2937,"lon":5.38579,"is_reserved":false,"is_disabled":true,"rental_uris":{"android":"levelo://app?vid=03c502df-c0d3-4ad7-b038-d3923b426e2e","ios":"levelo://app?vid=03c502df-c0d3-4ad7-b038-d3923b426e2e"},"vehicle_type_id":"4","last_reported":1740434931,"current_range_meters":14800,"station_id":"ce4bh2h2rcd13ifvqdh0","pricing_plan_id":"cebpf4jnsgd1na2vs0mg"},{"bike_id":"a26fd48c-cc85-4301-b8ee-e7308b6b1807","system_id":"levelo_inurba_marseille","lat":43.30644,"lon":5.40086,"is_reserved":false,"is_disabled":false,"rental_uris":{"android":"levelo://app?vid=a26fd48c-cc85-4301-b8ee-e7308b6b1807","ios":"levelo://app?vid=a26fd48c-cc85-4301-b8ee-e7308b6b1807"},"vehicle_type_id":"4","last_reported":1740434931,"current_range_meters":16000,"station_id":"ce4bh112rcd13ifvqda0","pricing_plan_id":"cebpf4jnsgd1na2vs0mg"},{"bike_id":"35634fcd-8da2-47b9-934f-3c14e20dbeac","system_id":"levelo_inurba_marseille","lat":43.27368,"lon":5.3628,"is_reserved":false,"is_disabled":false,"rental_uris":{"android":"levelo://app?vid=35634fcd-8da2-47b9-934f-3c14e20dbeac","ios":"levelo://app?vid=35634fcd-8da2-47b9-934f-3c14e20dbeac"},"vehicle_type_id":"4","last_reported":1740434931,"current_range_meters":14400,"station_id":"ce4bhbh2rcd13ifvqeo0","pricing_plan_id":"cebpf4jnsgd1na2vs0mg"},{"bike_id":"d138a461-3692-438c-aa9e-f46d4dedee6d","system_id":"levelo_inurba_marseille","lat":43.25088,"lon":5.39503,"is_reserved":false,"is_disabled":false,"rental_uris":{"android":"levelo://app?vid=d138a461-3692-438c-aa9e-f46d4dedee6d","ios":"levelo://app?vid=d138a461-3692-438c-aa9e-f46d4dedee6d"},"vehicle_type_id":"4","last_reported":1740434931,"current_range_meters":15200,"station_id":"ce4bhm12rcd13ifvqgkg","pricing_plan_id":"cebpf4jnsgd1na2vs0mg"},{"bike_id":"c089c19a-9e3a-4f5f-8b9c-a99d357a37fa","system_id":"levelo_inurba_marseille","lat":43.29512,"lon":5.39384,"is_reserved":false,"is_disabled":false,"rental_uris":{"android":"levelo://app?vid=c089c19a-9e3a-4f5f-8b9c-a99d357a37fa","ios":"levelo://app?vid=c089c19a-9e3a-4f5f-8b9c-a99d357a37fa"},"vehicle_type_id":"4","last_reported":1740434931,"current_range_meters":15200,"station_id":"ce4bh292rcd13ifvqdf0","pricing_plan_id":"cebpf4jnsgd1na2vs0mg"},{"bike_id":"de54b84e-d754-4cf9-97ed-7d6cd44576a6","system_id":"levelo_inurba_marseille","lat":43.27816,"lon":5.40739,"is_reserved":false,"is_disabled":false,"rental_uris":{"android":"levelo://app?vid=de54b84e-d754-4cf9-97ed-7d6cd44576a6","ios":"levelo://app?vid=de54b84e-d754-4cf9-97ed-7d6cd44576a6"},"vehicle_type_id":"4","last_reported":1740434931,"current_range_meters":15200,"station_id":"ce4bhnh2rcd13ifvqgtg","pricing_plan_id":"cebpf4jnsgd1na2vs0mg"},{"bike_id":"ed8c1bab-a7b4-438a-950c-b8f0fe91dea0","system_id":"levelo_inurba_marseille","lat":43.26203,"lon":5.40425,"is_reserved":false,"is_disabled":false,"rental_uris":{"android":"levelo://app?vid=ed8c1bab-a7b4-438a-950c-b8f0fe91dea0","ios":"levelo://app?vid=ed8c1bab-a7b4-438a-950c-b8f0fe91dea0"},"vehicle_type_id":"4","last_reported":1740434931,"current_range_meters":15200,"station_id":"ce4bhmh2rcd13ifvqgmg","pricing_plan_id":"cebpf4jnsgd1na2vs0mg"},{"bike_id":"c08ee2e6-fdf1-4ded-9dac-f5139a08339c","system_id":"levelo_inurba_marseille","lat":43.29781,"lon":5.37096,"is_reserved":false,"is_disabled":false,"rental_uris":{"android":"levelo://app?vid=c08ee2e6-fdf1-4ded-9dac-f5139a08339c","ios":"levelo://app?vid=c08ee2e6-fdf1-4ded-9dac-f5139a08339c"},"vehicle_type_id":"4","last_reported":1740434931,"current_range_meters":16000,"station_id":"ce4bgop2rcd13ifvqc1g","pricing_plan_id":"cebpf4jnsgd1na2vs0mg"},{"bike_id":"6f9eb619-ce1a-440a-9085-673242f78425","system_id":"levelo_inurba_marseille","lat":43.29496,"lon":5.37529,"is_reserved":false,"is_disabled":true,"rental_uris":{"android":"levelo://app?vid=6f9eb619-ce1a-440a-9085-673242f78425","ios":"levelo://app?vid=6f9eb619-ce1a-440a-9085-673242f78425"},"vehicle_type_id":"4","last_reported":1740434931,"current_range_meters":16000,"station_id":"","pricing_plan_id":"cebpf4jnsgd1na2vs0mg"},{"bike_id":"98313f27-9f0c-4528-8a32-8b8b34c13518","system_id":"levelo_inurba_marseille","lat":43.30097,"lon":5.39073,"is_reserved":false,"is_disabled":false,"rental_uris":{"android":"levelo://app?vid=98313f27-9f0c-4528-8a32-8b8b34c13518","ios":"levelo://app?vid=98313f27-9f0c-4528-8a32-8b8b34c13518"},"vehicle_type_id":"4","last_reported":1740434931,"current_range_meters":12800,"station_id":"ce4bh192rcd13ifvqdb0","pricing_plan_id":"cebpf4jnsgd1na2vs0mg"},{"bike_id":"05f51bd6-bf8c-4b6c-ba2f-d7bf7cec3006","system_id":"levelo_inurba_marseille","lat":43.23186,"lon":5.3558,"is_reserved":false,"is_disabled":false,"rental_uris":{"android":"levelo://app?vid=05f51bd6-bf8c-4b6c-ba2f-d7bf7cec3006","ios":"levelo://app?vid=05f51bd6-bf8c-4b6c-ba2f-d7bf7cec3006"},"vehicle_type_id":"4","last_reported":1740434931,"current_range_meters":16000,"station_id":"ce4bhu92rcd13ifvqi70","pricing_plan_id":"cebpf4jnsgd1na2vs0mg"},{"bike_id":"d34538b8-2f35-4994-b4c2-333707080028","system_id":"levelo_inurba_marseille","lat":43.29194,"lon":5.39314,"is_reserved":false,"is_disabled":false,"rental_uris":{"android":"levelo://app?vid=d34538b8-2f35-4994-b4c2-333707080028","ios":"levelo://app?vid=d34538b8-2f35-4994-b4c2-333707080028"},"vehicle_type_id":"4","last_reported":1740434931,"current_range_meters":16000,"station_id":"ce4bh192rcd13ifvqdd0","pricing_plan_id":"cebpf4jnsgd1na2vs0mg"},{"bike_id":"1c2f3bdc-68fa-40a8-b99e-fcf41f32f9e4","system_id":"levelo_inurba_marseille","lat":43.29214,"lon":5.405159,"is_reserved":false,"is_disabled":false,"rental_uris":{"android":"levelo://app?vid=1c2f3bdc-68fa-40a8-b99e-fcf41f32f9e4","ios":"levelo://app?vid=1c2f3bdc-68fa-40a8-b99e-fcf41f32f9e4"},"vehicle_type_id":"4","last_reported":1740434931,"current_range_meters":16400,"station_id":"","pricing_plan_id":"cebpf4jnsgd1na2vs0mg"},{"bike_id":"92ed7cef-280a-478a-a395-78128812bf52","system_id":"levelo_inurba_marseille","lat":43.28474,"lon":5.38435,"is_reserved":false,"is_disabled":true,"rental_uris":{"android":"levelo://app?vid=92ed7cef-280a-478a-a395-78128812bf52","ios":"levelo://app?vid=92ed7cef-280a-478a-a395-78128812bf52"},"vehicle_type_id":"4","last_reported":1740434931,"current_range_meters":16000,"station_id":"ce4bh512rcd13ifvqe3g","pricing_plan_id":"cebpf4jnsgd1na2vs0mg"},{"bike_id":"b1e68bfa-e0ad-4a40-b063-e1ce6dcea5ff","system_id":"levelo_inurba_marseille","lat":43.28943,"lon":5.36392,"is_reserved":false,"is_disabled":false,"rental_uris":{"android":"levelo://app?vid=b1e68bfa-e0ad-4a40-b063-e1ce6dcea5ff","ios":"levelo://app?vid=b1e68bfa-e0ad-4a40-b063-e1ce6dcea5ff"},"vehicle_type_id":"4","last_reported":1740434931,"current_range_meters":16000,"station_id":"ce4bhc92rcd13ifvqetg","pricing_plan_id":"cebpf4jnsgd1na2vs0mg"},{"bike_id":"5318d280-53a7-4432-99ee-03eb47db6010","system_id":"levelo_inurba_marseille","lat":43.28082,"lon":5.39655,"is_reserved":false,"is_disabled":false,"rental_uris":{"android":"levelo://app?vid=5318d280-53a7-4432-99ee-03eb47db6010","ios":"levelo://app?vid=5318d280-53a7-4432-99ee-03eb47db6010"},"vehicle_type_id":"4","last_reported":1740434931,"current_range_meters":16000,"station_id":"ce4bho12rcd13ifvqh2g","pricing_plan_id":"cebpf4jnsgd1na2vs0mg"},{"bike_id":"e91fe3a2-3bf1-4c2b-a8af-758533abe744","system_id":"levelo_inurba_marseille","lat":43.29276,"lon":5.40121,"is_reserved":false,"is_disabled":false,"rental_uris":{"android":"levelo://app?vid=e91fe3a2-3bf1-4c2b-a8af-758533abe744","ios":"levelo://app?vid=e91fe3a2-3bf1-4c2b-a8af-758533abe744"},"vehicle_type_id":"4","last_reported":1740434931,"current_range_meters":16000,"station_id":"ce4bh312rcd13ifvqdk0","pricing_plan_id":"cebpf4jnsgd1na2vs0mg"},{"bike_id":"3873f8b1-d159-447e-bc58-8ff33cdbd6e1","system_id":"levelo_inurba_marseille","lat":43.28837,"lon":5.3585,"is_reserved":false,"is_disabled":false,"rental_uris":{"android":"levelo://app?vid=3873f8b1-d159-447e-bc58-8ff33cdbd6e1","ios":"levelo://app?vid=3873f8b1-d159-447e-bc58-8ff33cdbd6e1"},"vehicle_type_id":"4","last_reported":1740434931,"current_range_meters":16400,"station_id":"ce4bhb12rcd13ifvqem0","pricing_plan_id":"cebpf4jnsgd1na2vs0mg"},{"bike_id":"27df2c47-30b9-42a1-a17f-d05f9ce10835","system_id":"levelo_inurba_marseille","lat":43.28405,"lon":5.37526,"is_reserved":false,"is_disabled":false,"rental_uris":{"android":"levelo://app?vid=27df2c47-30b9-42a1-a17f-d05f9ce10835","ios":"levelo://app?vid=27df2c47-30b9-42a1-a17f-d05f9ce10835"},"vehicle_type_id":"4","last_reported":1740434931,"current_range_meters":16400,"station_id":"ce4bh412rcd13ifvqds0","pricing_plan_id":"cebpf4jnsgd1na2vs0mg"},{"bike_id":"ea96d41c-01a9-440f-9def-3e243141c897","system_id":"levelo_inurba_marseille","lat":43.29869,"lon":5.39728,"is_reserved":false,"is_disabled":false,"rental_uris":{"android":"levelo://app?vid=ea96d41c-01a9-440f-9def-3e243141c897","ios":"levelo://app?vid=ea96d41c-01a9-440f-9def-3e243141c897"},"vehicle_type_id":"4","last_reported":1740434931,"current_range_meters":16400,"station_id":"ce4bh0h2rcd13ifvqd50","pricing_plan_id":"cebpf4jnsgd1na2vs0mg"},{"bike_id":"c9a1858d-786d-4197-a639-046d237805f3","system_id":"levelo_inurba_marseille","lat":43.28417,"lon":5.37529,"is_reserved":false,"is_disabled":false,"rental_uris":{"android":"levelo://app?vid=c9a1858d-786d-4197-a639-046d237805f3","ios":"levelo://app?vid=c9a1858d-786d-4197-a639-046d237805f3"},"vehicle_type_id":"4","last_reported":1740434931,"current_range_meters":16400,"station_id":"ce4bh412rcd13ifvqds0","pricing_plan_id":"cebpf4jnsgd1na2vs0mg"},{"bike_id":"63d2dc5a-e03c-4909-9269-36c39633100a","system_id":"levelo_inurba_marseille","lat":43.28416,"lon":5.35011,"is_reserved":false,"is_disabled":true,"rental_uris":{"android":"levelo://app?vid=63d2dc5a-e03c-4909-9269-36c39633100a","ios":"levelo://app?vid=63d2dc5a-e03c-4909-9269-36c39633100a"},"vehicle_type_id":"4","last_reported":1740434931,"current_range_meters":16800,"station_id":"ce4bhbh2rcd13ifvqepg","pricing_plan_id":"cebpf4jnsgd1na2vs0mg"},{"bike_id":"9062f7b6-9c81-49b8-a1bd-5df58202afcd","system_id":"levelo_inurba_marseille","lat":43.31698,"lon":5.43692,"is_reserved":false,"is_disabled":false,"rental_uris":{"android":"levelo://app?vid=9062f7b6-9c81-49b8-a1bd-5df58202afcd","ios":"levelo://app?vid=9062f7b6-9c81-49b8-a1bd-5df58202afcd"},"vehicle_type_id":"4","last_reported":1740434931,"current_range_meters":16800,"station_id":"ce4bhp92rcd13ifvqhcg","pricing_plan_id":"cebpf4jnsgd1na2vs0mg"},{"bike_id":"8514fc45-931a-4d33-8ebd-119ca23a33dc","system_id":"levelo_inurba_marseille","lat":43.27818,"lon":5.40717,"is_reserved":false,"is_disabled":false,"rental_uris":{"android":"levelo://app?vid=8514fc45-931a-4d33-8ebd-119ca23a33dc","ios":"levelo://app?vid=8514fc45-931a-4d33-8ebd-119ca23a33dc"},"vehicle_type_id":"4","last_reported":1740434931,"current_range_meters":16400,"station_id":"ce4bhnh2rcd13ifvqgtg","pricing_plan_id":"cebpf4jnsgd1na2vs0mg"},{"bike_id":"b12a42d0-4d67-46d8-a617-15467414d51f","system_id":"levelo_inurba_marseille","lat":43.29271,"lon":5.36842,"is_reserved":false,"is_disabled":false,"rental_uris":{"android":"levelo://app?vid=b12a42d0-4d67-46d8-a617-15467414d51f","ios":"levelo://app?vid=b12a42d0-4d67-46d8-a617-15467414d51f"},"vehicle_type_id":"4","last_reported":1740434931,"current_range_meters":16400,"station_id":"ce4bhbp2rcd13ifvqesg","pricing_plan_id":"cebpf4jnsgd1na2vs0mg"},{"bike_id":"c33dc554-6ec4-498e-a373-244da71a4042","system_id":"levelo_inurba_marseille","lat":43.28421,"lon":5.3499,"is_reserved":false,"is_disabled":false,"rental_uris":{"android":"levelo://app?vid=c33dc554-6ec4-498e-a373-244da71a4042","ios":"levelo://app?vid=c33dc554-6ec4-498e-a373-244da71a4042"},"vehicle_type_id":"4","last_reported":1740434931,"current_range_meters":16400,"station_id":"ce4bhbh2rcd13ifvqepg","pricing_plan_id":"cebpf4jnsgd1na2vs0mg"},{"bike_id":"73747d2b-e71e-4180-a461-b9fb4a42bfe0","system_id":"levelo_inurba_marseille","lat":43.28725,"lon":5.37934,"is_reserved":false,"is_disabled":false,"rental_uris":{"android":"levelo://app?vid=73747d2b-e71e-4180-a461-b9fb4a42bfe0","ios":"levelo://app?vid=73747d2b-e71e-4180-a461-b9fb4a42bfe0"},"vehicle_type_id":"4","last_reported":1740434931,"current_range_meters":16400,"station_id":"ce4bh9p2rcd13ifvqec0","pricing_plan_id":"cebpf4jnsgd1na2vs0mg"},{"bike_id":"f7b1904a-e706-46d3-9acc-c42a6ddbcbe8","system_id":"levelo_inurba_marseille","lat":43.28675,"lon":5.3999,"is_reserved":false,"is_disabled":false,"rental_uris":{"android":"levelo://app?vid=f7b1904a-e706-46d3-9acc-c42a6ddbcbe8","ios":"levelo://app?vid=f7b1904a-e706-46d3-9acc-c42a6ddbcbe8"},"vehicle_type_id":"4","last_reported":1740434931,"current_range_meters":17200,"station_id":"ce4bho92rcd13ifvqh3g","pricing_plan_id":"cebpf4jnsgd1na2vs0mg"},{"bike_id":"123873b6-0553-4b01-8057-3a4fedeb0171","system_id":"levelo_inurba_marseille","lat":43.2508,"lon":5.39505,"is_reserved":false,"is_disabled":false,"rental_uris":{"android":"levelo://app?vid=123873b6-0553-4b01-8057-3a4fedeb0171","ios":"levelo://app?vid=123873b6-0553-4b01-8057-3a4fedeb0171"},"vehicle_type_id":"4","last_reported":1740434931,"current_range_meters":17200,"station_id":"ce4bhm12rcd13ifvqgkg","pricing_plan_id":"cebpf4jnsgd1na2vs0mg"},{"bike_id":"6239f636-804f-46f9-bccd-f6be6568ba35","system_id":"levelo_inurba_marseille","lat":43.25078,"lon":5.3951,"is_reserved":false,"is_disabled":false,"rental_uris":{"android":"levelo://app?vid=6239f636-804f-46f9-bccd-f6be6568ba35","ios":"levelo://app?vid=6239f636-804f-46f9-bccd-f6be6568ba35"},"vehicle_type_id":"4","last_reported":1740434931,"current_range_meters":17200,"station_id":"ce4bhm12rcd13ifvqgkg","pricing_plan_id":"cebpf4jnsgd1na2vs0mg"},{"bike_id":"7aad4924-7e8f-4ab1-a74a-4d1965f5fbe6","system_id":"levelo_inurba_marseille","lat":43.30877,"lon":5.39632,"is_reserved":false,"is_disabled":false,"rental_uris":{"android":"levelo://app?vid=7aad4924-7e8f-4ab1-a74a-4d1965f5fbe6","ios":"levelo://app?vid=7aad4924-7e8f-4ab1-a74a-4d1965f5fbe6"},"vehicle_type_id":"4","last_reported":1740434931,"current_range_meters":16800,"station_id":"ce4bh012rcd13ifvqcv0","pricing_plan_id":"cebpf4jnsgd1na2vs0mg"},{"bike_id":"a93ee1d7-cc67-4638-8486-f69efeb30582","system_id":"levelo_inurba_marseille","lat":43.27068,"lon":5.42277,"is_reserved":false,"is_disabled":false,"rental_uris":{"android":"levelo://app?vid=a93ee1d7-cc67-4638-8486-f69efeb30582","ios":"levelo://app?vid=a93ee1d7-cc67-4638-8486-f69efeb30582"},"vehicle_type_id":"4","last_reported":1740434931,"current_range_meters":16800,"station_id":"ce4bhk92rcd13ifvqgb0","pricing_plan_id":"cebpf4jnsgd1na2vs0mg"},{"bike_id":"fb352528-6dce-483c-a4f0-c367df3759b9","system_id":"levelo_inurba_marseille","lat":43.29047,"lon":5.37559,"is_reserved":false,"is_disabled":true,"rental_uris":{"android":"levelo://app?vid=fb352528-6dce-483c-a4f0-c367df3759b9","ios":"levelo://app?vid=fb352528-6dce-483c-a4f0-c367df3759b9"},"vehicle_type_id":"4","last_reported":1740434931,"current_range_meters":16800,"station_id":"ce4bh692rcd13ifvqe90","pricing_plan_id":"cebpf4jnsgd1na2vs0mg"},{"bike_id":"aff7a8a1-5476-44b3-8b23-aa5705650095","system_id":"levelo_inurba_marseille","lat":43.29527,"lon":5.39404,"is_reserved":false,"is_disabled":false,"rental_uris":{"android":"levelo://app?vid=aff7a8a1-5476-44b3-8b23-aa5705650095","ios":"levelo://app?vid=aff7a8a1-5476-44b3-8b23-aa5705650095"},"vehicle_type_id":"4","last_reported":1740434931,"current_range_meters":17200,"station_id":"ce4bh292rcd13ifvqdf0","pricing_plan_id":"cebpf4jnsgd1na2vs0mg"},{"bike_id":"46455735-1dab-4610-8eb6-3c16d93ce19b","system_id":"levelo_inurba_marseille","lat":43.27941,"lon":5.41043,"is_reserved":false,"is_disabled":false,"rental_uris":{"android":"levelo://app?vid=46455735-1dab-4610-8eb6-3c16d93ce19b","ios":"levelo://app?vid=46455735-1dab-4610-8eb6-3c16d93ce19b"},"vehicle_type_id":"4","last_reported":1740434931,"current_range_meters":17200,"station_id":"ce4bhnp2rcd13ifvqh0g","pricing_plan_id":"cebpf4jnsgd1na2vs0mg"},{"bike_id":"7eaeec7f-6e5f-4b77-9a1f-29254617a48f","system_id":"levelo_inurba_marseille","lat":43.28698,"lon":5.39979,"is_reserved":false,"is_disabled":false,"rental_uris":{"android":"levelo://app?vid=7eaeec7f-6e5f-4b77-9a1f-29254617a48f","ios":"levelo://app?vid=7eaeec7f-6e5f-4b77-9a1f-29254617a48f"},"vehicle_type_id":"4","last_reported":1740434931,"current_range_meters":17200,"station_id":"ce4bho92rcd13ifvqh3g","pricing_plan_id":"cebpf4jnsgd1na2vs0mg"},{"bike_id":"0dc77e2f-ce80-4f7e-b672-b7d704534da5","system_id":"levelo_inurba_marseille","lat":43.27999,"lon":5.40003,"is_reserved":false,"is_disabled":false,"rental_uris":{"android":"levelo://app?vid=0dc77e2f-ce80-4f7e-b672-b7d704534da5","ios":"levelo://app?vid=0dc77e2f-ce80-4f7e-b672-b7d704534da5"},"vehicle_type_id":"4","last_reported":1740434931,"current_range_meters":17200,"station_id":"ce4bho92rcd13ifvqh4g","pricing_plan_id":"cebpf4jnsgd1na2vs0mg"},{"bike_id":"db8f7a43-768b-45ca-9dfa-098c5d9697d5","system_id":"levelo_inurba_marseille","lat":43.2885,"lon":5.35839,"is_reserved":false,"is_disabled":false,"rental_uris":{"android":"levelo://app?vid=db8f7a43-768b-45ca-9dfa-098c5d9697d5","ios":"levelo://app?vid=db8f7a43-768b-45ca-9dfa-098c5d9697d5"},"vehicle_type_id":"4","last_reported":1740434931,"current_range_meters":17200,"station_id":"ce4bhb12rcd13ifvqem0","pricing_plan_id":"cebpf4jnsgd1na2vs0mg"},{"bike_id":"f082692b-97a5-4c65-95bf-06ed48084027","system_id":"levelo_inurba_marseille","lat":43.24176,"lon":5.39726,"is_reserved":false,"is_disabled":false,"rental_uris":{"android":"levelo://app?vid=f082692b-97a5-4c65-95bf-06ed48084027","ios":"levelo://app?vid=f082692b-97a5-4c65-95bf-06ed48084027"},"vehicle_type_id":"4","last_reported":1740434931,"current_range_meters":16800,"station_id":"ce4bhn12rcd13ifvqgpg","pricing_plan_id":"cebpf4jnsgd1na2vs0mg"},{"bike_id":"06ba8faf-1890-49a3-ab59-d9bac3cc50a7","system_id":"levelo_inurba_marseille","lat":43.25021,"lon":5.38946,"is_reserved":false,"is_disabled":false,"rental_uris":{"android":"levelo://app?vid=06ba8faf-1890-49a3-ab59-d9bac3cc50a7","ios":"levelo://app?vid=06ba8faf-1890-49a3-ab59-d9bac3cc50a7"},"vehicle_type_id":"4","last_reported":1740434931,"current_range_meters":17200,"station_id":"ce4bhgp2rcd13ifvqfd0","pricing_plan_id":"cebpf4jnsgd1na2vs0mg"},{"bike_id":"c068dcb4-6111-4494-92b0-fe59cb336012","system_id":"levelo_inurba_marseille","lat":43.29872,"lon":5.38908,"is_reserved":false,"is_disabled":false,"rental_uris":{"android":"levelo://app?vid=c068dcb4-6111-4494-92b0-fe59cb336012","ios":"levelo://app?vid=c068dcb4-6111-4494-92b0-fe59cb336012"},"vehicle_type_id":"4","last_reported":1740434931,"current_range_meters":17200,"station_id":"ce4bh392rcd13ifvqdl0","pricing_plan_id":"cebpf4jnsgd1na2vs0mg"},{"bike_id":"7c45866a-bd99-4c12-9747-66203f12a96e","system_id":"levelo_inurba_marseille","lat":43.2315,"lon":5.35504,"is_reserved":false,"is_disabled":false,"rental_uris":{"android":"levelo://app?vid=7c45866a-bd99-4c12-9747-66203f12a96e","ios":"levelo://app?vid=7c45866a-bd99-4c12-9747-66203f12a96e"},"vehicle_type_id":"4","last_reported":1740434931,"current_range_meters":17600,"station_id":"","pricing_plan_id":"cebpf4jnsgd1na2vs0mg"},{"bike_id":"67462c7c-fcd4-47dc-94d8-9d7a33d5da2f","system_id":"levelo_inurba_marseille","lat":43.27939,"lon":5.41049,"is_reserved":false,"is_disabled":false,"rental_uris":{"android":"levelo://app?vid=67462c7c-fcd4-47dc-94d8-9d7a33d5da2f","ios":"levelo://app?vid=67462c7c-fcd4-47dc-94d8-9d7a33d5da2f"},"vehicle_type_id":"4","last_reported":1740434931,"current_range_meters":18000,"station_id":"ce4bhnp2rcd13ifvqh0g","pricing_plan_id":"cebpf4jnsgd1na2vs0mg"},{"bike_id":"c3d0fefa-5db4-49bd-a964-1a22da440d36","system_id":"levelo_inurba_marseille","lat":43.269559,"lon":5.386313,"is_reserved":false,"is_disabled":false,"rental_uris":{"android":"levelo://app?vid=c3d0fefa-5db4-49bd-a964-1a22da440d36","ios":"levelo://app?vid=c3d0fefa-5db4-49bd-a964-1a22da440d36"},"vehicle_type_id":"4","last_reported":1740434931,"current_range_meters":17600,"station_id":"","pricing_plan_id":"cebpf4jnsgd1na2vs0mg"},{"bike_id":"48cd24b6-6d9d-440b-9450-0fec3fc9894e","system_id":"levelo_inurba_marseille","lat":43.28855,"lon":5.35866,"is_reserved":false,"is_disabled":false,"rental_uris":{"android":"levelo://app?vid=48cd24b6-6d9d-440b-9450-0fec3fc9894e","ios":"levelo://app?vid=48cd24b6-6d9d-440b-9450-0fec3fc9894e"},"vehicle_type_id":"4","last_reported":1740434931,"current_range_meters":18000,"station_id":"ce4bhb12rcd13ifvqem0","pricing_plan_id":"cebpf4jnsgd1na2vs0mg"},{"bike_id":"fdf8b5f8-56fb-47df-8a62-b41412a1ff6a","system_id":"levelo_inurba_marseille","lat":43.28354,"lon":5.38107,"is_reserved":false,"is_disabled":false,"rental_uris":{"android":"levelo://app?vid=fdf8b5f8-56fb-47df-8a62-b41412a1ff6a","ios":"levelo://app?vid=fdf8b5f8-56fb-47df-8a62-b41412a1ff6a"},"vehicle_type_id":"4","last_reported":1740434931,"current_range_meters":18000,"station_id":"ce4bh412rcd13ifvqdr0","pricing_plan_id":"cebpf4jnsgd1na2vs0mg"},{"bike_id":"7951ec82-c1c3-436f-b4bb-ea3dd1dc5ab6","system_id":"levelo_inurba_marseille","lat":43.28622,"lon":5.351,"is_reserved":false,"is_disabled":false,"rental_uris":{"android":"levelo://app?vid=7951ec82-c1c3-436f-b4bb-ea3dd1dc5ab6","ios":"levelo://app?vid=7951ec82-c1c3-436f-b4bb-ea3dd1dc5ab6"},"vehicle_type_id":"4","last_reported":1740434931,"current_range_meters":18000,"station_id":"ce4bhch2rcd13ifvqeug","pricing_plan_id":"cebpf4jnsgd1na2vs0mg"},{"bike_id":"5bef056c-d61f-46ed-bbba-16214d7268b1","system_id":"levelo_inurba_marseille","lat":43.28356,"lon":5.3811,"is_reserved":false,"is_disabled":false,"rental_uris":{"android":"levelo://app?vid=5bef056c-d61f-46ed-bbba-16214d7268b1","ios":"levelo://app?vid=5bef056c-d61f-46ed-bbba-16214d7268b1"},"vehicle_type_id":"4","last_reported":1740434931,"current_range_meters":18000,"station_id":"ce4bh412rcd13ifvqdr0","pricing_plan_id":"cebpf4jnsgd1na2vs0mg"},{"bike_id":"fecb5daa-a777-44eb-ad60-faaf813f5687","system_id":"levelo_inurba_marseille","lat":43.29057,"lon":5.35916,"is_reserved":false,"is_disabled":false,"rental_uris":{"android":"levelo://app?vid=fecb5daa-a777-44eb-ad60-faaf813f5687","ios":"levelo://app?vid=fecb5daa-a777-44eb-ad60-faaf813f5687"},"vehicle_type_id":"4","last_reported":1740434931,"current_range_meters":18000,"station_id":"ce4bha92rcd13ifvqeg0","pricing_plan_id":"cebpf4jnsgd1na2vs0mg"},{"bike_id":"c68f3a0b-e764-4bf3-9b63-b72387fdffb5","system_id":"levelo_inurba_marseille","lat":43.28822,"lon":5.35839,"is_reserved":false,"is_disabled":false,"rental_uris":{"android":"levelo://app?vid=c68f3a0b-e764-4bf3-9b63-b72387fdffb5","ios":"levelo://app?vid=c68f3a0b-e764-4bf3-9b63-b72387fdffb5"},"vehicle_type_id":"4","last_reported":1740434931,"current_range_meters":18000,"station_id":"ce4bhb12rcd13ifvqem0","pricing_plan_id":"cebpf4jnsgd1na2vs0mg"},{"bike_id":"8140536f-d4f8-472f-83af-0e094b3f960a","system_id":"levelo_inurba_marseille","lat":43.31085,"lon":5.42421,"is_reserved":false,"is_disabled":false,"rental_uris":{"android":"levelo://app?vid=8140536f-d4f8-472f-83af-0e094b3f960a","ios":"levelo://app?vid=8140536f-d4f8-472f-83af-0e094b3f960a"},"vehicle_type_id":"4","last_reported":1740434931,"current_range_meters":18000,"station_id":"ce4bhp92rcd13ifvqhag","pricing_plan_id":"cebpf4jnsgd1na2vs0mg"},{"bike_id":"210d5388-34ba-40b7-b56a-1d8e212d202e","system_id":"levelo_inurba_marseille","lat":43.3025,"lon":5.4006,"is_reserved":false,"is_disabled":false,"rental_uris":{"android":"levelo://app?vid=210d5388-34ba-40b7-b56a-1d8e212d202e","ios":"levelo://app?vid=210d5388-34ba-40b7-b56a-1d8e212d202e"},"vehicle_type_id":"4","last_reported":1740434931,"current_range_meters":18000,"station_id":"ce4bgvh2rcd13ifvqcs0","pricing_plan_id":"cebpf4jnsgd1na2vs0mg"},{"bike_id":"4481209c-85f8-4ba5-af9e-b9452d34cf35","system_id":"levelo_inurba_marseille","lat":43.301843,"lon":5.366042,"is_reserved":false,"is_disabled":false,"rental_uris":{"android":"levelo://app?vid=4481209c-85f8-4ba5-af9e-b9452d34cf35","ios":"levelo://app?vid=4481209c-85f8-4ba5-af9e-b9452d34cf35"},"vehicle_type_id":"4","last_reported":1740434931,"current_range_meters":18000,"station_id":"ce4bgrh2rcd13ifvqc8g","pricing_plan_id":"cebpf4jnsgd1na2vs0mg"},{"bike_id":"5d06753c-82cb-4e19-9f6d-37035981cdf2","system_id":"levelo_inurba_marseille","lat":43.30614,"lon":5.37216,"is_reserved":false,"is_disabled":false,"rental_uris":{"android":"levelo://app?vid=5d06753c-82cb-4e19-9f6d-37035981cdf2","ios":"levelo://app?vid=5d06753c-82cb-4e19-9f6d-37035981cdf2"},"vehicle_type_id":"4","last_reported":1740434931,"current_range_meters":19200,"station_id":"ce4bgqh2rcd13ifvqc4g","pricing_plan_id":"cebpf4jnsgd1na2vs0mg"},{"bike_id":"9a11ec48-998c-4e7a-80c1-6a36f276d3e0","system_id":"levelo_inurba_marseille","lat":43.29227,"lon":5.36862,"is_reserved":false,"is_disabled":false,"rental_uris":{"android":"levelo://app?vid=9a11ec48-998c-4e7a-80c1-6a36f276d3e0","ios":"levelo://app?vid=9a11ec48-998c-4e7a-80c1-6a36f276d3e0"},"vehicle_type_id":"4","last_reported":1740434931,"current_range_meters":18800,"station_id":"ce4bhbp2rcd13ifvqesg","pricing_plan_id":"cebpf4jnsgd1na2vs0mg"},{"bike_id":"4dc7e4f2-a657-470d-a624-4e5f489e3d1d","system_id":"levelo_inurba_marseille","lat":43.2943,"lon":5.374908,"is_reserved":false,"is_disabled":false,"rental_uris":{"android":"levelo://app?vid=4dc7e4f2-a657-470d-a624-4e5f489e3d1d","ios":"levelo://app?vid=4dc7e4f2-a657-470d-a624-4e5f489e3d1d"},"vehicle_type_id":"4","last_reported":1740434931,"current_range_meters":18800,"station_id":"","pricing_plan_id":"cebpf4jnsgd1na2vs0mg"},{"bike_id":"90d7e3e7-ce3a-4f91-9370-8f5b1b58a1f7","system_id":"levelo_inurba_marseille","lat":43.28448,"lon":5.35896,"is_reserved":false,"is_disabled":false,"rental_uris":{"android":"levelo://app?vid=90d7e3e7-ce3a-4f91-9370-8f5b1b58a1f7","ios":"levelo://app?vid=90d7e3e7-ce3a-4f91-9370-8f5b1b58a1f7"},"vehicle_type_id":"4","last_reported":1740434931,"current_range_meters":18800,"station_id":"ce4bhah2rcd13ifvqei0","pricing_plan_id":"cebpf4jnsgd1na2vs0mg"},{"bike_id":"fc4fc2bc-cc85-4ec8-a7e7-3a6ae146cf46","system_id":"levelo_inurba_marseille","lat":43.29194,"lon":5.39336,"is_reserved":false,"is_disabled":false,"rental_uris":{"android":"levelo://app?vid=fc4fc2bc-cc85-4ec8-a7e7-3a6ae146cf46","ios":"levelo://app?vid=fc4fc2bc-cc85-4ec8-a7e7-3a6ae146cf46"},"vehicle_type_id":"4","last_reported":1740434931,"current_range_meters":18800,"station_id":"ce4bh192rcd13ifvqdd0","pricing_plan_id":"cebpf4jnsgd1na2vs0mg"},{"bike_id":"5b05002f-7e6a-4c47-97c7-0858f4fd1ce4","system_id":"levelo_inurba_marseille","lat":43.28933,"lon":5.36627,"is_reserved":false,"is_disabled":false,"rental_uris":{"android":"levelo://app?vid=5b05002f-7e6a-4c47-97c7-0858f4fd1ce4","ios":"levelo://app?vid=5b05002f-7e6a-4c47-97c7-0858f4fd1ce4"},"vehicle_type_id":"4","last_reported":1740434931,"current_range_meters":18800,"station_id":"ce4bhap2rcd13ifvqek0","pricing_plan_id":"cebpf4jnsgd1na2vs0mg"},{"bike_id":"eea46f47-e6ec-4c1d-a173-6d051008e29b","system_id":"levelo_inurba_marseille","lat":43.31897,"lon":5.40727,"is_reserved":false,"is_disabled":false,"rental_uris":{"android":"levelo://app?vid=eea46f47-e6ec-4c1d-a173-6d051008e29b","ios":"levelo://app?vid=eea46f47-e6ec-4c1d-a173-6d051008e29b"},"vehicle_type_id":"4","last_reported":1740434931,"current_range_meters":18800,"station_id":"ce4bhq12rcd13ifvqhig","pricing_plan_id":"cebpf4jnsgd1na2vs0mg"},{"bike_id":"2e818ae8-4cb1-4e54-947c-f9af6bc4852f","system_id":"levelo_inurba_marseille","lat":43.32107,"lon":5.36758,"is_reserved":false,"is_disabled":false,"rental_uris":{"android":"levelo://app?vid=2e818ae8-4cb1-4e54-947c-f9af6bc4852f","ios":"levelo://app?vid=2e818ae8-4cb1-4e54-947c-f9af6bc4852f"},"vehicle_type_id":"4","last_reported":1740434931,"current_range_meters":18800,"station_id":"ce4bhrh2rcd13ifvqhug","pricing_plan_id":"cebpf4jnsgd1na2vs0mg"},{"bike_id":"bb8597cb-942c-426f-8f1b-df43f7fdd99d","system_id":"levelo_inurba_marseille","lat":43.29864,"lon":5.38912,"is_reserved":false,"is_disabled":false,"rental_uris":{"android":"levelo://app?vid=bb8597cb-942c-426f-8f1b-df43f7fdd99d","ios":"levelo://app?vid=bb8597cb-942c-426f-8f1b-df43f7fdd99d"},"vehicle_type_id":"4","last_reported":1740434931,"current_range_meters":18800,"station_id":"ce4bh392rcd13ifvqdl0","pricing_plan_id":"cebpf4jnsgd1na2vs0mg"},{"bike_id":"6ab61c77-2b78-4944-929b-3625fab47136","system_id":"levelo_inurba_marseille","lat":43.28723,"lon":5.36079,"is_reserved":false,"is_disabled":false,"rental_uris":{"android":"levelo://app?vid=6ab61c77-2b78-4944-929b-3625fab47136","ios":"levelo://app?vid=6ab61c77-2b78-4944-929b-3625fab47136"},"vehicle_type_id":"4","last_reported":1740434931,"current_range_meters":19200,"station_id":"cki0cbj6b192h4jlfktg","pricing_plan_id":"cebpf4jnsgd1na2vs0mg"},{"bike_id":"b0515007-40b4-4bc9-8421-c06a627b1e16","system_id":"levelo_inurba_marseille","lat":43.295235,"lon":5.390353,"is_reserved":false,"is_disabled":false,"rental_uris":{"android":"levelo://app?vid=b0515007-40b4-4bc9-8421-c06a627b1e16","ios":"levelo://app?vid=b0515007-40b4-4bc9-8421-c06a627b1e16"},"vehicle_type_id":"4","last_reported":1740434931,"current_range_meters":19200,"station_id":"ce4bh3p2rcd13ifvqdp0","pricing_plan_id":"cebpf4jnsgd1na2vs0mg"},{"bike_id":"342f6faa-d7db-4869-a8c6-15f071610b9c","system_id":"levelo_inurba_marseille","lat":43.29904,"lon":5.43659,"is_reserved":false,"is_disabled":false,"rental_uris":{"android":"levelo://app?vid=342f6faa-d7db-4869-a8c6-15f071610b9c","ios":"levelo://app?vid=342f6faa-d7db-4869-a8c6-15f071610b9c"},"vehicle_type_id":"4","last_reported":1740434931,"current_range_meters":19200,"station_id":"ce4bhpp2rcd13ifvqhfg","pricing_plan_id":"cebpf4jnsgd1na2vs0mg"},{"bike_id":"114038f4-ead0-4db8-9a49-34c2c851290e","system_id":"levelo_inurba_marseille","lat":43.280028,"lon":5.400103,"is_reserved":false,"is_disabled":false,"rental_uris":{"android":"levelo://app?vid=114038f4-ead0-4db8-9a49-34c2c851290e","ios":"levelo://app?vid=114038f4-ead0-4db8-9a49-34c2c851290e"},"vehicle_type_id":"4","last_reported":1740434931,"current_range_meters":19600,"station_id":"ce4bho92rcd13ifvqh4g","pricing_plan_id":"cebpf4jnsgd1na2vs0mg"},{"bike_id":"9bb96cdf-78d2-4f2d-a906-dc0df595fac7","system_id":"levelo_inurba_marseille","lat":43.26233,"lon":5.40461,"is_reserved":false,"is_disabled":false,"rental_uris":{"android":"levelo://app?vid=9bb96cdf-78d2-4f2d-a906-dc0df595fac7","ios":"levelo://app?vid=9bb96cdf-78d2-4f2d-a906-dc0df595fac7"},"vehicle_type_id":"4","last_reported":1740434931,"current_range_meters":19600,"station_id":"ce4bhmh2rcd13ifvqgmg","pricing_plan_id":"cebpf4jnsgd1na2vs0mg"},{"bike_id":"c3eaf577-384f-49be-90a6-7d88e2904d90","system_id":"levelo_inurba_marseille","lat":43.33615,"lon":5.41029,"is_reserved":false,"is_disabled":true,"rental_uris":{"android":"levelo://app?vid=c3eaf577-384f-49be-90a6-7d88e2904d90","ios":"levelo://app?vid=c3eaf577-384f-49be-90a6-7d88e2904d90"},"vehicle_type_id":"4","last_reported":1740434931,"current_range_meters":19200,"station_id":"ce4bhqh2rcd13ifvqhmg","pricing_plan_id":"cebpf4jnsgd1na2vs0mg"},{"bike_id":"0405ecb7-d759-436b-8e27-cc5f65ed09ae","system_id":"levelo_inurba_marseille","lat":43.29709,"lon":5.36617,"is_reserved":false,"is_disabled":false,"rental_uris":{"android":"levelo://app?vid=0405ecb7-d759-436b-8e27-cc5f65ed09ae","ios":"levelo://app?vid=0405ecb7-d759-436b-8e27-cc5f65ed09ae"},"vehicle_type_id":"4","last_reported":1740434931,"current_range_meters":19200,"station_id":"ce4bgn12rcd13ifvqbt0","pricing_plan_id":"cebpf4jnsgd1na2vs0mg"},{"bike_id":"cdde8eb1-59b8-4a20-8210-6e0a2c1d0159","system_id":"levelo_inurba_marseille","lat":43.30315,"lon":5.40458,"is_reserved":false,"is_disabled":false,"rental_uris":{"android":"levelo://app?vid=cdde8eb1-59b8-4a20-8210-6e0a2c1d0159","ios":"levelo://app?vid=cdde8eb1-59b8-4a20-8210-6e0a2c1d0159"},"vehicle_type_id":"4","last_reported":1740434931,"current_range_meters":17600,"station_id":"ce4bh012rcd13ifvqd10","pricing_plan_id":"cebpf4jnsgd1na2vs0mg"},{"bike_id":"44561a30-5099-4bf3-b0f6-de2ae4e1bdcb","system_id":"levelo_inurba_marseille","lat":43.30242,"lon":5.40051,"is_reserved":false,"is_disabled":false,"rental_uris":{"android":"levelo://app?vid=44561a30-5099-4bf3-b0f6-de2ae4e1bdcb","ios":"levelo://app?vid=44561a30-5099-4bf3-b0f6-de2ae4e1bdcb"},"vehicle_type_id":"4","last_reported":1740434931,"current_range_meters":19200,"station_id":"ce4bgvh2rcd13ifvqcs0","pricing_plan_id":"cebpf4jnsgd1na2vs0mg"},{"bike_id":"2d50fb33-49cb-450e-a873-325ea39b74f3","system_id":"levelo_inurba_marseille","lat":43.29701,"lon":5.36608,"is_reserved":false,"is_disabled":false,"rental_uris":{"android":"levelo://app?vid=2d50fb33-49cb-450e-a873-325ea39b74f3","ios":"levelo://app?vid=2d50fb33-49cb-450e-a873-325ea39b74f3"},"vehicle_type_id":"4","last_reported":1740434931,"current_range_meters":19200,"station_id":"ce4bgn12rcd13ifvqbt0","pricing_plan_id":"cebpf4jnsgd1na2vs0mg"},{"bike_id":"eae38a93-dd09-49e3-895a-a41c8fd42355","system_id":"levelo_inurba_marseille","lat":43.30332,"lon":5.4043,"is_reserved":false,"is_disabled":false,"rental_uris":{"android":"levelo://app?vid=eae38a93-dd09-49e3-895a-a41c8fd42355","ios":"levelo://app?vid=eae38a93-dd09-49e3-895a-a41c8fd42355"},"vehicle_type_id":"4","last_reported":1740434931,"current_range_meters":19600,"station_id":"ce4bh012rcd13ifvqd10","pricing_plan_id":"cebpf4jnsgd1na2vs0mg"},{"bike_id":"b5d36091-1710-4b39-b2b4-d70c46feeb75","system_id":"levelo_inurba_marseille","lat":43.28568,"lon":5.39502,"is_reserved":false,"is_disabled":false,"rental_uris":{"android":"levelo://app?vid=b5d36091-1710-4b39-b2b4-d70c46feeb75","ios":"levelo://app?vid=b5d36091-1710-4b39-b2b4-d70c46feeb75"},"vehicle_type_id":"4","last_reported":1740434931,"current_range_meters":17600,"station_id":"ce4bh292rcd13ifvqdg0","pricing_plan_id":"cebpf4jnsgd1na2vs0mg"},{"bike_id":"dc89590e-d487-4263-8792-a3fa4383d98a","system_id":"levelo_inurba_marseille","lat":43.28265,"lon":5.35075,"is_reserved":false,"is_disabled":false,"rental_uris":{"android":"levelo://app?vid=dc89590e-d487-4263-8792-a3fa4383d98a","ios":"levelo://app?vid=dc89590e-d487-4263-8792-a3fa4383d98a"},"vehicle_type_id":"4","last_reported":1740434931,"current_range_meters":19200,"station_id":"ce4bhbp2rcd13ifvqerg","pricing_plan_id":"cebpf4jnsgd1na2vs0mg"},{"bike_id":"2536067f-d44f-49bb-8c4c-020c9ab146cd","system_id":"levelo_inurba_marseille","lat":43.27173,"lon":5.40996,"is_reserved":false,"is_disabled":false,"rental_uris":{"android":"levelo://app?vid=2536067f-d44f-49bb-8c4c-020c9ab146cd","ios":"levelo://app?vid=2536067f-d44f-49bb-8c4c-020c9ab146cd"},"vehicle_type_id":"4","last_reported":1740434931,"current_range_meters":19600,"station_id":"ce4bhl12rcd13ifvqgf0","pricing_plan_id":"cebpf4jnsgd1na2vs0mg"},{"bike_id":"5d5f0c0b-9bc4-4b1f-8890-8f3a88d118b3","system_id":"levelo_inurba_marseille","lat":43.28618,"lon":5.3511,"is_reserved":false,"is_disabled":false,"rental_uris":{"android":"levelo://app?vid=5d5f0c0b-9bc4-4b1f-8890-8f3a88d118b3","ios":"levelo://app?vid=5d5f0c0b-9bc4-4b1f-8890-8f3a88d118b3"},"vehicle_type_id":"4","last_reported":1740434931,"current_range_meters":20000,"station_id":"ce4bhch2rcd13ifvqeug","pricing_plan_id":"cebpf4jnsgd1na2vs0mg"},{"bike_id":"3f4620bd-e809-4d47-8d7d-670726cb47b2","system_id":"levelo_inurba_marseille","lat":43.26934,"lon":5.40267,"is_reserved":false,"is_disabled":false,"rental_uris":{"android":"levelo://app?vid=3f4620bd-e809-4d47-8d7d-670726cb47b2","ios":"levelo://app?vid=3f4620bd-e809-4d47-8d7d-670726cb47b2"},"vehicle_type_id":"4","last_reported":1740434931,"current_range_meters":19600,"station_id":"cjm6bp8fraef2m0cb0m0","pricing_plan_id":"cebpf4jnsgd1na2vs0mg"},{"bike_id":"7109e895-a9a3-4b42-ab18-58c4f7272148","system_id":"levelo_inurba_marseille","lat":43.28928,"lon":5.38402,"is_reserved":false,"is_disabled":false,"rental_uris":{"android":"levelo://app?vid=7109e895-a9a3-4b42-ab18-58c4f7272148","ios":"levelo://app?vid=7109e895-a9a3-4b42-ab18-58c4f7272148"},"vehicle_type_id":"4","last_reported":1740434931,"current_range_meters":20000,"station_id":"ce4bh612rcd13ifvqe6g","pricing_plan_id":"cebpf4jnsgd1na2vs0mg"},{"bike_id":"9058162c-9726-4271-98e4-01eeb1dafe81","system_id":"levelo_inurba_marseille","lat":43.29679,"lon":5.37299,"is_reserved":false,"is_disabled":false,"rental_uris":{"android":"levelo://app?vid=9058162c-9726-4271-98e4-01eeb1dafe81","ios":"levelo://app?vid=9058162c-9726-4271-98e4-01eeb1dafe81"},"vehicle_type_id":"4","last_reported":1740434931,"current_range_meters":20000,"station_id":"ce4bgk12rcd13ifvqbj0","pricing_plan_id":"cebpf4jnsgd1na2vs0mg"},{"bike_id":"590f05cb-f3c0-4ffb-8b94-b5202b1da910","system_id":"levelo_inurba_marseille","lat":43.28263,"lon":5.35063,"is_reserved":false,"is_disabled":false,"rental_uris":{"android":"levelo://app?vid=590f05cb-f3c0-4ffb-8b94-b5202b1da910","ios":"levelo://app?vid=590f05cb-f3c0-4ffb-8b94-b5202b1da910"},"vehicle_type_id":"4","last_reported":1740434931,"current_range_meters":20000,"station_id":"ce4bhbp2rcd13ifvqerg","pricing_plan_id":"cebpf4jnsgd1na2vs0mg"},{"bike_id":"91535162-45bc-4cd6-8578-b518c091005a","system_id":"levelo_inurba_marseille","lat":43.29281,"lon":5.36852,"is_reserved":false,"is_disabled":false,"rental_uris":{"android":"levelo://app?vid=91535162-45bc-4cd6-8578-b518c091005a","ios":"levelo://app?vid=91535162-45bc-4cd6-8578-b518c091005a"},"vehicle_type_id":"4","last_reported":1740434931,"current_range_meters":20000,"station_id":"ce4bhbp2rcd13ifvqesg","pricing_plan_id":"cebpf4jnsgd1na2vs0mg"},{"bike_id":"41718f89-03f6-4ad8-8e86-f27d92547056","system_id":"levelo_inurba_marseille","lat":43.25573,"lon":5.38233,"is_reserved":false,"is_disabled":false,"rental_uris":{"android":"levelo://app?vid=41718f89-03f6-4ad8-8e86-f27d92547056","ios":"levelo://app?vid=41718f89-03f6-4ad8-8e86-f27d92547056"},"vehicle_type_id":"4","last_reported":1740434931,"current_range_meters":20400,"station_id":"ce4bhih2rcd13ifvqfs0","pricing_plan_id":"cebpf4jnsgd1na2vs0mg"},{"bike_id":"f6fd0960-b817-49fd-a347-e2adf62e3378","system_id":"levelo_inurba_marseille","lat":43.28153,"lon":5.42639,"is_reserved":false,"is_disabled":false,"rental_uris":{"android":"levelo://app?vid=f6fd0960-b817-49fd-a347-e2adf62e3378","ios":"levelo://app?vid=f6fd0960-b817-49fd-a347-e2adf62e3378"},"vehicle_type_id":"4","last_reported":1740434931,"current_range_meters":20400,"station_id":"ce4bhnh2rcd13ifvqgug","pricing_plan_id":"cebpf4jnsgd1na2vs0mg"},{"bike_id":"1aa2a96d-316f-481b-a689-ef5404669c4c","system_id":"levelo_inurba_marseille","lat":43.26919,"lon":5.3893,"is_reserved":false,"is_disabled":false,"rental_uris":{"android":"levelo://app?vid=1aa2a96d-316f-481b-a689-ef5404669c4c","ios":"levelo://app?vid=1aa2a96d-316f-481b-a689-ef5404669c4c"},"vehicle_type_id":"4","last_reported":1740434931,"current_range_meters":20400,"station_id":"ce4bhhh2rcd13ifvqfl0","pricing_plan_id":"cebpf4jnsgd1na2vs0mg"},{"bike_id":"a3bb28e1-1b0f-42f7-8497-a86eca4922dd","system_id":"levelo_inurba_marseille","lat":43.27826,"lon":5.39209,"is_reserved":false,"is_disabled":false,"rental_uris":{"android":"levelo://app?vid=a3bb28e1-1b0f-42f7-8497-a86eca4922dd","ios":"levelo://app?vid=a3bb28e1-1b0f-42f7-8497-a86eca4922dd"},"vehicle_type_id":"4","last_reported":1740434931,"current_range_meters":20000,"station_id":"ce4bhjp2rcd13ifvqga0","pricing_plan_id":"cebpf4jnsgd1na2vs0mg"},{"bike_id":"eb9a393b-65d2-4707-8a3d-b26ce65f2bf9","system_id":"levelo_inurba_marseille","lat":43.26806,"lon":5.4026,"is_reserved":false,"is_disabled":false,"rental_uris":{"android":"levelo://app?vid=eb9a393b-65d2-4707-8a3d-b26ce65f2bf9","ios":"levelo://app?vid=eb9a393b-65d2-4707-8a3d-b26ce65f2bf9"},"vehicle_type_id":"4","last_reported":1740434931,"current_range_meters":20400,"station_id":"ce501612rcd8frsf0b60","pricing_plan_id":"cebpf4jnsgd1na2vs0mg"},{"bike_id":"451ee27c-3053-4dad-97f9-30aa721d9def","system_id":"levelo_inurba_marseille","lat":43.27989,"lon":5.39998,"is_reserved":false,"is_disabled":false,"rental_uris":{"android":"levelo://app?vid=451ee27c-3053-4dad-97f9-30aa721d9def","ios":"levelo://app?vid=451ee27c-3053-4dad-97f9-30aa721d9def"},"vehicle_type_id":"4","last_reported":1740434931,"current_range_meters":20400,"station_id":"ce4bho92rcd13ifvqh4g","pricing_plan_id":"cebpf4jnsgd1na2vs0mg"},{"bike_id":"7cfdc43f-219d-4f82-a053-ace7111ace72","system_id":"levelo_inurba_marseille","lat":43.26804,"lon":5.40265,"is_reserved":false,"is_disabled":false,"rental_uris":{"android":"levelo://app?vid=7cfdc43f-219d-4f82-a053-ace7111ace72","ios":"levelo://app?vid=7cfdc43f-219d-4f82-a053-ace7111ace72"},"vehicle_type_id":"4","last_reported":1740434931,"current_range_meters":20400,"station_id":"ce501612rcd8frsf0b60","pricing_plan_id":"cebpf4jnsgd1na2vs0mg"},{"bike_id":"99a6215f-6506-4f6e-9c5e-ddad7f4be2a5","system_id":"levelo_inurba_marseille","lat":43.29902,"lon":5.4366,"is_reserved":false,"is_disabled":false,"rental_uris":{"android":"levelo://app?vid=99a6215f-6506-4f6e-9c5e-ddad7f4be2a5","ios":"levelo://app?vid=99a6215f-6506-4f6e-9c5e-ddad7f4be2a5"},"vehicle_type_id":"4","last_reported":1740434931,"current_range_meters":20400,"station_id":"ce4bhpp2rcd13ifvqhfg","pricing_plan_id":"cebpf4jnsgd1na2vs0mg"},{"bike_id":"79486965-c088-498f-8f45-61ea909d33f7","system_id":"levelo_inurba_marseille","lat":43.31108,"lon":5.37756,"is_reserved":false,"is_disabled":true,"rental_uris":{"android":"levelo://app?vid=79486965-c088-498f-8f45-61ea909d33f7","ios":"levelo://app?vid=79486965-c088-498f-8f45-61ea909d33f7"},"vehicle_type_id":"4","last_reported":1740434931,"current_range_meters":20400,"station_id":"ce4bgt92rcd13ifvqcg0","pricing_plan_id":"cebpf4jnsgd1na2vs0mg"},{"bike_id":"46d93f9d-8df9-4253-ae37-efb0674aedab","system_id":"levelo_inurba_marseille","lat":43.28077,"lon":5.39654,"is_reserved":false,"is_disabled":false,"rental_uris":{"android":"levelo://app?vid=46d93f9d-8df9-4253-ae37-efb0674aedab","ios":"levelo://app?vid=46d93f9d-8df9-4253-ae37-efb0674aedab"},"vehicle_type_id":"4","last_reported":1740434931,"current_range_meters":20400,"station_id":"ce4bho12rcd13ifvqh2g","pricing_plan_id":"cebpf4jnsgd1na2vs0mg"},{"bike_id":"e2ccd420-7f66-4cf1-ae03-c947fa626671","system_id":"levelo_inurba_marseille","lat":43.304217,"lon":5.413011,"is_reserved":false,"is_disabled":false,"rental_uris":{"android":"levelo://app?vid=e2ccd420-7f66-4cf1-ae03-c947fa626671","ios":"levelo://app?vid=e2ccd420-7f66-4cf1-ae03-c947fa626671"},"vehicle_type_id":"4","last_reported":1740434931,"current_range_meters":20800,"station_id":"ce4bhop2rcd13ifvqh8g","pricing_plan_id":"cebpf4jnsgd1na2vs0mg"},{"bike_id":"08b558ae-f5c2-4f30-808a-f8a57fad3fc7","system_id":"levelo_inurba_marseille","lat":43.25103,"lon":5.39518,"is_reserved":false,"is_disabled":false,"rental_uris":{"android":"levelo://app?vid=08b558ae-f5c2-4f30-808a-f8a57fad3fc7","ios":"levelo://app?vid=08b558ae-f5c2-4f30-808a-f8a57fad3fc7"},"vehicle_type_id":"4","last_reported":1740434931,"current_range_meters":21600,"station_id":"ce4bhm12rcd13ifvqgkg","pricing_plan_id":"cebpf4jnsgd1na2vs0mg"},{"bike_id":"b21c77a5-e540-4cda-8ea5-f87eb6cea310","system_id":"levelo_inurba_marseille","lat":43.29308,"lon":5.37468,"is_reserved":false,"is_disabled":true,"rental_uris":{"android":"levelo://app?vid=b21c77a5-e540-4cda-8ea5-f87eb6cea310","ios":"levelo://app?vid=b21c77a5-e540-4cda-8ea5-f87eb6cea310"},"vehicle_type_id":"4","last_reported":1740434931,"current_range_meters":20400,"station_id":"ce4bgi12rcd13ifvqb70","pricing_plan_id":"cebpf4jnsgd1na2vs0mg"},{"bike_id":"a2ef444c-7b72-4afb-8764-354e0ac1a462","system_id":"levelo_inurba_marseille","lat":43.31053,"lon":5.3834,"is_reserved":false,"is_disabled":false,"rental_uris":{"android":"levelo://app?vid=a2ef444c-7b72-4afb-8764-354e0ac1a462","ios":"levelo://app?vid=a2ef444c-7b72-4afb-8764-354e0ac1a462"},"vehicle_type_id":"4","last_reported":1740434931,"current_range_meters":20800,"station_id":"ce4bgv92rcd13ifvqcr0","pricing_plan_id":"cebpf4jnsgd1na2vs0mg"},{"bike_id":"5f65b958-714b-410e-b1ef-4e4f31e26087","system_id":"levelo_inurba_marseille","lat":43.2893,"lon":5.36641,"is_reserved":false,"is_disabled":false,"rental_uris":{"android":"levelo://app?vid=5f65b958-714b-410e-b1ef-4e4f31e26087","ios":"levelo://app?vid=5f65b958-714b-410e-b1ef-4e4f31e26087"},"vehicle_type_id":"4","last_reported":1740434931,"current_range_meters":21600,"station_id":"ce4bhap2rcd13ifvqek0","pricing_plan_id":"cebpf4jnsgd1na2vs0mg"},{"bike_id":"00b4d5b1-5fd8-4f50-9c43-57772cd0e558","system_id":"levelo_inurba_marseille","lat":43.29503,"lon":5.39037,"is_reserved":false,"is_disabled":false,"rental_uris":{"android":"levelo://app?vid=00b4d5b1-5fd8-4f50-9c43-57772cd0e558","ios":"levelo://app?vid=00b4d5b1-5fd8-4f50-9c43-57772cd0e558"},"vehicle_type_id":"4","last_reported":1740434931,"current_range_meters":21600,"station_id":"ce4bh3p2rcd13ifvqdp0","pricing_plan_id":"cebpf4jnsgd1na2vs0mg"},{"bike_id":"9bcb6e74-9384-4520-a191-6ca3da24e600","system_id":"levelo_inurba_marseille","lat":43.24157,"lon":5.36396,"is_reserved":false,"is_disabled":false,"rental_uris":{"android":"levelo://app?vid=9bcb6e74-9384-4520-a191-6ca3da24e600","ios":"levelo://app?vid=9bcb6e74-9384-4520-a191-6ca3da24e600"},"vehicle_type_id":"4","last_reported":1740434931,"current_range_meters":21600,"station_id":"cpo36qri1sfpv3e86is0","pricing_plan_id":"cebpf4jnsgd1na2vs0mg"},{"bike_id":"1d1059e6-1dc4-4bed-941f-0a5eaeafc27c","system_id":"levelo_inurba_marseille","lat":43.3127,"lon":5.40164,"is_reserved":false,"is_disabled":false,"rental_uris":{"android":"levelo://app?vid=1d1059e6-1dc4-4bed-941f-0a5eaeafc27c","ios":"levelo://app?vid=1d1059e6-1dc4-4bed-941f-0a5eaeafc27c"},"vehicle_type_id":"4","last_reported":1740434931,"current_range_meters":20000,"station_id":"ce4bh092rcd13ifvqd30","pricing_plan_id":"cebpf4jnsgd1na2vs0mg"},{"bike_id":"4e12cfdc-817a-43b3-9fa6-9fe755faad80","system_id":"levelo_inurba_marseille","lat":43.24399,"lon":5.37035,"is_reserved":false,"is_disabled":false,"rental_uris":{"android":"levelo://app?vid=4e12cfdc-817a-43b3-9fa6-9fe755faad80","ios":"levelo://app?vid=4e12cfdc-817a-43b3-9fa6-9fe755faad80"},"vehicle_type_id":"4","last_reported":1740434931,"current_range_meters":20800,"station_id":"ce4bhhh2rcd13ifvqfk0","pricing_plan_id":"cebpf4jnsgd1na2vs0mg"},{"bike_id":"8de92e6d-0645-4c8c-afae-fca8c8464e55","system_id":"levelo_inurba_marseille","lat":43.28156,"lon":5.4265,"is_reserved":false,"is_disabled":false,"rental_uris":{"android":"levelo://app?vid=8de92e6d-0645-4c8c-afae-fca8c8464e55","ios":"levelo://app?vid=8de92e6d-0645-4c8c-afae-fca8c8464e55"},"vehicle_type_id":"4","last_reported":1740434931,"current_range_meters":20800,"station_id":"ce4bhnh2rcd13ifvqgug","pricing_plan_id":"cebpf4jnsgd1na2vs0mg"},{"bike_id":"31852a57-9484-4d6b-a810-99fa57a3f774","system_id":"levelo_inurba_marseille","lat":43.28464,"lon":5.35889,"is_reserved":false,"is_disabled":false,"rental_uris":{"android":"levelo://app?vid=31852a57-9484-4d6b-a810-99fa57a3f774","ios":"levelo://app?vid=31852a57-9484-4d6b-a810-99fa57a3f774"},"vehicle_type_id":"4","last_reported":1740434931,"current_range_meters":21600,"station_id":"ce4bhah2rcd13ifvqei0","pricing_plan_id":"cebpf4jnsgd1na2vs0mg"},{"bike_id":"2493185a-4034-4257-864e-a16b123adc10","system_id":"levelo_inurba_marseille","lat":43.30796,"lon":5.38168,"is_reserved":false,"is_disabled":false,"rental_uris":{"android":"levelo://app?vid=2493185a-4034-4257-864e-a16b123adc10","ios":"levelo://app?vid=2493185a-4034-4257-864e-a16b123adc10"},"vehicle_type_id":"4","last_reported":1740434931,"current_range_meters":21600,"station_id":"ce4bgt12rcd13ifvqce0","pricing_plan_id":"cebpf4jnsgd1na2vs0mg"},{"bike_id":"45cf12c1-bde0-40bf-882d-b8398a59cb4d","system_id":"levelo_inurba_marseille","lat":43.28167,"lon":5.42645,"is_reserved":false,"is_disabled":false,"rental_uris":{"android":"levelo://app?vid=45cf12c1-bde0-40bf-882d-b8398a59cb4d","ios":"levelo://app?vid=45cf12c1-bde0-40bf-882d-b8398a59cb4d"},"vehicle_type_id":"4","last_reported":1740434931,"current_range_meters":22000,"station_id":"ce4bhnh2rcd13ifvqgug","pricing_plan_id":"cebpf4jnsgd1na2vs0mg"},{"bike_id":"27e0906b-c710-411e-84b2-c4523bc0cda7","system_id":"levelo_inurba_marseille","lat":43.289561,"lon":5.364837,"is_reserved":false,"is_disabled":false,"rental_uris":{"android":"levelo://app?vid=27e0906b-c710-411e-84b2-c4523bc0cda7","ios":"levelo://app?vid=27e0906b-c710-411e-84b2-c4523bc0cda7"},"vehicle_type_id":"4","last_reported":1740434931,"current_range_meters":22000,"station_id":"ce4bha92rcd13ifvqeg0","pricing_plan_id":"cebpf4jnsgd1na2vs0mg"},{"bike_id":"03f8ecf4-f41c-40ac-83df-fdda1fdc2f2e","system_id":"levelo_inurba_marseille","lat":43.32365,"lon":5.38904,"is_reserved":false,"is_disabled":false,"rental_uris":{"android":"levelo://app?vid=03f8ecf4-f41c-40ac-83df-fdda1fdc2f2e","ios":"levelo://app?vid=03f8ecf4-f41c-40ac-83df-fdda1fdc2f2e"},"vehicle_type_id":"4","last_reported":1740434931,"current_range_meters":22000,"station_id":"ce4bhqp2rcd13ifvqhog","pricing_plan_id":"cebpf4jnsgd1na2vs0mg"},{"bike_id":"3652c2ba-ebbd-4e1e-906d-f53d57607269","system_id":"levelo_inurba_marseille","lat":43.28016,"lon":5.3693,"is_reserved":false,"is_disabled":false,"rental_uris":{"android":"levelo://app?vid=3652c2ba-ebbd-4e1e-906d-f53d57607269","ios":"levelo://app?vid=3652c2ba-ebbd-4e1e-906d-f53d57607269"},"vehicle_type_id":"4","last_reported":1740434931,"current_range_meters":22000,"station_id":"ce4bha12rcd13ifvqef0","pricing_plan_id":"cebpf4jnsgd1na2vs0mg"},{"bike_id":"de79be54-b4b1-4e94-b963-59024d584aab","system_id":"levelo_inurba_marseille","lat":43.28717,"lon":5.37929,"is_reserved":false,"is_disabled":false,"rental_uris":{"android":"levelo://app?vid=de79be54-b4b1-4e94-b963-59024d584aab","ios":"levelo://app?vid=de79be54-b4b1-4e94-b963-59024d584aab"},"vehicle_type_id":"4","last_reported":1740434931,"current_range_meters":22000,"station_id":"ce4bh9p2rcd13ifvqec0","pricing_plan_id":"cebpf4jnsgd1na2vs0mg"},{"bike_id":"d7b86c71-089b-48f6-a952-fb6803fe85b1","system_id":"levelo_inurba_marseille","lat":43.2609,"lon":5.40345,"is_reserved":false,"is_disabled":false,"rental_uris":{"android":"levelo://app?vid=d7b86c71-089b-48f6-a952-fb6803fe85b1","ios":"levelo://app?vid=d7b86c71-089b-48f6-a952-fb6803fe85b1"},"vehicle_type_id":"4","last_reported":1740434931,"current_range_meters":22400,"station_id":"","pricing_plan_id":"cebpf4jnsgd1na2vs0mg"},{"bike_id":"d15aadb9-ee0c-4098-836c-7f371e3531aa","system_id":"levelo_inurba_marseille","lat":43.31112,"lon":5.37756,"is_reserved":false,"is_disabled":false,"rental_uris":{"android":"levelo://app?vid=d15aadb9-ee0c-4098-836c-7f371e3531aa","ios":"levelo://app?vid=d15aadb9-ee0c-4098-836c-7f371e3531aa"},"vehicle_type_id":"4","last_reported":1740434931,"current_range_meters":22000,"station_id":"ce4bgt92rcd13ifvqcg0","pricing_plan_id":"cebpf4jnsgd1na2vs0mg"},{"bike_id":"1689280f-07a9-4fc4-8620-657cfc110c5a","system_id":"levelo_inurba_marseille","lat":43.29246,"lon":5.40908,"is_reserved":false,"is_disabled":false,"rental_uris":{"android":"levelo://app?vid=1689280f-07a9-4fc4-8620-657cfc110c5a","ios":"levelo://app?vid=1689280f-07a9-4fc4-8620-657cfc110c5a"},"vehicle_type_id":"4","last_reported":1740434931,"current_range_meters":22400,"station_id":"ce4bh192rcd13ifvqdc0","pricing_plan_id":"cebpf4jnsgd1na2vs0mg"},{"bike_id":"a52c93a1-9287-4e44-9b56-bccd9b77fa30","system_id":"levelo_inurba_marseille","lat":43.30873,"lon":5.39644,"is_reserved":false,"is_disabled":false,"rental_uris":{"android":"levelo://app?vid=a52c93a1-9287-4e44-9b56-bccd9b77fa30","ios":"levelo://app?vid=a52c93a1-9287-4e44-9b56-bccd9b77fa30"},"vehicle_type_id":"4","last_reported":1740434931,"current_range_meters":22400,"station_id":"ce4bh012rcd13ifvqcv0","pricing_plan_id":"cebpf4jnsgd1na2vs0mg"},{"bike_id":"756972c1-70c8-45a6-88ed-a5dc01a77f62","system_id":"levelo_inurba_marseille","lat":43.28698,"lon":5.39984,"is_reserved":false,"is_disabled":false,"rental_uris":{"android":"levelo://app?vid=756972c1-70c8-45a6-88ed-a5dc01a77f62","ios":"levelo://app?vid=756972c1-70c8-45a6-88ed-a5dc01a77f62"},"vehicle_type_id":"4","last_reported":1740434931,"current_range_meters":22400,"station_id":"ce4bho92rcd13ifvqh3g","pricing_plan_id":"cebpf4jnsgd1na2vs0mg"},{"bike_id":"474602bc-c50d-42bd-bb2a-f5c9602c8ee8","system_id":"levelo_inurba_marseille","lat":43.33032,"lon":5.3904,"is_reserved":false,"is_disabled":false,"rental_uris":{"android":"levelo://app?vid=474602bc-c50d-42bd-bb2a-f5c9602c8ee8","ios":"levelo://app?vid=474602bc-c50d-42bd-bb2a-f5c9602c8ee8"},"vehicle_type_id":"4","last_reported":1740434931,"current_range_meters":22400,"station_id":"ce4bhr92rcd13ifvqhrg","pricing_plan_id":"cebpf4jnsgd1na2vs0mg"},{"bike_id":"f7db21ff-1972-47b5-bd60-13e64d49927d","system_id":"levelo_inurba_marseille","lat":43.30531,"lon":5.36724,"is_reserved":false,"is_disabled":false,"rental_uris":{"android":"levelo://app?vid=f7db21ff-1972-47b5-bd60-13e64d49927d","ios":"levelo://app?vid=f7db21ff-1972-47b5-bd60-13e64d49927d"},"vehicle_type_id":"4","last_reported":1740434931,"current_range_meters":20000,"station_id":"ce4bgrp2rcd13ifvqc9g","pricing_plan_id":"cebpf4jnsgd1na2vs0mg"},{"bike_id":"c96fc18e-e3be-48cb-9501-691f901bc09a","system_id":"levelo_inurba_marseille","lat":43.29899,"lon":5.43657,"is_reserved":false,"is_disabled":false,"rental_uris":{"android":"levelo://app?vid=c96fc18e-e3be-48cb-9501-691f901bc09a","ios":"levelo://app?vid=c96fc18e-e3be-48cb-9501-691f901bc09a"},"vehicle_type_id":"4","last_reported":1740434931,"current_range_meters":22400,"station_id":"ce4bhpp2rcd13ifvqhfg","pricing_plan_id":"cebpf4jnsgd1na2vs0mg"},{"bike_id":"5ef9defa-c6d2-40d8-a09d-a579c49e9b03","system_id":"levelo_inurba_marseille","lat":43.284,"lon":5.37528,"is_reserved":false,"is_disabled":false,"rental_uris":{"android":"levelo://app?vid=5ef9defa-c6d2-40d8-a09d-a579c49e9b03","ios":"levelo://app?vid=5ef9defa-c6d2-40d8-a09d-a579c49e9b03"},"vehicle_type_id":"4","last_reported":1740434931,"current_range_meters":22800,"station_id":"ce4bh412rcd13ifvqds0","pricing_plan_id":"cebpf4jnsgd1na2vs0mg"},{"bike_id":"a2818a8c-a6e3-4f5c-ad30-9bd10361a5f5","system_id":"levelo_inurba_marseille","lat":43.29267,"lon":5.40132,"is_reserved":false,"is_disabled":false,"rental_uris":{"android":"levelo://app?vid=a2818a8c-a6e3-4f5c-ad30-9bd10361a5f5","ios":"levelo://app?vid=a2818a8c-a6e3-4f5c-ad30-9bd10361a5f5"},"vehicle_type_id":"4","last_reported":1740434931,"current_range_meters":23200,"station_id":"ce4bh312rcd13ifvqdk0","pricing_plan_id":"cebpf4jnsgd1na2vs0mg"},{"bike_id":"052e2ad7-d79c-46cc-b395-ae79f0654a7a","system_id":"levelo_inurba_marseille","lat":43.2893,"lon":5.36392,"is_reserved":false,"is_disabled":false,"rental_uris":{"android":"levelo://app?vid=052e2ad7-d79c-46cc-b395-ae79f0654a7a","ios":"levelo://app?vid=052e2ad7-d79c-46cc-b395-ae79f0654a7a"},