{"last_updated":1747376164,"ttl":60,"version":"2.2","data":{"bikes":[{"bike_id":"c0b9fd4f-e181-46ce-b0bf-f5119973334f","system_id":"levelo_inurba_marseille","lat":43.33771,"lon":5.37424,"is_reserved":false,"is_disabled":false,"rental_uris":{"android":"levelo://app?vid=c0b9fd4f-e181-46ce-b0bf-f5119973334f","ios":"levelo://app?vid=c0b9fd4f-e181-46ce-b0bf-f5119973334f"},"vehicle_type_id":"4","last_reported":1747376165,"current_range_meters":11200,"station_id":"","pricing_plan_id":"cebpf4jnsgd1na2vs0mg"},{"bike_id":"fc2577e7-1497-425b-9d4f-ab8d7dc843c6","system_id":"levelo_inurba_marseille","lat":43.33771,"lon":5.37485,"is_reserved":false,"is_disabled":true,"rental_uris":{"android":"levelo://app?vid=fc2577e7-1497-425b-9d4f-ab8d7dc843c6","ios":"levelo://app?vid=fc2577e7-1497-425b-9d4f-ab8d7dc843c6"},"vehicle_type_id":"4","last_reported":1747376165,"current_range_meters":0,"station_id":"","pricing_plan_id":"cebpf4jnsgd1na2vs0mg"},{"bike_id":"5e9fa20e-1340-4d0d-b683-901a4275ba5d","system_id":"levelo_inurba_marseille","lat":43.28181,"lon":5.425331,"is_reserved":false,"is_disabled":true,"rental_uris":{"android":"levelo://app?vid=5e9fa20e-1340-4d0d-b683-901a4275ba5d","ios":"levelo://app?vid=5e9fa20e-1340-4d0d-b683-901a4275ba5d"},"vehicle_type_id":"4","last_reported":1747376165,"current_range_meters":0,"station_id":"","pricing_plan_id":"cebpf4jnsgd1na2vs0mg"},{"bike_id":"ce4325af-2448-4172-bdec-81d552ee0b62","system_id":"levelo_inurba_marseille","lat":43.2615,"lon":5.42031,"is_reserved":false,"is_disabled":true,"rental_uris":{"android":"levelo://app?vid=ce4325af-2448-4172-bdec-81d552ee0b62","ios":"levelo://app?vid=ce4325af-2448-4172-bdec-81d552ee0b62"},"vehicle_type_id":"4","last_reported":1747376165,"current_range_meters":0,"station_id":"","pricing_plan_id":"cebpf4jnsgd1na2vs0mg"},{"bike_id":"e62a2c8b-ebd4-4592-ae0f-ff5560db0b84","system_id":"levelo_inurba_marseille","lat":43.246816,"lon":5.399516,"is_reserved":false,"is_disabled":true,"rental_uris":{"android":"levelo://app?vid=e62a2c8b-ebd4-4592-ae0f-ff5560db0b84","ios":"levelo://app?vid=e62a2c8b-ebd4-4592-ae0f-ff5560db0b84"},"vehicle_type_id":"4","last_reported":1747376165,"current_range_meters":0,"station_id":"","pricing_plan_id":"cebpf4jnsgd1na2vs0mg"},{"bike_id":"8ed2114e-9e0d-4676-8583-25195ab5b357","system_id":"levelo_inurba_marseille","lat":43.27942,"lon":5.38693,"is_reserved":false,"is_disabled":true,"rental_uris":{"android":"levelo://app?vid=8ed2114e-9e0d-4676-8583-25195ab5b357","ios":"levelo://app?vid=8ed2114e-9e0d-4676-8583-25195ab5b357"},"vehicle_type_id":"4","last_reported":1747376165,"current_range_meters":0,"station_id":"","pricing_plan_id":"cebpf4jnsgd1na2vs0mg"},{"bike_id":"7904e55c-80d5-4167-ba52-baa82330bb66","system_id":"levelo_inurba_marseille","lat":43.27848,"lon":5.38793,"is_reserved":false,"is_disabled":true,"rental_uris":{"android":"levelo://app?vid=7904e55c-80d5-4167-ba52-baa82330bb66","ios":"levelo://app?vid=7904e55c-80d5-4167-ba52-baa82330bb66"},"vehicle_type_id":"4","last_reported":1747376165,"current_range_meters":0,"station_id":"","pricing_plan_id":"cebpf4jnsgd1na2vs0mg"},{"bike_id":"2b8fbf5f-4106-421b-bd48-29543ccb14db","system_id":"levelo_inurba_marseille","lat":43.23696,"lon":5.36289,"is_reserved":false,"is_disabled":true,"rental_uris":{"android":"levelo://app?vid=2b8fbf5f-4106-421b-bd48-29543ccb14db","ios":"levelo://app?vid=2b8fbf5f-4106-421b-bd48-29543ccb14db"},"vehicle_type_id":"4","last_reported":1747376165,"current_range_meters":0,"station_id":"","pricing_plan_id":"cebpf4jnsgd1na2vs0mg"},{"bike_id":"5de4311e-acc0-4747-9be3-06bcfa4d137e","system_id":"levelo_inurba_marseille","lat":43.31974,"lon":5.38722,"is_reserved":false,"is_disabled":true,"rental_uris":{"android":"levelo://app?vid=5de4311e-acc0-4747-9be3-06bcfa4d137e","ios":"levelo://app?vid=5de4311e-acc0-4747-9be3-06bcfa4d137e"},"vehicle_type_id":"4","last_reported":1747376165,"current_range_meters":0,"station_id":"","pricing_plan_id":"cebpf4jnsgd1na2vs0mg"},{"bike_id":"772b6fff-1447-445e-950b-c2e27d6bb6b1","system_id":"levelo_inurba_marseille","lat":43.31188,"lon":5.3759,"is_reserved":false,"is_disabled":true,"rental_uris":{"android":"levelo://app?vid=772b6fff-1447-445e-950b-c2e27d6bb6b1","ios":"levelo://app?vid=772b6fff-1447-445e-950b-c2e27d6bb6b1"},"vehicle_type_id":"4","last_reported":1747376165,"current_range_meters":0,"station_id":"","pricing_plan_id":"cebpf4jnsgd1na2vs0mg"},{"bike_id":"792567c6-0442-4011-aff0-9c05e25deb48","system_id":"levelo_inurba_marseille","lat":43.337444,"lon":5.374475,"is_reserved":false,"is_disabled":true,"rental_uris":{"android":"levelo://app?vid=792567c6-0442-4011-aff0-9c05e25deb48","ios":"levelo://app?vid=792567c6-0442-4011-aff0-9c05e25deb48"},"vehicle_type_id":"4","last_reported":1747376165,"current_range_meters":0,"station_id":"","pricing_plan_id":"cebpf4jnsgd1na2vs0mg"},{"bike_id":"2a5dafaf-54ec-4df0-8510-39053ad2d582","system_id":"levelo_inurba_marseille","lat":43.33184,"lon":5.39191,"is_reserved":false,"is_disabled":true,"rental_uris":{"android":"levelo://app?vid=2a5dafaf-54ec-4df0-8510-39053ad2d582","ios":"levelo://app?vid=2a5dafaf-54ec-4df0-8510-39053ad2d582"},"vehicle_type_id":"4","last_reported":1747376165,"current_range_meters":0,"station_id":"","pricing_plan_id":"cebpf4jnsgd1na2vs0mg"},{"bike_id":"0fd4bff8-7683-40d4-b0ae-c129cdc72cba","system_id":"levelo_inurba_marseille","lat":43.3067,"lon":5.40433,"is_reserved":false,"is_disabled":true,"rental_uris":{"android":"levelo://app?vid=0fd4bff8-7683-40d4-b0ae-c129cdc72cba","ios":"levelo://app?vid=0fd4bff8-7683-40d4-b0ae-c129cdc72cba"},"vehicle_type_id":"4","last_reported":1747376165,"current_range_meters":0,"station_id":"","pricing_plan_id":"cebpf4jnsgd1na2vs0mg"},{"bike_id":"7721a8d1-93a2-4108-9ca3-306331433e73","system_id":"levelo_inurba_marseille","lat":43.30538,"lon":5.38419,"is_reserved":false,"is_disabled":true,"rental_uris":{"android":"levelo://app?vid=7721a8d1-93a2-4108-9ca3-306331433e73","ios":"levelo://app?vid=7721a8d1-93a2-4108-9ca3-306331433e73"},"vehicle_type_id":"4","last_reported":1747376165,"current_range_meters":0,"station_id":"ce4bgg92rcd13ifvqb30","pricing_plan_id":"cebpf4jnsgd1na2vs0mg"},{"bike_id":"906c1dd6-dcce-4701-9b6a-ab6a467ccdad","system_id":"levelo_inurba_marseille","lat":43.30946,"lon":5.39031,"is_reserved":false,"is_disabled":true,"rental_uris":{"android":"levelo://app?vid=906c1dd6-dcce-4701-9b6a-ab6a467ccdad","ios":"levelo://app?vid=906c1dd6-dcce-4701-9b6a-ab6a467ccdad"},"vehicle_type_id":"4","last_reported":1747376165,"current_range_meters":0,"station_id":"ce4bgup2rcd13ifvqco0","pricing_plan_id":"cebpf4jnsgd1na2vs0mg"},{"bike_id":"e5f915eb-6443-4749-b8e9-82105a2935ba","system_id":"levelo_inurba_marseille","lat":43.28847,"lon":5.39341,"is_reserved":false,"is_disabled":true,"rental_uris":{"android":"levelo://app?vid=e5f915eb-6443-4749-b8e9-82105a2935ba","ios":"levelo://app?vid=e5f915eb-6443-4749-b8e9-82105a2935ba"},"vehicle_type_id":"4","last_reported":1747376165,"current_range_meters":0,"station_id":"ce4bh2p2rcd13ifvqdi0","pricing_plan_id":"cebpf4jnsgd1na2vs0mg"},{"bike_id":"ad4822f5-dceb-440b-9bcb-6cfc5e9af24d","system_id":"levelo_inurba_marseille","lat":43.297909,"lon":5.426663,"is_reserved":false,"is_disabled":true,"rental_uris":{"android":"levelo://app?vid=ad4822f5-dceb-440b-9bcb-6cfc5e9af24d","ios":"levelo://app?vid=ad4822f5-dceb-440b-9bcb-6cfc5e9af24d"},"vehicle_type_id":"4","last_reported":1747376165,"current_range_meters":400,"station_id":"","pricing_plan_id":"cebpf4jnsgd1na2vs0mg"},{"bike_id":"a7be7457-0d6d-4890-957f-db3534d5c4f2","system_id":"levelo_inurba_marseille","lat":43.24797,"lon":5.37464,"is_reserved":false,"is_disabled":true,"rental_uris":{"android":"levelo://app?vid=a7be7457-0d6d-4890-957f-db3534d5c4f2","ios":"levelo://app?vid=a7be7457-0d6d-4890-957f-db3534d5c4f2"},"vehicle_type_id":"4","last_reported":1747376165,"current_range_meters":400,"station_id":"ce4bhgh2rcd13ifvqfb0","pricing_plan_id":"cebpf4jnsgd1na2vs0mg"},{"bike_id":"bdc7870e-fbf8-4909-b96e-77d00180aef1","system_id":"levelo_inurba_marseille","lat":43.25501,"lon":5.37648,"is_reserved":false,"is_disabled":true,"rental_uris":{"android":"levelo://app?vid=bdc7870e-fbf8-4909-b96e-77d00180aef1","ios":"levelo://app?vid=bdc7870e-fbf8-4909-b96e-77d00180aef1"},"vehicle_type_id":"4","last_reported":1747376165,"current_range_meters":400,"station_id":"ce4bhh12rcd13ifvqff0","pricing_plan_id":"cebpf4jnsgd1na2vs0mg"},{"bike_id":"245fabe4-46dc-49bf-8a93-394efaca29aa","system_id":"levelo_inurba_marseille","lat":43.28733,"lon":5.40082,"is_reserved":false,"is_disabled":true,"rental_uris":{"android":"levelo://app?vid=245fabe4-46dc-49bf-8a93-394efaca29aa","ios":"levelo://app?vid=245fabe4-46dc-49bf-8a93-394efaca29aa"},"vehicle_type_id":"4","last_reported":1747376165,"current_range_meters":800,"station_id":"","pricing_plan_id":"cebpf4jnsgd1na2vs0mg"},{"bike_id":"5ad2c78b-3dab-442c-93d8-454433d1e279","system_id":"levelo_inurba_marseille","lat":43.29532,"lon":5.37572,"is_reserved":false,"is_disabled":true,"rental_uris":{"android":"levelo://app?vid=5ad2c78b-3dab-442c-93d8-454433d1e279","ios":"levelo://app?vid=5ad2c78b-3dab-442c-93d8-454433d1e279"},"vehicle_type_id":"4","last_reported":1747376165,"current_range_meters":800,"station_id":"","pricing_plan_id":"cebpf4jnsgd1na2vs0mg"},{"bike_id":"defeb2d6-a3ba-4112-9b87-70dc47f355ca","system_id":"levelo_inurba_marseille","lat":43.309224,"lon":5.401446,"is_reserved":false,"is_disabled":true,"rental_uris":{"android":"levelo://app?vid=defeb2d6-a3ba-4112-9b87-70dc47f355ca","ios":"levelo://app?vid=defeb2d6-a3ba-4112-9b87-70dc47f355ca"},"vehicle_type_id":"4","last_reported":1747376165,"current_range_meters":800,"station_id":"ce4bgvp2rcd13ifvqct0","pricing_plan_id":"cebpf4jnsgd1na2vs0mg"},{"bike_id":"6f532ab9-01e5-4ccb-bcdf-d7174be93607","system_id":"levelo_inurba_marseille","lat":43.286382,"lon":5.387841,"is_reserved":false,"is_disabled":true,"rental_uris":{"android":"levelo://app?vid=6f532ab9-01e5-4ccb-bcdf-d7174be93607","ios":"levelo://app?vid=6f532ab9-01e5-4ccb-bcdf-d7174be93607"},"vehicle_type_id":"4","last_reported":1747376165,"current_range_meters":800,"station_id":"ce4bh492rcd13ifvqdug","pricing_plan_id":"cebpf4jnsgd1na2vs0mg"},{"bike_id":"ee011d9c-77e8-4ec0-a115-350c23bebe0e","system_id":"levelo_inurba_marseille","lat":43.28716,"lon":5.379374,"is_reserved":false,"is_disabled":true,"rental_uris":{"android":"levelo://app?vid=ee011d9c-77e8-4ec0-a115-350c23bebe0e","ios":"levelo://app?vid=ee011d9c-77e8-4ec0-a115-350c23bebe0e"},"vehicle_type_id":"4","last_reported":1747376165,"current_range_meters":800,"station_id":"ce4bh9p2rcd13ifvqec0","pricing_plan_id":"cebpf4jnsgd1na2vs0mg"},{"bike_id":"5ea8acd0-9747-4063-b2d7-ac143ecf4a74","system_id":"levelo_inurba_marseille","lat":43.3236,"lon":5.38871,"is_reserved":false,"is_disabled":true,"rental_uris":{"android":"levelo://app?vid=5ea8acd0-9747-4063-b2d7-ac143ecf4a74","ios":"levelo://app?vid=5ea8acd0-9747-4063-b2d7-ac143ecf4a74"},"vehicle_type_id":"4","last_reported":1747376165,"current_range_meters":800,"station_id":"ce4bhqp2rcd13ifvqhog","pricing_plan_id":"cebpf4jnsgd1na2vs0mg"},{"bike_id":"a73d127f-5b1e-4c85-b09d-7b4a39558bb7","system_id":"levelo_inurba_marseille","lat":43.29886,"lon":5.38402,"is_reserved":false,"is_disabled":true,"rental_uris":{"android":"levelo://app?vid=a73d127f-5b1e-4c85-b09d-7b4a39558bb7","ios":"levelo://app?vid=a73d127f-5b1e-4c85-b09d-7b4a39558bb7"},"vehicle_type_id":"4","last_reported":1747376165,"current_range_meters":1200,"station_id":"","pricing_plan_id":"cebpf4jnsgd1na2vs0mg"},{"bike_id":"cba3eb64-06de-4910-be2c-3d3cdc00ee8c","system_id":"levelo_inurba_marseille","lat":43.30601,"lon":5.393623,"is_reserved":false,"is_disabled":true,"rental_uris":{"android":"levelo://app?vid=cba3eb64-06de-4910-be2c-3d3cdc00ee8c","ios":"levelo://app?vid=cba3eb64-06de-4910-be2c-3d3cdc00ee8c"},"vehicle_type_id":"4","last_reported":1747376165,"current_range_meters":1200,"station_id":"ce4bh0p2rcd13ifvqd80","pricing_plan_id":"cebpf4jnsgd1na2vs0mg"},{"bike_id":"080bb9bf-c1f4-4d27-b2ee-289b7bae96fb","system_id":"levelo_inurba_marseille","lat":43.29877,"lon":5.38897,"is_reserved":false,"is_disabled":true,"rental_uris":{"android":"levelo://app?vid=080bb9bf-c1f4-4d27-b2ee-289b7bae96fb","ios":"levelo://app?vid=080bb9bf-c1f4-4d27-b2ee-289b7bae96fb"},"vehicle_type_id":"4","last_reported":1747376165,"current_range_meters":1200,"station_id":"ce4bh392rcd13ifvqdl0","pricing_plan_id":"cebpf4jnsgd1na2vs0mg"},{"bike_id":"1dc04bb6-c23e-4d20-b6fc-152bd86dde0d","system_id":"levelo_inurba_marseille","lat":43.32648,"lon":5.40984,"is_reserved":false,"is_disabled":true,"rental_uris":{"android":"levelo://app?vid=1dc04bb6-c23e-4d20-b6fc-152bd86dde0d","ios":"levelo://app?vid=1dc04bb6-c23e-4d20-b6fc-152bd86dde0d"},"vehicle_type_id":"4","last_reported":1747376165,"current_range_meters":1200,"station_id":"ce4bhpp2rcd13ifvqhgg","pricing_plan_id":"cebpf4jnsgd1na2vs0mg"},{"bike_id":"be874d11-2d06-4759-83a6-05c7c2bc5f88","system_id":"levelo_inurba_marseille","lat":43.269836,"lon":5.39149,"is_reserved":false,"is_disabled":true,"rental_uris":{"android":"levelo://app?vid=be874d11-2d06-4759-83a6-05c7c2bc5f88","ios":"levelo://app?vid=be874d11-2d06-4759-83a6-05c7c2bc5f88"},"vehicle_type_id":"4","last_reported":1747376165,"current_range_meters":1600,"station_id":"","pricing_plan_id":"cebpf4jnsgd1na2vs0mg"},{"bike_id":"fe099644-59e4-438f-a009-e4740039a77d","system_id":"levelo_inurba_marseille","lat":43.30801,"lon":5.3815,"is_reserved":false,"is_disabled":true,"rental_uris":{"android":"levelo://app?vid=fe099644-59e4-438f-a009-e4740039a77d","ios":"levelo://app?vid=fe099644-59e4-438f-a009-e4740039a77d"},"vehicle_type_id":"4","last_reported":1747376165,"current_range_meters":1600,"station_id":"ce4bgt12rcd13ifvqce0","pricing_plan_id":"cebpf4jnsgd1na2vs0mg"},{"bike_id":"7b8971de-6d79-40c1-bc40-eb3d54075496","system_id":"levelo_inurba_marseille","lat":43.29036,"lon":5.39962,"is_reserved":false,"is_disabled":true,"rental_uris":{"android":"levelo://app?vid=7b8971de-6d79-40c1-bc40-eb3d54075496","ios":"levelo://app?vid=7b8971de-6d79-40c1-bc40-eb3d54075496"},"vehicle_type_id":"4","last_reported":1747376165,"current_range_meters":1600,"station_id":"ce4bh392rcd13ifvqdm0","pricing_plan_id":"cebpf4jnsgd1na2vs0mg"},{"bike_id":"df672d52-d3df-48fa-af08-4fcc3fafd8e3","system_id":"levelo_inurba_marseille","lat":43.28937,"lon":5.36632,"is_reserved":false,"is_disabled":true,"rental_uris":{"android":"levelo://app?vid=df672d52-d3df-48fa-af08-4fcc3fafd8e3","ios":"levelo://app?vid=df672d52-d3df-48fa-af08-4fcc3fafd8e3"},"vehicle_type_id":"4","last_reported":1747376165,"current_range_meters":1600,"station_id":"ce4bhap2rcd13ifvqek0","pricing_plan_id":"cebpf4jnsgd1na2vs0mg"},{"bike_id":"f9e7d873-88bb-4f94-a0d6-3fcae7d05021","system_id":"levelo_inurba_marseille","lat":43.308206,"lon":5.369714,"is_reserved":false,"is_disabled":true,"rental_uris":{"android":"levelo://app?vid=f9e7d873-88bb-4f94-a0d6-3fcae7d05021","ios":"levelo://app?vid=f9e7d873-88bb-4f94-a0d6-3fcae7d05021"},"vehicle_type_id":"4","last_reported":1747376165,"current_range_meters":2000,"station_id":"","pricing_plan_id":"cebpf4jnsgd1na2vs0mg"},{"bike_id":"aa8baf82-bc49-498b-842b-69b5285a08ca","system_id":"levelo_inurba_marseille","lat":43.27066,"lon":5.4227,"is_reserved":false,"is_disabled":true,"rental_uris":{"android":"levelo://app?vid=aa8baf82-bc49-498b-842b-69b5285a08ca","ios":"levelo://app?vid=aa8baf82-bc49-498b-842b-69b5285a08ca"},"vehicle_type_id":"4","last_reported":1747376165,"current_range_meters":2000,"station_id":"ce4bhk92rcd13ifvqgb0","pricing_plan_id":"cebpf4jnsgd1na2vs0mg"},{"bike_id":"554dc128-db1f-4a42-acf0-68c302f2d80c","system_id":"levelo_inurba_marseille","lat":43.258793,"lon":5.398927,"is_reserved":false,"is_disabled":true,"rental_uris":{"android":"levelo://app?vid=554dc128-db1f-4a42-acf0-68c302f2d80c","ios":"levelo://app?vid=554dc128-db1f-4a42-acf0-68c302f2d80c"},"vehicle_type_id":"4","last_reported":1747376165,"current_range_meters":2000,"station_id":"ce4bhl92rcd13ifvqghg","pricing_plan_id":"cebpf4jnsgd1na2vs0mg"},{"bike_id":"3c3eb429-706c-484c-a16c-fd76e5c7c741","system_id":"levelo_inurba_marseille","lat":43.24079,"lon":5.3775,"is_reserved":false,"is_disabled":false,"rental_uris":{"android":"levelo://app?vid=3c3eb429-706c-484c-a16c-fd76e5c7c741","ios":"levelo://app?vid=3c3eb429-706c-484c-a16c-fd76e5c7c741"},"vehicle_type_id":"4","last_reported":1747376165,"current_range_meters":2800,"station_id":"ce4bhnp2rcd13ifvqgvg","pricing_plan_id":"cebpf4jnsgd1na2vs0mg"},{"bike_id":"a99d0364-ff28-4339-ad31-10b73d24b14e","system_id":"levelo_inurba_marseille","lat":43.320453,"lon":5.415449,"is_reserved":false,"is_disabled":false,"rental_uris":{"android":"levelo://app?vid=a99d0364-ff28-4339-ad31-10b73d24b14e","ios":"levelo://app?vid=a99d0364-ff28-4339-ad31-10b73d24b14e"},"vehicle_type_id":"4","last_reported":1747376165,"current_range_meters":2800,"station_id":"ce4bhq92rcd13ifvqhkg","pricing_plan_id":"cebpf4jnsgd1na2vs0mg"},{"bike_id":"9b42257b-e6cd-4717-a457-bffcbe6eb915","system_id":"levelo_inurba_marseille","lat":43.30909,"lon":5.39724,"is_reserved":false,"is_disabled":false,"rental_uris":{"android":"levelo://app?vid=9b42257b-e6cd-4717-a457-bffcbe6eb915","ios":"levelo://app?vid=9b42257b-e6cd-4717-a457-bffcbe6eb915"},"vehicle_type_id":"4","last_reported":1747376165,"current_range_meters":3200,"station_id":"","pricing_plan_id":"cebpf4jnsgd1na2vs0mg"},{"bike_id":"2a0092ec-f184-4d57-9901-cfbdc97dbe4d","system_id":"levelo_inurba_marseille","lat":43.292646,"lon":5.384313,"is_reserved":false,"is_disabled":false,"rental_uris":{"android":"levelo://app?vid=2a0092ec-f184-4d57-9901-cfbdc97dbe4d","ios":"levelo://app?vid=2a0092ec-f184-4d57-9901-cfbdc97dbe4d"},"vehicle_type_id":"4","last_reported":1747376165,"current_range_meters":3200,"station_id":"ce4bh692rcd13ifvqea0","pricing_plan_id":"cebpf4jnsgd1na2vs0mg"},{"bike_id":"05f8cedc-c809-4b0a-9207-8ce91fa18305","system_id":"levelo_inurba_marseille","lat":43.28716,"lon":5.37938,"is_reserved":false,"is_disabled":false,"rental_uris":{"android":"levelo://app?vid=05f8cedc-c809-4b0a-9207-8ce91fa18305","ios":"levelo://app?vid=05f8cedc-c809-4b0a-9207-8ce91fa18305"},"vehicle_type_id":"4","last_reported":1747376165,"current_range_meters":3200,"station_id":"ce4bh9p2rcd13ifvqec0","pricing_plan_id":"cebpf4jnsgd1na2vs0mg"},{"bike_id":"878867dc-6b7b-491e-8df9-f5bce8bfb9a2","system_id":"levelo_inurba_marseille","lat":43.3053,"lon":5.36543,"is_reserved":false,"is_disabled":false,"rental_uris":{"android":"levelo://app?vid=878867dc-6b7b-491e-8df9-f5bce8bfb9a2","ios":"levelo://app?vid=878867dc-6b7b-491e-8df9-f5bce8bfb9a2"},"vehicle_type_id":"4","last_reported":1747376165,"current_range_meters":3600,"station_id":"ce4bgs12rcd13ifvqcag","pricing_plan_id":"cebpf4jnsgd1na2vs0mg"},{"bike_id":"9537eb00-238a-476b-ae79-4377262a5979","system_id":"levelo_inurba_marseille","lat":43.30935,"lon":5.40142,"is_reserved":false,"is_disabled":false,"rental_uris":{"android":"levelo://app?vid=9537eb00-238a-476b-ae79-4377262a5979","ios":"levelo://app?vid=9537eb00-238a-476b-ae79-4377262a5979"},"vehicle_type_id":"4","last_reported":1747376165,"current_range_meters":3600,"station_id":"ce4bgvp2rcd13ifvqct0","pricing_plan_id":"cebpf4jnsgd1na2vs0mg"},{"bike_id":"c1ea5b26-48c4-4559-a197-4118b1e78ec2","system_id":"levelo_inurba_marseille","lat":43.306387,"lon":5.400857,"is_reserved":false,"is_disabled":false,"rental_uris":{"android":"levelo://app?vid=c1ea5b26-48c4-4559-a197-4118b1e78ec2","ios":"levelo://app?vid=c1ea5b26-48c4-4559-a197-4118b1e78ec2"},"vehicle_type_id":"4","last_reported":1747376165,"current_range_meters":3600,"station_id":"ce4bh112rcd13ifvqda0","pricing_plan_id":"cebpf4jnsgd1na2vs0mg"},{"bike_id":"63356c5f-5a03-4190-aec7-a27839a80d5d","system_id":"levelo_inurba_marseille","lat":43.25827,"lon":5.394433,"is_reserved":false,"is_disabled":false,"rental_uris":{"android":"levelo://app?vid=63356c5f-5a03-4190-aec7-a27839a80d5d","ios":"levelo://app?vid=63356c5f-5a03-4190-aec7-a27839a80d5d"},"vehicle_type_id":"4","last_reported":1747376165,"current_range_meters":3600,"station_id":"ce4bhip2rcd13ifvqft0","pricing_plan_id":"cebpf4jnsgd1na2vs0mg"},{"bike_id":"fed06cf5-f5f2-4809-91f1-074e851a4497","system_id":"levelo_inurba_marseille","lat":43.24169,"lon":5.39714,"is_reserved":false,"is_disabled":false,"rental_uris":{"android":"levelo://app?vid=fed06cf5-f5f2-4809-91f1-074e851a4497","ios":"levelo://app?vid=fed06cf5-f5f2-4809-91f1-074e851a4497"},"vehicle_type_id":"4","last_reported":1747376165,"current_range_meters":4000,"station_id":"ce4bhn12rcd13ifvqgpg","pricing_plan_id":"cebpf4jnsgd1na2vs0mg"},{"bike_id":"6379fadf-e6a9-4548-bd24-45ccc5153b54","system_id":"levelo_inurba_marseille","lat":43.23816,"lon":5.38281,"is_reserved":false,"is_disabled":false,"rental_uris":{"android":"levelo://app?vid=6379fadf-e6a9-4548-bd24-45ccc5153b54","ios":"levelo://app?vid=6379fadf-e6a9-4548-bd24-45ccc5153b54"},"vehicle_type_id":"4","last_reported":1747376165,"current_range_meters":4400,"station_id":"","pricing_plan_id":"cebpf4jnsgd1na2vs0mg"},{"bike_id":"51862be8-e234-4506-9594-faa9c8678051","system_id":"levelo_inurba_marseille","lat":43.298041,"lon":5.381066,"is_reserved":false,"is_disabled":false,"rental_uris":{"android":"levelo://app?vid=51862be8-e234-4506-9594-faa9c8678051","ios":"levelo://app?vid=51862be8-e234-4506-9594-faa9c8678051"},"vehicle_type_id":"4","last_reported":1747376165,"current_range_meters":4400,"station_id":"ce4bgip2rcd13ifvqbb0","pricing_plan_id":"cebpf4jnsgd1na2vs0mg"},{"bike_id":"8cf05902-09d2-4b92-91f1-a8130b9b039d","system_id":"levelo_inurba_marseille","lat":43.32445,"lon":5.36549,"is_reserved":false,"is_disabled":true,"rental_uris":{"android":"levelo://app?vid=8cf05902-09d2-4b92-91f1-a8130b9b039d","ios":"levelo://app?vid=8cf05902-09d2-4b92-91f1-a8130b9b039d"},"vehicle_type_id":"4","last_reported":1747376165,"current_range_meters":4400,"station_id":"ce4bhs12rcd13ifvqhvg","pricing_plan_id":"cebpf4jnsgd1na2vs0mg"},{"bike_id":"f752227c-3df6-44d5-abd3-4a633d5341e0","system_id":"levelo_inurba_marseille","lat":43.2293,"lon":5.35375,"is_reserved":false,"is_disabled":false,"rental_uris":{"android":"levelo://app?vid=f752227c-3df6-44d5-abd3-4a633d5341e0","ios":"levelo://app?vid=f752227c-3df6-44d5-abd3-4a633d5341e0"},"vehicle_type_id":"4","last_reported":1747376165,"current_range_meters":4400,"station_id":"cpo3532slgdg3j2ikp40","pricing_plan_id":"cebpf4jnsgd1na2vs0mg"},{"bike_id":"fd13d76f-073c-420d-8ca4-ef61b2a91732","system_id":"levelo_inurba_marseille","lat":43.30608,"lon":5.39356,"is_reserved":false,"is_disabled":false,"rental_uris":{"android":"levelo://app?vid=fd13d76f-073c-420d-8ca4-ef61b2a91732","ios":"levelo://app?vid=fd13d76f-073c-420d-8ca4-ef61b2a91732"},"vehicle_type_id":"4","last_reported":1747376165,"current_range_meters":4800,"station_id":"ce4bh0p2rcd13ifvqd80","pricing_plan_id":"cebpf4jnsgd1na2vs0mg"},{"bike_id":"b4fb93a0-b937-4e5c-b7f4-f39ad653a3fd","system_id":"levelo_inurba_marseille","lat":43.2903,"lon":5.39977,"is_reserved":false,"is_disabled":false,"rental_uris":{"android":"levelo://app?vid=b4fb93a0-b937-4e5c-b7f4-f39ad653a3fd","ios":"levelo://app?vid=b4fb93a0-b937-4e5c-b7f4-f39ad653a3fd"},"vehicle_type_id":"4","last_reported":1747376165,"current_range_meters":4800,"station_id":"ce4bh392rcd13ifvqdm0","pricing_plan_id":"cebpf4jnsgd1na2vs0mg"},{"bike_id":"e2e2487b-8a81-4022-b36a-6aa7a6726e87","system_id":"levelo_inurba_marseille","lat":43.24174,"lon":5.39704,"is_reserved":false,"is_disabled":false,"rental_uris":{"android":"levelo://app?vid=e2e2487b-8a81-4022-b36a-6aa7a6726e87","ios":"levelo://app?vid=e2e2487b-8a81-4022-b36a-6aa7a6726e87"},"vehicle_type_id":"4","last_reported":1747376165,"current_range_meters":4800,"station_id":"ce4bhn12rcd13ifvqgpg","pricing_plan_id":"cebpf4jnsgd1na2vs0mg"},{"bike_id":"18e2ab6e-8fae-4f1f-b9c7-a4adc527cf67","system_id":"levelo_inurba_marseille","lat":43.33025,"lon":5.38011,"is_reserved":false,"is_disabled":false,"rental_uris":{"android":"levelo://app?vid=18e2ab6e-8fae-4f1f-b9c7-a4adc527cf67","ios":"levelo://app?vid=18e2ab6e-8fae-4f1f-b9c7-a4adc527cf67"},"vehicle_type_id":"4","last_reported":1747376165,"current_range_meters":5600,"station_id":"","pricing_plan_id":"cebpf4jnsgd1na2vs0mg"},{"bike_id":"d18e9458-ffae-4c77-8534-0f5ba6bf3744","system_id":"levelo_inurba_marseille","lat":43.304552,"lon":5.379021,"is_reserved":false,"is_disabled":false,"rental_uris":{"android":"levelo://app?vid=d18e9458-ffae-4c77-8534-0f5ba6bf3744","ios":"levelo://app?vid=d18e9458-ffae-4c77-8534-0f5ba6bf3744"},"vehicle_type_id":"4","last_reported":1747376165,"current_range_meters":5600,"station_id":"ce4bgup2rcd13ifvqcn0","pricing_plan_id":"cebpf4jnsgd1na2vs0mg"},{"bike_id":"b6896310-a386-4eb1-a47b-30e3cd81dc87","system_id":"levelo_inurba_marseille","lat":43.28713,"lon":5.39973,"is_reserved":false,"is_disabled":false,"rental_uris":{"android":"levelo://app?vid=b6896310-a386-4eb1-a47b-30e3cd81dc87","ios":"levelo://app?vid=b6896310-a386-4eb1-a47b-30e3cd81dc87"},"vehicle_type_id":"4","last_reported":1747376165,"current_range_meters":5600,"station_id":"ce4bho92rcd13ifvqh3g","pricing_plan_id":"cebpf4jnsgd1na2vs0mg"},{"bike_id":"a748a13f-85f4-4100-a5af-5f8db1d6ea1a","system_id":"levelo_inurba_marseille","lat":43.2816,"lon":5.42654,"is_reserved":false,"is_disabled":false,"rental_uris":{"android":"levelo://app?vid=a748a13f-85f4-4100-a5af-5f8db1d6ea1a","ios":"levelo://app?vid=a748a13f-85f4-4100-a5af-5f8db1d6ea1a"},"vehicle_type_id":"4","last_reported":1747376165,"current_range_meters":6000,"station_id":"ce4bhnh2rcd13ifvqgug","pricing_plan_id":"cebpf4jnsgd1na2vs0mg"},{"bike_id":"df3a7e52-3040-4e9a-9e89-ac7b0b2c0b02","system_id":"levelo_inurba_marseille","lat":43.29785,"lon":5.3934,"is_reserved":false,"is_disabled":false,"rental_uris":{"android":"levelo://app?vid=df3a7e52-3040-4e9a-9e89-ac7b0b2c0b02","ios":"levelo://app?vid=df3a7e52-3040-4e9a-9e89-ac7b0b2c0b02"},"vehicle_type_id":"4","last_reported":1747376165,"current_range_meters":6000,"station_id":"chh1huq6cuj3fo74tm60","pricing_plan_id":"cebpf4jnsgd1na2vs0mg"},{"bike_id":"22368baa-c49f-4818-ad8f-92eee34f21f1","system_id":"levelo_inurba_marseille","lat":43.303744,"lon":5.424865,"is_reserved":false,"is_disabled":false,"rental_uris":{"android":"levelo://app?vid=22368baa-c49f-4818-ad8f-92eee34f21f1","ios":"levelo://app?vid=22368baa-c49f-4818-ad8f-92eee34f21f1"},"vehicle_type_id":"4","last_reported":1747376165,"current_range_meters":6400,"station_id":"ce4bhoh2rcd13ifvqh6g","pricing_plan_id":"cebpf4jnsgd1na2vs0mg"},{"bike_id":"c334f53f-6386-4502-b496-c0f578da1ace","system_id":"levelo_inurba_marseille","lat":43.30934,"lon":5.40157,"is_reserved":false,"is_disabled":false,"rental_uris":{"android":"levelo://app?vid=c334f53f-6386-4502-b496-c0f578da1ace","ios":"levelo://app?vid=c334f53f-6386-4502-b496-c0f578da1ace"},"vehicle_type_id":"4","last_reported":1747376165,"current_range_meters":6800,"station_id":"ce4bgvp2rcd13ifvqct0","pricing_plan_id":"cebpf4jnsgd1na2vs0mg"},{"bike_id":"7d2364c7-ffb6-4b1e-8e14-8beb924ce27d","system_id":"levelo_inurba_marseille","lat":43.30952,"lon":5.40179,"is_reserved":false,"is_disabled":false,"rental_uris":{"android":"levelo://app?vid=7d2364c7-ffb6-4b1e-8e14-8beb924ce27d","ios":"levelo://app?vid=7d2364c7-ffb6-4b1e-8e14-8beb924ce27d"},"vehicle_type_id":"4","last_reported":1747376165,"current_range_meters":6800,"station_id":"ce4bgvp2rcd13ifvqct0","pricing_plan_id":"cebpf4jnsgd1na2vs0mg"},{"bike_id":"aa083689-1f06-4bc8-89fd-414bef981e30","system_id":"levelo_inurba_marseille","lat":43.30678,"lon":5.40106,"is_reserved":false,"is_disabled":false,"rental_uris":{"android":"levelo://app?vid=aa083689-1f06-4bc8-89fd-414bef981e30","ios":"levelo://app?vid=aa083689-1f06-4bc8-89fd-414bef981e30"},"vehicle_type_id":"4","last_reported":1747376165,"current_range_meters":6800,"station_id":"ce4bh112rcd13ifvqda0","pricing_plan_id":"cebpf4jnsgd1na2vs0mg"},{"bike_id":"9a8c60d0-88dc-419a-83f4-6b0751e35605","system_id":"levelo_inurba_marseille","lat":43.2603,"lon":5.37549,"is_reserved":false,"is_disabled":false,"rental_uris":{"android":"levelo://app?vid=9a8c60d0-88dc-419a-83f4-6b0751e35605","ios":"levelo://app?vid=9a8c60d0-88dc-419a-83f4-6b0751e35605"},"vehicle_type_id":"4","last_reported":1747376165,"current_range_meters":6800,"station_id":"ce4bhgh2rcd13ifvqfa0","pricing_plan_id":"cebpf4jnsgd1na2vs0mg"},{"bike_id":"1d9e3722-ca1d-4ff0-87d6-cf0002b1ba1f","system_id":"levelo_inurba_marseille","lat":43.27319,"lon":5.39053,"is_reserved":false,"is_disabled":false,"rental_uris":{"android":"levelo://app?vid=1d9e3722-ca1d-4ff0-87d6-cf0002b1ba1f","ios":"levelo://app?vid=1d9e3722-ca1d-4ff0-87d6-cf0002b1ba1f"},"vehicle_type_id":"4","last_reported":1747376165,"current_range_meters":6800,"station_id":"ce4bhgp2rcd13ifvqfe0","pricing_plan_id":"cebpf4jnsgd1na2vs0mg"},{"bike_id":"08b19042-d5ad-4a49-9da6-9d3360945537","system_id":"levelo_inurba_marseille","lat":43.26067,"lon":5.39406,"is_reserved":false,"is_disabled":false,"rental_uris":{"android":"levelo://app?vid=08b19042-d5ad-4a49-9da6-9d3360945537","ios":"levelo://app?vid=08b19042-d5ad-4a49-9da6-9d3360945537"},"vehicle_type_id":"4","last_reported":1747376165,"current_range_meters":6800,"station_id":"ce4bhh92rcd13ifvqfj0","pricing_plan_id":"cebpf4jnsgd1na2vs0mg"},{"bike_id":"a8e83044-d7b8-4a7f-be65-1a9cfc309be9","system_id":"levelo_inurba_marseille","lat":43.25835,"lon":5.39455,"is_reserved":false,"is_disabled":false,"rental_uris":{"android":"levelo://app?vid=a8e83044-d7b8-4a7f-be65-1a9cfc309be9","ios":"levelo://app?vid=a8e83044-d7b8-4a7f-be65-1a9cfc309be9"},"vehicle_type_id":"4","last_reported":1747376165,"current_range_meters":6800,"station_id":"ce4bhip2rcd13ifvqft0","pricing_plan_id":"cebpf4jnsgd1na2vs0mg"},{"bike_id":"ae76c27e-1340-49f5-bc4f-1caa6f3d6ab8","system_id":"levelo_inurba_marseille","lat":43.310885,"lon":5.424307,"is_reserved":false,"is_disabled":false,"rental_uris":{"android":"levelo://app?vid=ae76c27e-1340-49f5-bc4f-1caa6f3d6ab8","ios":"levelo://app?vid=ae76c27e-1340-49f5-bc4f-1caa6f3d6ab8"},"vehicle_type_id":"4","last_reported":1747376165,"current_range_meters":6800,"station_id":"ce4bhp92rcd13ifvqhag","pricing_plan_id":"cebpf4jnsgd1na2vs0mg"},{"bike_id":"b7cb570d-77f5-48d9-be33-70291761d5d7","system_id":"levelo_inurba_marseille","lat":43.21189,"lon":5.35074,"is_reserved":false,"is_disabled":false,"rental_uris":{"android":"levelo://app?vid=b7cb570d-77f5-48d9-be33-70291761d5d7","ios":"levelo://app?vid=b7cb570d-77f5-48d9-be33-70291761d5d7"},"vehicle_type_id":"4","last_reported":1747376165,"current_range_meters":6800,"station_id":"st_cvj6sg6p6f1abm77japg","pricing_plan_id":"cebpf4jnsgd1na2vs0mg"},{"bike_id":"21433162-4c2f-4f26-9ced-3d4fa9e037d2","system_id":"levelo_inurba_marseille","lat":43.299651,"lon":5.384881,"is_reserved":false,"is_disabled":false,"rental_uris":{"android":"levelo://app?vid=21433162-4c2f-4f26-9ced-3d4fa9e037d2","ios":"levelo://app?vid=21433162-4c2f-4f26-9ced-3d4fa9e037d2"},"vehicle_type_id":"4","last_reported":1747376165,"current_range_meters":7200,"station_id":"ce4bgkh2rcd13ifvqbl0","pricing_plan_id":"cebpf4jnsgd1na2vs0mg"},{"bike_id":"32be8f5e-9407-47b0-bc80-84f88527b1d4","system_id":"levelo_inurba_marseille","lat":43.26227,"lon":5.40452,"is_reserved":false,"is_disabled":false,"rental_uris":{"android":"levelo://app?vid=32be8f5e-9407-47b0-bc80-84f88527b1d4","ios":"levelo://app?vid=32be8f5e-9407-47b0-bc80-84f88527b1d4"},"vehicle_type_id":"4","last_reported":1747376165,"current_range_meters":7200,"station_id":"ce4bhmh2rcd13ifvqgmg","pricing_plan_id":"cebpf4jnsgd1na2vs0mg"},{"bike_id":"614a6166-1760-4980-853c-86035facd777","system_id":"levelo_inurba_marseille","lat":43.33223,"lon":5.38027,"is_reserved":false,"is_disabled":false,"rental_uris":{"android":"levelo://app?vid=614a6166-1760-4980-853c-86035facd777","ios":"levelo://app?vid=614a6166-1760-4980-853c-86035facd777"},"vehicle_type_id":"4","last_reported":1747376165,"current_range_meters":8000,"station_id":"","pricing_plan_id":"cebpf4jnsgd1na2vs0mg"},{"bike_id":"2d868c7d-1773-4908-befa-cd0aaed09d96","system_id":"levelo_inurba_marseille","lat":43.32343,"lon":5.38939,"is_reserved":false,"is_disabled":false,"rental_uris":{"android":"levelo://app?vid=2d868c7d-1773-4908-befa-cd0aaed09d96","ios":"levelo://app?vid=2d868c7d-1773-4908-befa-cd0aaed09d96"},"vehicle_type_id":"4","last_reported":1747376165,"current_range_meters":8000,"station_id":"","pricing_plan_id":"cebpf4jnsgd1na2vs0mg"},{"bike_id":"561549a2-798d-4052-830a-279630f71645","system_id":"levelo_inurba_marseille","lat":43.28424,"lon":5.3554,"is_reserved":false,"is_disabled":false,"rental_uris":{"android":"levelo://app?vid=561549a2-798d-4052-830a-279630f71645","ios":"levelo://app?vid=561549a2-798d-4052-830a-279630f71645"},"vehicle_type_id":"4","last_reported":1747376165,"current_range_meters":8000,"station_id":"","pricing_plan_id":"cebpf4jnsgd1na2vs0mg"},{"bike_id":"226fac81-bea8-4bc6-bb83-d6b8fd20efc1","system_id":"levelo_inurba_marseille","lat":43.31234,"lon":5.45891,"is_reserved":false,"is_disabled":false,"rental_uris":{"android":"levelo://app?vid=226fac81-bea8-4bc6-bb83-d6b8fd20efc1","ios":"levelo://app?vid=226fac81-bea8-4bc6-bb83-d6b8fd20efc1"},"vehicle_type_id":"4","last_reported":1747376165,"current_range_meters":8000,"station_id":"","pricing_plan_id":"cebpf4jnsgd1na2vs0mg"},{"bike_id":"40ab6c83-31c1-49f5-a421-e056e87e9982","system_id":"levelo_inurba_marseille","lat":43.30433,"lon":5.39765,"is_reserved":false,"is_disabled":false,"rental_uris":{"android":"levelo://app?vid=40ab6c83-31c1-49f5-a421-e056e87e9982","ios":"levelo://app?vid=40ab6c83-31c1-49f5-a421-e056e87e9982"},"vehicle_type_id":"4","last_reported":1747376165,"current_range_meters":8000,"station_id":"ce4bh092rcd13ifvqd20","pricing_plan_id":"cebpf4jnsgd1na2vs0mg"},{"bike_id":"c53f8805-a381-4592-b9d7-6ea9f5319b97","system_id":"levelo_inurba_marseille","lat":43.28938,"lon":5.39631,"is_reserved":false,"is_disabled":false,"rental_uris":{"android":"levelo://app?vid=c53f8805-a381-4592-b9d7-6ea9f5319b97","ios":"levelo://app?vid=c53f8805-a381-4592-b9d7-6ea9f5319b97"},"vehicle_type_id":"4","last_reported":1747376165,"current_range_meters":8000,"station_id":"ce4bh3h2rcd13ifvqdn0","pricing_plan_id":"cebpf4jnsgd1na2vs0mg"},{"bike_id":"d82bb45b-4460-4710-a034-27bc4844a2be","system_id":"levelo_inurba_marseille","lat":43.25878,"lon":5.399,"is_reserved":false,"is_disabled":false,"rental_uris":{"android":"levelo://app?vid=d82bb45b-4460-4710-a034-27bc4844a2be","ios":"levelo://app?vid=d82bb45b-4460-4710-a034-27bc4844a2be"},"vehicle_type_id":"4","last_reported":1747376165,"current_range_meters":8000,"station_id":"ce4bhl92rcd13ifvqghg","pricing_plan_id":"cebpf4jnsgd1na2vs0mg"},{"bike_id":"dd8c95a3-e969-408f-8089-0e719bc7e6db","system_id":"levelo_inurba_marseille","lat":43.23177,"lon":5.43679,"is_reserved":false,"is_disabled":false,"rental_uris":{"android":"levelo://app?vid=dd8c95a3-e969-408f-8089-0e719bc7e6db","ios":"levelo://app?vid=dd8c95a3-e969-408f-8089-0e719bc7e6db"},"vehicle_type_id":"4","last_reported":1747376165,"current_range_meters":8000,"station_id":"ce4bhmp2rcd13ifvqgog","pricing_plan_id":"cebpf4jnsgd1na2vs0mg"},{"bike_id":"e10be3f9-ba03-476d-a515-2c5fc1c5f095","system_id":"levelo_inurba_marseille","lat":43.318804,"lon":5.407401,"is_reserved":false,"is_disabled":false,"rental_uris":{"android":"levelo://app?vid=e10be3f9-ba03-476d-a515-2c5fc1c5f095","ios":"levelo://app?vid=e10be3f9-ba03-476d-a515-2c5fc1c5f095"},"vehicle_type_id":"4","last_reported":1747376165,"current_range_meters":8000,"station_id":"ce4bhq12rcd13ifvqhig","pricing_plan_id":"cebpf4jnsgd1na2vs0mg"},{"bike_id":"f3df5321-3765-4743-9245-69cea3d0230a","system_id":"levelo_inurba_marseille","lat":43.32366,"lon":5.38889,"is_reserved":false,"is_disabled":false,"rental_uris":{"android":"levelo://app?vid=f3df5321-3765-4743-9245-69cea3d0230a","ios":"levelo://app?vid=f3df5321-3765-4743-9245-69cea3d0230a"},"vehicle_type_id":"4","last_reported":1747376165,"current_range_meters":8000,"station_id":"ce4bhqp2rcd13ifvqhog","pricing_plan_id":"cebpf4jnsgd1na2vs0mg"},{"bike_id":"4e716133-12bd-48ef-8462-cdade112f10c","system_id":"levelo_inurba_marseille","lat":43.27132,"lon":5.400266,"is_reserved":false,"is_disabled":false,"rental_uris":{"android":"levelo://app?vid=4e716133-12bd-48ef-8462-cdade112f10c","ios":"levelo://app?vid=4e716133-12bd-48ef-8462-cdade112f10c"},"vehicle_type_id":"4","last_reported":1747376165,"current_range_meters":8400,"station_id":"","pricing_plan_id":"cebpf4jnsgd1na2vs0mg"},{"bike_id":"7589aa3c-663d-4b9a-82a9-c7c89bfde8f2","system_id":"levelo_inurba_marseille","lat":43.28426,"lon":5.37521,"is_reserved":false,"is_disabled":false,"rental_uris":{"android":"levelo://app?vid=7589aa3c-663d-4b9a-82a9-c7c89bfde8f2","ios":"levelo://app?vid=7589aa3c-663d-4b9a-82a9-c7c89bfde8f2"},"vehicle_type_id":"4","last_reported":1747376165,"current_range_meters":8400,"station_id":"ce4bh412rcd13ifvqds0","pricing_plan_id":"cebpf4jnsgd1na2vs0mg"},{"bike_id":"b2d49357-e00f-4afd-8409-93894b7274fa","system_id":"levelo_inurba_marseille","lat":43.3212,"lon":5.36806,"is_reserved":false,"is_disabled":false,"rental_uris":{"android":"levelo://app?vid=b2d49357-e00f-4afd-8409-93894b7274fa","ios":"levelo://app?vid=b2d49357-e00f-4afd-8409-93894b7274fa"},"vehicle_type_id":"4","last_reported":1747376165,"current_range_meters":8400,"station_id":"ce4bhrh2rcd13ifvqhug","pricing_plan_id":"cebpf4jnsgd1na2vs0mg"},{"bike_id":"f768f02c-a770-46ed-b9fb-ed1e435a3c0f","system_id":"levelo_inurba_marseille","lat":43.32955,"lon":5.39003,"is_reserved":false,"is_disabled":false,"rental_uris":{"android":"levelo://app?vid=f768f02c-a770-46ed-b9fb-ed1e435a3c0f","ios":"levelo://app?vid=f768f02c-a770-46ed-b9fb-ed1e435a3c0f"},"vehicle_type_id":"4","last_reported":1747376165,"current_range_meters":8800,"station_id":"","pricing_plan_id":"cebpf4jnsgd1na2vs0mg"},{"bike_id":"7f4fc273-1360-4a47-aa6f-29da663bd116","system_id":"levelo_inurba_marseille","lat":43.248901,"lon":5.394103,"is_reserved":false,"is_disabled":false,"rental_uris":{"android":"levelo://app?vid=7f4fc273-1360-4a47-aa6f-29da663bd116","ios":"levelo://app?vid=7f4fc273-1360-4a47-aa6f-29da663bd116"},"vehicle_type_id":"4","last_reported":1747376165,"current_range_meters":8800,"station_id":"","pricing_plan_id":"cebpf4jnsgd1na2vs0mg"},{"bike_id":"0077f398-56b6-43bb-8eeb-9798d08de05c","system_id":"levelo_inurba_marseille","lat":43.30986,"lon":5.37272,"is_reserved":false,"is_disabled":false,"rental_uris":{"android":"levelo://app?vid=0077f398-56b6-43bb-8eeb-9798d08de05c","ios":"levelo://app?vid=0077f398-56b6-43bb-8eeb-9798d08de05c"},"vehicle_type_id":"4","last_reported":1747376165,"current_range_meters":8800,"station_id":"","pricing_plan_id":"cebpf4jnsgd1na2vs0mg"},{"bike_id":"4640dc2a-4b4a-4d2b-8eaf-c45eed80b673","system_id":"levelo_inurba_marseille","lat":43.28933,"lon":5.39605,"is_reserved":false,"is_disabled":false,"rental_uris":{"android":"levelo://app?vid=4640dc2a-4b4a-4d2b-8eaf-c45eed80b673","ios":"levelo://app?vid=4640dc2a-4b4a-4d2b-8eaf-c45eed80b673"},"vehicle_type_id":"4","last_reported":1747376165,"current_range_meters":8800,"station_id":"ce4bh3h2rcd13ifvqdn0","pricing_plan_id":"cebpf4jnsgd1na2vs0mg"},{"bike_id":"743b5fae-cf5b-481e-816f-2286df1be972","system_id":"levelo_inurba_marseille","lat":43.241786,"lon":5.397295,"is_reserved":false,"is_disabled":false,"rental_uris":{"android":"levelo://app?vid=743b5fae-cf5b-481e-816f-2286df1be972","ios":"levelo://app?vid=743b5fae-cf5b-481e-816f-2286df1be972"},"vehicle_type_id":"4","last_reported":1747376165,"current_range_meters":8800,"station_id":"ce4bhn12rcd13ifvqgpg","pricing_plan_id":"cebpf4jnsgd1na2vs0mg"},{"bike_id":"e3d9a6de-9b57-479f-ac58-9965b3f69671","system_id":"levelo_inurba_marseille","lat":43.31885,"lon":5.40742,"is_reserved":false,"is_disabled":false,"rental_uris":{"android":"levelo://app?vid=e3d9a6de-9b57-479f-ac58-9965b3f69671","ios":"levelo://app?vid=e3d9a6de-9b57-479f-ac58-9965b3f69671"},"vehicle_type_id":"4","last_reported":1747376165,"current_range_meters":8800,"station_id":"ce4bhq12rcd13ifvqhig","pricing_plan_id":"cebpf4jnsgd1na2vs0mg"},{"bike_id":"e8d13a72-6b59-49fa-9ecb-a203d6d1166b","system_id":"levelo_inurba_marseille","lat":43.30204,"lon":5.39469,"is_reserved":false,"is_disabled":false,"rental_uris":{"android":"levelo://app?vid=e8d13a72-6b59-49fa-9ecb-a203d6d1166b","ios":"levelo://app?vid=e8d13a72-6b59-49fa-9ecb-a203d6d1166b"},"vehicle_type_id":"4","last_reported":1747376165,"current_range_meters":9200,"station_id":"ce4bh0p2rcd13ifvqd70","pricing_plan_id":"cebpf4jnsgd1na2vs0mg"},{"bike_id":"31bedb95-5fc4-4b24-91b1-10c9cd7506c0","system_id":"levelo_inurba_marseille","lat":43.25845,"lon":5.39417,"is_reserved":false,"is_disabled":false,"rental_uris":{"android":"levelo://app?vid=31bedb95-5fc4-4b24-91b1-10c9cd7506c0","ios":"levelo://app?vid=31bedb95-5fc4-4b24-91b1-10c9cd7506c0"},"vehicle_type_id":"4","last_reported":1747376165,"current_range_meters":9200,"station_id":"ce4bhip2rcd13ifvqft0","pricing_plan_id":"cebpf4jnsgd1na2vs0mg"},{"bike_id":"253ad97e-efa9-4530-b082-6a7bf31d9808","system_id":"levelo_inurba_marseille","lat":43.27508,"lon":5.42471,"is_reserved":false,"is_disabled":false,"rental_uris":{"android":"levelo://app?vid=253ad97e-efa9-4530-b082-6a7bf31d9808","ios":"levelo://app?vid=253ad97e-efa9-4530-b082-6a7bf31d9808"},"vehicle_type_id":"4","last_reported":1747376165,"current_range_meters":9200,"station_id":"ce4bhn92rcd13ifvqgrg","pricing_plan_id":"cebpf4jnsgd1na2vs0mg"},{"bike_id":"f8708533-c882-424d-919c-8da02599e742","system_id":"levelo_inurba_marseille","lat":43.32377,"lon":5.38896,"is_reserved":false,"is_disabled":false,"rental_uris":{"android":"levelo://app?vid=f8708533-c882-424d-919c-8da02599e742","ios":"levelo://app?vid=f8708533-c882-424d-919c-8da02599e742"},"vehicle_type_id":"4","last_reported":1747376165,"current_range_meters":9200,"station_id":"ce4bhqp2rcd13ifvqhog","pricing_plan_id":"cebpf4jnsgd1na2vs0mg"},{"bike_id":"ab4e5a85-0ffe-4a65-9b04-ab3547a82031","system_id":"levelo_inurba_marseille","lat":43.24181,"lon":5.3973,"is_reserved":false,"is_disabled":false,"rental_uris":{"android":"levelo://app?vid=ab4e5a85-0ffe-4a65-9b04-ab3547a82031","ios":"levelo://app?vid=ab4e5a85-0ffe-4a65-9b04-ab3547a82031"},"vehicle_type_id":"4","last_reported":1747376165,"current_range_meters":9600,"station_id":"ce4bhn12rcd13ifvqgpg","pricing_plan_id":"cebpf4jnsgd1na2vs0mg"},{"bike_id":"238d7f52-41a9-4d4e-836b-955a6b2dfec8","system_id":"levelo_inurba_marseille","lat":43.28136,"lon":5.42626,"is_reserved":false,"is_disabled":false,"rental_uris":{"android":"levelo://app?vid=238d7f52-41a9-4d4e-836b-955a6b2dfec8","ios":"levelo://app?vid=238d7f52-41a9-4d4e-836b-955a6b2dfec8"},"vehicle_type_id":"4","last_reported":1747376165,"current_range_meters":9600,"station_id":"ce4bhnh2rcd13ifvqgug","pricing_plan_id":"cebpf4jnsgd1na2vs0mg"},{"bike_id":"86f6a583-8115-47db-928c-9eea2b5263ea","system_id":"levelo_inurba_marseille","lat":43.281646,"lon":5.426534,"is_reserved":false,"is_disabled":false,"rental_uris":{"android":"levelo://app?vid=86f6a583-8115-47db-928c-9eea2b5263ea","ios":"levelo://app?vid=86f6a583-8115-47db-928c-9eea2b5263ea"},"vehicle_type_id":"4","last_reported":1747376165,"current_range_meters":9600,"station_id":"ce4bhnh2rcd13ifvqgug","pricing_plan_id":"cebpf4jnsgd1na2vs0mg"},{"bike_id":"01638126-3c79-4aa8-b344-42085231ebd4","system_id":"levelo_inurba_marseille","lat":43.34154,"lon":5.40906,"is_reserved":false,"is_disabled":false,"rental_uris":{"android":"levelo://app?vid=01638126-3c79-4aa8-b344-42085231ebd4","ios":"levelo://app?vid=01638126-3c79-4aa8-b344-42085231ebd4"},"vehicle_type_id":"4","last_reported":1747376165,"current_range_meters":9600,"station_id":"ce4bhqh2rcd13ifvqhlg","pricing_plan_id":"cebpf4jnsgd1na2vs0mg"},{"bike_id":"e64e4484-2db6-41f4-beb8-e0c0ae1263cd","system_id":"levelo_inurba_marseille","lat":43.285169,"lon":5.430343,"is_reserved":false,"is_disabled":false,"rental_uris":{"android":"levelo://app?vid=e64e4484-2db6-41f4-beb8-e0c0ae1263cd","ios":"levelo://app?vid=e64e4484-2db6-41f4-beb8-e0c0ae1263cd"},"vehicle_type_id":"4","last_reported":1747376165,"current_range_meters":10000,"station_id":"","pricing_plan_id":"cebpf4jnsgd1na2vs0mg"},{"bike_id":"f8e4732a-2ecf-431c-8f66-abc7aabb8aa1","system_id":"levelo_inurba_marseille","lat":43.329429,"lon":5.390054,"is_reserved":false,"is_disabled":false,"rental_uris":{"android":"levelo://app?vid=f8e4732a-2ecf-431c-8f66-abc7aabb8aa1","ios":"levelo://app?vid=f8e4732a-2ecf-431c-8f66-abc7aabb8aa1"},"vehicle_type_id":"4","last_reported":1747376165,"current_range_meters":10000,"station_id":"","pricing_plan_id":"cebpf4jnsgd1na2vs0mg"},{"bike_id":"ee4eec6c-f0be-4ee8-ab9b-b8d50e69662b","system_id":"levelo_inurba_marseille","lat":43.30466,"lon":5.37912,"is_reserved":false,"is_disabled":false,"rental_uris":{"android":"levelo://app?vid=ee4eec6c-f0be-4ee8-ab9b-b8d50e69662b","ios":"levelo://app?vid=ee4eec6c-f0be-4ee8-ab9b-b8d50e69662b"},"vehicle_type_id":"4","last_reported":1747376165,"current_range_meters":10000,"station_id":"ce4bgup2rcd13ifvqcn0","pricing_plan_id":"cebpf4jnsgd1na2vs0mg"},{"bike_id":"19ba985d-8329-4df9-8c50-5e8575821519","system_id":"levelo_inurba_marseille","lat":43.28348,"lon":5.38092,"is_reserved":false,"is_disabled":false,"rental_uris":{"android":"levelo://app?vid=19ba985d-8329-4df9-8c50-5e8575821519","ios":"levelo://app?vid=19ba985d-8329-4df9-8c50-5e8575821519"},"vehicle_type_id":"4","last_reported":1747376165,"current_range_meters":10000,"station_id":"ce4bh412rcd13ifvqdr0","pricing_plan_id":"cebpf4jnsgd1na2vs0mg"},{"bike_id":"ca45ddcd-6a0e-4b93-a7a2-262f4ee54cf8","system_id":"levelo_inurba_marseille","lat":43.284079,"lon":5.375189,"is_reserved":false,"is_disabled":false,"rental_uris":{"android":"levelo://app?vid=ca45ddcd-6a0e-4b93-a7a2-262f4ee54cf8","ios":"levelo://app?vid=ca45ddcd-6a0e-4b93-a7a2-262f4ee54cf8"},"vehicle_type_id":"4","last_reported":1747376165,"current_range_meters":10000,"station_id":"ce4bh412rcd13ifvqds0","pricing_plan_id":"cebpf4jnsgd1na2vs0mg"},{"bike_id":"027f72d8-88c3-409a-9f83-3afde0954f18","system_id":"levelo_inurba_marseille","lat":43.30247,"lon":5.39655,"is_reserved":false,"is_disabled":false,"rental_uris":{"android":"levelo://app?vid=027f72d8-88c3-409a-9f83-3afde0954f18","ios":"levelo://app?vid=027f72d8-88c3-409a-9f83-3afde0954f18"},"vehicle_type_id":"4","last_reported":1747376165,"current_range_meters":10800,"station_id":"","pricing_plan_id":"cebpf4jnsgd1na2vs0mg"},{"bike_id":"22965a07-9248-4fad-b9e1-991627920784","system_id":"levelo_inurba_marseille","lat":43.30593,"lon":5.3935,"is_reserved":false,"is_disabled":false,"rental_uris":{"android":"levelo://app?vid=22965a07-9248-4fad-b9e1-991627920784","ios":"levelo://app?vid=22965a07-9248-4fad-b9e1-991627920784"},"vehicle_type_id":"4","last_reported":1747376165,"current_range_meters":10800,"station_id":"ce4bh0p2rcd13ifvqd80","pricing_plan_id":"cebpf4jnsgd1na2vs0mg"},{"bike_id":"5879f203-1394-47e0-9f75-7c405ac331f5","system_id":"levelo_inurba_marseille","lat":43.324,"lon":5.38852,"is_reserved":false,"is_disabled":false,"rental_uris":{"android":"levelo://app?vid=5879f203-1394-47e0-9f75-7c405ac331f5","ios":"levelo://app?vid=5879f203-1394-47e0-9f75-7c405ac331f5"},"vehicle_type_id":"4","last_reported":1747376165,"current_range_meters":10800,"station_id":"ce4bhqp2rcd13ifvqhog","pricing_plan_id":"cebpf4jnsgd1na2vs0mg"},{"bike_id":"59ea7871-10e0-492f-b997-e9d6c8445afa","system_id":"levelo_inurba_marseille","lat":43.30463,"lon":5.37893,"is_reserved":false,"is_disabled":false,"rental_uris":{"android":"levelo://app?vid=59ea7871-10e0-492f-b997-e9d6c8445afa","ios":"levelo://app?vid=59ea7871-10e0-492f-b997-e9d6c8445afa"},"vehicle_type_id":"4","last_reported":1747376165,"current_range_meters":11200,"station_id":"ce4bgup2rcd13ifvqcn0","pricing_plan_id":"cebpf4jnsgd1na2vs0mg"},{"bike_id":"419fd523-3f13-4ce0-b66c-77e0fec9f9af","system_id":"levelo_inurba_marseille","lat":43.30868,"lon":5.39645,"is_reserved":false,"is_disabled":false,"rental_uris":{"android":"levelo://app?vid=419fd523-3f13-4ce0-b66c-77e0fec9f9af","ios":"levelo://app?vid=419fd523-3f13-4ce0-b66c-77e0fec9f9af"},"vehicle_type_id":"4","last_reported":1747376165,"current_range_meters":11200,"station_id":"ce4bh012rcd13ifvqcv0","pricing_plan_id":"cebpf4jnsgd1na2vs0mg"},{"bike_id":"b685a75b-245e-494e-b8bb-087739113b8a","system_id":"levelo_inurba_marseille","lat":43.28467,"lon":5.38421,"is_reserved":false,"is_disabled":false,"rental_uris":{"android":"levelo://app?vid=b685a75b-245e-494e-b8bb-087739113b8a","ios":"levelo://app?vid=b685a75b-245e-494e-b8bb-087739113b8a"},"vehicle_type_id":"4","last_reported":1747376165,"current_range_meters":11200,"station_id":"ce4bh512rcd13ifvqe3g","pricing_plan_id":"cebpf4jnsgd1na2vs0mg"},{"bike_id":"5d0c00da-3fb7-4b1f-963d-bdc6f04b73e8","system_id":"levelo_inurba_marseille","lat":43.30218,"lon":5.39483,"is_reserved":false,"is_disabled":false,"rental_uris":{"android":"levelo://app?vid=5d0c00da-3fb7-4b1f-963d-bdc6f04b73e8","ios":"levelo://app?vid=5d0c00da-3fb7-4b1f-963d-bdc6f04b73e8"},"vehicle_type_id":"4","last_reported":1747376165,"current_range_meters":11600,"station_id":"ce4bh0p2rcd13ifvqd70","pricing_plan_id":"cebpf4jnsgd1na2vs0mg"},{"bike_id":"f6f7b266-a0bc-4cde-a337-c04db368f479","system_id":"levelo_inurba_marseille","lat":43.28351,"lon":5.38102,"is_reserved":false,"is_disabled":false,"rental_uris":{"android":"levelo://app?vid=f6f7b266-a0bc-4cde-a337-c04db368f479","ios":"levelo://app?vid=f6f7b266-a0bc-4cde-a337-c04db368f479"},"vehicle_type_id":"4","last_reported":1747376165,"current_range_meters":11600,"station_id":"ce4bh412rcd13ifvqdr0","pricing_plan_id":"cebpf4jnsgd1na2vs0mg"},{"bike_id":"84e661be-7aee-41c2-88b8-b181c61b3046","system_id":"levelo_inurba_marseille","lat":43.32656,"lon":5.40996,"is_reserved":false,"is_disabled":false,"rental_uris":{"android":"levelo://app?vid=84e661be-7aee-41c2-88b8-b181c61b3046","ios":"levelo://app?vid=84e661be-7aee-41c2-88b8-b181c61b3046"},"vehicle_type_id":"4","last_reported":1747376165,"current_range_meters":11600,"station_id":"ce4bhpp2rcd13ifvqhgg","pricing_plan_id":"cebpf4jnsgd1na2vs0mg"},{"bike_id":"c4562c6b-3abb-41d0-b56a-443ab4e79ced","system_id":"levelo_inurba_marseille","lat":43.30578,"lon":5.39347,"is_reserved":false,"is_disabled":false,"rental_uris":{"android":"levelo://app?vid=c4562c6b-3abb-41d0-b56a-443ab4e79ced","ios":"levelo://app?vid=c4562c6b-3abb-41d0-b56a-443ab4e79ced"},"vehicle_type_id":"4","last_reported":1747376165,"current_range_meters":12000,"station_id":"ce4bh0p2rcd13ifvqd80","pricing_plan_id":"cebpf4jnsgd1na2vs0mg"},{"bike_id":"39c7c348-baf3-417a-8df3-30f456f5c866","system_id":"levelo_inurba_marseille","lat":43.32131,"lon":5.3678,"is_reserved":false,"is_disabled":false,"rental_uris":{"android":"levelo://app?vid=39c7c348-baf3-417a-8df3-30f456f5c866","ios":"levelo://app?vid=39c7c348-baf3-417a-8df3-30f456f5c866"},"vehicle_type_id":"4","last_reported":1747376165,"current_range_meters":12000,"station_id":"ce4bhrh2rcd13ifvqhug","pricing_plan_id":"cebpf4jnsgd1na2vs0mg"},{"bike_id":"a488853e-8708-42f9-a9f1-40f4dc62e03d","system_id":"levelo_inurba_marseille","lat":43.305442,"lon":5.373159,"is_reserved":false,"is_disabled":false,"rental_uris":{"android":"levelo://app?vid=a488853e-8708-42f9-a9f1-40f4dc62e03d","ios":"levelo://app?vid=a488853e-8708-42f9-a9f1-40f4dc62e03d"},"vehicle_type_id":"4","last_reported":1747376165,"current_range_meters":12400,"station_id":"","pricing_plan_id":"cebpf4jnsgd1na2vs0mg"},{"bike_id":"441781d2-6694-47a5-bb80-af18598f32e2","system_id":"levelo_inurba_marseille","lat":43.30435,"lon":5.39747,"is_reserved":false,"is_disabled":false,"rental_uris":{"android":"levelo://app?vid=441781d2-6694-47a5-bb80-af18598f32e2","ios":"levelo://app?vid=441781d2-6694-47a5-bb80-af18598f32e2"},"vehicle_type_id":"4","last_reported":1747376165,"current_range_meters":12400,"station_id":"ce4bh092rcd13ifvqd20","pricing_plan_id":"cebpf4jnsgd1na2vs0mg"},{"bike_id":"dd36139e-82a4-4d24-8679-5ef9e1ab4735","system_id":"levelo_inurba_marseille","lat":43.294415,"lon":5.397724,"is_reserved":false,"is_disabled":false,"rental_uris":{"android":"levelo://app?vid=dd36139e-82a4-4d24-8679-5ef9e1ab4735","ios":"levelo://app?vid=dd36139e-82a4-4d24-8679-5ef9e1ab4735"},"vehicle_type_id":"4","last_reported":1747376165,"current_range_meters":12800,"station_id":"ce4bh3h2rcd13ifvqdo0","pricing_plan_id":"cebpf4jnsgd1na2vs0mg"},{"bike_id":"706ad53d-5e28-47a3-9083-69117c2fe71c","system_id":"levelo_inurba_marseille","lat":43.240639,"lon":5.377587,"is_reserved":false,"is_disabled":false,"rental_uris":{"android":"levelo://app?vid=706ad53d-5e28-47a3-9083-69117c2fe71c","ios":"levelo://app?vid=706ad53d-5e28-47a3-9083-69117c2fe71c"},"vehicle_type_id":"4","last_reported":1747376165,"current_range_meters":12800,"station_id":"ce4bhnp2rcd13ifvqgvg","pricing_plan_id":"cebpf4jnsgd1na2vs0mg"},{"bike_id":"6d886103-344e-431a-ac80-7f62879d2f7c","system_id":"levelo_inurba_marseille","lat":43.22931,"lon":5.35384,"is_reserved":false,"is_disabled":false,"rental_uris":{"android":"levelo://app?vid=6d886103-344e-431a-ac80-7f62879d2f7c","ios":"levelo://app?vid=6d886103-344e-431a-ac80-7f62879d2f7c"},"vehicle_type_id":"4","last_reported":1747376165,"current_range_meters":12800,"station_id":"cpo3532slgdg3j2ikp40","pricing_plan_id":"cebpf4jnsgd1na2vs0mg"},{"bike_id":"41175f3a-bdf9-4d34-8575-e998ace16913","system_id":"levelo_inurba_marseille","lat":43.31708,"lon":5.37723,"is_reserved":false,"is_disabled":false,"rental_uris":{"android":"levelo://app?vid=41175f3a-bdf9-4d34-8575-e998ace16913","ios":"levelo://app?vid=41175f3a-bdf9-4d34-8575-e998ace16913"},"vehicle_type_id":"4","last_reported":1747376165,"current_range_meters":13600,"station_id":"ce4bgth2rcd13ifvqch0","pricing_plan_id":"cebpf4jnsgd1na2vs0mg"},{"bike_id":"26173702-3864-4b5e-ab78-221b845e135f","system_id":"levelo_inurba_marseille","lat":43.28678,"lon":5.39991,"is_reserved":false,"is_disabled":false,"rental_uris":{"android":"levelo://app?vid=26173702-3864-4b5e-ab78-221b845e135f","ios":"levelo://app?vid=26173702-3864-4b5e-ab78-221b845e135f"},"vehicle_type_id":"4","last_reported":1747376165,"current_range_meters":13600,"station_id":"ce4bho92rcd13ifvqh3g","pricing_plan_id":"cebpf4jnsgd1na2vs0mg"},{"bike_id":"e782fc22-d184-462d-b318-a1459f1a259b","system_id":"levelo_inurba_marseille","lat":43.30893,"lon":5.37188,"is_reserved":false,"is_disabled":false,"rental_uris":{"android":"levelo://app?vid=e782fc22-d184-462d-b318-a1459f1a259b","ios":"levelo://app?vid=e782fc22-d184-462d-b318-a1459f1a259b"},"vehicle_type_id":"4","last_reported":1747376165,"current_range_meters":14000,"station_id":"ce4bguh2rcd13ifvqckg","pricing_plan_id":"cebpf4jnsgd1na2vs0mg"},{"bike_id":"979ea68a-f75c-4dbb-ab4d-632ab323d0a7","system_id":"levelo_inurba_marseille","lat":43.28508,"lon":5.38575,"is_reserved":false,"is_disabled":false,"rental_uris":{"android":"levelo://app?vid=979ea68a-f75c-4dbb-ab4d-632ab323d0a7","ios":"levelo://app?vid=979ea68a-f75c-4dbb-ab4d-632ab323d0a7"},"vehicle_type_id":"4","last_reported":1747376165,"current_range_meters":14000,"station_id":"ce4bh8p2rcd13ifvqeb0","pricing_plan_id":"cebpf4jnsgd1na2vs0mg"},{"bike_id":"2a56cf36-d3fb-4a41-8ebc-23f0abc6d7f1","system_id":"levelo_inurba_marseille","lat":43.21207,"lon":5.35068,"is_reserved":false,"is_disabled":false,"rental_uris":{"android":"levelo://app?vid=2a56cf36-d3fb-4a41-8ebc-23f0abc6d7f1","ios":"levelo://app?vid=2a56cf36-d3fb-4a41-8ebc-23f0abc6d7f1"},"vehicle_type_id":"4","last_reported":1747376165,"current_range_meters":14000,"station_id":"st_cvj6sg6p6f1abm77japg","pricing_plan_id":"cebpf4jnsgd1na2vs0mg"},{"bike_id":"004deaad-71d8-428c-b44b-9070f09291d4","system_id":"levelo_inurba_marseille","lat":43.31836,"lon":5.37278,"is_reserved":false,"is_disabled":false,"rental_uris":{"android":"levelo://app?vid=004deaad-71d8-428c-b44b-9070f09291d4","ios":"levelo://app?vid=004deaad-71d8-428c-b44b-9070f09291d4"},"vehicle_type_id":"4","last_reported":1747376165,"current_range_meters":14400,"station_id":"","pricing_plan_id":"cebpf4jnsgd1na2vs0mg"},{"bike_id":"486ad2be-07e3-43ff-845e-ed2b830c0ab8","system_id":"levelo_inurba_marseille","lat":43.30352,"lon":5.37924,"is_reserved":false,"is_disabled":false,"rental_uris":{"android":"levelo://app?vid=486ad2be-07e3-43ff-845e-ed2b830c0ab8","ios":"levelo://app?vid=486ad2be-07e3-43ff-845e-ed2b830c0ab8"},"vehicle_type_id":"4","last_reported":1747376165,"current_range_meters":14400,"station_id":"ce4bgup2rcd13ifvqcn0","pricing_plan_id":"cebpf4jnsgd1na2vs0mg"},{"bike_id":"44ebde39-7f60-4c3c-863a-d4d42bcfc78c","system_id":"levelo_inurba_marseille","lat":43.30423,"lon":5.39752,"is_reserved":false,"is_disabled":false,"rental_uris":{"android":"levelo://app?vid=44ebde39-7f60-4c3c-863a-d4d42bcfc78c","ios":"levelo://app?vid=44ebde39-7f60-4c3c-863a-d4d42bcfc78c"},"vehicle_type_id":"4","last_reported":1747376165,"current_range_meters":14400,"station_id":"ce4bh092rcd13ifvqd20","pricing_plan_id":"cebpf4jnsgd1na2vs0mg"},{"bike_id":"8f1e63e5-795b-46b0-ad6c-37a274c06e39","system_id":"levelo_inurba_marseille","lat":43.29026,"lon":5.3998,"is_reserved":false,"is_disabled":false,"rental_uris":{"android":"levelo://app?vid=8f1e63e5-795b-46b0-ad6c-37a274c06e39","ios":"levelo://app?vid=8f1e63e5-795b-46b0-ad6c-37a274c06e39"},"vehicle_type_id":"4","last_reported":1747376165,"current_range_meters":14400,"station_id":"ce4bh392rcd13ifvqdm0","pricing_plan_id":"cebpf4jnsgd1na2vs0mg"},{"bike_id":"37a09b10-3658-4b58-8af9-ffd9019fe2a1","system_id":"levelo_inurba_marseille","lat":43.32538,"lon":5.41437,"is_reserved":false,"is_disabled":false,"rental_uris":{"android":"levelo://app?vid=37a09b10-3658-4b58-8af9-ffd9019fe2a1","ios":"levelo://app?vid=37a09b10-3658-4b58-8af9-ffd9019fe2a1"},"vehicle_type_id":"4","last_reported":1747376165,"current_range_meters":14400,"station_id":"ce4bhq12rcd13ifvqhhg","pricing_plan_id":"cebpf4jnsgd1na2vs0mg"},{"bike_id":"cae0301b-3c28-44a2-a9b1-6a06ec7c95a4","system_id":"levelo_inurba_marseille","lat":43.30156,"lon":5.38076,"is_reserved":false,"is_disabled":false,"rental_uris":{"android":"levelo://app?vid=cae0301b-3c28-44a2-a9b1-6a06ec7c95a4","ios":"levelo://app?vid=cae0301b-3c28-44a2-a9b1-6a06ec7c95a4"},"vehicle_type_id":"4","last_reported":1747376165,"current_range_meters":14800,"station_id":"ce4bgjp2rcd13ifvqbh0","pricing_plan_id":"cebpf4jnsgd1na2vs0mg"},{"bike_id":"237b449f-ebe4-4687-a340-e794c1fdeabd","system_id":"levelo_inurba_marseille","lat":43.2762,"lon":5.36106,"is_reserved":false,"is_disabled":false,"rental_uris":{"android":"levelo://app?vid=237b449f-ebe4-4687-a340-e794c1fdeabd","ios":"levelo://app?vid=237b449f-ebe4-4687-a340-e794c1fdeabd"},"vehicle_type_id":"4","last_reported":1747376165,"current_range_meters":15200,"station_id":"ce4bgj92rcd13ifvqbe0","pricing_plan_id":"cebpf4jnsgd1na2vs0mg"},{"bike_id":"79666f3e-30e5-4e16-acfd-28570fc193c8","system_id":"levelo_inurba_marseille","lat":43.28347,"lon":5.38097,"is_reserved":false,"is_disabled":false,"rental_uris":{"android":"levelo://app?vid=79666f3e-30e5-4e16-acfd-28570fc193c8","ios":"levelo://app?vid=79666f3e-30e5-4e16-acfd-28570fc193c8"},"vehicle_type_id":"4","last_reported":1747376165,"current_range_meters":15200,"station_id":"ce4bh412rcd13ifvqdr0","pricing_plan_id":"cebpf4jnsgd1na2vs0mg"},{"bike_id":"225d88a7-bbb1-45c7-845f-1fd1816815a2","system_id":"levelo_inurba_marseille","lat":43.34687,"lon":5.3456,"is_reserved":false,"is_disabled":false,"rental_uris":{"android":"levelo://app?vid=225d88a7-bbb1-45c7-845f-1fd1816815a2","ios":"levelo://app?vid=225d88a7-bbb1-45c7-845f-1fd1816815a2"},"vehicle_type_id":"4","last_reported":1747376165,"current_range_meters":16000,"station_id":"","pricing_plan_id":"cebpf4jnsgd1na2vs0mg"},{"bike_id":"6d812bb8-7c84-4b9d-aa7e-2e32f2e0ab84","system_id":"levelo_inurba_marseille","lat":43.23935,"lon":5.37572,"is_reserved":false,"is_disabled":false,"rental_uris":{"android":"levelo://app?vid=6d812bb8-7c84-4b9d-aa7e-2e32f2e0ab84","ios":"levelo://app?vid=6d812bb8-7c84-4b9d-aa7e-2e32f2e0ab84"},"vehicle_type_id":"4","last_reported":1747376165,"current_range_meters":16000,"station_id":"","pricing_plan_id":"cebpf4jnsgd1na2vs0mg"},{"bike_id":"780c57cc-d9da-4809-889d-44fa0a5d2577","system_id":"levelo_inurba_marseille","lat":43.25494,"lon":5.37651,"is_reserved":false,"is_disabled":false,"rental_uris":{"android":"levelo://app?vid=780c57cc-d9da-4809-889d-44fa0a5d2577","ios":"levelo://app?vid=780c57cc-d9da-4809-889d-44fa0a5d2577"},"vehicle_type_id":"4","last_reported":1747376165,"current_range_meters":16000,"station_id":"ce4bhh12rcd13ifvqff0","pricing_plan_id":"cebpf4jnsgd1na2vs0mg"},{"bike_id":"eb43d157-383c-4e0e-bbb3-71a9c1ccad2e","system_id":"levelo_inurba_marseille","lat":43.25823,"lon":5.39436,"is_reserved":false,"is_disabled":false,"rental_uris":{"android":"levelo://app?vid=eb43d157-383c-4e0e-bbb3-71a9c1ccad2e","ios":"levelo://app?vid=eb43d157-383c-4e0e-bbb3-71a9c1ccad2e"},"vehicle_type_id":"4","last_reported":1747376165,"current_range_meters":16000,"station_id":"ce4bhip2rcd13ifvqft0","pricing_plan_id":"cebpf4jnsgd1na2vs0mg"},{"bike_id":"c5628f8c-8931-47ab-825f-c3dc884b522d","system_id":"levelo_inurba_marseille","lat":43.2991,"lon":5.38147,"is_reserved":false,"is_disabled":false,"rental_uris":{"android":"levelo://app?vid=c5628f8c-8931-47ab-825f-c3dc884b522d","ios":"levelo://app?vid=c5628f8c-8931-47ab-825f-c3dc884b522d"},"vehicle_type_id":"4","last_reported":1747376165,"current_range_meters":16400,"station_id":"ce4bgj12rcd13ifvqbc0","pricing_plan_id":"cebpf4jnsgd1na2vs0mg"},{"bike_id":"01636b79-d6ef-4b3c-a107-68554e6e32ee","system_id":"levelo_inurba_marseille","lat":43.30153,"lon":5.38098,"is_reserved":false,"is_disabled":false,"rental_uris":{"android":"levelo://app?vid=01636b79-d6ef-4b3c-a107-68554e6e32ee","ios":"levelo://app?vid=01636b79-d6ef-4b3c-a107-68554e6e32ee"},"vehicle_type_id":"4","last_reported":1747376165,"current_range_meters":16400,"station_id":"ce4bgjp2rcd13ifvqbh0","pricing_plan_id":"cebpf4jnsgd1na2vs0mg"},{"bike_id":"7c3446e5-155a-4a63-b3e0-e0de57e85f93","system_id":"levelo_inurba_marseille","lat":43.285649,"lon":5.395066,"is_reserved":false,"is_disabled":false,"rental_uris":{"android":"levelo://app?vid=7c3446e5-155a-4a63-b3e0-e0de57e85f93","ios":"levelo://app?vid=7c3446e5-155a-4a63-b3e0-e0de57e85f93"},"vehicle_type_id":"4","last_reported":1747376165,"current_range_meters":16400,"station_id":"ce4bh292rcd13ifvqdg0","pricing_plan_id":"cebpf4jnsgd1na2vs0mg"},{"bike_id":"43851fea-0575-4e44-ac98-282e7b54e699","system_id":"levelo_inurba_marseille","lat":43.28715,"lon":5.37935,"is_reserved":false,"is_disabled":false,"rental_uris":{"android":"levelo://app?vid=43851fea-0575-4e44-ac98-282e7b54e699","ios":"levelo://app?vid=43851fea-0575-4e44-ac98-282e7b54e699"},"vehicle_type_id":"4","last_reported":1747376165,"current_range_meters":16400,"station_id":"ce4bh9p2rcd13ifvqec0","pricing_plan_id":"cebpf4jnsgd1na2vs0mg"},{"bike_id":"d336054c-2727-425a-842a-809ab517de94","system_id":"levelo_inurba_marseille","lat":43.25821,"lon":5.39439,"is_reserved":false,"is_disabled":false,"rental_uris":{"android":"levelo://app?vid=d336054c-2727-425a-842a-809ab517de94","ios":"levelo://app?vid=d336054c-2727-425a-842a-809ab517de94"},"vehicle_type_id":"4","last_reported":1747376165,"current_range_meters":16400,"station_id":"ce4bhip2rcd13ifvqft0","pricing_plan_id":"cebpf4jnsgd1na2vs0mg"},{"bike_id":"bd3e560c-5b08-4cd6-bcf6-7477897c3a0d","system_id":"levelo_inurba_marseille","lat":43.32477,"lon":5.36579,"is_reserved":false,"is_disabled":false,"rental_uris":{"android":"levelo://app?vid=bd3e560c-5b08-4cd6-bcf6-7477897c3a0d","ios":"levelo://app?vid=bd3e560c-5b08-4cd6-bcf6-7477897c3a0d"},"vehicle_type_id":"4","last_reported":1747376165,"current_range_meters":16400,"station_id":"ce4bhs12rcd13ifvqhvg","pricing_plan_id":"cebpf4jnsgd1na2vs0mg"},{"bike_id":"aa53c5b9-c9b8-4906-989e-6e49a1f5abe6","system_id":"levelo_inurba_marseille","lat":43.22934,"lon":5.35376,"is_reserved":false,"is_disabled":false,"rental_uris":{"android":"levelo://app?vid=aa53c5b9-c9b8-4906-989e-6e49a1f5abe6","ios":"levelo://app?vid=aa53c5b9-c9b8-4906-989e-6e49a1f5abe6"},"vehicle_type_id":"4","last_reported":1747376165,"current_range_meters":16400,"station_id":"cpo3532slgdg3j2ikp40","pricing_plan_id":"cebpf4jnsgd1na2vs0mg"},{"bike_id":"6dbb2691-6afd-44a6-adc8-96cdcc1e512d","system_id":"levelo_inurba_marseille","lat":43.22907,"lon":5.35401,"is_reserved":false,"is_disabled":false,"rental_uris":{"android":"levelo://app?vid=6dbb2691-6afd-44a6-adc8-96cdcc1e512d","ios":"levelo://app?vid=6dbb2691-6afd-44a6-adc8-96cdcc1e512d"},"vehicle_type_id":"4","last_reported":1747376165,"current_range_meters":16400,"station_id":"cpo3532slgdg3j2ikp40","pricing_plan_id":"cebpf4jnsgd1na2vs0mg"},{"bike_id":"54a1a73b-9f7a-414c-a48f-eeace73bd9b0","system_id":"levelo_inurba_marseille","lat":43.22498,"lon":5.34787,"is_reserved":false,"is_disabled":false,"rental_uris":{"android":"levelo://app?vid=54a1a73b-9f7a-414c-a48f-eeace73bd9b0","ios":"levelo://app?vid=54a1a73b-9f7a-414c-a48f-eeace73bd9b0"},"vehicle_type_id":"4","last_reported":1747376165,"current_range_meters":16400,"station_id":"st_cvj5dfep6f1abm77gieg","pricing_plan_id":"cebpf4jnsgd1na2vs0mg"},{"bike_id":"54c80718-1468-47f9-9877-bc44f5940722","system_id":"levelo_inurba_marseille","lat":43.21219,"lon":5.35064,"is_reserved":false,"is_disabled":false,"rental_uris":{"android":"levelo://app?vid=54c80718-1468-47f9-9877-bc44f5940722","ios":"levelo://app?vid=54c80718-1468-47f9-9877-bc44f5940722"},"vehicle_type_id":"4","last_reported":1747376165,"current_range_meters":16400,"station_id":"st_cvj6sg6p6f1abm77japg","pricing_plan_id":"cebpf4jnsgd1na2vs0mg"},{"bike_id":"da66c5e5-6e35-4104-b407-ba7ff49a5057","system_id":"levelo_inurba_marseille","lat":43.23182,"lon":5.39983,"is_reserved":false,"is_disabled":false,"rental_uris":{"android":"levelo://app?vid=da66c5e5-6e35-4104-b407-ba7ff49a5057","ios":"levelo://app?vid=da66c5e5-6e35-4104-b407-ba7ff49a5057"},"vehicle_type_id":"4","last_reported":1747376165,"current_range_meters":16800,"station_id":"ce4bhn12rcd13ifvqgqg","pricing_plan_id":"cebpf4jnsgd1na2vs0mg"},{"bike_id":"6f9197e7-3e93-4e4d-9b1b-73f2670cbecf","system_id":"levelo_inurba_marseille","lat":43.274948,"lon":5.424506,"is_reserved":false,"is_disabled":false,"rental_uris":{"android":"levelo://app?vid=6f9197e7-3e93-4e4d-9b1b-73f2670cbecf","ios":"levelo://app?vid=6f9197e7-3e93-4e4d-9b1b-73f2670cbecf"},"vehicle_type_id":"4","last_reported":1747376165,"current_range_meters":16800,"station_id":"ce4bhn92rcd13ifvqgrg","pricing_plan_id":"cebpf4jnsgd1na2vs0mg"},{"bike_id":"527d2c77-aac8-43e9-b442-d83d776b9e7f","system_id":"levelo_inurba_marseille","lat":43.29045,"lon":5.39968,"is_reserved":false,"is_disabled":false,"rental_uris":{"android":"levelo://app?vid=527d2c77-aac8-43e9-b442-d83d776b9e7f","ios":"levelo://app?vid=527d2c77-aac8-43e9-b442-d83d776b9e7f"},"vehicle_type_id":"4","last_reported":1747376165,"current_range_meters":17200,"station_id":"ce4bh392rcd13ifvqdm0","pricing_plan_id":"cebpf4jnsgd1na2vs0mg"},{"bike_id":"56f68b69-4c8d-4e58-9695-c0eaf31f58dc","system_id":"levelo_inurba_marseille","lat":43.26486,"lon":5.39575,"is_reserved":false,"is_disabled":false,"rental_uris":{"android":"levelo://app?vid=56f68b69-4c8d-4e58-9695-c0eaf31f58dc","ios":"levelo://app?vid=56f68b69-4c8d-4e58-9695-c0eaf31f58dc"},"vehicle_type_id":"4","last_reported":1747376165,"current_range_meters":17200,"station_id":"ce4bhi12rcd13ifvqfq0","pricing_plan_id":"cebpf4jnsgd1na2vs0mg"},{"bike_id":"96cf665e-31a6-47b4-bd41-97a94832cb66","system_id":"levelo_inurba_marseille","lat":43.27495,"lon":5.4244,"is_reserved":false,"is_disabled":false,"rental_uris":{"android":"levelo://app?vid=96cf665e-31a6-47b4-bd41-97a94832cb66","ios":"levelo://app?vid=96cf665e-31a6-47b4-bd41-97a94832cb66"},"vehicle_type_id":"4","last_reported":1747376165,"current_range_meters":17200,"station_id":"ce4bhn92rcd13ifvqgrg","pricing_plan_id":"cebpf4jnsgd1na2vs0mg"},{"bike_id":"16748ab3-36ff-4772-bfcc-45d7b9aee659","system_id":"levelo_inurba_marseille","lat":43.27495,"lon":5.42469,"is_reserved":false,"is_disabled":false,"rental_uris":{"android":"levelo://app?vid=16748ab3-36ff-4772-bfcc-45d7b9aee659","ios":"levelo://app?vid=16748ab3-36ff-4772-bfcc-45d7b9aee659"},"vehicle_type_id":"4","last_reported":1747376165,"current_range_meters":17200,"station_id":"ce4bhn92rcd13ifvqgrg","pricing_plan_id":"cebpf4jnsgd1na2vs0mg"},{"bike_id":"6ee860e6-5e4e-4f65-9301-9807d55e4a11","system_id":"levelo_inurba_marseille","lat":43.27497,"lon":5.42465,"is_reserved":false,"is_disabled":false,"rental_uris":{"android":"levelo://app?vid=6ee860e6-5e4e-4f65-9301-9807d55e4a11","ios":"levelo://app?vid=6ee860e6-5e4e-4f65-9301-9807d55e4a11"},"vehicle_type_id":"4","last_reported":1747376165,"current_range_meters":17200,"station_id":"ce4bhn92rcd13ifvqgrg","pricing_plan_id":"cebpf4jnsgd1na2vs0mg"},{"bike_id":"b3bd186a-ae2a-4408-aab9-c24e5fe41ca9","system_id":"levelo_inurba_marseille","lat":43.27492,"lon":5.42468,"is_reserved":false,"is_disabled":false,"rental_uris":{"android":"levelo://app?vid=b3bd186a-ae2a-4408-aab9-c24e5fe41ca9","ios":"levelo://app?vid=b3bd186a-ae2a-4408-aab9-c24e5fe41ca9"},"vehicle_type_id":"4","last_reported":1747376165,"current_range_meters":17200,"station_id":"ce4bhn92rcd13ifvqgrg","pricing_plan_id":"cebpf4jnsgd1na2vs0mg"},{"bike_id":"c8a38f2f-aa6b-4b35-a189-77439d458a3a","system_id":"levelo_inurba_marseille","lat":43.28469,"lon":5.38935,"is_reserved":false,"is_disabled":false,"rental_uris":{"android":"levelo://app?vid=c8a38f2f-aa6b-4b35-a189-77439d458a3a","ios":"levelo://app?vid=c8a38f2f-aa6b-4b35-a189-77439d458a3a"},"vehicle_type_id":"4","last_reported":1747376165,"current_range_meters":17600,"station_id":"","pricing_plan_id":"cebpf4jnsgd1na2vs0mg"},{"bike_id":"9bcc3294-2230-43ed-b497-e59bf00b1189","system_id":"levelo_inurba_marseille","lat":43.33776,"lon":5.37447,"is_reserved":false,"is_disabled":false,"rental_uris":{"android":"levelo://app?vid=9bcc3294-2230-43ed-b497-e59bf00b1189","ios":"levelo://app?vid=9bcc3294-2230-43ed-b497-e59bf00b1189"},"vehicle_type_id":"4","last_reported":1747376165,"current_range_meters":17600,"station_id":"","pricing_plan_id":"cebpf4jnsgd1na2vs0mg"},{"bike_id":"dbc12823-8428-4fdf-9cdf-6bc4f4bc55e0","system_id":"levelo_inurba_marseille","lat":43.30435,"lon":5.3976,"is_reserved":false,"is_disabled":false,"rental_uris":{"android":"levelo://app?vid=dbc12823-8428-4fdf-9cdf-6bc4f4bc55e0","ios":"levelo://app?vid=dbc12823-8428-4fdf-9cdf-6bc4f4bc55e0"},"vehicle_type_id":"4","last_reported":1747376165,"current_range_meters":17600,"station_id":"ce4bh092rcd13ifvqd20","pricing_plan_id":"cebpf4jnsgd1na2vs0mg"},{"bike_id":"5a011727-dffe-4cee-aac3-f78ba5a5116d","system_id":"levelo_inurba_marseille","lat":43.33022,"lon":5.39041,"is_reserved":false,"is_disabled":false,"rental_uris":{"android":"levelo://app?vid=5a011727-dffe-4cee-aac3-f78ba5a5116d","ios":"levelo://app?vid=5a011727-dffe-4cee-aac3-f78ba5a5116d"},"vehicle_type_id":"4","last_reported":1747376165,"current_range_meters":17600,"station_id":"ce4bhr92rcd13ifvqhrg","pricing_plan_id":"cebpf4jnsgd1na2vs0mg"},{"bike_id":"98106b70-6f8a-476d-962a-f2bed2e52f0a","system_id":"levelo_inurba_marseille","lat":43.3213,"lon":5.36799,"is_reserved":false,"is_disabled":false,"rental_uris":{"android":"levelo://app?vid=98106b70-6f8a-476d-962a-f2bed2e52f0a","ios":"levelo://app?vid=98106b70-6f8a-476d-962a-f2bed2e52f0a"},"vehicle_type_id":"4","last_reported":1747376165,"current_range_meters":17600,"station_id":"ce4bhrh2rcd13ifvqhug","pricing_plan_id":"cebpf4jnsgd1na2vs0mg"},{"bike_id":"007f087c-c3f7-4b0d-bcc0-1d9d45e1ec16","system_id":"levelo_inurba_marseille","lat":43.2359,"lon":5.40342,"is_reserved":false,"is_disabled":false,"rental_uris":{"android":"levelo://app?vid=007f087c-c3f7-4b0d-bcc0-1d9d45e1ec16","ios":"levelo://app?vid=007f087c-c3f7-4b0d-bcc0-1d9d45e1ec16"},"vehicle_type_id":"4","last_reported":1747376165,"current_range_meters":18000,"station_id":"","pricing_plan_id":"cebpf4jnsgd1na2vs0mg"},{"bike_id":"bd73e106-8904-4073-a041-8d9e4933c9df","system_id":"levelo_inurba_marseille","lat":43.24587,"lon":5.390014,"is_reserved":false,"is_disabled":false,"rental_uris":{"android":"levelo://app?vid=bd73e106-8904-4073-a041-8d9e4933c9df","ios":"levelo://app?vid=bd73e106-8904-4073-a041-8d9e4933c9df"},"vehicle_type_id":"4","last_reported":1747376165,"current_range_meters":18000,"station_id":"","pricing_plan_id":"cebpf4jnsgd1na2vs0mg"},{"bike_id":"97b15f4f-49fd-4069-adf6-51d0a8ed6043","system_id":"levelo_inurba_marseille","lat":43.28554,"lon":5.39431,"is_reserved":false,"is_disabled":false,"rental_uris":{"android":"levelo://app?vid=97b15f4f-49fd-4069-adf6-51d0a8ed6043","ios":"levelo://app?vid=97b15f4f-49fd-4069-adf6-51d0a8ed6043"},"vehicle_type_id":"4","last_reported":1747376165,"current_range_meters":18000,"station_id":"","pricing_plan_id":"cebpf4jnsgd1na2vs0mg"},{"bike_id":"786fa5e7-e1b5-4809-bf1e-c8607de40f42","system_id":"levelo_inurba_marseille","lat":43.301487,"lon":5.38095,"is_reserved":false,"is_disabled":false,"rental_uris":{"android":"levelo://app?vid=786fa5e7-e1b5-4809-bf1e-c8607de40f42","ios":"levelo://app?vid=786fa5e7-e1b5-4809-bf1e-c8607de40f42"},"vehicle_type_id":"4","last_reported":1747376165,"current_range_meters":18000,"station_id":"ce4bgjp2rcd13ifvqbh0","pricing_plan_id":"cebpf4jnsgd1na2vs0mg"},{"bike_id":"eb315ca9-8b37-4a65-969b-3363bd5f25ab","system_id":"levelo_inurba_marseille","lat":43.27504,"lon":5.42483,"is_reserved":false,"is_disabled":false,"rental_uris":{"android":"levelo://app?vid=eb315ca9-8b37-4a65-969b-3363bd5f25ab","ios":"levelo://app?vid=eb315ca9-8b37-4a65-969b-3363bd5f25ab"},"vehicle_type_id":"4","last_reported":1747376165,"current_range_meters":18000,"station_id":"ce4bhn92rcd13ifvqgrg","pricing_plan_id":"cebpf4jnsgd1na2vs0mg"},{"bike_id":"0b024457-9163-476e-8e28-42011b1ade8c","system_id":"levelo_inurba_marseille","lat":43.326581,"lon":5.409939,"is_reserved":false,"is_disabled":false,"rental_uris":{"android":"levelo://app?vid=0b024457-9163-476e-8e28-42011b1ade8c","ios":"levelo://app?vid=0b024457-9163-476e-8e28-42011b1ade8c"},"vehicle_type_id":"4","last_reported":1747376165,"current_range_meters":18000,"station_id":"ce4bhpp2rcd13ifvqhgg","pricing_plan_id":"cebpf4jnsgd1na2vs0mg"},{"bike_id":"491e9d50-803a-47e4-ac0c-1f1d4613e906","system_id":"levelo_inurba_marseille","lat":43.302189,"lon":5.394721,"is_reserved":false,"is_disabled":false,"rental_uris":{"android":"levelo://app?vid=491e9d50-803a-47e4-ac0c-1f1d4613e906","ios":"levelo://app?vid=491e9d50-803a-47e4-ac0c-1f1d4613e906"},"vehicle_type_id":"4","last_reported":1747376165,"current_range_meters":19600,"station_id":"ce4bh0p2rcd13ifvqd70","pricing_plan_id":"cebpf4jnsgd1na2vs0mg"},{"bike_id":"802c4d63-595a-41d7-9c4d-874ae820ff7d","system_id":"levelo_inurba_marseille","lat":43.28574,"lon":5.39507,"is_reserved":false,"is_disabled":false,"rental_uris":{"android":"levelo://app?vid=802c4d63-595a-41d7-9c4d-874ae820ff7d","ios":"levelo://app?vid=802c4d63-595a-41d7-9c4d-874ae820ff7d"},"vehicle_type_id":"4","last_reported":1747376165,"current_range_meters":19600,"station_id":"ce4bh292rcd13ifvqdg0","pricing_plan_id":"cebpf4jnsgd1na2vs0mg"},{"bike_id":"cb1d7e43-3f54-4ca4-b7bc-d2c867dfb02e","system_id":"levelo_inurba_marseille","lat":43.25012,"lon":5.38941,"is_reserved":false,"is_disabled":false,"rental_uris":{"android":"levelo://app?vid=cb1d7e43-3f54-4ca4-b7bc-d2c867dfb02e","ios":"levelo://app?vid=cb1d7e43-3f54-4ca4-b7bc-d2c867dfb02e"},"vehicle_type_id":"4","last_reported":1747376165,"current_range_meters":19600,"station_id":"ce4bhgp2rcd13ifvqfd0","pricing_plan_id":"cebpf4jnsgd1na2vs0mg"},{"bike_id":"fb5609b3-c59e-45f5-a9f3-89e9ff4a96aa","system_id":"levelo_inurba_marseille","lat":43.24064,"lon":5.37754,"is_reserved":false,"is_disabled":false,"rental_uris":{"android":"levelo://app?vid=fb5609b3-c59e-45f5-a9f3-89e9ff4a96aa","ios":"levelo://app?vid=fb5609b3-c59e-45f5-a9f3-89e9ff4a96aa"},"vehicle_type_id":"4","last_reported":1747376165,"current_range_meters":20000,"station_id":"ce4bhnp2rcd13ifvqgvg","pricing_plan_id":"cebpf4jnsgd1na2vs0mg"},{"bike_id":"c0b82aeb-51c2-4aa4-96c8-7cb576675cd7","system_id":"levelo_inurba_marseille","lat":43.3046,"lon":5.37901,"is_reserved":false,"is_disabled":false,"rental_uris":{"android":"levelo://app?vid=c0b82aeb-51c2-4aa4-96c8-7cb576675cd7","ios":"levelo://app?vid=c0b82aeb-51c2-4aa4-96c8-7cb576675cd7"},"vehicle_type_id":"4","last_reported":1747376165,"current_range_meters":20400,"station_id":"ce4bgup2rcd13ifvqcn0","pricing_plan_id":"cebpf4jnsgd1na2vs0mg"},{"bike_id":"8c65ecf8-dffd-4baf-9309-62fef6ab3595","system_id":"levelo_inurba_marseille","lat":43.29025,"lon":5.39969,"is_reserved":false,"is_disabled":false,"rental_uris":{"android":"levelo://app?vid=8c65ecf8-dffd-4baf-9309-62fef6ab3595","ios":"levelo://app?vid=8c65ecf8-dffd-4baf-9309-62fef6ab3595"},"vehicle_type_id":"4","last_reported":1747376165,"current_range_meters":20400,"station_id":"ce4bh392rcd13ifvqdm0","pricing_plan_id":"cebpf4jnsgd1na2vs0mg"},{"bike_id":"512db903-9559-40c7-8902-6a98e3c8c53c","system_id":"levelo_inurba_marseille","lat":43.32924,"lon":5.39013,"is_reserved":false,"is_disabled":false,"rental_uris":{"android":"levelo://app?vid=512db903-9559-40c7-8902-6a98e3c8c53c","ios":"levelo://app?vid=512db903-9559-40c7-8902-6a98e3c8c53c"},"vehicle_type_id":"4","last_reported":1747376165,"current_range_meters":20800,"station_id":"","pricing_plan_id":"cebpf4jnsgd1na2vs0mg"},{"bike_id":"115c6dc9-cef4-47b0-a00e-e008a703489d","system_id":"levelo_inurba_marseille","lat":43.30527,"lon":5.36717,"is_reserved":false,"is_disabled":false,"rental_uris":{"android":"levelo://app?vid=115c6dc9-cef4-47b0-a00e-e008a703489d","ios":"levelo://app?vid=115c6dc9-cef4-47b0-a00e-e008a703489d"},"vehicle_type_id":"4","last_reported":1747376165,"current_range_meters":20800,"station_id":"ce4bgrp2rcd13ifvqc9g","pricing_plan_id":"cebpf4jnsgd1na2vs0mg"},{"bike_id":"34374b5d-29e9-42e7-a7ac-21962fa07d98","system_id":"levelo_inurba_marseille","lat":43.30465,"lon":5.37913,"is_reserved":false,"is_disabled":false,"rental_uris":{"android":"levelo://app?vid=34374b5d-29e9-42e7-a7ac-21962fa07d98","ios":"levelo://app?vid=34374b5d-29e9-42e7-a7ac-21962fa07d98"},"vehicle_type_id":"4","last_reported":1747376165,"current_range_meters":20800,"station_id":"ce4bgup2rcd13ifvqcn0","pricing_plan_id":"cebpf4jnsgd1na2vs0mg"},{"bike_id":"462b5739-db0c-4f45-ab29-842115c77cfe","system_id":"levelo_inurba_marseille","lat":43.28609,"lon":5.3706,"is_reserved":false,"is_disabled":false,"rental_uris":{"android":"levelo://app?vid=462b5739-db0c-4f45-ab29-842115c77cfe","ios":"levelo://app?vid=462b5739-db0c-4f45-ab29-842115c77cfe"},"vehicle_type_id":"4","last_reported":1747376165,"current_range_meters":20800,"station_id":"ce4bht12rcd13ifvqi60","pricing_plan_id":"cebpf4jnsgd1na2vs0mg"},{"bike_id":"adab874f-0d73-494c-947b-63859354ac06","system_id":"levelo_inurba_marseille","lat":43.30775,"lon":5.3766,"is_reserved":false,"is_disabled":false,"rental_uris":{"android":"levelo://app?vid=adab874f-0d73-494c-947b-63859354ac06","ios":"levelo://app?vid=adab874f-0d73-494c-947b-63859354ac06"},"vehicle_type_id":"4","last_reported":1747376165,"current_range_meters":21600,"station_id":"ce4bgv92rcd13ifvqcq0","pricing_plan_id":"cebpf4jnsgd1na2vs0mg"},{"bike_id":"680fe90a-6265-4481-928d-f83f37886ed1","system_id":"levelo_inurba_marseille","lat":43.287,"lon":5.37918,"is_reserved":false,"is_disabled":false,"rental_uris":{"android":"levelo://app?vid=680fe90a-6265-4481-928d-f83f37886ed1","ios":"levelo://app?vid=680fe90a-6265-4481-928d-f83f37886ed1"},"vehicle_type_id":"4","last_reported":1747376165,"current_range_meters":21600,"station_id":"ce4bh9p2rcd13ifvqec0","pricing_plan_id":"cebpf4jnsgd1na2vs0mg"},{"bike_id":"a96478eb-b940-491a-ab66-4f8dca751963","system_id":"levelo_inurba_marseille","lat":43.31496,"lon":5.37313,"is_reserved":false,"is_disabled":false,"rental_uris":{"android":"levelo://app?vid=a96478eb-b940-491a-ab66-4f8dca751963","ios":"levelo://app?vid=a96478eb-b940-491a-ab66-4f8dca751963"},"vehicle_type_id":"4","last_reported":1747376165,"current_range_meters":22000,"station_id":"ce4bgt12rcd13ifvqcd0","pricing_plan_id":"cebpf4jnsgd1na2vs0mg"},{"bike_id":"98f2f4c8-9b37-4b08-a9d5-df0b8bb7f0a2","system_id":"levelo_inurba_marseille","lat":43.30597,"lon":5.39351,"is_reserved":false,"is_disabled":false,"rental_uris":{"android":"levelo://app?vid=98f2f4c8-9b37-4b08-a9d5-df0b8bb7f0a2","ios":"levelo://app?vid=98f2f4c8-9b37-4b08-a9d5-df0b8bb7f0a2"},"vehicle_type_id":"4","last_reported":1747376165,"current_range_meters":22000,"station_id":"ce4bh0p2rcd13ifvqd80","pricing_plan_id":"cebpf4jnsgd1na2vs0mg"},{"bike_id":"aee2ab9f-4569-4e83-acf6-40898425b873","system_id":"levelo_inurba_marseille","lat":43.2418,"lon":5.39728,"is_reserved":false,"is_disabled":false,"rental_uris":{"android":"levelo://app?vid=aee2ab9f-4569-4e83-acf6-40898425b873","ios":"levelo://app?vid=aee2ab9f-4569-4e83-acf6-40898425b873"},"vehicle_type_id":"4","last_reported":1747376165,"current_range_meters":22000,"station_id":"ce4bhn12rcd13ifvqgpg","pricing_plan_id":"cebpf4jnsgd1na2vs0mg"},{"bike_id":"fccb336e-d2ea-48fc-b4b5-69db9f976629","system_id":"levelo_inurba_marseille","lat":43.284479,"lon":5.392015,"is_reserved":false,"is_disabled":false,"rental_uris":{"android":"levelo://app?vid=fccb336e-d2ea-48fc-b4b5-69db9f976629","ios":"levelo://app?vid=fccb336e-d2ea-48fc-b4b5-69db9f976629"},"vehicle_type_id":"4","last_reported":1747376165,"current_range_meters":22000,"station_id":"ce4bhoh2rcd13ifvqh5g","pricing_plan_id":"cebpf4jnsgd1na2vs0mg"},{"bike_id":"b70f9b60-35d7-404d-89db-0d4257489648","system_id":"levelo_inurba_marseille","lat":43.29715,"lon":5.37707,"is_reserved":false,"is_disabled":false,"rental_uris":{"android":"levelo://app?vid=b70f9b60-35d7-404d-89db-0d4257489648","ios":"levelo://app?vid=b70f9b60-35d7-404d-89db-0d4257489648"},"vehicle_type_id":"4","last_reported":1747376165,"current_range_meters":22400,"station_id":"ce4bgkh2rcd13ifvqbl0","pricing_plan_id":"cebpf4jnsgd1na2vs0mg"},{"bike_id":"9acb7d9b-48e3-4903-9ed7-c44035ece129","system_id":"levelo_inurba_marseille","lat":43.30458,"lon":5.379214,"is_reserved":false,"is_disabled":false,"rental_uris":{"android":"levelo://app?vid=9acb7d9b-48e3-4903-9ed7-c44035ece129","ios":"levelo://app?vid=9acb7d9b-48e3-4903-9ed7-c44035ece129"},"vehicle_type_id":"4","last_reported":1747376165,"current_range_meters":22400,"station_id":"ce4bgup2rcd13ifvqcn0","pricing_plan_id":"cebpf4jnsgd1na2vs0mg"},{"bike_id":"f8110a93-97af-4837-8a98-39cd9cf59922","system_id":"levelo_inurba_marseille","lat":43.30461,"lon":5.37907,"is_reserved":false,"is_disabled":false,"rental_uris":{"android":"levelo://app?vid=f8110a93-97af-4837-8a98-39cd9cf59922","ios":"levelo://app?vid=f8110a93-97af-4837-8a98-39cd9cf59922"},"vehicle_type_id":"4","last_reported":1747376165,"current_range_meters":22400,"station_id":"ce4bgup2rcd13ifvqcn0","pricing_plan_id":"cebpf4jnsgd1na2vs0mg"},{"bike_id":"1acd08ce-c28e-422b-9c08-d937accf5a41","system_id":"levelo_inurba_marseille","lat":43.30416,"lon":5.39744,"is_reserved":false,"is_disabled":false,"rental_uris":{"android":"levelo://app?vid=1acd08ce-c28e-422b-9c08-d937accf5a41","ios":"levelo://app?vid=1acd08ce-c28e-422b-9c08-d937accf5a41"},"vehicle_type_id":"4","last_reported":1747376165,"current_range_meters":22400,"station_id":"ce4bh092rcd13ifvqd20","pricing_plan_id":"cebpf4jnsgd1na2vs0mg"},{"bike_id":"a807d926-ff76-43c3-8614-236dfd4a625f","system_id":"levelo_inurba_marseille","lat":43.30424,"lon":5.39738,"is_reserved":false,"is_disabled":false,"rental_uris":{"android":"levelo://app?vid=a807d926-ff76-43c3-8614-236dfd4a625f","ios":"levelo://app?vid=a807d926-ff76-43c3-8614-236dfd4a625f"},"vehicle_type_id":"4","last_reported":1747376165,"current_range_meters":22400,"station_id":"ce4bh092rcd13ifvqd20","pricing_plan_id":"cebpf4jnsgd1na2vs0mg"},{"bike_id":"a6397d7d-a4cf-4b8f-8b2e-c3486d01fc70","system_id":"levelo_inurba_marseille","lat":43.32534,"lon":5.41427,"is_reserved":false,"is_disabled":false,"rental_uris":{"android":"levelo://app?vid=a6397d7d-a4cf-4b8f-8b2e-c3486d01fc70","ios":"levelo://app?vid=a6397d7d-a4cf-4b8f-8b2e-c3486d01fc70"},"vehicle_type_id":"4","last_reported":1747376165,"current_range_meters":22400,"station_id":"ce4bhq12rcd13ifvqhhg","pricing_plan_id":"cebpf4jnsgd1na2vs0mg"},{"bike_id":"56e85891-f0ce-4db6-a45b-dcd385f9d393","system_id":"levelo_inurba_marseille","lat":43.31525,"lon":5.37285,"is_reserved":false,"is_disabled":false,"rental_uris":{"android":"levelo://app?vid=56e85891-f0ce-4db6-a45b-dcd385f9d393","ios":"levelo://app?vid=56e85891-f0ce-4db6-a45b-dcd385f9d393"},"vehicle_type_id":"4","last_reported":1747376165,"current_range_meters":22800,"station_id":"ce4bgt12rcd13ifvqcd0","pricing_plan_id":"cebpf4jnsgd1na2vs0mg"},{"bike_id":"3e277f7c-a3e9-4a5a-bc73-5d77a3f423e0","system_id":"levelo_inurba_marseille","lat":43.29235,"lon":5.40083,"is_reserved":false,"is_disabled":false,"rental_uris":{"android":"levelo://app?vid=3e277f7c-a3e9-4a5a-bc73-5d77a3f423e0","ios":"levelo://app?vid=3e277f7c-a3e9-4a5a-bc73-5d77a3f423e0"},"vehicle_type_id":"4","last_reported":1747376165,"current_range_meters":22800,"station_id":"ce4bh312rcd13ifvqdk0","pricing_plan_id":"cebpf4jnsgd1na2vs0mg"},{"bike_id":"2786033d-26bb-41b0-9a31-f2cf51e9b376","system_id":"levelo_inurba_marseille","lat":43.29016,"lon":5.38133,"is_reserved":false,"is_disabled":false,"rental_uris":{"android":"levelo://app?vid=2786033d-26bb-41b0-9a31-f2cf51e9b376","ios":"levelo://app?vid=2786033d-26bb-41b0-9a31-f2cf51e9b376"},"vehicle_type_id":"4","last_reported":1747376165,"current_range_meters":22800,"station_id":"ce4bh4p2rcd13ifvqe1g","pricing_plan_id":"cebpf4jnsgd1na2vs0mg"},{"bike_id":"7100f116-b66f-4325-a97b-3b906ad3de86","system_id":"levelo_inurba_marseille","lat":43.25938,"lon":5.40901,"is_reserved":false,"is_disabled":false,"rental_uris":{"android":"levelo://app?vid=7100f116-b66f-4325-a97b-3b906ad3de86","ios":"levelo://app?vid=7100f116-b66f-4325-a97b-3b906ad3de86"},"vehicle_type_id":"4","last_reported":1747376165,"current_range_meters":22800,"station_id":"ce4bhm92rcd13ifvqglg","pricing_plan_id":"cebpf4jnsgd1na2vs0mg"},{"bike_id":"90490156-7e25-40e6-9967-515888b1b292","system_id":"levelo_inurba_marseille","lat":43.24072,"lon":5.37758,"is_reserved":false,"is_disabled":false,"rental_uris":{"android":"levelo://app?vid=90490156-7e25-40e6-9967-515888b1b292","ios":"levelo://app?vid=90490156-7e25-40e6-9967-515888b1b292"},"vehicle_type_id":"4","last_reported":1747376165,"current_range_meters":22800,"station_id":"ce4bhnp2rcd13ifvqgvg","pricing_plan_id":"cebpf4jnsgd1na2vs0mg"},{"bike_id":"ef080dad-5cdf-40f6-8289-d3f910d15750","system_id":"levelo_inurba_marseille","lat":43.32537,"lon":5.41429,"is_reserved":false,"is_disabled":false,"rental_uris":{"android":"levelo://app?vid=ef080dad-5cdf-40f6-8289-d3f910d15750","ios":"levelo://app?vid=ef080dad-5cdf-40f6-8289-d3f910d15750"},"vehicle_type_id":"4","last_reported":1747376165,"current_range_meters":22800,"station_id":"ce4bhq12rcd13ifvqhhg","pricing_plan_id":"cebpf4jnsgd1na2vs0mg"},{"bike_id":"4d14f7f2-6b8c-4d7e-84a0-b2dc2d83222a","system_id":"levelo_inurba_marseille","lat":43.292803,"lon":5.401577,"is_reserved":false,"is_disabled":false,"rental_uris":{"android":"levelo://app?vid=4d14f7f2-6b8c-4d7e-84a0-b2dc2d83222a","ios":"levelo://app?vid=4d14f7f2-6b8c-4d7e-84a0-b2dc2d83222a"},"vehicle_type_id":"4","last_reported":1747376165,"current_range_meters":23200,"station_id":"ce4bh312rcd13ifvqdk0","pricing_plan_id":"cebpf4jnsgd1na2vs0mg"},{"bike_id":"41cf0f43-9d5e-46c3-b939-2ddc1ea6bbe8","system_id":"levelo_inurba_marseille","lat":43.24071,"lon":5.37759,"is_reserved":false,"is_disabled":false,"rental_uris":{"android":"levelo://app?vid=41cf0f43-9d5e-46c3-b939-2ddc1ea6bbe8","ios":"levelo://app?vid=41cf0f43-9d5e-46c3-b939-2ddc1ea6bbe8"},"vehicle_type_id":"4","last_reported":1747376165,"current_range_meters":23200,"station_id":"ce4bhnp2rcd13ifvqgvg","pricing_plan_id":"cebpf4jnsgd1na2vs0mg"},{"bike_id":"7e24e6cc-5c05-413c-a034-5a9e9cc7b40b","system_id":"levelo_inurba_marseille","lat":43.34137,"lon":5.40907,"is_reserved":false,"is_disabled":false,"rental_uris":{"android":"levelo://app?vid=7e24e6cc-5c05-413c-a034-5a9e9cc7b40b","ios":"levelo://app?vid=7e24e6cc-5c05-413c-a034-5a9e9cc7b40b"},"vehicle_type_id":"4","last_reported":1747376165,"current_range_meters":23200,"station_id":"ce4bhqh2rcd13ifvqhlg","pricing_plan_id":"cebpf4jnsgd1na2vs0mg"},{"bike_id":"47b3a7fd-75cd-49ca-afb3-a7eca130f2f9","system_id":"levelo_inurba_marseille","lat":43.299191,"lon":5.374748,"is_reserved":false,"is_disabled":false,"rental_uris":{"android":"levelo://app?vid=47b3a7fd-75cd-49ca-afb3-a7eca130f2f9","ios":"levelo://app?vid=47b3a7fd-75cd-49ca-afb3-a7eca130f2f9"},"vehicle_type_id":"4","last_reported":1747376165,"current_range_meters":24000,"station_id":"ce4bgjh2rcd13ifvqbg0","pricing_plan_id":"cebpf4jnsgd1na2vs0mg"},{"bike_id":"cd051204-898e-472d-93f2-4ddf69226508","system_id":"levelo_inurba_marseille","lat":43.309116,"lon":5.368545,"is_reserved":false,"is_disabled":false,"rental_uris":{"android":"levelo://app?vid=cd051204-898e-472d-93f2-4ddf69226508","ios":"levelo://app?vid=cd051204-898e-472d-93f2-4ddf69226508"},"vehicle_type_id":"4","last_reported":1747376165,"current_range_meters":24000,"station_id":"ce4bgn92rcd13ifvqbvg","pricing_plan_id":"cebpf4jnsgd1na2vs0mg"},{"bike_id":"f7502325-f85e-4edb-95dc-2392cc75c4d3","system_id":"levelo_inurba_marseille","lat":43.30435,"lon":5.37902,"is_reserved":false,"is_disabled":false,"rental_uris":{"android":"levelo://app?vid=f7502325-f85e-4edb-95dc-2392cc75c4d3","ios":"levelo://app?vid=f7502325-f85e-4edb-95dc-2392cc75c4d3"},"vehicle_type_id":"4","last_reported":1747376165,"current_range_meters":24000,"station_id":"ce4bgup2rcd13ifvqcn0","pricing_plan_id":"cebpf4jnsgd1na2vs0mg"},{"bike_id":"69d2b87f-e5b3-48f2-8df6-5dad3c573f1b","system_id":"levelo_inurba_marseille","lat":43.28939,"lon":5.39626,"is_reserved":false,"is_disabled":false,"rental_uris":{"android":"levelo://app?vid=69d2b87f-e5b3-48f2-8df6-5dad3c573f1b","ios":"levelo://app?vid=69d2b87f-e5b3-48f2-8df6-5dad3c573f1b"},"vehicle_type_id":"4","last_reported":1747376165,"current_range_meters":24000,"station_id":"ce4bh3h2rcd13ifvqdn0","pricing_plan_id":"cebpf4jnsgd1na2vs0mg"},{"bike_id":"dcabbbcb-5b38-4257-aaee-f344eca82710","system_id":"levelo_inurba_marseille","lat":43.240547,"lon":5.377554,"is_reserved":false,"is_disabled":false,"rental_uris":{"android":"levelo://app?vid=dcabbbcb-5b38-4257-aaee-f344eca82710","ios":"levelo://app?vid=dcabbbcb-5b38-4257-aaee-f344eca82710"},"vehicle_type_id":"4","last_reported":1747376165,"current_range_meters":24000,"station_id":"ce4bhnp2rcd13ifvqgvg","pricing_plan_id":"cebpf4jnsgd1na2vs0mg"},{"bike_id":"27490127-115e-47c9-a8ae-40f182a32557","system_id":"levelo_inurba_marseille","lat":43.32483,"lon":5.3658,"is_reserved":false,"is_disabled":false,"rental_uris":{"android":"levelo://app?vid=27490127-115e-47c9-a8ae-40f182a32557","ios":"levelo://app?vid=27490127-115e-47c9-a8ae-40f182a32557"},"vehicle_type_id":"4","last_reported":1747376165,"current_range_meters":24000,"station_id":"ce4bhs12rcd13ifvqhvg","pricing_plan_id":"cebpf4jnsgd1na2vs0mg"},{"bike_id":"ad36adf1-4669-4524-afe7-7dc66829e068","system_id":"levelo_inurba_marseille","lat":43.30942,"lon":5.40186,"is_reserved":false,"is_disabled":false,"rental_uris":{"android":"levelo://app?vid=ad36adf1-4669-4524-afe7-7dc66829e068","ios":"levelo://app?vid=ad36adf1-4669-4524-afe7-7dc66829e068"},"vehicle_type_id":"4","last_reported":1747376165,"current_range_meters":24400,"station_id":"ce4bgvp2rcd13ifvqct0","pricing_plan_id":"cebpf4jnsgd1na2vs0mg"},{"bike_id":"b8586018-a9f3-461b-b047-05b6c639f75d","system_id":"levelo_inurba_marseille","lat":43.30905,"lon":5.40149,"is_reserved":false,"is_disabled":false,"rental_uris":{"android":"levelo://app?vid=b8586018-a9f3-461b-b047-05b6c639f75d","ios":"levelo://app?vid=b8586018-a9f3-461b-b047-05b6c639f75d"},"vehicle_type_id":"4","last_reported":1747376165,"current_range_meters":24400,"station_id":"ce4bgvp2rcd13ifvqct0","pricing_plan_id":"cebpf4jnsgd1na2vs0mg"},{"bike_id":"258c1ea1-4796-4802-9da9-138bb5b4fad2","system_id":"levelo_inurba_marseille","lat":43.29042,"lon":5.381359,"is_reserved":false,"is_disabled":false,"rental_uris":{"android":"levelo://app?vid=258c1ea1-4796-4802-9da9-138bb5b4fad2","ios":"levelo://app?vid=258c1ea1-4796-4802-9da9-138bb5b4fad2"},"vehicle_type_id":"4","last_reported":1747376165,"current_range_meters":24400,"station_id":"ce4bhc92rcd13ifvqetg","pricing_plan_id":"cebpf4jnsgd1na2vs0mg"},{"bike_id":"54fb5dd7-8f21-4363-ada4-243d7bc95b3b","system_id":"levelo_inurba_marseille","lat":43.32667,"lon":5.41025,"is_reserved":false,"is_disabled":false,"rental_uris":{"android":"levelo://app?vid=54fb5dd7-8f21-4363-ada4-243d7bc95b3b","ios":"levelo://app?vid=54fb5dd7-8f21-4363-ada4-243d7bc95b3b"},"vehicle_type_id":"4","last_reported":1747376165,"current_range_meters":24400,"station_id":"ce4bhpp2rcd13ifvqhgg","pricing_plan_id":"cebpf4jnsgd1na2vs0mg"},{"bike_id":"6a990559-7907-4f5f-a7b2-c6a119b1e817","system_id":"levelo_inurba_marseille","lat":43.29322,"lon":5.40172,"is_reserved":false,"is_disabled":false,"rental_uris":{"android":"levelo://app?vid=6a990559-7907-4f5f-a7b2-c6a119b1e817","ios":"levelo://app?vid=6a990559-7907-4f5f-a7b2-c6a119b1e817"},"vehicle_type_id":"4","last_reported":1747376165,"current_range_meters":24800,"station_id":"","pricing_plan_id":"cebpf4jnsgd1na2vs0mg"},{"bike_id":"b37ddef7-e9e8-4665-9950-830c9be527a2","system_id":"levelo_inurba_marseille","lat":43.26187,"lon":5.42073,"is_reserved":false,"is_disabled":false,"rental_uris":{"android":"levelo://app?vid=b37ddef7-e9e8-4665-9950-830c9be527a2","ios":"levelo://app?vid=b37ddef7-e9e8-4665-9950-830c9be527a2"},"vehicle_type_id":"4","last_reported":1747376165,"current_range_meters":24800,"station_id":"","pricing_plan_id":"cebpf4jnsgd1na2vs0mg"},{"bike_id":"b2c42418-efe5-4c0f-ab8f-df4af9539f74","system_id":"levelo_inurba_marseille","lat":43.2974,"lon":5.37685,"is_reserved":false,"is_disabled":false,"rental_uris":{"android":"levelo://app?vid=b2c42418-efe5-4c0f-ab8f-df4af9539f74","ios":"levelo://app?vid=b2c42418-efe5-4c0f-ab8f-df4af9539f74"},"vehicle_type_id":"4","last_reported":1747376165,"current_range_meters":24800,"station_id":"ce4bgkh2rcd13ifvqbl0","pricing_plan_id":"cebpf4jnsgd1na2vs0mg"},{"bike_id":"c19671a6-d871-4627-a9b7-252c76a05d68","system_id":"levelo_inurba_marseille","lat":43.30461,"lon":5.37901,"is_reserved":false,"is_disabled":false,"rental_uris":{"android":"levelo://app?vid=c19671a6-d871-4627-a9b7-252c76a05d68","ios":"levelo://app?vid=c19671a6-d871-4627-a9b7-252c76a05d68"},"vehicle_type_id":"4","last_reported":1747376165,"current_range_meters":24800,"station_id":"ce4bgup2rcd13ifvqcn0","pricing_plan_id":"cebpf4jnsgd1na2vs0mg"},{"bike_id":"6e214906-4458-4291-a85d-ffb0fc184dda","system_id":"levelo_inurba_marseille","lat":43.30791,"lon":5.37647,"is_reserved":false,"is_disabled":false,"rental_uris":{"android":"levelo://app?vid=6e214906-4458-4291-a85d-ffb0fc184dda","ios":"levelo://app?vid=6e214906-4458-4291-a85d-ffb0fc184dda"},"vehicle_type_id":"4","last_reported":1747376165,"current_range_meters":24800,"station_id":"ce4bgv92rcd13ifvqcq0","pricing_plan_id":"cebpf4jnsgd1na2vs0mg"},{"bike_id":"d6ff4187-061b-4992-bab2-e6df22c469bf","system_id":"levelo_inurba_marseille","lat":43.29302,"lon":5.40163,"is_reserved":false,"is_disabled":false,"rental_uris":{"android":"levelo://app?vid=d6ff4187-061b-4992-bab2-e6df22c469bf","ios":"levelo://app?vid=d6ff4187-061b-4992-bab2-e6df22c469bf"},"vehicle_type_id":"4","last_reported":1747376165,"current_range_meters":25200,"station_id":"","pricing_plan_id":"cebpf4jnsgd1na2vs0mg"},{"bike_id":"24511912-56cb-4f72-afe6-cba143c7a5f2","system_id":"levelo_inurba_marseille","lat":43.30002,"lon":5.37194,"is_reserved":false,"is_disabled":false,"rental_uris":{"android":"levelo://app?vid=24511912-56cb-4f72-afe6-cba143c7a5f2","ios":"levelo://app?vid=24511912-56cb-4f72-afe6-cba143c7a5f2"},"vehicle_type_id":"4","last_reported":1747376165,"current_range_meters":25200,"station_id":"ce4bgr92rcd13ifvqc7g","pricing_plan_id":"cebpf4jnsgd1na2vs0mg"},{"bike_id":"2afaca15-0485-427d-8585-df19badd207b","system_id":"levelo_inurba_marseille","lat":43.22512,"lon":5.34782,"is_reserved":false,"is_disabled":false,"rental_uris":{"android":"levelo://app?vid=2afaca15-0485-427d-8585-df19badd207b","ios":"levelo://app?vid=2afaca15-0485-427d-8585-df19badd207b"},"vehicle_type_id":"4","last_reported":1747376165,"current_range_meters":25200,"station_id":"st_cvj5dfep6f1abm77gieg","pricing_plan_id":"cebpf4jnsgd1na2vs0mg"},{"bike_id":"bd2dcf8a-ec41-4238-b385-f1c3ee858434","system_id":"levelo_inurba_marseille","lat":43.33453,"lon":5.40028,"is_reserved":false,"is_disabled":false,"rental_uris":{"android":"levelo://app?vid=bd2dcf8a-ec41-4238-b385-f1c3ee858434","ios":"levelo://app?vid=bd2dcf8a-ec41-4238-b385-f1c3ee858434"},"vehicle_type_id":"4","last_reported":1747376165,"current_range_meters":25600,"station_id":"","pricing_plan_id":"cebpf4jnsgd1na2vs0mg"},{"bike_id":"936f4c49-efaf-4c5f-b030-0ad599822d77","system_id":"levelo_inurba_marseille","lat":43.29762,"lon":5.36273,"is_reserved":false,"is_disabled":false,"rental_uris":{"android":"levelo://app?vid=936f4c49-efaf-4c5f-b030-0ad599822d77","ios":"levelo://app?vid=936f4c49-efaf-4c5f-b030-0ad599822d77"},"vehicle_type_id":"4","last_reported":1747376165,"current_range_meters":25600,"station_id":"ce4bgpp2rcd13ifvqc3g","pricing_plan_id":"cebpf4jnsgd1na2vs0mg"},{"bike_id":"4f2a28d4-63a5-4242-9c55-da1896b6e45e","system_id":"levelo_inurba_marseille","lat":43.30463,"lon":5.37906,"is_reserved":false,"is_disabled":false,"rental_uris":{"android":"levelo://app?vid=4f2a28d4-63a5-4242-9c55-da1896b6e45e","ios":"levelo://app?vid=4f2a28d4-63a5-4242-9c55-da1896b6e45e"},"vehicle_type_id":"4","last_reported":1747376165,"current_range_meters":25600,"station_id":"ce4bgup2rcd13ifvqcn0","pricing_plan_id":"cebpf4jnsgd1na2vs0mg"},{"bike_id":"ee476ed9-2ef7-4d76-8b08-de0e5f847289","system_id":"levelo_inurba_marseille","lat":43.30944,"lon":5.39028,"is_reserved":false,"is_disabled":false,"rental_uris":{"android":"levelo://app?vid=ee476ed9-2ef7-4d76-8b08-de0e5f847289","ios":"levelo://app?vid=ee476ed9-2ef7-4d76-8b08-de0e5f847289"},"vehicle_type_id":"4","last_reported":1747376165,"current_range_meters":25600,"station_id":"ce4bgup2rcd13ifvqco0","pricing_plan_id":"cebpf4jnsgd1na2vs0mg"},{"bike_id":"04ee9cbe-ceaf-4711-9bfd-bdd0494fdd0a","system_id":"levelo_inurba_marseille","lat":43.30422,"lon":5.39755,"is_reserved":false,"is_disabled":false,"rental_uris":{"android":"levelo://app?vid=04ee9cbe-ceaf-4711-9bfd-bdd0494fdd0a","ios":"levelo://app?vid=04ee9cbe-ceaf-4711-9bfd-bdd0494fdd0a"},"vehicle_type_id":"4","last_reported":1747376165,"current_range_meters":25600,"station_id":"ce4bh092rcd13ifvqd20","pricing_plan_id":"cebpf4jnsgd1na2vs0mg"},{"bike_id":"08ba7a4d-c6dc-41c5-9710-2009a2575e7a","system_id":"levelo_inurba_marseille","lat":43.2926,"lon":5.40914,"is_reserved":false,"is_disabled":false,"rental_uris":{"android":"levelo://app?vid=08ba7a4d-c6dc-41c5-9710-2009a2575e7a","ios":"levelo://app?vid=08ba7a4d-c6dc-41c5-9710-2009a2575e7a"},"vehicle_type_id":"4","last_reported":1747376165,"current_range_meters":25600,"station_id":"ce4bh192rcd13ifvqdc0","pricing_plan_id":"cebpf4jnsgd1na2vs0mg"},{"bike_id":"b477a2ca-875f-4d00-b21a-d877d3eee3e8","system_id":"levelo_inurba_marseille","lat":43.28544,"lon":5.39475,"is_reserved":false,"is_disabled":false,"rental_uris":{"android":"levelo://app?vid=b477a2ca-875f-4d00-b21a-d877d3eee3e8","ios":"levelo://app?vid=b477a2ca-875f-4d00-b21a-d877d3eee3e8"},"vehicle_type_id":"4","last_reported":1747376165,"current_range_meters":25600,"station_id":"ce4bh292rcd13ifvqdg0","pricing_plan_id":"cebpf4jnsgd1na2vs0mg"},{"bike_id":"8663c425-1f6b-4bf5-80b9-577de7a4898f","system_id":"levelo_inurba_marseille","lat":43.212,"lon":5.35064,"is_reserved":false,"is_disabled":false,"rental_uris":{"android":"levelo://app?vid=8663c425-1f6b-4bf5-80b9-577de7a4898f","ios":"levelo://app?vid=8663c425-1f6b-4bf5-80b9-577de7a4898f"},"vehicle_type_id":"4","last_reported":1747376165,"current_range_meters":25600,"station_id":"st_cvj6sg6p6f1abm77japg","pricing_plan_id":"cebpf4jnsgd1na2vs0mg"},