{"last_updated":1748596258,"ttl":60,"version":"2.2","data":{"bikes":[{"bike_id":"a9dd31b3-7d5d-4c43-a5e2-c2e9e371ae5e","system_id":"levelo_inurba_marseille","lat":43.31301,"lon":5.36771,"is_reserved":false,"is_disabled":false,"rental_uris":{"android":"levelo://app?vid=a9dd31b3-7d5d-4c43-a5e2-c2e9e371ae5e","ios":"levelo://app?vid=a9dd31b3-7d5d-4c43-a5e2-c2e9e371ae5e"},"vehicle_type_id":"4","last_reported":1748596258,"current_range_meters":2800,"station_id":"","pricing_plan_id":"cebpf4jnsgd1na2vs0mg"},{"bike_id":"3f0441b1-6cb6-41fd-b679-f454d34b2118","system_id":"levelo_inurba_marseille","lat":43.21189,"lon":5.35075,"is_reserved":false,"is_disabled":false,"rental_uris":{"android":"levelo://app?vid=3f0441b1-6cb6-41fd-b679-f454d34b2118","ios":"levelo://app?vid=3f0441b1-6cb6-41fd-b679-f454d34b2118"},"vehicle_type_id":"4","last_reported":1748596258,"current_range_meters":2800,"station_id":"st_cvj6sg6p6f1abm77japg","pricing_plan_id":"cebpf4jnsgd1na2vs0mg"},{"bike_id":"78353d3a-f046-4900-8502-614ce335636a","system_id":"levelo_inurba_marseille","lat":43.29037,"lon":5.35904,"is_reserved":false,"is_disabled":false,"rental_uris":{"android":"levelo://app?vid=78353d3a-f046-4900-8502-614ce335636a","ios":"levelo://app?vid=78353d3a-f046-4900-8502-614ce335636a"},"vehicle_type_id":"4","last_reported":1748596258,"current_range_meters":3200,"station_id":"ce4bha92rcd13ifvqeg0","pricing_plan_id":"cebpf4jnsgd1na2vs0mg"},{"bike_id":"2ae4618c-3eeb-4072-8753-711e0db0d0a3","system_id":"levelo_inurba_marseille","lat":43.231763,"lon":5.399861,"is_reserved":false,"is_disabled":false,"rental_uris":{"android":"levelo://app?vid=2ae4618c-3eeb-4072-8753-711e0db0d0a3","ios":"levelo://app?vid=2ae4618c-3eeb-4072-8753-711e0db0d0a3"},"vehicle_type_id":"4","last_reported":1748596258,"current_range_meters":3200,"station_id":"ce4bhn12rcd13ifvqgqg","pricing_plan_id":"cebpf4jnsgd1na2vs0mg"},{"bike_id":"24204c04-5d8c-4ac1-bc38-3e364dee5b7a","system_id":"levelo_inurba_marseille","lat":43.30246,"lon":5.41311,"is_reserved":false,"is_disabled":false,"rental_uris":{"android":"levelo://app?vid=24204c04-5d8c-4ac1-bc38-3e364dee5b7a","ios":"levelo://app?vid=24204c04-5d8c-4ac1-bc38-3e364dee5b7a"},"vehicle_type_id":"4","last_reported":1748596258,"current_range_meters":3200,"station_id":"","pricing_plan_id":"cebpf4jnsgd1na2vs0mg"},{"bike_id":"b8a6eac9-6d11-4795-85df-d49fb4aaea04","system_id":"levelo_inurba_marseille","lat":43.26568,"lon":5.39004,"is_reserved":false,"is_disabled":false,"rental_uris":{"android":"levelo://app?vid=b8a6eac9-6d11-4795-85df-d49fb4aaea04","ios":"levelo://app?vid=b8a6eac9-6d11-4795-85df-d49fb4aaea04"},"vehicle_type_id":"4","last_reported":1748596258,"current_range_meters":3600,"station_id":"ce4bhe12rcd13ifvqf30","pricing_plan_id":"cebpf4jnsgd1na2vs0mg"},{"bike_id":"11488e1b-74ae-4459-8884-1588199aa112","system_id":"levelo_inurba_marseille","lat":43.26957,"lon":5.40255,"is_reserved":false,"is_disabled":false,"rental_uris":{"android":"levelo://app?vid=11488e1b-74ae-4459-8884-1588199aa112","ios":"levelo://app?vid=11488e1b-74ae-4459-8884-1588199aa112"},"vehicle_type_id":"4","last_reported":1748596258,"current_range_meters":3600,"station_id":"cjm6bp8fraef2m0cb0m0","pricing_plan_id":"cebpf4jnsgd1na2vs0mg"},{"bike_id":"c006505c-40ec-4dbb-8fb7-e9d75b9aa51f","system_id":"levelo_inurba_marseille","lat":43.3314,"lon":5.38148,"is_reserved":false,"is_disabled":false,"rental_uris":{"android":"levelo://app?vid=c006505c-40ec-4dbb-8fb7-e9d75b9aa51f","ios":"levelo://app?vid=c006505c-40ec-4dbb-8fb7-e9d75b9aa51f"},"vehicle_type_id":"4","last_reported":1748596258,"current_range_meters":4000,"station_id":"","pricing_plan_id":"cebpf4jnsgd1na2vs0mg"},{"bike_id":"0c889232-fa76-429c-b680-10b4aced74fa","system_id":"levelo_inurba_marseille","lat":43.27941,"lon":5.41048,"is_reserved":false,"is_disabled":false,"rental_uris":{"android":"levelo://app?vid=0c889232-fa76-429c-b680-10b4aced74fa","ios":"levelo://app?vid=0c889232-fa76-429c-b680-10b4aced74fa"},"vehicle_type_id":"4","last_reported":1748596258,"current_range_meters":4000,"station_id":"ce4bhnp2rcd13ifvqh0g","pricing_plan_id":"cebpf4jnsgd1na2vs0mg"},{"bike_id":"ff6334ca-1730-4c7d-9848-1881a3416f0d","system_id":"levelo_inurba_marseille","lat":43.295775,"lon":5.367374,"is_reserved":false,"is_disabled":true,"rental_uris":{"android":"levelo://app?vid=ff6334ca-1730-4c7d-9848-1881a3416f0d","ios":"levelo://app?vid=ff6334ca-1730-4c7d-9848-1881a3416f0d"},"vehicle_type_id":"4","last_reported":1748596258,"current_range_meters":4400,"station_id":"","pricing_plan_id":"cebpf4jnsgd1na2vs0mg"},{"bike_id":"2f650bb1-6027-4191-83d2-16315820a0a7","system_id":"levelo_inurba_marseille","lat":43.299926,"lon":5.37358,"is_reserved":false,"is_disabled":false,"rental_uris":{"android":"levelo://app?vid=2f650bb1-6027-4191-83d2-16315820a0a7","ios":"levelo://app?vid=2f650bb1-6027-4191-83d2-16315820a0a7"},"vehicle_type_id":"4","last_reported":1748596258,"current_range_meters":4400,"station_id":"","pricing_plan_id":"cebpf4jnsgd1na2vs0mg"},{"bike_id":"eb4b3905-d697-4843-bcd5-622b64c07feb","system_id":"levelo_inurba_marseille","lat":43.23147,"lon":5.43733,"is_reserved":false,"is_disabled":false,"rental_uris":{"android":"levelo://app?vid=eb4b3905-d697-4843-bcd5-622b64c07feb","ios":"levelo://app?vid=eb4b3905-d697-4843-bcd5-622b64c07feb"},"vehicle_type_id":"4","last_reported":1748596258,"current_range_meters":4800,"station_id":"ce4bhmp2rcd13ifvqgog","pricing_plan_id":"cebpf4jnsgd1na2vs0mg"},{"bike_id":"015f9af9-da45-4c09-9c85-f29c0e49ce0d","system_id":"levelo_inurba_marseille","lat":43.241687,"lon":5.36401,"is_reserved":false,"is_disabled":true,"rental_uris":{"android":"levelo://app?vid=015f9af9-da45-4c09-9c85-f29c0e49ce0d","ios":"levelo://app?vid=015f9af9-da45-4c09-9c85-f29c0e49ce0d"},"vehicle_type_id":"4","last_reported":1748596258,"current_range_meters":4800,"station_id":"cpo36qri1sfpv3e86is0","pricing_plan_id":"cebpf4jnsgd1na2vs0mg"},{"bike_id":"0ae20efe-fd28-4f87-8d25-dfbe5418df1e","system_id":"levelo_inurba_marseille","lat":43.21186,"lon":5.3508,"is_reserved":false,"is_disabled":false,"rental_uris":{"android":"levelo://app?vid=0ae20efe-fd28-4f87-8d25-dfbe5418df1e","ios":"levelo://app?vid=0ae20efe-fd28-4f87-8d25-dfbe5418df1e"},"vehicle_type_id":"4","last_reported":1748596258,"current_range_meters":5600,"station_id":"st_cvj6sg6p6f1abm77japg","pricing_plan_id":"cebpf4jnsgd1na2vs0mg"},{"bike_id":"7804ca15-a2f6-4484-ae6e-0fd4a08614a3","system_id":"levelo_inurba_marseille","lat":43.23064,"lon":5.35491,"is_reserved":false,"is_disabled":false,"rental_uris":{"android":"levelo://app?vid=7804ca15-a2f6-4484-ae6e-0fd4a08614a3","ios":"levelo://app?vid=7804ca15-a2f6-4484-ae6e-0fd4a08614a3"},"vehicle_type_id":"4","last_reported":1748596258,"current_range_meters":5600,"station_id":"cpo3342slgdg3j2ifvpg","pricing_plan_id":"cebpf4jnsgd1na2vs0mg"},{"bike_id":"db6f25d3-df10-4cde-bccf-c95202408491","system_id":"levelo_inurba_marseille","lat":43.28274,"lon":5.3506,"is_reserved":false,"is_disabled":false,"rental_uris":{"android":"levelo://app?vid=db6f25d3-df10-4cde-bccf-c95202408491","ios":"levelo://app?vid=db6f25d3-df10-4cde-bccf-c95202408491"},"vehicle_type_id":"4","last_reported":1748596258,"current_range_meters":5600,"station_id":"ce4bhbp2rcd13ifvqerg","pricing_plan_id":"cebpf4jnsgd1na2vs0mg"},{"bike_id":"7ee09b1d-3cf6-42eb-972c-97d321eea789","system_id":"levelo_inurba_marseille","lat":43.23126,"lon":5.43767,"is_reserved":false,"is_disabled":false,"rental_uris":{"android":"levelo://app?vid=7ee09b1d-3cf6-42eb-972c-97d321eea789","ios":"levelo://app?vid=7ee09b1d-3cf6-42eb-972c-97d321eea789"},"vehicle_type_id":"4","last_reported":1748596258,"current_range_meters":5600,"station_id":"","pricing_plan_id":"cebpf4jnsgd1na2vs0mg"},{"bike_id":"047bbed6-33d9-4486-b038-6c0f2513bd98","system_id":"levelo_inurba_marseille","lat":43.24685,"lon":5.38133,"is_reserved":false,"is_disabled":false,"rental_uris":{"android":"levelo://app?vid=047bbed6-33d9-4486-b038-6c0f2513bd98","ios":"levelo://app?vid=047bbed6-33d9-4486-b038-6c0f2513bd98"},"vehicle_type_id":"4","last_reported":1748596258,"current_range_meters":6000,"station_id":"ce4bhih2rcd13ifvqfr0","pricing_plan_id":"cebpf4jnsgd1na2vs0mg"},{"bike_id":"7c6e48ab-b87e-4e89-9339-a1a2992e6797","system_id":"levelo_inurba_marseille","lat":43.26116,"lon":5.41471,"is_reserved":false,"is_disabled":false,"rental_uris":{"android":"levelo://app?vid=7c6e48ab-b87e-4e89-9339-a1a2992e6797","ios":"levelo://app?vid=7c6e48ab-b87e-4e89-9339-a1a2992e6797"},"vehicle_type_id":"4","last_reported":1748596258,"current_range_meters":6000,"station_id":"","pricing_plan_id":"cebpf4jnsgd1na2vs0mg"},{"bike_id":"075ed0cb-11fb-4461-b884-cd5deb84fcc8","system_id":"levelo_inurba_marseille","lat":43.23963,"lon":5.3663,"is_reserved":false,"is_disabled":false,"rental_uris":{"android":"levelo://app?vid=075ed0cb-11fb-4461-b884-cd5deb84fcc8","ios":"levelo://app?vid=075ed0cb-11fb-4461-b884-cd5deb84fcc8"},"vehicle_type_id":"4","last_reported":1748596258,"current_range_meters":6000,"station_id":"ce4bhi12rcd13ifvqfp0","pricing_plan_id":"cebpf4jnsgd1na2vs0mg"},{"bike_id":"b9ae16bc-ec39-406e-9e42-55cba52b28fe","system_id":"levelo_inurba_marseille","lat":43.260189,"lon":5.417432,"is_reserved":false,"is_disabled":false,"rental_uris":{"android":"levelo://app?vid=b9ae16bc-ec39-406e-9e42-55cba52b28fe","ios":"levelo://app?vid=b9ae16bc-ec39-406e-9e42-55cba52b28fe"},"vehicle_type_id":"4","last_reported":1748596258,"current_range_meters":6000,"station_id":"","pricing_plan_id":"cebpf4jnsgd1na2vs0mg"},{"bike_id":"92cc41b1-86b4-4ddd-8208-549b320e7443","system_id":"levelo_inurba_marseille","lat":43.326527,"lon":5.409923,"is_reserved":false,"is_disabled":false,"rental_uris":{"android":"levelo://app?vid=92cc41b1-86b4-4ddd-8208-549b320e7443","ios":"levelo://app?vid=92cc41b1-86b4-4ddd-8208-549b320e7443"},"vehicle_type_id":"4","last_reported":1748596258,"current_range_meters":6400,"station_id":"ce4bhpp2rcd13ifvqhgg","pricing_plan_id":"cebpf4jnsgd1na2vs0mg"},{"bike_id":"64ca0381-7a91-43f0-a28f-ae8a0c72ed43","system_id":"levelo_inurba_marseille","lat":43.31495,"lon":5.37311,"is_reserved":false,"is_disabled":false,"rental_uris":{"android":"levelo://app?vid=64ca0381-7a91-43f0-a28f-ae8a0c72ed43","ios":"levelo://app?vid=64ca0381-7a91-43f0-a28f-ae8a0c72ed43"},"vehicle_type_id":"4","last_reported":1748596258,"current_range_meters":6000,"station_id":"ce4bgt12rcd13ifvqcd0","pricing_plan_id":"cebpf4jnsgd1na2vs0mg"},{"bike_id":"b932b841-99d8-42f3-ad6a-b348874a3c78","system_id":"levelo_inurba_marseille","lat":43.27984,"lon":5.38738,"is_reserved":false,"is_disabled":false,"rental_uris":{"android":"levelo://app?vid=b932b841-99d8-42f3-ad6a-b348874a3c78","ios":"levelo://app?vid=b932b841-99d8-42f3-ad6a-b348874a3c78"},"vehicle_type_id":"4","last_reported":1748596258,"current_range_meters":6400,"station_id":"ce4bhg12rcd13ifvqf80","pricing_plan_id":"cebpf4jnsgd1na2vs0mg"},{"bike_id":"d59936d1-8ec8-4f42-8df1-dcddc80cd126","system_id":"levelo_inurba_marseille","lat":43.28947,"lon":5.39657,"is_reserved":false,"is_disabled":false,"rental_uris":{"android":"levelo://app?vid=d59936d1-8ec8-4f42-8df1-dcddc80cd126","ios":"levelo://app?vid=d59936d1-8ec8-4f42-8df1-dcddc80cd126"},"vehicle_type_id":"4","last_reported":1748596258,"current_range_meters":6400,"station_id":"ce4bh3h2rcd13ifvqdn0","pricing_plan_id":"cebpf4jnsgd1na2vs0mg"},{"bike_id":"53532794-4f3c-48c5-8d7b-50d3a0c2e665","system_id":"levelo_inurba_marseille","lat":43.28621,"lon":5.37067,"is_reserved":false,"is_disabled":false,"rental_uris":{"android":"levelo://app?vid=53532794-4f3c-48c5-8d7b-50d3a0c2e665","ios":"levelo://app?vid=53532794-4f3c-48c5-8d7b-50d3a0c2e665"},"vehicle_type_id":"4","last_reported":1748596258,"current_range_meters":6800,"station_id":"ce4bht12rcd13ifvqi60","pricing_plan_id":"cebpf4jnsgd1na2vs0mg"},{"bike_id":"699cf79a-0487-4f97-8655-716236252f3c","system_id":"levelo_inurba_marseille","lat":43.27048,"lon":5.40292,"is_reserved":false,"is_disabled":false,"rental_uris":{"android":"levelo://app?vid=699cf79a-0487-4f97-8655-716236252f3c","ios":"levelo://app?vid=699cf79a-0487-4f97-8655-716236252f3c"},"vehicle_type_id":"4","last_reported":1748596258,"current_range_meters":6800,"station_id":"ce4bhk92rcd13ifvqgc0","pricing_plan_id":"cebpf4jnsgd1na2vs0mg"},{"bike_id":"497ec4a5-8002-40cf-b66d-3b629c958e7f","system_id":"levelo_inurba_marseille","lat":43.29171,"lon":5.40003,"is_reserved":false,"is_disabled":false,"rental_uris":{"android":"levelo://app?vid=497ec4a5-8002-40cf-b66d-3b629c958e7f","ios":"levelo://app?vid=497ec4a5-8002-40cf-b66d-3b629c958e7f"},"vehicle_type_id":"4","last_reported":1748596258,"current_range_meters":6800,"station_id":"","pricing_plan_id":"cebpf4jnsgd1na2vs0mg"},{"bike_id":"a0b44b20-89b3-41fb-bb26-259cf1852531","system_id":"levelo_inurba_marseille","lat":43.25727,"lon":5.41107,"is_reserved":false,"is_disabled":false,"rental_uris":{"android":"levelo://app?vid=a0b44b20-89b3-41fb-bb26-259cf1852531","ios":"levelo://app?vid=a0b44b20-89b3-41fb-bb26-259cf1852531"},"vehicle_type_id":"4","last_reported":1748596258,"current_range_meters":6800,"station_id":"ce4bhkp2rcd13ifvqgd0","pricing_plan_id":"cebpf4jnsgd1na2vs0mg"},{"bike_id":"cabb8ebc-e75f-4496-a36e-ba1ec843ec46","system_id":"levelo_inurba_marseille","lat":43.29298,"lon":5.37461,"is_reserved":false,"is_disabled":false,"rental_uris":{"android":"levelo://app?vid=cabb8ebc-e75f-4496-a36e-ba1ec843ec46","ios":"levelo://app?vid=cabb8ebc-e75f-4496-a36e-ba1ec843ec46"},"vehicle_type_id":"4","last_reported":1748596258,"current_range_meters":7200,"station_id":"ce4bgi12rcd13ifvqb70","pricing_plan_id":"cebpf4jnsgd1na2vs0mg"},{"bike_id":"c20cde3d-efa4-4792-85cb-bcd9537bb570","system_id":"levelo_inurba_marseille","lat":43.24161,"lon":5.36409,"is_reserved":false,"is_disabled":false,"rental_uris":{"android":"levelo://app?vid=c20cde3d-efa4-4792-85cb-bcd9537bb570","ios":"levelo://app?vid=c20cde3d-efa4-4792-85cb-bcd9537bb570"},"vehicle_type_id":"4","last_reported":1748596258,"current_range_meters":7200,"station_id":"cpo36qri1sfpv3e86is0","pricing_plan_id":"cebpf4jnsgd1na2vs0mg"},{"bike_id":"7168687d-ed79-4eb6-b889-567c2f889f9f","system_id":"levelo_inurba_marseille","lat":43.302071,"lon":5.394649,"is_reserved":false,"is_disabled":false,"rental_uris":{"android":"levelo://app?vid=7168687d-ed79-4eb6-b889-567c2f889f9f","ios":"levelo://app?vid=7168687d-ed79-4eb6-b889-567c2f889f9f"},"vehicle_type_id":"4","last_reported":1748596258,"current_range_meters":7200,"station_id":"ce4bh0p2rcd13ifvqd70","pricing_plan_id":"cebpf4jnsgd1na2vs0mg"},{"bike_id":"c1f1b357-e142-4962-86c7-4cc1efbffe16","system_id":"levelo_inurba_marseille","lat":43.31322,"lon":5.39686,"is_reserved":false,"is_disabled":false,"rental_uris":{"android":"levelo://app?vid=c1f1b357-e142-4962-86c7-4cc1efbffe16","ios":"levelo://app?vid=c1f1b357-e142-4962-86c7-4cc1efbffe16"},"vehicle_type_id":"4","last_reported":1748596258,"current_range_meters":7200,"station_id":"ce4bgvp2rcd13ifvqcu0","pricing_plan_id":"cebpf4jnsgd1na2vs0mg"},{"bike_id":"453cce4f-5d27-46da-8719-da33a38132da","system_id":"levelo_inurba_marseille","lat":43.27959,"lon":5.38687,"is_reserved":false,"is_disabled":false,"rental_uris":{"android":"levelo://app?vid=453cce4f-5d27-46da-8719-da33a38132da","ios":"levelo://app?vid=453cce4f-5d27-46da-8719-da33a38132da"},"vehicle_type_id":"4","last_reported":1748596258,"current_range_meters":7200,"station_id":"ce4bhg12rcd13ifvqf80","pricing_plan_id":"cebpf4jnsgd1na2vs0mg"},{"bike_id":"2d03f73e-fff4-4849-b17a-7ff91500fc55","system_id":"levelo_inurba_marseille","lat":43.27667,"lon":5.38884,"is_reserved":false,"is_disabled":false,"rental_uris":{"android":"levelo://app?vid=2d03f73e-fff4-4849-b17a-7ff91500fc55","ios":"levelo://app?vid=2d03f73e-fff4-4849-b17a-7ff91500fc55"},"vehicle_type_id":"4","last_reported":1748596258,"current_range_meters":8000,"station_id":"ce4bhi12rcd13ifvqfo0","pricing_plan_id":"cebpf4jnsgd1na2vs0mg"},{"bike_id":"042e2378-ec42-47ed-b56b-b7fb0278fd68","system_id":"levelo_inurba_marseille","lat":43.27996,"lon":5.40009,"is_reserved":false,"is_disabled":false,"rental_uris":{"android":"levelo://app?vid=042e2378-ec42-47ed-b56b-b7fb0278fd68","ios":"levelo://app?vid=042e2378-ec42-47ed-b56b-b7fb0278fd68"},"vehicle_type_id":"4","last_reported":1748596258,"current_range_meters":8000,"station_id":"ce4bho92rcd13ifvqh4g","pricing_plan_id":"cebpf4jnsgd1na2vs0mg"},{"bike_id":"c97c7aff-a44a-433f-b1e1-c4cf53d64484","system_id":"levelo_inurba_marseille","lat":43.27923,"lon":5.3958,"is_reserved":false,"is_disabled":false,"rental_uris":{"android":"levelo://app?vid=c97c7aff-a44a-433f-b1e1-c4cf53d64484","ios":"levelo://app?vid=c97c7aff-a44a-433f-b1e1-c4cf53d64484"},"vehicle_type_id":"4","last_reported":1748596258,"current_range_meters":8000,"station_id":"ce4bhf92rcd13ifvqf40","pricing_plan_id":"cebpf4jnsgd1na2vs0mg"},{"bike_id":"1e272f08-ebcf-44f1-95de-f9fb4143bcce","system_id":"levelo_inurba_marseille","lat":43.24177,"lon":5.3973,"is_reserved":false,"is_disabled":false,"rental_uris":{"android":"levelo://app?vid=1e272f08-ebcf-44f1-95de-f9fb4143bcce","ios":"levelo://app?vid=1e272f08-ebcf-44f1-95de-f9fb4143bcce"},"vehicle_type_id":"4","last_reported":1748596258,"current_range_meters":8000,"station_id":"ce4bhn12rcd13ifvqgpg","pricing_plan_id":"cebpf4jnsgd1na2vs0mg"},{"bike_id":"299bc464-0062-40b9-b8fd-94e53cb49a69","system_id":"levelo_inurba_marseille","lat":43.29457,"lon":5.37422,"is_reserved":false,"is_disabled":false,"rental_uris":{"android":"levelo://app?vid=299bc464-0062-40b9-b8fd-94e53cb49a69","ios":"levelo://app?vid=299bc464-0062-40b9-b8fd-94e53cb49a69"},"vehicle_type_id":"4","last_reported":1748596258,"current_range_meters":8000,"station_id":"","pricing_plan_id":"cebpf4jnsgd1na2vs0mg"},{"bike_id":"64c40546-fc5d-4693-9ccf-3699b6dff106","system_id":"levelo_inurba_marseille","lat":43.21214,"lon":5.35073,"is_reserved":false,"is_disabled":false,"rental_uris":{"android":"levelo://app?vid=64c40546-fc5d-4693-9ccf-3699b6dff106","ios":"levelo://app?vid=64c40546-fc5d-4693-9ccf-3699b6dff106"},"vehicle_type_id":"4","last_reported":1748596258,"current_range_meters":8000,"station_id":"st_cvj6sg6p6f1abm77japg","pricing_plan_id":"cebpf4jnsgd1na2vs0mg"},{"bike_id":"157958ff-ae8a-48de-b894-85e8749fad59","system_id":"levelo_inurba_marseille","lat":43.27209,"lon":5.39173,"is_reserved":false,"is_disabled":false,"rental_uris":{"android":"levelo://app?vid=157958ff-ae8a-48de-b894-85e8749fad59","ios":"levelo://app?vid=157958ff-ae8a-48de-b894-85e8749fad59"},"vehicle_type_id":"4","last_reported":1748596258,"current_range_meters":8400,"station_id":"ce4bhhp2rcd13ifvqfm0","pricing_plan_id":"cebpf4jnsgd1na2vs0mg"},{"bike_id":"0e009545-9acc-491d-b143-22cbd0096db4","system_id":"levelo_inurba_marseille","lat":43.3384,"lon":5.39241,"is_reserved":false,"is_disabled":false,"rental_uris":{"android":"levelo://app?vid=0e009545-9acc-491d-b143-22cbd0096db4","ios":"levelo://app?vid=0e009545-9acc-491d-b143-22cbd0096db4"},"vehicle_type_id":"4","last_reported":1748596258,"current_range_meters":8400,"station_id":"","pricing_plan_id":"cebpf4jnsgd1na2vs0mg"},{"bike_id":"42dca157-bdb0-4361-8022-7979135f94aa","system_id":"levelo_inurba_marseille","lat":43.28562,"lon":5.36551,"is_reserved":false,"is_disabled":false,"rental_uris":{"android":"levelo://app?vid=42dca157-bdb0-4361-8022-7979135f94aa","ios":"levelo://app?vid=42dca157-bdb0-4361-8022-7979135f94aa"},"vehicle_type_id":"4","last_reported":1748596258,"current_range_meters":8400,"station_id":"","pricing_plan_id":"cebpf4jnsgd1na2vs0mg"},{"bike_id":"aae5f7c7-b30a-474f-bb09-cb9f5f8f5101","system_id":"levelo_inurba_marseille","lat":43.24137,"lon":5.36475,"is_reserved":false,"is_disabled":false,"rental_uris":{"android":"levelo://app?vid=aae5f7c7-b30a-474f-bb09-cb9f5f8f5101","ios":"levelo://app?vid=aae5f7c7-b30a-474f-bb09-cb9f5f8f5101"},"vehicle_type_id":"4","last_reported":1748596258,"current_range_meters":8400,"station_id":"cpo36qri1sfpv3e86is0","pricing_plan_id":"cebpf4jnsgd1na2vs0mg"},{"bike_id":"ae9cc218-c9c3-4859-8f34-380b4c57b3f0","system_id":"levelo_inurba_marseille","lat":43.31673,"lon":5.43656,"is_reserved":false,"is_disabled":false,"rental_uris":{"android":"levelo://app?vid=ae9cc218-c9c3-4859-8f34-380b4c57b3f0","ios":"levelo://app?vid=ae9cc218-c9c3-4859-8f34-380b4c57b3f0"},"vehicle_type_id":"4","last_reported":1748596258,"current_range_meters":8400,"station_id":"ce4bhp92rcd13ifvqhcg","pricing_plan_id":"cebpf4jnsgd1na2vs0mg"},{"bike_id":"8b4430ef-1852-41ab-b269-6e80b33d877e","system_id":"levelo_inurba_marseille","lat":43.30949,"lon":5.39007,"is_reserved":false,"is_disabled":true,"rental_uris":{"android":"levelo://app?vid=8b4430ef-1852-41ab-b269-6e80b33d877e","ios":"levelo://app?vid=8b4430ef-1852-41ab-b269-6e80b33d877e"},"vehicle_type_id":"4","last_reported":1748596258,"current_range_meters":8400,"station_id":"ce4bgup2rcd13ifvqco0","pricing_plan_id":"cebpf4jnsgd1na2vs0mg"},{"bike_id":"96faeb96-67b3-4a10-995e-19b1d303c4f9","system_id":"levelo_inurba_marseille","lat":43.308868,"lon":5.371979,"is_reserved":false,"is_disabled":false,"rental_uris":{"android":"levelo://app?vid=96faeb96-67b3-4a10-995e-19b1d303c4f9","ios":"levelo://app?vid=96faeb96-67b3-4a10-995e-19b1d303c4f9"},"vehicle_type_id":"4","last_reported":1748596258,"current_range_meters":8400,"station_id":"ce4bguh2rcd13ifvqckg","pricing_plan_id":"cebpf4jnsgd1na2vs0mg"},{"bike_id":"04c49220-7a35-477c-9a01-0c7650744921","system_id":"levelo_inurba_marseille","lat":43.32472,"lon":5.36565,"is_reserved":false,"is_disabled":false,"rental_uris":{"android":"levelo://app?vid=04c49220-7a35-477c-9a01-0c7650744921","ios":"levelo://app?vid=04c49220-7a35-477c-9a01-0c7650744921"},"vehicle_type_id":"4","last_reported":1748596258,"current_range_meters":8800,"station_id":"ce4bhs12rcd13ifvqhvg","pricing_plan_id":"cebpf4jnsgd1na2vs0mg"},{"bike_id":"339f38b0-f75b-4455-bd41-33673ac56d64","system_id":"levelo_inurba_marseille","lat":43.30999,"lon":5.41718,"is_reserved":false,"is_disabled":false,"rental_uris":{"android":"levelo://app?vid=339f38b0-f75b-4455-bd41-33673ac56d64","ios":"levelo://app?vid=339f38b0-f75b-4455-bd41-33673ac56d64"},"vehicle_type_id":"4","last_reported":1748596258,"current_range_meters":8800,"station_id":"","pricing_plan_id":"cebpf4jnsgd1na2vs0mg"},{"bike_id":"285c3e26-d5de-4f3e-b502-a5d77b75d7e6","system_id":"levelo_inurba_marseille","lat":43.26578,"lon":5.39018,"is_reserved":false,"is_disabled":false,"rental_uris":{"android":"levelo://app?vid=285c3e26-d5de-4f3e-b502-a5d77b75d7e6","ios":"levelo://app?vid=285c3e26-d5de-4f3e-b502-a5d77b75d7e6"},"vehicle_type_id":"4","last_reported":1748596258,"current_range_meters":8800,"station_id":"ce4bhe12rcd13ifvqf30","pricing_plan_id":"cebpf4jnsgd1na2vs0mg"},{"bike_id":"8231def7-2bb5-4db5-b373-b1e78cb73988","system_id":"levelo_inurba_marseille","lat":43.21198,"lon":5.35067,"is_reserved":false,"is_disabled":false,"rental_uris":{"android":"levelo://app?vid=8231def7-2bb5-4db5-b373-b1e78cb73988","ios":"levelo://app?vid=8231def7-2bb5-4db5-b373-b1e78cb73988"},"vehicle_type_id":"4","last_reported":1748596258,"current_range_meters":8800,"station_id":"st_cvj6sg6p6f1abm77japg","pricing_plan_id":"cebpf4jnsgd1na2vs0mg"},{"bike_id":"42457cf4-066b-4e99-be8a-c611cdb501b2","system_id":"levelo_inurba_marseille","lat":43.233266,"lon":5.361604,"is_reserved":false,"is_disabled":false,"rental_uris":{"android":"levelo://app?vid=42457cf4-066b-4e99-be8a-c611cdb501b2","ios":"levelo://app?vid=42457cf4-066b-4e99-be8a-c611cdb501b2"},"vehicle_type_id":"4","last_reported":1748596258,"current_range_meters":9200,"station_id":"","pricing_plan_id":"cebpf4jnsgd1na2vs0mg"},{"bike_id":"67282442-083c-4aad-99be-7e0f8a38ccd4","system_id":"levelo_inurba_marseille","lat":43.29296,"lon":5.37445,"is_reserved":false,"is_disabled":false,"rental_uris":{"android":"levelo://app?vid=67282442-083c-4aad-99be-7e0f8a38ccd4","ios":"levelo://app?vid=67282442-083c-4aad-99be-7e0f8a38ccd4"},"vehicle_type_id":"4","last_reported":1748596258,"current_range_meters":9200,"station_id":"ce4bgi12rcd13ifvqb70","pricing_plan_id":"cebpf4jnsgd1na2vs0mg"},{"bike_id":"00f77637-c960-45d0-b516-a2f6a0285858","system_id":"levelo_inurba_marseille","lat":43.29729,"lon":5.38562,"is_reserved":false,"is_disabled":false,"rental_uris":{"android":"levelo://app?vid=00f77637-c960-45d0-b516-a2f6a0285858","ios":"levelo://app?vid=00f77637-c960-45d0-b516-a2f6a0285858"},"vehicle_type_id":"4","last_reported":1748596258,"current_range_meters":9200,"station_id":"","pricing_plan_id":"cebpf4jnsgd1na2vs0mg"},{"bike_id":"e084e48d-8577-4f7d-b69a-8c34f61bd4f7","system_id":"levelo_inurba_marseille","lat":43.25581,"lon":5.38227,"is_reserved":false,"is_disabled":false,"rental_uris":{"android":"levelo://app?vid=e084e48d-8577-4f7d-b69a-8c34f61bd4f7","ios":"levelo://app?vid=e084e48d-8577-4f7d-b69a-8c34f61bd4f7"},"vehicle_type_id":"4","last_reported":1748596258,"current_range_meters":9200,"station_id":"ce4bhih2rcd13ifvqfs0","pricing_plan_id":"cebpf4jnsgd1na2vs0mg"},{"bike_id":"467f8a47-c2bb-4de1-8820-3f593392b65b","system_id":"levelo_inurba_marseille","lat":43.23151,"lon":5.43724,"is_reserved":false,"is_disabled":false,"rental_uris":{"android":"levelo://app?vid=467f8a47-c2bb-4de1-8820-3f593392b65b","ios":"levelo://app?vid=467f8a47-c2bb-4de1-8820-3f593392b65b"},"vehicle_type_id":"4","last_reported":1748596258,"current_range_meters":9200,"station_id":"ce4bhmp2rcd13ifvqgog","pricing_plan_id":"cebpf4jnsgd1na2vs0mg"},{"bike_id":"a426f99b-d34a-41bf-bbda-59f7dfd6939b","system_id":"levelo_inurba_marseille","lat":43.255796,"lon":5.382262,"is_reserved":false,"is_disabled":false,"rental_uris":{"android":"levelo://app?vid=a426f99b-d34a-41bf-bbda-59f7dfd6939b","ios":"levelo://app?vid=a426f99b-d34a-41bf-bbda-59f7dfd6939b"},"vehicle_type_id":"4","last_reported":1748596258,"current_range_meters":9600,"station_id":"ce501612rcd8frsf0b60","pricing_plan_id":"cebpf4jnsgd1na2vs0mg"},{"bike_id":"a807c8dd-75ce-4f49-b322-50ddd08ec8d0","system_id":"levelo_inurba_marseille","lat":43.34767,"lon":5.37359,"is_reserved":false,"is_disabled":false,"rental_uris":{"android":"levelo://app?vid=a807c8dd-75ce-4f49-b322-50ddd08ec8d0","ios":"levelo://app?vid=a807c8dd-75ce-4f49-b322-50ddd08ec8d0"},"vehicle_type_id":"4","last_reported":1748596258,"current_range_meters":9600,"station_id":"","pricing_plan_id":"cebpf4jnsgd1na2vs0mg"},{"bike_id":"60480ab3-20a9-42d0-ba4b-e7d1befdb5a8","system_id":"levelo_inurba_marseille","lat":43.30129,"lon":5.39866,"is_reserved":false,"is_disabled":false,"rental_uris":{"android":"levelo://app?vid=60480ab3-20a9-42d0-ba4b-e7d1befdb5a8","ios":"levelo://app?vid=60480ab3-20a9-42d0-ba4b-e7d1befdb5a8"},"vehicle_type_id":"4","last_reported":1748596258,"current_range_meters":9600,"station_id":"ce4bh0h2rcd13ifvqd40","pricing_plan_id":"cebpf4jnsgd1na2vs0mg"},{"bike_id":"1e463ab1-5f7b-488c-91a6-765ce6413e30","system_id":"levelo_inurba_marseille","lat":43.30549,"lon":5.36546,"is_reserved":false,"is_disabled":false,"rental_uris":{"android":"levelo://app?vid=1e463ab1-5f7b-488c-91a6-765ce6413e30","ios":"levelo://app?vid=1e463ab1-5f7b-488c-91a6-765ce6413e30"},"vehicle_type_id":"4","last_reported":1748596258,"current_range_meters":9600,"station_id":"ce4bgs12rcd13ifvqcag","pricing_plan_id":"cebpf4jnsgd1na2vs0mg"},{"bike_id":"f5733814-9732-4748-bcc9-3b2fac8e1564","system_id":"levelo_inurba_marseille","lat":43.31256,"lon":5.37829,"is_reserved":false,"is_disabled":false,"rental_uris":{"android":"levelo://app?vid=f5733814-9732-4748-bcc9-3b2fac8e1564","ios":"levelo://app?vid=f5733814-9732-4748-bcc9-3b2fac8e1564"},"vehicle_type_id":"4","last_reported":1748596258,"current_range_meters":9600,"station_id":"","pricing_plan_id":"cebpf4jnsgd1na2vs0mg"},{"bike_id":"c1314674-e460-451d-93ea-5a522ddec4f0","system_id":"levelo_inurba_marseille","lat":43.282654,"lon":5.350544,"is_reserved":false,"is_disabled":false,"rental_uris":{"android":"levelo://app?vid=c1314674-e460-451d-93ea-5a522ddec4f0","ios":"levelo://app?vid=c1314674-e460-451d-93ea-5a522ddec4f0"},"vehicle_type_id":"4","last_reported":1748596258,"current_range_meters":9600,"station_id":"","pricing_plan_id":"cebpf4jnsgd1na2vs0mg"},{"bike_id":"f8d26ebd-9168-41c8-9f49-36e1a1965f63","system_id":"levelo_inurba_marseille","lat":43.29906,"lon":5.43672,"is_reserved":false,"is_disabled":false,"rental_uris":{"android":"levelo://app?vid=f8d26ebd-9168-41c8-9f49-36e1a1965f63","ios":"levelo://app?vid=f8d26ebd-9168-41c8-9f49-36e1a1965f63"},"vehicle_type_id":"4","last_reported":1748596258,"current_range_meters":9600,"station_id":"ce4bhpp2rcd13ifvqhfg","pricing_plan_id":"cebpf4jnsgd1na2vs0mg"},{"bike_id":"c666405f-462c-40b6-aad2-05c3e84c9054","system_id":"levelo_inurba_marseille","lat":43.24156,"lon":5.363981,"is_reserved":false,"is_disabled":false,"rental_uris":{"android":"levelo://app?vid=c666405f-462c-40b6-aad2-05c3e84c9054","ios":"levelo://app?vid=c666405f-462c-40b6-aad2-05c3e84c9054"},"vehicle_type_id":"4","last_reported":1748596258,"current_range_meters":9600,"station_id":"cpo36qri1sfpv3e86is0","pricing_plan_id":"cebpf4jnsgd1na2vs0mg"},{"bike_id":"be4a640d-0c26-4675-b5c4-320922c50d85","system_id":"levelo_inurba_marseille","lat":43.30372,"lon":5.424853,"is_reserved":false,"is_disabled":false,"rental_uris":{"android":"levelo://app?vid=be4a640d-0c26-4675-b5c4-320922c50d85","ios":"levelo://app?vid=be4a640d-0c26-4675-b5c4-320922c50d85"},"vehicle_type_id":"4","last_reported":1748596258,"current_range_meters":10000,"station_id":"ce4bhoh2rcd13ifvqh6g","pricing_plan_id":"cebpf4jnsgd1na2vs0mg"},{"bike_id":"6f58ec22-f2ee-49d1-b77b-cf58866a5e83","system_id":"levelo_inurba_marseille","lat":43.273046,"lon":5.390782,"is_reserved":false,"is_disabled":true,"rental_uris":{"android":"levelo://app?vid=6f58ec22-f2ee-49d1-b77b-cf58866a5e83","ios":"levelo://app?vid=6f58ec22-f2ee-49d1-b77b-cf58866a5e83"},"vehicle_type_id":"4","last_reported":1748596258,"current_range_meters":10000,"station_id":"ce4bhgp2rcd13ifvqfe0","pricing_plan_id":"cebpf4jnsgd1na2vs0mg"},{"bike_id":"ef3d53ac-b0f8-4dba-89f7-e04aa5060268","system_id":"levelo_inurba_marseille","lat":43.26684,"lon":5.3826,"is_reserved":false,"is_disabled":false,"rental_uris":{"android":"levelo://app?vid=ef3d53ac-b0f8-4dba-89f7-e04aa5060268","ios":"levelo://app?vid=ef3d53ac-b0f8-4dba-89f7-e04aa5060268"},"vehicle_type_id":"4","last_reported":1748596258,"current_range_meters":10000,"station_id":"ce4bhg92rcd13ifvqf90","pricing_plan_id":"cebpf4jnsgd1na2vs0mg"},{"bike_id":"a0733277-9572-4c49-b86b-a255c71a8787","system_id":"levelo_inurba_marseille","lat":43.27168,"lon":5.40999,"is_reserved":false,"is_disabled":false,"rental_uris":{"android":"levelo://app?vid=a0733277-9572-4c49-b86b-a255c71a8787","ios":"levelo://app?vid=a0733277-9572-4c49-b86b-a255c71a8787"},"vehicle_type_id":"4","last_reported":1748596258,"current_range_meters":10000,"station_id":"ce4bhl12rcd13ifvqgf0","pricing_plan_id":"cebpf4jnsgd1na2vs0mg"},{"bike_id":"e9cda520-c6f4-465d-ad7f-8c059b3dc45a","system_id":"levelo_inurba_marseille","lat":43.313967,"lon":5.383993,"is_reserved":false,"is_disabled":false,"rental_uris":{"android":"levelo://app?vid=e9cda520-c6f4-465d-ad7f-8c059b3dc45a","ios":"levelo://app?vid=e9cda520-c6f4-465d-ad7f-8c059b3dc45a"},"vehicle_type_id":"4","last_reported":1748596258,"current_range_meters":10000,"station_id":"","pricing_plan_id":"cebpf4jnsgd1na2vs0mg"},{"bike_id":"9106b7cd-70ae-456d-906e-062a4ff9165b","system_id":"levelo_inurba_marseille","lat":43.33027,"lon":5.39436,"is_reserved":false,"is_disabled":false,"rental_uris":{"android":"levelo://app?vid=9106b7cd-70ae-456d-906e-062a4ff9165b","ios":"levelo://app?vid=9106b7cd-70ae-456d-906e-062a4ff9165b"},"vehicle_type_id":"4","last_reported":1748596258,"current_range_meters":10000,"station_id":"","pricing_plan_id":"cebpf4jnsgd1na2vs0mg"},{"bike_id":"1439e623-036f-4242-89ca-d02bdf995a2f","system_id":"levelo_inurba_marseille","lat":43.27365,"lon":5.36235,"is_reserved":false,"is_disabled":false,"rental_uris":{"android":"levelo://app?vid=1439e623-036f-4242-89ca-d02bdf995a2f","ios":"levelo://app?vid=1439e623-036f-4242-89ca-d02bdf995a2f"},"vehicle_type_id":"4","last_reported":1748596258,"current_range_meters":10000,"station_id":"ce4bhbh2rcd13ifvqeo0","pricing_plan_id":"cebpf4jnsgd1na2vs0mg"},{"bike_id":"0dc000bd-368c-4c59-a0e5-9ddd5a5b10f3","system_id":"levelo_inurba_marseille","lat":43.32338,"lon":5.40619,"is_reserved":false,"is_disabled":false,"rental_uris":{"android":"levelo://app?vid=0dc000bd-368c-4c59-a0e5-9ddd5a5b10f3","ios":"levelo://app?vid=0dc000bd-368c-4c59-a0e5-9ddd5a5b10f3"},"vehicle_type_id":"4","last_reported":1748596258,"current_range_meters":10800,"station_id":"ce4bhq92rcd13ifvqhjg","pricing_plan_id":"cebpf4jnsgd1na2vs0mg"},{"bike_id":"e044c9db-ce02-4ecf-bf86-8eaa46f9c414","system_id":"levelo_inurba_marseille","lat":43.2571,"lon":5.39152,"is_reserved":false,"is_disabled":false,"rental_uris":{"android":"levelo://app?vid=e044c9db-ce02-4ecf-bf86-8eaa46f9c414","ios":"levelo://app?vid=e044c9db-ce02-4ecf-bf86-8eaa46f9c414"},"vehicle_type_id":"4","last_reported":1748596258,"current_range_meters":10800,"station_id":"","pricing_plan_id":"cebpf4jnsgd1na2vs0mg"},{"bike_id":"c6db7724-9a49-416b-8d08-0ca0825c616e","system_id":"levelo_inurba_marseille","lat":43.309423,"lon":5.401693,"is_reserved":false,"is_disabled":false,"rental_uris":{"android":"levelo://app?vid=c6db7724-9a49-416b-8d08-0ca0825c616e","ios":"levelo://app?vid=c6db7724-9a49-416b-8d08-0ca0825c616e"},"vehicle_type_id":"4","last_reported":1748596258,"current_range_meters":10800,"station_id":"ce4bgvp2rcd13ifvqct0","pricing_plan_id":"cebpf4jnsgd1na2vs0mg"},{"bike_id":"e997ff03-e3d7-45f1-9f4e-fa41cdd5326b","system_id":"levelo_inurba_marseille","lat":43.31487,"lon":5.37299,"is_reserved":false,"is_disabled":false,"rental_uris":{"android":"levelo://app?vid=e997ff03-e3d7-45f1-9f4e-fa41cdd5326b","ios":"levelo://app?vid=e997ff03-e3d7-45f1-9f4e-fa41cdd5326b"},"vehicle_type_id":"4","last_reported":1748596258,"current_range_meters":10800,"station_id":"ce4bgt12rcd13ifvqcd0","pricing_plan_id":"cebpf4jnsgd1na2vs0mg"},{"bike_id":"a3d2a94f-e1c2-4171-a9aa-7cb1bd87dcc0","system_id":"levelo_inurba_marseille","lat":43.31367,"lon":5.36721,"is_reserved":false,"is_disabled":false,"rental_uris":{"android":"levelo://app?vid=a3d2a94f-e1c2-4171-a9aa-7cb1bd87dcc0","ios":"levelo://app?vid=a3d2a94f-e1c2-4171-a9aa-7cb1bd87dcc0"},"vehicle_type_id":"4","last_reported":1748596258,"current_range_meters":10800,"station_id":"ce4bgr92rcd13ifvqc6g","pricing_plan_id":"cebpf4jnsgd1na2vs0mg"},{"bike_id":"b1070e7a-8a40-475b-91ea-d34046de595b","system_id":"levelo_inurba_marseille","lat":43.2796,"lon":5.38752,"is_reserved":false,"is_disabled":false,"rental_uris":{"android":"levelo://app?vid=b1070e7a-8a40-475b-91ea-d34046de595b","ios":"levelo://app?vid=b1070e7a-8a40-475b-91ea-d34046de595b"},"vehicle_type_id":"4","last_reported":1748596258,"current_range_meters":10800,"station_id":"ce4bhg12rcd13ifvqf80","pricing_plan_id":"cebpf4jnsgd1na2vs0mg"},{"bike_id":"a11ec0e1-b0a1-4cbd-8e6f-27301f7f2275","system_id":"levelo_inurba_marseille","lat":43.26554,"lon":5.37283,"is_reserved":false,"is_disabled":false,"rental_uris":{"android":"levelo://app?vid=a11ec0e1-b0a1-4cbd-8e6f-27301f7f2275","ios":"levelo://app?vid=a11ec0e1-b0a1-4cbd-8e6f-27301f7f2275"},"vehicle_type_id":"4","last_reported":1748596258,"current_range_meters":10800,"station_id":"ce4bhg12rcd13ifvqf70","pricing_plan_id":"cebpf4jnsgd1na2vs0mg"},{"bike_id":"54e0c0f7-b8f3-48f3-a8b9-65efc0d1fd7c","system_id":"levelo_inurba_marseille","lat":43.31326,"lon":5.36699,"is_reserved":false,"is_disabled":false,"rental_uris":{"android":"levelo://app?vid=54e0c0f7-b8f3-48f3-a8b9-65efc0d1fd7c","ios":"levelo://app?vid=54e0c0f7-b8f3-48f3-a8b9-65efc0d1fd7c"},"vehicle_type_id":"4","last_reported":1748596258,"current_range_meters":10800,"station_id":"ce4bgr92rcd13ifvqc6g","pricing_plan_id":"cebpf4jnsgd1na2vs0mg"},{"bike_id":"cd438c88-7f17-4c01-b238-d05b58df7798","system_id":"levelo_inurba_marseille","lat":43.27944,"lon":5.38685,"is_reserved":false,"is_disabled":false,"rental_uris":{"android":"levelo://app?vid=cd438c88-7f17-4c01-b238-d05b58df7798","ios":"levelo://app?vid=cd438c88-7f17-4c01-b238-d05b58df7798"},"vehicle_type_id":"4","last_reported":1748596258,"current_range_meters":9600,"station_id":"ce4bhg12rcd13ifvqf80","pricing_plan_id":"cebpf4jnsgd1na2vs0mg"},{"bike_id":"1be21534-ca7b-4f38-8bff-a7515afc85f6","system_id":"levelo_inurba_marseille","lat":43.24804,"lon":5.3745,"is_reserved":false,"is_disabled":false,"rental_uris":{"android":"levelo://app?vid=1be21534-ca7b-4f38-8bff-a7515afc85f6","ios":"levelo://app?vid=1be21534-ca7b-4f38-8bff-a7515afc85f6"},"vehicle_type_id":"4","last_reported":1748596258,"current_range_meters":10800,"station_id":"ce4bhgh2rcd13ifvqfb0","pricing_plan_id":"cebpf4jnsgd1na2vs0mg"},{"bike_id":"e6fd2ca1-d968-4e6d-950a-3de70295f052","system_id":"levelo_inurba_marseille","lat":43.28418,"lon":5.34978,"is_reserved":false,"is_disabled":false,"rental_uris":{"android":"levelo://app?vid=e6fd2ca1-d968-4e6d-950a-3de70295f052","ios":"levelo://app?vid=e6fd2ca1-d968-4e6d-950a-3de70295f052"},"vehicle_type_id":"4","last_reported":1748596258,"current_range_meters":10800,"station_id":"ce4bhbh2rcd13ifvqepg","pricing_plan_id":"cebpf4jnsgd1na2vs0mg"},{"bike_id":"eeaaba6b-0ce0-43ef-a3d9-c4275a8344eb","system_id":"levelo_inurba_marseille","lat":43.2574,"lon":5.41124,"is_reserved":false,"is_disabled":false,"rental_uris":{"android":"levelo://app?vid=eeaaba6b-0ce0-43ef-a3d9-c4275a8344eb","ios":"levelo://app?vid=eeaaba6b-0ce0-43ef-a3d9-c4275a8344eb"},"vehicle_type_id":"4","last_reported":1748596258,"current_range_meters":10800,"station_id":"ce4bhkp2rcd13ifvqgd0","pricing_plan_id":"cebpf4jnsgd1na2vs0mg"},{"bike_id":"0f14873c-3a58-4694-b19f-026ad8d57589","system_id":"levelo_inurba_marseille","lat":43.31688,"lon":5.40474,"is_reserved":false,"is_disabled":false,"rental_uris":{"android":"levelo://app?vid=0f14873c-3a58-4694-b19f-026ad8d57589","ios":"levelo://app?vid=0f14873c-3a58-4694-b19f-026ad8d57589"},"vehicle_type_id":"4","last_reported":1748596258,"current_range_meters":10800,"station_id":"ce4bh012rcd13ifvqd00","pricing_plan_id":"cebpf4jnsgd1na2vs0mg"},{"bike_id":"ebfdf01b-f1ed-4fe5-9076-840bdfdff4ce","system_id":"levelo_inurba_marseille","lat":43.29792,"lon":5.39347,"is_reserved":false,"is_disabled":false,"rental_uris":{"android":"levelo://app?vid=ebfdf01b-f1ed-4fe5-9076-840bdfdff4ce","ios":"levelo://app?vid=ebfdf01b-f1ed-4fe5-9076-840bdfdff4ce"},"vehicle_type_id":"4","last_reported":1748596258,"current_range_meters":11200,"station_id":"chh1huq6cuj3fo74tm60","pricing_plan_id":"cebpf4jnsgd1na2vs0mg"},{"bike_id":"bc97dac4-f623-45ab-acd6-622fe1887964","system_id":"levelo_inurba_marseille","lat":43.26954,"lon":5.386304,"is_reserved":false,"is_disabled":false,"rental_uris":{"android":"levelo://app?vid=bc97dac4-f623-45ab-acd6-622fe1887964","ios":"levelo://app?vid=bc97dac4-f623-45ab-acd6-622fe1887964"},"vehicle_type_id":"4","last_reported":1748596258,"current_range_meters":11200,"station_id":"ce4bhh92rcd13ifvqfh0","pricing_plan_id":"cebpf4jnsgd1na2vs0mg"},{"bike_id":"69e1ae52-6d61-421b-a99d-c62c78c4a4d8","system_id":"levelo_inurba_marseille","lat":43.23182,"lon":5.39998,"is_reserved":false,"is_disabled":false,"rental_uris":{"android":"levelo://app?vid=69e1ae52-6d61-421b-a99d-c62c78c4a4d8","ios":"levelo://app?vid=69e1ae52-6d61-421b-a99d-c62c78c4a4d8"},"vehicle_type_id":"4","last_reported":1748596258,"current_range_meters":11600,"station_id":"ce4bhn12rcd13ifvqgqg","pricing_plan_id":"cebpf4jnsgd1na2vs0mg"},{"bike_id":"3dd1b342-5d0a-4155-9da3-0dd9cd16e16e","system_id":"levelo_inurba_marseille","lat":43.229236,"lon":5.353968,"is_reserved":false,"is_disabled":false,"rental_uris":{"android":"levelo://app?vid=3dd1b342-5d0a-4155-9da3-0dd9cd16e16e","ios":"levelo://app?vid=3dd1b342-5d0a-4155-9da3-0dd9cd16e16e"},"vehicle_type_id":"4","last_reported":1748596258,"current_range_meters":12000,"station_id":"cpo3532slgdg3j2ikp40","pricing_plan_id":"cebpf4jnsgd1na2vs0mg"},{"bike_id":"8834986d-2d25-4b19-b714-9034500876d5","system_id":"levelo_inurba_marseille","lat":43.2927,"lon":5.37644,"is_reserved":false,"is_disabled":false,"rental_uris":{"android":"levelo://app?vid=8834986d-2d25-4b19-b714-9034500876d5","ios":"levelo://app?vid=8834986d-2d25-4b19-b714-9034500876d5"},"vehicle_type_id":"4","last_reported":1748596258,"current_range_meters":12000,"station_id":"ce4bgi12rcd13ifvqb80","pricing_plan_id":"cebpf4jnsgd1na2vs0mg"},{"bike_id":"1a033729-7d76-4cd7-b553-fd0ee867bce4","system_id":"levelo_inurba_marseille","lat":43.3042,"lon":5.39741,"is_reserved":false,"is_disabled":false,"rental_uris":{"android":"levelo://app?vid=1a033729-7d76-4cd7-b553-fd0ee867bce4","ios":"levelo://app?vid=1a033729-7d76-4cd7-b553-fd0ee867bce4"},"vehicle_type_id":"4","last_reported":1748596258,"current_range_meters":12000,"station_id":"ce4bh092rcd13ifvqd20","pricing_plan_id":"cebpf4jnsgd1na2vs0mg"},{"bike_id":"73bfcaa8-f2b8-47a8-959a-4223df6d13d5","system_id":"levelo_inurba_marseille","lat":43.2119,"lon":5.3507,"is_reserved":false,"is_disabled":false,"rental_uris":{"android":"levelo://app?vid=73bfcaa8-f2b8-47a8-959a-4223df6d13d5","ios":"levelo://app?vid=73bfcaa8-f2b8-47a8-959a-4223df6d13d5"},"vehicle_type_id":"4","last_reported":1748596258,"current_range_meters":12000,"station_id":"st_cvj6sg6p6f1abm77japg","pricing_plan_id":"cebpf4jnsgd1na2vs0mg"},{"bike_id":"94d74484-c00f-4773-98b4-43f5ef9035c3","system_id":"levelo_inurba_marseille","lat":43.262247,"lon":5.404408,"is_reserved":false,"is_disabled":false,"rental_uris":{"android":"levelo://app?vid=94d74484-c00f-4773-98b4-43f5ef9035c3","ios":"levelo://app?vid=94d74484-c00f-4773-98b4-43f5ef9035c3"},"vehicle_type_id":"4","last_reported":1748596258,"current_range_meters":12000,"station_id":"ce4bhmh2rcd13ifvqgmg","pricing_plan_id":"cebpf4jnsgd1na2vs0mg"},{"bike_id":"80ff730c-50bb-44f1-9db6-06f36145efd1","system_id":"levelo_inurba_marseille","lat":43.29577,"lon":5.36746,"is_reserved":false,"is_disabled":false,"rental_uris":{"android":"levelo://app?vid=80ff730c-50bb-44f1-9db6-06f36145efd1","ios":"levelo://app?vid=80ff730c-50bb-44f1-9db6-06f36145efd1"},"vehicle_type_id":"4","last_reported":1748596258,"current_range_meters":11600,"station_id":"ce4bgph2rcd13ifvqc2g","pricing_plan_id":"cebpf4jnsgd1na2vs0mg"},{"bike_id":"abb8e33b-e663-4a8b-88d2-b0e186bde40e","system_id":"levelo_inurba_marseille","lat":43.25944,"lon":5.40912,"is_reserved":false,"is_disabled":false,"rental_uris":{"android":"levelo://app?vid=abb8e33b-e663-4a8b-88d2-b0e186bde40e","ios":"levelo://app?vid=abb8e33b-e663-4a8b-88d2-b0e186bde40e"},"vehicle_type_id":"4","last_reported":1748596258,"current_range_meters":12000,"station_id":"ce4bhm92rcd13ifvqglg","pricing_plan_id":"cebpf4jnsgd1na2vs0mg"},{"bike_id":"7d5ccf32-a06c-497f-987c-d0b0b04cb5ae","system_id":"levelo_inurba_marseille","lat":43.32338,"lon":5.4062,"is_reserved":false,"is_disabled":false,"rental_uris":{"android":"levelo://app?vid=7d5ccf32-a06c-497f-987c-d0b0b04cb5ae","ios":"levelo://app?vid=7d5ccf32-a06c-497f-987c-d0b0b04cb5ae"},"vehicle_type_id":"4","last_reported":1748596258,"current_range_meters":12000,"station_id":"ce4bhq92rcd13ifvqhjg","pricing_plan_id":"cebpf4jnsgd1na2vs0mg"},{"bike_id":"6d9461e9-afcf-430b-8179-bb7d54f00db5","system_id":"levelo_inurba_marseille","lat":43.31516,"lon":5.37299,"is_reserved":false,"is_disabled":false,"rental_uris":{"android":"levelo://app?vid=6d9461e9-afcf-430b-8179-bb7d54f00db5","ios":"levelo://app?vid=6d9461e9-afcf-430b-8179-bb7d54f00db5"},"vehicle_type_id":"4","last_reported":1748596258,"current_range_meters":12000,"station_id":"ce4bgt12rcd13ifvqcd0","pricing_plan_id":"cebpf4jnsgd1na2vs0mg"},{"bike_id":"a8d4273b-613f-442b-bea9-7c462c2c1bbc","system_id":"levelo_inurba_marseille","lat":43.26221,"lon":5.40451,"is_reserved":false,"is_disabled":false,"rental_uris":{"android":"levelo://app?vid=a8d4273b-613f-442b-bea9-7c462c2c1bbc","ios":"levelo://app?vid=a8d4273b-613f-442b-bea9-7c462c2c1bbc"},"vehicle_type_id":"4","last_reported":1748596258,"current_range_meters":12000,"station_id":"ce4bhmh2rcd13ifvqgmg","pricing_plan_id":"cebpf4jnsgd1na2vs0mg"},{"bike_id":"046bd24e-d385-4563-bab4-c0545400a254","system_id":"levelo_inurba_marseille","lat":43.2826,"lon":5.35066,"is_reserved":false,"is_disabled":false,"rental_uris":{"android":"levelo://app?vid=046bd24e-d385-4563-bab4-c0545400a254","ios":"levelo://app?vid=046bd24e-d385-4563-bab4-c0545400a254"},"vehicle_type_id":"4","last_reported":1748596258,"current_range_meters":12000,"station_id":"ce4bhbp2rcd13ifvqerg","pricing_plan_id":"cebpf4jnsgd1na2vs0mg"},{"bike_id":"c9b16b3f-d77e-4adf-8c10-65c6e295aa7d","system_id":"levelo_inurba_marseille","lat":43.27983,"lon":5.38772,"is_reserved":false,"is_disabled":false,"rental_uris":{"android":"levelo://app?vid=c9b16b3f-d77e-4adf-8c10-65c6e295aa7d","ios":"levelo://app?vid=c9b16b3f-d77e-4adf-8c10-65c6e295aa7d"},"vehicle_type_id":"4","last_reported":1748596258,"current_range_meters":12400,"station_id":"ce4bhg12rcd13ifvqf80","pricing_plan_id":"cebpf4jnsgd1na2vs0mg"},{"bike_id":"3cf1f1a0-aa90-4b01-8b52-a4c7624499ec","system_id":"levelo_inurba_marseille","lat":43.28263,"lon":5.35062,"is_reserved":false,"is_disabled":false,"rental_uris":{"android":"levelo://app?vid=3cf1f1a0-aa90-4b01-8b52-a4c7624499ec","ios":"levelo://app?vid=3cf1f1a0-aa90-4b01-8b52-a4c7624499ec"},"vehicle_type_id":"4","last_reported":1748596258,"current_range_meters":12400,"station_id":"ce4bhbp2rcd13ifvqerg","pricing_plan_id":"cebpf4jnsgd1na2vs0mg"},{"bike_id":"d041ba9b-b157-420b-92de-857f860b4947","system_id":"levelo_inurba_marseille","lat":43.28225,"lon":5.3906,"is_reserved":false,"is_disabled":false,"rental_uris":{"android":"levelo://app?vid=d041ba9b-b157-420b-92de-857f860b4947","ios":"levelo://app?vid=d041ba9b-b157-420b-92de-857f860b4947"},"vehicle_type_id":"4","last_reported":1748596258,"current_range_meters":12400,"station_id":"","pricing_plan_id":"cebpf4jnsgd1na2vs0mg"},{"bike_id":"9578bbef-2818-4347-8570-60c62d6a33c6","system_id":"levelo_inurba_marseille","lat":43.31745,"lon":5.39016,"is_reserved":false,"is_disabled":false,"rental_uris":{"android":"levelo://app?vid=9578bbef-2818-4347-8570-60c62d6a33c6","ios":"levelo://app?vid=9578bbef-2818-4347-8570-60c62d6a33c6"},"vehicle_type_id":"4","last_reported":1748596258,"current_range_meters":12400,"station_id":"ce4bhqp2rcd13ifvqhng","pricing_plan_id":"cebpf4jnsgd1na2vs0mg"},{"bike_id":"f67c0dea-1fe5-4948-9215-8f57b4153744","system_id":"levelo_inurba_marseille","lat":43.28417,"lon":5.34976,"is_reserved":false,"is_disabled":false,"rental_uris":{"android":"levelo://app?vid=f67c0dea-1fe5-4948-9215-8f57b4153744","ios":"levelo://app?vid=f67c0dea-1fe5-4948-9215-8f57b4153744"},"vehicle_type_id":"4","last_reported":1748596258,"current_range_meters":12400,"station_id":"ce4bhbh2rcd13ifvqepg","pricing_plan_id":"cebpf4jnsgd1na2vs0mg"},{"bike_id":"7243d7c8-02f5-4392-89cf-8c360e846d55","system_id":"levelo_inurba_marseille","lat":43.25288,"lon":5.3783,"is_reserved":false,"is_disabled":false,"rental_uris":{"android":"levelo://app?vid=7243d7c8-02f5-4392-89cf-8c360e846d55","ios":"levelo://app?vid=7243d7c8-02f5-4392-89cf-8c360e846d55"},"vehicle_type_id":"4","last_reported":1748596258,"current_range_meters":12800,"station_id":"","pricing_plan_id":"cebpf4jnsgd1na2vs0mg"},{"bike_id":"7942fb8a-d8c1-4e75-9dbc-38063031dd28","system_id":"levelo_inurba_marseille","lat":43.27807,"lon":5.40709,"is_reserved":false,"is_disabled":false,"rental_uris":{"android":"levelo://app?vid=7942fb8a-d8c1-4e75-9dbc-38063031dd28","ios":"levelo://app?vid=7942fb8a-d8c1-4e75-9dbc-38063031dd28"},"vehicle_type_id":"4","last_reported":1748596258,"current_range_meters":12800,"station_id":"ce4bhnh2rcd13ifvqgtg","pricing_plan_id":"cebpf4jnsgd1na2vs0mg"},{"bike_id":"5c853f87-5cef-4c24-9207-5ded7fe4e382","system_id":"levelo_inurba_marseille","lat":43.27923,"lon":5.39585,"is_reserved":false,"is_disabled":false,"rental_uris":{"android":"levelo://app?vid=5c853f87-5cef-4c24-9207-5ded7fe4e382","ios":"levelo://app?vid=5c853f87-5cef-4c24-9207-5ded7fe4e382"},"vehicle_type_id":"4","last_reported":1748596258,"current_range_meters":12800,"station_id":"ce4bhf92rcd13ifvqf40","pricing_plan_id":"cebpf4jnsgd1na2vs0mg"},{"bike_id":"c30f3b15-12a5-4ff6-a778-8adc25bdb363","system_id":"levelo_inurba_marseille","lat":43.2315,"lon":5.43719,"is_reserved":false,"is_disabled":false,"rental_uris":{"android":"levelo://app?vid=c30f3b15-12a5-4ff6-a778-8adc25bdb363","ios":"levelo://app?vid=c30f3b15-12a5-4ff6-a778-8adc25bdb363"},"vehicle_type_id":"4","last_reported":1748596258,"current_range_meters":12800,"station_id":"ce4bhmp2rcd13ifvqgog","pricing_plan_id":"cebpf4jnsgd1na2vs0mg"},{"bike_id":"c7c3a5a4-b6e4-462b-80c7-827e33b91cd7","system_id":"levelo_inurba_marseille","lat":43.26554,"lon":5.37284,"is_reserved":false,"is_disabled":false,"rental_uris":{"android":"levelo://app?vid=c7c3a5a4-b6e4-462b-80c7-827e33b91cd7","ios":"levelo://app?vid=c7c3a5a4-b6e4-462b-80c7-827e33b91cd7"},"vehicle_type_id":"4","last_reported":1748596258,"current_range_meters":12800,"station_id":"ce4bhg12rcd13ifvqf70","pricing_plan_id":"cebpf4jnsgd1na2vs0mg"},{"bike_id":"990df701-79a7-41ec-b963-3693dc590a87","system_id":"levelo_inurba_marseille","lat":43.30175,"lon":5.37909,"is_reserved":false,"is_disabled":false,"rental_uris":{"android":"levelo://app?vid=990df701-79a7-41ec-b963-3693dc590a87","ios":"levelo://app?vid=990df701-79a7-41ec-b963-3693dc590a87"},"vehicle_type_id":"4","last_reported":1748596258,"current_range_meters":12800,"station_id":"","pricing_plan_id":"cebpf4jnsgd1na2vs0mg"},{"bike_id":"85f488b5-f2d1-453d-9f13-38f4bd13329e","system_id":"levelo_inurba_marseille","lat":43.22933,"lon":5.35374,"is_reserved":false,"is_disabled":false,"rental_uris":{"android":"levelo://app?vid=85f488b5-f2d1-453d-9f13-38f4bd13329e","ios":"levelo://app?vid=85f488b5-f2d1-453d-9f13-38f4bd13329e"},"vehicle_type_id":"4","last_reported":1748596258,"current_range_meters":13600,"station_id":"cpo3532slgdg3j2ikp40","pricing_plan_id":"cebpf4jnsgd1na2vs0mg"},{"bike_id":"2236b6c0-f763-40f5-8e40-14b379518f91","system_id":"levelo_inurba_marseille","lat":43.246067,"lon":5.393063,"is_reserved":false,"is_disabled":false,"rental_uris":{"android":"levelo://app?vid=2236b6c0-f763-40f5-8e40-14b379518f91","ios":"levelo://app?vid=2236b6c0-f763-40f5-8e40-14b379518f91"},"vehicle_type_id":"4","last_reported":1748596258,"current_range_meters":13600,"station_id":"","pricing_plan_id":"cebpf4jnsgd1na2vs0mg"},{"bike_id":"81929695-c996-4344-b136-61f971835187","system_id":"levelo_inurba_marseille","lat":43.26222,"lon":5.37452,"is_reserved":false,"is_disabled":false,"rental_uris":{"android":"levelo://app?vid=81929695-c996-4344-b136-61f971835187","ios":"levelo://app?vid=81929695-c996-4344-b136-61f971835187"},"vehicle_type_id":"4","last_reported":1748596258,"current_range_meters":13600,"station_id":"ce4bhgp2rcd13ifvqfc0","pricing_plan_id":"cebpf4jnsgd1na2vs0mg"},{"bike_id":"0fdbfe14-1e41-4787-a602-096062dd4129","system_id":"levelo_inurba_marseille","lat":43.28609,"lon":5.37042,"is_reserved":false,"is_disabled":false,"rental_uris":{"android":"levelo://app?vid=0fdbfe14-1e41-4787-a602-096062dd4129","ios":"levelo://app?vid=0fdbfe14-1e41-4787-a602-096062dd4129"},"vehicle_type_id":"4","last_reported":1748596258,"current_range_meters":13600,"station_id":"ce4bht12rcd13ifvqi60","pricing_plan_id":"cebpf4jnsgd1na2vs0mg"},{"bike_id":"0bdee142-1fda-4a23-9616-8b7744765971","system_id":"levelo_inurba_marseille","lat":43.2466,"lon":5.38174,"is_reserved":false,"is_disabled":false,"rental_uris":{"android":"levelo://app?vid=0bdee142-1fda-4a23-9616-8b7744765971","ios":"levelo://app?vid=0bdee142-1fda-4a23-9616-8b7744765971"},"vehicle_type_id":"4","last_reported":1748596258,"current_range_meters":14000,"station_id":"ce4bhih2rcd13ifvqfr0","pricing_plan_id":"cebpf4jnsgd1na2vs0mg"},{"bike_id":"9fe1e697-36ec-421f-b0be-031c2f5ed7f3","system_id":"levelo_inurba_marseille","lat":43.33796,"lon":5.37447,"is_reserved":false,"is_disabled":false,"rental_uris":{"android":"levelo://app?vid=9fe1e697-36ec-421f-b0be-031c2f5ed7f3","ios":"levelo://app?vid=9fe1e697-36ec-421f-b0be-031c2f5ed7f3"},"vehicle_type_id":"4","last_reported":1748596258,"current_range_meters":14000,"station_id":"","pricing_plan_id":"cebpf4jnsgd1na2vs0mg"},{"bike_id":"529137a1-0fec-4a4c-bbe8-03949b5f4bac","system_id":"levelo_inurba_marseille","lat":43.28424,"lon":5.3497,"is_reserved":false,"is_disabled":false,"rental_uris":{"android":"levelo://app?vid=529137a1-0fec-4a4c-bbe8-03949b5f4bac","ios":"levelo://app?vid=529137a1-0fec-4a4c-bbe8-03949b5f4bac"},"vehicle_type_id":"4","last_reported":1748596258,"current_range_meters":14000,"station_id":"ce4bhbh2rcd13ifvqepg","pricing_plan_id":"cebpf4jnsgd1na2vs0mg"},{"bike_id":"8a17b903-cbef-4ca1-985e-91f7861d3ad0","system_id":"levelo_inurba_marseille","lat":43.24167,"lon":5.36387,"is_reserved":false,"is_disabled":true,"rental_uris":{"android":"levelo://app?vid=8a17b903-cbef-4ca1-985e-91f7861d3ad0","ios":"levelo://app?vid=8a17b903-cbef-4ca1-985e-91f7861d3ad0"},"vehicle_type_id":"4","last_reported":1748596258,"current_range_meters":14000,"station_id":"cpo36qri1sfpv3e86is0","pricing_plan_id":"cebpf4jnsgd1na2vs0mg"},{"bike_id":"3cfcd708-bb66-4827-988c-59ab1f9ea42d","system_id":"levelo_inurba_marseille","lat":43.26219,"lon":5.40449,"is_reserved":false,"is_disabled":false,"rental_uris":{"android":"levelo://app?vid=3cfcd708-bb66-4827-988c-59ab1f9ea42d","ios":"levelo://app?vid=3cfcd708-bb66-4827-988c-59ab1f9ea42d"},"vehicle_type_id":"4","last_reported":1748596258,"current_range_meters":14000,"station_id":"ce4bhmh2rcd13ifvqgmg","pricing_plan_id":"cebpf4jnsgd1na2vs0mg"},{"bike_id":"8fed41b2-9d6b-4474-8486-624fae52b6a2","system_id":"levelo_inurba_marseille","lat":43.27932,"lon":5.41007,"is_reserved":false,"is_disabled":false,"rental_uris":{"android":"levelo://app?vid=8fed41b2-9d6b-4474-8486-624fae52b6a2","ios":"levelo://app?vid=8fed41b2-9d6b-4474-8486-624fae52b6a2"},"vehicle_type_id":"4","last_reported":1748596258,"current_range_meters":14000,"station_id":"ce4bhnp2rcd13ifvqh0g","pricing_plan_id":"cebpf4jnsgd1na2vs0mg"},{"bike_id":"ec99f384-d898-41dd-b58c-5d977d5ab448","system_id":"levelo_inurba_marseille","lat":43.274379,"lon":5.361437,"is_reserved":false,"is_disabled":false,"rental_uris":{"android":"levelo://app?vid=ec99f384-d898-41dd-b58c-5d977d5ab448","ios":"levelo://app?vid=ec99f384-d898-41dd-b58c-5d977d5ab448"},"vehicle_type_id":"4","last_reported":1748596258,"current_range_meters":14000,"station_id":"ce4bh692rcd13ifvqea0","pricing_plan_id":"cebpf4jnsgd1na2vs0mg"},{"bike_id":"26006c47-8319-4915-900f-3a1afa51b852","system_id":"levelo_inurba_marseille","lat":43.21748,"lon":5.34602,"is_reserved":false,"is_disabled":false,"rental_uris":{"android":"levelo://app?vid=26006c47-8319-4915-900f-3a1afa51b852","ios":"levelo://app?vid=26006c47-8319-4915-900f-3a1afa51b852"},"vehicle_type_id":"4","last_reported":1748596258,"current_range_meters":14000,"station_id":"st_cvj6r9ubvosntc0bgbag","pricing_plan_id":"cebpf4jnsgd1na2vs0mg"},{"bike_id":"f30d532a-5239-405b-8f04-4f3e1a44b964","system_id":"levelo_inurba_marseille","lat":43.27218,"lon":5.39174,"is_reserved":false,"is_disabled":false,"rental_uris":{"android":"levelo://app?vid=f30d532a-5239-405b-8f04-4f3e1a44b964","ios":"levelo://app?vid=f30d532a-5239-405b-8f04-4f3e1a44b964"},"vehicle_type_id":"4","last_reported":1748596258,"current_range_meters":14400,"station_id":"ce4bhhp2rcd13ifvqfm0","pricing_plan_id":"cebpf4jnsgd1na2vs0mg"},{"bike_id":"854c0867-77a6-4b6e-8a7f-2ec3cfed8fdb","system_id":"levelo_inurba_marseille","lat":43.2595,"lon":5.40881,"is_reserved":false,"is_disabled":false,"rental_uris":{"android":"levelo://app?vid=854c0867-77a6-4b6e-8a7f-2ec3cfed8fdb","ios":"levelo://app?vid=854c0867-77a6-4b6e-8a7f-2ec3cfed8fdb"},"vehicle_type_id":"4","last_reported":1748596258,"current_range_meters":14400,"station_id":"ce4bhm92rcd13ifvqglg","pricing_plan_id":"cebpf4jnsgd1na2vs0mg"},{"bike_id":"9c8f2851-b94a-491b-9cb6-2e6f5d4c91c2","system_id":"levelo_inurba_marseille","lat":43.26227,"lon":5.37449,"is_reserved":false,"is_disabled":false,"rental_uris":{"android":"levelo://app?vid=9c8f2851-b94a-491b-9cb6-2e6f5d4c91c2","ios":"levelo://app?vid=9c8f2851-b94a-491b-9cb6-2e6f5d4c91c2"},"vehicle_type_id":"4","last_reported":1748596258,"current_range_meters":14400,"station_id":"ce4bhgp2rcd13ifvqfc0","pricing_plan_id":"cebpf4jnsgd1na2vs0mg"},{"bike_id":"3f6bdd7a-f940-4500-9687-219a6ad07200","system_id":"levelo_inurba_marseille","lat":43.27056,"lon":5.40265,"is_reserved":false,"is_disabled":false,"rental_uris":{"android":"levelo://app?vid=3f6bdd7a-f940-4500-9687-219a6ad07200","ios":"levelo://app?vid=3f6bdd7a-f940-4500-9687-219a6ad07200"},"vehicle_type_id":"4","last_reported":1748596258,"current_range_meters":14400,"station_id":"ce4bhk92rcd13ifvqgc0","pricing_plan_id":"cebpf4jnsgd1na2vs0mg"},{"bike_id":"7772ee7a-25f5-4bc7-a3bc-e28a5309d741","system_id":"levelo_inurba_marseille","lat":43.30369,"lon":5.4248,"is_reserved":false,"is_disabled":true,"rental_uris":{"android":"levelo://app?vid=7772ee7a-25f5-4bc7-a3bc-e28a5309d741","ios":"levelo://app?vid=7772ee7a-25f5-4bc7-a3bc-e28a5309d741"},"vehicle_type_id":"4","last_reported":1748596258,"current_range_meters":14400,"station_id":"ce4bhoh2rcd13ifvqh6g","pricing_plan_id":"cebpf4jnsgd1na2vs0mg"},{"bike_id":"cecccb03-d5e1-44f8-9176-a22550f751c7","system_id":"levelo_inurba_marseille","lat":43.32538,"lon":5.41445,"is_reserved":false,"is_disabled":false,"rental_uris":{"android":"levelo://app?vid=cecccb03-d5e1-44f8-9176-a22550f751c7","ios":"levelo://app?vid=cecccb03-d5e1-44f8-9176-a22550f751c7"},"vehicle_type_id":"4","last_reported":1748596258,"current_range_meters":14800,"station_id":"ce4bhq12rcd13ifvqhhg","pricing_plan_id":"cebpf4jnsgd1na2vs0mg"},{"bike_id":"b18036e4-cdbb-441f-a4f1-99c9cdbece34","system_id":"levelo_inurba_marseille","lat":43.294916,"lon":5.390733,"is_reserved":false,"is_disabled":false,"rental_uris":{"android":"levelo://app?vid=b18036e4-cdbb-441f-a4f1-99c9cdbece34","ios":"levelo://app?vid=b18036e4-cdbb-441f-a4f1-99c9cdbece34"},"vehicle_type_id":"4","last_reported":1748596258,"current_range_meters":14800,"station_id":"ce4bh3p2rcd13ifvqdp0","pricing_plan_id":"cebpf4jnsgd1na2vs0mg"},{"bike_id":"950a66c6-0112-4714-a007-202e42172c1f","system_id":"levelo_inurba_marseille","lat":43.248093,"lon":5.374566,"is_reserved":false,"is_disabled":false,"rental_uris":{"android":"levelo://app?vid=950a66c6-0112-4714-a007-202e42172c1f","ios":"levelo://app?vid=950a66c6-0112-4714-a007-202e42172c1f"},"vehicle_type_id":"4","last_reported":1748596258,"current_range_meters":15200,"station_id":"ce4bhgh2rcd13ifvqfb0","pricing_plan_id":"cebpf4jnsgd1na2vs0mg"},{"bike_id":"67a6560c-83dc-490e-9fc7-f17e3d931afd","system_id":"levelo_inurba_marseille","lat":43.2415,"lon":5.3643,"is_reserved":false,"is_disabled":false,"rental_uris":{"android":"levelo://app?vid=67a6560c-83dc-490e-9fc7-f17e3d931afd","ios":"levelo://app?vid=67a6560c-83dc-490e-9fc7-f17e3d931afd"},"vehicle_type_id":"4","last_reported":1748596258,"current_range_meters":15200,"station_id":"cpo36qri1sfpv3e86is0","pricing_plan_id":"cebpf4jnsgd1na2vs0mg"},{"bike_id":"d6d1ada7-d095-4848-a9c7-71d520f6d868","system_id":"levelo_inurba_marseille","lat":43.299666,"lon":5.384894,"is_reserved":false,"is_disabled":false,"rental_uris":{"android":"levelo://app?vid=d6d1ada7-d095-4848-a9c7-71d520f6d868","ios":"levelo://app?vid=d6d1ada7-d095-4848-a9c7-71d520f6d868"},"vehicle_type_id":"4","last_reported":1748596258,"current_range_meters":15200,"station_id":"","pricing_plan_id":"cebpf4jnsgd1na2vs0mg"},{"bike_id":"dd34afa2-f665-4263-85a8-7de7dbd3a196","system_id":"levelo_inurba_marseille","lat":43.27645,"lon":5.39745,"is_reserved":false,"is_disabled":false,"rental_uris":{"android":"levelo://app?vid=dd34afa2-f665-4263-85a8-7de7dbd3a196","ios":"levelo://app?vid=dd34afa2-f665-4263-85a8-7de7dbd3a196"},"vehicle_type_id":"4","last_reported":1748596258,"current_range_meters":15200,"station_id":"","pricing_plan_id":"cebpf4jnsgd1na2vs0mg"},{"bike_id":"c15ffdc2-74f4-4829-a183-8922571dd04a","system_id":"levelo_inurba_marseille","lat":43.29837,"lon":5.36269,"is_reserved":false,"is_disabled":false,"rental_uris":{"android":"levelo://app?vid=c15ffdc2-74f4-4829-a183-8922571dd04a","ios":"levelo://app?vid=c15ffdc2-74f4-4829-a183-8922571dd04a"},"vehicle_type_id":"4","last_reported":1748596258,"current_range_meters":16000,"station_id":"ce4bgpp2rcd13ifvqc3g","pricing_plan_id":"cebpf4jnsgd1na2vs0mg"},{"bike_id":"9a2e6e62-bc97-4de6-9633-80d414b8dfcb","system_id":"levelo_inurba_marseille","lat":43.292854,"lon":5.374578,"is_reserved":false,"is_disabled":false,"rental_uris":{"android":"levelo://app?vid=9a2e6e62-bc97-4de6-9633-80d414b8dfcb","ios":"levelo://app?vid=9a2e6e62-bc97-4de6-9633-80d414b8dfcb"},"vehicle_type_id":"4","last_reported":1748596258,"current_range_meters":16000,"station_id":"ce4bgi12rcd13ifvqb70","pricing_plan_id":"cebpf4jnsgd1na2vs0mg"},{"bike_id":"bf9ada33-fac3-4c6c-a22e-d3b48e785518","system_id":"levelo_inurba_marseille","lat":43.28016,"lon":5.40888,"is_reserved":false,"is_disabled":false,"rental_uris":{"android":"levelo://app?vid=bf9ada33-fac3-4c6c-a22e-d3b48e785518","ios":"levelo://app?vid=bf9ada33-fac3-4c6c-a22e-d3b48e785518"},"vehicle_type_id":"4","last_reported":1748596258,"current_range_meters":16000,"station_id":"","pricing_plan_id":"cebpf4jnsgd1na2vs0mg"},{"bike_id":"074583bb-591a-4792-b48f-a41ad19d85c8","system_id":"levelo_inurba_marseille","lat":43.29271,"lon":5.36861,"is_reserved":false,"is_disabled":false,"rental_uris":{"android":"levelo://app?vid=074583bb-591a-4792-b48f-a41ad19d85c8","ios":"levelo://app?vid=074583bb-591a-4792-b48f-a41ad19d85c8"},"vehicle_type_id":"4","last_reported":1748596258,"current_range_meters":16000,"station_id":"ce4bhbp2rcd13ifvqesg","pricing_plan_id":"cebpf4jnsgd1na2vs0mg"},{"bike_id":"f425b924-8b7e-4f4b-87cd-187575620797","system_id":"levelo_inurba_marseille","lat":43.27668,"lon":5.408285,"is_reserved":false,"is_disabled":false,"rental_uris":{"android":"levelo://app?vid=f425b924-8b7e-4f4b-87cd-187575620797","ios":"levelo://app?vid=f425b924-8b7e-4f4b-87cd-187575620797"},"vehicle_type_id":"4","last_reported":1748596258,"current_range_meters":16000,"station_id":"ce4bhn92rcd13ifvqgrg","pricing_plan_id":"cebpf4jnsgd1na2vs0mg"},{"bike_id":"f3b00cf9-7c86-4f86-969e-b4eadcf92a2a","system_id":"levelo_inurba_marseille","lat":43.28327,"lon":5.381145,"is_reserved":false,"is_disabled":false,"rental_uris":{"android":"levelo://app?vid=f3b00cf9-7c86-4f86-969e-b4eadcf92a2a","ios":"levelo://app?vid=f3b00cf9-7c86-4f86-969e-b4eadcf92a2a"},"vehicle_type_id":"4","last_reported":1748596258,"current_range_meters":16000,"station_id":"ce4bh412rcd13ifvqdr0","pricing_plan_id":"cebpf4jnsgd1na2vs0mg"},{"bike_id":"6bd35bc3-1dd8-438a-971b-d0491e0879e1","system_id":"levelo_inurba_marseille","lat":43.30597,"lon":5.37231,"is_reserved":false,"is_disabled":false,"rental_uris":{"android":"levelo://app?vid=6bd35bc3-1dd8-438a-971b-d0491e0879e1","ios":"levelo://app?vid=6bd35bc3-1dd8-438a-971b-d0491e0879e1"},"vehicle_type_id":"4","last_reported":1748596258,"current_range_meters":15200,"station_id":"ce4bgqh2rcd13ifvqc4g","pricing_plan_id":"cebpf4jnsgd1na2vs0mg"},{"bike_id":"30c0360d-3b58-44ff-a262-1c15bc51a067","system_id":"levelo_inurba_marseille","lat":43.26191,"lon":5.37456,"is_reserved":false,"is_disabled":false,"rental_uris":{"android":"levelo://app?vid=30c0360d-3b58-44ff-a262-1c15bc51a067","ios":"levelo://app?vid=30c0360d-3b58-44ff-a262-1c15bc51a067"},"vehicle_type_id":"4","last_reported":1748596258,"current_range_meters":16400,"station_id":"ce4bhgp2rcd13ifvqfc0","pricing_plan_id":"cebpf4jnsgd1na2vs0mg"},{"bike_id":"7eca6927-0eee-41fb-838c-8606d041ec62","system_id":"levelo_inurba_marseille","lat":43.26214,"lon":5.40456,"is_reserved":false,"is_disabled":false,"rental_uris":{"android":"levelo://app?vid=7eca6927-0eee-41fb-838c-8606d041ec62","ios":"levelo://app?vid=7eca6927-0eee-41fb-838c-8606d041ec62"},"vehicle_type_id":"4","last_reported":1748596258,"current_range_meters":16400,"station_id":"ce4bhmh2rcd13ifvqgmg","pricing_plan_id":"cebpf4jnsgd1na2vs0mg"},{"bike_id":"a1b28146-67ba-460f-a3b6-23293e9aee3a","system_id":"levelo_inurba_marseille","lat":43.28599,"lon":5.35076,"is_reserved":false,"is_disabled":true,"rental_uris":{"android":"levelo://app?vid=a1b28146-67ba-460f-a3b6-23293e9aee3a","ios":"levelo://app?vid=a1b28146-67ba-460f-a3b6-23293e9aee3a"},"vehicle_type_id":"4","last_reported":1748596258,"current_range_meters":16400,"station_id":"ce4bhch2rcd13ifvqeug","pricing_plan_id":"cebpf4jnsgd1na2vs0mg"},{"bike_id":"d413ec7d-a1a9-4b70-a0b3-9dd8041eedc0","system_id":"levelo_inurba_marseille","lat":43.32048,"lon":5.41541,"is_reserved":false,"is_disabled":false,"rental_uris":{"android":"levelo://app?vid=d413ec7d-a1a9-4b70-a0b3-9dd8041eedc0","ios":"levelo://app?vid=d413ec7d-a1a9-4b70-a0b3-9dd8041eedc0"},"vehicle_type_id":"4","last_reported":1748596258,"current_range_meters":16400,"station_id":"ce4bhq92rcd13ifvqhkg","pricing_plan_id":"cebpf4jnsgd1na2vs0mg"},{"bike_id":"aafe2f57-e2ec-44cd-b95f-d6871f482382","system_id":"levelo_inurba_marseille","lat":43.30645,"lon":5.40082,"is_reserved":false,"is_disabled":false,"rental_uris":{"android":"levelo://app?vid=aafe2f57-e2ec-44cd-b95f-d6871f482382","ios":"levelo://app?vid=aafe2f57-e2ec-44cd-b95f-d6871f482382"},"vehicle_type_id":"4","last_reported":1748596258,"current_range_meters":16400,"station_id":"ce4bh112rcd13ifvqda0","pricing_plan_id":"cebpf4jnsgd1na2vs0mg"},{"bike_id":"565b3e3d-698b-4f09-8892-9a3ab833c044","system_id":"levelo_inurba_marseille","lat":43.27113,"lon":5.36278,"is_reserved":false,"is_disabled":false,"rental_uris":{"android":"levelo://app?vid=565b3e3d-698b-4f09-8892-9a3ab833c044","ios":"levelo://app?vid=565b3e3d-698b-4f09-8892-9a3ab833c044"},"vehicle_type_id":"4","last_reported":1748596258,"current_range_meters":16400,"station_id":"","pricing_plan_id":"cebpf4jnsgd1na2vs0mg"},{"bike_id":"fe8033ce-bb5c-4c15-916a-6b9dd8f02eb4","system_id":"levelo_inurba_marseille","lat":43.27322,"lon":5.39087,"is_reserved":false,"is_disabled":false,"rental_uris":{"android":"levelo://app?vid=fe8033ce-bb5c-4c15-916a-6b9dd8f02eb4","ios":"levelo://app?vid=fe8033ce-bb5c-4c15-916a-6b9dd8f02eb4"},"vehicle_type_id":"4","last_reported":1748596258,"current_range_meters":16400,"station_id":"ce4bhgp2rcd13ifvqfe0","pricing_plan_id":"cebpf4jnsgd1na2vs0mg"},{"bike_id":"d7a91929-e8d0-4e05-a434-6316c1c28bf3","system_id":"levelo_inurba_marseille","lat":43.23184,"lon":5.39997,"is_reserved":false,"is_disabled":false,"rental_uris":{"android":"levelo://app?vid=d7a91929-e8d0-4e05-a434-6316c1c28bf3","ios":"levelo://app?vid=d7a91929-e8d0-4e05-a434-6316c1c28bf3"},"vehicle_type_id":"4","last_reported":1748596258,"current_range_meters":16800,"station_id":"ce4bhn12rcd13ifvqgqg","pricing_plan_id":"cebpf4jnsgd1na2vs0mg"},{"bike_id":"65cbc169-797e-4e8e-8be8-c90cfcafc3ac","system_id":"levelo_inurba_marseille","lat":43.28159,"lon":5.426439,"is_reserved":false,"is_disabled":false,"rental_uris":{"android":"levelo://app?vid=65cbc169-797e-4e8e-8be8-c90cfcafc3ac","ios":"levelo://app?vid=65cbc169-797e-4e8e-8be8-c90cfcafc3ac"},"vehicle_type_id":"4","last_reported":1748596258,"current_range_meters":16800,"station_id":"ce4bhnh2rcd13ifvqgug","pricing_plan_id":"cebpf4jnsgd1na2vs0mg"},{"bike_id":"4289d9d3-597a-40d4-abeb-090b88130b31","system_id":"levelo_inurba_marseille","lat":43.28152,"lon":5.42644,"is_reserved":false,"is_disabled":false,"rental_uris":{"android":"levelo://app?vid=4289d9d3-597a-40d4-abeb-090b88130b31","ios":"levelo://app?vid=4289d9d3-597a-40d4-abeb-090b88130b31"},"vehicle_type_id":"4","last_reported":1748596258,"current_range_meters":16800,"station_id":"ce4bhnh2rcd13ifvqgug","pricing_plan_id":"cebpf4jnsgd1na2vs0mg"},{"bike_id":"9afff74f-25c0-4cce-8476-3dd3e572dd8c","system_id":"levelo_inurba_marseille","lat":43.24073,"lon":5.37736,"is_reserved":false,"is_disabled":false,"rental_uris":{"android":"levelo://app?vid=9afff74f-25c0-4cce-8476-3dd3e572dd8c","ios":"levelo://app?vid=9afff74f-25c0-4cce-8476-3dd3e572dd8c"},"vehicle_type_id":"4","last_reported":1748596258,"current_range_meters":16800,"station_id":"ce4bhnp2rcd13ifvqgvg","pricing_plan_id":"cebpf4jnsgd1na2vs0mg"},{"bike_id":"53149a50-42d6-422b-81ff-d309079f9b29","system_id":"levelo_inurba_marseille","lat":43.25949,"lon":5.40898,"is_reserved":false,"is_disabled":false,"rental_uris":{"android":"levelo://app?vid=53149a50-42d6-422b-81ff-d309079f9b29","ios":"levelo://app?vid=53149a50-42d6-422b-81ff-d309079f9b29"},"vehicle_type_id":"4","last_reported":1748596258,"current_range_meters":16800,"station_id":"ce4bhm92rcd13ifvqglg","pricing_plan_id":"cebpf4jnsgd1na2vs0mg"},{"bike_id":"71930e17-fe3c-443f-b621-4d725e50390f","system_id":"levelo_inurba_marseille","lat":43.33726,"lon":5.39185,"is_reserved":false,"is_disabled":false,"rental_uris":{"android":"levelo://app?vid=71930e17-fe3c-443f-b621-4d725e50390f","ios":"levelo://app?vid=71930e17-fe3c-443f-b621-4d725e50390f"},"vehicle_type_id":"4","last_reported":1748596258,"current_range_meters":16800,"station_id":"ce4bhr92rcd13ifvqhsg","pricing_plan_id":"cebpf4jnsgd1na2vs0mg"},{"bike_id":"f47d5d15-b929-42e8-aa00-5bc8a2dc15e4","system_id":"levelo_inurba_marseille","lat":43.22502,"lon":5.34785,"is_reserved":false,"is_disabled":false,"rental_uris":{"android":"levelo://app?vid=f47d5d15-b929-42e8-aa00-5bc8a2dc15e4","ios":"levelo://app?vid=f47d5d15-b929-42e8-aa00-5bc8a2dc15e4"},"vehicle_type_id":"4","last_reported":1748596258,"current_range_meters":16800,"station_id":"","pricing_plan_id":"cebpf4jnsgd1na2vs0mg"},{"bike_id":"eabdda0a-0863-422e-a202-efdbab1b7f18","system_id":"levelo_inurba_marseille","lat":43.29848,"lon":5.36285,"is_reserved":false,"is_disabled":false,"rental_uris":{"android":"levelo://app?vid=eabdda0a-0863-422e-a202-efdbab1b7f18","ios":"levelo://app?vid=eabdda0a-0863-422e-a202-efdbab1b7f18"},"vehicle_type_id":"4","last_reported":1748596258,"current_range_meters":16800,"station_id":"ce4bgpp2rcd13ifvqc3g","pricing_plan_id":"cebpf4jnsgd1na2vs0mg"},{"bike_id":"6f2f0ec1-945c-4513-b149-7f58a31531e0","system_id":"levelo_inurba_marseille","lat":43.25913,"lon":5.40859,"is_reserved":false,"is_disabled":false,"rental_uris":{"android":"levelo://app?vid=6f2f0ec1-945c-4513-b149-7f58a31531e0","ios":"levelo://app?vid=6f2f0ec1-945c-4513-b149-7f58a31531e0"},"vehicle_type_id":"4","last_reported":1748596258,"current_range_meters":17200,"station_id":"ce4bhm92rcd13ifvqglg","pricing_plan_id":"cebpf4jnsgd1na2vs0mg"},{"bike_id":"769bf774-ef8d-46a0-b7de-5f61cbc6536d","system_id":"levelo_inurba_marseille","lat":43.31333,"lon":5.39713,"is_reserved":false,"is_disabled":false,"rental_uris":{"android":"levelo://app?vid=769bf774-ef8d-46a0-b7de-5f61cbc6536d","ios":"levelo://app?vid=769bf774-ef8d-46a0-b7de-5f61cbc6536d"},"vehicle_type_id":"4","last_reported":1748596258,"current_range_meters":17200,"station_id":"ce4bgvp2rcd13ifvqcu0","pricing_plan_id":"cebpf4jnsgd1na2vs0mg"},{"bike_id":"04226d7a-6e69-4c2e-8695-3839e17c2528","system_id":"levelo_inurba_marseille","lat":43.26216,"lon":5.37456,"is_reserved":false,"is_disabled":false,"rental_uris":{"android":"levelo://app?vid=04226d7a-6e69-4c2e-8695-3839e17c2528","ios":"levelo://app?vid=04226d7a-6e69-4c2e-8695-3839e17c2528"},"vehicle_type_id":"4","last_reported":1748596258,"current_range_meters":17200,"station_id":"ce4bhgp2rcd13ifvqfc0","pricing_plan_id":"cebpf4jnsgd1na2vs0mg"},{"bike_id":"b08361b1-e7ec-4a5b-8edb-7c4c7ccf8a2b","system_id":"levelo_inurba_marseille","lat":43.3211,"lon":5.36763,"is_reserved":false,"is_disabled":false,"rental_uris":{"android":"levelo://app?vid=b08361b1-e7ec-4a5b-8edb-7c4c7ccf8a2b","ios":"levelo://app?vid=b08361b1-e7ec-4a5b-8edb-7c4c7ccf8a2b"},"vehicle_type_id":"4","last_reported":1748596258,"current_range_meters":17200,"station_id":"ce4bhrh2rcd13ifvqhug","pricing_plan_id":"cebpf4jnsgd1na2vs0mg"},{"bike_id":"ba46340d-8acd-4423-b0e9-5ffaab3cb97b","system_id":"levelo_inurba_marseille","lat":43.21192,"lon":5.3507,"is_reserved":false,"is_disabled":false,"rental_uris":{"android":"levelo://app?vid=ba46340d-8acd-4423-b0e9-5ffaab3cb97b","ios":"levelo://app?vid=ba46340d-8acd-4423-b0e9-5ffaab3cb97b"},"vehicle_type_id":"4","last_reported":1748596258,"current_range_meters":17200,"station_id":"st_cvj6sg6p6f1abm77japg","pricing_plan_id":"cebpf4jnsgd1na2vs0mg"},{"bike_id":"156fb893-b674-4dd3-a043-5c6dcf3e5180","system_id":"levelo_inurba_marseille","lat":43.27169,"lon":5.4099,"is_reserved":false,"is_disabled":false,"rental_uris":{"android":"levelo://app?vid=156fb893-b674-4dd3-a043-5c6dcf3e5180","ios":"levelo://app?vid=156fb893-b674-4dd3-a043-5c6dcf3e5180"},"vehicle_type_id":"4","last_reported":1748596258,"current_range_meters":16800,"station_id":"ce4bhl12rcd13ifvqgf0","pricing_plan_id":"cebpf4jnsgd1na2vs0mg"},{"bike_id":"a370c1cf-72a5-42a9-a232-813d0ad4b08a","system_id":"levelo_inurba_marseille","lat":43.30945,"lon":5.39025,"is_reserved":false,"is_disabled":false,"rental_uris":{"android":"levelo://app?vid=a370c1cf-72a5-42a9-a232-813d0ad4b08a","ios":"levelo://app?vid=a370c1cf-72a5-42a9-a232-813d0ad4b08a"},"vehicle_type_id":"4","last_reported":1748596258,"current_range_meters":17200,"station_id":"ce4bgup2rcd13ifvqco0","pricing_plan_id":"cebpf4jnsgd1na2vs0mg"},{"bike_id":"ee66b204-c910-4b7b-94f8-39028c0a289e","system_id":"levelo_inurba_marseille","lat":43.29731,"lon":5.37703,"is_reserved":false,"is_disabled":false,"rental_uris":{"android":"levelo://app?vid=ee66b204-c910-4b7b-94f8-39028c0a289e","ios":"levelo://app?vid=ee66b204-c910-4b7b-94f8-39028c0a289e"},"vehicle_type_id":"4","last_reported":1748596258,"current_range_meters":17600,"station_id":"ce4bgkh2rcd13ifvqbl0","pricing_plan_id":"cebpf4jnsgd1na2vs0mg"},{"bike_id":"7f82359d-86fb-4e1e-900b-4db77f7d35b2","system_id":"levelo_inurba_marseille","lat":43.2957,"lon":5.37515,"is_reserved":false,"is_disabled":false,"rental_uris":{"android":"levelo://app?vid=7f82359d-86fb-4e1e-900b-4db77f7d35b2","ios":"levelo://app?vid=7f82359d-86fb-4e1e-900b-4db77f7d35b2"},"vehicle_type_id":"4","last_reported":1748596258,"current_range_meters":17600,"station_id":"ce4bgh92rcd13ifvqb50","pricing_plan_id":"cebpf4jnsgd1na2vs0mg"},{"bike_id":"27c8c33c-c13c-4cba-a08e-e2577b7035fd","system_id":"levelo_inurba_marseille","lat":43.29735,"lon":5.37699,"is_reserved":false,"is_disabled":false,"rental_uris":{"android":"levelo://app?vid=27c8c33c-c13c-4cba-a08e-e2577b7035fd","ios":"levelo://app?vid=27c8c33c-c13c-4cba-a08e-e2577b7035fd"},"vehicle_type_id":"4","last_reported":1748596258,"current_range_meters":17600,"station_id":"ce4bgkh2rcd13ifvqbl0","pricing_plan_id":"cebpf4jnsgd1na2vs0mg"},{"bike_id":"15da55b1-1376-4e2d-8e65-24dbca6a4a8d","system_id":"levelo_inurba_marseille","lat":43.33743,"lon":5.37402,"is_reserved":false,"is_disabled":false,"rental_uris":{"android":"levelo://app?vid=15da55b1-1376-4e2d-8e65-24dbca6a4a8d","ios":"levelo://app?vid=15da55b1-1376-4e2d-8e65-24dbca6a4a8d"},"vehicle_type_id":"4","last_reported":1748596258,"current_range_meters":17600,"station_id":"","pricing_plan_id":"cebpf4jnsgd1na2vs0mg"},{"bike_id":"e95dd718-a813-4ea4-93ba-6ece27e48317","system_id":"levelo_inurba_marseille","lat":43.30412,"lon":5.39756,"is_reserved":false,"is_disabled":false,"rental_uris":{"android":"levelo://app?vid=e95dd718-a813-4ea4-93ba-6ece27e48317","ios":"levelo://app?vid=e95dd718-a813-4ea4-93ba-6ece27e48317"},"vehicle_type_id":"4","last_reported":1748596258,"current_range_meters":17600,"station_id":"ce4bh092rcd13ifvqd20","pricing_plan_id":"cebpf4jnsgd1na2vs0mg"},{"bike_id":"810b0761-d40c-45f4-a39c-da290b77b9dc","system_id":"levelo_inurba_marseille","lat":43.31725,"lon":5.40459,"is_reserved":false,"is_disabled":false,"rental_uris":{"android":"levelo://app?vid=810b0761-d40c-45f4-a39c-da290b77b9dc","ios":"levelo://app?vid=810b0761-d40c-45f4-a39c-da290b77b9dc"},"vehicle_type_id":"4","last_reported":1748596258,"current_range_meters":17600,"station_id":"ce4bh012rcd13ifvqd00","pricing_plan_id":"cebpf4jnsgd1na2vs0mg"},{"bike_id":"559bde76-31d4-4dfd-b96d-a77675b7aa3b","system_id":"levelo_inurba_marseille","lat":43.28706,"lon":5.39983,"is_reserved":false,"is_disabled":false,"rental_uris":{"android":"levelo://app?vid=559bde76-31d4-4dfd-b96d-a77675b7aa3b","ios":"levelo://app?vid=559bde76-31d4-4dfd-b96d-a77675b7aa3b"},"vehicle_type_id":"4","last_reported":1748596258,"current_range_meters":17600,"station_id":"ce4bho92rcd13ifvqh3g","pricing_plan_id":"cebpf4jnsgd1na2vs0mg"},{"bike_id":"b2e1edc0-4b20-414d-a9ef-1e7fcf64e8d2","system_id":"levelo_inurba_marseille","lat":43.33764,"lon":5.37471,"is_reserved":false,"is_disabled":true,"rental_uris":{"android":"levelo://app?vid=b2e1edc0-4b20-414d-a9ef-1e7fcf64e8d2","ios":"levelo://app?vid=b2e1edc0-4b20-414d-a9ef-1e7fcf64e8d2"},"vehicle_type_id":"4","last_reported":1748596258,"current_range_meters":17600,"station_id":"","pricing_plan_id":"cebpf4jnsgd1na2vs0mg"},{"bike_id":"8f84a160-74be-4e22-9ec1-aeb73ba0a348","system_id":"levelo_inurba_marseille","lat":43.25827,"lon":5.39434,"is_reserved":false,"is_disabled":false,"rental_uris":{"android":"levelo://app?vid=8f84a160-74be-4e22-9ec1-aeb73ba0a348","ios":"levelo://app?vid=8f84a160-74be-4e22-9ec1-aeb73ba0a348"},"vehicle_type_id":"4","last_reported":1748596258,"current_range_meters":18000,"station_id":"ce4bhip2rcd13ifvqft0","pricing_plan_id":"cebpf4jnsgd1na2vs0mg"},{"bike_id":"2c70615c-ce91-4865-8107-e06aa76efcfd","system_id":"levelo_inurba_marseille","lat":43.3414,"lon":5.40908,"is_reserved":false,"is_disabled":false,"rental_uris":{"android":"levelo://app?vid=2c70615c-ce91-4865-8107-e06aa76efcfd","ios":"levelo://app?vid=2c70615c-ce91-4865-8107-e06aa76efcfd"},"vehicle_type_id":"4","last_reported":1748596258,"current_range_meters":18000,"station_id":"ce4bhqh2rcd13ifvqhlg","pricing_plan_id":"cebpf4jnsgd1na2vs0mg"},{"bike_id":"84217126-b2de-4b68-a386-4e7b854ba146","system_id":"levelo_inurba_marseille","lat":43.23154,"lon":5.43711,"is_reserved":false,"is_disabled":false,"rental_uris":{"android":"levelo://app?vid=84217126-b2de-4b68-a386-4e7b854ba146","ios":"levelo://app?vid=84217126-b2de-4b68-a386-4e7b854ba146"},"vehicle_type_id":"4","last_reported":1748596258,"current_range_meters":18000,"station_id":"ce4bhmp2rcd13ifvqgog","pricing_plan_id":"cebpf4jnsgd1na2vs0mg"},{"bike_id":"9dba3947-4a34-482c-b805-ddc0f699cb96","system_id":"levelo_inurba_marseille","lat":43.32989,"lon":5.38344,"is_reserved":false,"is_disabled":false,"rental_uris":{"android":"levelo://app?vid=9dba3947-4a34-482c-b805-ddc0f699cb96","ios":"levelo://app?vid=9dba3947-4a34-482c-b805-ddc0f699cb96"},"vehicle_type_id":"4","last_reported":1748596258,"current_range_meters":18000,"station_id":"","pricing_plan_id":"cebpf4jnsgd1na2vs0mg"},{"bike_id":"d0e308c4-d298-46c2-8beb-20ac2120183e","system_id":"levelo_inurba_marseille","lat":43.32481,"lon":5.36568,"is_reserved":false,"is_disabled":false,"rental_uris":{"android":"levelo://app?vid=d0e308c4-d298-46c2-8beb-20ac2120183e","ios":"levelo://app?vid=d0e308c4-d298-46c2-8beb-20ac2120183e"},"vehicle_type_id":"4","last_reported":1748596258,"current_range_meters":17600,"station_id":"ce4bhs12rcd13ifvqhvg","pricing_plan_id":"cebpf4jnsgd1na2vs0mg"},{"bike_id":"bb56f75d-b7f3-41c8-9a48-29c33ecb8eea","system_id":"levelo_inurba_marseille","lat":43.2796,"lon":5.41045,"is_reserved":false,"is_disabled":false,"rental_uris":{"android":"levelo://app?vid=bb56f75d-b7f3-41c8-9a48-29c33ecb8eea","ios":"levelo://app?vid=bb56f75d-b7f3-41c8-9a48-29c33ecb8eea"},"vehicle_type_id":"4","last_reported":1748596258,"current_range_meters":18000,"station_id":"ce4bhnp2rcd13ifvqh0g","pricing_plan_id":"cebpf4jnsgd1na2vs0mg"},{"bike_id":"f83ed8be-4c36-4d98-a7f8-af6c4fdc2574","system_id":"levelo_inurba_marseille","lat":43.28419,"lon":5.34975,"is_reserved":false,"is_disabled":false,"rental_uris":{"android":"levelo://app?vid=f83ed8be-4c36-4d98-a7f8-af6c4fdc2574","ios":"levelo://app?vid=f83ed8be-4c36-4d98-a7f8-af6c4fdc2574"},"vehicle_type_id":"4","last_reported":1748596258,"current_range_meters":18000,"station_id":"ce4bhbh2rcd13ifvqepg","pricing_plan_id":"cebpf4jnsgd1na2vs0mg"},{"bike_id":"4fd6362c-11c9-4e87-8c2b-017c150ef5ab","system_id":"levelo_inurba_marseille","lat":43.31201,"lon":5.40153,"is_reserved":false,"is_disabled":false,"rental_uris":{"android":"levelo://app?vid=4fd6362c-11c9-4e87-8c2b-017c150ef5ab","ios":"levelo://app?vid=4fd6362c-11c9-4e87-8c2b-017c150ef5ab"},"vehicle_type_id":"4","last_reported":1748596258,"current_range_meters":18000,"station_id":"","pricing_plan_id":"cebpf4jnsgd1na2vs0mg"},{"bike_id":"c80f14f4-c560-4773-ab76-95c237fba1e2","system_id":"levelo_inurba_marseille","lat":43.28414,"lon":5.34976,"is_reserved":false,"is_disabled":false,"rental_uris":{"android":"levelo://app?vid=c80f14f4-c560-4773-ab76-95c237fba1e2","ios":"levelo://app?vid=c80f14f4-c560-4773-ab76-95c237fba1e2"},"vehicle_type_id":"4","last_reported":1748596258,"current_range_meters":18000,"station_id":"ce4bhbh2rcd13ifvqepg","pricing_plan_id":"cebpf4jnsgd1na2vs0mg"},{"bike_id":"46b5578e-e1a7-47ab-8392-61a38c7e6860","system_id":"levelo_inurba_marseille","lat":43.29578,"lon":5.37513,"is_reserved":false,"is_disabled":false,"rental_uris":{"android":"levelo://app?vid=46b5578e-e1a7-47ab-8392-61a38c7e6860","ios":"levelo://app?vid=46b5578e-e1a7-47ab-8392-61a38c7e6860"},"vehicle_type_id":"4","last_reported":1748596258,"current_range_meters":18000,"station_id":"ce4bgh92rcd13ifvqb50","pricing_plan_id":"cebpf4jnsgd1na2vs0mg"},{"bike_id":"887b46ec-81aa-4285-a12b-9eb15ae25c0c","system_id":"levelo_inurba_marseille","lat":43.28713,"lon":5.3792,"is_reserved":false,"is_disabled":false,"rental_uris":{"android":"levelo://app?vid=887b46ec-81aa-4285-a12b-9eb15ae25c0c","ios":"levelo://app?vid=887b46ec-81aa-4285-a12b-9eb15ae25c0c"},"vehicle_type_id":"4","last_reported":1748596258,"current_range_meters":18800,"station_id":"ce4bh9p2rcd13ifvqec0","pricing_plan_id":"cebpf4jnsgd1na2vs0mg"},{"bike_id":"45bf351d-f7d2-4b3b-aebd-b8dd1b023d0f","system_id":"levelo_inurba_marseille","lat":43.30416,"lon":5.39745,"is_reserved":false,"is_disabled":false,"rental_uris":{"android":"levelo://app?vid=45bf351d-f7d2-4b3b-aebd-b8dd1b023d0f","ios":"levelo://app?vid=45bf351d-f7d2-4b3b-aebd-b8dd1b023d0f"},"vehicle_type_id":"4","last_reported":1748596258,"current_range_meters":18800,"station_id":"ce4bh092rcd13ifvqd20","pricing_plan_id":"cebpf4jnsgd1na2vs0mg"},{"bike_id":"24498e89-12ab-49a6-8279-e6a69f31d1fa","system_id":"levelo_inurba_marseille","lat":43.28156,"lon":5.42639,"is_reserved":false,"is_disabled":false,"rental_uris":{"android":"levelo://app?vid=24498e89-12ab-49a6-8279-e6a69f31d1fa","ios":"levelo://app?vid=24498e89-12ab-49a6-8279-e6a69f31d1fa"},"vehicle_type_id":"4","last_reported":1748596258,"current_range_meters":18800,"station_id":"ce4bhnh2rcd13ifvqgug","pricing_plan_id":"cebpf4jnsgd1na2vs0mg"},{"bike_id":"ded2a088-e4b4-4368-a494-e90fbbdb8186","system_id":"levelo_inurba_marseille","lat":43.26963,"lon":5.38637,"is_reserved":false,"is_disabled":false,"rental_uris":{"android":"levelo://app?vid=ded2a088-e4b4-4368-a494-e90fbbdb8186","ios":"levelo://app?vid=ded2a088-e4b4-4368-a494-e90fbbdb8186"},"vehicle_type_id":"4","last_reported":1748596258,"current_range_meters":18000,"station_id":"ce4bhh92rcd13ifvqfh0","pricing_plan_id":"cebpf4jnsgd1na2vs0mg"},{"bike_id":"c639c8b7-5b85-4086-9ccd-0594027cb63e","system_id":"levelo_inurba_marseille","lat":43.299819,"lon":5.371722,"is_reserved":false,"is_disabled":false,"rental_uris":{"android":"levelo://app?vid=c639c8b7-5b85-4086-9ccd-0594027cb63e","ios":"levelo://app?vid=c639c8b7-5b85-4086-9ccd-0594027cb63e"},"vehicle_type_id":"4","last_reported":1748596258,"current_range_meters":18800,"station_id":"ce4bgr92rcd13ifvqc7g","pricing_plan_id":"cebpf4jnsgd1na2vs0mg"},{"bike_id":"7094b63c-2a37-44c8-9e4f-305d4b484e51","system_id":"levelo_inurba_marseille","lat":43.2842,"lon":5.34977,"is_reserved":false,"is_disabled":false,"rental_uris":{"android":"levelo://app?vid=7094b63c-2a37-44c8-9e4f-305d4b484e51","ios":"levelo://app?vid=7094b63c-2a37-44c8-9e4f-305d4b484e51"},"vehicle_type_id":"4","last_reported":1748596258,"current_range_meters":18800,"station_id":"ce4bhbh2rcd13ifvqepg","pricing_plan_id":"cebpf4jnsgd1na2vs0mg"},{"bike_id":"aac52b41-0e87-4d6b-8828-a3a6fc208104","system_id":"levelo_inurba_marseille","lat":43.231487,"lon":5.437212,"is_reserved":false,"is_disabled":false,"rental_uris":{"android":"levelo://app?vid=aac52b41-0e87-4d6b-8828-a3a6fc208104","ios":"levelo://app?vid=aac52b41-0e87-4d6b-8828-a3a6fc208104"},"vehicle_type_id":"4","last_reported":1748596258,"current_range_meters":18800,"station_id":"ce4bhmp2rcd13ifvqgog","pricing_plan_id":"cebpf4jnsgd1na2vs0mg"},{"bike_id":"d829a4bf-b563-4af4-8631-228fad0248f3","system_id":"levelo_inurba_marseille","lat":43.22946,"lon":5.35381,"is_reserved":false,"is_disabled":false,"rental_uris":{"android":"levelo://app?vid=d829a4bf-b563-4af4-8631-228fad0248f3","ios":"levelo://app?vid=d829a4bf-b563-4af4-8631-228fad0248f3"},"vehicle_type_id":"4","last_reported":1748596258,"current_range_meters":18800,"station_id":"cpo3532slgdg3j2ikp40","pricing_plan_id":"cebpf4jnsgd1na2vs0mg"},{"bike_id":"57d1fd2f-0f6d-4033-85d5-5fe808277119","system_id":"levelo_inurba_marseille","lat":43.24675,"lon":5.38163,"is_reserved":false,"is_disabled":false,"rental_uris":{"android":"levelo://app?vid=57d1fd2f-0f6d-4033-85d5-5fe808277119","ios":"levelo://app?vid=57d1fd2f-0f6d-4033-85d5-5fe808277119"},"vehicle_type_id":"4","last_reported":1748596258,"current_range_meters":19200,"station_id":"ce4bhih2rcd13ifvqfr0","pricing_plan_id":"cebpf4jnsgd1na2vs0mg"},{"bike_id":"10e37bf9-7b2a-442d-960d-16a61243041f","system_id":"levelo_inurba_marseille","lat":43.314907,"lon":5.372936,"is_reserved":false,"is_disabled":false,"rental_uris":{"android":"levelo://app?vid=10e37bf9-7b2a-442d-960d-16a61243041f","ios":"levelo://app?vid=10e37bf9-7b2a-442d-960d-16a61243041f"},"vehicle_type_id":"4","last_reported":1748596258,"current_range_meters":19200,"station_id":"ce4bgt12rcd13ifvqcd0","pricing_plan_id":"cebpf4jnsgd1na2vs0mg"},{"bike_id":"9a545a4a-38f1-4d80-906b-d4be57e0e74d","system_id":"levelo_inurba_marseille","lat":43.22496,"lon":5.34773,"is_reserved":false,"is_disabled":false,"rental_uris":{"android":"levelo://app?vid=9a545a4a-38f1-4d80-906b-d4be57e0e74d","ios":"levelo://app?vid=9a545a4a-38f1-4d80-906b-d4be57e0e74d"},"vehicle_type_id":"4","last_reported":1748596258,"current_range_meters":19200,"station_id":"","pricing_plan_id":"cebpf4jnsgd1na2vs0mg"},{"bike_id":"af1f35a7-2ee6-4f7f-a40e-5f99019be5cf","system_id":"levelo_inurba_marseille","lat":43.31035,"lon":5.39494,"is_reserved":false,"is_disabled":false,"rental_uris":{"android":"levelo://app?vid=af1f35a7-2ee6-4f7f-a40e-5f99019be5cf","ios":"levelo://app?vid=af1f35a7-2ee6-4f7f-a40e-5f99019be5cf"},"vehicle_type_id":"4","last_reported":1748596258,"current_range_meters":19200,"station_id":"","pricing_plan_id":"cebpf4jnsgd1na2vs0mg"},{"bike_id":"caa1f6ab-3adf-4afa-887d-3bac2cf05d4a","system_id":"levelo_inurba_marseille","lat":43.21194,"lon":5.35069,"is_reserved":false,"is_disabled":false,"rental_uris":{"android":"levelo://app?vid=caa1f6ab-3adf-4afa-887d-3bac2cf05d4a","ios":"levelo://app?vid=caa1f6ab-3adf-4afa-887d-3bac2cf05d4a"},"vehicle_type_id":"4","last_reported":1748596258,"current_range_meters":19200,"station_id":"st_cvj6sg6p6f1abm77japg","pricing_plan_id":"cebpf4jnsgd1na2vs0mg"},{"bike_id":"6a9d9e92-94f4-4d7d-b66b-1ec30d3a8825","system_id":"levelo_inurba_marseille","lat":43.30601,"lon":5.37228,"is_reserved":false,"is_disabled":false,"rental_uris":{"android":"levelo://app?vid=6a9d9e92-94f4-4d7d-b66b-1ec30d3a8825","ios":"levelo://app?vid=6a9d9e92-94f4-4d7d-b66b-1ec30d3a8825"},"vehicle_type_id":"4","last_reported":1748596258,"current_range_meters":19200,"station_id":"ce4bgqh2rcd13ifvqc4g","pricing_plan_id":"cebpf4jnsgd1na2vs0mg"},{"bike_id":"5afa376a-791d-4186-b9e4-a93803c91a77","system_id":"levelo_inurba_marseille","lat":43.29021,"lon":5.38125,"is_reserved":false,"is_disabled":true,"rental_uris":{"android":"levelo://app?vid=5afa376a-791d-4186-b9e4-a93803c91a77","ios":"levelo://app?vid=5afa376a-791d-4186-b9e4-a93803c91a77"},"vehicle_type_id":"4","last_reported":1748596258,"current_range_meters":19600,"station_id":"ce4bh4p2rcd13ifvqe1g","pricing_plan_id":"cebpf4jnsgd1na2vs0mg"},{"bike_id":"7189dc74-b789-4257-abea-ceb016bd3a6c","system_id":"levelo_inurba_marseille","lat":43.28412,"lon":5.34994,"is_reserved":false,"is_disabled":false,"rental_uris":{"android":"levelo://app?vid=7189dc74-b789-4257-abea-ceb016bd3a6c","ios":"levelo://app?vid=7189dc74-b789-4257-abea-ceb016bd3a6c"},"vehicle_type_id":"4","last_reported":1748596258,"current_range_meters":19600,"station_id":"ce4bhbh2rcd13ifvqepg","pricing_plan_id":"cebpf4jnsgd1na2vs0mg"},{"bike_id":"c28439ba-51b8-4edc-9906-bfe0d3ce3538","system_id":"levelo_inurba_marseille","lat":43.26784,"lon":5.3946,"is_reserved":false,"is_disabled":false,"rental_uris":{"android":"levelo://app?vid=c28439ba-51b8-4edc-9906-bfe0d3ce3538","ios":"levelo://app?vid=c28439ba-51b8-4edc-9906-bfe0d3ce3538"},"vehicle_type_id":"4","last_reported":1748596258,"current_range_meters":19600,"station_id":"","pricing_plan_id":"cebpf4jnsgd1na2vs0mg"},{"bike_id":"5c5c0cb0-2177-461a-a69c-98d11d70a4c0","system_id":"levelo_inurba_marseille","lat":43.23187,"lon":5.4002,"is_reserved":false,"is_disabled":false,"rental_uris":{"android":"levelo://app?vid=5c5c0cb0-2177-461a-a69c-98d11d70a4c0","ios":"levelo://app?vid=5c5c0cb0-2177-461a-a69c-98d11d70a4c0"},"vehicle_type_id":"4","last_reported":1748596258,"current_range_meters":19600,"station_id":"ce4bhn12rcd13ifvqgqg","pricing_plan_id":"cebpf4jnsgd1na2vs0mg"},{"bike_id":"af8a06b6-baf7-440c-bf02-67c9810bf727","system_id":"levelo_inurba_marseille","lat":43.24175,"lon":5.3974,"is_reserved":false,"is_disabled":false,"rental_uris":{"android":"levelo://app?vid=af8a06b6-baf7-440c-bf02-67c9810bf727","ios":"levelo://app?vid=af8a06b6-baf7-440c-bf02-67c9810bf727"},"vehicle_type_id":"4","last_reported":1748596258,"current_range_meters":19600,"station_id":"ce4bhn12rcd13ifvqgpg","pricing_plan_id":"cebpf4jnsgd1na2vs0mg"},{"bike_id":"b59bc555-de6f-44db-87da-bf946a802bfb","system_id":"levelo_inurba_marseille","lat":43.259374,"lon":5.40903,"is_reserved":false,"is_disabled":false,"rental_uris":{"android":"levelo://app?vid=b59bc555-de6f-44db-87da-bf946a802bfb","ios":"levelo://app?vid=b59bc555-de6f-44db-87da-bf946a802bfb"},"vehicle_type_id":"4","last_reported":1748596258,"current_range_meters":19600,"station_id":"ce4bhm92rcd13ifvqglg","pricing_plan_id":"cebpf4jnsgd1na2vs0mg"},{"bike_id":"cd90d42a-2f68-4c3d-9809-4e09ed0737a5","system_id":"levelo_inurba_marseille","lat":43.27921,"lon":5.39576,"is_reserved":false,"is_disabled":false,"rental_uris":{"android":"levelo://app?vid=cd90d42a-2f68-4c3d-9809-4e09ed0737a5","ios":"levelo://app?vid=cd90d42a-2f68-4c3d-9809-4e09ed0737a5"},"vehicle_type_id":"4","last_reported":1748596258,"current_range_meters":19600,"station_id":"ce4bhf92rcd13ifvqf40","pricing_plan_id":"cebpf4jnsgd1na2vs0mg"},{"bike_id":"3597c329-ae8c-40ad-9e06-5f737601d5b6","system_id":"levelo_inurba_marseille","lat":43.21752,"lon":5.34607,"is_reserved":false,"is_disabled":false,"rental_uris":{"android":"levelo://app?vid=3597c329-ae8c-40ad-9e06-5f737601d5b6","ios":"levelo://app?vid=3597c329-ae8c-40ad-9e06-5f737601d5b6"},"vehicle_type_id":"4","last_reported":1748596258,"current_range_meters":19600,"station_id":"st_cvj6r9ubvosntc0bgbag","pricing_plan_id":"cebpf4jnsgd1na2vs0mg"},{"bike_id":"89774831-c7b2-4806-bb64-618ddeb1737b","system_id":"levelo_inurba_marseille","lat":43.26635,"lon":5.40245,"is_reserved":false,"is_disabled":true,"rental_uris":{"android":"levelo://app?vid=89774831-c7b2-4806-bb64-618ddeb1737b","ios":"levelo://app?vid=89774831-c7b2-4806-bb64-618ddeb1737b"},"vehicle_type_id":"4","last_reported":1748596258,"current_range_meters":19600,"station_id":"","pricing_plan_id":"cebpf4jnsgd1na2vs0mg"},{"bike_id":"9fbcb00c-a2bf-42f3-b45e-52650ae4c60f","system_id":"levelo_inurba_marseille","lat":43.2811,"lon":5.37834,"is_reserved":false,"is_disabled":false,"rental_uris":{"android":"levelo://app?vid=9fbcb00c-a2bf-42f3-b45e-52650ae4c60f","ios":"levelo://app?vid=9fbcb00c-a2bf-42f3-b45e-52650ae4c60f"},"vehicle_type_id":"4","last_reported":1748596258,"current_range_meters":19600,"station_id":"ce4bha12rcd13ifvqee0","pricing_plan_id":"cebpf4jnsgd1na2vs0mg"},{"bike_id":"1bbb6b72-24c0-4465-bd05-bedfe0b8e24f","system_id":"levelo_inurba_marseille","lat":43.24176,"lon":5.39728,"is_reserved":false,"is_disabled":false,"rental_uris":{"android":"levelo://app?vid=1bbb6b72-24c0-4465-bd05-bedfe0b8e24f","ios":"levelo://app?vid=1bbb6b72-24c0-4465-bd05-bedfe0b8e24f"},"vehicle_type_id":"4","last_reported":1748596258,"current_range_meters":20000,"station_id":"ce4bhn12rcd13ifvqgpg","pricing_plan_id":"cebpf4jnsgd1na2vs0mg"},{"bike_id":"d2de3c1f-bc5f-4671-9360-00f1f8ef6dd7","system_id":"levelo_inurba_marseille","lat":43.28572,"lon":5.39498,"is_reserved":false,"is_disabled":true,"rental_uris":{"android":"levelo://app?vid=d2de3c1f-bc5f-4671-9360-00f1f8ef6dd7","ios":"levelo://app?vid=d2de3c1f-bc5f-4671-9360-00f1f8ef6dd7"},"vehicle_type_id":"4","last_reported":1748596258,"current_range_meters":20000,"station_id":"ce4bh292rcd13ifvqdg0","pricing_plan_id":"cebpf4jnsgd1na2vs0mg"},{"bike_id":"ab44ec82-61d1-42c6-bb6d-f21b4da1503a","system_id":"levelo_inurba_marseille","lat":43.29559,"lon":5.3751,"is_reserved":false,"is_disabled":false,"rental_uris":{"android":"levelo://app?vid=ab44ec82-61d1-42c6-bb6d-f21b4da1503a","ios":"levelo://app?vid=ab44ec82-61d1-42c6-bb6d-f21b4da1503a"},"vehicle_type_id":"4","last_reported":1748596258,"current_range_meters":20000,"station_id":"ce4bgh92rcd13ifvqb50","pricing_plan_id":"cebpf4jnsgd1na2vs0mg"},{"bike_id":"ff14845c-ccf9-4ce1-922d-ace5538b8d3d","system_id":"levelo_inurba_marseille","lat":43.21184,"lon":5.35074,"is_reserved":false,"is_disabled":false,"rental_uris":{"android":"levelo://app?vid=ff14845c-ccf9-4ce1-922d-ace5538b8d3d","ios":"levelo://app?vid=ff14845c-ccf9-4ce1-922d-ace5538b8d3d"},"vehicle_type_id":"4","last_reported":1748596258,"current_range_meters":20000,"station_id":"st_cvj6sg6p6f1abm77japg","pricing_plan_id":"cebpf4jnsgd1na2vs0mg"},{"bike_id":"fc32a41a-9774-45cc-b542-01f0514b5411","system_id":"levelo_inurba_marseille","lat":43.28498,"lon":5.38562,"is_reserved":false,"is_disabled":false,"rental_uris":{"android":"levelo://app?vid=fc32a41a-9774-45cc-b542-01f0514b5411","ios":"levelo://app?vid=fc32a41a-9774-45cc-b542-01f0514b5411"},"vehicle_type_id":"4","last_reported":1748596258,"current_range_meters":20000,"station_id":"ce4bh8p2rcd13ifvqeb0","pricing_plan_id":"cebpf4jnsgd1na2vs0mg"},{"bike_id":"f988c09d-293b-4eef-ba4b-4566b035f58a","system_id":"levelo_inurba_marseille","lat":43.28264,"lon":5.35061,"is_reserved":false,"is_disabled":false,"rental_uris":{"android":"levelo://app?vid=f988c09d-293b-4eef-ba4b-4566b035f58a","ios":"levelo://app?vid=f988c09d-293b-4eef-ba4b-4566b035f58a"},"vehicle_type_id":"4","last_reported":1748596258,"current_range_meters":20000,"station_id":"ce4bhbp2rcd13ifvqerg","pricing_plan_id":"cebpf4jnsgd1na2vs0mg"},{"bike_id":"5f55bba0-a582-42c9-a933-1c07332d1143","system_id":"levelo_inurba_marseille","lat":43.31226,"lon":5.36874,"is_reserved":false,"is_disabled":false,"rental_uris":{"android":"levelo://app?vid=5f55bba0-a582-42c9-a933-1c07332d1143","ios":"levelo://app?vid=5f55bba0-a582-42c9-a933-1c07332d1143"},"vehicle_type_id":"4","last_reported":1748596258,"current_range_meters":20000,"station_id":"ce4bgl92rcd13ifvqbq0","pricing_plan_id":"cebpf4jnsgd1na2vs0mg"},{"bike_id":"4e8029f1-893e-4864-89e5-c679513252c7","system_id":"levelo_inurba_marseille","lat":43.28154,"lon":5.42643,"is_reserved":false,"is_disabled":false,"rental_uris":{"android":"levelo://app?vid=4e8029f1-893e-4864-89e5-c679513252c7","ios":"levelo://app?vid=4e8029f1-893e-4864-89e5-c679513252c7"},"vehicle_type_id":"4","last_reported":1748596258,"current_range_meters":20000,"station_id":"ce4bhnh2rcd13ifvqgug","pricing_plan_id":"cebpf4jnsgd1na2vs0mg"},{"bike_id":"0c4fc8b4-12bf-4730-9cc7-798de45043a9","system_id":"levelo_inurba_marseille","lat":43.28419,"lon":5.34993,"is_reserved":false,"is_disabled":false,"rental_uris":{"android":"levelo://app?vid=0c4fc8b4-12bf-4730-9cc7-798de45043a9","ios":"levelo://app?vid=0c4fc8b4-12bf-4730-9cc7-798de45043a9"},"vehicle_type_id":"4","last_reported":1748596258,"current_range_meters":20000,"station_id":"ce4bhbh2rcd13ifvqepg","pricing_plan_id":"cebpf4jnsgd1na2vs0mg"},{"bike_id":"3b2a56ef-777d-49da-bc6a-5a6b46180353","system_id":"levelo_inurba_marseille","lat":43.30953,"lon":5.39041,"is_reserved":false,"is_disabled":false,"rental_uris":{"android":"levelo://app?vid=3b2a56ef-777d-49da-bc6a-5a6b46180353","ios":"levelo://app?vid=3b2a56ef-777d-49da-bc6a-5a6b46180353"},"vehicle_type_id":"4","last_reported":1748596258,"current_range_meters":20000,"station_id":"ce4bgup2rcd13ifvqco0","pricing_plan_id":"cebpf4jnsgd1na2vs0mg"},{"bike_id":"ab53cae3-05b7-4c77-8b87-d9a3a5a359c4","system_id":"levelo_inurba_marseille","lat":43.31988,"lon":5.38154,"is_reserved":false,"is_disabled":false,"rental_uris":{"android":"levelo://app?vid=ab53cae3-05b7-4c77-8b87-d9a3a5a359c4","ios":"levelo://app?vid=ab53cae3-05b7-4c77-8b87-d9a3a5a359c4"},"vehicle_type_id":"4","last_reported":1748596258,"current_range_meters":20400,"station_id":"ce4bhr12rcd13ifvqhpg","pricing_plan_id":"cebpf4jnsgd1na2vs0mg"},{"bike_id":"eef3edab-c7bc-4626-8a57-2353989bd7cc","system_id":"levelo_inurba_marseille","lat":43.2408,"lon":5.37748,"is_reserved":false,"is_disabled":false,"rental_uris":{"android":"levelo://app?vid=eef3edab-c7bc-4626-8a57-2353989bd7cc","ios":"levelo://app?vid=eef3edab-c7bc-4626-8a57-2353989bd7cc"},"vehicle_type_id":"4","last_reported":1748596258,"current_range_meters":20400,"station_id":"ce4bhnp2rcd13ifvqgvg","pricing_plan_id":"cebpf4jnsgd1na2vs0mg"},{"bike_id":"3e1471a2-eb65-49d3-83aa-277debb7d416","system_id":"levelo_inurba_marseille","lat":43.241092,"lon":5.397252,"is_reserved":false,"is_disabled":false,"rental_uris":{"android":"levelo://app?vid=3e1471a2-eb65-49d3-83aa-277debb7d416","ios":"levelo://app?vid=3e1471a2-eb65-49d3-83aa-277debb7d416"},"vehicle_type_id":"4","last_reported":1748596258,"current_range_meters":20400,"station_id":"","pricing_plan_id":"cebpf4jnsgd1na2vs0mg"},{"bike_id":"9c5e06d9-ab46-41ba-a034-b67bbbbe8661","system_id":"levelo_inurba_marseille","lat":43.30135,"lon":5.3986,"is_reserved":false,"is_disabled":false,"rental_uris":{"android":"levelo://app?vid=9c5e06d9-ab46-41ba-a034-b67bbbbe8661","ios":"levelo://app?vid=9c5e06d9-ab46-41ba-a034-b67bbbbe8661"},"vehicle_type_id":"4","last_reported":1748596258,"current_range_meters":20400,"station_id":"ce4bh0h2rcd13ifvqd40","pricing_plan_id":"cebpf4jnsgd1na2vs0mg"},{"bike_id":"c7ca2853-8d8f-4dcd-85d3-f7d23b3ff111","system_id":"levelo_inurba_marseille","lat":43.281585,"lon":5.426328,"is_reserved":false,"is_disabled":false,"rental_uris":{"android":"levelo://app?vid=c7ca2853-8d8f-4dcd-85d3-f7d23b3ff111","ios":"levelo://app?vid=c7ca2853-8d8f-4dcd-85d3-f7d23b3ff111"},"vehicle_type_id":"4","last_reported":1748596258,"current_range_meters":20400,"station_id":"ce4bhnh2rcd13ifvqgug","pricing_plan_id":"cebpf4jnsgd1na2vs0mg"},{"bike_id":"85f122b9-70a4-48d6-b1a2-a2cb4d3cde75","system_id":"levelo_inurba_marseille","lat":43.25823,"lon":5.39437,"is_reserved":false,"is_disabled":false,"rental_uris":{"android":"levelo://app?vid=85f122b9-70a4-48d6-b1a2-a2cb4d3cde75","ios":"levelo://app?vid=85f122b9-70a4-48d6-b1a2-a2cb4d3cde75"},"vehicle_type_id":"4","last_reported":1748596258,"current_range_meters":20400,"station_id":"ce4bhip2rcd13ifvqft0","pricing_plan_id":"cebpf4jnsgd1na2vs0mg"},{"bike_id":"656ab8c8-ac60-4d6e-ab2a-7ce87092d98a","system_id":"levelo_inurba_marseille","lat":43.265647,"lon":5.403232,"is_reserved":false,"is_disabled":false,"rental_uris":{"android":"levelo://app?vid=656ab8c8-ac60-4d6e-ab2a-7ce87092d98a","ios":"levelo://app?vid=656ab8c8-ac60-4d6e-ab2a-7ce87092d98a"},"vehicle_type_id":"4","last_reported":1748596258,"current_range_meters":20400,"station_id":"","pricing_plan_id":"cebpf4jnsgd1na2vs0mg"},