{"last_updated":1748646612,"ttl":60,"version":"2.2","data":{"bikes":[{"bike_id":"55d42eeb-6b71-4987-a0f2-3d758b10d43e","system_id":"levelo_inurba_marseille","lat":43.33771,"lon":5.37424,"is_reserved":false,"is_disabled":true,"rental_uris":{"android":"levelo://app?vid=55d42eeb-6b71-4987-a0f2-3d758b10d43e","ios":"levelo://app?vid=55d42eeb-6b71-4987-a0f2-3d758b10d43e"},"vehicle_type_id":"4","last_reported":1748646612,"current_range_meters":0,"station_id":"","pricing_plan_id":"cebpf4jnsgd1na2vs0mg"},{"bike_id":"b7fe4621-b706-42f0-9085-4811142f84e8","system_id":"levelo_inurba_marseille","lat":43.337499,"lon":5.374469,"is_reserved":false,"is_disabled":true,"rental_uris":{"android":"levelo://app?vid=b7fe4621-b706-42f0-9085-4811142f84e8","ios":"levelo://app?vid=b7fe4621-b706-42f0-9085-4811142f84e8"},"vehicle_type_id":"4","last_reported":1748646612,"current_range_meters":0,"station_id":"","pricing_plan_id":"cebpf4jnsgd1na2vs0mg"},{"bike_id":"ad402f0f-3192-410c-afac-8cf064a40c6d","system_id":"levelo_inurba_marseille","lat":43.337444,"lon":5.374475,"is_reserved":false,"is_disabled":true,"rental_uris":{"android":"levelo://app?vid=ad402f0f-3192-410c-afac-8cf064a40c6d","ios":"levelo://app?vid=ad402f0f-3192-410c-afac-8cf064a40c6d"},"vehicle_type_id":"4","last_reported":1748646612,"current_range_meters":0,"station_id":"","pricing_plan_id":"cebpf4jnsgd1na2vs0mg"},{"bike_id":"d90baf97-e6b3-4c48-bcd2-63bc44243da4","system_id":"levelo_inurba_marseille","lat":43.21639,"lon":5.343,"is_reserved":false,"is_disabled":true,"rental_uris":{"android":"levelo://app?vid=d90baf97-e6b3-4c48-bcd2-63bc44243da4","ios":"levelo://app?vid=d90baf97-e6b3-4c48-bcd2-63bc44243da4"},"vehicle_type_id":"4","last_reported":1748646612,"current_range_meters":0,"station_id":"","pricing_plan_id":"cebpf4jnsgd1na2vs0mg"},{"bike_id":"e8d8ddad-17f0-4297-b743-7c17818146e6","system_id":"levelo_inurba_marseille","lat":43.28208,"lon":5.42985,"is_reserved":false,"is_disabled":true,"rental_uris":{"android":"levelo://app?vid=e8d8ddad-17f0-4297-b743-7c17818146e6","ios":"levelo://app?vid=e8d8ddad-17f0-4297-b743-7c17818146e6"},"vehicle_type_id":"4","last_reported":1748646612,"current_range_meters":0,"station_id":"","pricing_plan_id":"cebpf4jnsgd1na2vs0mg"},{"bike_id":"80dc1064-d63f-4a22-ad21-d8abd70986c0","system_id":"levelo_inurba_marseille","lat":43.33811,"lon":5.37503,"is_reserved":false,"is_disabled":true,"rental_uris":{"android":"levelo://app?vid=80dc1064-d63f-4a22-ad21-d8abd70986c0","ios":"levelo://app?vid=80dc1064-d63f-4a22-ad21-d8abd70986c0"},"vehicle_type_id":"4","last_reported":1748646612,"current_range_meters":0,"station_id":"","pricing_plan_id":"cebpf4jnsgd1na2vs0mg"},{"bike_id":"1ed503fa-cbb5-4045-9476-a59912598402","system_id":"levelo_inurba_marseille","lat":43.278497,"lon":5.3831,"is_reserved":false,"is_disabled":true,"rental_uris":{"android":"levelo://app?vid=1ed503fa-cbb5-4045-9476-a59912598402","ios":"levelo://app?vid=1ed503fa-cbb5-4045-9476-a59912598402"},"vehicle_type_id":"4","last_reported":1748646612,"current_range_meters":0,"station_id":"","pricing_plan_id":"cebpf4jnsgd1na2vs0mg"},{"bike_id":"0ac5c10f-2c36-450b-881c-1a1e56e25578","system_id":"levelo_inurba_marseille","lat":43.28478,"lon":5.38435,"is_reserved":false,"is_disabled":true,"rental_uris":{"android":"levelo://app?vid=0ac5c10f-2c36-450b-881c-1a1e56e25578","ios":"levelo://app?vid=0ac5c10f-2c36-450b-881c-1a1e56e25578"},"vehicle_type_id":"4","last_reported":1748646612,"current_range_meters":0,"station_id":"ce4bh512rcd13ifvqe3g","pricing_plan_id":"cebpf4jnsgd1na2vs0mg"},{"bike_id":"f88179a2-82a0-4218-88fa-fcc09e9eddec","system_id":"levelo_inurba_marseille","lat":43.24385,"lon":5.37057,"is_reserved":false,"is_disabled":true,"rental_uris":{"android":"levelo://app?vid=f88179a2-82a0-4218-88fa-fcc09e9eddec","ios":"levelo://app?vid=f88179a2-82a0-4218-88fa-fcc09e9eddec"},"vehicle_type_id":"4","last_reported":1748646612,"current_range_meters":0,"station_id":"ce4bhhh2rcd13ifvqfk0","pricing_plan_id":"cebpf4jnsgd1na2vs0mg"},{"bike_id":"d2a42cee-b1fa-4d98-a106-6eee5d203ed8","system_id":"levelo_inurba_marseille","lat":43.276167,"lon":5.389495,"is_reserved":false,"is_disabled":true,"rental_uris":{"android":"levelo://app?vid=d2a42cee-b1fa-4d98-a106-6eee5d203ed8","ios":"levelo://app?vid=d2a42cee-b1fa-4d98-a106-6eee5d203ed8"},"vehicle_type_id":"4","last_reported":1748646612,"current_range_meters":0,"station_id":"ce4bhi12rcd13ifvqfo0","pricing_plan_id":"cebpf4jnsgd1na2vs0mg"},{"bike_id":"4ad802b5-d744-4574-8ae7-bdd652224d1a","system_id":"levelo_inurba_marseille","lat":43.2648,"lon":5.39539,"is_reserved":false,"is_disabled":true,"rental_uris":{"android":"levelo://app?vid=4ad802b5-d744-4574-8ae7-bdd652224d1a","ios":"levelo://app?vid=4ad802b5-d744-4574-8ae7-bdd652224d1a"},"vehicle_type_id":"4","last_reported":1748646612,"current_range_meters":0,"station_id":"ce4bhi12rcd13ifvqfq0","pricing_plan_id":"cebpf4jnsgd1na2vs0mg"},{"bike_id":"375e352f-3a37-4188-80b0-4b46705d99e8","system_id":"levelo_inurba_marseille","lat":43.241844,"lon":5.397103,"is_reserved":false,"is_disabled":true,"rental_uris":{"android":"levelo://app?vid=375e352f-3a37-4188-80b0-4b46705d99e8","ios":"levelo://app?vid=375e352f-3a37-4188-80b0-4b46705d99e8"},"vehicle_type_id":"4","last_reported":1748646612,"current_range_meters":0,"station_id":"ce4bhn12rcd13ifvqgpg","pricing_plan_id":"cebpf4jnsgd1na2vs0mg"},{"bike_id":"f86143b6-17dc-4ac0-be1a-d4a9a41255ac","system_id":"levelo_inurba_marseille","lat":43.23175,"lon":5.3999,"is_reserved":false,"is_disabled":true,"rental_uris":{"android":"levelo://app?vid=f86143b6-17dc-4ac0-be1a-d4a9a41255ac","ios":"levelo://app?vid=f86143b6-17dc-4ac0-be1a-d4a9a41255ac"},"vehicle_type_id":"4","last_reported":1748646612,"current_range_meters":0,"station_id":"ce4bhn12rcd13ifvqgqg","pricing_plan_id":"cebpf4jnsgd1na2vs0mg"},{"bike_id":"bab9b8de-9af3-4736-9107-3b1ec5552f03","system_id":"levelo_inurba_marseille","lat":43.32106,"lon":5.36764,"is_reserved":false,"is_disabled":true,"rental_uris":{"android":"levelo://app?vid=bab9b8de-9af3-4736-9107-3b1ec5552f03","ios":"levelo://app?vid=bab9b8de-9af3-4736-9107-3b1ec5552f03"},"vehicle_type_id":"4","last_reported":1748646612,"current_range_meters":0,"station_id":"ce4bhrh2rcd13ifvqhug","pricing_plan_id":"cebpf4jnsgd1na2vs0mg"},{"bike_id":"773c1455-d022-4f8e-8c6e-cf957b22d221","system_id":"levelo_inurba_marseille","lat":43.21754,"lon":5.34616,"is_reserved":false,"is_disabled":true,"rental_uris":{"android":"levelo://app?vid=773c1455-d022-4f8e-8c6e-cf957b22d221","ios":"levelo://app?vid=773c1455-d022-4f8e-8c6e-cf957b22d221"},"vehicle_type_id":"4","last_reported":1748646612,"current_range_meters":0,"station_id":"st_cvj6r9ubvosntc0bgbag","pricing_plan_id":"cebpf4jnsgd1na2vs0mg"},{"bike_id":"ab9c9983-bf72-44ed-ad75-a96b382dad3c","system_id":"levelo_inurba_marseille","lat":43.217432,"lon":5.346041,"is_reserved":false,"is_disabled":true,"rental_uris":{"android":"levelo://app?vid=ab9c9983-bf72-44ed-ad75-a96b382dad3c","ios":"levelo://app?vid=ab9c9983-bf72-44ed-ad75-a96b382dad3c"},"vehicle_type_id":"4","last_reported":1748646612,"current_range_meters":0,"station_id":"st_cvj6r9ubvosntc0bgbag","pricing_plan_id":"cebpf4jnsgd1na2vs0mg"},{"bike_id":"edcb0dfe-bdaa-4cf7-84cb-f40080951379","system_id":"levelo_inurba_marseille","lat":43.217396,"lon":5.346001,"is_reserved":false,"is_disabled":true,"rental_uris":{"android":"levelo://app?vid=edcb0dfe-bdaa-4cf7-84cb-f40080951379","ios":"levelo://app?vid=edcb0dfe-bdaa-4cf7-84cb-f40080951379"},"vehicle_type_id":"4","last_reported":1748646612,"current_range_meters":0,"station_id":"st_cvj6r9ubvosntc0bgbag","pricing_plan_id":"cebpf4jnsgd1na2vs0mg"},{"bike_id":"c8db4e53-1959-4129-b007-36bf92cfe0f1","system_id":"levelo_inurba_marseille","lat":43.31783,"lon":5.38939,"is_reserved":false,"is_disabled":true,"rental_uris":{"android":"levelo://app?vid=c8db4e53-1959-4129-b007-36bf92cfe0f1","ios":"levelo://app?vid=c8db4e53-1959-4129-b007-36bf92cfe0f1"},"vehicle_type_id":"4","last_reported":1748646612,"current_range_meters":400,"station_id":"","pricing_plan_id":"cebpf4jnsgd1na2vs0mg"},{"bike_id":"26f476e9-d470-42ac-ad4a-621ca4099c4a","system_id":"levelo_inurba_marseille","lat":43.251069,"lon":5.403227,"is_reserved":false,"is_disabled":true,"rental_uris":{"android":"levelo://app?vid=26f476e9-d470-42ac-ad4a-621ca4099c4a","ios":"levelo://app?vid=26f476e9-d470-42ac-ad4a-621ca4099c4a"},"vehicle_type_id":"4","last_reported":1748646612,"current_range_meters":400,"station_id":"","pricing_plan_id":"cebpf4jnsgd1na2vs0mg"},{"bike_id":"c636cacd-5461-43ea-a280-c61a0c6400e3","system_id":"levelo_inurba_marseille","lat":43.29523,"lon":5.39045,"is_reserved":false,"is_disabled":true,"rental_uris":{"android":"levelo://app?vid=c636cacd-5461-43ea-a280-c61a0c6400e3","ios":"levelo://app?vid=c636cacd-5461-43ea-a280-c61a0c6400e3"},"vehicle_type_id":"4","last_reported":1748646612,"current_range_meters":400,"station_id":"ce4bh3p2rcd13ifvqdp0","pricing_plan_id":"cebpf4jnsgd1na2vs0mg"},{"bike_id":"723f202a-db6b-4ad0-9a2d-ee50531910b6","system_id":"levelo_inurba_marseille","lat":43.24069,"lon":5.37728,"is_reserved":false,"is_disabled":true,"rental_uris":{"android":"levelo://app?vid=723f202a-db6b-4ad0-9a2d-ee50531910b6","ios":"levelo://app?vid=723f202a-db6b-4ad0-9a2d-ee50531910b6"},"vehicle_type_id":"4","last_reported":1748646612,"current_range_meters":400,"station_id":"ce4bhnp2rcd13ifvqgvg","pricing_plan_id":"cebpf4jnsgd1na2vs0mg"},{"bike_id":"858ff9e9-14e1-4756-bd6b-85b07d080cfe","system_id":"levelo_inurba_marseille","lat":43.22922,"lon":5.35398,"is_reserved":false,"is_disabled":true,"rental_uris":{"android":"levelo://app?vid=858ff9e9-14e1-4756-bd6b-85b07d080cfe","ios":"levelo://app?vid=858ff9e9-14e1-4756-bd6b-85b07d080cfe"},"vehicle_type_id":"4","last_reported":1748646612,"current_range_meters":400,"station_id":"cpo3532slgdg3j2ikp40","pricing_plan_id":"cebpf4jnsgd1na2vs0mg"},{"bike_id":"db111e29-c7bc-419e-9b00-20231fbec330","system_id":"levelo_inurba_marseille","lat":43.21763,"lon":5.3462,"is_reserved":false,"is_disabled":true,"rental_uris":{"android":"levelo://app?vid=db111e29-c7bc-419e-9b00-20231fbec330","ios":"levelo://app?vid=db111e29-c7bc-419e-9b00-20231fbec330"},"vehicle_type_id":"4","last_reported":1748646612,"current_range_meters":400,"station_id":"st_cvj6r9ubvosntc0bgbag","pricing_plan_id":"cebpf4jnsgd1na2vs0mg"},{"bike_id":"b53d502e-ee66-4e7e-8e69-d218735d619c","system_id":"levelo_inurba_marseille","lat":43.25486,"lon":5.37666,"is_reserved":false,"is_disabled":true,"rental_uris":{"android":"levelo://app?vid=b53d502e-ee66-4e7e-8e69-d218735d619c","ios":"levelo://app?vid=b53d502e-ee66-4e7e-8e69-d218735d619c"},"vehicle_type_id":"4","last_reported":1748646612,"current_range_meters":800,"station_id":"ce4bhh12rcd13ifvqff0","pricing_plan_id":"cebpf4jnsgd1na2vs0mg"},{"bike_id":"6aaa0ec5-2abb-4024-a3ea-92e4d8143bf9","system_id":"levelo_inurba_marseille","lat":43.243855,"lon":5.370595,"is_reserved":false,"is_disabled":true,"rental_uris":{"android":"levelo://app?vid=6aaa0ec5-2abb-4024-a3ea-92e4d8143bf9","ios":"levelo://app?vid=6aaa0ec5-2abb-4024-a3ea-92e4d8143bf9"},"vehicle_type_id":"4","last_reported":1748646612,"current_range_meters":800,"station_id":"ce4bhhh2rcd13ifvqfk0","pricing_plan_id":"cebpf4jnsgd1na2vs0mg"},{"bike_id":"e3f4a748-d432-4598-9895-6507bad78d39","system_id":"levelo_inurba_marseille","lat":43.33595,"lon":5.43306,"is_reserved":false,"is_disabled":true,"rental_uris":{"android":"levelo://app?vid=e3f4a748-d432-4598-9895-6507bad78d39","ios":"levelo://app?vid=e3f4a748-d432-4598-9895-6507bad78d39"},"vehicle_type_id":"4","last_reported":1748646612,"current_range_meters":1200,"station_id":"","pricing_plan_id":"cebpf4jnsgd1na2vs0mg"},{"bike_id":"660518f4-1847-4b36-8410-9858e20e272f","system_id":"levelo_inurba_marseille","lat":43.267623,"lon":5.389327,"is_reserved":false,"is_disabled":true,"rental_uris":{"android":"levelo://app?vid=660518f4-1847-4b36-8410-9858e20e272f","ios":"levelo://app?vid=660518f4-1847-4b36-8410-9858e20e272f"},"vehicle_type_id":"4","last_reported":1748646612,"current_range_meters":1200,"station_id":"","pricing_plan_id":"cebpf4jnsgd1na2vs0mg"},{"bike_id":"36cce70c-a5ec-4870-8ef9-cd0791f32205","system_id":"levelo_inurba_marseille","lat":43.29604,"lon":5.37734,"is_reserved":false,"is_disabled":true,"rental_uris":{"android":"levelo://app?vid=36cce70c-a5ec-4870-8ef9-cd0791f32205","ios":"levelo://app?vid=36cce70c-a5ec-4870-8ef9-cd0791f32205"},"vehicle_type_id":"4","last_reported":1748646612,"current_range_meters":2000,"station_id":"","pricing_plan_id":"cebpf4jnsgd1na2vs0mg"},{"bike_id":"21ce52b5-5c12-47b7-8dbd-069c05bd78a2","system_id":"levelo_inurba_marseille","lat":43.29604,"lon":5.381,"is_reserved":false,"is_disabled":true,"rental_uris":{"android":"levelo://app?vid=21ce52b5-5c12-47b7-8dbd-069c05bd78a2","ios":"levelo://app?vid=21ce52b5-5c12-47b7-8dbd-069c05bd78a2"},"vehicle_type_id":"4","last_reported":1748646612,"current_range_meters":2000,"station_id":"ce4bgl12rcd13ifvqbo0","pricing_plan_id":"cebpf4jnsgd1na2vs0mg"},{"bike_id":"4a409268-ab2e-4de4-8d7b-4dc99d1f3c6d","system_id":"levelo_inurba_marseille","lat":43.30887,"lon":5.39613,"is_reserved":false,"is_disabled":true,"rental_uris":{"android":"levelo://app?vid=4a409268-ab2e-4de4-8d7b-4dc99d1f3c6d","ios":"levelo://app?vid=4a409268-ab2e-4de4-8d7b-4dc99d1f3c6d"},"vehicle_type_id":"4","last_reported":1748646612,"current_range_meters":2000,"station_id":"ce4bh012rcd13ifvqcv0","pricing_plan_id":"cebpf4jnsgd1na2vs0mg"},{"bike_id":"33781eb5-a418-4f5b-8170-73978c9eede6","system_id":"levelo_inurba_marseille","lat":43.292542,"lon":5.409034,"is_reserved":false,"is_disabled":true,"rental_uris":{"android":"levelo://app?vid=33781eb5-a418-4f5b-8170-73978c9eede6","ios":"levelo://app?vid=33781eb5-a418-4f5b-8170-73978c9eede6"},"vehicle_type_id":"4","last_reported":1748646612,"current_range_meters":2000,"station_id":"ce4bh192rcd13ifvqdc0","pricing_plan_id":"cebpf4jnsgd1na2vs0mg"},{"bike_id":"a41c7db1-3006-4840-b709-f005f931d267","system_id":"levelo_inurba_marseille","lat":43.29701,"lon":5.36617,"is_reserved":false,"is_disabled":false,"rental_uris":{"android":"levelo://app?vid=a41c7db1-3006-4840-b709-f005f931d267","ios":"levelo://app?vid=a41c7db1-3006-4840-b709-f005f931d267"},"vehicle_type_id":"4","last_reported":1748646612,"current_range_meters":2800,"station_id":"ce4bgn12rcd13ifvqbt0","pricing_plan_id":"cebpf4jnsgd1na2vs0mg"},{"bike_id":"bb21dbe0-b12f-4edc-a49e-f3401f3f3d23","system_id":"levelo_inurba_marseille","lat":43.317367,"lon":5.387713,"is_reserved":false,"is_disabled":false,"rental_uris":{"android":"levelo://app?vid=bb21dbe0-b12f-4edc-a49e-f3401f3f3d23","ios":"levelo://app?vid=bb21dbe0-b12f-4edc-a49e-f3401f3f3d23"},"vehicle_type_id":"4","last_reported":1748646612,"current_range_meters":3200,"station_id":"","pricing_plan_id":"cebpf4jnsgd1na2vs0mg"},{"bike_id":"120bfe28-237d-4914-8468-444c42382b49","system_id":"levelo_inurba_marseille","lat":43.284211,"lon":5.37509,"is_reserved":false,"is_disabled":false,"rental_uris":{"android":"levelo://app?vid=120bfe28-237d-4914-8468-444c42382b49","ios":"levelo://app?vid=120bfe28-237d-4914-8468-444c42382b49"},"vehicle_type_id":"4","last_reported":1748646612,"current_range_meters":3200,"station_id":"ce4bh412rcd13ifvqds0","pricing_plan_id":"cebpf4jnsgd1na2vs0mg"},{"bike_id":"ba663929-45bc-4df4-9397-57df639c0b40","system_id":"levelo_inurba_marseille","lat":43.27971,"lon":5.38763,"is_reserved":false,"is_disabled":false,"rental_uris":{"android":"levelo://app?vid=ba663929-45bc-4df4-9397-57df639c0b40","ios":"levelo://app?vid=ba663929-45bc-4df4-9397-57df639c0b40"},"vehicle_type_id":"4","last_reported":1748646612,"current_range_meters":3200,"station_id":"ce4bhg12rcd13ifvqf80","pricing_plan_id":"cebpf4jnsgd1na2vs0mg"},{"bike_id":"90d86370-8f7d-4ecf-adcf-c91a4a543a9b","system_id":"levelo_inurba_marseille","lat":43.23963,"lon":5.36633,"is_reserved":false,"is_disabled":false,"rental_uris":{"android":"levelo://app?vid=90d86370-8f7d-4ecf-adcf-c91a4a543a9b","ios":"levelo://app?vid=90d86370-8f7d-4ecf-adcf-c91a4a543a9b"},"vehicle_type_id":"4","last_reported":1748646612,"current_range_meters":3200,"station_id":"ce4bhi12rcd13ifvqfp0","pricing_plan_id":"cebpf4jnsgd1na2vs0mg"},{"bike_id":"697d924a-ea53-411b-88e3-ed7542c4178d","system_id":"levelo_inurba_marseille","lat":43.33754,"lon":5.37507,"is_reserved":false,"is_disabled":false,"rental_uris":{"android":"levelo://app?vid=697d924a-ea53-411b-88e3-ed7542c4178d","ios":"levelo://app?vid=697d924a-ea53-411b-88e3-ed7542c4178d"},"vehicle_type_id":"4","last_reported":1748646612,"current_range_meters":3600,"station_id":"","pricing_plan_id":"cebpf4jnsgd1na2vs0mg"},{"bike_id":"13e1bdb8-10c1-431e-b25d-97209144813a","system_id":"levelo_inurba_marseille","lat":43.29442,"lon":5.39743,"is_reserved":false,"is_disabled":false,"rental_uris":{"android":"levelo://app?vid=13e1bdb8-10c1-431e-b25d-97209144813a","ios":"levelo://app?vid=13e1bdb8-10c1-431e-b25d-97209144813a"},"vehicle_type_id":"4","last_reported":1748646612,"current_range_meters":4400,"station_id":"ce4bh3h2rcd13ifvqdo0","pricing_plan_id":"cebpf4jnsgd1na2vs0mg"},{"bike_id":"4dc07d80-e63c-43e9-9b6b-30ab182521fd","system_id":"levelo_inurba_marseille","lat":43.27309,"lon":5.39078,"is_reserved":false,"is_disabled":false,"rental_uris":{"android":"levelo://app?vid=4dc07d80-e63c-43e9-9b6b-30ab182521fd","ios":"levelo://app?vid=4dc07d80-e63c-43e9-9b6b-30ab182521fd"},"vehicle_type_id":"4","last_reported":1748646612,"current_range_meters":4400,"station_id":"ce4bhgp2rcd13ifvqfe0","pricing_plan_id":"cebpf4jnsgd1na2vs0mg"},{"bike_id":"299bc464-0062-40b9-b8fd-94e53cb49a69","system_id":"levelo_inurba_marseille","lat":43.29641,"lon":5.36229,"is_reserved":false,"is_disabled":false,"rental_uris":{"android":"levelo://app?vid=299bc464-0062-40b9-b8fd-94e53cb49a69","ios":"levelo://app?vid=299bc464-0062-40b9-b8fd-94e53cb49a69"},"vehicle_type_id":"4","last_reported":1748646612,"current_range_meters":4800,"station_id":"","pricing_plan_id":"cebpf4jnsgd1na2vs0mg"},{"bike_id":"dec0a9ef-b594-4648-ab79-486f399ec901","system_id":"levelo_inurba_marseille","lat":43.296,"lon":5.380956,"is_reserved":false,"is_disabled":false,"rental_uris":{"android":"levelo://app?vid=dec0a9ef-b594-4648-ab79-486f399ec901","ios":"levelo://app?vid=dec0a9ef-b594-4648-ab79-486f399ec901"},"vehicle_type_id":"4","last_reported":1748646612,"current_range_meters":4800,"station_id":"ce4bgl12rcd13ifvqbo0","pricing_plan_id":"cebpf4jnsgd1na2vs0mg"},{"bike_id":"8f05191b-979e-40e9-bf01-c5cd21653b68","system_id":"levelo_inurba_marseille","lat":43.26216,"lon":5.40475,"is_reserved":false,"is_disabled":false,"rental_uris":{"android":"levelo://app?vid=8f05191b-979e-40e9-bf01-c5cd21653b68","ios":"levelo://app?vid=8f05191b-979e-40e9-bf01-c5cd21653b68"},"vehicle_type_id":"4","last_reported":1748646612,"current_range_meters":4800,"station_id":"ce4bhmh2rcd13ifvqgmg","pricing_plan_id":"cebpf4jnsgd1na2vs0mg"},{"bike_id":"bfd3b341-01f6-4fef-bebe-7c1cb9bc6efa","system_id":"levelo_inurba_marseille","lat":43.27943,"lon":5.41029,"is_reserved":false,"is_disabled":false,"rental_uris":{"android":"levelo://app?vid=bfd3b341-01f6-4fef-bebe-7c1cb9bc6efa","ios":"levelo://app?vid=bfd3b341-01f6-4fef-bebe-7c1cb9bc6efa"},"vehicle_type_id":"4","last_reported":1748646612,"current_range_meters":4800,"station_id":"ce4bhnp2rcd13ifvqh0g","pricing_plan_id":"cebpf4jnsgd1na2vs0mg"},{"bike_id":"adec08ad-7cab-4b8d-984d-1616c13b6452","system_id":"levelo_inurba_marseille","lat":43.26939,"lon":5.40247,"is_reserved":false,"is_disabled":false,"rental_uris":{"android":"levelo://app?vid=adec08ad-7cab-4b8d-984d-1616c13b6452","ios":"levelo://app?vid=adec08ad-7cab-4b8d-984d-1616c13b6452"},"vehicle_type_id":"4","last_reported":1748646612,"current_range_meters":4800,"station_id":"cjm6bp8fraef2m0cb0m0","pricing_plan_id":"cebpf4jnsgd1na2vs0mg"},{"bike_id":"54641a7d-e837-477a-93c8-1f56bbd4e84f","system_id":"levelo_inurba_marseille","lat":43.29872,"lon":5.3973,"is_reserved":false,"is_disabled":false,"rental_uris":{"android":"levelo://app?vid=54641a7d-e837-477a-93c8-1f56bbd4e84f","ios":"levelo://app?vid=54641a7d-e837-477a-93c8-1f56bbd4e84f"},"vehicle_type_id":"4","last_reported":1748646612,"current_range_meters":5600,"station_id":"ce4bh0h2rcd13ifvqd50","pricing_plan_id":"cebpf4jnsgd1na2vs0mg"},{"bike_id":"ad393117-4263-4eff-9e0c-b3e4944d7867","system_id":"levelo_inurba_marseille","lat":43.28418,"lon":5.37508,"is_reserved":false,"is_disabled":false,"rental_uris":{"android":"levelo://app?vid=ad393117-4263-4eff-9e0c-b3e4944d7867","ios":"levelo://app?vid=ad393117-4263-4eff-9e0c-b3e4944d7867"},"vehicle_type_id":"4","last_reported":1748646612,"current_range_meters":5600,"station_id":"ce4bh412rcd13ifvqds0","pricing_plan_id":"cebpf4jnsgd1na2vs0mg"},{"bike_id":"36240f0a-66a2-43ec-8330-1f3a9d08cc7e","system_id":"levelo_inurba_marseille","lat":43.239042,"lon":5.362565,"is_reserved":false,"is_disabled":false,"rental_uris":{"android":"levelo://app?vid=36240f0a-66a2-43ec-8330-1f3a9d08cc7e","ios":"levelo://app?vid=36240f0a-66a2-43ec-8330-1f3a9d08cc7e"},"vehicle_type_id":"4","last_reported":1748646612,"current_range_meters":6000,"station_id":"","pricing_plan_id":"cebpf4jnsgd1na2vs0mg"},{"bike_id":"a24ed859-7ffe-447b-a280-957c836eb856","system_id":"levelo_inurba_marseille","lat":43.31346,"lon":5.37634,"is_reserved":false,"is_disabled":false,"rental_uris":{"android":"levelo://app?vid=a24ed859-7ffe-447b-a280-957c836eb856","ios":"levelo://app?vid=a24ed859-7ffe-447b-a280-957c836eb856"},"vehicle_type_id":"4","last_reported":1748646612,"current_range_meters":6000,"station_id":"","pricing_plan_id":"cebpf4jnsgd1na2vs0mg"},{"bike_id":"fda1f934-a914-489c-90eb-730bf471d22f","system_id":"levelo_inurba_marseille","lat":43.29523,"lon":5.39405,"is_reserved":false,"is_disabled":false,"rental_uris":{"android":"levelo://app?vid=fda1f934-a914-489c-90eb-730bf471d22f","ios":"levelo://app?vid=fda1f934-a914-489c-90eb-730bf471d22f"},"vehicle_type_id":"4","last_reported":1748646612,"current_range_meters":6000,"station_id":"ce4bh292rcd13ifvqdf0","pricing_plan_id":"cebpf4jnsgd1na2vs0mg"},{"bike_id":"b9d2b2ba-8d78-40c4-8208-96a2920c63a7","system_id":"levelo_inurba_marseille","lat":43.27837,"lon":5.392029,"is_reserved":false,"is_disabled":false,"rental_uris":{"android":"levelo://app?vid=b9d2b2ba-8d78-40c4-8208-96a2920c63a7","ios":"levelo://app?vid=b9d2b2ba-8d78-40c4-8208-96a2920c63a7"},"vehicle_type_id":"4","last_reported":1748646612,"current_range_meters":6000,"station_id":"ce4bhjp2rcd13ifvqga0","pricing_plan_id":"cebpf4jnsgd1na2vs0mg"},{"bike_id":"741bde16-c1c0-420b-83ea-5f83d349a2cf","system_id":"levelo_inurba_marseille","lat":43.23114,"lon":5.43721,"is_reserved":false,"is_disabled":false,"rental_uris":{"android":"levelo://app?vid=741bde16-c1c0-420b-83ea-5f83d349a2cf","ios":"levelo://app?vid=741bde16-c1c0-420b-83ea-5f83d349a2cf"},"vehicle_type_id":"4","last_reported":1748646612,"current_range_meters":6000,"station_id":"ce4bhmp2rcd13ifvqgog","pricing_plan_id":"cebpf4jnsgd1na2vs0mg"},{"bike_id":"f09f7f29-502c-4202-bd44-2ccabec61a78","system_id":"levelo_inurba_marseille","lat":43.30587,"lon":5.39355,"is_reserved":false,"is_disabled":false,"rental_uris":{"android":"levelo://app?vid=f09f7f29-502c-4202-bd44-2ccabec61a78","ios":"levelo://app?vid=f09f7f29-502c-4202-bd44-2ccabec61a78"},"vehicle_type_id":"4","last_reported":1748646612,"current_range_meters":6400,"station_id":"ce4bh0p2rcd13ifvqd80","pricing_plan_id":"cebpf4jnsgd1na2vs0mg"},{"bike_id":"00f77637-c960-45d0-b516-a2f6a0285858","system_id":"levelo_inurba_marseille","lat":43.29725,"lon":5.38547,"is_reserved":false,"is_disabled":false,"rental_uris":{"android":"levelo://app?vid=00f77637-c960-45d0-b516-a2f6a0285858","ios":"levelo://app?vid=00f77637-c960-45d0-b516-a2f6a0285858"},"vehicle_type_id":"4","last_reported":1748646612,"current_range_meters":6800,"station_id":"","pricing_plan_id":"cebpf4jnsgd1na2vs0mg"},{"bike_id":"7fa0e9c2-571e-4491-9879-e641683c80c0","system_id":"levelo_inurba_marseille","lat":43.30209,"lon":5.39471,"is_reserved":false,"is_disabled":false,"rental_uris":{"android":"levelo://app?vid=7fa0e9c2-571e-4491-9879-e641683c80c0","ios":"levelo://app?vid=7fa0e9c2-571e-4491-9879-e641683c80c0"},"vehicle_type_id":"4","last_reported":1748646612,"current_range_meters":6800,"station_id":"ce4bh0p2rcd13ifvqd70","pricing_plan_id":"cebpf4jnsgd1na2vs0mg"},{"bike_id":"5e6bcb07-66df-4ace-8e59-9db839396e6d","system_id":"levelo_inurba_marseille","lat":43.28318,"lon":5.38102,"is_reserved":false,"is_disabled":false,"rental_uris":{"android":"levelo://app?vid=5e6bcb07-66df-4ace-8e59-9db839396e6d","ios":"levelo://app?vid=5e6bcb07-66df-4ace-8e59-9db839396e6d"},"vehicle_type_id":"4","last_reported":1748646612,"current_range_meters":6800,"station_id":"ce4bh412rcd13ifvqdr0","pricing_plan_id":"cebpf4jnsgd1na2vs0mg"},{"bike_id":"a426f99b-d34a-41bf-bbda-59f7dfd6939b","system_id":"levelo_inurba_marseille","lat":43.255796,"lon":5.382262,"is_reserved":false,"is_disabled":false,"rental_uris":{"android":"levelo://app?vid=a426f99b-d34a-41bf-bbda-59f7dfd6939b","ios":"levelo://app?vid=a426f99b-d34a-41bf-bbda-59f7dfd6939b"},"vehicle_type_id":"4","last_reported":1748646612,"current_range_meters":6800,"station_id":"ce501612rcd8frsf0b60","pricing_plan_id":"cebpf4jnsgd1na2vs0mg"},{"bike_id":"da5921cd-e75b-4ce7-b109-06c28f720590","system_id":"levelo_inurba_marseille","lat":43.28747,"lon":5.36175,"is_reserved":false,"is_disabled":false,"rental_uris":{"android":"levelo://app?vid=da5921cd-e75b-4ce7-b109-06c28f720590","ios":"levelo://app?vid=da5921cd-e75b-4ce7-b109-06c28f720590"},"vehicle_type_id":"4","last_reported":1748646612,"current_range_meters":7200,"station_id":"","pricing_plan_id":"cebpf4jnsgd1na2vs0mg"},{"bike_id":"9d24b982-a0c1-4118-8f85-70cd88e3bff7","system_id":"levelo_inurba_marseille","lat":43.30786,"lon":5.37643,"is_reserved":false,"is_disabled":false,"rental_uris":{"android":"levelo://app?vid=9d24b982-a0c1-4118-8f85-70cd88e3bff7","ios":"levelo://app?vid=9d24b982-a0c1-4118-8f85-70cd88e3bff7"},"vehicle_type_id":"4","last_reported":1748646612,"current_range_meters":7200,"station_id":"ce4bgv92rcd13ifvqcq0","pricing_plan_id":"cebpf4jnsgd1na2vs0mg"},{"bike_id":"c361e603-1ecb-4610-ad2f-3e9e0c199f5c","system_id":"levelo_inurba_marseille","lat":43.29629,"lon":5.40598,"is_reserved":false,"is_disabled":false,"rental_uris":{"android":"levelo://app?vid=c361e603-1ecb-4610-ad2f-3e9e0c199f5c","ios":"levelo://app?vid=c361e603-1ecb-4610-ad2f-3e9e0c199f5c"},"vehicle_type_id":"4","last_reported":1748646612,"current_range_meters":7200,"station_id":"ce4bh0h2rcd13ifvqd60","pricing_plan_id":"cebpf4jnsgd1na2vs0mg"},{"bike_id":"27c27f7c-cc94-4ae6-bd9c-006c9c12e356","system_id":"levelo_inurba_marseille","lat":43.28665,"lon":5.36349,"is_reserved":false,"is_disabled":false,"rental_uris":{"android":"levelo://app?vid=27c27f7c-cc94-4ae6-bd9c-006c9c12e356","ios":"levelo://app?vid=27c27f7c-cc94-4ae6-bd9c-006c9c12e356"},"vehicle_type_id":"4","last_reported":1748646612,"current_range_meters":7200,"station_id":"ce4bhah2rcd13ifvqej0","pricing_plan_id":"cebpf4jnsgd1na2vs0mg"},{"bike_id":"407e5a45-16ab-470f-bd11-310fec85bedc","system_id":"levelo_inurba_marseille","lat":43.26547,"lon":5.37285,"is_reserved":false,"is_disabled":false,"rental_uris":{"android":"levelo://app?vid=407e5a45-16ab-470f-bd11-310fec85bedc","ios":"levelo://app?vid=407e5a45-16ab-470f-bd11-310fec85bedc"},"vehicle_type_id":"4","last_reported":1748646612,"current_range_meters":7200,"station_id":"ce4bhg12rcd13ifvqf70","pricing_plan_id":"cebpf4jnsgd1na2vs0mg"},{"bike_id":"97c383a9-35fd-4379-9f90-721945a5c5e9","system_id":"levelo_inurba_marseille","lat":43.23059,"lon":5.354917,"is_reserved":false,"is_disabled":false,"rental_uris":{"android":"levelo://app?vid=97c383a9-35fd-4379-9f90-721945a5c5e9","ios":"levelo://app?vid=97c383a9-35fd-4379-9f90-721945a5c5e9"},"vehicle_type_id":"4","last_reported":1748646612,"current_range_meters":7200,"station_id":"cpo3342slgdg3j2ifvpg","pricing_plan_id":"cebpf4jnsgd1na2vs0mg"},{"bike_id":"4e072d55-941c-40ec-8614-c3a0528abcd9","system_id":"levelo_inurba_marseille","lat":43.30881,"lon":5.39635,"is_reserved":false,"is_disabled":false,"rental_uris":{"android":"levelo://app?vid=4e072d55-941c-40ec-8614-c3a0528abcd9","ios":"levelo://app?vid=4e072d55-941c-40ec-8614-c3a0528abcd9"},"vehicle_type_id":"4","last_reported":1748646612,"current_range_meters":8000,"station_id":"","pricing_plan_id":"cebpf4jnsgd1na2vs0mg"},{"bike_id":"a31656a4-5217-4c2d-91ea-e636b7cf9b1f","system_id":"levelo_inurba_marseille","lat":43.28532,"lon":5.38414,"is_reserved":false,"is_disabled":false,"rental_uris":{"android":"levelo://app?vid=a31656a4-5217-4c2d-91ea-e636b7cf9b1f","ios":"levelo://app?vid=a31656a4-5217-4c2d-91ea-e636b7cf9b1f"},"vehicle_type_id":"4","last_reported":1748646612,"current_range_meters":8000,"station_id":"","pricing_plan_id":"cebpf4jnsgd1na2vs0mg"},{"bike_id":"78b8e269-356a-417b-88aa-5f72590dd8bb","system_id":"levelo_inurba_marseille","lat":43.295374,"lon":5.385349,"is_reserved":false,"is_disabled":false,"rental_uris":{"android":"levelo://app?vid=78b8e269-356a-417b-88aa-5f72590dd8bb","ios":"levelo://app?vid=78b8e269-356a-417b-88aa-5f72590dd8bb"},"vehicle_type_id":"4","last_reported":1748646612,"current_range_meters":8000,"station_id":"ce4bgih2rcd13ifvqba0","pricing_plan_id":"cebpf4jnsgd1na2vs0mg"},{"bike_id":"b2180ee4-aae6-4351-850e-916d6a62455d","system_id":"levelo_inurba_marseille","lat":43.2465,"lon":5.38163,"is_reserved":false,"is_disabled":false,"rental_uris":{"android":"levelo://app?vid=b2180ee4-aae6-4351-850e-916d6a62455d","ios":"levelo://app?vid=b2180ee4-aae6-4351-850e-916d6a62455d"},"vehicle_type_id":"4","last_reported":1748646612,"current_range_meters":8000,"station_id":"ce4bhih2rcd13ifvqfr0","pricing_plan_id":"cebpf4jnsgd1na2vs0mg"},{"bike_id":"7c860deb-793c-4244-99b9-7efc0e48da09","system_id":"levelo_inurba_marseille","lat":43.23145,"lon":5.43712,"is_reserved":false,"is_disabled":false,"rental_uris":{"android":"levelo://app?vid=7c860deb-793c-4244-99b9-7efc0e48da09","ios":"levelo://app?vid=7c860deb-793c-4244-99b9-7efc0e48da09"},"vehicle_type_id":"4","last_reported":1748646612,"current_range_meters":8000,"station_id":"ce4bhmp2rcd13ifvqgog","pricing_plan_id":"cebpf4jnsgd1na2vs0mg"},{"bike_id":"55cb35ea-46ae-4d0e-9e17-49b11249cd0b","system_id":"levelo_inurba_marseille","lat":43.3148,"lon":5.37308,"is_reserved":false,"is_disabled":false,"rental_uris":{"android":"levelo://app?vid=55cb35ea-46ae-4d0e-9e17-49b11249cd0b","ios":"levelo://app?vid=55cb35ea-46ae-4d0e-9e17-49b11249cd0b"},"vehicle_type_id":"4","last_reported":1748646612,"current_range_meters":8400,"station_id":"ce4bgt12rcd13ifvqcd0","pricing_plan_id":"cebpf4jnsgd1na2vs0mg"},{"bike_id":"18c1bc8d-773b-414a-b410-344762faee23","system_id":"levelo_inurba_marseille","lat":43.27171,"lon":5.40991,"is_reserved":false,"is_disabled":false,"rental_uris":{"android":"levelo://app?vid=18c1bc8d-773b-414a-b410-344762faee23","ios":"levelo://app?vid=18c1bc8d-773b-414a-b410-344762faee23"},"vehicle_type_id":"4","last_reported":1748646612,"current_range_meters":8400,"station_id":"ce4bhl12rcd13ifvqgf0","pricing_plan_id":"cebpf4jnsgd1na2vs0mg"},{"bike_id":"eaaf0541-3ffb-4d6e-99f4-24af1024e1c0","system_id":"levelo_inurba_marseille","lat":43.298797,"lon":5.397309,"is_reserved":false,"is_disabled":false,"rental_uris":{"android":"levelo://app?vid=eaaf0541-3ffb-4d6e-99f4-24af1024e1c0","ios":"levelo://app?vid=eaaf0541-3ffb-4d6e-99f4-24af1024e1c0"},"vehicle_type_id":"4","last_reported":1748646612,"current_range_meters":8800,"station_id":"","pricing_plan_id":"cebpf4jnsgd1na2vs0mg"},{"bike_id":"91194276-c829-42e5-a6ed-8393753c90e5","system_id":"levelo_inurba_marseille","lat":43.24314,"lon":5.37058,"is_reserved":false,"is_disabled":false,"rental_uris":{"android":"levelo://app?vid=91194276-c829-42e5-a6ed-8393753c90e5","ios":"levelo://app?vid=91194276-c829-42e5-a6ed-8393753c90e5"},"vehicle_type_id":"4","last_reported":1748646612,"current_range_meters":8800,"station_id":"","pricing_plan_id":"cebpf4jnsgd1na2vs0mg"},{"bike_id":"b953c4ab-62d9-49e1-b582-366b8568892e","system_id":"levelo_inurba_marseille","lat":43.29254,"lon":5.409,"is_reserved":false,"is_disabled":false,"rental_uris":{"android":"levelo://app?vid=b953c4ab-62d9-49e1-b582-366b8568892e","ios":"levelo://app?vid=b953c4ab-62d9-49e1-b582-366b8568892e"},"vehicle_type_id":"4","last_reported":1748646612,"current_range_meters":8800,"station_id":"ce4bh192rcd13ifvqdc0","pricing_plan_id":"cebpf4jnsgd1na2vs0mg"},{"bike_id":"fe0e0aab-c84d-4e36-a4c6-6bf7f57a8f05","system_id":"levelo_inurba_marseille","lat":43.26546,"lon":5.37287,"is_reserved":false,"is_disabled":false,"rental_uris":{"android":"levelo://app?vid=fe0e0aab-c84d-4e36-a4c6-6bf7f57a8f05","ios":"levelo://app?vid=fe0e0aab-c84d-4e36-a4c6-6bf7f57a8f05"},"vehicle_type_id":"4","last_reported":1748646612,"current_range_meters":8800,"station_id":"ce4bhg12rcd13ifvqf70","pricing_plan_id":"cebpf4jnsgd1na2vs0mg"},{"bike_id":"0280afc4-d6c7-45d5-9976-1c2b5d2fedd2","system_id":"levelo_inurba_marseille","lat":43.2512,"lon":5.40302,"is_reserved":false,"is_disabled":false,"rental_uris":{"android":"levelo://app?vid=0280afc4-d6c7-45d5-9976-1c2b5d2fedd2","ios":"levelo://app?vid=0280afc4-d6c7-45d5-9976-1c2b5d2fedd2"},"vehicle_type_id":"4","last_reported":1748646612,"current_range_meters":8800,"station_id":"ce4bhlh2rcd13ifvqgig","pricing_plan_id":"cebpf4jnsgd1na2vs0mg"},{"bike_id":"e80c2554-a5fd-4f6a-80de-c3bb2b4cc78a","system_id":"levelo_inurba_marseille","lat":43.25112,"lon":5.40315,"is_reserved":false,"is_disabled":false,"rental_uris":{"android":"levelo://app?vid=e80c2554-a5fd-4f6a-80de-c3bb2b4cc78a","ios":"levelo://app?vid=e80c2554-a5fd-4f6a-80de-c3bb2b4cc78a"},"vehicle_type_id":"4","last_reported":1748646612,"current_range_meters":8800,"station_id":"ce4bhlh2rcd13ifvqgig","pricing_plan_id":"cebpf4jnsgd1na2vs0mg"},{"bike_id":"cc0c456a-d2d1-4754-b0ea-55c47b577b63","system_id":"levelo_inurba_marseille","lat":43.29409,"lon":5.38623,"is_reserved":false,"is_disabled":false,"rental_uris":{"android":"levelo://app?vid=cc0c456a-d2d1-4754-b0ea-55c47b577b63","ios":"levelo://app?vid=cc0c456a-d2d1-4754-b0ea-55c47b577b63"},"vehicle_type_id":"4","last_reported":1748646612,"current_range_meters":9200,"station_id":"ce4bh2h2rcd13ifvqdh0","pricing_plan_id":"cebpf4jnsgd1na2vs0mg"},{"bike_id":"f1f8f183-908d-44f6-9173-be821f10a692","system_id":"levelo_inurba_marseille","lat":43.26686,"lon":5.38276,"is_reserved":false,"is_disabled":false,"rental_uris":{"android":"levelo://app?vid=f1f8f183-908d-44f6-9173-be821f10a692","ios":"levelo://app?vid=f1f8f183-908d-44f6-9173-be821f10a692"},"vehicle_type_id":"4","last_reported":1748646612,"current_range_meters":9200,"station_id":"ce4bhg92rcd13ifvqf90","pricing_plan_id":"cebpf4jnsgd1na2vs0mg"},{"bike_id":"3d36103b-c043-47dc-a225-42e79dcf6cf6","system_id":"levelo_inurba_marseille","lat":43.322898,"lon":5.382755,"is_reserved":false,"is_disabled":false,"rental_uris":{"android":"levelo://app?vid=3d36103b-c043-47dc-a225-42e79dcf6cf6","ios":"levelo://app?vid=3d36103b-c043-47dc-a225-42e79dcf6cf6"},"vehicle_type_id":"4","last_reported":1748646612,"current_range_meters":9200,"station_id":"ce4bhr12rcd13ifvqhqg","pricing_plan_id":"cebpf4jnsgd1na2vs0mg"},{"bike_id":"21f272c7-4a40-4c0a-a2b4-5daef9fb0f49","system_id":"levelo_inurba_marseille","lat":43.26937,"lon":5.4025,"is_reserved":false,"is_disabled":false,"rental_uris":{"android":"levelo://app?vid=21f272c7-4a40-4c0a-a2b4-5daef9fb0f49","ios":"levelo://app?vid=21f272c7-4a40-4c0a-a2b4-5daef9fb0f49"},"vehicle_type_id":"4","last_reported":1748646612,"current_range_meters":9200,"station_id":"cjm6bp8fraef2m0cb0m0","pricing_plan_id":"cebpf4jnsgd1na2vs0mg"},{"bike_id":"9620a207-22d7-433e-bf43-b808069c5c75","system_id":"levelo_inurba_marseille","lat":43.3358,"lon":5.40984,"is_reserved":false,"is_disabled":false,"rental_uris":{"android":"levelo://app?vid=9620a207-22d7-433e-bf43-b808069c5c75","ios":"levelo://app?vid=9620a207-22d7-433e-bf43-b808069c5c75"},"vehicle_type_id":"4","last_reported":1748646612,"current_range_meters":9600,"station_id":"","pricing_plan_id":"cebpf4jnsgd1na2vs0mg"},{"bike_id":"8345fba8-f53d-4169-9265-3aeb7405da51","system_id":"levelo_inurba_marseille","lat":43.29794,"lon":5.379155,"is_reserved":false,"is_disabled":false,"rental_uris":{"android":"levelo://app?vid=8345fba8-f53d-4169-9265-3aeb7405da51","ios":"levelo://app?vid=8345fba8-f53d-4169-9265-3aeb7405da51"},"vehicle_type_id":"4","last_reported":1748646612,"current_range_meters":9600,"station_id":"","pricing_plan_id":"cebpf4jnsgd1na2vs0mg"},{"bike_id":"a807c8dd-75ce-4f49-b322-50ddd08ec8d0","system_id":"levelo_inurba_marseille","lat":43.347555,"lon":5.373293,"is_reserved":false,"is_disabled":false,"rental_uris":{"android":"levelo://app?vid=a807c8dd-75ce-4f49-b322-50ddd08ec8d0","ios":"levelo://app?vid=a807c8dd-75ce-4f49-b322-50ddd08ec8d0"},"vehicle_type_id":"4","last_reported":1748646612,"current_range_meters":9600,"station_id":"","pricing_plan_id":"cebpf4jnsgd1na2vs0mg"},{"bike_id":"614a51e4-6230-48d4-88ae-ed69d19f20f6","system_id":"levelo_inurba_marseille","lat":43.30302,"lon":5.36873,"is_reserved":false,"is_disabled":false,"rental_uris":{"android":"levelo://app?vid=614a51e4-6230-48d4-88ae-ed69d19f20f6","ios":"levelo://app?vid=614a51e4-6230-48d4-88ae-ed69d19f20f6"},"vehicle_type_id":"4","last_reported":1748646612,"current_range_meters":9600,"station_id":"ce4bgqh2rcd13ifvqc5g","pricing_plan_id":"cebpf4jnsgd1na2vs0mg"},{"bike_id":"b9986bcd-d935-43b4-9761-6db0c42f4dd8","system_id":"levelo_inurba_marseille","lat":43.31677,"lon":5.40446,"is_reserved":false,"is_disabled":false,"rental_uris":{"android":"levelo://app?vid=b9986bcd-d935-43b4-9761-6db0c42f4dd8","ios":"levelo://app?vid=b9986bcd-d935-43b4-9761-6db0c42f4dd8"},"vehicle_type_id":"4","last_reported":1748646612,"current_range_meters":9600,"station_id":"ce4bh012rcd13ifvqd00","pricing_plan_id":"cebpf4jnsgd1na2vs0mg"},{"bike_id":"3d08a7fc-a03e-498f-bee8-cb1eb204cb18","system_id":"levelo_inurba_marseille","lat":43.30592,"lon":5.39358,"is_reserved":false,"is_disabled":false,"rental_uris":{"android":"levelo://app?vid=3d08a7fc-a03e-498f-bee8-cb1eb204cb18","ios":"levelo://app?vid=3d08a7fc-a03e-498f-bee8-cb1eb204cb18"},"vehicle_type_id":"4","last_reported":1748646612,"current_range_meters":9600,"station_id":"ce4bh0p2rcd13ifvqd80","pricing_plan_id":"cebpf4jnsgd1na2vs0mg"},{"bike_id":"cc172627-7f64-4f7a-a045-8aa850e19438","system_id":"levelo_inurba_marseille","lat":43.28936,"lon":5.39624,"is_reserved":false,"is_disabled":false,"rental_uris":{"android":"levelo://app?vid=cc172627-7f64-4f7a-a045-8aa850e19438","ios":"levelo://app?vid=cc172627-7f64-4f7a-a045-8aa850e19438"},"vehicle_type_id":"4","last_reported":1748646612,"current_range_meters":9600,"station_id":"ce4bh3h2rcd13ifvqdn0","pricing_plan_id":"cebpf4jnsgd1na2vs0mg"},{"bike_id":"ade80f1c-1963-4723-aaac-612c2803ccad","system_id":"levelo_inurba_marseille","lat":43.27717,"lon":5.388923,"is_reserved":false,"is_disabled":false,"rental_uris":{"android":"levelo://app?vid=ade80f1c-1963-4723-aaac-612c2803ccad","ios":"levelo://app?vid=ade80f1c-1963-4723-aaac-612c2803ccad"},"vehicle_type_id":"4","last_reported":1748646612,"current_range_meters":9600,"station_id":"ce4bhi12rcd13ifvqfo0","pricing_plan_id":"cebpf4jnsgd1na2vs0mg"},{"bike_id":"cc35e2ff-74fd-4282-a237-50aeaa80589f","system_id":"levelo_inurba_marseille","lat":43.26193,"lon":5.3792,"is_reserved":false,"is_disabled":false,"rental_uris":{"android":"levelo://app?vid=cc35e2ff-74fd-4282-a237-50aeaa80589f","ios":"levelo://app?vid=cc35e2ff-74fd-4282-a237-50aeaa80589f"},"vehicle_type_id":"4","last_reported":1748646612,"current_range_meters":9600,"station_id":"ce4bhjp2rcd13ifvqg90","pricing_plan_id":"cebpf4jnsgd1na2vs0mg"},{"bike_id":"1b178ea1-044a-4bf5-83e5-c6b8ba930547","system_id":"levelo_inurba_marseille","lat":43.271738,"lon":5.40987,"is_reserved":false,"is_disabled":false,"rental_uris":{"android":"levelo://app?vid=1b178ea1-044a-4bf5-83e5-c6b8ba930547","ios":"levelo://app?vid=1b178ea1-044a-4bf5-83e5-c6b8ba930547"},"vehicle_type_id":"4","last_reported":1748646612,"current_range_meters":9600,"station_id":"ce4bhl12rcd13ifvqgf0","pricing_plan_id":"cebpf4jnsgd1na2vs0mg"},{"bike_id":"11d5a3c3-b5c3-45ee-9c59-63e06770cf8b","system_id":"levelo_inurba_marseille","lat":43.25122,"lon":5.40308,"is_reserved":false,"is_disabled":false,"rental_uris":{"android":"levelo://app?vid=11d5a3c3-b5c3-45ee-9c59-63e06770cf8b","ios":"levelo://app?vid=11d5a3c3-b5c3-45ee-9c59-63e06770cf8b"},"vehicle_type_id":"4","last_reported":1748646612,"current_range_meters":9600,"station_id":"ce4bhlh2rcd13ifvqgig","pricing_plan_id":"cebpf4jnsgd1na2vs0mg"},{"bike_id":"7243d7c8-02f5-4392-89cf-8c360e846d55","system_id":"levelo_inurba_marseille","lat":43.2528,"lon":5.37823,"is_reserved":false,"is_disabled":false,"rental_uris":{"android":"levelo://app?vid=7243d7c8-02f5-4392-89cf-8c360e846d55","ios":"levelo://app?vid=7243d7c8-02f5-4392-89cf-8c360e846d55"},"vehicle_type_id":"4","last_reported":1748646612,"current_range_meters":10000,"station_id":"","pricing_plan_id":"cebpf4jnsgd1na2vs0mg"},{"bike_id":"ef581f4c-67e6-4fec-a59f-aa7c8e6c7dec","system_id":"levelo_inurba_marseille","lat":43.295349,"lon":5.385414,"is_reserved":false,"is_disabled":false,"rental_uris":{"android":"levelo://app?vid=ef581f4c-67e6-4fec-a59f-aa7c8e6c7dec","ios":"levelo://app?vid=ef581f4c-67e6-4fec-a59f-aa7c8e6c7dec"},"vehicle_type_id":"4","last_reported":1748646612,"current_range_meters":10000,"station_id":"ce4bgih2rcd13ifvqba0","pricing_plan_id":"cebpf4jnsgd1na2vs0mg"},{"bike_id":"94838900-dc75-4667-a457-fb455b813d39","system_id":"levelo_inurba_marseille","lat":43.3059,"lon":5.39355,"is_reserved":false,"is_disabled":false,"rental_uris":{"android":"levelo://app?vid=94838900-dc75-4667-a457-fb455b813d39","ios":"levelo://app?vid=94838900-dc75-4667-a457-fb455b813d39"},"vehicle_type_id":"4","last_reported":1748646612,"current_range_meters":10000,"station_id":"ce4bh0p2rcd13ifvqd80","pricing_plan_id":"cebpf4jnsgd1na2vs0mg"},{"bike_id":"ee5ba2d6-4df2-47c2-b67d-c4459e448d78","system_id":"levelo_inurba_marseille","lat":43.28682,"lon":5.38672,"is_reserved":false,"is_disabled":false,"rental_uris":{"android":"levelo://app?vid=ee5ba2d6-4df2-47c2-b67d-c4459e448d78","ios":"levelo://app?vid=ee5ba2d6-4df2-47c2-b67d-c4459e448d78"},"vehicle_type_id":"4","last_reported":1748646612,"current_range_meters":10000,"station_id":"ce4bh492rcd13ifvqdug","pricing_plan_id":"cebpf4jnsgd1na2vs0mg"},{"bike_id":"147b7292-304a-4982-b2cd-913d350c3fb7","system_id":"levelo_inurba_marseille","lat":43.29025,"lon":5.38639,"is_reserved":false,"is_disabled":false,"rental_uris":{"android":"levelo://app?vid=147b7292-304a-4982-b2cd-913d350c3fb7","ios":"levelo://app?vid=147b7292-304a-4982-b2cd-913d350c3fb7"},"vehicle_type_id":"4","last_reported":1748646612,"current_range_meters":10000,"station_id":"ce4bh4p2rcd13ifvqe0g","pricing_plan_id":"cebpf4jnsgd1na2vs0mg"},{"bike_id":"662af0d9-b4f1-4513-bbd2-fd65be6229e5","system_id":"levelo_inurba_marseille","lat":43.25929,"lon":5.40877,"is_reserved":false,"is_disabled":false,"rental_uris":{"android":"levelo://app?vid=662af0d9-b4f1-4513-bbd2-fd65be6229e5","ios":"levelo://app?vid=662af0d9-b4f1-4513-bbd2-fd65be6229e5"},"vehicle_type_id":"4","last_reported":1748646612,"current_range_meters":10000,"station_id":"ce4bhm92rcd13ifvqglg","pricing_plan_id":"cebpf4jnsgd1na2vs0mg"},{"bike_id":"d42b65af-38ed-48b1-9f62-d79f47c848dd","system_id":"levelo_inurba_marseille","lat":43.24068,"lon":5.37751,"is_reserved":false,"is_disabled":false,"rental_uris":{"android":"levelo://app?vid=d42b65af-38ed-48b1-9f62-d79f47c848dd","ios":"levelo://app?vid=d42b65af-38ed-48b1-9f62-d79f47c848dd"},"vehicle_type_id":"4","last_reported":1748646612,"current_range_meters":10000,"station_id":"ce4bhnp2rcd13ifvqgvg","pricing_plan_id":"cebpf4jnsgd1na2vs0mg"},{"bike_id":"d16f5222-3d1e-4d65-a992-1bc93f719178","system_id":"levelo_inurba_marseille","lat":43.30305,"lon":5.36596,"is_reserved":false,"is_disabled":false,"rental_uris":{"android":"levelo://app?vid=d16f5222-3d1e-4d65-a992-1bc93f719178","ios":"levelo://app?vid=d16f5222-3d1e-4d65-a992-1bc93f719178"},"vehicle_type_id":"4","last_reported":1748646612,"current_range_meters":10800,"station_id":"","pricing_plan_id":"cebpf4jnsgd1na2vs0mg"},{"bike_id":"76749e45-957b-40bb-9b95-4da7298a2cca","system_id":"levelo_inurba_marseille","lat":43.3035,"lon":5.38984,"is_reserved":false,"is_disabled":false,"rental_uris":{"android":"levelo://app?vid=76749e45-957b-40bb-9b95-4da7298a2cca","ios":"levelo://app?vid=76749e45-957b-40bb-9b95-4da7298a2cca"},"vehicle_type_id":"4","last_reported":1748646612,"current_range_meters":10800,"station_id":"","pricing_plan_id":"cebpf4jnsgd1na2vs0mg"},{"bike_id":"3b8a9885-a67c-43f6-882f-68a287cfa22d","system_id":"levelo_inurba_marseille","lat":43.29534,"lon":5.38546,"is_reserved":false,"is_disabled":false,"rental_uris":{"android":"levelo://app?vid=3b8a9885-a67c-43f6-882f-68a287cfa22d","ios":"levelo://app?vid=3b8a9885-a67c-43f6-882f-68a287cfa22d"},"vehicle_type_id":"4","last_reported":1748646612,"current_range_meters":10800,"station_id":"ce4bgih2rcd13ifvqba0","pricing_plan_id":"cebpf4jnsgd1na2vs0mg"},{"bike_id":"270b94fe-8b6b-4a0c-8f71-da0ab2cce6b2","system_id":"levelo_inurba_marseille","lat":43.3115,"lon":5.38729,"is_reserved":false,"is_disabled":false,"rental_uris":{"android":"levelo://app?vid=270b94fe-8b6b-4a0c-8f71-da0ab2cce6b2","ios":"levelo://app?vid=270b94fe-8b6b-4a0c-8f71-da0ab2cce6b2"},"vehicle_type_id":"4","last_reported":1748646612,"current_range_meters":10800,"station_id":"ce4bgv12rcd13ifvqcp0","pricing_plan_id":"cebpf4jnsgd1na2vs0mg"},{"bike_id":"4e82788a-76ec-40e1-8d87-7dbcf56d978b","system_id":"levelo_inurba_marseille","lat":43.303258,"lon":5.40443,"is_reserved":false,"is_disabled":false,"rental_uris":{"android":"levelo://app?vid=4e82788a-76ec-40e1-8d87-7dbcf56d978b","ios":"levelo://app?vid=4e82788a-76ec-40e1-8d87-7dbcf56d978b"},"vehicle_type_id":"4","last_reported":1748646612,"current_range_meters":10800,"station_id":"ce4bh012rcd13ifvqd10","pricing_plan_id":"cebpf4jnsgd1na2vs0mg"},{"bike_id":"6d848297-fb74-4a07-ab5e-0131fc63020d","system_id":"levelo_inurba_marseille","lat":43.2941,"lon":5.38636,"is_reserved":false,"is_disabled":false,"rental_uris":{"android":"levelo://app?vid=6d848297-fb74-4a07-ab5e-0131fc63020d","ios":"levelo://app?vid=6d848297-fb74-4a07-ab5e-0131fc63020d"},"vehicle_type_id":"4","last_reported":1748646612,"current_range_meters":10800,"station_id":"ce4bh2h2rcd13ifvqdh0","pricing_plan_id":"cebpf4jnsgd1na2vs0mg"},{"bike_id":"6cab2d10-7f2c-4dac-ba3d-4f103803cc6a","system_id":"levelo_inurba_marseille","lat":43.28918,"lon":5.38404,"is_reserved":false,"is_disabled":false,"rental_uris":{"android":"levelo://app?vid=6cab2d10-7f2c-4dac-ba3d-4f103803cc6a","ios":"levelo://app?vid=6cab2d10-7f2c-4dac-ba3d-4f103803cc6a"},"vehicle_type_id":"4","last_reported":1748646612,"current_range_meters":10800,"station_id":"ce4bh612rcd13ifvqe6g","pricing_plan_id":"cebpf4jnsgd1na2vs0mg"},{"bike_id":"e39fb636-c848-4b11-b04e-e552837a94cb","system_id":"levelo_inurba_marseille","lat":43.29247,"lon":5.38433,"is_reserved":false,"is_disabled":false,"rental_uris":{"android":"levelo://app?vid=e39fb636-c848-4b11-b04e-e552837a94cb","ios":"levelo://app?vid=e39fb636-c848-4b11-b04e-e552837a94cb"},"vehicle_type_id":"4","last_reported":1748646612,"current_range_meters":10800,"station_id":"ce4bh692rcd13ifvqea0","pricing_plan_id":"cebpf4jnsgd1na2vs0mg"},{"bike_id":"e600d45d-16f7-4e9b-b8df-9a06c49fd73c","system_id":"levelo_inurba_marseille","lat":43.26554,"lon":5.37283,"is_reserved":false,"is_disabled":false,"rental_uris":{"android":"levelo://app?vid=e600d45d-16f7-4e9b-b8df-9a06c49fd73c","ios":"levelo://app?vid=e600d45d-16f7-4e9b-b8df-9a06c49fd73c"},"vehicle_type_id":"4","last_reported":1748646612,"current_range_meters":10800,"station_id":"ce4bhg12rcd13ifvqf70","pricing_plan_id":"cebpf4jnsgd1na2vs0mg"},{"bike_id":"9ee87dbe-3990-4764-9a6b-2020fac42886","system_id":"levelo_inurba_marseille","lat":43.321165,"lon":5.367703,"is_reserved":false,"is_disabled":false,"rental_uris":{"android":"levelo://app?vid=9ee87dbe-3990-4764-9a6b-2020fac42886","ios":"levelo://app?vid=9ee87dbe-3990-4764-9a6b-2020fac42886"},"vehicle_type_id":"4","last_reported":1748646612,"current_range_meters":10800,"station_id":"ce4bhrh2rcd13ifvqhug","pricing_plan_id":"cebpf4jnsgd1na2vs0mg"},{"bike_id":"acdeb330-e3c4-4bf4-893d-ac949dc0c305","system_id":"levelo_inurba_marseille","lat":43.26804,"lon":5.40262,"is_reserved":false,"is_disabled":false,"rental_uris":{"android":"levelo://app?vid=acdeb330-e3c4-4bf4-893d-ac949dc0c305","ios":"levelo://app?vid=acdeb330-e3c4-4bf4-893d-ac949dc0c305"},"vehicle_type_id":"4","last_reported":1748646612,"current_range_meters":10800,"station_id":"ce501612rcd8frsf0b60","pricing_plan_id":"cebpf4jnsgd1na2vs0mg"},{"bike_id":"a7b2e466-7401-4460-a9ff-b32ce19e182f","system_id":"levelo_inurba_marseille","lat":43.283475,"lon":5.381141,"is_reserved":false,"is_disabled":false,"rental_uris":{"android":"levelo://app?vid=a7b2e466-7401-4460-a9ff-b32ce19e182f","ios":"levelo://app?vid=a7b2e466-7401-4460-a9ff-b32ce19e182f"},"vehicle_type_id":"4","last_reported":1748646612,"current_range_meters":11200,"station_id":"","pricing_plan_id":"cebpf4jnsgd1na2vs0mg"},{"bike_id":"fc237ff7-c42d-40bc-a790-328120999488","system_id":"levelo_inurba_marseille","lat":43.30145,"lon":5.38776,"is_reserved":false,"is_disabled":false,"rental_uris":{"android":"levelo://app?vid=fc237ff7-c42d-40bc-a790-328120999488","ios":"levelo://app?vid=fc237ff7-c42d-40bc-a790-328120999488"},"vehicle_type_id":"4","last_reported":1748646612,"current_range_meters":11200,"station_id":"ce4bghh2rcd13ifvqb60","pricing_plan_id":"cebpf4jnsgd1na2vs0mg"},{"bike_id":"8a3e5b0a-0051-4c81-914a-7c4dda715139","system_id":"levelo_inurba_marseille","lat":43.30144,"lon":5.38062,"is_reserved":false,"is_disabled":false,"rental_uris":{"android":"levelo://app?vid=8a3e5b0a-0051-4c81-914a-7c4dda715139","ios":"levelo://app?vid=8a3e5b0a-0051-4c81-914a-7c4dda715139"},"vehicle_type_id":"4","last_reported":1748646612,"current_range_meters":11200,"station_id":"ce4bgjp2rcd13ifvqbh0","pricing_plan_id":"cebpf4jnsgd1na2vs0mg"},{"bike_id":"59443060-1562-4317-ab27-d1035baab05e","system_id":"levelo_inurba_marseille","lat":43.313618,"lon":5.384796,"is_reserved":false,"is_disabled":false,"rental_uris":{"android":"levelo://app?vid=59443060-1562-4317-ab27-d1035baab05e","ios":"levelo://app?vid=59443060-1562-4317-ab27-d1035baab05e"},"vehicle_type_id":"4","last_reported":1748646612,"current_range_meters":11200,"station_id":"ce4bgt92rcd13ifvqcf0","pricing_plan_id":"cebpf4jnsgd1na2vs0mg"},{"bike_id":"02b834c3-4f0e-4a8e-9464-05ddc5acf668","system_id":"levelo_inurba_marseille","lat":43.31686,"lon":5.37725,"is_reserved":false,"is_disabled":false,"rental_uris":{"android":"levelo://app?vid=02b834c3-4f0e-4a8e-9464-05ddc5acf668","ios":"levelo://app?vid=02b834c3-4f0e-4a8e-9464-05ddc5acf668"},"vehicle_type_id":"4","last_reported":1748646612,"current_range_meters":11200,"station_id":"ce4bgth2rcd13ifvqch0","pricing_plan_id":"cebpf4jnsgd1na2vs0mg"},{"bike_id":"64a3d9b3-30f8-4a8c-b831-0d99a9fae7a2","system_id":"levelo_inurba_marseille","lat":43.31645,"lon":5.40459,"is_reserved":false,"is_disabled":false,"rental_uris":{"android":"levelo://app?vid=64a3d9b3-30f8-4a8c-b831-0d99a9fae7a2","ios":"levelo://app?vid=64a3d9b3-30f8-4a8c-b831-0d99a9fae7a2"},"vehicle_type_id":"4","last_reported":1748646612,"current_range_meters":11200,"station_id":"ce4bh012rcd13ifvqd00","pricing_plan_id":"cebpf4jnsgd1na2vs0mg"},{"bike_id":"4d37d630-e567-4a17-8738-5c2ba19a10ee","system_id":"levelo_inurba_marseille","lat":43.30321,"lon":5.40444,"is_reserved":false,"is_disabled":false,"rental_uris":{"android":"levelo://app?vid=4d37d630-e567-4a17-8738-5c2ba19a10ee","ios":"levelo://app?vid=4d37d630-e567-4a17-8738-5c2ba19a10ee"},"vehicle_type_id":"4","last_reported":1748646612,"current_range_meters":11200,"station_id":"ce4bh012rcd13ifvqd10","pricing_plan_id":"cebpf4jnsgd1na2vs0mg"},{"bike_id":"ec695b5d-b960-464b-94b1-b383014fd058","system_id":"levelo_inurba_marseille","lat":43.29508,"lon":5.39422,"is_reserved":false,"is_disabled":false,"rental_uris":{"android":"levelo://app?vid=ec695b5d-b960-464b-94b1-b383014fd058","ios":"levelo://app?vid=ec695b5d-b960-464b-94b1-b383014fd058"},"vehicle_type_id":"4","last_reported":1748646612,"current_range_meters":11200,"station_id":"ce4bh292rcd13ifvqdf0","pricing_plan_id":"cebpf4jnsgd1na2vs0mg"},{"bike_id":"93ae5175-0134-4dc5-965f-d75524d83337","system_id":"levelo_inurba_marseille","lat":43.29258,"lon":5.38422,"is_reserved":false,"is_disabled":false,"rental_uris":{"android":"levelo://app?vid=93ae5175-0134-4dc5-965f-d75524d83337","ios":"levelo://app?vid=93ae5175-0134-4dc5-965f-d75524d83337"},"vehicle_type_id":"4","last_reported":1748646612,"current_range_meters":11200,"station_id":"ce4bh692rcd13ifvqea0","pricing_plan_id":"cebpf4jnsgd1na2vs0mg"},{"bike_id":"bac667cf-137e-4ea7-b037-7ebd6a2ad77c","system_id":"levelo_inurba_marseille","lat":43.2825,"lon":5.35085,"is_reserved":false,"is_disabled":false,"rental_uris":{"android":"levelo://app?vid=bac667cf-137e-4ea7-b037-7ebd6a2ad77c","ios":"levelo://app?vid=bac667cf-137e-4ea7-b037-7ebd6a2ad77c"},"vehicle_type_id":"4","last_reported":1748646612,"current_range_meters":11200,"station_id":"ce4bhbp2rcd13ifvqerg","pricing_plan_id":"cebpf4jnsgd1na2vs0mg"},{"bike_id":"a672e2ce-ff65-491a-baf8-b5fcce4f4059","system_id":"levelo_inurba_marseille","lat":43.31702,"lon":5.39009,"is_reserved":false,"is_disabled":false,"rental_uris":{"android":"levelo://app?vid=a672e2ce-ff65-491a-baf8-b5fcce4f4059","ios":"levelo://app?vid=a672e2ce-ff65-491a-baf8-b5fcce4f4059"},"vehicle_type_id":"4","last_reported":1748646612,"current_range_meters":11600,"station_id":"","pricing_plan_id":"cebpf4jnsgd1na2vs0mg"},{"bike_id":"465946d4-b451-4f03-be5f-1492d935a8ae","system_id":"levelo_inurba_marseille","lat":43.29415,"lon":5.38618,"is_reserved":false,"is_disabled":false,"rental_uris":{"android":"levelo://app?vid=465946d4-b451-4f03-be5f-1492d935a8ae","ios":"levelo://app?vid=465946d4-b451-4f03-be5f-1492d935a8ae"},"vehicle_type_id":"4","last_reported":1748646612,"current_range_meters":11600,"station_id":"ce4bh2h2rcd13ifvqdh0","pricing_plan_id":"cebpf4jnsgd1na2vs0mg"},{"bike_id":"e7f62276-ddf8-41a9-8c04-845a41232497","system_id":"levelo_inurba_marseille","lat":43.29264,"lon":5.38439,"is_reserved":false,"is_disabled":false,"rental_uris":{"android":"levelo://app?vid=e7f62276-ddf8-41a9-8c04-845a41232497","ios":"levelo://app?vid=e7f62276-ddf8-41a9-8c04-845a41232497"},"vehicle_type_id":"4","last_reported":1748646612,"current_range_meters":11600,"station_id":"ce4bh692rcd13ifvqea0","pricing_plan_id":"cebpf4jnsgd1na2vs0mg"},{"bike_id":"9483a7bd-846c-4c6e-a304-71a2f38946f5","system_id":"levelo_inurba_marseille","lat":43.27919,"lon":5.39577,"is_reserved":false,"is_disabled":false,"rental_uris":{"android":"levelo://app?vid=9483a7bd-846c-4c6e-a304-71a2f38946f5","ios":"levelo://app?vid=9483a7bd-846c-4c6e-a304-71a2f38946f5"},"vehicle_type_id":"4","last_reported":1748646612,"current_range_meters":11600,"station_id":"ce4bhf92rcd13ifvqf40","pricing_plan_id":"cebpf4jnsgd1na2vs0mg"},{"bike_id":"daa4fe86-0f61-482f-b421-85d55122756a","system_id":"levelo_inurba_marseille","lat":43.27566,"lon":5.38417,"is_reserved":false,"is_disabled":false,"rental_uris":{"android":"levelo://app?vid=daa4fe86-0f61-482f-b421-85d55122756a","ios":"levelo://app?vid=daa4fe86-0f61-482f-b421-85d55122756a"},"vehicle_type_id":"4","last_reported":1748646612,"current_range_meters":11600,"station_id":"ce4bhh92rcd13ifvqfi0","pricing_plan_id":"cebpf4jnsgd1na2vs0mg"},{"bike_id":"72b23615-0b78-4a19-8c4c-ff25f55f5ef9","system_id":"levelo_inurba_marseille","lat":43.27488,"lon":5.42453,"is_reserved":false,"is_disabled":false,"rental_uris":{"android":"levelo://app?vid=72b23615-0b78-4a19-8c4c-ff25f55f5ef9","ios":"levelo://app?vid=72b23615-0b78-4a19-8c4c-ff25f55f5ef9"},"vehicle_type_id":"4","last_reported":1748646612,"current_range_meters":11600,"station_id":"ce4bhn92rcd13ifvqgrg","pricing_plan_id":"cebpf4jnsgd1na2vs0mg"},{"bike_id":"59e69c29-8b04-43ef-8a5c-dcd319d2ce6a","system_id":"levelo_inurba_marseille","lat":43.29784,"lon":5.39342,"is_reserved":false,"is_disabled":false,"rental_uris":{"android":"levelo://app?vid=59e69c29-8b04-43ef-8a5c-dcd319d2ce6a","ios":"levelo://app?vid=59e69c29-8b04-43ef-8a5c-dcd319d2ce6a"},"vehicle_type_id":"4","last_reported":1748646612,"current_range_meters":11600,"station_id":"chh1huq6cuj3fo74tm60","pricing_plan_id":"cebpf4jnsgd1na2vs0mg"},{"bike_id":"dd34afa2-f665-4263-85a8-7de7dbd3a196","system_id":"levelo_inurba_marseille","lat":43.276074,"lon":5.396991,"is_reserved":false,"is_disabled":false,"rental_uris":{"android":"levelo://app?vid=dd34afa2-f665-4263-85a8-7de7dbd3a196","ios":"levelo://app?vid=dd34afa2-f665-4263-85a8-7de7dbd3a196"},"vehicle_type_id":"4","last_reported":1748646612,"current_range_meters":12000,"station_id":"","pricing_plan_id":"cebpf4jnsgd1na2vs0mg"},{"bike_id":"b5a0755a-7495-4ad7-9b9a-eba38bccc38c","system_id":"levelo_inurba_marseille","lat":43.29413,"lon":5.38622,"is_reserved":false,"is_disabled":false,"rental_uris":{"android":"levelo://app?vid=b5a0755a-7495-4ad7-9b9a-eba38bccc38c","ios":"levelo://app?vid=b5a0755a-7495-4ad7-9b9a-eba38bccc38c"},"vehicle_type_id":"4","last_reported":1748646612,"current_range_meters":12000,"station_id":"ce4bh2h2rcd13ifvqdh0","pricing_plan_id":"cebpf4jnsgd1na2vs0mg"},{"bike_id":"b18036e4-cdbb-441f-a4f1-99c9cdbece34","system_id":"levelo_inurba_marseille","lat":43.294983,"lon":5.390739,"is_reserved":false,"is_disabled":false,"rental_uris":{"android":"levelo://app?vid=b18036e4-cdbb-441f-a4f1-99c9cdbece34","ios":"levelo://app?vid=b18036e4-cdbb-441f-a4f1-99c9cdbece34"},"vehicle_type_id":"4","last_reported":1748646612,"current_range_meters":12000,"station_id":"ce4bh3p2rcd13ifvqdp0","pricing_plan_id":"cebpf4jnsgd1na2vs0mg"},{"bike_id":"bd8d8b06-7f5c-4717-a31e-7376ee9502f7","system_id":"levelo_inurba_marseille","lat":43.28705,"lon":5.38632,"is_reserved":false,"is_disabled":false,"rental_uris":{"android":"levelo://app?vid=bd8d8b06-7f5c-4717-a31e-7376ee9502f7","ios":"levelo://app?vid=bd8d8b06-7f5c-4717-a31e-7376ee9502f7"},"vehicle_type_id":"4","last_reported":1748646612,"current_range_meters":12000,"station_id":"ce4bh492rcd13ifvqdug","pricing_plan_id":"cebpf4jnsgd1na2vs0mg"},{"bike_id":"16663e6f-1235-49b5-8382-3e787b7bc2db","system_id":"levelo_inurba_marseille","lat":43.26569,"lon":5.39007,"is_reserved":false,"is_disabled":false,"rental_uris":{"android":"levelo://app?vid=16663e6f-1235-49b5-8382-3e787b7bc2db","ios":"levelo://app?vid=16663e6f-1235-49b5-8382-3e787b7bc2db"},"vehicle_type_id":"4","last_reported":1748646612,"current_range_meters":12000,"station_id":"ce4bhe12rcd13ifvqf30","pricing_plan_id":"cebpf4jnsgd1na2vs0mg"},{"bike_id":"1df01b7e-7c97-4647-8d04-748e7e3d2935","system_id":"levelo_inurba_marseille","lat":43.26563,"lon":5.390053,"is_reserved":false,"is_disabled":false,"rental_uris":{"android":"levelo://app?vid=1df01b7e-7c97-4647-8d04-748e7e3d2935","ios":"levelo://app?vid=1df01b7e-7c97-4647-8d04-748e7e3d2935"},"vehicle_type_id":"4","last_reported":1748646612,"current_range_meters":12000,"station_id":"ce4bhe12rcd13ifvqf30","pricing_plan_id":"cebpf4jnsgd1na2vs0mg"},{"bike_id":"baa9ae91-cf2b-4902-bc78-4d8c41a40b35","system_id":"levelo_inurba_marseille","lat":43.26557,"lon":5.39018,"is_reserved":false,"is_disabled":false,"rental_uris":{"android":"levelo://app?vid=baa9ae91-cf2b-4902-bc78-4d8c41a40b35","ios":"levelo://app?vid=baa9ae91-cf2b-4902-bc78-4d8c41a40b35"},"vehicle_type_id":"4","last_reported":1748646612,"current_range_meters":12000,"station_id":"ce4bhe12rcd13ifvqf30","pricing_plan_id":"cebpf4jnsgd1na2vs0mg"},{"bike_id":"2cb50db8-076b-42f3-ad61-f8d30aa489bc","system_id":"levelo_inurba_marseille","lat":43.30453,"lon":5.38904,"is_reserved":false,"is_disabled":false,"rental_uris":{"android":"levelo://app?vid=2cb50db8-076b-42f3-ad61-f8d30aa489bc","ios":"levelo://app?vid=2cb50db8-076b-42f3-ad61-f8d30aa489bc"},"vehicle_type_id":"4","last_reported":1748646612,"current_range_meters":12400,"station_id":"ce4bgk12rcd13ifvqbi0","pricing_plan_id":"cebpf4jnsgd1na2vs0mg"},{"bike_id":"d87283bc-335e-4f1f-9492-4498125299e9","system_id":"levelo_inurba_marseille","lat":43.29422,"lon":5.38627,"is_reserved":false,"is_disabled":false,"rental_uris":{"android":"levelo://app?vid=d87283bc-335e-4f1f-9492-4498125299e9","ios":"levelo://app?vid=d87283bc-335e-4f1f-9492-4498125299e9"},"vehicle_type_id":"4","last_reported":1748646612,"current_range_meters":12400,"station_id":"ce4bh2h2rcd13ifvqdh0","pricing_plan_id":"cebpf4jnsgd1na2vs0mg"},{"bike_id":"441894f2-12e5-4d97-a7f7-b96a0cd7af68","system_id":"levelo_inurba_marseille","lat":43.24547,"lon":5.39522,"is_reserved":false,"is_disabled":false,"rental_uris":{"android":"levelo://app?vid=441894f2-12e5-4d97-a7f7-b96a0cd7af68","ios":"levelo://app?vid=441894f2-12e5-4d97-a7f7-b96a0cd7af68"},"vehicle_type_id":"4","last_reported":1748646612,"current_range_meters":12400,"station_id":"ce4bhlp2rcd13ifvqgjg","pricing_plan_id":"cebpf4jnsgd1na2vs0mg"},{"bike_id":"d6d1ada7-d095-4848-a9c7-71d520f6d868","system_id":"levelo_inurba_marseille","lat":43.299666,"lon":5.384894,"is_reserved":false,"is_disabled":false,"rental_uris":{"android":"levelo://app?vid=d6d1ada7-d095-4848-a9c7-71d520f6d868","ios":"levelo://app?vid=d6d1ada7-d095-4848-a9c7-71d520f6d868"},"vehicle_type_id":"4","last_reported":1748646612,"current_range_meters":12800,"station_id":"","pricing_plan_id":"cebpf4jnsgd1na2vs0mg"},{"bike_id":"990df701-79a7-41ec-b963-3693dc590a87","system_id":"levelo_inurba_marseille","lat":43.3016,"lon":5.37898,"is_reserved":false,"is_disabled":false,"rental_uris":{"android":"levelo://app?vid=990df701-79a7-41ec-b963-3693dc590a87","ios":"levelo://app?vid=990df701-79a7-41ec-b963-3693dc590a87"},"vehicle_type_id":"4","last_reported":1748646612,"current_range_meters":12800,"station_id":"","pricing_plan_id":"cebpf4jnsgd1na2vs0mg"},{"bike_id":"fd73a619-5a34-4b37-af3f-6713aaa9e6c1","system_id":"levelo_inurba_marseille","lat":43.29416,"lon":5.38624,"is_reserved":false,"is_disabled":false,"rental_uris":{"android":"levelo://app?vid=fd73a619-5a34-4b37-af3f-6713aaa9e6c1","ios":"levelo://app?vid=fd73a619-5a34-4b37-af3f-6713aaa9e6c1"},"vehicle_type_id":"4","last_reported":1748646612,"current_range_meters":12800,"station_id":"ce4bh2h2rcd13ifvqdh0","pricing_plan_id":"cebpf4jnsgd1na2vs0mg"},{"bike_id":"bff52450-a9be-4d0e-b7e1-7f1e2dabe398","system_id":"levelo_inurba_marseille","lat":43.2944,"lon":5.39745,"is_reserved":false,"is_disabled":false,"rental_uris":{"android":"levelo://app?vid=bff52450-a9be-4d0e-b7e1-7f1e2dabe398","ios":"levelo://app?vid=bff52450-a9be-4d0e-b7e1-7f1e2dabe398"},"vehicle_type_id":"4","last_reported":1748646612,"current_range_meters":12800,"station_id":"ce4bh3h2rcd13ifvqdo0","pricing_plan_id":"cebpf4jnsgd1na2vs0mg"},{"bike_id":"96554521-a156-468a-8f37-c6a7a91d4984","system_id":"levelo_inurba_marseille","lat":43.29265,"lon":5.38448,"is_reserved":false,"is_disabled":false,"rental_uris":{"android":"levelo://app?vid=96554521-a156-468a-8f37-c6a7a91d4984","ios":"levelo://app?vid=96554521-a156-468a-8f37-c6a7a91d4984"},"vehicle_type_id":"4","last_reported":1748646612,"current_range_meters":12800,"station_id":"ce4bh692rcd13ifvqea0","pricing_plan_id":"cebpf4jnsgd1na2vs0mg"},{"bike_id":"dcac3f7e-ac89-4f51-9065-db434d572e88","system_id":"levelo_inurba_marseille","lat":43.29531,"lon":5.38542,"is_reserved":false,"is_disabled":false,"rental_uris":{"android":"levelo://app?vid=dcac3f7e-ac89-4f51-9065-db434d572e88","ios":"levelo://app?vid=dcac3f7e-ac89-4f51-9065-db434d572e88"},"vehicle_type_id":"4","last_reported":1748646612,"current_range_meters":13600,"station_id":"ce4bgih2rcd13ifvqba0","pricing_plan_id":"cebpf4jnsgd1na2vs0mg"},{"bike_id":"de16af55-3141-43a7-b264-f882eb5cfc19","system_id":"levelo_inurba_marseille","lat":43.28362,"lon":5.38643,"is_reserved":false,"is_disabled":false,"rental_uris":{"android":"levelo://app?vid=de16af55-3141-43a7-b264-f882eb5cfc19","ios":"levelo://app?vid=de16af55-3141-43a7-b264-f882eb5cfc19"},"vehicle_type_id":"4","last_reported":1748646612,"current_range_meters":13600,"station_id":"ce4bh492rcd13ifvqdvg","pricing_plan_id":"cebpf4jnsgd1na2vs0mg"},{"bike_id":"cc8d8bc8-f428-474a-99b2-8ca176d500fb","system_id":"levelo_inurba_marseille","lat":43.29023,"lon":5.38652,"is_reserved":false,"is_disabled":false,"rental_uris":{"android":"levelo://app?vid=cc8d8bc8-f428-474a-99b2-8ca176d500fb","ios":"levelo://app?vid=cc8d8bc8-f428-474a-99b2-8ca176d500fb"},"vehicle_type_id":"4","last_reported":1748646612,"current_range_meters":13600,"station_id":"ce4bh4p2rcd13ifvqe0g","pricing_plan_id":"cebpf4jnsgd1na2vs0mg"},{"bike_id":"f4f1fd10-7f02-4ec2-8cb0-c8c5fa3e09c2","system_id":"levelo_inurba_marseille","lat":43.27942,"lon":5.41048,"is_reserved":false,"is_disabled":false,"rental_uris":{"android":"levelo://app?vid=f4f1fd10-7f02-4ec2-8cb0-c8c5fa3e09c2","ios":"levelo://app?vid=f4f1fd10-7f02-4ec2-8cb0-c8c5fa3e09c2"},"vehicle_type_id":"4","last_reported":1748646612,"current_range_meters":13600,"station_id":"ce4bhnp2rcd13ifvqh0g","pricing_plan_id":"cebpf4jnsgd1na2vs0mg"},{"bike_id":"71930e17-fe3c-443f-b621-4d725e50390f","system_id":"levelo_inurba_marseille","lat":43.33726,"lon":5.39184,"is_reserved":false,"is_disabled":false,"rental_uris":{"android":"levelo://app?vid=71930e17-fe3c-443f-b621-4d725e50390f","ios":"levelo://app?vid=71930e17-fe3c-443f-b621-4d725e50390f"},"vehicle_type_id":"4","last_reported":1748646612,"current_range_meters":13600,"station_id":"ce4bhr92rcd13ifvqhsg","pricing_plan_id":"cebpf4jnsgd1na2vs0mg"},{"bike_id":"08b0d705-9b06-46d5-a5ea-5367e2fdbdc9","system_id":"levelo_inurba_marseille","lat":43.30594,"lon":5.37207,"is_reserved":false,"is_disabled":false,"rental_uris":{"android":"levelo://app?vid=08b0d705-9b06-46d5-a5ea-5367e2fdbdc9","ios":"levelo://app?vid=08b0d705-9b06-46d5-a5ea-5367e2fdbdc9"},"vehicle_type_id":"4","last_reported":1748646612,"current_range_meters":14000,"station_id":"ce4bgqh2rcd13ifvqc4g","pricing_plan_id":"cebpf4jnsgd1na2vs0mg"},{"bike_id":"ccb2f0c2-76bb-4dce-a070-09af3c8a6fe2","system_id":"levelo_inurba_marseille","lat":43.27669,"lon":5.38871,"is_reserved":false,"is_disabled":false,"rental_uris":{"android":"levelo://app?vid=ccb2f0c2-76bb-4dce-a070-09af3c8a6fe2","ios":"levelo://app?vid=ccb2f0c2-76bb-4dce-a070-09af3c8a6fe2"},"vehicle_type_id":"4","last_reported":1748646612,"current_range_meters":14000,"station_id":"ce4bhi12rcd13ifvqfo0","pricing_plan_id":"cebpf4jnsgd1na2vs0mg"},{"bike_id":"b35fd950-24e0-465e-96d1-082254f22158","system_id":"levelo_inurba_marseille","lat":43.27825,"lon":5.39192,"is_reserved":false,"is_disabled":false,"rental_uris":{"android":"levelo://app?vid=b35fd950-24e0-465e-96d1-082254f22158","ios":"levelo://app?vid=b35fd950-24e0-465e-96d1-082254f22158"},"vehicle_type_id":"4","last_reported":1748646612,"current_range_meters":14000,"station_id":"ce4bhjp2rcd13ifvqga0","pricing_plan_id":"cebpf4jnsgd1na2vs0mg"},{"bike_id":"893cccc3-5573-41c4-a76f-851cbc7df082","system_id":"levelo_inurba_marseille","lat":43.30928,"lon":5.40145,"is_reserved":false,"is_disabled":false,"rental_uris":{"android":"levelo://app?vid=893cccc3-5573-41c4-a76f-851cbc7df082","ios":"levelo://app?vid=893cccc3-5573-41c4-a76f-851cbc7df082"},"vehicle_type_id":"4","last_reported":1748646612,"current_range_meters":14400,"station_id":"ce4bgvp2rcd13ifvqct0","pricing_plan_id":"cebpf4jnsgd1na2vs0mg"},{"bike_id":"e80a24f9-e015-4620-963b-ad1c5c3fa3f7","system_id":"levelo_inurba_marseille","lat":43.29027,"lon":5.38627,"is_reserved":false,"is_disabled":false,"rental_uris":{"android":"levelo://app?vid=e80a24f9-e015-4620-963b-ad1c5c3fa3f7","ios":"levelo://app?vid=e80a24f9-e015-4620-963b-ad1c5c3fa3f7"},"vehicle_type_id":"4","last_reported":1748646612,"current_range_meters":14400,"station_id":"ce4bh4p2rcd13ifvqe0g","pricing_plan_id":"cebpf4jnsgd1na2vs0mg"},{"bike_id":"5d153e79-4d05-41a2-8153-575a0e715524","system_id":"levelo_inurba_marseille","lat":43.28698,"lon":5.399852,"is_reserved":false,"is_disabled":false,"rental_uris":{"android":"levelo://app?vid=5d153e79-4d05-41a2-8153-575a0e715524","ios":"levelo://app?vid=5d153e79-4d05-41a2-8153-575a0e715524"},"vehicle_type_id":"4","last_reported":1748646612,"current_range_meters":14400,"station_id":"ce4bho92rcd13ifvqh3g","pricing_plan_id":"cebpf4jnsgd1na2vs0mg"},{"bike_id":"03bb06f4-b491-4340-b745-0a2641be143b","system_id":"levelo_inurba_marseille","lat":43.30797,"lon":5.41845,"is_reserved":false,"is_disabled":false,"rental_uris":{"android":"levelo://app?vid=03bb06f4-b491-4340-b745-0a2641be143b","ios":"levelo://app?vid=03bb06f4-b491-4340-b745-0a2641be143b"},"vehicle_type_id":"4","last_reported":1748646612,"current_range_meters":14800,"station_id":"","pricing_plan_id":"cebpf4jnsgd1na2vs0mg"},{"bike_id":"7100e32d-e39a-4e49-a325-ce3ef7fe6db1","system_id":"levelo_inurba_marseille","lat":43.29702,"lon":5.36621,"is_reserved":false,"is_disabled":false,"rental_uris":{"android":"levelo://app?vid=7100e32d-e39a-4e49-a325-ce3ef7fe6db1","ios":"levelo://app?vid=7100e32d-e39a-4e49-a325-ce3ef7fe6db1"},"vehicle_type_id":"4","last_reported":1748646612,"current_range_meters":14800,"station_id":"ce4bgn12rcd13ifvqbt0","pricing_plan_id":"cebpf4jnsgd1na2vs0mg"},{"bike_id":"bbf25ded-718e-41f5-8ebc-a2000cac04a7","system_id":"levelo_inurba_marseille","lat":43.30762,"lon":5.3817,"is_reserved":false,"is_disabled":false,"rental_uris":{"android":"levelo://app?vid=bbf25ded-718e-41f5-8ebc-a2000cac04a7","ios":"levelo://app?vid=bbf25ded-718e-41f5-8ebc-a2000cac04a7"},"vehicle_type_id":"4","last_reported":1748646612,"current_range_meters":14800,"station_id":"ce4bgt12rcd13ifvqce0","pricing_plan_id":"cebpf4jnsgd1na2vs0mg"},{"bike_id":"eaf487dd-6e6d-4dd5-9b72-6980f0550c24","system_id":"levelo_inurba_marseille","lat":43.31361,"lon":5.385,"is_reserved":false,"is_disabled":false,"rental_uris":{"android":"levelo://app?vid=eaf487dd-6e6d-4dd5-9b72-6980f0550c24","ios":"levelo://app?vid=eaf487dd-6e6d-4dd5-9b72-6980f0550c24"},"vehicle_type_id":"4","last_reported":1748646612,"current_range_meters":14800,"station_id":"ce4bgt92rcd13ifvqcf0","pricing_plan_id":"cebpf4jnsgd1na2vs0mg"},{"bike_id":"50ccef43-1903-48d0-b39a-ab051baaed01","system_id":"levelo_inurba_marseille","lat":43.294179,"lon":5.386339,"is_reserved":false,"is_disabled":false,"rental_uris":{"android":"levelo://app?vid=50ccef43-1903-48d0-b39a-ab051baaed01","ios":"levelo://app?vid=50ccef43-1903-48d0-b39a-ab051baaed01"},"vehicle_type_id":"4","last_reported":1748646612,"current_range_meters":14800,"station_id":"ce4bh2h2rcd13ifvqdh0","pricing_plan_id":"cebpf4jnsgd1na2vs0mg"},{"bike_id":"099ae7f8-da2f-4e1e-85e1-bd2cc4e2608a","system_id":"levelo_inurba_marseille","lat":43.290308,"lon":5.386448,"is_reserved":false,"is_disabled":false,"rental_uris":{"android":"levelo://app?vid=099ae7f8-da2f-4e1e-85e1-bd2cc4e2608a","ios":"levelo://app?vid=099ae7f8-da2f-4e1e-85e1-bd2cc4e2608a"},"vehicle_type_id":"4","last_reported":1748646612,"current_range_meters":14800,"station_id":"ce4bh4p2rcd13ifvqe0g","pricing_plan_id":"cebpf4jnsgd1na2vs0mg"},{"bike_id":"d597aea0-21cb-4d9d-a868-feb6ff252eca","system_id":"levelo_inurba_marseille","lat":43.25579,"lon":5.38257,"is_reserved":false,"is_disabled":false,"rental_uris":{"android":"levelo://app?vid=d597aea0-21cb-4d9d-a868-feb6ff252eca","ios":"levelo://app?vid=d597aea0-21cb-4d9d-a868-feb6ff252eca"},"vehicle_type_id":"4","last_reported":1748646612,"current_range_meters":14800,"station_id":"ce4bhih2rcd13ifvqfs0","pricing_plan_id":"cebpf4jnsgd1na2vs0mg"},{"bike_id":"495d3d4f-fe36-4133-8b6c-942fc4d537bf","system_id":"levelo_inurba_marseille","lat":43.295614,"lon":5.382408,"is_reserved":false,"is_disabled":false,"rental_uris":{"android":"levelo://app?vid=495d3d4f-fe36-4133-8b6c-942fc4d537bf","ios":"levelo://app?vid=495d3d4f-fe36-4133-8b6c-942fc4d537bf"},"vehicle_type_id":"4","last_reported":1748646612,"current_range_meters":15200,"station_id":"","pricing_plan_id":"cebpf4jnsgd1na2vs0mg"},{"bike_id":"5a0f9c43-81b8-4fde-9937-0577c074501c","system_id":"levelo_inurba_marseille","lat":43.29532,"lon":5.38555,"is_reserved":false,"is_disabled":false,"rental_uris":{"android":"levelo://app?vid=5a0f9c43-81b8-4fde-9937-0577c074501c","ios":"levelo://app?vid=5a0f9c43-81b8-4fde-9937-0577c074501c"},"vehicle_type_id":"4","last_reported":1748646612,"current_range_meters":15200,"station_id":"ce4bgih2rcd13ifvqba0","pricing_plan_id":"cebpf4jnsgd1na2vs0mg"},{"bike_id":"3fbb13f5-2348-42b4-abc7-277c9f499e45","system_id":"levelo_inurba_marseille","lat":43.29595,"lon":5.38097,"is_reserved":false,"is_disabled":false,"rental_uris":{"android":"levelo://app?vid=3fbb13f5-2348-42b4-abc7-277c9f499e45","ios":"levelo://app?vid=3fbb13f5-2348-42b4-abc7-277c9f499e45"},"vehicle_type_id":"4","last_reported":1748646612,"current_range_meters":15200,"station_id":"ce4bgl12rcd13ifvqbo0","pricing_plan_id":"cebpf4jnsgd1na2vs0mg"},{"bike_id":"4f199e5f-5482-455f-91c6-07404d8052b7","system_id":"levelo_inurba_marseille","lat":43.31358,"lon":5.38499,"is_reserved":false,"is_disabled":false,"rental_uris":{"android":"levelo://app?vid=4f199e5f-5482-455f-91c6-07404d8052b7","ios":"levelo://app?vid=4f199e5f-5482-455f-91c6-07404d8052b7"},"vehicle_type_id":"4","last_reported":1748646612,"current_range_meters":15200,"station_id":"ce4bgt92rcd13ifvqcf0","pricing_plan_id":"cebpf4jnsgd1na2vs0mg"},{"bike_id":"f237b67b-c90a-4bde-9d04-487ff2d0298c","system_id":"levelo_inurba_marseille","lat":43.29246,"lon":5.40917,"is_reserved":false,"is_disabled":false,"rental_uris":{"android":"levelo://app?vid=f237b67b-c90a-4bde-9d04-487ff2d0298c","ios":"levelo://app?vid=f237b67b-c90a-4bde-9d04-487ff2d0298c"},"vehicle_type_id":"4","last_reported":1748646612,"current_range_meters":15200,"station_id":"ce4bh192rcd13ifvqdc0","pricing_plan_id":"cebpf4jnsgd1na2vs0mg"},{"bike_id":"51f62843-6c0b-4387-af0b-84792fc49ef3","system_id":"levelo_inurba_marseille","lat":43.2941,"lon":5.38626,"is_reserved":false,"is_disabled":false,"rental_uris":{"android":"levelo://app?vid=51f62843-6c0b-4387-af0b-84792fc49ef3","ios":"levelo://app?vid=51f62843-6c0b-4387-af0b-84792fc49ef3"},"vehicle_type_id":"4","last_reported":1748646612,"current_range_meters":15200,"station_id":"ce4bh2h2rcd13ifvqdh0","pricing_plan_id":"cebpf4jnsgd1na2vs0mg"},{"bike_id":"91d451cd-fd12-4c58-9642-67ff33efe050","system_id":"levelo_inurba_marseille","lat":43.29033,"lon":5.38632,"is_reserved":false,"is_disabled":false,"rental_uris":{"android":"levelo://app?vid=91d451cd-fd12-4c58-9642-67ff33efe050","ios":"levelo://app?vid=91d451cd-fd12-4c58-9642-67ff33efe050"},"vehicle_type_id":"4","last_reported":1748646612,"current_range_meters":15200,"station_id":"ce4bh4p2rcd13ifvqe0g","pricing_plan_id":"cebpf4jnsgd1na2vs0mg"},{"bike_id":"70cd6256-b5f2-4f83-83c9-e546d2f57272","system_id":"levelo_inurba_marseille","lat":43.27569,"lon":5.38406,"is_reserved":false,"is_disabled":false,"rental_uris":{"android":"levelo://app?vid=70cd6256-b5f2-4f83-83c9-e546d2f57272","ios":"levelo://app?vid=70cd6256-b5f2-4f83-83c9-e546d2f57272"},"vehicle_type_id":"4","last_reported":1748646612,"current_range_meters":15200,"station_id":"ce4bhh92rcd13ifvqfi0","pricing_plan_id":"cebpf4jnsgd1na2vs0mg"},{"bike_id":"67614841-9f24-4f1f-81f7-acf09b9bb6b8","system_id":"levelo_inurba_marseille","lat":43.25719,"lon":5.41102,"is_reserved":false,"is_disabled":false,"rental_uris":{"android":"levelo://app?vid=67614841-9f24-4f1f-81f7-acf09b9bb6b8","ios":"levelo://app?vid=67614841-9f24-4f1f-81f7-acf09b9bb6b8"},"vehicle_type_id":"4","last_reported":1748646612,"current_range_meters":15200,"station_id":"ce4bhkp2rcd13ifvqgd0","pricing_plan_id":"cebpf4jnsgd1na2vs0mg"},{"bike_id":"98c649e0-2bae-46eb-9e4d-669548a5301f","system_id":"levelo_inurba_marseille","lat":43.25107,"lon":5.40326,"is_reserved":false,"is_disabled":false,"rental_uris":{"android":"levelo://app?vid=98c649e0-2bae-46eb-9e4d-669548a5301f","ios":"levelo://app?vid=98c649e0-2bae-46eb-9e4d-669548a5301f"},"vehicle_type_id":"4","last_reported":1748646612,"current_range_meters":15200,"station_id":"ce4bhlh2rcd13ifvqgig","pricing_plan_id":"cebpf4jnsgd1na2vs0mg"},{"bike_id":"113befcb-1c15-4caf-a73c-e3cb8bd20fb3","system_id":"levelo_inurba_marseille","lat":43.28705,"lon":5.39985,"is_reserved":false,"is_disabled":false,"rental_uris":{"android":"levelo://app?vid=113befcb-1c15-4caf-a73c-e3cb8bd20fb3","ios":"levelo://app?vid=113befcb-1c15-4caf-a73c-e3cb8bd20fb3"},"vehicle_type_id":"4","last_reported":1748646612,"current_range_meters":15200,"station_id":"ce4bho92rcd13ifvqh3g","pricing_plan_id":"cebpf4jnsgd1na2vs0mg"},{"bike_id":"4eb27fe7-2925-45a1-b43c-b8c44fea6a4a","system_id":"levelo_inurba_marseille","lat":43.31063,"lon":5.42452,"is_reserved":false,"is_disabled":false,"rental_uris":{"android":"levelo://app?vid=4eb27fe7-2925-45a1-b43c-b8c44fea6a4a","ios":"levelo://app?vid=4eb27fe7-2925-45a1-b43c-b8c44fea6a4a"},"vehicle_type_id":"4","last_reported":1748646612,"current_range_meters":15200,"station_id":"ce4bhp92rcd13ifvqhag","pricing_plan_id":"cebpf4jnsgd1na2vs0mg"},{"bike_id":"0f978cd1-91a6-49f0-af52-a237e30e4baa","system_id":"levelo_inurba_marseille","lat":43.29597,"lon":5.38085,"is_reserved":false,"is_disabled":false,"rental_uris":{"android":"levelo://app?vid=0f978cd1-91a6-49f0-af52-a237e30e4baa","ios":"levelo://app?vid=0f978cd1-91a6-49f0-af52-a237e30e4baa"},"vehicle_type_id":"4","last_reported":1748646612,"current_range_meters":16000,"station_id":"ce4bgl12rcd13ifvqbo0","pricing_plan_id":"cebpf4jnsgd1na2vs0mg"},{"bike_id":"0c000310-4bea-45e3-a10e-4e283ae220c0","system_id":"levelo_inurba_marseille","lat":43.31073,"lon":5.38357,"is_reserved":false,"is_disabled":false,"rental_uris":{"android":"levelo://app?vid=0c000310-4bea-45e3-a10e-4e283ae220c0","ios":"levelo://app?vid=0c000310-4bea-45e3-a10e-4e283ae220c0"},"vehicle_type_id":"4","last_reported":1748646612,"current_range_meters":16000,"station_id":"ce4bgv92rcd13ifvqcr0","pricing_plan_id":"cebpf4jnsgd1na2vs0mg"},{"bike_id":"b39b16dc-f183-4cb5-86c3-5371fdcfe54c","system_id":"levelo_inurba_marseille","lat":43.31044,"lon":5.38338,"is_reserved":false,"is_disabled":false,"rental_uris":{"android":"levelo://app?vid=b39b16dc-f183-4cb5-86c3-5371fdcfe54c","ios":"levelo://app?vid=b39b16dc-f183-4cb5-86c3-5371fdcfe54c"},"vehicle_type_id":"4","last_reported":1748646612,"current_range_meters":16000,"station_id":"ce4bgv92rcd13ifvqcr0","pricing_plan_id":"cebpf4jnsgd1na2vs0mg"},{"bike_id":"5b4dcac3-2414-4b03-841e-6020b2253a14","system_id":"levelo_inurba_marseille","lat":43.30128,"lon":5.39847,"is_reserved":false,"is_disabled":false,"rental_uris":{"android":"levelo://app?vid=5b4dcac3-2414-4b03-841e-6020b2253a14","ios":"levelo://app?vid=5b4dcac3-2414-4b03-841e-6020b2253a14"},"vehicle_type_id":"4","last_reported":1748646612,"current_range_meters":16000,"station_id":"ce4bh0h2rcd13ifvqd40","pricing_plan_id":"cebpf4jnsgd1na2vs0mg"},{"bike_id":"de1d3ee5-e56c-40ac-9735-5da3cec457b4","system_id":"levelo_inurba_marseille","lat":43.29415,"lon":5.38653,"is_reserved":false,"is_disabled":false,"rental_uris":{"android":"levelo://app?vid=de1d3ee5-e56c-40ac-9735-5da3cec457b4","ios":"levelo://app?vid=de1d3ee5-e56c-40ac-9735-5da3cec457b4"},"vehicle_type_id":"4","last_reported":1748646612,"current_range_meters":16000,"station_id":"ce4bh2h2rcd13ifvqdh0","pricing_plan_id":"cebpf4jnsgd1na2vs0mg"},{"bike_id":"56118c5b-a7b2-448d-9e9f-37905a3f02ee","system_id":"levelo_inurba_marseille","lat":43.290321,"lon":5.386379,"is_reserved":false,"is_disabled":false,"rental_uris":{"android":"levelo://app?vid=56118c5b-a7b2-448d-9e9f-37905a3f02ee","ios":"levelo://app?vid=56118c5b-a7b2-448d-9e9f-37905a3f02ee"},"vehicle_type_id":"4","last_reported":1748646612,"current_range_meters":16000,"station_id":"ce4bh4p2rcd13ifvqe0g","pricing_plan_id":"cebpf4jnsgd1na2vs0mg"},{"bike_id":"2f747aae-f80c-4a71-bd26-dd2606d63733","system_id":"levelo_inurba_marseille","lat":43.27072,"lon":5.42268,"is_reserved":false,"is_disabled":false,"rental_uris":{"android":"levelo://app?vid=2f747aae-f80c-4a71-bd26-dd2606d63733","ios":"levelo://app?vid=2f747aae-f80c-4a71-bd26-dd2606d63733"},"vehicle_type_id":"4","last_reported":1748646612,"current_range_meters":16000,"station_id":"ce4bhk92rcd13ifvqgb0","pricing_plan_id":"cebpf4jnsgd1na2vs0mg"},{"bike_id":"d8af0821-bc5d-459f-b24d-bbfca9521714","system_id":"levelo_inurba_marseille","lat":43.24183,"lon":5.39722,"is_reserved":false,"is_disabled":false,"rental_uris":{"android":"levelo://app?vid=d8af0821-bc5d-459f-b24d-bbfca9521714","ios":"levelo://app?vid=d8af0821-bc5d-459f-b24d-bbfca9521714"},"vehicle_type_id":"4","last_reported":1748646612,"current_range_meters":16000,"station_id":"ce4bhn12rcd13ifvqgpg","pricing_plan_id":"cebpf4jnsgd1na2vs0mg"},{"bike_id":"10cccf0e-5e24-4b75-8e4f-e089b2d3e656","system_id":"levelo_inurba_marseille","lat":43.23181,"lon":5.39988,"is_reserved":false,"is_disabled":false,"rental_uris":{"android":"levelo://app?vid=10cccf0e-5e24-4b75-8e4f-e089b2d3e656","ios":"levelo://app?vid=10cccf0e-5e24-4b75-8e4f-e089b2d3e656"},"vehicle_type_id":"4","last_reported":1748646612,"current_range_meters":16000,"station_id":"ce4bhn12rcd13ifvqgqg","pricing_plan_id":"cebpf4jnsgd1na2vs0mg"},{"bike_id":"5ecdc42c-d8ed-400b-8881-e9901a78449d","system_id":"levelo_inurba_marseille","lat":43.28,"lon":5.40007,"is_reserved":false,"is_disabled":false,"rental_uris":{"android":"levelo://app?vid=5ecdc42c-d8ed-400b-8881-e9901a78449d","ios":"levelo://app?vid=5ecdc42c-d8ed-400b-8881-e9901a78449d"},"vehicle_type_id":"4","last_reported":1748646612,"current_range_meters":16000,"station_id":"ce4bho92rcd13ifvqh4g","pricing_plan_id":"cebpf4jnsgd1na2vs0mg"},{"bike_id":"a1afee0d-636a-4145-8e38-9b2384426a66","system_id":"levelo_inurba_marseille","lat":43.322861,"lon":5.382748,"is_reserved":false,"is_disabled":false,"rental_uris":{"android":"levelo://app?vid=a1afee0d-636a-4145-8e38-9b2384426a66","ios":"levelo://app?vid=a1afee0d-636a-4145-8e38-9b2384426a66"},"vehicle_type_id":"4","last_reported":1748646612,"current_range_meters":16000,"station_id":"ce4bhr12rcd13ifvqhqg","pricing_plan_id":"cebpf4jnsgd1na2vs0mg"},{"bike_id":"14036455-f919-44f7-8d5e-0b2e84f48674","system_id":"levelo_inurba_marseille","lat":43.309269,"lon":5.403823,"is_reserved":false,"is_disabled":false,"rental_uris":{"android":"levelo://app?vid=14036455-f919-44f7-8d5e-0b2e84f48674","ios":"levelo://app?vid=14036455-f919-44f7-8d5e-0b2e84f48674"},"vehicle_type_id":"4","last_reported":1748646612,"current_range_meters":16400,"station_id":"","pricing_plan_id":"cebpf4jnsgd1na2vs0mg"},{"bike_id":"9d1f9ca0-3fd8-4611-97b9-796f04de726d","system_id":"levelo_inurba_marseille","lat":43.295916,"lon":5.381056,"is_reserved":false,"is_disabled":false,"rental_uris":{"android":"levelo://app?vid=9d1f9ca0-3fd8-4611-97b9-796f04de726d","ios":"levelo://app?vid=9d1f9ca0-3fd8-4611-97b9-796f04de726d"},"vehicle_type_id":"4","last_reported":1748646612,"current_range_meters":16400,"station_id":"ce4bgl12rcd13ifvqbo0","pricing_plan_id":"cebpf4jnsgd1na2vs0mg"},{"bike_id":"0a2aa0a3-8994-4921-90a8-560f5e55f68b","system_id":"levelo_inurba_marseille","lat":43.31329,"lon":5.39692,"is_reserved":false,"is_disabled":false,"rental_uris":{"android":"levelo://app?vid=0a2aa0a3-8994-4921-90a8-560f5e55f68b","ios":"levelo://app?vid=0a2aa0a3-8994-4921-90a8-560f5e55f68b"},"vehicle_type_id":"4","last_reported":1748646612,"current_range_meters":16400,"station_id":"ce4bgvp2rcd13ifvqcu0","pricing_plan_id":"cebpf4jnsgd1na2vs0mg"},{"bike_id":"6d124d95-f742-4290-a21c-82bdce902901","system_id":"levelo_inurba_marseille","lat":43.31691,"lon":5.40466,"is_reserved":false,"is_disabled":false,"rental_uris":{"android":"levelo://app?vid=6d124d95-f742-4290-a21c-82bdce902901","ios":"levelo://app?vid=6d124d95-f742-4290-a21c-82bdce902901"},"vehicle_type_id":"4","last_reported":1748646612,"current_range_meters":16400,"station_id":"ce4bh012rcd13ifvqd00","pricing_plan_id":"cebpf4jnsgd1na2vs0mg"},{"bike_id":"d679d021-6fc3-4bb4-8b78-a53a662213dd","system_id":"levelo_inurba_marseille","lat":43.296482,"lon":5.405827,"is_reserved":false,"is_disabled":false,"rental_uris":{"android":"levelo://app?vid=d679d021-6fc3-4bb4-8b78-a53a662213dd","ios":"levelo://app?vid=d679d021-6fc3-4bb4-8b78-a53a662213dd"},"vehicle_type_id":"4","last_reported":1748646612,"current_range_meters":16400,"station_id":"ce4bh0h2rcd13ifvqd60","pricing_plan_id":"cebpf4jnsgd1na2vs0mg"},{"bike_id":"2faffdac-1f04-4e1e-a370-25f75ef84a57","system_id":"levelo_inurba_marseille","lat":43.288285,"lon":5.393275,"is_reserved":false,"is_disabled":false,"rental_uris":{"android":"levelo://app?vid=2faffdac-1f04-4e1e-a370-25f75ef84a57","ios":"levelo://app?vid=2faffdac-1f04-4e1e-a370-25f75ef84a57"},"vehicle_type_id":"4","last_reported":1748646612,"current_range_meters":16400,"station_id":"ce4bh2p2rcd13ifvqdi0","pricing_plan_id":"cebpf4jnsgd1na2vs0mg"},{"bike_id":"c2319c95-523a-4385-a540-a2f6322d592b","system_id":"levelo_inurba_marseille","lat":43.27826,"lon":5.39201,"is_reserved":false,"is_disabled":false,"rental_uris":{"android":"levelo://app?vid=c2319c95-523a-4385-a540-a2f6322d592b","ios":"levelo://app?vid=c2319c95-523a-4385-a540-a2f6322d592b"},"vehicle_type_id":"4","last_reported":1748646612,"current_range_meters":16400,"station_id":"ce4bhjp2rcd13ifvqga0","pricing_plan_id":"cebpf4jnsgd1na2vs0mg"},{"bike_id":"99586cd6-a2a0-47d9-ab46-a364f046973a","system_id":"levelo_inurba_marseille","lat":43.25102,"lon":5.40337,"is_reserved":false,"is_disabled":false,"rental_uris":{"android":"levelo://app?vid=99586cd6-a2a0-47d9-ab46-a364f046973a","ios":"levelo://app?vid=99586cd6-a2a0-47d9-ab46-a364f046973a"},"vehicle_type_id":"4","last_reported":1748646612,"current_range_meters":16400,"station_id":"ce4bhlh2rcd13ifvqgig","pricing_plan_id":"cebpf4jnsgd1na2vs0mg"},{"bike_id":"a71dc80a-1481-49c2-8742-137342881992","system_id":"levelo_inurba_marseille","lat":43.30423,"lon":5.38887,"is_reserved":false,"is_disabled":false,"rental_uris":{"android":"levelo://app?vid=a71dc80a-1481-49c2-8742-137342881992","ios":"levelo://app?vid=a71dc80a-1481-49c2-8742-137342881992"},"vehicle_type_id":"4","last_reported":1748646612,"current_range_meters":16800,"station_id":"ce4bgk12rcd13ifvqbi0","pricing_plan_id":"cebpf4jnsgd1na2vs0mg"},{"bike_id":"22f5aae2-d15f-4462-8244-e7aecc43ce24","system_id":"levelo_inurba_marseille","lat":43.29841,"lon":5.36274,"is_reserved":false,"is_disabled":false,"rental_uris":{"android":"levelo://app?vid=22f5aae2-d15f-4462-8244-e7aecc43ce24","ios":"levelo://app?vid=22f5aae2-d15f-4462-8244-e7aecc43ce24"},"vehicle_type_id":"4","last_reported":1748646612,"current_range_meters":16800,"station_id":"ce4bgpp2rcd13ifvqc3g","pricing_plan_id":"cebpf4jnsgd1na2vs0mg"},{"bike_id":"1a5606d3-72d6-43e9-9df5-cf6b97fd8241","system_id":"levelo_inurba_marseille","lat":43.30227,"lon":5.40046,"is_reserved":false,"is_disabled":false,"rental_uris":{"android":"levelo://app?vid=1a5606d3-72d6-43e9-9df5-cf6b97fd8241","ios":"levelo://app?vid=1a5606d3-72d6-43e9-9df5-cf6b97fd8241"},"vehicle_type_id":"4","last_reported":1748646612,"current_range_meters":16800,"station_id":"ce4bgvh2rcd13ifvqcs0","pricing_plan_id":"cebpf4jnsgd1na2vs0mg"},{"bike_id":"1e8010d4-4b27-40f4-beda-3cd1e8331b0d","system_id":"levelo_inurba_marseille","lat":43.29418,"lon":5.38622,"is_reserved":false,"is_disabled":false,"rental_uris":{"android":"levelo://app?vid=1e8010d4-4b27-40f4-beda-3cd1e8331b0d","ios":"levelo://app?vid=1e8010d4-4b27-40f4-beda-3cd1e8331b0d"},"vehicle_type_id":"4","last_reported":1748646612,"current_range_meters":16800,"station_id":"ce4bh2h2rcd13ifvqdh0","pricing_plan_id":"cebpf4jnsgd1na2vs0mg"},{"bike_id":"0b34a079-4487-446b-aa3f-119146acd793","system_id":"levelo_inurba_marseille","lat":43.28469,"lon":5.38413,"is_reserved":false,"is_disabled":false,"rental_uris":{"android":"levelo://app?vid=0b34a079-4487-446b-aa3f-119146acd793","ios":"levelo://app?vid=0b34a079-4487-446b-aa3f-119146acd793"},"vehicle_type_id":"4","last_reported":1748646612,"current_range_meters":16800,"station_id":"ce4bh512rcd13ifvqe3g","pricing_plan_id":"cebpf4jnsgd1na2vs0mg"},{"bike_id":"d25eee86-f18a-4c93-bff9-5b35403151e8","system_id":"levelo_inurba_marseille","lat":43.292564,"lon":5.384327,"is_reserved":false,"is_disabled":false,"rental_uris":{"android":"levelo://app?vid=d25eee86-f18a-4c93-bff9-5b35403151e8","ios":"levelo://app?vid=d25eee86-f18a-4c93-bff9-5b35403151e8"},"vehicle_type_id":"4","last_reported":1748646612,"current_range_meters":16800,"station_id":"ce4bh692rcd13ifvqea0","pricing_plan_id":"cebpf4jnsgd1na2vs0mg"},{"bike_id":"7d1d2ae1-476b-4932-9f30-3d39cb408268","system_id":"levelo_inurba_marseille","lat":43.292569,"lon":5.384325,"is_reserved":false,"is_disabled":false,"rental_uris":{"android":"levelo://app?vid=7d1d2ae1-476b-4932-9f30-3d39cb408268","ios":"levelo://app?vid=7d1d2ae1-476b-4932-9f30-3d39cb408268"},"vehicle_type_id":"4","last_reported":1748646612,"current_range_meters":16800,"station_id":"ce4bh692rcd13ifvqea0","pricing_plan_id":"cebpf4jnsgd1na2vs0mg"},{"bike_id":"1513e768-a97c-46ed-8b37-3cfea95c9531","system_id":"levelo_inurba_marseille","lat":43.26545,"lon":5.3729,"is_reserved":false,"is_disabled":false,"rental_uris":{"android":"levelo://app?vid=1513e768-a97c-46ed-8b37-3cfea95c9531","ios":"levelo://app?vid=1513e768-a97c-46ed-8b37-3cfea95c9531"},"vehicle_type_id":"4","last_reported":1748646612,"current_range_meters":16800,"station_id":"ce4bhg12rcd13ifvqf70","pricing_plan_id":"cebpf4jnsgd1na2vs0mg"},{"bike_id":"a203cef1-97cb-47f9-9ab1-78869ad668ec","system_id":"levelo_inurba_marseille","lat":43.24364,"lon":5.37049,"is_reserved":false,"is_disabled":false,"rental_uris":{"android":"levelo://app?vid=a203cef1-97cb-47f9-9ab1-78869ad668ec","ios":"levelo://app?vid=a203cef1-97cb-47f9-9ab1-78869ad668ec"},"vehicle_type_id":"4","last_reported":1748646612,"current_range_meters":16800,"station_id":"ce4bhhh2rcd13ifvqfk0","pricing_plan_id":"cebpf4jnsgd1na2vs0mg"},{"bike_id":"00d2652e-ee56-49fe-b48e-60a4e8648877","system_id":"levelo_inurba_marseille","lat":43.26214,"lon":5.37898,"is_reserved":false,"is_disabled":false,"rental_uris":{"android":"levelo://app?vid=00d2652e-ee56-49fe-b48e-60a4e8648877","ios":"levelo://app?vid=00d2652e-ee56-49fe-b48e-60a4e8648877"},"vehicle_type_id":"4","last_reported":1748646612,"current_range_meters":16800,"station_id":"ce4bhjp2rcd13ifvqg90","pricing_plan_id":"cebpf4jnsgd1na2vs0mg"},{"bike_id":"e2ae118e-d72e-4689-8ce8-ded84aed50bd","system_id":"levelo_inurba_marseille","lat":43.27836,"lon":5.39213,"is_reserved":false,"is_disabled":false,"rental_uris":{"android":"levelo://app?vid=e2ae118e-d72e-4689-8ce8-ded84aed50bd","ios":"levelo://app?vid=e2ae118e-d72e-4689-8ce8-ded84aed50bd"},"vehicle_type_id":"4","last_reported":1748646612,"current_range_meters":16800,"station_id":"ce4bhjp2rcd13ifvqga0","pricing_plan_id":"cebpf4jnsgd1na2vs0mg"},{"bike_id":"348ddc31-f232-46b0-bbef-5931b86212cf","system_id":"levelo_inurba_marseille","lat":43.24172,"lon":5.39736,"is_reserved":false,"is_disabled":false,"rental_uris":{"android":"levelo://app?vid=348ddc31-f232-46b0-bbef-5931b86212cf","ios":"levelo://app?vid=348ddc31-f232-46b0-bbef-5931b86212cf"},"vehicle_type_id":"4","last_reported":1748646612,"current_range_meters":16800,"station_id":"ce4bhn12rcd13ifvqgpg","pricing_plan_id":"cebpf4jnsgd1na2vs0mg"},{"bike_id":"f5c92089-c385-41e8-bd22-786c20787e82","system_id":"levelo_inurba_marseille","lat":43.27934,"lon":5.41051,"is_reserved":false,"is_disabled":false,"rental_uris":{"android":"levelo://app?vid=f5c92089-c385-41e8-bd22-786c20787e82","ios":"levelo://app?vid=f5c92089-c385-41e8-bd22-786c20787e82"},"vehicle_type_id":"4","last_reported":1748646612,"current_range_meters":16800,"station_id":"ce4bhnp2rcd13ifvqh0g","pricing_plan_id":"cebpf4jnsgd1na2vs0mg"},{"bike_id":"3684317d-8c7d-4406-83d3-99a336dbaba1","system_id":"levelo_inurba_marseille","lat":43.27948,"lon":5.41014,"is_reserved":false,"is_disabled":false,"rental_uris":{"android":"levelo://app?vid=3684317d-8c7d-4406-83d3-99a336dbaba1","ios":"levelo://app?vid=3684317d-8c7d-4406-83d3-99a336dbaba1"},"vehicle_type_id":"4","last_reported":1748646612,"current_range_meters":16800,"station_id":"ce4bhnp2rcd13ifvqh0g","pricing_plan_id":"cebpf4jnsgd1na2vs0mg"},{"bike_id":"3de55df9-7d7b-4304-b06e-95e8f06b7b5d","system_id":"levelo_inurba_marseille","lat":43.298103,"lon":5.380843,"is_reserved":false,"is_disabled":false,"rental_uris":{"android":"levelo://app?vid=3de55df9-7d7b-4304-b06e-95e8f06b7b5d","ios":"levelo://app?vid=3de55df9-7d7b-4304-b06e-95e8f06b7b5d"},"vehicle_type_id":"4","last_reported":1748646612,"current_range_meters":17200,"station_id":"ce4bgip2rcd13ifvqbb0","pricing_plan_id":"cebpf4jnsgd1na2vs0mg"},{"bike_id":"efbb20b2-ef8f-4710-887a-5e8c6211a8aa","system_id":"levelo_inurba_marseille","lat":43.29436,"lon":5.39747,"is_reserved":false,"is_disabled":false,"rental_uris":{"android":"levelo://app?vid=efbb20b2-ef8f-4710-887a-5e8c6211a8aa","ios":"levelo://app?vid=efbb20b2-ef8f-4710-887a-5e8c6211a8aa"},"vehicle_type_id":"4","last_reported":1748646612,"current_range_meters":17200,"station_id":"ce4bh3h2rcd13ifvqdo0","pricing_plan_id":"cebpf4jnsgd1na2vs0mg"},{"bike_id":"480f043b-d440-4de0-ad40-c9601fac61aa","system_id":"levelo_inurba_marseille","lat":43.27906,"lon":5.39574,"is_reserved":false,"is_disabled":false,"rental_uris":{"android":"levelo://app?vid=480f043b-d440-4de0-ad40-c9601fac61aa","ios":"levelo://app?vid=480f043b-d440-4de0-ad40-c9601fac61aa"},"vehicle_type_id":"4","last_reported":1748646612,"current_range_meters":17200,"station_id":"ce4bhf92rcd13ifvqf40","pricing_plan_id":"cebpf4jnsgd1na2vs0mg"},{"bike_id":"12e5b650-6721-47fc-bca9-139993e2375f","system_id":"levelo_inurba_marseille","lat":43.27837,"lon":5.39203,"is_reserved":false,"is_disabled":false,"rental_uris":{"android":"levelo://app?vid=12e5b650-6721-47fc-bca9-139993e2375f","ios":"levelo://app?vid=12e5b650-6721-47fc-bca9-139993e2375f"},"vehicle_type_id":"4","last_reported":1748646612,"current_range_meters":17200,"station_id":"ce4bhjp2rcd13ifvqga0","pricing_plan_id":"cebpf4jnsgd1na2vs0mg"},{"bike_id":"a42fa4ef-7f0b-45c0-b98c-7dbb87b8e482","system_id":"levelo_inurba_marseille","lat":43.281547,"lon":5.426421,"is_reserved":false,"is_disabled":false,"rental_uris":{"android":"levelo://app?vid=a42fa4ef-7f0b-45c0-b98c-7dbb87b8e482","ios":"levelo://app?vid=a42fa4ef-7f0b-45c0-b98c-7dbb87b8e482"},"vehicle_type_id":"4","last_reported":1748646612,"current_range_meters":17200,"station_id":"ce4bhnh2rcd13ifvqgug","pricing_plan_id":"cebpf4jnsgd1na2vs0mg"},{"bike_id":"1f72df3b-3eb6-4e22-98b3-16e8c40786d5","system_id":"levelo_inurba_marseille","lat":43.2407,"lon":5.37767,"is_reserved":false,"is_disabled":false,"rental_uris":{"android":"levelo://app?vid=1f72df3b-3eb6-4e22-98b3-16e8c40786d5","ios":"levelo://app?vid=1f72df3b-3eb6-4e22-98b3-16e8c40786d5"},"vehicle_type_id":"4","last_reported":1748646612,"current_range_meters":17200,"station_id":"ce4bhnp2rcd13ifvqgvg","pricing_plan_id":"cebpf4jnsgd1na2vs0mg"},{"bike_id":"bbb06921-e716-4ace-a092-eccc1bcc3204","system_id":"levelo_inurba_marseille","lat":43.312984,"lon":5.38274,"is_reserved":false,"is_disabled":false,"rental_uris":{"android":"levelo://app?vid=bbb06921-e716-4ace-a092-eccc1bcc3204","ios":"levelo://app?vid=bbb06921-e716-4ace-a092-eccc1bcc3204"},"vehicle_type_id":"4","last_reported":1748646612,"current_range_meters":17600,"station_id":"","pricing_plan_id":"cebpf4jnsgd1na2vs0mg"},{"bike_id":"21784205-f144-4b4d-921a-765ac0dfbf97","system_id":"levelo_inurba_marseille","lat":43.34818,"lon":5.348503,"is_reserved":false,"is_disabled":false,"rental_uris":{"android":"levelo://app?vid=21784205-f144-4b4d-921a-765ac0dfbf97","ios":"levelo://app?vid=21784205-f144-4b4d-921a-765ac0dfbf97"},"vehicle_type_id":"4","last_reported":1748646612,"current_range_meters":17600,"station_id":"","pricing_plan_id":"cebpf4jnsgd1na2vs0mg"},{"bike_id":"3be90e5d-3582-47cf-9bc4-418a10eb1171","system_id":"levelo_inurba_marseille","lat":43.2798,"lon":5.38732,"is_reserved":false,"is_disabled":false,"rental_uris":{"android":"levelo://app?vid=3be90e5d-3582-47cf-9bc4-418a10eb1171","ios":"levelo://app?vid=3be90e5d-3582-47cf-9bc4-418a10eb1171"},"vehicle_type_id":"4","last_reported":1748646612,"current_range_meters":17600,"station_id":"ce4bhg12rcd13ifvqf80","pricing_plan_id":"cebpf4jnsgd1na2vs0mg"},{"bike_id":"093bbd9a-3376-4f5e-8a41-7cc8b8b4e4b7","system_id":"levelo_inurba_marseille","lat":43.251234,"lon":5.403039,"is_reserved":false,"is_disabled":false,"rental_uris":{"android":"levelo://app?vid=093bbd9a-3376-4f5e-8a41-7cc8b8b4e4b7","ios":"levelo://app?vid=093bbd9a-3376-4f5e-8a41-7cc8b8b4e4b7"},"vehicle_type_id":"4","last_reported":1748646612,"current_range_meters":17600,"station_id":"ce4bhlh2rcd13ifvqgig","pricing_plan_id":"cebpf4jnsgd1na2vs0mg"},{"bike_id":"9a87b717-f8e2-4016-bc78-03583a62a953","system_id":"levelo_inurba_marseille","lat":43.26561,"lon":5.40327,"is_reserved":false,"is_disabled":false,"rental_uris":{"android":"levelo://app?vid=9a87b717-f8e2-4016-bc78-03583a62a953","ios":"levelo://app?vid=9a87b717-f8e2-4016-bc78-03583a62a953"},"vehicle_type_id":"4","last_reported":1748646612,"current_range_meters":18000,"station_id":"","pricing_plan_id":"cebpf4jnsgd1na2vs0mg"},{"bike_id":"f9a67ab5-afc2-4078-a040-ba7f6f08e52f","system_id":"levelo_inurba_marseille","lat":43.3031,"lon":5.36903,"is_reserved":false,"is_disabled":false,"rental_uris":{"android":"levelo://app?vid=f9a67ab5-afc2-4078-a040-ba7f6f08e52f","ios":"levelo://app?vid=f9a67ab5-afc2-4078-a040-ba7f6f08e52f"},"vehicle_type_id":"4","last_reported":1748646612,"current_range_meters":18000,"station_id":"ce4bgqh2rcd13ifvqc5g","pricing_plan_id":"cebpf4jnsgd1na2vs0mg"},{"bike_id":"bcbbe9e8-dbf7-4e1d-8071-c5eed199d5d0","system_id":"levelo_inurba_marseille","lat":43.30322,"lon":5.40444,"is_reserved":false,"is_disabled":false,"rental_uris":{"android":"levelo://app?vid=bcbbe9e8-dbf7-4e1d-8071-c5eed199d5d0","ios":"levelo://app?vid=bcbbe9e8-dbf7-4e1d-8071-c5eed199d5d0"},"vehicle_type_id":"4","last_reported":1748646612,"current_range_meters":18000,"station_id":"ce4bh012rcd13ifvqd10","pricing_plan_id":"cebpf4jnsgd1na2vs0mg"},{"bike_id":"1282c482-d4f9-4fef-9f87-d7b89147c74a","system_id":"levelo_inurba_marseille","lat":43.29428,"lon":5.38637,"is_reserved":false,"is_disabled":false,"rental_uris":{"android":"levelo://app?vid=1282c482-d4f9-4fef-9f87-d7b89147c74a","ios":"levelo://app?vid=1282c482-d4f9-4fef-9f87-d7b89147c74a"},"vehicle_type_id":"4","last_reported":1748646612,"current_range_meters":18000,"station_id":"ce4bh2h2rcd13ifvqdh0","pricing_plan_id":"cebpf4jnsgd1na2vs0mg"},{"bike_id":"716a2310-8de8-4c37-83e1-85fc28389444","system_id":"levelo_inurba_marseille","lat":43.27913,"lon":5.39578,"is_reserved":false,"is_disabled":false,"rental_uris":{"android":"levelo://app?vid=716a2310-8de8-4c37-83e1-85fc28389444","ios":"levelo://app?vid=716a2310-8de8-4c37-83e1-85fc28389444"},"vehicle_type_id":"4","last_reported":1748646612,"current_range_meters":18000,"station_id":"ce4bhf92rcd13ifvqf40","pricing_plan_id":"cebpf4jnsgd1na2vs0mg"},{"bike_id":"98ec307e-7ec1-4c12-8327-791809e3259d","system_id":"levelo_inurba_marseille","lat":43.27829,"lon":5.39211,"is_reserved":false,"is_disabled":false,"rental_uris":{"android":"levelo://app?vid=98ec307e-7ec1-4c12-8327-791809e3259d","ios":"levelo://app?vid=98ec307e-7ec1-4c12-8327-791809e3259d"},"vehicle_type_id":"4","last_reported":1748646612,"current_range_meters":18000,"station_id":"ce4bhjp2rcd13ifvqga0","pricing_plan_id":"cebpf4jnsgd1na2vs0mg"},{"bike_id":"994be79d-a7d1-407a-9bca-5ea2367bc9d2","system_id":"levelo_inurba_marseille","lat":43.28715,"lon":5.36089,"is_reserved":false,"is_disabled":false,"rental_uris":{"android":"levelo://app?vid=994be79d-a7d1-407a-9bca-5ea2367bc9d2","ios":"levelo://app?vid=994be79d-a7d1-407a-9bca-5ea2367bc9d2"},"vehicle_type_id":"4","last_reported":1748646612,"current_range_meters":18000,"station_id":"cki0cbj6b192h4jlfktg","pricing_plan_id":"cebpf4jnsgd1na2vs0mg"},{"bike_id":"9a189ee8-27ed-444b-b171-f705371af28f","system_id":"levelo_inurba_marseille","lat":43.28247,"lon":5.34892,"is_reserved":false,"is_disabled":false,"rental_uris":{"android":"levelo://app?vid=9a189ee8-27ed-444b-b171-f705371af28f","ios":"levelo://app?vid=9a189ee8-27ed-444b-b171-f705371af28f"},