{"last_updated":1693436752,"ttl":30,"version":"2.2","data":{"bikes":[{"bike_id":"232fd58e-e48b-4be5-a8ab-08ff7edc0fcd","system_id":"levelo_inurba_marseille","lat":43.314811,"lon":5.373103,"is_reserved":false,"is_disabled":false,"rental_uris":{"android":"levelo://app?vid=232fd58e-e48b-4be5-a8ab-08ff7edc0fcd","ios":"levelo://app?vid=232fd58e-e48b-4be5-a8ab-08ff7edc0fcd"},"vehicle_type_id":"4","last_reported":1693436753,"current_range_meters":26000,"station_id":"ce4bgt12rcd13ifvqcd0","pricing_plan_id":"free"},{"bike_id":"909a6da6-395b-4f21-8779-b6cd25fe25fb","system_id":"levelo_inurba_marseille","lat":43.314811,"lon":5.373103,"is_reserved":false,"is_disabled":false,"rental_uris":{"android":"levelo://app?vid=909a6da6-395b-4f21-8779-b6cd25fe25fb","ios":"levelo://app?vid=909a6da6-395b-4f21-8779-b6cd25fe25fb"},"vehicle_type_id":"4","last_reported":1693436753,"current_range_meters":26400,"station_id":"ce4bgt12rcd13ifvqcd0","pricing_plan_id":"free"},{"bike_id":"d2be997d-44d2-40a5-bb20-02aeaaf65fa5","system_id":"levelo_inurba_marseille","lat":43.314811,"lon":5.373104,"is_reserved":false,"is_disabled":false,"rental_uris":{"android":"levelo://app?vid=d2be997d-44d2-40a5-bb20-02aeaaf65fa5","ios":"levelo://app?vid=d2be997d-44d2-40a5-bb20-02aeaaf65fa5"},"vehicle_type_id":"4","last_reported":1693436753,"current_range_meters":31600,"station_id":"ce4bgt12rcd13ifvqcd0","pricing_plan_id":"free"},{"bike_id":"4545ef08-4ae8-4435-96fe-55f14382ae40","system_id":"levelo_inurba_marseille","lat":43.314811,"lon":5.373103,"is_reserved":false,"is_disabled":false,"rental_uris":{"android":"levelo://app?vid=4545ef08-4ae8-4435-96fe-55f14382ae40","ios":"levelo://app?vid=4545ef08-4ae8-4435-96fe-55f14382ae40"},"vehicle_type_id":"4","last_reported":1693436753,"current_range_meters":7200,"station_id":"ce4bgt12rcd13ifvqcd0","pricing_plan_id":"free"},{"bike_id":"c4aeee3a-3fce-4c10-918c-4126d36401f8","system_id":"levelo_inurba_marseille","lat":43.314811,"lon":5.373103,"is_reserved":false,"is_disabled":false,"rental_uris":{"android":"levelo://app?vid=c4aeee3a-3fce-4c10-918c-4126d36401f8","ios":"levelo://app?vid=c4aeee3a-3fce-4c10-918c-4126d36401f8"},"vehicle_type_id":"4","last_reported":1693436753,"current_range_meters":24400,"station_id":"ce4bgt12rcd13ifvqcd0","pricing_plan_id":"free"},{"bike_id":"89885646-7dce-4cb2-96be-c5b694110dec","system_id":"levelo_inurba_marseille","lat":43.314811,"lon":5.373104,"is_reserved":false,"is_disabled":false,"rental_uris":{"android":"levelo://app?vid=89885646-7dce-4cb2-96be-c5b694110dec","ios":"levelo://app?vid=89885646-7dce-4cb2-96be-c5b694110dec"},"vehicle_type_id":"4","last_reported":1693436753,"current_range_meters":31200,"station_id":"ce4bgt12rcd13ifvqcd0","pricing_plan_id":"free"},{"bike_id":"1b67c926-66b8-481f-b6c5-e4e97b5d1e14","system_id":"levelo_inurba_marseille","lat":43.314811,"lon":5.373103,"is_reserved":false,"is_disabled":false,"rental_uris":{"android":"levelo://app?vid=1b67c926-66b8-481f-b6c5-e4e97b5d1e14","ios":"levelo://app?vid=1b67c926-66b8-481f-b6c5-e4e97b5d1e14"},"vehicle_type_id":"4","last_reported":1693436753,"current_range_meters":31200,"station_id":"ce4bgt12rcd13ifvqcd0","pricing_plan_id":"free"},{"bike_id":"d6e255a2-ce07-4ed4-8864-94e49da4d957","system_id":"levelo_inurba_marseille","lat":43.314811,"lon":5.373103,"is_reserved":false,"is_disabled":false,"rental_uris":{"android":"levelo://app?vid=d6e255a2-ce07-4ed4-8864-94e49da4d957","ios":"levelo://app?vid=d6e255a2-ce07-4ed4-8864-94e49da4d957"},"vehicle_type_id":"4","last_reported":1693436753,"current_range_meters":30400,"station_id":"ce4bgt12rcd13ifvqcd0","pricing_plan_id":"free"},{"bike_id":"4601a44f-1c59-49e2-8606-436388f876ae","system_id":"levelo_inurba_marseille","lat":43.314811,"lon":5.373104,"is_reserved":false,"is_disabled":false,"rental_uris":{"android":"levelo://app?vid=4601a44f-1c59-49e2-8606-436388f876ae","ios":"levelo://app?vid=4601a44f-1c59-49e2-8606-436388f876ae"},"vehicle_type_id":"4","last_reported":1693436753,"current_range_meters":26400,"station_id":"ce4bgt12rcd13ifvqcd0","pricing_plan_id":"free"},{"bike_id":"ca4bb02c-e8cd-4638-ac02-96a272310b05","system_id":"levelo_inurba_marseille","lat":43.30902,"lon":5.37197,"is_reserved":false,"is_disabled":false,"rental_uris":{"android":"levelo://app?vid=ca4bb02c-e8cd-4638-ac02-96a272310b05","ios":"levelo://app?vid=ca4bb02c-e8cd-4638-ac02-96a272310b05"},"vehicle_type_id":"4","last_reported":1693436753,"current_range_meters":0,"station_id":"ce4bguh2rcd13ifvqckg","pricing_plan_id":"free"},{"bike_id":"bc3fd639-a164-4412-abc9-9c05cdc09b28","system_id":"levelo_inurba_marseille","lat":43.309039,"lon":5.371797,"is_reserved":false,"is_disabled":false,"rental_uris":{"android":"levelo://app?vid=bc3fd639-a164-4412-abc9-9c05cdc09b28","ios":"levelo://app?vid=bc3fd639-a164-4412-abc9-9c05cdc09b28"},"vehicle_type_id":"4","last_reported":1693436753,"current_range_meters":16400,"station_id":"ce4bguh2rcd13ifvqckg","pricing_plan_id":"free"},{"bike_id":"65749c36-8409-4b4f-b998-2a0ee35ff955","system_id":"levelo_inurba_marseille","lat":43.30619,"lon":5.37273,"is_reserved":false,"is_disabled":false,"rental_uris":{"android":"levelo://app?vid=65749c36-8409-4b4f-b998-2a0ee35ff955","ios":"levelo://app?vid=65749c36-8409-4b4f-b998-2a0ee35ff955"},"vehicle_type_id":"4","last_reported":1693436753,"current_range_meters":1600,"station_id":"","pricing_plan_id":"free"},{"bike_id":"b1670387-3cc7-4328-b01e-282294db5d8b","system_id":"levelo_inurba_marseille","lat":43.311131,"lon":5.377651,"is_reserved":false,"is_disabled":false,"rental_uris":{"android":"levelo://app?vid=b1670387-3cc7-4328-b01e-282294db5d8b","ios":"levelo://app?vid=b1670387-3cc7-4328-b01e-282294db5d8b"},"vehicle_type_id":"4","last_reported":1693436753,"current_range_meters":24000,"station_id":"ce4bgt92rcd13ifvqcg0","pricing_plan_id":"free"},{"bike_id":"3a29ff44-668e-4bf4-8d96-9b96dd4e0431","system_id":"levelo_inurba_marseille","lat":43.305989,"lon":5.37225,"is_reserved":false,"is_disabled":false,"rental_uris":{"android":"levelo://app?vid=3a29ff44-668e-4bf4-8d96-9b96dd4e0431","ios":"levelo://app?vid=3a29ff44-668e-4bf4-8d96-9b96dd4e0431"},"vehicle_type_id":"4","last_reported":1693436753,"current_range_meters":0,"station_id":"ce4bgqh2rcd13ifvqc4g","pricing_plan_id":"free"},{"bike_id":"df81cdfb-0d71-4c81-9688-37ddcc56df2d","system_id":"levelo_inurba_marseille","lat":43.311131,"lon":5.377651,"is_reserved":false,"is_disabled":false,"rental_uris":{"android":"levelo://app?vid=df81cdfb-0d71-4c81-9688-37ddcc56df2d","ios":"levelo://app?vid=df81cdfb-0d71-4c81-9688-37ddcc56df2d"},"vehicle_type_id":"4","last_reported":1693436753,"current_range_meters":27600,"station_id":"ce4bgt92rcd13ifvqcg0","pricing_plan_id":"free"},{"bike_id":"4e70cbf0-399d-45f1-84f3-005d7ba9b194","system_id":"levelo_inurba_marseille","lat":43.311125,"lon":5.377624,"is_reserved":false,"is_disabled":false,"rental_uris":{"android":"levelo://app?vid=4e70cbf0-399d-45f1-84f3-005d7ba9b194","ios":"levelo://app?vid=4e70cbf0-399d-45f1-84f3-005d7ba9b194"},"vehicle_type_id":"4","last_reported":1693436753,"current_range_meters":2400,"station_id":"ce4bgt92rcd13ifvqcg0","pricing_plan_id":"free"},{"bike_id":"203fbd9d-f1d5-4bd1-bcfb-f8b506236419","system_id":"levelo_inurba_marseille","lat":43.311131,"lon":5.377651,"is_reserved":false,"is_disabled":false,"rental_uris":{"android":"levelo://app?vid=203fbd9d-f1d5-4bd1-bcfb-f8b506236419","ios":"levelo://app?vid=203fbd9d-f1d5-4bd1-bcfb-f8b506236419"},"vehicle_type_id":"4","last_reported":1693436753,"current_range_meters":31200,"station_id":"ce4bgt92rcd13ifvqcg0","pricing_plan_id":"free"},{"bike_id":"6d577261-eef6-4e71-8251-afee62f66935","system_id":"levelo_inurba_marseille","lat":43.311125,"lon":5.377624,"is_reserved":false,"is_disabled":false,"rental_uris":{"android":"levelo://app?vid=6d577261-eef6-4e71-8251-afee62f66935","ios":"levelo://app?vid=6d577261-eef6-4e71-8251-afee62f66935"},"vehicle_type_id":"4","last_reported":1693436753,"current_range_meters":22000,"station_id":"ce4bgt92rcd13ifvqcg0","pricing_plan_id":"free"},{"bike_id":"ad3ec10f-737e-4c7f-b007-175da4febc17","system_id":"levelo_inurba_marseille","lat":43.311131,"lon":5.377651,"is_reserved":false,"is_disabled":false,"rental_uris":{"android":"levelo://app?vid=ad3ec10f-737e-4c7f-b007-175da4febc17","ios":"levelo://app?vid=ad3ec10f-737e-4c7f-b007-175da4febc17"},"vehicle_type_id":"4","last_reported":1693436753,"current_range_meters":24400,"station_id":"ce4bgt92rcd13ifvqcg0","pricing_plan_id":"free"},{"bike_id":"f716efd2-fbf0-4ce4-8a00-97da17eb28a2","system_id":"levelo_inurba_marseille","lat":43.30784,"lon":5.37636,"is_reserved":false,"is_disabled":false,"rental_uris":{"android":"levelo://app?vid=f716efd2-fbf0-4ce4-8a00-97da17eb28a2","ios":"levelo://app?vid=f716efd2-fbf0-4ce4-8a00-97da17eb28a2"},"vehicle_type_id":"4","last_reported":1693436753,"current_range_meters":14400,"station_id":"ce4bgv92rcd13ifvqcq0","pricing_plan_id":"free"},{"bike_id":"f4e4f2f0-90e9-41ea-baf8-0b7ae4262c21","system_id":"levelo_inurba_marseille","lat":43.307945,"lon":5.376487,"is_reserved":false,"is_disabled":false,"rental_uris":{"android":"levelo://app?vid=f4e4f2f0-90e9-41ea-baf8-0b7ae4262c21","ios":"levelo://app?vid=f4e4f2f0-90e9-41ea-baf8-0b7ae4262c21"},"vehicle_type_id":"4","last_reported":1693436753,"current_range_meters":0,"station_id":"ce4bgv92rcd13ifvqcq0","pricing_plan_id":"free"},{"bike_id":"60124b0e-b7df-4cb1-af78-1e3ef626e757","system_id":"levelo_inurba_marseille","lat":43.30785,"lon":5.37646,"is_reserved":false,"is_disabled":false,"rental_uris":{"android":"levelo://app?vid=60124b0e-b7df-4cb1-af78-1e3ef626e757","ios":"levelo://app?vid=60124b0e-b7df-4cb1-af78-1e3ef626e757"},"vehicle_type_id":"4","last_reported":1693436753,"current_range_meters":0,"station_id":"ce4bgv92rcd13ifvqcq0","pricing_plan_id":"free"},{"bike_id":"14041ff4-c7df-4e01-8159-6420569d9140","system_id":"levelo_inurba_marseille","lat":43.307945,"lon":5.376487,"is_reserved":false,"is_disabled":false,"rental_uris":{"android":"levelo://app?vid=14041ff4-c7df-4e01-8159-6420569d9140","ios":"levelo://app?vid=14041ff4-c7df-4e01-8159-6420569d9140"},"vehicle_type_id":"4","last_reported":1693436753,"current_range_meters":14400,"station_id":"ce4bgv92rcd13ifvqcq0","pricing_plan_id":"free"},{"bike_id":"44daac98-424c-49f1-97c8-e4c9ae340d96","system_id":"levelo_inurba_marseille","lat":43.3078,"lon":5.37661,"is_reserved":false,"is_disabled":false,"rental_uris":{"android":"levelo://app?vid=44daac98-424c-49f1-97c8-e4c9ae340d96","ios":"levelo://app?vid=44daac98-424c-49f1-97c8-e4c9ae340d96"},"vehicle_type_id":"4","last_reported":1693436753,"current_range_meters":3600,"station_id":"ce4bgv92rcd13ifvqcq0","pricing_plan_id":"free"},{"bike_id":"e0b15867-13f3-47d8-920e-d17442fcfa08","system_id":"levelo_inurba_marseille","lat":43.317075,"lon":5.377367,"is_reserved":false,"is_disabled":false,"rental_uris":{"android":"levelo://app?vid=e0b15867-13f3-47d8-920e-d17442fcfa08","ios":"levelo://app?vid=e0b15867-13f3-47d8-920e-d17442fcfa08"},"vehicle_type_id":"4","last_reported":1693436753,"current_range_meters":28400,"station_id":"ce4bgth2rcd13ifvqch0","pricing_plan_id":"free"},{"bike_id":"537a927d-8a1c-43e0-871b-ee68f3239d6e","system_id":"levelo_inurba_marseille","lat":43.317075,"lon":5.377367,"is_reserved":false,"is_disabled":false,"rental_uris":{"android":"levelo://app?vid=537a927d-8a1c-43e0-871b-ee68f3239d6e","ios":"levelo://app?vid=537a927d-8a1c-43e0-871b-ee68f3239d6e"},"vehicle_type_id":"4","last_reported":1693436753,"current_range_meters":31200,"station_id":"ce4bgth2rcd13ifvqch0","pricing_plan_id":"free"},{"bike_id":"a28d923e-bea8-4cec-abe2-96d91536121b","system_id":"levelo_inurba_marseille","lat":43.317075,"lon":5.377367,"is_reserved":false,"is_disabled":false,"rental_uris":{"android":"levelo://app?vid=a28d923e-bea8-4cec-abe2-96d91536121b","ios":"levelo://app?vid=a28d923e-bea8-4cec-abe2-96d91536121b"},"vehicle_type_id":"4","last_reported":1693436753,"current_range_meters":14400,"station_id":"ce4bgth2rcd13ifvqch0","pricing_plan_id":"free"},{"bike_id":"cd3d548f-bd59-45ea-a76c-bcaa7c22f274","system_id":"levelo_inurba_marseille","lat":43.317075,"lon":5.377367,"is_reserved":false,"is_disabled":false,"rental_uris":{"android":"levelo://app?vid=cd3d548f-bd59-45ea-a76c-bcaa7c22f274","ios":"levelo://app?vid=cd3d548f-bd59-45ea-a76c-bcaa7c22f274"},"vehicle_type_id":"4","last_reported":1693436753,"current_range_meters":31200,"station_id":"ce4bgth2rcd13ifvqch0","pricing_plan_id":"free"},{"bike_id":"55a16d96-17ad-4995-9695-ddc03f7c70a2","system_id":"levelo_inurba_marseille","lat":43.317075,"lon":5.377367,"is_reserved":false,"is_disabled":false,"rental_uris":{"android":"levelo://app?vid=55a16d96-17ad-4995-9695-ddc03f7c70a2","ios":"levelo://app?vid=55a16d96-17ad-4995-9695-ddc03f7c70a2"},"vehicle_type_id":"4","last_reported":1693436753,"current_range_meters":31200,"station_id":"ce4bgth2rcd13ifvqch0","pricing_plan_id":"free"},{"bike_id":"85029175-769d-4c4a-9a1f-348dd03f763c","system_id":"levelo_inurba_marseille","lat":43.317075,"lon":5.377367,"is_reserved":false,"is_disabled":false,"rental_uris":{"android":"levelo://app?vid=85029175-769d-4c4a-9a1f-348dd03f763c","ios":"levelo://app?vid=85029175-769d-4c4a-9a1f-348dd03f763c"},"vehicle_type_id":"4","last_reported":1693436753,"current_range_meters":30000,"station_id":"ce4bgth2rcd13ifvqch0","pricing_plan_id":"free"},{"bike_id":"d05e16ab-43f8-4dea-bccc-0dcd73398faa","system_id":"levelo_inurba_marseille","lat":43.317075,"lon":5.377367,"is_reserved":false,"is_disabled":false,"rental_uris":{"android":"levelo://app?vid=d05e16ab-43f8-4dea-bccc-0dcd73398faa","ios":"levelo://app?vid=d05e16ab-43f8-4dea-bccc-0dcd73398faa"},"vehicle_type_id":"4","last_reported":1693436753,"current_range_meters":29600,"station_id":"ce4bgth2rcd13ifvqch0","pricing_plan_id":"free"},{"bike_id":"5d7ee2f0-f001-4b18-a39b-18beef36151e","system_id":"levelo_inurba_marseille","lat":43.315293,"lon":5.380349,"is_reserved":false,"is_disabled":false,"rental_uris":{"android":"levelo://app?vid=5d7ee2f0-f001-4b18-a39b-18beef36151e","ios":"levelo://app?vid=5d7ee2f0-f001-4b18-a39b-18beef36151e"},"vehicle_type_id":"4","last_reported":1693436753,"current_range_meters":6400,"station_id":"ce4bhsp2rcd13ifvqi50","pricing_plan_id":"free"},{"bike_id":"07b11ecd-5247-4fb4-95b7-59ab43b2c620","system_id":"levelo_inurba_marseille","lat":43.31531,"lon":5.38028,"is_reserved":false,"is_disabled":false,"rental_uris":{"android":"levelo://app?vid=07b11ecd-5247-4fb4-95b7-59ab43b2c620","ios":"levelo://app?vid=07b11ecd-5247-4fb4-95b7-59ab43b2c620"},"vehicle_type_id":"4","last_reported":1693436753,"current_range_meters":16400,"station_id":"ce4bhsp2rcd13ifvqi50","pricing_plan_id":"free"},{"bike_id":"2187c77a-4b25-47f3-a7a7-d055d469ea0b","system_id":"levelo_inurba_marseille","lat":43.30805,"lon":5.38146,"is_reserved":false,"is_disabled":false,"rental_uris":{"android":"levelo://app?vid=2187c77a-4b25-47f3-a7a7-d055d469ea0b","ios":"levelo://app?vid=2187c77a-4b25-47f3-a7a7-d055d469ea0b"},"vehicle_type_id":"4","last_reported":1693436753,"current_range_meters":14000,"station_id":"ce4bgt12rcd13ifvqce0","pricing_plan_id":"free"},{"bike_id":"2c11f035-166e-45e1-afe4-6685a41d2f43","system_id":"levelo_inurba_marseille","lat":43.30805,"lon":5.38148,"is_reserved":false,"is_disabled":false,"rental_uris":{"android":"levelo://app?vid=2c11f035-166e-45e1-afe4-6685a41d2f43","ios":"levelo://app?vid=2c11f035-166e-45e1-afe4-6685a41d2f43"},"vehicle_type_id":"4","last_reported":1693436753,"current_range_meters":31200,"station_id":"ce4bgt12rcd13ifvqce0","pricing_plan_id":"free"},{"bike_id":"af5bd159-e63b-454a-bd3c-e6209511aef0","system_id":"levelo_inurba_marseille","lat":43.30802,"lon":5.38154,"is_reserved":false,"is_disabled":false,"rental_uris":{"android":"levelo://app?vid=af5bd159-e63b-454a-bd3c-e6209511aef0","ios":"levelo://app?vid=af5bd159-e63b-454a-bd3c-e6209511aef0"},"vehicle_type_id":"4","last_reported":1693436753,"current_range_meters":1200,"station_id":"ce4bgt12rcd13ifvqce0","pricing_plan_id":"free"},{"bike_id":"784c3ab0-f720-437e-a666-4b6109a94a96","system_id":"levelo_inurba_marseille","lat":43.304606,"lon":5.379026,"is_reserved":false,"is_disabled":false,"rental_uris":{"android":"levelo://app?vid=784c3ab0-f720-437e-a666-4b6109a94a96","ios":"levelo://app?vid=784c3ab0-f720-437e-a666-4b6109a94a96"},"vehicle_type_id":"4","last_reported":1693436753,"current_range_meters":17600,"station_id":"ce4bgup2rcd13ifvqcn0","pricing_plan_id":"free"},{"bike_id":"ff0d6d9c-f2b4-4645-ba48-c4903989c0b3","system_id":"levelo_inurba_marseille","lat":43.304606,"lon":5.379026,"is_reserved":false,"is_disabled":false,"rental_uris":{"android":"levelo://app?vid=ff0d6d9c-f2b4-4645-ba48-c4903989c0b3","ios":"levelo://app?vid=ff0d6d9c-f2b4-4645-ba48-c4903989c0b3"},"vehicle_type_id":"4","last_reported":1693436753,"current_range_meters":18800,"station_id":"ce4bgup2rcd13ifvqcn0","pricing_plan_id":"free"},{"bike_id":"11dd5800-c8b1-4aaa-b7f5-d2f7b17291e6","system_id":"levelo_inurba_marseille","lat":43.3029,"lon":5.37696,"is_reserved":false,"is_disabled":false,"rental_uris":{"android":"levelo://app?vid=11dd5800-c8b1-4aaa-b7f5-d2f7b17291e6","ios":"levelo://app?vid=11dd5800-c8b1-4aaa-b7f5-d2f7b17291e6"},"vehicle_type_id":"4","last_reported":1693436753,"current_range_meters":25600,"station_id":"ce4bguh2rcd13ifvqcj0","pricing_plan_id":"free"},{"bike_id":"1270d1db-32ee-4e6b-92d6-1b5d822c523b","system_id":"levelo_inurba_marseille","lat":43.3014,"lon":5.37424,"is_reserved":false,"is_disabled":false,"rental_uris":{"android":"levelo://app?vid=1270d1db-32ee-4e6b-92d6-1b5d822c523b","ios":"levelo://app?vid=1270d1db-32ee-4e6b-92d6-1b5d822c523b"},"vehicle_type_id":"4","last_reported":1693436753,"current_range_meters":8800,"station_id":"ce4bgs92rcd13ifvqcc0","pricing_plan_id":"free"},{"bike_id":"c1b15b19-86be-499a-84d1-3f2e5bf5d37e","system_id":"levelo_inurba_marseille","lat":43.3019,"lon":5.37612,"is_reserved":false,"is_disabled":false,"rental_uris":{"android":"levelo://app?vid=c1b15b19-86be-499a-84d1-3f2e5bf5d37e","ios":"levelo://app?vid=c1b15b19-86be-499a-84d1-3f2e5bf5d37e"},"vehicle_type_id":"4","last_reported":1693436753,"current_range_meters":24400,"station_id":"","pricing_plan_id":"free"},{"bike_id":"cdae9f5c-3106-4a0b-a7e4-8af259df66be","system_id":"levelo_inurba_marseille","lat":43.319935,"lon":5.381699,"is_reserved":false,"is_disabled":false,"rental_uris":{"android":"levelo://app?vid=cdae9f5c-3106-4a0b-a7e4-8af259df66be","ios":"levelo://app?vid=cdae9f5c-3106-4a0b-a7e4-8af259df66be"},"vehicle_type_id":"4","last_reported":1693436753,"current_range_meters":30800,"station_id":"ce4bhr12rcd13ifvqhpg","pricing_plan_id":"free"},{"bike_id":"6557e7fb-c380-4ef8-a33a-46791e4bf8c3","system_id":"levelo_inurba_marseille","lat":43.319935,"lon":5.381699,"is_reserved":false,"is_disabled":false,"rental_uris":{"android":"levelo://app?vid=6557e7fb-c380-4ef8-a33a-46791e4bf8c3","ios":"levelo://app?vid=6557e7fb-c380-4ef8-a33a-46791e4bf8c3"},"vehicle_type_id":"4","last_reported":1693436753,"current_range_meters":30800,"station_id":"ce4bhr12rcd13ifvqhpg","pricing_plan_id":"free"},{"bike_id":"ecb1ea6c-7edd-46e8-b2b9-49af481e2b5e","system_id":"levelo_inurba_marseille","lat":43.32012,"lon":5.3815,"is_reserved":false,"is_disabled":false,"rental_uris":{"android":"levelo://app?vid=ecb1ea6c-7edd-46e8-b2b9-49af481e2b5e","ios":"levelo://app?vid=ecb1ea6c-7edd-46e8-b2b9-49af481e2b5e"},"vehicle_type_id":"4","last_reported":1693436753,"current_range_meters":31200,"station_id":"ce4bhr12rcd13ifvqhpg","pricing_plan_id":"free"},{"bike_id":"22519218-cc64-45e2-b597-6efa7f14ac9a","system_id":"levelo_inurba_marseille","lat":43.319935,"lon":5.381699,"is_reserved":false,"is_disabled":false,"rental_uris":{"android":"levelo://app?vid=22519218-cc64-45e2-b597-6efa7f14ac9a","ios":"levelo://app?vid=22519218-cc64-45e2-b597-6efa7f14ac9a"},"vehicle_type_id":"4","last_reported":1693436753,"current_range_meters":28800,"station_id":"ce4bhr12rcd13ifvqhpg","pricing_plan_id":"free"},{"bike_id":"055eca47-a872-4bd8-8c8e-19399099067a","system_id":"levelo_inurba_marseille","lat":43.313571,"lon":5.384829,"is_reserved":false,"is_disabled":false,"rental_uris":{"android":"levelo://app?vid=055eca47-a872-4bd8-8c8e-19399099067a","ios":"levelo://app?vid=055eca47-a872-4bd8-8c8e-19399099067a"},"vehicle_type_id":"4","last_reported":1693436753,"current_range_meters":24400,"station_id":"ce4bgt92rcd13ifvqcf0","pricing_plan_id":"free"},{"bike_id":"994d8128-6077-4b8a-a7e4-6162690e159e","system_id":"levelo_inurba_marseille","lat":43.313571,"lon":5.384829,"is_reserved":false,"is_disabled":false,"rental_uris":{"android":"levelo://app?vid=994d8128-6077-4b8a-a7e4-6162690e159e","ios":"levelo://app?vid=994d8128-6077-4b8a-a7e4-6162690e159e"},"vehicle_type_id":"4","last_reported":1693436753,"current_range_meters":31200,"station_id":"ce4bgt92rcd13ifvqcf0","pricing_plan_id":"free"},{"bike_id":"1503eb63-5722-467e-8820-3be405cd4230","system_id":"levelo_inurba_marseille","lat":43.299724,"lon":5.371829,"is_reserved":false,"is_disabled":false,"rental_uris":{"android":"levelo://app?vid=1503eb63-5722-467e-8820-3be405cd4230","ios":"levelo://app?vid=1503eb63-5722-467e-8820-3be405cd4230"},"vehicle_type_id":"4","last_reported":1693436753,"current_range_meters":400,"station_id":"ce4bgr92rcd13ifvqc7g","pricing_plan_id":"free"},{"bike_id":"9103490b-57e4-4e24-83c8-b2922715d229","system_id":"levelo_inurba_marseille","lat":43.30541,"lon":5.38429,"is_reserved":false,"is_disabled":false,"rental_uris":{"android":"levelo://app?vid=9103490b-57e4-4e24-83c8-b2922715d229","ios":"levelo://app?vid=9103490b-57e4-4e24-83c8-b2922715d229"},"vehicle_type_id":"4","last_reported":1693436753,"current_range_meters":25200,"station_id":"ce4bgg92rcd13ifvqb30","pricing_plan_id":"free"},{"bike_id":"dce2b11b-9cdd-4608-af38-21def154cdb2","system_id":"levelo_inurba_marseille","lat":43.305364,"lon":5.384119,"is_reserved":false,"is_disabled":false,"rental_uris":{"android":"levelo://app?vid=dce2b11b-9cdd-4608-af38-21def154cdb2","ios":"levelo://app?vid=dce2b11b-9cdd-4608-af38-21def154cdb2"},"vehicle_type_id":"4","last_reported":1693436753,"current_range_meters":8800,"station_id":"ce4bgg92rcd13ifvqb30","pricing_plan_id":"free"},{"bike_id":"2f9e2def-2173-4eb4-a460-9a385f59debe","system_id":"levelo_inurba_marseille","lat":43.299243,"lon":5.37481,"is_reserved":false,"is_disabled":false,"rental_uris":{"android":"levelo://app?vid=2f9e2def-2173-4eb4-a460-9a385f59debe","ios":"levelo://app?vid=2f9e2def-2173-4eb4-a460-9a385f59debe"},"vehicle_type_id":"4","last_reported":1693436753,"current_range_meters":31200,"station_id":"ce4bgjh2rcd13ifvqbg0","pricing_plan_id":"free"},{"bike_id":"5e0b65a3-4830-4efe-8df2-f90e6871cc74","system_id":"levelo_inurba_marseille","lat":43.311722,"lon":5.387247,"is_reserved":false,"is_disabled":false,"rental_uris":{"android":"levelo://app?vid=5e0b65a3-4830-4efe-8df2-f90e6871cc74","ios":"levelo://app?vid=5e0b65a3-4830-4efe-8df2-f90e6871cc74"},"vehicle_type_id":"4","last_reported":1693436753,"current_range_meters":31600,"station_id":"ce4bgv12rcd13ifvqcp0","pricing_plan_id":"free"},{"bike_id":"5c84a982-139b-4708-8659-bf1fa745be8b","system_id":"levelo_inurba_marseille","lat":43.311722,"lon":5.387247,"is_reserved":false,"is_disabled":false,"rental_uris":{"android":"levelo://app?vid=5c84a982-139b-4708-8659-bf1fa745be8b","ios":"levelo://app?vid=5c84a982-139b-4708-8659-bf1fa745be8b"},"vehicle_type_id":"4","last_reported":1693436753,"current_range_meters":27600,"station_id":"ce4bgv12rcd13ifvqcp0","pricing_plan_id":"free"},{"bike_id":"d7f7b947-b4f1-4fbe-b9c7-68b4f08e55f8","system_id":"levelo_inurba_marseille","lat":43.311722,"lon":5.387247,"is_reserved":false,"is_disabled":false,"rental_uris":{"android":"levelo://app?vid=d7f7b947-b4f1-4fbe-b9c7-68b4f08e55f8","ios":"levelo://app?vid=d7f7b947-b4f1-4fbe-b9c7-68b4f08e55f8"},"vehicle_type_id":"4","last_reported":1693436753,"current_range_meters":0,"station_id":"ce4bgv12rcd13ifvqcp0","pricing_plan_id":"free"},{"bike_id":"8143ebd5-c5c5-467f-a353-1c0066f90341","system_id":"levelo_inurba_marseille","lat":43.297774,"lon":5.370875,"is_reserved":false,"is_disabled":false,"rental_uris":{"android":"levelo://app?vid=8143ebd5-c5c5-467f-a353-1c0066f90341","ios":"levelo://app?vid=8143ebd5-c5c5-467f-a353-1c0066f90341"},"vehicle_type_id":"4","last_reported":1693436753,"current_range_meters":31200,"station_id":"ce4bgop2rcd13ifvqc1g","pricing_plan_id":"free"},{"bike_id":"e6d587de-8098-492d-ac54-ee4080e5be91","system_id":"levelo_inurba_marseille","lat":43.322872,"lon":5.382756,"is_reserved":false,"is_disabled":false,"rental_uris":{"android":"levelo://app?vid=e6d587de-8098-492d-ac54-ee4080e5be91","ios":"levelo://app?vid=e6d587de-8098-492d-ac54-ee4080e5be91"},"vehicle_type_id":"4","last_reported":1693436753,"current_range_meters":15600,"station_id":"ce4bhr12rcd13ifvqhqg","pricing_plan_id":"free"},{"bike_id":"e624cfdf-66ef-4fb5-809b-3dd7af06874f","system_id":"levelo_inurba_marseille","lat":43.32288,"lon":5.38276,"is_reserved":false,"is_disabled":false,"rental_uris":{"android":"levelo://app?vid=e624cfdf-66ef-4fb5-809b-3dd7af06874f","ios":"levelo://app?vid=e624cfdf-66ef-4fb5-809b-3dd7af06874f"},"vehicle_type_id":"4","last_reported":1693436753,"current_range_meters":24800,"station_id":"ce4bhr12rcd13ifvqhqg","pricing_plan_id":"free"},{"bike_id":"23cd11c4-e68a-4a38-86cb-897216ee74f6","system_id":"levelo_inurba_marseille","lat":43.3229,"lon":5.38274,"is_reserved":false,"is_disabled":false,"rental_uris":{"android":"levelo://app?vid=23cd11c4-e68a-4a38-86cb-897216ee74f6","ios":"levelo://app?vid=23cd11c4-e68a-4a38-86cb-897216ee74f6"},"vehicle_type_id":"4","last_reported":1693436753,"current_range_meters":400,"station_id":"ce4bhr12rcd13ifvqhqg","pricing_plan_id":"free"},{"bike_id":"96966b3b-0920-4d76-afff-a8fe90340661","system_id":"levelo_inurba_marseille","lat":43.32294,"lon":5.3827,"is_reserved":false,"is_disabled":false,"rental_uris":{"android":"levelo://app?vid=96966b3b-0920-4d76-afff-a8fe90340661","ios":"levelo://app?vid=96966b3b-0920-4d76-afff-a8fe90340661"},"vehicle_type_id":"4","last_reported":1693436753,"current_range_meters":7200,"station_id":"ce4bhr12rcd13ifvqhqg","pricing_plan_id":"free"},{"bike_id":"ee5fb558-bde4-4922-bb25-19dc705955e4","system_id":"levelo_inurba_marseille","lat":43.32291,"lon":5.38275,"is_reserved":false,"is_disabled":false,"rental_uris":{"android":"levelo://app?vid=ee5fb558-bde4-4922-bb25-19dc705955e4","ios":"levelo://app?vid=ee5fb558-bde4-4922-bb25-19dc705955e4"},"vehicle_type_id":"4","last_reported":1693436753,"current_range_meters":6800,"station_id":"ce4bhr12rcd13ifvqhqg","pricing_plan_id":"free"},{"bike_id":"924d6452-f7f7-4baa-af9a-49926af70474","system_id":"levelo_inurba_marseille","lat":43.29767,"lon":5.37128,"is_reserved":false,"is_disabled":false,"rental_uris":{"android":"levelo://app?vid=924d6452-f7f7-4baa-af9a-49926af70474","ios":"levelo://app?vid=924d6452-f7f7-4baa-af9a-49926af70474"},"vehicle_type_id":"4","last_reported":1693436753,"current_range_meters":28400,"station_id":"ce4bgop2rcd13ifvqc1g","pricing_plan_id":"free"},{"bike_id":"1c783fb8-ba9c-45f5-abd5-a36b1f6db2a2","system_id":"levelo_inurba_marseille","lat":43.328371,"lon":5.366909,"is_reserved":false,"is_disabled":false,"rental_uris":{"android":"levelo://app?vid=1c783fb8-ba9c-45f5-abd5-a36b1f6db2a2","ios":"levelo://app?vid=1c783fb8-ba9c-45f5-abd5-a36b1f6db2a2"},"vehicle_type_id":"4","last_reported":1693436753,"current_range_meters":26400,"station_id":"ce4bhs92rcd13ifvqi0g","pricing_plan_id":"free"},{"bike_id":"31b6a3c0-0240-44a0-b884-d8305caf4c60","system_id":"levelo_inurba_marseille","lat":43.32826,"lon":5.36681,"is_reserved":false,"is_disabled":false,"rental_uris":{"android":"levelo://app?vid=31b6a3c0-0240-44a0-b884-d8305caf4c60","ios":"levelo://app?vid=31b6a3c0-0240-44a0-b884-d8305caf4c60"},"vehicle_type_id":"4","last_reported":1693436753,"current_range_meters":14000,"station_id":"ce4bhs92rcd13ifvqi0g","pricing_plan_id":"free"},{"bike_id":"a639971c-aba3-45af-9f9c-673e19e2bf25","system_id":"levelo_inurba_marseille","lat":43.32828,"lon":5.36686,"is_reserved":false,"is_disabled":false,"rental_uris":{"android":"levelo://app?vid=a639971c-aba3-45af-9f9c-673e19e2bf25","ios":"levelo://app?vid=a639971c-aba3-45af-9f9c-673e19e2bf25"},"vehicle_type_id":"4","last_reported":1693436753,"current_range_meters":25200,"station_id":"ce4bhs92rcd13ifvqi0g","pricing_plan_id":"free"},{"bike_id":"dd789220-e7b5-42c1-b9dc-dc4243148021","system_id":"levelo_inurba_marseille","lat":43.297163,"lon":5.365866,"is_reserved":false,"is_disabled":false,"rental_uris":{"android":"levelo://app?vid=dd789220-e7b5-42c1-b9dc-dc4243148021","ios":"levelo://app?vid=dd789220-e7b5-42c1-b9dc-dc4243148021"},"vehicle_type_id":"4","last_reported":1693436753,"current_range_meters":31200,"station_id":"ce4bgn12rcd13ifvqbt0","pricing_plan_id":"free"},{"bike_id":"bd0bd295-6ecc-40c4-a4d0-89f645593756","system_id":"levelo_inurba_marseille","lat":43.297163,"lon":5.365866,"is_reserved":false,"is_disabled":false,"rental_uris":{"android":"levelo://app?vid=bd0bd295-6ecc-40c4-a4d0-89f645593756","ios":"levelo://app?vid=bd0bd295-6ecc-40c4-a4d0-89f645593756"},"vehicle_type_id":"4","last_reported":1693436753,"current_range_meters":21200,"station_id":"ce4bgn12rcd13ifvqbt0","pricing_plan_id":"free"},{"bike_id":"2d38d843-9501-4a8b-8d1e-e53e054245cc","system_id":"levelo_inurba_marseille","lat":43.32164,"lon":5.38573,"is_reserved":false,"is_disabled":false,"rental_uris":{"android":"levelo://app?vid=2d38d843-9501-4a8b-8d1e-e53e054245cc","ios":"levelo://app?vid=2d38d843-9501-4a8b-8d1e-e53e054245cc"},"vehicle_type_id":"4","last_reported":1693436753,"current_range_meters":30800,"station_id":"","pricing_plan_id":"free"},{"bike_id":"10d32cd1-8307-45ca-ad3e-2653e5514234","system_id":"levelo_inurba_marseille","lat":43.2964,"lon":5.37123,"is_reserved":false,"is_disabled":false,"rental_uris":{"android":"levelo://app?vid=10d32cd1-8307-45ca-ad3e-2653e5514234","ios":"levelo://app?vid=10d32cd1-8307-45ca-ad3e-2653e5514234"},"vehicle_type_id":"4","last_reported":1693436753,"current_range_meters":0,"station_id":"","pricing_plan_id":"free"},{"bike_id":"8748981a-e061-49e6-9c8a-b0236ea6b7e9","system_id":"levelo_inurba_marseille","lat":43.29636,"lon":5.3714,"is_reserved":false,"is_disabled":false,"rental_uris":{"android":"levelo://app?vid=8748981a-e061-49e6-9c8a-b0236ea6b7e9","ios":"levelo://app?vid=8748981a-e061-49e6-9c8a-b0236ea6b7e9"},"vehicle_type_id":"4","last_reported":1693436753,"current_range_meters":400,"station_id":"","pricing_plan_id":"free"},{"bike_id":"d3139180-8ba9-4c91-b6e4-8baae3c22113","system_id":"levelo_inurba_marseille","lat":43.296131,"lon":5.370773,"is_reserved":false,"is_disabled":false,"rental_uris":{"android":"levelo://app?vid=d3139180-8ba9-4c91-b6e4-8baae3c22113","ios":"levelo://app?vid=d3139180-8ba9-4c91-b6e4-8baae3c22113"},"vehicle_type_id":"4","last_reported":1693436753,"current_range_meters":31200,"station_id":"ce4bgnh2rcd13ifvqc0g","pricing_plan_id":"free"},{"bike_id":"65d934c8-ea94-404c-b991-a012f59c0b64","system_id":"levelo_inurba_marseille","lat":43.29623,"lon":5.37164,"is_reserved":false,"is_disabled":false,"rental_uris":{"android":"levelo://app?vid=65d934c8-ea94-404c-b991-a012f59c0b64","ios":"levelo://app?vid=65d934c8-ea94-404c-b991-a012f59c0b64"},"vehicle_type_id":"4","last_reported":1693436753,"current_range_meters":26000,"station_id":"","pricing_plan_id":"free"},{"bike_id":"4c6e440d-4878-4ceb-a1a0-8c759d12f33b","system_id":"levelo_inurba_marseille","lat":43.30952,"lon":5.39023,"is_reserved":false,"is_disabled":false,"rental_uris":{"android":"levelo://app?vid=4c6e440d-4878-4ceb-a1a0-8c759d12f33b","ios":"levelo://app?vid=4c6e440d-4878-4ceb-a1a0-8c759d12f33b"},"vehicle_type_id":"4","last_reported":1693436753,"current_range_meters":26800,"station_id":"ce4bgup2rcd13ifvqco0","pricing_plan_id":"free"},{"bike_id":"2c93ce6f-c5e1-4ec9-9941-ebb7469bb8f2","system_id":"levelo_inurba_marseille","lat":43.31763,"lon":5.39005,"is_reserved":false,"is_disabled":false,"rental_uris":{"android":"levelo://app?vid=2c93ce6f-c5e1-4ec9-9941-ebb7469bb8f2","ios":"levelo://app?vid=2c93ce6f-c5e1-4ec9-9941-ebb7469bb8f2"},"vehicle_type_id":"4","last_reported":1693436753,"current_range_meters":26000,"station_id":"ce4bhqp2rcd13ifvqhng","pricing_plan_id":"free"},{"bike_id":"46715e26-a81d-4d86-832c-413a438463af","system_id":"levelo_inurba_marseille","lat":43.3175,"lon":5.39017,"is_reserved":false,"is_disabled":false,"rental_uris":{"android":"levelo://app?vid=46715e26-a81d-4d86-832c-413a438463af","ios":"levelo://app?vid=46715e26-a81d-4d86-832c-413a438463af"},"vehicle_type_id":"4","last_reported":1693436753,"current_range_meters":30000,"station_id":"ce4bhqp2rcd13ifvqhng","pricing_plan_id":"free"},{"bike_id":"c52b5dfe-c4ee-41c6-93c7-13b1bfae41f0","system_id":"levelo_inurba_marseille","lat":43.317557,"lon":5.390173,"is_reserved":false,"is_disabled":false,"rental_uris":{"android":"levelo://app?vid=c52b5dfe-c4ee-41c6-93c7-13b1bfae41f0","ios":"levelo://app?vid=c52b5dfe-c4ee-41c6-93c7-13b1bfae41f0"},"vehicle_type_id":"4","last_reported":1693436753,"current_range_meters":14800,"station_id":"ce4bhqp2rcd13ifvqhng","pricing_plan_id":"free"},{"bike_id":"1971da8d-f667-4105-b114-ffeec0b92ef2","system_id":"levelo_inurba_marseille","lat":43.31757,"lon":5.3902,"is_reserved":false,"is_disabled":false,"rental_uris":{"android":"levelo://app?vid=1971da8d-f667-4105-b114-ffeec0b92ef2","ios":"levelo://app?vid=1971da8d-f667-4105-b114-ffeec0b92ef2"},"vehicle_type_id":"4","last_reported":1693436753,"current_range_meters":29600,"station_id":"ce4bhqp2rcd13ifvqhng","pricing_plan_id":"free"},{"bike_id":"90a6c397-82b7-4631-a45b-b7e3c6c92441","system_id":"levelo_inurba_marseille","lat":43.31757,"lon":5.39021,"is_reserved":false,"is_disabled":false,"rental_uris":{"android":"levelo://app?vid=90a6c397-82b7-4631-a45b-b7e3c6c92441","ios":"levelo://app?vid=90a6c397-82b7-4631-a45b-b7e3c6c92441"},"vehicle_type_id":"4","last_reported":1693436753,"current_range_meters":29600,"station_id":"ce4bhqp2rcd13ifvqhng","pricing_plan_id":"free"},{"bike_id":"86d37462-6f2c-4ee1-b5e1-16f3e9285866","system_id":"levelo_inurba_marseille","lat":43.31755,"lon":5.39023,"is_reserved":false,"is_disabled":false,"rental_uris":{"android":"levelo://app?vid=86d37462-6f2c-4ee1-b5e1-16f3e9285866","ios":"levelo://app?vid=86d37462-6f2c-4ee1-b5e1-16f3e9285866"},"vehicle_type_id":"4","last_reported":1693436753,"current_range_meters":26400,"station_id":"ce4bhqp2rcd13ifvqhng","pricing_plan_id":"free"},{"bike_id":"29d024fe-ec70-4db6-896c-1e73b19a7700","system_id":"levelo_inurba_marseille","lat":43.30443,"lon":5.3889,"is_reserved":false,"is_disabled":false,"rental_uris":{"android":"levelo://app?vid=29d024fe-ec70-4db6-896c-1e73b19a7700","ios":"levelo://app?vid=29d024fe-ec70-4db6-896c-1e73b19a7700"},"vehicle_type_id":"4","last_reported":1693436753,"current_range_meters":16000,"station_id":"ce4bgk12rcd13ifvqbi0","pricing_plan_id":"free"},{"bike_id":"952a19e7-6602-41c3-942f-79cfb514366f","system_id":"levelo_inurba_marseille","lat":43.29655,"lon":5.3778,"is_reserved":false,"is_disabled":false,"rental_uris":{"android":"levelo://app?vid=952a19e7-6602-41c3-942f-79cfb514366f","ios":"levelo://app?vid=952a19e7-6602-41c3-942f-79cfb514366f"},"vehicle_type_id":"4","last_reported":1693436753,"current_range_meters":29200,"station_id":"","pricing_plan_id":"free"},{"bike_id":"078cae72-ef3b-485e-9375-f50d7ee23106","system_id":"levelo_inurba_marseille","lat":43.30437,"lon":5.38899,"is_reserved":false,"is_disabled":false,"rental_uris":{"android":"levelo://app?vid=078cae72-ef3b-485e-9375-f50d7ee23106","ios":"levelo://app?vid=078cae72-ef3b-485e-9375-f50d7ee23106"},"vehicle_type_id":"4","last_reported":1693436753,"current_range_meters":31600,"station_id":"ce4bgk12rcd13ifvqbi0","pricing_plan_id":"free"},{"bike_id":"59a209cc-6e49-4b16-9bf5-ea3e72b7237f","system_id":"levelo_inurba_marseille","lat":43.304278,"lon":5.388868,"is_reserved":false,"is_disabled":false,"rental_uris":{"android":"levelo://app?vid=59a209cc-6e49-4b16-9bf5-ea3e72b7237f","ios":"levelo://app?vid=59a209cc-6e49-4b16-9bf5-ea3e72b7237f"},"vehicle_type_id":"4","last_reported":1693436753,"current_range_meters":400,"station_id":"ce4bgk12rcd13ifvqbi0","pricing_plan_id":"free"},{"bike_id":"f7dcaf32-c4ac-4fd8-b4fe-061f19cb0388","system_id":"levelo_inurba_marseille","lat":43.29543,"lon":5.37497,"is_reserved":false,"is_disabled":false,"rental_uris":{"android":"levelo://app?vid=f7dcaf32-c4ac-4fd8-b4fe-061f19cb0388","ios":"levelo://app?vid=f7dcaf32-c4ac-4fd8-b4fe-061f19cb0388"},"vehicle_type_id":"4","last_reported":1693436753,"current_range_meters":5200,"station_id":"ce4bgkp2rcd13ifvqbmg","pricing_plan_id":"free"},{"bike_id":"b867c923-b0dd-495a-a27f-cb86432ecb02","system_id":"levelo_inurba_marseille","lat":43.32367,"lon":5.388836,"is_reserved":false,"is_disabled":false,"rental_uris":{"android":"levelo://app?vid=b867c923-b0dd-495a-a27f-cb86432ecb02","ios":"levelo://app?vid=b867c923-b0dd-495a-a27f-cb86432ecb02"},"vehicle_type_id":"4","last_reported":1693436753,"current_range_meters":7200,"station_id":"ce4bhqp2rcd13ifvqhog","pricing_plan_id":"free"},{"bike_id":"79f0f202-2132-4d94-a277-37b3a172a72d","system_id":"levelo_inurba_marseille","lat":43.32364,"lon":5.38883,"is_reserved":false,"is_disabled":false,"rental_uris":{"android":"levelo://app?vid=79f0f202-2132-4d94-a277-37b3a172a72d","ios":"levelo://app?vid=79f0f202-2132-4d94-a277-37b3a172a72d"},"vehicle_type_id":"4","last_reported":1693436753,"current_range_meters":29200,"station_id":"ce4bhqp2rcd13ifvqhog","pricing_plan_id":"free"},{"bike_id":"f7542559-4eaf-4d74-8129-21a96dd13629","system_id":"levelo_inurba_marseille","lat":43.32365,"lon":5.38883,"is_reserved":false,"is_disabled":false,"rental_uris":{"android":"levelo://app?vid=f7542559-4eaf-4d74-8129-21a96dd13629","ios":"levelo://app?vid=f7542559-4eaf-4d74-8129-21a96dd13629"},"vehicle_type_id":"4","last_reported":1693436753,"current_range_meters":19200,"station_id":"ce4bhqp2rcd13ifvqhog","pricing_plan_id":"free"},{"bike_id":"cf33fd20-f3d3-4b17-afc7-bfcdfa63fef7","system_id":"levelo_inurba_marseille","lat":43.32365,"lon":5.38885,"is_reserved":false,"is_disabled":false,"rental_uris":{"android":"levelo://app?vid=cf33fd20-f3d3-4b17-afc7-bfcdfa63fef7","ios":"levelo://app?vid=cf33fd20-f3d3-4b17-afc7-bfcdfa63fef7"},"vehicle_type_id":"4","last_reported":1693436753,"current_range_meters":7600,"station_id":"ce4bhqp2rcd13ifvqhog","pricing_plan_id":"free"},{"bike_id":"da789c4d-2789-467a-86ce-05c40a474da0","system_id":"levelo_inurba_marseille","lat":43.32367,"lon":5.388836,"is_reserved":false,"is_disabled":false,"rental_uris":{"android":"levelo://app?vid=da789c4d-2789-467a-86ce-05c40a474da0","ios":"levelo://app?vid=da789c4d-2789-467a-86ce-05c40a474da0"},"vehicle_type_id":"4","last_reported":1693436753,"current_range_meters":28400,"station_id":"ce4bhqp2rcd13ifvqhog","pricing_plan_id":"free"},{"bike_id":"813b146c-3882-4243-a3d4-d0a5e3c431b0","system_id":"levelo_inurba_marseille","lat":43.32364,"lon":5.38888,"is_reserved":false,"is_disabled":false,"rental_uris":{"android":"levelo://app?vid=813b146c-3882-4243-a3d4-d0a5e3c431b0","ios":"levelo://app?vid=813b146c-3882-4243-a3d4-d0a5e3c431b0"},"vehicle_type_id":"4","last_reported":1693436753,"current_range_meters":18800,"station_id":"ce4bhqp2rcd13ifvqhog","pricing_plan_id":"free"},{"bike_id":"865bfca0-73f6-4acc-b69b-232a1e521899","system_id":"levelo_inurba_marseille","lat":43.32367,"lon":5.388836,"is_reserved":false,"is_disabled":false,"rental_uris":{"android":"levelo://app?vid=865bfca0-73f6-4acc-b69b-232a1e521899","ios":"levelo://app?vid=865bfca0-73f6-4acc-b69b-232a1e521899"},"vehicle_type_id":"4","last_reported":1693436753,"current_range_meters":30800,"station_id":"ce4bhqp2rcd13ifvqhog","pricing_plan_id":"free"},{"bike_id":"8703cfe1-da2a-4f5d-9a09-0a4c1b2058c6","system_id":"levelo_inurba_marseille","lat":43.32364,"lon":5.38891,"is_reserved":false,"is_disabled":false,"rental_uris":{"android":"levelo://app?vid=8703cfe1-da2a-4f5d-9a09-0a4c1b2058c6","ios":"levelo://app?vid=8703cfe1-da2a-4f5d-9a09-0a4c1b2058c6"},"vehicle_type_id":"4","last_reported":1693436753,"current_range_meters":31200,"station_id":"ce4bhqp2rcd13ifvqhog","pricing_plan_id":"free"},{"bike_id":"360e53f0-83ba-46ba-8ee0-4bf425fc869a","system_id":"levelo_inurba_marseille","lat":43.32365,"lon":5.38892,"is_reserved":false,"is_disabled":false,"rental_uris":{"android":"levelo://app?vid=360e53f0-83ba-46ba-8ee0-4bf425fc869a","ios":"levelo://app?vid=360e53f0-83ba-46ba-8ee0-4bf425fc869a"},"vehicle_type_id":"4","last_reported":1693436753,"current_range_meters":29600,"station_id":"ce4bhqp2rcd13ifvqhog","pricing_plan_id":"free"},{"bike_id":"af378848-4ab5-4a0c-a75c-c290cd6c3483","system_id":"levelo_inurba_marseille","lat":43.32503,"lon":5.38923,"is_reserved":false,"is_disabled":false,"rental_uris":{"android":"levelo://app?vid=af378848-4ab5-4a0c-a75c-c290cd6c3483","ios":"levelo://app?vid=af378848-4ab5-4a0c-a75c-c290cd6c3483"},"vehicle_type_id":"4","last_reported":1693436753,"current_range_meters":8000,"station_id":"","pricing_plan_id":"free"},{"bike_id":"6533c646-1091-4458-9ef2-bc9d36dce22d","system_id":"levelo_inurba_marseille","lat":43.293009,"lon":5.374584,"is_reserved":false,"is_disabled":false,"rental_uris":{"android":"levelo://app?vid=6533c646-1091-4458-9ef2-bc9d36dce22d","ios":"levelo://app?vid=6533c646-1091-4458-9ef2-bc9d36dce22d"},"vehicle_type_id":"4","last_reported":1693436753,"current_range_meters":31200,"station_id":"ce4bgi12rcd13ifvqb70","pricing_plan_id":"free"},{"bike_id":"38fef587-7cc5-4800-b069-87b8f296a10a","system_id":"levelo_inurba_marseille","lat":43.293009,"lon":5.374584,"is_reserved":false,"is_disabled":false,"rental_uris":{"android":"levelo://app?vid=38fef587-7cc5-4800-b069-87b8f296a10a","ios":"levelo://app?vid=38fef587-7cc5-4800-b069-87b8f296a10a"},"vehicle_type_id":"4","last_reported":1693436753,"current_range_meters":31200,"station_id":"ce4bgi12rcd13ifvqb70","pricing_plan_id":"free"},{"bike_id":"9c0a0413-f806-445a-8af2-5b728ab07972","system_id":"levelo_inurba_marseille","lat":43.305994,"lon":5.393687,"is_reserved":false,"is_disabled":false,"rental_uris":{"android":"levelo://app?vid=9c0a0413-f806-445a-8af2-5b728ab07972","ios":"levelo://app?vid=9c0a0413-f806-445a-8af2-5b728ab07972"},"vehicle_type_id":"4","last_reported":1693436753,"current_range_meters":11600,"station_id":"ce4bh0p2rcd13ifvqd80","pricing_plan_id":"free"},{"bike_id":"9210caf0-17c9-47c9-aaeb-d98b3fc67516","system_id":"levelo_inurba_marseille","lat":43.305994,"lon":5.393687,"is_reserved":false,"is_disabled":false,"rental_uris":{"android":"levelo://app?vid=9210caf0-17c9-47c9-aaeb-d98b3fc67516","ios":"levelo://app?vid=9210caf0-17c9-47c9-aaeb-d98b3fc67516"},"vehicle_type_id":"4","last_reported":1693436753,"current_range_meters":23600,"station_id":"ce4bh0p2rcd13ifvqd80","pricing_plan_id":"free"},{"bike_id":"9cf7150b-2bb0-4c0c-9edc-9ecadbf1c402","system_id":"levelo_inurba_marseille","lat":43.302992,"lon":5.392136,"is_reserved":false,"is_disabled":false,"rental_uris":{"android":"levelo://app?vid=9cf7150b-2bb0-4c0c-9edc-9ecadbf1c402","ios":"levelo://app?vid=9cf7150b-2bb0-4c0c-9edc-9ecadbf1c402"},"vehicle_type_id":"4","last_reported":1693436753,"current_range_meters":23200,"station_id":"ce4bgkh2rcd13ifvqbk0","pricing_plan_id":"free"},{"bike_id":"0724f352-a262-45b7-9b71-9a09ff17d945","system_id":"levelo_inurba_marseille","lat":43.30303,"lon":5.39205,"is_reserved":false,"is_disabled":false,"rental_uris":{"android":"levelo://app?vid=0724f352-a262-45b7-9b71-9a09ff17d945","ios":"levelo://app?vid=0724f352-a262-45b7-9b71-9a09ff17d945"},"vehicle_type_id":"4","last_reported":1693436753,"current_range_meters":12000,"station_id":"ce4bgkh2rcd13ifvqbk0","pricing_plan_id":"free"},{"bike_id":"97b03324-d9a9-460e-b22f-57ef824d5771","system_id":"levelo_inurba_marseille","lat":43.302992,"lon":5.392136,"is_reserved":false,"is_disabled":false,"rental_uris":{"android":"levelo://app?vid=97b03324-d9a9-460e-b22f-57ef824d5771","ios":"levelo://app?vid=97b03324-d9a9-460e-b22f-57ef824d5771"},"vehicle_type_id":"4","last_reported":1693436753,"current_range_meters":25600,"station_id":"ce4bgkh2rcd13ifvqbk0","pricing_plan_id":"free"},{"bike_id":"03cff026-f951-436b-8d19-b8b72920f649","system_id":"levelo_inurba_marseille","lat":43.30303,"lon":5.39206,"is_reserved":false,"is_disabled":false,"rental_uris":{"android":"levelo://app?vid=03cff026-f951-436b-8d19-b8b72920f649","ios":"levelo://app?vid=03cff026-f951-436b-8d19-b8b72920f649"},"vehicle_type_id":"4","last_reported":1693436753,"current_range_meters":29600,"station_id":"ce4bgkh2rcd13ifvqbk0","pricing_plan_id":"free"},{"bike_id":"18815a42-632a-49b1-b586-cf004f6e495f","system_id":"levelo_inurba_marseille","lat":43.302992,"lon":5.392136,"is_reserved":false,"is_disabled":false,"rental_uris":{"android":"levelo://app?vid=18815a42-632a-49b1-b586-cf004f6e495f","ios":"levelo://app?vid=18815a42-632a-49b1-b586-cf004f6e495f"},"vehicle_type_id":"4","last_reported":1693436753,"current_range_meters":26800,"station_id":"ce4bgkh2rcd13ifvqbk0","pricing_plan_id":"free"},{"bike_id":"9430dda0-fb22-4068-ac9c-a8c1c6a4a48e","system_id":"levelo_inurba_marseille","lat":43.302992,"lon":5.392136,"is_reserved":false,"is_disabled":false,"rental_uris":{"android":"levelo://app?vid=9430dda0-fb22-4068-ac9c-a8c1c6a4a48e","ios":"levelo://app?vid=9430dda0-fb22-4068-ac9c-a8c1c6a4a48e"},"vehicle_type_id":"4","last_reported":1693436753,"current_range_meters":30000,"station_id":"ce4bgkh2rcd13ifvqbk0","pricing_plan_id":"free"},{"bike_id":"59d4a7cc-c4d8-47e1-a63f-2e26b5d209c3","system_id":"levelo_inurba_marseille","lat":43.2936,"lon":5.37835,"is_reserved":false,"is_disabled":false,"rental_uris":{"android":"levelo://app?vid=59d4a7cc-c4d8-47e1-a63f-2e26b5d209c3","ios":"levelo://app?vid=59d4a7cc-c4d8-47e1-a63f-2e26b5d209c3"},"vehicle_type_id":"4","last_reported":1693436753,"current_range_meters":30800,"station_id":"ce4bgjh2rcd13ifvqbf0","pricing_plan_id":"free"},{"bike_id":"ca3dab7d-2fb2-4252-a9a0-1105c65f82d2","system_id":"levelo_inurba_marseille","lat":43.29234,"lon":5.36069,"is_reserved":false,"is_disabled":false,"rental_uris":{"android":"levelo://app?vid=ca3dab7d-2fb2-4252-a9a0-1105c65f82d2","ios":"levelo://app?vid=ca3dab7d-2fb2-4252-a9a0-1105c65f82d2"},"vehicle_type_id":"4","last_reported":1693436753,"current_range_meters":20800,"station_id":"ce4bhbh2rcd13ifvqeqg","pricing_plan_id":"free"},{"bike_id":"104d5de4-501a-4434-9d18-1e4bf54a1c96","system_id":"levelo_inurba_marseille","lat":43.300852,"lon":5.390859,"is_reserved":false,"is_disabled":false,"rental_uris":{"android":"levelo://app?vid=104d5de4-501a-4434-9d18-1e4bf54a1c96","ios":"levelo://app?vid=104d5de4-501a-4434-9d18-1e4bf54a1c96"},"vehicle_type_id":"4","last_reported":1693436753,"current_range_meters":10000,"station_id":"ce4bh192rcd13ifvqdb0","pricing_plan_id":"free"},{"bike_id":"32d9f246-5f7d-4170-b17a-ccb6fa264cb0","system_id":"levelo_inurba_marseille","lat":43.300852,"lon":5.390859,"is_reserved":false,"is_disabled":false,"rental_uris":{"android":"levelo://app?vid=32d9f246-5f7d-4170-b17a-ccb6fa264cb0","ios":"levelo://app?vid=32d9f246-5f7d-4170-b17a-ccb6fa264cb0"},"vehicle_type_id":"4","last_reported":1693436753,"current_range_meters":23200,"station_id":"ce4bh192rcd13ifvqdb0","pricing_plan_id":"free"},{"bike_id":"10621ce6-7a8d-4c81-91df-9614a69c9336","system_id":"levelo_inurba_marseille","lat":43.300852,"lon":5.390859,"is_reserved":false,"is_disabled":false,"rental_uris":{"android":"levelo://app?vid=10621ce6-7a8d-4c81-91df-9614a69c9336","ios":"levelo://app?vid=10621ce6-7a8d-4c81-91df-9614a69c9336"},"vehicle_type_id":"4","last_reported":1693436753,"current_range_meters":18800,"station_id":"ce4bh192rcd13ifvqdb0","pricing_plan_id":"free"},{"bike_id":"2131a013-2259-4810-b84e-a6cb2ef2be35","system_id":"levelo_inurba_marseille","lat":43.30085,"lon":5.390856,"is_reserved":false,"is_disabled":false,"rental_uris":{"android":"levelo://app?vid=2131a013-2259-4810-b84e-a6cb2ef2be35","ios":"levelo://app?vid=2131a013-2259-4810-b84e-a6cb2ef2be35"},"vehicle_type_id":"4","last_reported":1693436753,"current_range_meters":24400,"station_id":"ce4bh192rcd13ifvqdb0","pricing_plan_id":"free"},{"bike_id":"4a28a145-50d0-4ff3-9441-a0d49bdae7b0","system_id":"levelo_inurba_marseille","lat":43.300852,"lon":5.390859,"is_reserved":false,"is_disabled":false,"rental_uris":{"android":"levelo://app?vid=4a28a145-50d0-4ff3-9441-a0d49bdae7b0","ios":"levelo://app?vid=4a28a145-50d0-4ff3-9441-a0d49bdae7b0"},"vehicle_type_id":"4","last_reported":1693436753,"current_range_meters":0,"station_id":"ce4bh192rcd13ifvqdb0","pricing_plan_id":"free"},{"bike_id":"a3ec38d5-41fe-4bfb-aa8d-0e98caf6f74f","system_id":"levelo_inurba_marseille","lat":43.291675,"lon":5.371583,"is_reserved":false,"is_disabled":false,"rental_uris":{"android":"levelo://app?vid=a3ec38d5-41fe-4bfb-aa8d-0e98caf6f74f","ios":"levelo://app?vid=a3ec38d5-41fe-4bfb-aa8d-0e98caf6f74f"},"vehicle_type_id":"4","last_reported":1693436753,"current_range_meters":21200,"station_id":"ce4bha92rcd13ifvqeh0","pricing_plan_id":"free"},{"bike_id":"537acad3-96e5-42aa-b02f-29b8c1c79c00","system_id":"levelo_inurba_marseille","lat":43.29875,"lon":5.38909,"is_reserved":false,"is_disabled":false,"rental_uris":{"android":"levelo://app?vid=537acad3-96e5-42aa-b02f-29b8c1c79c00","ios":"levelo://app?vid=537acad3-96e5-42aa-b02f-29b8c1c79c00"},"vehicle_type_id":"4","last_reported":1693436753,"current_range_meters":31200,"station_id":"ce4bh392rcd13ifvqdl0","pricing_plan_id":"free"},{"bike_id":"aa0c0c75-15bb-489c-95a3-620c05085b0e","system_id":"levelo_inurba_marseille","lat":43.30888,"lon":5.39637,"is_reserved":false,"is_disabled":false,"rental_uris":{"android":"levelo://app?vid=aa0c0c75-15bb-489c-95a3-620c05085b0e","ios":"levelo://app?vid=aa0c0c75-15bb-489c-95a3-620c05085b0e"},"vehicle_type_id":"4","last_reported":1693436753,"current_range_meters":31200,"station_id":"ce4bh012rcd13ifvqcv0","pricing_plan_id":"free"},{"bike_id":"6bbf1f25-38b2-4984-a98c-676ca620b04f","system_id":"levelo_inurba_marseille","lat":43.31328,"lon":5.39689,"is_reserved":false,"is_disabled":false,"rental_uris":{"android":"levelo://app?vid=6bbf1f25-38b2-4984-a98c-676ca620b04f","ios":"levelo://app?vid=6bbf1f25-38b2-4984-a98c-676ca620b04f"},"vehicle_type_id":"4","last_reported":1693436753,"current_range_meters":31200,"station_id":"ce4bgvp2rcd13ifvqcu0","pricing_plan_id":"free"},{"bike_id":"73c2e0c0-a939-4bc3-943a-e52094180bff","system_id":"levelo_inurba_marseille","lat":43.291994,"lon":5.357886,"is_reserved":false,"is_disabled":false,"rental_uris":{"android":"levelo://app?vid=73c2e0c0-a939-4bc3-943a-e52094180bff","ios":"levelo://app?vid=73c2e0c0-a939-4bc3-943a-e52094180bff"},"vehicle_type_id":"4","last_reported":1693436753,"current_range_meters":30400,"station_id":"ce4bhb12rcd13ifvqel0","pricing_plan_id":"free"},{"bike_id":"38a2e735-5da8-40d7-9753-06bf65990271","system_id":"levelo_inurba_marseille","lat":43.313291,"lon":5.396838,"is_reserved":false,"is_disabled":false,"rental_uris":{"android":"levelo://app?vid=38a2e735-5da8-40d7-9753-06bf65990271","ios":"levelo://app?vid=38a2e735-5da8-40d7-9753-06bf65990271"},"vehicle_type_id":"4","last_reported":1693436753,"current_range_meters":0,"station_id":"ce4bgvp2rcd13ifvqcu0","pricing_plan_id":"free"},{"bike_id":"86273639-51f0-403b-82cd-e03685ecc9ac","system_id":"levelo_inurba_marseille","lat":43.313291,"lon":5.396838,"is_reserved":false,"is_disabled":false,"rental_uris":{"android":"levelo://app?vid=86273639-51f0-403b-82cd-e03685ecc9ac","ios":"levelo://app?vid=86273639-51f0-403b-82cd-e03685ecc9ac"},"vehicle_type_id":"4","last_reported":1693436753,"current_range_meters":15200,"station_id":"ce4bgvp2rcd13ifvqcu0","pricing_plan_id":"free"},{"bike_id":"cdf20ecd-742e-49db-a51c-55321cfc31a7","system_id":"levelo_inurba_marseille","lat":43.30884,"lon":5.39647,"is_reserved":false,"is_disabled":false,"rental_uris":{"android":"levelo://app?vid=cdf20ecd-742e-49db-a51c-55321cfc31a7","ios":"levelo://app?vid=cdf20ecd-742e-49db-a51c-55321cfc31a7"},"vehicle_type_id":"4","last_reported":1693436753,"current_range_meters":27600,"station_id":"ce4bh012rcd13ifvqcv0","pricing_plan_id":"free"},{"bike_id":"c2f7b2ee-221e-4b37-9d77-05e2405e2594","system_id":"levelo_inurba_marseille","lat":43.31326,"lon":5.39695,"is_reserved":false,"is_disabled":false,"rental_uris":{"android":"levelo://app?vid=c2f7b2ee-221e-4b37-9d77-05e2405e2594","ios":"levelo://app?vid=c2f7b2ee-221e-4b37-9d77-05e2405e2594"},"vehicle_type_id":"4","last_reported":1693436753,"current_range_meters":26800,"station_id":"ce4bgvp2rcd13ifvqcu0","pricing_plan_id":"free"},{"bike_id":"48857e60-a450-41ff-84c7-a12c1adce7c5","system_id":"levelo_inurba_marseille","lat":43.309038,"lon":5.396546,"is_reserved":false,"is_disabled":false,"rental_uris":{"android":"levelo://app?vid=48857e60-a450-41ff-84c7-a12c1adce7c5","ios":"levelo://app?vid=48857e60-a450-41ff-84c7-a12c1adce7c5"},"vehicle_type_id":"4","last_reported":1693436753,"current_range_meters":31200,"station_id":"ce4bh012rcd13ifvqcv0","pricing_plan_id":"free"},{"bike_id":"76ecf3cf-38e2-4e04-871e-2eaa7e43d644","system_id":"levelo_inurba_marseille","lat":43.308881,"lon":5.396503,"is_reserved":false,"is_disabled":false,"rental_uris":{"android":"levelo://app?vid=76ecf3cf-38e2-4e04-871e-2eaa7e43d644","ios":"levelo://app?vid=76ecf3cf-38e2-4e04-871e-2eaa7e43d644"},"vehicle_type_id":"4","last_reported":1693436753,"current_range_meters":14400,"station_id":"ce4bh012rcd13ifvqcv0","pricing_plan_id":"free"},{"bike_id":"a6583ed8-a063-49ce-9ea0-a740ebab961c","system_id":"levelo_inurba_marseille","lat":43.30891,"lon":5.39651,"is_reserved":false,"is_disabled":false,"rental_uris":{"android":"levelo://app?vid=a6583ed8-a063-49ce-9ea0-a740ebab961c","ios":"levelo://app?vid=a6583ed8-a063-49ce-9ea0-a740ebab961c"},"vehicle_type_id":"4","last_reported":1693436753,"current_range_meters":29200,"station_id":"ce4bh012rcd13ifvqcv0","pricing_plan_id":"free"},{"bike_id":"36cdfc94-ef92-412a-8663-748b67c29ff1","system_id":"levelo_inurba_marseille","lat":43.291994,"lon":5.357886,"is_reserved":false,"is_disabled":false,"rental_uris":{"android":"levelo://app?vid=36cdfc94-ef92-412a-8663-748b67c29ff1","ios":"levelo://app?vid=36cdfc94-ef92-412a-8663-748b67c29ff1"},"vehicle_type_id":"4","last_reported":1693436753,"current_range_meters":9200,"station_id":"ce4bhb12rcd13ifvqel0","pricing_plan_id":"free"},{"bike_id":"c4ba6f1c-5dd2-45fa-8b43-e0dd048f6531","system_id":"levelo_inurba_marseille","lat":43.309038,"lon":5.396546,"is_reserved":false,"is_disabled":false,"rental_uris":{"android":"levelo://app?vid=c4ba6f1c-5dd2-45fa-8b43-e0dd048f6531","ios":"levelo://app?vid=c4ba6f1c-5dd2-45fa-8b43-e0dd048f6531"},"vehicle_type_id":"4","last_reported":1693436753,"current_range_meters":31200,"station_id":"ce4bh012rcd13ifvqcv0","pricing_plan_id":"free"},{"bike_id":"f2384dcf-17bb-472e-bbd3-6d11457768da","system_id":"levelo_inurba_marseille","lat":43.30886,"lon":5.39652,"is_reserved":false,"is_disabled":false,"rental_uris":{"android":"levelo://app?vid=f2384dcf-17bb-472e-bbd3-6d11457768da","ios":"levelo://app?vid=f2384dcf-17bb-472e-bbd3-6d11457768da"},"vehicle_type_id":"4","last_reported":1693436753,"current_range_meters":31200,"station_id":"ce4bh012rcd13ifvqcv0","pricing_plan_id":"free"},{"bike_id":"9918d899-474f-42d2-9ecd-db8aad750e38","system_id":"levelo_inurba_marseille","lat":43.31326,"lon":5.397,"is_reserved":false,"is_disabled":false,"rental_uris":{"android":"levelo://app?vid=9918d899-474f-42d2-9ecd-db8aad750e38","ios":"levelo://app?vid=9918d899-474f-42d2-9ecd-db8aad750e38"},"vehicle_type_id":"4","last_reported":1693436753,"current_range_meters":14400,"station_id":"ce4bgvp2rcd13ifvqcu0","pricing_plan_id":"free"},{"bike_id":"e7854f1b-b27d-4e3f-a337-424c74c3257d","system_id":"levelo_inurba_marseille","lat":43.31323,"lon":5.39701,"is_reserved":false,"is_disabled":false,"rental_uris":{"android":"levelo://app?vid=e7854f1b-b27d-4e3f-a337-424c74c3257d","ios":"levelo://app?vid=e7854f1b-b27d-4e3f-a337-424c74c3257d"},"vehicle_type_id":"4","last_reported":1693436753,"current_range_meters":31200,"station_id":"ce4bgvp2rcd13ifvqcu0","pricing_plan_id":"free"},{"bike_id":"b1a5e919-e1bd-4bbb-a86f-5b7d0154382e","system_id":"levelo_inurba_marseille","lat":43.31329,"lon":5.39702,"is_reserved":false,"is_disabled":false,"rental_uris":{"android":"levelo://app?vid=b1a5e919-e1bd-4bbb-a86f-5b7d0154382e","ios":"levelo://app?vid=b1a5e919-e1bd-4bbb-a86f-5b7d0154382e"},"vehicle_type_id":"4","last_reported":1693436753,"current_range_meters":22400,"station_id":"ce4bgvp2rcd13ifvqcu0","pricing_plan_id":"free"},{"bike_id":"0d962e12-b732-4464-bc89-f40845207671","system_id":"levelo_inurba_marseille","lat":43.33235,"lon":5.38036,"is_reserved":false,"is_disabled":false,"rental_uris":{"android":"levelo://app?vid=0d962e12-b732-4464-bc89-f40845207671","ios":"levelo://app?vid=0d962e12-b732-4464-bc89-f40845207671"},"vehicle_type_id":"4","last_reported":1693436753,"current_range_meters":18800,"station_id":"","pricing_plan_id":"free"},{"bike_id":"e3e060e5-7a4b-4995-8db6-05726ae6daaa","system_id":"levelo_inurba_marseille","lat":43.30887,"lon":5.39659,"is_reserved":false,"is_disabled":false,"rental_uris":{"android":"levelo://app?vid=e3e060e5-7a4b-4995-8db6-05726ae6daaa","ios":"levelo://app?vid=e3e060e5-7a4b-4995-8db6-05726ae6daaa"},"vehicle_type_id":"4","last_reported":1693436753,"current_range_meters":20000,"station_id":"ce4bh012rcd13ifvqcv0","pricing_plan_id":"free"},{"bike_id":"30b1fdf4-e0c8-4815-97a0-d3580c3f50ab","system_id":"levelo_inurba_marseille","lat":43.30885,"lon":5.39659,"is_reserved":false,"is_disabled":false,"rental_uris":{"android":"levelo://app?vid=30b1fdf4-e0c8-4815-97a0-d3580c3f50ab","ios":"levelo://app?vid=30b1fdf4-e0c8-4815-97a0-d3580c3f50ab"},"vehicle_type_id":"4","last_reported":1693436753,"current_range_meters":19600,"station_id":"ce4bh012rcd13ifvqcv0","pricing_plan_id":"free"},{"bike_id":"8d433735-e2cd-4c12-a55d-8898a10ee90e","system_id":"levelo_inurba_marseille","lat":43.30887,"lon":5.3966,"is_reserved":false,"is_disabled":false,"rental_uris":{"android":"levelo://app?vid=8d433735-e2cd-4c12-a55d-8898a10ee90e","ios":"levelo://app?vid=8d433735-e2cd-4c12-a55d-8898a10ee90e"},"vehicle_type_id":"4","last_reported":1693436753,"current_range_meters":31200,"station_id":"ce4bh012rcd13ifvqcv0","pricing_plan_id":"free"},{"bike_id":"1da98f29-e1c4-45b4-85a2-f7557583087d","system_id":"levelo_inurba_marseille","lat":43.309038,"lon":5.396546,"is_reserved":false,"is_disabled":false,"rental_uris":{"android":"levelo://app?vid=1da98f29-e1c4-45b4-85a2-f7557583087d","ios":"levelo://app?vid=1da98f29-e1c4-45b4-85a2-f7557583087d"},"vehicle_type_id":"4","last_reported":1693436753,"current_range_meters":2000,"station_id":"ce4bh012rcd13ifvqcv0","pricing_plan_id":"free"},{"bike_id":"76e34cb8-0518-4b98-b5c7-d844eabfa03e","system_id":"levelo_inurba_marseille","lat":43.308804,"lon":5.396715,"is_reserved":false,"is_disabled":false,"rental_uris":{"android":"levelo://app?vid=76e34cb8-0518-4b98-b5c7-d844eabfa03e","ios":"levelo://app?vid=76e34cb8-0518-4b98-b5c7-d844eabfa03e"},"vehicle_type_id":"4","last_reported":1693436753,"current_range_meters":24800,"station_id":"","pricing_plan_id":"free"},{"bike_id":"93c53789-2341-4b2d-9f89-a1fb2f99c4e9","system_id":"levelo_inurba_marseille","lat":43.290779,"lon":5.371482,"is_reserved":false,"is_disabled":false,"rental_uris":{"android":"levelo://app?vid=93c53789-2341-4b2d-9f89-a1fb2f99c4e9","ios":"levelo://app?vid=93c53789-2341-4b2d-9f89-a1fb2f99c4e9"},"vehicle_type_id":"4","last_reported":1693436753,"current_range_meters":5200,"station_id":"ce4bh5p2rcd13ifvqe4g","pricing_plan_id":"free"},{"bike_id":"7edf89d6-cc8e-40c4-8340-242e6e7c5eb9","system_id":"levelo_inurba_marseille","lat":43.302008,"lon":5.394694,"is_reserved":false,"is_disabled":false,"rental_uris":{"android":"levelo://app?vid=7edf89d6-cc8e-40c4-8340-242e6e7c5eb9","ios":"levelo://app?vid=7edf89d6-cc8e-40c4-8340-242e6e7c5eb9"},"vehicle_type_id":"4","last_reported":1693436753,"current_range_meters":400,"station_id":"ce4bh0p2rcd13ifvqd70","pricing_plan_id":"free"},{"bike_id":"c0e9f6f2-1291-435c-943f-44d0b9c871f1","system_id":"levelo_inurba_marseille","lat":43.302008,"lon":5.394694,"is_reserved":false,"is_disabled":false,"rental_uris":{"android":"levelo://app?vid=c0e9f6f2-1291-435c-943f-44d0b9c871f1","ios":"levelo://app?vid=c0e9f6f2-1291-435c-943f-44d0b9c871f1"},"vehicle_type_id":"4","last_reported":1693436753,"current_range_meters":10400,"station_id":"ce4bh0p2rcd13ifvqd70","pricing_plan_id":"free"},{"bike_id":"3c44f0e3-4a32-446c-b6f5-f4c9e8a0b63f","system_id":"levelo_inurba_marseille","lat":43.302008,"lon":5.394694,"is_reserved":false,"is_disabled":false,"rental_uris":{"android":"levelo://app?vid=3c44f0e3-4a32-446c-b6f5-f4c9e8a0b63f","ios":"levelo://app?vid=3c44f0e3-4a32-446c-b6f5-f4c9e8a0b63f"},"vehicle_type_id":"4","last_reported":1693436753,"current_range_meters":12800,"station_id":"ce4bh0p2rcd13ifvqd70","pricing_plan_id":"free"},{"bike_id":"cca9bfc6-f0a5-45e8-b2ca-3f5c95a6131d","system_id":"levelo_inurba_marseille","lat":43.29045,"lon":5.35921,"is_reserved":false,"is_disabled":false,"rental_uris":{"android":"levelo://app?vid=cca9bfc6-f0a5-45e8-b2ca-3f5c95a6131d","ios":"levelo://app?vid=cca9bfc6-f0a5-45e8-b2ca-3f5c95a6131d"},"vehicle_type_id":"4","last_reported":1693436753,"current_range_meters":27600,"station_id":"ce4bha92rcd13ifvqeg0","pricing_plan_id":"free"},{"bike_id":"5a4bd601-3a14-4e21-a98d-2fc2f9485486","system_id":"levelo_inurba_marseille","lat":43.290631,"lon":5.359244,"is_reserved":false,"is_disabled":false,"rental_uris":{"android":"levelo://app?vid=5a4bd601-3a14-4e21-a98d-2fc2f9485486","ios":"levelo://app?vid=5a4bd601-3a14-4e21-a98d-2fc2f9485486"},"vehicle_type_id":"4","last_reported":1693436753,"current_range_meters":26400,"station_id":"ce4bha92rcd13ifvqeg0","pricing_plan_id":"free"},{"bike_id":"df2c46de-5e1c-4930-8288-1fd1547355b9","system_id":"levelo_inurba_marseille","lat":43.290327,"lon":5.375711,"is_reserved":false,"is_disabled":false,"rental_uris":{"android":"levelo://app?vid=df2c46de-5e1c-4930-8288-1fd1547355b9","ios":"levelo://app?vid=df2c46de-5e1c-4930-8288-1fd1547355b9"},"vehicle_type_id":"4","last_reported":1693436753,"current_range_meters":10400,"station_id":"ce4bh692rcd13ifvqe90","pricing_plan_id":"free"},{"bike_id":"49c94fb3-4dcf-422f-9616-dc9e291c3c67","system_id":"levelo_inurba_marseille","lat":43.289184,"lon":5.366408,"is_reserved":false,"is_disabled":false,"rental_uris":{"android":"levelo://app?vid=49c94fb3-4dcf-422f-9616-dc9e291c3c67","ios":"levelo://app?vid=49c94fb3-4dcf-422f-9616-dc9e291c3c67"},"vehicle_type_id":"4","last_reported":1693436753,"current_range_meters":6000,"station_id":"ce4bhap2rcd13ifvqek0","pricing_plan_id":"free"},{"bike_id":"2f93318d-a393-4e93-88c9-60d3ec241b0e","system_id":"levelo_inurba_marseille","lat":43.28937,"lon":5.36641,"is_reserved":false,"is_disabled":false,"rental_uris":{"android":"levelo://app?vid=2f93318d-a393-4e93-88c9-60d3ec241b0e","ios":"levelo://app?vid=2f93318d-a393-4e93-88c9-60d3ec241b0e"},"vehicle_type_id":"4","last_reported":1693436753,"current_range_meters":31200,"station_id":"ce4bhap2rcd13ifvqek0","pricing_plan_id":"free"},{"bike_id":"509df490-3ef2-4cdd-aaf2-8484295df699","system_id":"levelo_inurba_marseille","lat":43.28934,"lon":5.36635,"is_reserved":false,"is_disabled":false,"rental_uris":{"android":"levelo://app?vid=509df490-3ef2-4cdd-aaf2-8484295df699","ios":"levelo://app?vid=509df490-3ef2-4cdd-aaf2-8484295df699"},"vehicle_type_id":"4","last_reported":1693436753,"current_range_meters":18400,"station_id":"ce4bhap2rcd13ifvqek0","pricing_plan_id":"free"},{"bike_id":"de86a38f-8557-4627-a491-5b5d9d05f97c","system_id":"levelo_inurba_marseille","lat":43.289468,"lon":5.363719,"is_reserved":false,"is_disabled":false,"rental_uris":{"android":"levelo://app?vid=de86a38f-8557-4627-a491-5b5d9d05f97c","ios":"levelo://app?vid=de86a38f-8557-4627-a491-5b5d9d05f97c"},"vehicle_type_id":"4","last_reported":1693436753,"current_range_meters":25600,"station_id":"ce4bhc92rcd13ifvqetg","pricing_plan_id":"free"},{"bike_id":"b127cb02-a67f-4944-955b-2653cb69db42","system_id":"levelo_inurba_marseille","lat":43.28935,"lon":5.36406,"is_reserved":false,"is_disabled":false,"rental_uris":{"android":"levelo://app?vid=b127cb02-a67f-4944-955b-2653cb69db42","ios":"levelo://app?vid=b127cb02-a67f-4944-955b-2653cb69db42"},"vehicle_type_id":"4","last_reported":1693436753,"current_range_meters":26000,"station_id":"ce4bhc92rcd13ifvqetg","pricing_plan_id":"free"},{"bike_id":"439017cf-f707-4fc3-b081-400dca2904a4","system_id":"levelo_inurba_marseille","lat":43.289468,"lon":5.363719,"is_reserved":false,"is_disabled":false,"rental_uris":{"android":"levelo://app?vid=439017cf-f707-4fc3-b081-400dca2904a4","ios":"levelo://app?vid=439017cf-f707-4fc3-b081-400dca2904a4"},"vehicle_type_id":"4","last_reported":1693436753,"current_range_meters":25200,"station_id":"ce4bhc92rcd13ifvqetg","pricing_plan_id":"free"},{"bike_id":"525fd913-42a0-4aee-89f6-e39d75f4ad1f","system_id":"levelo_inurba_marseille","lat":43.289468,"lon":5.363719,"is_reserved":false,"is_disabled":false,"rental_uris":{"android":"levelo://app?vid=525fd913-42a0-4aee-89f6-e39d75f4ad1f","ios":"levelo://app?vid=525fd913-42a0-4aee-89f6-e39d75f4ad1f"},"vehicle_type_id":"4","last_reported":1693436753,"current_range_meters":28000,"station_id":"ce4bhc92rcd13ifvqetg","pricing_plan_id":"free"},{"bike_id":"a68cbc10-ef63-499c-bc6e-90ccd1643aff","system_id":"levelo_inurba_marseille","lat":43.289468,"lon":5.363719,"is_reserved":false,"is_disabled":false,"rental_uris":{"android":"levelo://app?vid=a68cbc10-ef63-499c-bc6e-90ccd1643aff","ios":"levelo://app?vid=a68cbc10-ef63-499c-bc6e-90ccd1643aff"},"vehicle_type_id":"4","last_reported":1693436753,"current_range_meters":16000,"station_id":"ce4bhc92rcd13ifvqetg","pricing_plan_id":"free"},{"bike_id":"c224b50b-f0cc-4252-8e3c-c0ebe3eba165","system_id":"levelo_inurba_marseille","lat":43.289468,"lon":5.363719,"is_reserved":false,"is_disabled":false,"rental_uris":{"android":"levelo://app?vid=c224b50b-f0cc-4252-8e3c-c0ebe3eba165","ios":"levelo://app?vid=c224b50b-f0cc-4252-8e3c-c0ebe3eba165"},"vehicle_type_id":"4","last_reported":1693436753,"current_range_meters":29200,"station_id":"ce4bhc92rcd13ifvqetg","pricing_plan_id":"free"},{"bike_id":"13b7a4ba-a774-46dc-8db2-123dc432b6d5","system_id":"levelo_inurba_marseille","lat":43.289468,"lon":5.363719,"is_reserved":false,"is_disabled":false,"rental_uris":{"android":"levelo://app?vid=13b7a4ba-a774-46dc-8db2-123dc432b6d5","ios":"levelo://app?vid=13b7a4ba-a774-46dc-8db2-123dc432b6d5"},"vehicle_type_id":"4","last_reported":1693436753,"current_range_meters":29200,"station_id":"ce4bhc92rcd13ifvqetg","pricing_plan_id":"free"},{"bike_id":"be09f781-a401-459c-8940-532da6f376c7","system_id":"levelo_inurba_marseille","lat":43.289468,"lon":5.363719,"is_reserved":false,"is_disabled":false,"rental_uris":{"android":"levelo://app?vid=be09f781-a401-459c-8940-532da6f376c7","ios":"levelo://app?vid=be09f781-a401-459c-8940-532da6f376c7"},"vehicle_type_id":"4","last_reported":1693436753,"current_range_meters":27600,"station_id":"ce4bhc92rcd13ifvqetg","pricing_plan_id":"free"},{"bike_id":"3aa27f9b-879a-48dc-85da-58e225a951e3","system_id":"levelo_inurba_marseille","lat":43.304296,"lon":5.397513,"is_reserved":false,"is_disabled":false,"rental_uris":{"android":"levelo://app?vid=3aa27f9b-879a-48dc-85da-58e225a951e3","ios":"levelo://app?vid=3aa27f9b-879a-48dc-85da-58e225a951e3"},"vehicle_type_id":"4","last_reported":1693436753,"current_range_meters":13600,"station_id":"ce4bh092rcd13ifvqd20","pricing_plan_id":"free"},{"bike_id":"fac71603-df22-4d3b-b321-e4bd60a9b165","system_id":"levelo_inurba_marseille","lat":43.304296,"lon":5.397513,"is_reserved":false,"is_disabled":false,"rental_uris":{"android":"levelo://app?vid=fac71603-df22-4d3b-b321-e4bd60a9b165","ios":"levelo://app?vid=fac71603-df22-4d3b-b321-e4bd60a9b165"},"vehicle_type_id":"4","last_reported":1693436753,"current_range_meters":2800,"station_id":"ce4bh092rcd13ifvqd20","pricing_plan_id":"free"},{"bike_id":"7e21674d-9dd7-4141-b128-f2a049f03f20","system_id":"levelo_inurba_marseille","lat":43.304296,"lon":5.397513,"is_reserved":false,"is_disabled":false,"rental_uris":{"android":"levelo://app?vid=7e21674d-9dd7-4141-b128-f2a049f03f20","ios":"levelo://app?vid=7e21674d-9dd7-4141-b128-f2a049f03f20"},"vehicle_type_id":"4","last_reported":1693436753,"current_range_meters":4400,"station_id":"ce4bh092rcd13ifvqd20","pricing_plan_id":"free"},{"bike_id":"218312be-77a3-4529-b9b5-e5dd1c6d1ff5","system_id":"levelo_inurba_marseille","lat":43.304274,"lon":5.397513,"is_reserved":false,"is_disabled":false,"rental_uris":{"android":"levelo://app?vid=218312be-77a3-4529-b9b5-e5dd1c6d1ff5","ios":"levelo://app?vid=218312be-77a3-4529-b9b5-e5dd1c6d1ff5"},"vehicle_type_id":"4","last_reported":1693436753,"current_range_meters":28000,"station_id":"ce4bh092rcd13ifvqd20","pricing_plan_id":"free"},{"bike_id":"f0934a73-5521-47f3-b80b-982538cbddb7","system_id":"levelo_inurba_marseille","lat":43.304296,"lon":5.397513,"is_reserved":false,"is_disabled":false,"rental_uris":{"android":"levelo://app?vid=f0934a73-5521-47f3-b80b-982538cbddb7","ios":"levelo://app?vid=f0934a73-5521-47f3-b80b-982538cbddb7"},"vehicle_type_id":"4","last_reported":1693436753,"current_range_meters":31200,"station_id":"ce4bh092rcd13ifvqd20","pricing_plan_id":"free"},{"bike_id":"d11b89ea-03d9-4bd1-8d94-225f53817def","system_id":"levelo_inurba_marseille","lat":43.3304,"lon":5.3892,"is_reserved":false,"is_disabled":false,"rental_uris":{"android":"levelo://app?vid=d11b89ea-03d9-4bd1-8d94-225f53817def","ios":"levelo://app?vid=d11b89ea-03d9-4bd1-8d94-225f53817def"},"vehicle_type_id":"4","last_reported":1693436753,"current_range_meters":21600,"station_id":"ce4bhr92rcd13ifvqhrg","pricing_plan_id":"free"},{"bike_id":"80164406-e4cb-4c3c-bff1-ef3f2f004f8a","system_id":"levelo_inurba_marseille","lat":43.33046,"lon":5.38912,"is_reserved":false,"is_disabled":false,"rental_uris":{"android":"levelo://app?vid=80164406-e4cb-4c3c-bff1-ef3f2f004f8a","ios":"levelo://app?vid=80164406-e4cb-4c3c-bff1-ef3f2f004f8a"},"vehicle_type_id":"4","last_reported":1693436753,"current_range_meters":29600,"station_id":"ce4bhr92rcd13ifvqhrg","pricing_plan_id":"free"},{"bike_id":"c08c9b2c-b6e9-4e3e-9db7-c035a2c47355","system_id":"levelo_inurba_marseille","lat":43.33042,"lon":5.38921,"is_reserved":false,"is_disabled":false,"rental_uris":{"android":"levelo://app?vid=c08c9b2c-b6e9-4e3e-9db7-c035a2c47355","ios":"levelo://app?vid=c08c9b2c-b6e9-4e3e-9db7-c035a2c47355"},"vehicle_type_id":"4","last_reported":1693436753,"current_range_meters":30000,"station_id":"ce4bhr92rcd13ifvqhrg","pricing_plan_id":"free"},{"bike_id":"1f6855f2-5ce0-4004-a5b2-a14147e92639","system_id":"levelo_inurba_marseille","lat":43.33044,"lon":5.38918,"is_reserved":false,"is_disabled":false,"rental_uris":{"android":"levelo://app?vid=1f6855f2-5ce0-4004-a5b2-a14147e92639","ios":"levelo://app?vid=1f6855f2-5ce0-4004-a5b2-a14147e92639"},"vehicle_type_id":"4","last_reported":1693436753,"current_range_meters":27200,"station_id":"ce4bhr92rcd13ifvqhrg","pricing_plan_id":"free"},{"bike_id":"a0da7e9f-fa22-496f-92c4-9a8270a5ad16","system_id":"levelo_inurba_marseille","lat":43.33048,"lon":5.38917,"is_reserved":false,"is_disabled":false,"rental_uris":{"android":"levelo://app?vid=a0da7e9f-fa22-496f-92c4-9a8270a5ad16","ios":"levelo://app?vid=a0da7e9f-fa22-496f-92c4-9a8270a5ad16"},"vehicle_type_id":"4","last_reported":1693436753,"current_range_meters":25600,"station_id":"ce4bhr92rcd13ifvqhrg","pricing_plan_id":"free"},{"bike_id":"43db6ce9-d152-4a70-b251-c1ef6bb7998f","system_id":"levelo_inurba_marseille","lat":43.33047,"lon":5.3892,"is_reserved":false,"is_disabled":false,"rental_uris":{"android":"levelo://app?vid=43db6ce9-d152-4a70-b251-c1ef6bb7998f","ios":"levelo://app?vid=43db6ce9-d152-4a70-b251-c1ef6bb7998f"},"vehicle_type_id":"4","last_reported":1693436753,"current_range_meters":20800,"station_id":"ce4bhr92rcd13ifvqhrg","pricing_plan_id":"free"},{"bike_id":"1895038e-acdb-4d35-aa35-e1291f23a30a","system_id":"levelo_inurba_marseille","lat":43.290104,"lon":5.356111,"is_reserved":false,"is_disabled":false,"rental_uris":{"android":"levelo://app?vid=1895038e-acdb-4d35-aa35-e1291f23a30a","ios":"levelo://app?vid=1895038e-acdb-4d35-aa35-e1291f23a30a"},"vehicle_type_id":"4","last_reported":1693436753,"current_range_meters":31200,"station_id":"ce4bhb92rcd13ifvqen0","pricing_plan_id":"free"},{"bike_id":"028b16b4-c861-455c-93e2-214442c48086","system_id":"levelo_inurba_marseille","lat":43.290103,"lon":5.356114,"is_reserved":false,"is_disabled":false,"rental_uris":{"android":"levelo://app?vid=028b16b4-c861-455c-93e2-214442c48086","ios":"levelo://app?vid=028b16b4-c861-455c-93e2-214442c48086"},"vehicle_type_id":"4","last_reported":1693436753,"current_range_meters":31200,"station_id":"ce4bhb92rcd13ifvqen0","pricing_plan_id":"free"},{"bike_id":"12ceef30-511b-4c13-a2b4-28e2146f00ef","system_id":"levelo_inurba_marseille","lat":43.297815,"lon":5.393548,"is_reserved":false,"is_disabled":false,"rental_uris":{"android":"levelo://app?vid=12ceef30-511b-4c13-a2b4-28e2146f00ef","ios":"levelo://app?vid=12ceef30-511b-4c13-a2b4-28e2146f00ef"},"vehicle_type_id":"4","last_reported":1693436753,"current_range_meters":30800,"station_id":"chh1huq6cuj3fo74tm60","pricing_plan_id":"free"},{"bike_id":"d215becc-ff57-4079-a25d-fb3dc08c101c","system_id":"levelo_inurba_marseille","lat":43.297815,"lon":5.393548,"is_reserved":false,"is_disabled":false,"rental_uris":{"android":"levelo://app?vid=d215becc-ff57-4079-a25d-fb3dc08c101c","ios":"levelo://app?vid=d215becc-ff57-4079-a25d-fb3dc08c101c"},"vehicle_type_id":"4","last_reported":1693436753,"current_range_meters":28800,"station_id":"chh1huq6cuj3fo74tm60","pricing_plan_id":"free"},{"bike_id":"0c7a2359-a661-411d-80ee-7db6f9f83603","system_id":"levelo_inurba_marseille","lat":43.29781,"lon":5.39332,"is_reserved":false,"is_disabled":false,"rental_uris":{"android":"levelo://app?vid=0c7a2359-a661-411d-80ee-7db6f9f83603","ios":"levelo://app?vid=0c7a2359-a661-411d-80ee-7db6f9f83603"},"vehicle_type_id":"4","last_reported":1693436753,"current_range_meters":31200,"station_id":"chh1huq6cuj3fo74tm60","pricing_plan_id":"free"},{"bike_id":"ce0d0ae8-ce1c-4e9d-a8fb-02b0f1ebb1d1","system_id":"levelo_inurba_marseille","lat":43.297815,"lon":5.393548,"is_reserved":false,"is_disabled":false,"rental_uris":{"android":"levelo://app?vid=ce0d0ae8-ce1c-4e9d-a8fb-02b0f1ebb1d1","ios":"levelo://app?vid=ce0d0ae8-ce1c-4e9d-a8fb-02b0f1ebb1d1"},"vehicle_type_id":"4","last_reported":1693436753,"current_range_meters":25600,"station_id":"chh1huq6cuj3fo74tm60","pricing_plan_id":"free"},{"bike_id":"d143d9c6-b173-4ed5-a04b-da76e8d1bbf5","system_id":"levelo_inurba_marseille","lat":43.295169,"lon":5.390426,"is_reserved":false,"is_disabled":false,"rental_uris":{"android":"levelo://app?vid=d143d9c6-b173-4ed5-a04b-da76e8d1bbf5","ios":"levelo://app?vid=d143d9c6-b173-4ed5-a04b-da76e8d1bbf5"},"vehicle_type_id":"4","last_reported":1693436753,"current_range_meters":20800,"station_id":"ce4bh3p2rcd13ifvqdp0","pricing_plan_id":"free"},{"bike_id":"dbbbf944-041b-493a-8d0b-921e9705744c","system_id":"levelo_inurba_marseille","lat":43.297815,"lon":5.393548,"is_reserved":false,"is_disabled":false,"rental_uris":{"android":"levelo://app?vid=dbbbf944-041b-493a-8d0b-921e9705744c","ios":"levelo://app?vid=dbbbf944-041b-493a-8d0b-921e9705744c"},"vehicle_type_id":"4","last_reported":1693436753,"current_range_meters":31200,"station_id":"chh1huq6cuj3fo74tm60","pricing_plan_id":"free"},{"bike_id":"2044c706-f528-49b0-92ec-b0045837b268","system_id":"levelo_inurba_marseille","lat":43.297815,"lon":5.393548,"is_reserved":false,"is_disabled":false,"rental_uris":{"android":"levelo://app?vid=2044c706-f528-49b0-92ec-b0045837b268","ios":"levelo://app?vid=2044c706-f528-49b0-92ec-b0045837b268"},"vehicle_type_id":"4","last_reported":1693436753,"current_range_meters":31200,"station_id":"chh1huq6cuj3fo74tm60","pricing_plan_id":"free"},{"bike_id":"e3286ce0-6fc0-4412-b8a3-86137fbb4a68","system_id":"levelo_inurba_marseille","lat":43.297815,"lon":5.393548,"is_reserved":false,"is_disabled":false,"rental_uris":{"android":"levelo://app?vid=e3286ce0-6fc0-4412-b8a3-86137fbb4a68","ios":"levelo://app?vid=e3286ce0-6fc0-4412-b8a3-86137fbb4a68"},"vehicle_type_id":"4","last_reported":1693436753,"current_range_meters":6000,"station_id":"chh1huq6cuj3fo74tm60","pricing_plan_id":"free"},{"bike_id":"9575620b-be42-46b6-a1f8-5a25477ade2b","system_id":"levelo_inurba_marseille","lat":43.289741,"lon":5.378306,"is_reserved":false,"is_disabled":false,"rental_uris":{"android":"levelo://app?vid=9575620b-be42-46b6-a1f8-5a25477ade2b","ios":"levelo://app?vid=9575620b-be42-46b6-a1f8-5a25477ade2b"},"vehicle_type_id":"4","last_reported":1693436753,"current_range_meters":31600,"station_id":"ce4bh9p2rcd13ifvqed0","pricing_plan_id":"free"},{"bike_id":"a5b096f5-205d-4312-9864-98704392c8d1","system_id":"levelo_inurba_marseille","lat":43.289741,"lon":5.378306,"is_reserved":false,"is_disabled":false,"rental_uris":{"android":"levelo://app?vid=a5b096f5-205d-4312-9864-98704392c8d1","ios":"levelo://app?vid=a5b096f5-205d-4312-9864-98704392c8d1"},"vehicle_type_id":"4","last_reported":1693436753,"current_range_meters":29600,"station_id":"ce4bh9p2rcd13ifvqed0","pricing_plan_id":"free"},{"bike_id":"9814ce68-77ef-44b8-9bf1-cd755a395db0","system_id":"levelo_inurba_marseille","lat":43.2901,"lon":5.381269,"is_reserved":false,"is_disabled":false,"rental_uris":{"android":"levelo://app?vid=9814ce68-77ef-44b8-9bf1-cd755a395db0","ios":"levelo://app?vid=9814ce68-77ef-44b8-9bf1-cd755a395db0"},"vehicle_type_id":"4","last_reported":1693436753,"current_range_meters":31200,"station_id":"ce4bh4p2rcd13ifvqe1g","pricing_plan_id":"free"},{"bike_id":"6bbb5e02-c34c-4db9-90b3-0ab46a957a17","system_id":"levelo_inurba_marseille","lat":43.290193,"lon":5.381328,"is_reserved":false,"is_disabled":false,"rental_uris":{"android":"levelo://app?vid=6bbb5e02-c34c-4db9-90b3-0ab46a957a17","ios":"levelo://app?vid=6bbb5e02-c34c-4db9-90b3-0ab46a957a17"},"vehicle_type_id":"4","last_reported":1693436753,"current_range_meters":31200,"station_id":"ce4bh4p2rcd13ifvqe1g","pricing_plan_id":"free"},{"bike_id":"485fcecf-2db5-4aa5-9557-51960e51b6c7","system_id":"levelo_inurba_marseille","lat":43.29022,"lon":5.38145,"is_reserved":false,"is_disabled":false,"rental_uris":{"android":"levelo://app?vid=485fcecf-2db5-4aa5-9557-51960e51b6c7","ios":"levelo://app?vid=485fcecf-2db5-4aa5-9557-51960e51b6c7"},"vehicle_type_id":"4","last_reported":1693436753,"current_range_meters":31200,"station_id":"ce4bh4p2rcd13ifvqe1g","pricing_plan_id":"free"},{"bike_id":"3ce6308f-1c41-43f7-88a0-77dcdfaf6334","system_id":"levelo_inurba_marseille","lat":43.290152,"lon":5.381271,"is_reserved":false,"is_disabled":false,"rental_uris":{"android":"levelo://app?vid=3ce6308f-1c41-43f7-88a0-77dcdfaf6334","ios":"levelo://app?vid=3ce6308f-1c41-43f7-88a0-77dcdfaf6334"},"vehicle_type_id":"4","last_reported":1693436753,"current_range_meters":30400,"station_id":"ce4bh4p2rcd13ifvqe1g","pricing_plan_id":"free"},{"bike_id":"b4454d7a-43a2-4ba7-95c4-9f2c178fec3a","system_id":"levelo_inurba_marseille","lat":43.290122,"lon":5.381236,"is_reserved":false,"is_disabled":false,"rental_uris":{"android":"levelo://app?vid=b4454d7a-43a2-4ba7-95c4-9f2c178fec3a","ios":"levelo://app?vid=b4454d7a-43a2-4ba7-95c4-9f2c178fec3a"},"vehicle_type_id":"4","last_reported":1693436753,"current_range_meters":31200,"station_id":"ce4bh4p2rcd13ifvqe1g","pricing_plan_id":"free"},{"bike_id":"0998f880-f2a0-448f-8ea1-58ed12203e29","system_id":"levelo_inurba_marseille","lat":43.28856,"lon":5.358371,"is_reserved":false,"is_disabled":false,"rental_uris":{"android":"levelo://app?vid=0998f880-f2a0-448f-8ea1-58ed12203e29","ios":"levelo://app?vid=0998f880-f2a0-448f-8ea1-58ed12203e29"},"vehicle_type_id":"4","last_reported":1693436753,"current_range_meters":22400,"station_id":"ce4bhb12rcd13ifvqem0","pricing_plan_id":"free"},{"bike_id":"2f8df6b4-f376-4a3b-b85c-4dd3b2d83c25","system_id":"levelo_inurba_marseille","lat":43.30944,"lon":5.40135,"is_reserved":false,"is_disabled":false,"rental_uris":{"android":"levelo://app?vid=2f8df6b4-f376-4a3b-b85c-4dd3b2d83c25","ios":"levelo://app?vid=2f8df6b4-f376-4a3b-b85c-4dd3b2d83c25"},"vehicle_type_id":"4","last_reported":1693436753,"current_range_meters":31200,"station_id":"ce4bgvp2rcd13ifvqct0","pricing_plan_id":"free"},{"bike_id":"a5edda04-630c-4337-913b-d9bd8da92bc3","system_id":"levelo_inurba_marseille","lat":43.30933,"lon":5.40143,"is_reserved":false,"is_disabled":false,"rental_uris":{"android":"levelo://app?vid=a5edda04-630c-4337-913b-d9bd8da92bc3","ios":"levelo://app?vid=a5edda04-630c-4337-913b-d9bd8da92bc3"},"vehicle_type_id":"4","last_reported":1693436753,"current_range_meters":31200,"station_id":"ce4bgvp2rcd13ifvqct0","pricing_plan_id":"free"},{"bike_id":"1c88fb2e-3b3a-4e45-9b18-ba3017080a16","system_id":"levelo_inurba_marseille","lat":43.31261,"lon":5.40176,"is_reserved":false,"is_disabled":false,"rental_uris":{"android":"levelo://app?vid=1c88fb2e-3b3a-4e45-9b18-ba3017080a16","ios":"levelo://app?vid=1c88fb2e-3b3a-4e45-9b18-ba3017080a16"},"vehicle_type_id":"4","last_reported":1693436753,"current_range_meters":2800,"station_id":"ce4bh092rcd13ifvqd30","pricing_plan_id":"free"},{"bike_id":"557ba570-cad7-43ff-8a1c-b4c424de0e0d","system_id":"levelo_inurba_marseille","lat":43.3126,"lon":5.40177,"is_reserved":false,"is_disabled":false,"rental_uris":{"android":"levelo://app?vid=557ba570-cad7-43ff-8a1c-b4c424de0e0d","ios":"levelo://app?vid=557ba570-cad7-43ff-8a1c-b4c424de0e0d"},"vehicle_type_id":"4","last_reported":1693436753,"current_range_meters":24400,"station_id":"ce4bh092rcd13ifvqd30","pricing_plan_id":"free"},{"bike_id":"593aa583-da6d-46d8-8bb2-e8954977fa3e","system_id":"levelo_inurba_marseille","lat":43.31276,"lon":5.40178,"is_reserved":false,"is_disabled":false,"rental_uris":{"android":"levelo://app?vid=593aa583-da6d-46d8-8bb2-e8954977fa3e","ios":"levelo://app?vid=593aa583-da6d-46d8-8bb2-e8954977fa3e"},"vehicle_type_id":"4","last_reported":1693436753,"current_range_meters":31200,"station_id":"ce4bh092rcd13ifvqd30","pricing_plan_id":"free"},{"bike_id":"af12bf37-40ad-406d-86c8-d480a0464db4","system_id":"levelo_inurba_marseille","lat":43.309371,"lon":5.401449,"is_reserved":false,"is_disabled":false,"rental_uris":{"android":"levelo://app?vid=af12bf37-40ad-406d-86c8-d480a0464db4","ios":"levelo://app?vid=af12bf37-40ad-406d-86c8-d480a0464db4"},"vehicle_type_id":"4","last_reported":1693436753,"current_range_meters":31200,"station_id":"ce4bgvp2rcd13ifvqct0","pricing_plan_id":"free"},{"bike_id":"cd27ec68-d6bf-46dd-869e-b49a12dfa639","system_id":"levelo_inurba_marseille","lat":43.30927,"lon":5.40153,"is_reserved":false,"is_disabled":false,"rental_uris":{"android":"levelo://app?vid=cd27ec68-d6bf-46dd-869e-b49a12dfa639","ios":"levelo://app?vid=cd27ec68-d6bf-46dd-869e-b49a12dfa639"},"vehicle_type_id":"4","last_reported":1693436753,"current_range_meters":0,"station_id":"ce4bgvp2rcd13ifvqct0","pricing_plan_id":"free"},{"bike_id":"53f03635-2ae8-498f-b28d-1b97014b1aa9","system_id":"levelo_inurba_marseille","lat":43.30642,"lon":5.401031,"is_reserved":false,"is_disabled":false,"rental_uris":{"android":"levelo://app?vid=53f03635-2ae8-498f-b28d-1b97014b1aa9","ios":"levelo://app?vid=53f03635-2ae8-498f-b28d-1b97014b1aa9"},"vehicle_type_id":"4","last_reported":1693436753,"current_range_meters":26800,"station_id":"ce4bh112rcd13ifvqda0","pricing_plan_id":"free"},{"bike_id":"52641ae1-5b53-412e-9bec-b8a9db43bea3","system_id":"levelo_inurba_marseille","lat":43.30642,"lon":5.401031,"is_reserved":false,"is_disabled":false,"rental_uris":{"android":"levelo://app?vid=52641ae1-5b53-412e-9bec-b8a9db43bea3","ios":"levelo://app?vid=52641ae1-5b53-412e-9bec-b8a9db43bea3"},"vehicle_type_id":"4","last_reported":1693436753,"current_range_meters":29200,"station_id":"ce4bh112rcd13ifvqda0","pricing_plan_id":"free"},{"bike_id":"7102e662-0fdc-4c97-9a59-f86b3f19e7bb","system_id":"levelo_inurba_marseille","lat":43.30642,"lon":5.401031,"is_reserved":false,"is_disabled":false,"rental_uris":{"android":"levelo://app?vid=7102e662-0fdc-4c97-9a59-f86b3f19e7bb","ios":"levelo://app?vid=7102e662-0fdc-4c97-9a59-f86b3f19e7bb"},"vehicle_type_id":"4","last_reported":1693436753,"current_range_meters":11200,"station_id":"ce4bh112rcd13ifvqda0","pricing_plan_id":"free"},{"bike_id":"035176f2-b189-401a-a6dd-6025c01e49b5","system_id":"levelo_inurba_marseille","lat":43.3091,"lon":5.4017,"is_reserved":false,"is_disabled":false,"rental_uris":{"android":"levelo://app?vid=035176f2-b189-401a-a6dd-6025c01e49b5","ios":"levelo://app?vid=035176f2-b189-401a-a6dd-6025c01e49b5"},"vehicle_type_id":"4","last_reported":1693436753,"current_range_meters":31200,"station_id":"ce4bgvp2rcd13ifvqct0","pricing_plan_id":"free"},{"bike_id":"97bfc41f-e5dd-49c7-ba36-d0b4bf7bb433","system_id":"levelo_inurba_marseille","lat":43.301117,"lon":5.398795,"is_reserved":false,"is_disabled":false,"rental_uris":{"android":"levelo://app?vid=97bfc41f-e5dd-49c7-ba36-d0b4bf7bb433","ios":"levelo://app?vid=97bfc41f-e5dd-49c7-ba36-d0b4bf7bb433"},"vehicle_type_id":"4","last_reported":1693436753,"current_range_meters":14400,"station_id":"ce4bh0h2rcd13ifvqd40","pricing_plan_id":"free"},{"bike_id":"440ce5cd-a71a-45d3-a434-a8eb486311fb","system_id":"levelo_inurba_marseille","lat":43.30135,"lon":5.39864,"is_reserved":false,"is_disabled":false,"rental_uris":{"android":"levelo://app?vid=440ce5cd-a71a-45d3-a434-a8eb486311fb","ios":"levelo://app?vid=440ce5cd-a71a-45d3-a434-a8eb486311fb"},"vehicle_type_id":"4","last_reported":1693436753,"current_range_meters":9200,"station_id":"ce4bh0h2rcd13ifvqd40","pricing_plan_id":"free"},{"bike_id":"0d1a51f1-467a-41e7-a144-3f8cbbe03813","system_id":"levelo_inurba_marseille","lat":43.301117,"lon":5.398795,"is_reserved":false,"is_disabled":false,"rental_uris":{"android":"levelo://app?vid=0d1a51f1-467a-41e7-a144-3f8cbbe03813","ios":"levelo://app?vid=0d1a51f1-467a-41e7-a144-3f8cbbe03813"},"vehicle_type_id":"4","last_reported":1693436753,"current_range_meters":26400,"station_id":"ce4bh0h2rcd13ifvqd40","pricing_plan_id":"free"},{"bike_id":"44393f7d-519c-46fe-9e3f-3f3f26dbba37","system_id":"levelo_inurba_marseille","lat":43.301117,"lon":5.398795,"is_reserved":false,"is_disabled":false,"rental_uris":{"android":"levelo://app?vid=44393f7d-519c-46fe-9e3f-3f3f26dbba37","ios":"levelo://app?vid=44393f7d-519c-46fe-9e3f-3f3f26dbba37"},"vehicle_type_id":"4","last_reported":1693436753,"current_range_meters":32000,"station_id":"ce4bh0h2rcd13ifvqd40","pricing_plan_id":"free"},{"bike_id":"29a1b8e3-28c5-4a51-a0dd-c241ca9f720f","system_id":"levelo_inurba_marseille","lat":43.301117,"lon":5.398795,"is_reserved":false,"is_disabled":false,"rental_uris":{"android":"levelo://app?vid=29a1b8e3-28c5-4a51-a0dd-c241ca9f720f","ios":"levelo://app?vid=29a1b8e3-28c5-4a51-a0dd-c241ca9f720f"},"vehicle_type_id":"4","last_reported":1693436753,"current_range_meters":17200,"station_id":"ce4bh0h2rcd13ifvqd40","pricing_plan_id":"free"},{"bike_id":"3ecaec9d-34ff-4105-9727-f30f979a076b","system_id":"levelo_inurba_marseille","lat":43.301117,"lon":5.398795,"is_reserved":false,"is_disabled":false,"rental_uris":{"android":"levelo://app?vid=3ecaec9d-34ff-4105-9727-f30f979a076b","ios":"levelo://app?vid=3ecaec9d-34ff-4105-9727-f30f979a076b"},"vehicle_type_id":"4","last_reported":1693436753,"current_range_meters":13200,"station_id":"ce4bh0h2rcd13ifvqd40","pricing_plan_id":"free"},{"bike_id":"02f6b37c-7f7f-4790-aeab-69aae7d9b258","system_id":"levelo_inurba_marseille","lat":43.30135,"lon":5.3988,"is_reserved":false,"is_disabled":false,"rental_uris":{"android":"levelo://app?vid=02f6b37c-7f7f-4790-aeab-69aae7d9b258","ios":"levelo://app?vid=02f6b37c-7f7f-4790-aeab-69aae7d9b258"},"vehicle_type_id":"4","last_reported":1693436753,"current_range_meters":0,"station_id":"ce4bh0h2rcd13ifvqd40","pricing_plan_id":"free"},{"bike_id":"d1c8c76e-c1f6-4874-9959-7af4a9553ab7","system_id":"levelo_inurba_marseille","lat":43.287111,"lon":5.373838,"is_reserved":false,"is_disabled":false,"rental_uris":{"android":"levelo://app?vid=d1c8c76e-c1f6-4874-9959-7af4a9553ab7","ios":"levelo://app?vid=d1c8c76e-c1f6-4874-9959-7af4a9553ab7"},"vehicle_type_id":"4","last_reported":1693436753,"current_range_meters":23200,"station_id":"","pricing_plan_id":"free"},{"bike_id":"d24e5683-53b0-4814-ac93-0e91d942ae68","system_id":"levelo_inurba_marseille","lat":43.298681,"lon":5.397225,"is_reserved":false,"is_disabled":false,"rental_uris":{"android":"levelo://app?vid=d24e5683-53b0-4814-ac93-0e91d942ae68","ios":"levelo://app?vid=d24e5683-53b0-4814-ac93-0e91d942ae68"},"vehicle_type_id":"4","last_reported":1693436753,"current_range_meters":31200,"station_id":"ce4bh0h2rcd13ifvqd50","pricing_plan_id":"free"},{"bike_id":"3dfa394b-9167-4b79-ad1d-cde0d97f2cd9","system_id":"levelo_inurba_marseille","lat":43.286593,"lon":5.363346,"is_reserved":false,"is_disabled":false,"rental_uris":{"android":"levelo://app?vid=3dfa394b-9167-4b79-ad1d-cde0d97f2cd9","ios":"levelo://app?vid=3dfa394b-9167-4b79-ad1d-cde0d97f2cd9"},"vehicle_type_id":"4","last_reported":1693436753,"current_range_meters":15200,"station_id":"ce4bhah2rcd13ifvqej0","pricing_plan_id":"free"},{"bike_id":"1e2dcca3-9268-4d4d-97c9-1314995f4c75","system_id":"levelo_inurba_marseille","lat":43.298681,"lon":5.397225,"is_reserved":false,"is_disabled":false,"rental_uris":{"android":"levelo://app?vid=1e2dcca3-9268-4d4d-97c9-1314995f4c75","ios":"levelo://app?vid=1e2dcca3-9268-4d4d-97c9-1314995f4c75"},"vehicle_type_id":"4","last_reported":1693436753,"current_range_meters":26400,"station_id":"ce4bh0h2rcd13ifvqd50","pricing_plan_id":"free"},{"bike_id":"f846899b-b8d9-4d08-b5d2-1e857ce7933c","system_id":"levelo_inurba_marseille","lat":43.298681,"lon":5.397225,"is_reserved":false,"is_disabled":false,"rental_uris":{"android":"levelo://app?vid=f846899b-b8d9-4d08-b5d2-1e857ce7933c","ios":"levelo://app?vid=f846899b-b8d9-4d08-b5d2-1e857ce7933c"},"vehicle_type_id":"4","last_reported":1693436753,"current_range_meters":20400,"station_id":"ce4bh0h2rcd13ifvqd50","pricing_plan_id":"free"},{"bike_id":"4bbc80d0-bd72-4463-bed7-ebffec735d16","system_id":"levelo_inurba_marseille","lat":43.298681,"lon":5.397225,"is_reserved":false,"is_disabled":false,"rental_uris":{"android":"levelo://app?vid=4bbc80d0-bd72-4463-bed7-ebffec735d16","ios":"levelo://app?vid=4bbc80d0-bd72-4463-bed7-ebffec735d16"},"vehicle_type_id":"4","last_reported":1693436753,"current_range_meters":19200,"station_id":"ce4bh0h2rcd13ifvqd50","pricing_plan_id":"free"},{"bike_id":"e3803560-c282-44cc-bbc8-acb7ddbdafdd","system_id":"levelo_inurba_marseille","lat":43.298681,"lon":5.397225,"is_reserved":false,"is_disabled":false,"rental_uris":{"android":"levelo://app?vid=e3803560-c282-44cc-bbc8-acb7ddbdafdd","ios":"levelo://app?vid=e3803560-c282-44cc-bbc8-acb7ddbdafdd"},"vehicle_type_id":"4","last_reported":1693436753,"current_range_meters":10000,"station_id":"ce4bh0h2rcd13ifvqd50","pricing_plan_id":"free"},{"bike_id":"118f9707-9358-4fd7-a30e-dc44036e6a84","system_id":"levelo_inurba_marseille","lat":43.28665,"lon":5.36366,"is_reserved":false,"is_disabled":false,"rental_uris":{"android":"levelo://app?vid=118f9707-9358-4fd7-a30e-dc44036e6a84","ios":"levelo://app?vid=118f9707-9358-4fd7-a30e-dc44036e6a84"},"vehicle_type_id":"4","last_reported":1693436753,"current_range_meters":800,"station_id":"ce4bhah2rcd13ifvqej0","pricing_plan_id":"free"},{"bike_id":"5d847162-4210-48a2-9032-5b2ac5ba4119","system_id":"levelo_inurba_marseille","lat":43.286593,"lon":5.363346,"is_reserved":false,"is_disabled":false,"rental_uris":{"android":"levelo://app?vid=5d847162-4210-48a2-9032-5b2ac5ba4119","ios":"levelo://app?vid=5d847162-4210-48a2-9032-5b2ac5ba4119"},"vehicle_type_id":"4","last_reported":1693436753,"current_range_meters":20400,"station_id":"ce4bhah2rcd13ifvqej0","pricing_plan_id":"free"},{"bike_id":"e92a5acf-1076-42e2-bf86-defa312e4086","system_id":"levelo_inurba_marseille","lat":43.286591,"lon":5.363346,"is_reserved":false,"is_disabled":false,"rental_uris":{"android":"levelo://app?vid=e92a5acf-1076-42e2-bf86-defa312e4086","ios":"levelo://app?vid=e92a5acf-1076-42e2-bf86-defa312e4086"},"vehicle_type_id":"4","last_reported":1693436753,"current_range_meters":12000,"station_id":"ce4bhah2rcd13ifvqej0","pricing_plan_id":"free"},{"bike_id":"b749b871-0904-4c63-a365-a5a381b227fb","system_id":"levelo_inurba_marseille","lat":43.298681,"lon":5.397225,"is_reserved":false,"is_disabled":false,"rental_uris":{"android":"levelo://app?vid=b749b871-0904-4c63-a365-a5a381b227fb","ios":"levelo://app?vid=b749b871-0904-4c63-a365-a5a381b227fb"},"vehicle_type_id":"4","last_reported":1693436753,"current_range_meters":32000,"station_id":"ce4bh0h2rcd13ifvqd50","pricing_plan_id":"free"},{"bike_id":"218fdd91-f704-4048-b415-dfa3221cddb9","system_id":"levelo_inurba_marseille","lat":43.298681,"lon":5.397225,"is_reserved":false,"is_disabled":false,"rental_uris":{"android":"levelo://app?vid=218fdd91-f704-4048-b415-dfa3221cddb9","ios":"levelo://app?vid=218fdd91-f704-4048-b415-dfa3221cddb9"},"vehicle_type_id":"4","last_reported":1693436753,"current_range_meters":16400,"station_id":"ce4bh0h2rcd13ifvqd50","pricing_plan_id":"free"},{"bike_id":"75199276-b705-4ad7-b6a9-49aeaa84628a","system_id":"levelo_inurba_marseille","lat":43.286591,"lon":5.363346,"is_reserved":false,"is_disabled":false,"rental_uris":{"android":"levelo://app?vid=75199276-b705-4ad7-b6a9-49aeaa84628a","ios":"levelo://app?vid=75199276-b705-4ad7-b6a9-49aeaa84628a"},"vehicle_type_id":"4","last_reported":1693436753,"current_range_meters":26800,"station_id":"ce4bhah2rcd13ifvqej0","pricing_plan_id":"free"},{"bike_id":"b7ff61b4-f5eb-4877-a994-c635e77bb003","system_id":"levelo_inurba_marseille","lat":43.28664,"lon":5.36358,"is_reserved":false,"is_disabled":false,"rental_uris":{"android":"levelo://app?vid=b7ff61b4-f5eb-4877-a994-c635e77bb003","ios":"levelo://app?vid=b7ff61b4-f5eb-4877-a994-c635e77bb003"},"vehicle_type_id":"4","last_reported":1693436753,"current_range_meters":13200,"station_id":"ce4bhah2rcd13ifvqej0","pricing_plan_id":"free"},{"bike_id":"fbecac70-e377-4e9b-bb74-b204b404126e","system_id":"levelo_inurba_marseille","lat":43.286593,"lon":5.363346,"is_reserved":false,"is_disabled":false,"rental_uris":{"android":"levelo://app?vid=fbecac70-e377-4e9b-bb74-b204b404126e","ios":"levelo://app?vid=fbecac70-e377-4e9b-bb74-b204b404126e"},"vehicle_type_id":"4","last_reported":1693436753,"current_range_meters":0,"station_id":"ce4bhah2rcd13ifvqej0","pricing_plan_id":"free"},{"bike_id":"1e5adb4d-a9cd-4243-a3c1-50809b85f50c","system_id":"levelo_inurba_marseille","lat":43.298681,"lon":5.397225,"is_reserved":false,"is_disabled":false,"rental_uris":{"android":"levelo://app?vid=1e5adb4d-a9cd-4243-a3c1-50809b85f50c","ios":"levelo://app?vid=1e5adb4d-a9cd-4243-a3c1-50809b85f50c"},"vehicle_type_id":"4","last_reported":1693436753,"current_range_meters":24800,"station_id":"ce4bh0h2rcd13ifvqd50","pricing_plan_id":"free"},{"bike_id":"b3671cb6-2385-4334-a475-1db6c225fddc","system_id":"levelo_inurba_marseille","lat":43.298681,"lon":5.397225,"is_reserved":false,"is_disabled":false,"rental_uris":{"android":"levelo://app?vid=b3671cb6-2385-4334-a475-1db6c225fddc","ios":"levelo://app?vid=b3671cb6-2385-4334-a475-1db6c225fddc"},"vehicle_type_id":"4","last_reported":1693436753,"current_range_meters":31200,"station_id":"ce4bh0h2rcd13ifvqd50","pricing_plan_id":"free"},{"bike_id":"d556c92a-4e5f-4b4d-9179-d8a372857acb","system_id":"levelo_inurba_marseille","lat":43.287,"lon":5.37385,"is_reserved":false,"is_disabled":false,"rental_uris":{"android":"levelo://app?vid=d556c92a-4e5f-4b4d-9179-d8a372857acb","ios":"levelo://app?vid=d556c92a-4e5f-4b4d-9179-d8a372857acb"},"vehicle_type_id":"4","last_reported":1693436753,"current_range_meters":12000,"station_id":"ce4bh3p2rcd13ifvqdq0","pricing_plan_id":"free"},{"bike_id":"cf563f44-082a-496d-916b-651b2d55e7ce","system_id":"levelo_inurba_marseille","lat":43.298681,"lon":5.397225,"is_reserved":false,"is_disabled":false,"rental_uris":{"android":"levelo://app?vid=cf563f44-082a-496d-916b-651b2d55e7ce","ios":"levelo://app?vid=cf563f44-082a-496d-916b-651b2d55e7ce"},"vehicle_type_id":"4","last_reported":1693436753,"current_range_meters":28400,"station_id":"ce4bh0h2rcd13ifvqd50","pricing_plan_id":"free"},{"bike_id":"1f96be86-64fe-4ace-96e1-06dafcc56a83","system_id":"levelo_inurba_marseille","lat":43.28661,"lon":5.36358,"is_reserved":false,"is_disabled":false,"rental_uris":{"android":"levelo://app?vid=1f96be86-64fe-4ace-96e1-06dafcc56a83","ios":"levelo://app?vid=1f96be86-64fe-4ace-96e1-06dafcc56a83"},"vehicle_type_id":"4","last_reported":1693436753,"current_range_meters":0,"station_id":"ce4bhah2rcd13ifvqej0","pricing_plan_id":"free"},{"bike_id":"69779ecb-c62f-4fc4-aca9-7895c1b63b3a","system_id":"levelo_inurba_marseille","lat":43.286593,"lon":5.363346,"is_reserved":false,"is_disabled":false,"rental_uris":{"android":"levelo://app?vid=69779ecb-c62f-4fc4-aca9-7895c1b63b3a","ios":"levelo://app?vid=69779ecb-c62f-4fc4-aca9-7895c1b63b3a"},"vehicle_type_id":"4","last_reported":1693436753,"current_range_meters":8400,"station_id":"ce4bhah2rcd13ifvqej0","pricing_plan_id":"free"},{"bike_id":"00ad17c1-abee-498d-96c7-0638362c9e3b","system_id":"levelo_inurba_marseille","lat":43.295196,"lon":5.39397,"is_reserved":false,"is_disabled":false,"rental_uris":{"android":"levelo://app?vid=00ad17c1-abee-498d-96c7-0638362c9e3b","ios":"levelo://app?vid=00ad17c1-abee-498d-96c7-0638362c9e3b"},"vehicle_type_id":"4","last_reported":1693436753,"current_range_meters":0,"station_id":"ce4bh292rcd13ifvqdf0","pricing_plan_id":"free"},{"bike_id":"75b68b2a-ca5d-4e9f-afbf-89e9776c374f","system_id":"levelo_inurba_marseille","lat":43.298681,"lon":5.397225,"is_reserved":false,"is_disabled":false,"rental_uris":{"android":"levelo://app?vid=75b68b2a-ca5d-4e9f-afbf-89e9776c374f","ios":"levelo://app?vid=75b68b2a-ca5d-4e9f-afbf-89e9776c374f"},"vehicle_type_id":"4","last_reported":1693436753,"current_range_meters":31200,"station_id":"ce4bh0h2rcd13ifvqd50","pricing_plan_id":"free"},{"bike_id":"2365150f-73ab-4507-aea4-76016e6109c8","system_id":"levelo_inurba_marseille","lat":43.286593,"lon":5.363346,"is_reserved":false,"is_disabled":false,"rental_uris":{"android":"levelo://app?vid=2365150f-73ab-4507-aea4-76016e6109c8","ios":"levelo://app?vid=2365150f-73ab-4507-aea4-76016e6109c8"},"vehicle_type_id":"4","last_reported":1693436753,"current_range_meters":31200,"station_id":"ce4bhah2rcd13ifvqej0","pricing_plan_id":"free"},{"bike_id":"8348fc02-5e1d-4a50-9eae-0a088958e16e","system_id":"levelo_inurba_marseille","lat":43.28695,"lon":5.37387,"is_reserved":false,"is_disabled":false,"rental_uris":{"android":"levelo://app?vid=8348fc02-5e1d-4a50-9eae-0a088958e16e","ios":"levelo://app?vid=8348fc02-5e1d-4a50-9eae-0a088958e16e"},"vehicle_type_id":"4","last_reported":1693436753,"current_range_meters":30400,"station_id":"ce4bh3p2rcd13ifvqdq0","pricing_plan_id":"free"},{"bike_id":"ea4b8d74-d666-40df-b9ea-bcc9db22d764","system_id":"levelo_inurba_marseille","lat":43.298681,"lon":5.397225,"is_reserved":false,"is_disabled":false,"rental_uris":{"android":"levelo://app?vid=ea4b8d74-d666-40df-b9ea-bcc9db22d764","ios":"levelo://app?vid=ea4b8d74-d666-40df-b9ea-bcc9db22d764"},"vehicle_type_id":"4","last_reported":1693436753,"current_range_meters":8400,"station_id":"ce4bh0h2rcd13ifvqd50","pricing_plan_id":"free"},{"bike_id":"0b1de05c-ae6a-4383-aef3-c8f1e00db4f3","system_id":"levelo_inurba_marseille","lat":43.295196,"lon":5.39397,"is_reserved":false,"is_disabled":false,"rental_uris":{"android":"levelo://app?vid=0b1de05c-ae6a-4383-aef3-c8f1e00db4f3","ios":"levelo://app?vid=0b1de05c-ae6a-4383-aef3-c8f1e00db4f3"},"vehicle_type_id":"4","last_reported":1693436753,"current_range_meters":31200,"station_id":"ce4bh292rcd13ifvqdf0","pricing_plan_id":"free"},{"bike_id":"a4281a71-9bee-428c-a9d0-647c1d81820d","system_id":"levelo_inurba_marseille","lat":43.295194,"lon":5.39397,"is_reserved":false,"is_disabled":false,"rental_uris":{"android":"levelo://app?vid=a4281a71-9bee-428c-a9d0-647c1d81820d","ios":"levelo://app?vid=a4281a71-9bee-428c-a9d0-647c1d81820d"},