{"last_updated":1745259227,"ttl":60,"version":"2.2","data":{"bikes":[{"bike_id":"a2db7a1d-16e6-44ea-b95f-333ded1308ac","system_id":"levelo_inurba_marseille","lat":43.27614,"lon":5.36107,"is_reserved":false,"is_disabled":false,"rental_uris":{"android":"levelo://app?vid=a2db7a1d-16e6-44ea-b95f-333ded1308ac","ios":"levelo://app?vid=a2db7a1d-16e6-44ea-b95f-333ded1308ac"},"vehicle_type_id":"4","last_reported":1745259227,"current_range_meters":2800,"station_id":"ce4bgj92rcd13ifvqbe0","pricing_plan_id":"cebpf4jnsgd1na2vs0mg"},{"bike_id":"0f661867-3fdb-4eed-b88d-e5dee6f240c2","system_id":"levelo_inurba_marseille","lat":43.28609,"lon":5.37063,"is_reserved":false,"is_disabled":false,"rental_uris":{"android":"levelo://app?vid=0f661867-3fdb-4eed-b88d-e5dee6f240c2","ios":"levelo://app?vid=0f661867-3fdb-4eed-b88d-e5dee6f240c2"},"vehicle_type_id":"4","last_reported":1745259227,"current_range_meters":2800,"station_id":"ce4bht12rcd13ifvqi60","pricing_plan_id":"cebpf4jnsgd1na2vs0mg"},{"bike_id":"03c5b8a5-3ecd-4089-9a2a-37bbd6dc12a6","system_id":"levelo_inurba_marseille","lat":43.31361,"lon":5.38504,"is_reserved":false,"is_disabled":true,"rental_uris":{"android":"levelo://app?vid=03c5b8a5-3ecd-4089-9a2a-37bbd6dc12a6","ios":"levelo://app?vid=03c5b8a5-3ecd-4089-9a2a-37bbd6dc12a6"},"vehicle_type_id":"4","last_reported":1745259227,"current_range_meters":2800,"station_id":"ce4bgt92rcd13ifvqcf0","pricing_plan_id":"cebpf4jnsgd1na2vs0mg"},{"bike_id":"ddc250a8-07bb-4f4b-81b5-030bd80c94a8","system_id":"levelo_inurba_marseille","lat":43.30792,"lon":5.38148,"is_reserved":false,"is_disabled":false,"rental_uris":{"android":"levelo://app?vid=ddc250a8-07bb-4f4b-81b5-030bd80c94a8","ios":"levelo://app?vid=ddc250a8-07bb-4f4b-81b5-030bd80c94a8"},"vehicle_type_id":"4","last_reported":1745259227,"current_range_meters":2800,"station_id":"ce4bgt12rcd13ifvqce0","pricing_plan_id":"cebpf4jnsgd1na2vs0mg"},{"bike_id":"f549ec50-ab3b-4ccd-879a-c79c07169aba","system_id":"levelo_inurba_marseille","lat":43.29195,"lon":5.39315,"is_reserved":false,"is_disabled":false,"rental_uris":{"android":"levelo://app?vid=f549ec50-ab3b-4ccd-879a-c79c07169aba","ios":"levelo://app?vid=f549ec50-ab3b-4ccd-879a-c79c07169aba"},"vehicle_type_id":"4","last_reported":1745259227,"current_range_meters":2800,"station_id":"ce4bh192rcd13ifvqdd0","pricing_plan_id":"cebpf4jnsgd1na2vs0mg"},{"bike_id":"0308aafe-191d-4ae1-ac69-7b9682fc430d","system_id":"levelo_inurba_marseille","lat":43.29974,"lon":5.38478,"is_reserved":false,"is_disabled":false,"rental_uris":{"android":"levelo://app?vid=0308aafe-191d-4ae1-ac69-7b9682fc430d","ios":"levelo://app?vid=0308aafe-191d-4ae1-ac69-7b9682fc430d"},"vehicle_type_id":"4","last_reported":1745259227,"current_range_meters":3200,"station_id":"ce4bgj92rcd13ifvqbd0","pricing_plan_id":"cebpf4jnsgd1na2vs0mg"},{"bike_id":"b8a1fcfc-dda5-4814-b4aa-9c923f41a923","system_id":"levelo_inurba_marseille","lat":43.28151,"lon":5.42646,"is_reserved":false,"is_disabled":false,"rental_uris":{"android":"levelo://app?vid=b8a1fcfc-dda5-4814-b4aa-9c923f41a923","ios":"levelo://app?vid=b8a1fcfc-dda5-4814-b4aa-9c923f41a923"},"vehicle_type_id":"4","last_reported":1745259227,"current_range_meters":3200,"station_id":"ce4bhnh2rcd13ifvqgug","pricing_plan_id":"cebpf4jnsgd1na2vs0mg"},{"bike_id":"dcf6d2bf-a79f-4f03-8e62-f22297319cc3","system_id":"levelo_inurba_marseille","lat":43.22919,"lon":5.35371,"is_reserved":false,"is_disabled":true,"rental_uris":{"android":"levelo://app?vid=dcf6d2bf-a79f-4f03-8e62-f22297319cc3","ios":"levelo://app?vid=dcf6d2bf-a79f-4f03-8e62-f22297319cc3"},"vehicle_type_id":"4","last_reported":1745259227,"current_range_meters":3200,"station_id":"cpo3532slgdg3j2ikp40","pricing_plan_id":"cebpf4jnsgd1na2vs0mg"},{"bike_id":"3af2c45a-68e1-411f-8c78-dd8dea5672bb","system_id":"levelo_inurba_marseille","lat":43.2749,"lon":5.42457,"is_reserved":false,"is_disabled":false,"rental_uris":{"android":"levelo://app?vid=3af2c45a-68e1-411f-8c78-dd8dea5672bb","ios":"levelo://app?vid=3af2c45a-68e1-411f-8c78-dd8dea5672bb"},"vehicle_type_id":"4","last_reported":1745259227,"current_range_meters":2800,"station_id":"ce4bhn92rcd13ifvqgrg","pricing_plan_id":"cebpf4jnsgd1na2vs0mg"},{"bike_id":"776fc14b-8b61-448f-9093-f9b665089c0d","system_id":"levelo_inurba_marseille","lat":43.299636,"lon":5.384946,"is_reserved":false,"is_disabled":false,"rental_uris":{"android":"levelo://app?vid=776fc14b-8b61-448f-9093-f9b665089c0d","ios":"levelo://app?vid=776fc14b-8b61-448f-9093-f9b665089c0d"},"vehicle_type_id":"4","last_reported":1745259227,"current_range_meters":3200,"station_id":"ce4bgqh2rcd13ifvqc5g","pricing_plan_id":"cebpf4jnsgd1na2vs0mg"},{"bike_id":"db63ef2b-f795-4461-841e-4a88a18bc5c9","system_id":"levelo_inurba_marseille","lat":43.29437,"lon":5.39759,"is_reserved":false,"is_disabled":true,"rental_uris":{"android":"levelo://app?vid=db63ef2b-f795-4461-841e-4a88a18bc5c9","ios":"levelo://app?vid=db63ef2b-f795-4461-841e-4a88a18bc5c9"},"vehicle_type_id":"4","last_reported":1745259227,"current_range_meters":3600,"station_id":"ce4bh3h2rcd13ifvqdo0","pricing_plan_id":"cebpf4jnsgd1na2vs0mg"},{"bike_id":"3342a5f1-7f8c-4e8e-8b8d-21fbff6dcdac","system_id":"levelo_inurba_marseille","lat":43.24544,"lon":5.39522,"is_reserved":false,"is_disabled":false,"rental_uris":{"android":"levelo://app?vid=3342a5f1-7f8c-4e8e-8b8d-21fbff6dcdac","ios":"levelo://app?vid=3342a5f1-7f8c-4e8e-8b8d-21fbff6dcdac"},"vehicle_type_id":"4","last_reported":1745259227,"current_range_meters":3600,"station_id":"ce4bhlp2rcd13ifvqgjg","pricing_plan_id":"cebpf4jnsgd1na2vs0mg"},{"bike_id":"1c8a50b5-bd4f-4ff3-b27c-a01261b70fcd","system_id":"levelo_inurba_marseille","lat":43.28611,"lon":5.37059,"is_reserved":false,"is_disabled":false,"rental_uris":{"android":"levelo://app?vid=1c8a50b5-bd4f-4ff3-b27c-a01261b70fcd","ios":"levelo://app?vid=1c8a50b5-bd4f-4ff3-b27c-a01261b70fcd"},"vehicle_type_id":"4","last_reported":1745259227,"current_range_meters":3600,"station_id":"ce4bht12rcd13ifvqi60","pricing_plan_id":"cebpf4jnsgd1na2vs0mg"},{"bike_id":"7cd7a917-9237-4a96-a884-eccc43f49ff8","system_id":"levelo_inurba_marseille","lat":43.288535,"lon":5.393127,"is_reserved":false,"is_disabled":false,"rental_uris":{"android":"levelo://app?vid=7cd7a917-9237-4a96-a884-eccc43f49ff8","ios":"levelo://app?vid=7cd7a917-9237-4a96-a884-eccc43f49ff8"},"vehicle_type_id":"4","last_reported":1745259227,"current_range_meters":3600,"station_id":"ce4bh2p2rcd13ifvqdi0","pricing_plan_id":"cebpf4jnsgd1na2vs0mg"},{"bike_id":"2bdde4a3-7509-460a-b2c7-d172c5297380","system_id":"levelo_inurba_marseille","lat":43.21189,"lon":5.35072,"is_reserved":false,"is_disabled":true,"rental_uris":{"android":"levelo://app?vid=2bdde4a3-7509-460a-b2c7-d172c5297380","ios":"levelo://app?vid=2bdde4a3-7509-460a-b2c7-d172c5297380"},"vehicle_type_id":"4","last_reported":1745259227,"current_range_meters":3600,"station_id":"","pricing_plan_id":"cebpf4jnsgd1na2vs0mg"},{"bike_id":"dea4c88b-2c2f-43a7-bd81-9c9b914276fd","system_id":"levelo_inurba_marseille","lat":43.23186,"lon":5.35577,"is_reserved":false,"is_disabled":true,"rental_uris":{"android":"levelo://app?vid=dea4c88b-2c2f-43a7-bd81-9c9b914276fd","ios":"levelo://app?vid=dea4c88b-2c2f-43a7-bd81-9c9b914276fd"},"vehicle_type_id":"4","last_reported":1745259227,"current_range_meters":3600,"station_id":"ce4bhu92rcd13ifvqi70","pricing_plan_id":"cebpf4jnsgd1na2vs0mg"},{"bike_id":"a373f1b2-c1f8-4d57-bca1-4c97514ea92c","system_id":"levelo_inurba_marseille","lat":43.311819,"lon":5.368357,"is_reserved":false,"is_disabled":true,"rental_uris":{"android":"levelo://app?vid=a373f1b2-c1f8-4d57-bca1-4c97514ea92c","ios":"levelo://app?vid=a373f1b2-c1f8-4d57-bca1-4c97514ea92c"},"vehicle_type_id":"4","last_reported":1745259227,"current_range_meters":3600,"station_id":"ce4bgl92rcd13ifvqbq0","pricing_plan_id":"cebpf4jnsgd1na2vs0mg"},{"bike_id":"f66d2338-1ce0-4589-be92-ddecef3cd817","system_id":"levelo_inurba_marseille","lat":43.2693,"lon":5.3892,"is_reserved":false,"is_disabled":false,"rental_uris":{"android":"levelo://app?vid=f66d2338-1ce0-4589-be92-ddecef3cd817","ios":"levelo://app?vid=f66d2338-1ce0-4589-be92-ddecef3cd817"},"vehicle_type_id":"4","last_reported":1745259227,"current_range_meters":3200,"station_id":"ce4bhhh2rcd13ifvqfl0","pricing_plan_id":"cebpf4jnsgd1na2vs0mg"},{"bike_id":"89cfd28b-0c7c-4079-955f-194e937acbb9","system_id":"levelo_inurba_marseille","lat":43.29944,"lon":5.36343,"is_reserved":false,"is_disabled":false,"rental_uris":{"android":"levelo://app?vid=89cfd28b-0c7c-4079-955f-194e937acbb9","ios":"levelo://app?vid=89cfd28b-0c7c-4079-955f-194e937acbb9"},"vehicle_type_id":"4","last_reported":1745259227,"current_range_meters":3600,"station_id":"","pricing_plan_id":"cebpf4jnsgd1na2vs0mg"},{"bike_id":"8ec9a8ac-eb08-46aa-808d-7285f883d9da","system_id":"levelo_inurba_marseille","lat":43.2987,"lon":5.39724,"is_reserved":false,"is_disabled":false,"rental_uris":{"android":"levelo://app?vid=8ec9a8ac-eb08-46aa-808d-7285f883d9da","ios":"levelo://app?vid=8ec9a8ac-eb08-46aa-808d-7285f883d9da"},"vehicle_type_id":"4","last_reported":1745259227,"current_range_meters":3200,"station_id":"ce4bh0h2rcd13ifvqd50","pricing_plan_id":"cebpf4jnsgd1na2vs0mg"},{"bike_id":"213fb158-06bd-4e42-8510-0aa3f7eaae67","system_id":"levelo_inurba_marseille","lat":43.231964,"lon":5.355477,"is_reserved":false,"is_disabled":true,"rental_uris":{"android":"levelo://app?vid=213fb158-06bd-4e42-8510-0aa3f7eaae67","ios":"levelo://app?vid=213fb158-06bd-4e42-8510-0aa3f7eaae67"},"vehicle_type_id":"4","last_reported":1745259227,"current_range_meters":4400,"station_id":"ce4bhu92rcd13ifvqi70","pricing_plan_id":"cebpf4jnsgd1na2vs0mg"},{"bike_id":"c6023d7b-0c8f-4a5e-8eb4-dd919f7bc1c0","system_id":"levelo_inurba_marseille","lat":43.27372,"lon":5.3627,"is_reserved":false,"is_disabled":true,"rental_uris":{"android":"levelo://app?vid=c6023d7b-0c8f-4a5e-8eb4-dd919f7bc1c0","ios":"levelo://app?vid=c6023d7b-0c8f-4a5e-8eb4-dd919f7bc1c0"},"vehicle_type_id":"4","last_reported":1745259227,"current_range_meters":4000,"station_id":"ce4bhbh2rcd13ifvqeo0","pricing_plan_id":"cebpf4jnsgd1na2vs0mg"},{"bike_id":"93c00cd1-f38f-4212-aa6a-1dba375bfb9b","system_id":"levelo_inurba_marseille","lat":43.29272,"lon":5.38429,"is_reserved":false,"is_disabled":false,"rental_uris":{"android":"levelo://app?vid=93c00cd1-f38f-4212-aa6a-1dba375bfb9b","ios":"levelo://app?vid=93c00cd1-f38f-4212-aa6a-1dba375bfb9b"},"vehicle_type_id":"4","last_reported":1745259227,"current_range_meters":4000,"station_id":"ce4bh692rcd13ifvqea0","pricing_plan_id":"cebpf4jnsgd1na2vs0mg"},{"bike_id":"cc3514d1-6f4f-439e-982f-8d45d790db35","system_id":"levelo_inurba_marseille","lat":43.29174,"lon":5.35781,"is_reserved":false,"is_disabled":false,"rental_uris":{"android":"levelo://app?vid=cc3514d1-6f4f-439e-982f-8d45d790db35","ios":"levelo://app?vid=cc3514d1-6f4f-439e-982f-8d45d790db35"},"vehicle_type_id":"4","last_reported":1745259227,"current_range_meters":4000,"station_id":"ce4bhb12rcd13ifvqel0","pricing_plan_id":"cebpf4jnsgd1na2vs0mg"},{"bike_id":"1ccbd679-9c36-4ba6-853b-1ac1c616cb93","system_id":"levelo_inurba_marseille","lat":43.29094,"lon":5.38116,"is_reserved":false,"is_disabled":false,"rental_uris":{"android":"levelo://app?vid=1ccbd679-9c36-4ba6-853b-1ac1c616cb93","ios":"levelo://app?vid=1ccbd679-9c36-4ba6-853b-1ac1c616cb93"},"vehicle_type_id":"4","last_reported":1745259227,"current_range_meters":4000,"station_id":"ce4bh512rcd13ifvqe2g","pricing_plan_id":"cebpf4jnsgd1na2vs0mg"},{"bike_id":"fc3312cf-0fd5-4970-b770-7d8b0ddcaf00","system_id":"levelo_inurba_marseille","lat":43.28447,"lon":5.35915,"is_reserved":false,"is_disabled":false,"rental_uris":{"android":"levelo://app?vid=fc3312cf-0fd5-4970-b770-7d8b0ddcaf00","ios":"levelo://app?vid=fc3312cf-0fd5-4970-b770-7d8b0ddcaf00"},"vehicle_type_id":"4","last_reported":1745259227,"current_range_meters":4000,"station_id":"ce4bhah2rcd13ifvqei0","pricing_plan_id":"cebpf4jnsgd1na2vs0mg"},{"bike_id":"f37819b0-49ee-46bc-8ffe-37ab4d79325a","system_id":"levelo_inurba_marseille","lat":43.292016,"lon":5.358066,"is_reserved":false,"is_disabled":false,"rental_uris":{"android":"levelo://app?vid=f37819b0-49ee-46bc-8ffe-37ab4d79325a","ios":"levelo://app?vid=f37819b0-49ee-46bc-8ffe-37ab4d79325a"},"vehicle_type_id":"4","last_reported":1745259227,"current_range_meters":3600,"station_id":"ce4bhb12rcd13ifvqel0","pricing_plan_id":"cebpf4jnsgd1na2vs0mg"},{"bike_id":"4bf257ff-5181-40fc-87ed-08d661564e4c","system_id":"levelo_inurba_marseille","lat":43.29529,"lon":5.38542,"is_reserved":false,"is_disabled":false,"rental_uris":{"android":"levelo://app?vid=4bf257ff-5181-40fc-87ed-08d661564e4c","ios":"levelo://app?vid=4bf257ff-5181-40fc-87ed-08d661564e4c"},"vehicle_type_id":"4","last_reported":1745259227,"current_range_meters":4400,"station_id":"ce4bgih2rcd13ifvqba0","pricing_plan_id":"cebpf4jnsgd1na2vs0mg"},{"bike_id":"c82056fa-be43-4e8c-bee3-9e92f3a8ce5a","system_id":"levelo_inurba_marseille","lat":43.24078,"lon":5.37754,"is_reserved":false,"is_disabled":false,"rental_uris":{"android":"levelo://app?vid=c82056fa-be43-4e8c-bee3-9e92f3a8ce5a","ios":"levelo://app?vid=c82056fa-be43-4e8c-bee3-9e92f3a8ce5a"},"vehicle_type_id":"4","last_reported":1745259227,"current_range_meters":4400,"station_id":"ce4bhnp2rcd13ifvqgvg","pricing_plan_id":"cebpf4jnsgd1na2vs0mg"},{"bike_id":"1dbda898-9dd5-427f-a2dd-734b9298711e","system_id":"levelo_inurba_marseille","lat":43.29787,"lon":5.404099,"is_reserved":false,"is_disabled":false,"rental_uris":{"android":"levelo://app?vid=1dbda898-9dd5-427f-a2dd-734b9298711e","ios":"levelo://app?vid=1dbda898-9dd5-427f-a2dd-734b9298711e"},"vehicle_type_id":"4","last_reported":1745259227,"current_range_meters":4400,"station_id":"ce4bh112rcd13ifvqd90","pricing_plan_id":"cebpf4jnsgd1na2vs0mg"},{"bike_id":"c2ea8ebc-ba79-4209-a3d3-a74bdf4cfee7","system_id":"levelo_inurba_marseille","lat":43.28911,"lon":5.36397,"is_reserved":false,"is_disabled":false,"rental_uris":{"android":"levelo://app?vid=c2ea8ebc-ba79-4209-a3d3-a74bdf4cfee7","ios":"levelo://app?vid=c2ea8ebc-ba79-4209-a3d3-a74bdf4cfee7"},"vehicle_type_id":"4","last_reported":1745259227,"current_range_meters":4400,"station_id":"ce4bhc92rcd13ifvqetg","pricing_plan_id":"cebpf4jnsgd1na2vs0mg"},{"bike_id":"23e4f5a2-d63f-4331-aa67-f460a1a7513b","system_id":"levelo_inurba_marseille","lat":43.29528,"lon":5.38536,"is_reserved":false,"is_disabled":false,"rental_uris":{"android":"levelo://app?vid=23e4f5a2-d63f-4331-aa67-f460a1a7513b","ios":"levelo://app?vid=23e4f5a2-d63f-4331-aa67-f460a1a7513b"},"vehicle_type_id":"4","last_reported":1745259227,"current_range_meters":4400,"station_id":"ce4bgih2rcd13ifvqba0","pricing_plan_id":"cebpf4jnsgd1na2vs0mg"},{"bike_id":"9a48ce56-4f9f-4982-bee1-034c37d6af2e","system_id":"levelo_inurba_marseille","lat":43.26198,"lon":5.3793,"is_reserved":false,"is_disabled":false,"rental_uris":{"android":"levelo://app?vid=9a48ce56-4f9f-4982-bee1-034c37d6af2e","ios":"levelo://app?vid=9a48ce56-4f9f-4982-bee1-034c37d6af2e"},"vehicle_type_id":"4","last_reported":1745259227,"current_range_meters":4000,"station_id":"ce4bhjp2rcd13ifvqg90","pricing_plan_id":"cebpf4jnsgd1na2vs0mg"},{"bike_id":"87b91b8c-aaa1-472f-affc-87c2b260c97d","system_id":"levelo_inurba_marseille","lat":43.311756,"lon":5.387179,"is_reserved":false,"is_disabled":false,"rental_uris":{"android":"levelo://app?vid=87b91b8c-aaa1-472f-affc-87c2b260c97d","ios":"levelo://app?vid=87b91b8c-aaa1-472f-affc-87c2b260c97d"},"vehicle_type_id":"4","last_reported":1745259227,"current_range_meters":4000,"station_id":"ce4bgv12rcd13ifvqcp0","pricing_plan_id":"cebpf4jnsgd1na2vs0mg"},{"bike_id":"39dae481-a0d1-478e-88d4-219aefc51092","system_id":"levelo_inurba_marseille","lat":43.30331,"lon":5.40434,"is_reserved":false,"is_disabled":false,"rental_uris":{"android":"levelo://app?vid=39dae481-a0d1-478e-88d4-219aefc51092","ios":"levelo://app?vid=39dae481-a0d1-478e-88d4-219aefc51092"},"vehicle_type_id":"4","last_reported":1745259227,"current_range_meters":4400,"station_id":"ce4bh012rcd13ifvqd10","pricing_plan_id":"cebpf4jnsgd1na2vs0mg"},{"bike_id":"22d9f667-14b8-4f8f-bf6e-6d5949281082","system_id":"levelo_inurba_marseille","lat":43.313698,"lon":5.384842,"is_reserved":false,"is_disabled":false,"rental_uris":{"android":"levelo://app?vid=22d9f667-14b8-4f8f-bf6e-6d5949281082","ios":"levelo://app?vid=22d9f667-14b8-4f8f-bf6e-6d5949281082"},"vehicle_type_id":"4","last_reported":1745259227,"current_range_meters":5600,"station_id":"","pricing_plan_id":"cebpf4jnsgd1na2vs0mg"},{"bike_id":"8b83d0fd-c526-44b0-8d1e-ef0cbc963c98","system_id":"levelo_inurba_marseille","lat":43.24807,"lon":5.37456,"is_reserved":false,"is_disabled":false,"rental_uris":{"android":"levelo://app?vid=8b83d0fd-c526-44b0-8d1e-ef0cbc963c98","ios":"levelo://app?vid=8b83d0fd-c526-44b0-8d1e-ef0cbc963c98"},"vehicle_type_id":"4","last_reported":1745259227,"current_range_meters":4800,"station_id":"ce4bhgh2rcd13ifvqfb0","pricing_plan_id":"cebpf4jnsgd1na2vs0mg"},{"bike_id":"fa466343-a00a-4019-8774-f5653cb6df05","system_id":"levelo_inurba_marseille","lat":43.29027,"lon":5.38121,"is_reserved":false,"is_disabled":false,"rental_uris":{"android":"levelo://app?vid=fa466343-a00a-4019-8774-f5653cb6df05","ios":"levelo://app?vid=fa466343-a00a-4019-8774-f5653cb6df05"},"vehicle_type_id":"4","last_reported":1745259227,"current_range_meters":5600,"station_id":"ce4bh4p2rcd13ifvqe1g","pricing_plan_id":"cebpf4jnsgd1na2vs0mg"},{"bike_id":"b187e78d-1724-4b31-8cf0-6bdebd0684ee","system_id":"levelo_inurba_marseille","lat":43.28963,"lon":5.37841,"is_reserved":false,"is_disabled":true,"rental_uris":{"android":"levelo://app?vid=b187e78d-1724-4b31-8cf0-6bdebd0684ee","ios":"levelo://app?vid=b187e78d-1724-4b31-8cf0-6bdebd0684ee"},"vehicle_type_id":"4","last_reported":1745259227,"current_range_meters":4800,"station_id":"ce4bh9p2rcd13ifvqed0","pricing_plan_id":"cebpf4jnsgd1na2vs0mg"},{"bike_id":"50a38e6d-b701-4ea7-b5be-e8bb1f9bb107","system_id":"levelo_inurba_marseille","lat":43.28265,"lon":5.3507,"is_reserved":false,"is_disabled":false,"rental_uris":{"android":"levelo://app?vid=50a38e6d-b701-4ea7-b5be-e8bb1f9bb107","ios":"levelo://app?vid=50a38e6d-b701-4ea7-b5be-e8bb1f9bb107"},"vehicle_type_id":"4","last_reported":1745259227,"current_range_meters":5600,"station_id":"ce4bhbp2rcd13ifvqerg","pricing_plan_id":"cebpf4jnsgd1na2vs0mg"},{"bike_id":"13dcc10c-4cac-4cf2-9318-07e242720dc9","system_id":"levelo_inurba_marseille","lat":43.312,"lon":5.37715,"is_reserved":false,"is_disabled":false,"rental_uris":{"android":"levelo://app?vid=13dcc10c-4cac-4cf2-9318-07e242720dc9","ios":"levelo://app?vid=13dcc10c-4cac-4cf2-9318-07e242720dc9"},"vehicle_type_id":"4","last_reported":1745259227,"current_range_meters":5600,"station_id":"","pricing_plan_id":"cebpf4jnsgd1na2vs0mg"},{"bike_id":"4f0b25c3-2f51-4c00-9f56-69333455e756","system_id":"levelo_inurba_marseille","lat":43.27859,"lon":5.39293,"is_reserved":false,"is_disabled":false,"rental_uris":{"android":"levelo://app?vid=4f0b25c3-2f51-4c00-9f56-69333455e756","ios":"levelo://app?vid=4f0b25c3-2f51-4c00-9f56-69333455e756"},"vehicle_type_id":"4","last_reported":1745259227,"current_range_meters":5600,"station_id":"","pricing_plan_id":"cebpf4jnsgd1na2vs0mg"},{"bike_id":"e39d68e1-d581-42b4-beaf-9a00f5ac5bac","system_id":"levelo_inurba_marseille","lat":43.21196,"lon":5.35071,"is_reserved":false,"is_disabled":true,"rental_uris":{"android":"levelo://app?vid=e39d68e1-d581-42b4-beaf-9a00f5ac5bac","ios":"levelo://app?vid=e39d68e1-d581-42b4-beaf-9a00f5ac5bac"},"vehicle_type_id":"4","last_reported":1745259227,"current_range_meters":5600,"station_id":"st_cvj6sg6p6f1abm77japg","pricing_plan_id":"cebpf4jnsgd1na2vs0mg"},{"bike_id":"949a3b98-b3d0-4b58-9e5c-50967c540964","system_id":"levelo_inurba_marseille","lat":43.29733,"lon":5.40069,"is_reserved":false,"is_disabled":false,"rental_uris":{"android":"levelo://app?vid=949a3b98-b3d0-4b58-9e5c-50967c540964","ios":"levelo://app?vid=949a3b98-b3d0-4b58-9e5c-50967c540964"},"vehicle_type_id":"4","last_reported":1745259227,"current_range_meters":5600,"station_id":"","pricing_plan_id":"cebpf4jnsgd1na2vs0mg"},{"bike_id":"68a1066d-ce74-46cd-9ffd-983d4a0ade49","system_id":"levelo_inurba_marseille","lat":43.29031,"lon":5.38113,"is_reserved":false,"is_disabled":false,"rental_uris":{"android":"levelo://app?vid=68a1066d-ce74-46cd-9ffd-983d4a0ade49","ios":"levelo://app?vid=68a1066d-ce74-46cd-9ffd-983d4a0ade49"},"vehicle_type_id":"4","last_reported":1745259227,"current_range_meters":6000,"station_id":"ce4bh4p2rcd13ifvqe1g","pricing_plan_id":"cebpf4jnsgd1na2vs0mg"},{"bike_id":"f72ab755-4e3c-4824-8091-681d60d607bf","system_id":"levelo_inurba_marseille","lat":43.29226,"lon":5.39343,"is_reserved":false,"is_disabled":false,"rental_uris":{"android":"levelo://app?vid=f72ab755-4e3c-4824-8091-681d60d607bf","ios":"levelo://app?vid=f72ab755-4e3c-4824-8091-681d60d607bf"},"vehicle_type_id":"4","last_reported":1745259227,"current_range_meters":6000,"station_id":"","pricing_plan_id":"cebpf4jnsgd1na2vs0mg"},{"bike_id":"6aead6aa-d79f-4ee1-903b-38ff31cc7179","system_id":"levelo_inurba_marseille","lat":43.27314,"lon":5.39081,"is_reserved":false,"is_disabled":false,"rental_uris":{"android":"levelo://app?vid=6aead6aa-d79f-4ee1-903b-38ff31cc7179","ios":"levelo://app?vid=6aead6aa-d79f-4ee1-903b-38ff31cc7179"},"vehicle_type_id":"4","last_reported":1745259227,"current_range_meters":4800,"station_id":"ce4bhgp2rcd13ifvqfe0","pricing_plan_id":"cebpf4jnsgd1na2vs0mg"},{"bike_id":"d5ea3fce-cf36-4935-95d0-3a2a592ee2ec","system_id":"levelo_inurba_marseille","lat":43.28414,"lon":5.34978,"is_reserved":false,"is_disabled":false,"rental_uris":{"android":"levelo://app?vid=d5ea3fce-cf36-4935-95d0-3a2a592ee2ec","ios":"levelo://app?vid=d5ea3fce-cf36-4935-95d0-3a2a592ee2ec"},"vehicle_type_id":"4","last_reported":1745259227,"current_range_meters":6000,"station_id":"ce4bhbh2rcd13ifvqepg","pricing_plan_id":"cebpf4jnsgd1na2vs0mg"},{"bike_id":"8062a4c3-11af-479b-b912-422a97e91284","system_id":"levelo_inurba_marseille","lat":43.29849,"lon":5.36281,"is_reserved":false,"is_disabled":false,"rental_uris":{"android":"levelo://app?vid=8062a4c3-11af-479b-b912-422a97e91284","ios":"levelo://app?vid=8062a4c3-11af-479b-b912-422a97e91284"},"vehicle_type_id":"4","last_reported":1745259227,"current_range_meters":6000,"station_id":"ce4bgpp2rcd13ifvqc3g","pricing_plan_id":"cebpf4jnsgd1na2vs0mg"},{"bike_id":"49225d49-9260-47b2-a782-7d3d21b08c48","system_id":"levelo_inurba_marseille","lat":43.295342,"lon":5.378851,"is_reserved":false,"is_disabled":false,"rental_uris":{"android":"levelo://app?vid=49225d49-9260-47b2-a782-7d3d21b08c48","ios":"levelo://app?vid=49225d49-9260-47b2-a782-7d3d21b08c48"},"vehicle_type_id":"4","last_reported":1745259227,"current_range_meters":6000,"station_id":"","pricing_plan_id":"cebpf4jnsgd1na2vs0mg"},{"bike_id":"0301a3e0-a0a8-4e29-bac9-fe0713c72a23","system_id":"levelo_inurba_marseille","lat":43.29597,"lon":5.3809,"is_reserved":false,"is_disabled":false,"rental_uris":{"android":"levelo://app?vid=0301a3e0-a0a8-4e29-bac9-fe0713c72a23","ios":"levelo://app?vid=0301a3e0-a0a8-4e29-bac9-fe0713c72a23"},"vehicle_type_id":"4","last_reported":1745259227,"current_range_meters":6000,"station_id":"ce4bgl12rcd13ifvqbo0","pricing_plan_id":"cebpf4jnsgd1na2vs0mg"},{"bike_id":"22ae9aca-d5fd-49cb-a3e9-dacd9a84aace","system_id":"levelo_inurba_marseille","lat":43.29619,"lon":5.37709,"is_reserved":false,"is_disabled":false,"rental_uris":{"android":"levelo://app?vid=22ae9aca-d5fd-49cb-a3e9-dacd9a84aace","ios":"levelo://app?vid=22ae9aca-d5fd-49cb-a3e9-dacd9a84aace"},"vehicle_type_id":"4","last_reported":1745259227,"current_range_meters":6400,"station_id":"ce4bgi92rcd13ifvqb90","pricing_plan_id":"cebpf4jnsgd1na2vs0mg"},{"bike_id":"4abae721-0541-4994-a4dc-ff9637ceea94","system_id":"levelo_inurba_marseille","lat":43.279129,"lon":5.395764,"is_reserved":false,"is_disabled":false,"rental_uris":{"android":"levelo://app?vid=4abae721-0541-4994-a4dc-ff9637ceea94","ios":"levelo://app?vid=4abae721-0541-4994-a4dc-ff9637ceea94"},"vehicle_type_id":"4","last_reported":1745259227,"current_range_meters":6400,"station_id":"ce4bhhp2rcd13ifvqfm0","pricing_plan_id":"cebpf4jnsgd1na2vs0mg"},{"bike_id":"c431182b-3906-462d-a4e4-8a4a45260d49","system_id":"levelo_inurba_marseille","lat":43.33602,"lon":5.41033,"is_reserved":false,"is_disabled":false,"rental_uris":{"android":"levelo://app?vid=c431182b-3906-462d-a4e4-8a4a45260d49","ios":"levelo://app?vid=c431182b-3906-462d-a4e4-8a4a45260d49"},"vehicle_type_id":"4","last_reported":1745259227,"current_range_meters":6400,"station_id":"ce4bhqh2rcd13ifvqhmg","pricing_plan_id":"cebpf4jnsgd1na2vs0mg"},{"bike_id":"2118672d-b962-419d-b54b-f9eed6f77cab","system_id":"levelo_inurba_marseille","lat":43.27568,"lon":5.38417,"is_reserved":false,"is_disabled":false,"rental_uris":{"android":"levelo://app?vid=2118672d-b962-419d-b54b-f9eed6f77cab","ios":"levelo://app?vid=2118672d-b962-419d-b54b-f9eed6f77cab"},"vehicle_type_id":"4","last_reported":1745259227,"current_range_meters":6800,"station_id":"ce4bhh92rcd13ifvqfi0","pricing_plan_id":"cebpf4jnsgd1na2vs0mg"},{"bike_id":"3a6d009e-2e7e-4c02-9f51-08d9aaf56ce6","system_id":"levelo_inurba_marseille","lat":43.30305,"lon":5.39206,"is_reserved":false,"is_disabled":true,"rental_uris":{"android":"levelo://app?vid=3a6d009e-2e7e-4c02-9f51-08d9aaf56ce6","ios":"levelo://app?vid=3a6d009e-2e7e-4c02-9f51-08d9aaf56ce6"},"vehicle_type_id":"4","last_reported":1745259227,"current_range_meters":6800,"station_id":"ce4bgkh2rcd13ifvqbk0","pricing_plan_id":"cebpf4jnsgd1na2vs0mg"},{"bike_id":"6d0b1e09-0778-4875-a9ec-ebd4ab3c5c71","system_id":"levelo_inurba_marseille","lat":43.21192,"lon":5.35074,"is_reserved":false,"is_disabled":true,"rental_uris":{"android":"levelo://app?vid=6d0b1e09-0778-4875-a9ec-ebd4ab3c5c71","ios":"levelo://app?vid=6d0b1e09-0778-4875-a9ec-ebd4ab3c5c71"},"vehicle_type_id":"4","last_reported":1745259227,"current_range_meters":6800,"station_id":"st_cvj6sg6p6f1abm77japg","pricing_plan_id":"cebpf4jnsgd1na2vs0mg"},{"bike_id":"8149faf3-0167-421f-b71f-a0354913c3dd","system_id":"levelo_inurba_marseille","lat":43.298486,"lon":5.362822,"is_reserved":false,"is_disabled":false,"rental_uris":{"android":"levelo://app?vid=8149faf3-0167-421f-b71f-a0354913c3dd","ios":"levelo://app?vid=8149faf3-0167-421f-b71f-a0354913c3dd"},"vehicle_type_id":"4","last_reported":1745259227,"current_range_meters":6800,"station_id":"","pricing_plan_id":"cebpf4jnsgd1na2vs0mg"},{"bike_id":"901518be-3c90-4e14-ada4-9071cd926d8b","system_id":"levelo_inurba_marseille","lat":43.27492,"lon":5.42455,"is_reserved":false,"is_disabled":true,"rental_uris":{"android":"levelo://app?vid=901518be-3c90-4e14-ada4-9071cd926d8b","ios":"levelo://app?vid=901518be-3c90-4e14-ada4-9071cd926d8b"},"vehicle_type_id":"4","last_reported":1745259227,"current_range_meters":6800,"station_id":"ce4bhn92rcd13ifvqgrg","pricing_plan_id":"cebpf4jnsgd1na2vs0mg"},{"bike_id":"f984d1c9-94d7-48d1-9f06-f702edb8335d","system_id":"levelo_inurba_marseille","lat":43.24168,"lon":5.36396,"is_reserved":false,"is_disabled":true,"rental_uris":{"android":"levelo://app?vid=f984d1c9-94d7-48d1-9f06-f702edb8335d","ios":"levelo://app?vid=f984d1c9-94d7-48d1-9f06-f702edb8335d"},"vehicle_type_id":"4","last_reported":1745259227,"current_range_meters":6800,"station_id":"cpo36qri1sfpv3e86is0","pricing_plan_id":"cebpf4jnsgd1na2vs0mg"},{"bike_id":"a8533ee4-3ca9-4b70-9906-0934786bd64e","system_id":"levelo_inurba_marseille","lat":43.29535,"lon":5.38538,"is_reserved":false,"is_disabled":false,"rental_uris":{"android":"levelo://app?vid=a8533ee4-3ca9-4b70-9906-0934786bd64e","ios":"levelo://app?vid=a8533ee4-3ca9-4b70-9906-0934786bd64e"},"vehicle_type_id":"4","last_reported":1745259227,"current_range_meters":6800,"station_id":"ce4bgih2rcd13ifvqba0","pricing_plan_id":"cebpf4jnsgd1na2vs0mg"},{"bike_id":"56808841-ce90-4776-8f94-82782f45b66d","system_id":"levelo_inurba_marseille","lat":43.33021,"lon":5.39036,"is_reserved":false,"is_disabled":false,"rental_uris":{"android":"levelo://app?vid=56808841-ce90-4776-8f94-82782f45b66d","ios":"levelo://app?vid=56808841-ce90-4776-8f94-82782f45b66d"},"vehicle_type_id":"4","last_reported":1745259227,"current_range_meters":6800,"station_id":"ce4bhr92rcd13ifvqhrg","pricing_plan_id":"cebpf4jnsgd1na2vs0mg"},{"bike_id":"8a7ec3da-38e6-4187-9266-c9d5e220963c","system_id":"levelo_inurba_marseille","lat":43.24653,"lon":5.38886,"is_reserved":false,"is_disabled":false,"rental_uris":{"android":"levelo://app?vid=8a7ec3da-38e6-4187-9266-c9d5e220963c","ios":"levelo://app?vid=8a7ec3da-38e6-4187-9266-c9d5e220963c"},"vehicle_type_id":"4","last_reported":1745259227,"current_range_meters":6800,"station_id":"ce4bhg12rcd13ifvqf60","pricing_plan_id":"cebpf4jnsgd1na2vs0mg"},{"bike_id":"e9b31eb3-6fb4-46a9-ba8a-09d44bebfa1e","system_id":"levelo_inurba_marseille","lat":43.28444,"lon":5.39195,"is_reserved":false,"is_disabled":false,"rental_uris":{"android":"levelo://app?vid=e9b31eb3-6fb4-46a9-ba8a-09d44bebfa1e","ios":"levelo://app?vid=e9b31eb3-6fb4-46a9-ba8a-09d44bebfa1e"},"vehicle_type_id":"4","last_reported":1745259227,"current_range_meters":7200,"station_id":"ce4bhoh2rcd13ifvqh5g","pricing_plan_id":"cebpf4jnsgd1na2vs0mg"},{"bike_id":"87194a09-fbe5-4e0c-b1f9-ab1cd76840c4","system_id":"levelo_inurba_marseille","lat":43.29697,"lon":5.36629,"is_reserved":false,"is_disabled":false,"rental_uris":{"android":"levelo://app?vid=87194a09-fbe5-4e0c-b1f9-ab1cd76840c4","ios":"levelo://app?vid=87194a09-fbe5-4e0c-b1f9-ab1cd76840c4"},"vehicle_type_id":"4","last_reported":1745259227,"current_range_meters":7200,"station_id":"ce4bgn12rcd13ifvqbt0","pricing_plan_id":"cebpf4jnsgd1na2vs0mg"},{"bike_id":"bfefb57c-154e-4cbc-90d7-24ac4b95745f","system_id":"levelo_inurba_marseille","lat":43.31146,"lon":5.36792,"is_reserved":false,"is_disabled":false,"rental_uris":{"android":"levelo://app?vid=bfefb57c-154e-4cbc-90d7-24ac4b95745f","ios":"levelo://app?vid=bfefb57c-154e-4cbc-90d7-24ac4b95745f"},"vehicle_type_id":"4","last_reported":1745259227,"current_range_meters":7200,"station_id":"","pricing_plan_id":"cebpf4jnsgd1na2vs0mg"},{"bike_id":"f3f340a3-e5ea-4961-8256-ba168bd105d0","system_id":"levelo_inurba_marseille","lat":43.29197,"lon":5.39326,"is_reserved":false,"is_disabled":false,"rental_uris":{"android":"levelo://app?vid=f3f340a3-e5ea-4961-8256-ba168bd105d0","ios":"levelo://app?vid=f3f340a3-e5ea-4961-8256-ba168bd105d0"},"vehicle_type_id":"4","last_reported":1745259227,"current_range_meters":7200,"station_id":"ce4bh192rcd13ifvqdd0","pricing_plan_id":"cebpf4jnsgd1na2vs0mg"},{"bike_id":"336e1d2f-4fed-41b1-9d39-e099e9e9703a","system_id":"levelo_inurba_marseille","lat":43.31222,"lon":5.36864,"is_reserved":false,"is_disabled":false,"rental_uris":{"android":"levelo://app?vid=336e1d2f-4fed-41b1-9d39-e099e9e9703a","ios":"levelo://app?vid=336e1d2f-4fed-41b1-9d39-e099e9e9703a"},"vehicle_type_id":"4","last_reported":1745259227,"current_range_meters":8000,"station_id":"ce4bgl92rcd13ifvqbq0","pricing_plan_id":"cebpf4jnsgd1na2vs0mg"},{"bike_id":"05f4401d-279a-4382-997e-c2a5e4fa1edd","system_id":"levelo_inurba_marseille","lat":43.28932,"lon":5.366263,"is_reserved":false,"is_disabled":false,"rental_uris":{"android":"levelo://app?vid=05f4401d-279a-4382-997e-c2a5e4fa1edd","ios":"levelo://app?vid=05f4401d-279a-4382-997e-c2a5e4fa1edd"},"vehicle_type_id":"4","last_reported":1745259227,"current_range_meters":8000,"station_id":"ce4bhap2rcd13ifvqek0","pricing_plan_id":"cebpf4jnsgd1na2vs0mg"},{"bike_id":"e9b40b8c-aa8b-493b-9704-ac204b4fdb74","system_id":"levelo_inurba_marseille","lat":43.22501,"lon":5.34783,"is_reserved":false,"is_disabled":true,"rental_uris":{"android":"levelo://app?vid=e9b40b8c-aa8b-493b-9704-ac204b4fdb74","ios":"levelo://app?vid=e9b40b8c-aa8b-493b-9704-ac204b4fdb74"},"vehicle_type_id":"4","last_reported":1745259227,"current_range_meters":8000,"station_id":"","pricing_plan_id":"cebpf4jnsgd1na2vs0mg"},{"bike_id":"b7778416-6f24-4d5c-b84a-5ade3fb1d234","system_id":"levelo_inurba_marseille","lat":43.31688,"lon":5.40467,"is_reserved":false,"is_disabled":false,"rental_uris":{"android":"levelo://app?vid=b7778416-6f24-4d5c-b84a-5ade3fb1d234","ios":"levelo://app?vid=b7778416-6f24-4d5c-b84a-5ade3fb1d234"},"vehicle_type_id":"4","last_reported":1745259227,"current_range_meters":8000,"station_id":"ce4bh012rcd13ifvqd00","pricing_plan_id":"cebpf4jnsgd1na2vs0mg"},{"bike_id":"192d51cc-116a-4926-aa4a-e1515bcb8248","system_id":"levelo_inurba_marseille","lat":43.29974,"lon":5.384881,"is_reserved":false,"is_disabled":true,"rental_uris":{"android":"levelo://app?vid=192d51cc-116a-4926-aa4a-e1515bcb8248","ios":"levelo://app?vid=192d51cc-116a-4926-aa4a-e1515bcb8248"},"vehicle_type_id":"4","last_reported":1745259227,"current_range_meters":8000,"station_id":"ce4bgj92rcd13ifvqbd0","pricing_plan_id":"cebpf4jnsgd1na2vs0mg"},{"bike_id":"f3a940f0-aed0-4bad-a33e-6bbde2229405","system_id":"levelo_inurba_marseille","lat":43.291025,"lon":5.381407,"is_reserved":false,"is_disabled":false,"rental_uris":{"android":"levelo://app?vid=f3a940f0-aed0-4bad-a33e-6bbde2229405","ios":"levelo://app?vid=f3a940f0-aed0-4bad-a33e-6bbde2229405"},"vehicle_type_id":"4","last_reported":1745259227,"current_range_meters":8000,"station_id":"ce4bh512rcd13ifvqe2g","pricing_plan_id":"cebpf4jnsgd1na2vs0mg"},{"bike_id":"483cf058-10e2-4c5a-9a0a-164bea94e83c","system_id":"levelo_inurba_marseille","lat":43.30418,"lon":5.38884,"is_reserved":false,"is_disabled":false,"rental_uris":{"android":"levelo://app?vid=483cf058-10e2-4c5a-9a0a-164bea94e83c","ios":"levelo://app?vid=483cf058-10e2-4c5a-9a0a-164bea94e83c"},"vehicle_type_id":"4","last_reported":1745259227,"current_range_meters":7200,"station_id":"ce4bgk12rcd13ifvqbi0","pricing_plan_id":"cebpf4jnsgd1na2vs0mg"},{"bike_id":"0e3f01e5-c3de-4476-9321-0ae8ce1ce1f2","system_id":"levelo_inurba_marseille","lat":43.28369,"lon":5.38634,"is_reserved":false,"is_disabled":false,"rental_uris":{"android":"levelo://app?vid=0e3f01e5-c3de-4476-9321-0ae8ce1ce1f2","ios":"levelo://app?vid=0e3f01e5-c3de-4476-9321-0ae8ce1ce1f2"},"vehicle_type_id":"4","last_reported":1745259227,"current_range_meters":8000,"station_id":"ce4bh492rcd13ifvqdvg","pricing_plan_id":"cebpf4jnsgd1na2vs0mg"},{"bike_id":"2bf7742c-12a1-415b-a3c8-b3f2f3a1cdb2","system_id":"levelo_inurba_marseille","lat":43.29417,"lon":5.38626,"is_reserved":false,"is_disabled":false,"rental_uris":{"android":"levelo://app?vid=2bf7742c-12a1-415b-a3c8-b3f2f3a1cdb2","ios":"levelo://app?vid=2bf7742c-12a1-415b-a3c8-b3f2f3a1cdb2"},"vehicle_type_id":"4","last_reported":1745259227,"current_range_meters":8000,"station_id":"ce4bh2h2rcd13ifvqdh0","pricing_plan_id":"cebpf4jnsgd1na2vs0mg"},{"bike_id":"d5457657-ffe3-4d49-bc19-9046b5ac7e21","system_id":"levelo_inurba_marseille","lat":43.30321,"lon":5.40431,"is_reserved":false,"is_disabled":false,"rental_uris":{"android":"levelo://app?vid=d5457657-ffe3-4d49-bc19-9046b5ac7e21","ios":"levelo://app?vid=d5457657-ffe3-4d49-bc19-9046b5ac7e21"},"vehicle_type_id":"4","last_reported":1745259227,"current_range_meters":8000,"station_id":"ce4bh012rcd13ifvqd10","pricing_plan_id":"cebpf4jnsgd1na2vs0mg"},{"bike_id":"34bb8bbb-211f-4c20-a85c-0b5a0ec2fe6b","system_id":"levelo_inurba_marseille","lat":43.28725,"lon":5.36085,"is_reserved":false,"is_disabled":false,"rental_uris":{"android":"levelo://app?vid=34bb8bbb-211f-4c20-a85c-0b5a0ec2fe6b","ios":"levelo://app?vid=34bb8bbb-211f-4c20-a85c-0b5a0ec2fe6b"},"vehicle_type_id":"4","last_reported":1745259227,"current_range_meters":8800,"station_id":"cki0cbj6b192h4jlfktg","pricing_plan_id":"cebpf4jnsgd1na2vs0mg"},{"bike_id":"fce42aed-2209-4249-9139-b16de87552a7","system_id":"levelo_inurba_marseille","lat":43.30963,"lon":5.39035,"is_reserved":false,"is_disabled":false,"rental_uris":{"android":"levelo://app?vid=fce42aed-2209-4249-9139-b16de87552a7","ios":"levelo://app?vid=fce42aed-2209-4249-9139-b16de87552a7"},"vehicle_type_id":"4","last_reported":1745259227,"current_range_meters":8400,"station_id":"ce4bgup2rcd13ifvqco0","pricing_plan_id":"cebpf4jnsgd1na2vs0mg"},{"bike_id":"dacb9310-ef47-42d4-82c3-6f67b29ded17","system_id":"levelo_inurba_marseille","lat":43.31989,"lon":5.38145,"is_reserved":false,"is_disabled":true,"rental_uris":{"android":"levelo://app?vid=dacb9310-ef47-42d4-82c3-6f67b29ded17","ios":"levelo://app?vid=dacb9310-ef47-42d4-82c3-6f67b29ded17"},"vehicle_type_id":"4","last_reported":1745259227,"current_range_meters":8400,"station_id":"ce4bhr12rcd13ifvqhpg","pricing_plan_id":"cebpf4jnsgd1na2vs0mg"},{"bike_id":"8216627a-c1f4-46db-ae13-0ab4f7390e99","system_id":"levelo_inurba_marseille","lat":43.25825,"lon":5.39434,"is_reserved":false,"is_disabled":false,"rental_uris":{"android":"levelo://app?vid=8216627a-c1f4-46db-ae13-0ab4f7390e99","ios":"levelo://app?vid=8216627a-c1f4-46db-ae13-0ab4f7390e99"},"vehicle_type_id":"4","last_reported":1745259227,"current_range_meters":8400,"station_id":"ce4bhip2rcd13ifvqft0","pricing_plan_id":"cebpf4jnsgd1na2vs0mg"},{"bike_id":"7b5053a1-6abc-494a-aa95-a321d1070bc6","system_id":"levelo_inurba_marseille","lat":43.28078,"lon":5.39656,"is_reserved":false,"is_disabled":false,"rental_uris":{"android":"levelo://app?vid=7b5053a1-6abc-494a-aa95-a321d1070bc6","ios":"levelo://app?vid=7b5053a1-6abc-494a-aa95-a321d1070bc6"},"vehicle_type_id":"4","last_reported":1745259227,"current_range_meters":8400,"station_id":"ce4bho12rcd13ifvqh2g","pricing_plan_id":"cebpf4jnsgd1na2vs0mg"},{"bike_id":"f56e1161-7ff0-4300-8db9-1ffe8dc33443","system_id":"levelo_inurba_marseille","lat":43.29415,"lon":5.38625,"is_reserved":false,"is_disabled":false,"rental_uris":{"android":"levelo://app?vid=f56e1161-7ff0-4300-8db9-1ffe8dc33443","ios":"levelo://app?vid=f56e1161-7ff0-4300-8db9-1ffe8dc33443"},"vehicle_type_id":"4","last_reported":1745259227,"current_range_meters":8400,"station_id":"ce4bh2h2rcd13ifvqdh0","pricing_plan_id":"cebpf4jnsgd1na2vs0mg"},{"bike_id":"92223572-9c4e-4e11-abb0-80ffcb01caab","system_id":"levelo_inurba_marseille","lat":43.29529,"lon":5.38533,"is_reserved":false,"is_disabled":false,"rental_uris":{"android":"levelo://app?vid=92223572-9c4e-4e11-abb0-80ffcb01caab","ios":"levelo://app?vid=92223572-9c4e-4e11-abb0-80ffcb01caab"},"vehicle_type_id":"4","last_reported":1745259227,"current_range_meters":8400,"station_id":"ce4bgih2rcd13ifvqba0","pricing_plan_id":"cebpf4jnsgd1na2vs0mg"},{"bike_id":"9157825f-6a22-41a3-b149-6de426726740","system_id":"levelo_inurba_marseille","lat":43.29851,"lon":5.36297,"is_reserved":false,"is_disabled":false,"rental_uris":{"android":"levelo://app?vid=9157825f-6a22-41a3-b149-6de426726740","ios":"levelo://app?vid=9157825f-6a22-41a3-b149-6de426726740"},"vehicle_type_id":"4","last_reported":1745259227,"current_range_meters":8400,"station_id":"ce4bgpp2rcd13ifvqc3g","pricing_plan_id":"cebpf4jnsgd1na2vs0mg"},{"bike_id":"5da9ce03-b9eb-40a3-8b3b-38c436fa8161","system_id":"levelo_inurba_marseille","lat":43.288598,"lon":5.366605,"is_reserved":false,"is_disabled":false,"rental_uris":{"android":"levelo://app?vid=5da9ce03-b9eb-40a3-8b3b-38c436fa8161","ios":"levelo://app?vid=5da9ce03-b9eb-40a3-8b3b-38c436fa8161"},"vehicle_type_id":"4","last_reported":1745259227,"current_range_meters":8000,"station_id":"ce4bhap2rcd13ifvqek0","pricing_plan_id":"cebpf4jnsgd1na2vs0mg"},{"bike_id":"1f84f51f-d2f4-4d4c-982d-d184ffe24a02","system_id":"levelo_inurba_marseille","lat":43.32368,"lon":5.38877,"is_reserved":false,"is_disabled":true,"rental_uris":{"android":"levelo://app?vid=1f84f51f-d2f4-4d4c-982d-d184ffe24a02","ios":"levelo://app?vid=1f84f51f-d2f4-4d4c-982d-d184ffe24a02"},"vehicle_type_id":"4","last_reported":1745259227,"current_range_meters":8800,"station_id":"ce4bhqp2rcd13ifvqhog","pricing_plan_id":"cebpf4jnsgd1na2vs0mg"},{"bike_id":"21cbe43b-8ff6-4233-b1ab-0f4314c5ae87","system_id":"levelo_inurba_marseille","lat":43.291838,"lon":5.393524,"is_reserved":false,"is_disabled":false,"rental_uris":{"android":"levelo://app?vid=21cbe43b-8ff6-4233-b1ab-0f4314c5ae87","ios":"levelo://app?vid=21cbe43b-8ff6-4233-b1ab-0f4314c5ae87"},"vehicle_type_id":"4","last_reported":1745259227,"current_range_meters":8800,"station_id":"ce4bh192rcd13ifvqdd0","pricing_plan_id":"cebpf4jnsgd1na2vs0mg"},{"bike_id":"783acb6f-bcbb-4f5a-89df-faff5a03c715","system_id":"levelo_inurba_marseille","lat":43.30089,"lon":5.39084,"is_reserved":false,"is_disabled":false,"rental_uris":{"android":"levelo://app?vid=783acb6f-bcbb-4f5a-89df-faff5a03c715","ios":"levelo://app?vid=783acb6f-bcbb-4f5a-89df-faff5a03c715"},"vehicle_type_id":"4","last_reported":1745259227,"current_range_meters":8800,"station_id":"ce4bh192rcd13ifvqdb0","pricing_plan_id":"cebpf4jnsgd1na2vs0mg"},{"bike_id":"fecbafc6-f6e7-4a91-a900-e3d3a3423b5a","system_id":"levelo_inurba_marseille","lat":43.26201,"lon":5.3793,"is_reserved":false,"is_disabled":false,"rental_uris":{"android":"levelo://app?vid=fecbafc6-f6e7-4a91-a900-e3d3a3423b5a","ios":"levelo://app?vid=fecbafc6-f6e7-4a91-a900-e3d3a3423b5a"},"vehicle_type_id":"4","last_reported":1745259227,"current_range_meters":8800,"station_id":"ce4bhjp2rcd13ifvqg90","pricing_plan_id":"cebpf4jnsgd1na2vs0mg"},{"bike_id":"44c391bc-49b8-4135-9b17-e1ad9f29c5d7","system_id":"levelo_inurba_marseille","lat":43.29613,"lon":5.38111,"is_reserved":false,"is_disabled":false,"rental_uris":{"android":"levelo://app?vid=44c391bc-49b8-4135-9b17-e1ad9f29c5d7","ios":"levelo://app?vid=44c391bc-49b8-4135-9b17-e1ad9f29c5d7"},"vehicle_type_id":"4","last_reported":1745259227,"current_range_meters":8800,"station_id":"ce4bgl12rcd13ifvqbo0","pricing_plan_id":"cebpf4jnsgd1na2vs0mg"},{"bike_id":"f1eb161d-2076-4de4-ae71-bd6a5b50cf12","system_id":"levelo_inurba_marseille","lat":43.29367,"lon":5.40151,"is_reserved":false,"is_disabled":false,"rental_uris":{"android":"levelo://app?vid=f1eb161d-2076-4de4-ae71-bd6a5b50cf12","ios":"levelo://app?vid=f1eb161d-2076-4de4-ae71-bd6a5b50cf12"},"vehicle_type_id":"4","last_reported":1745259227,"current_range_meters":8800,"station_id":"","pricing_plan_id":"cebpf4jnsgd1na2vs0mg"},{"bike_id":"f2c7a35c-da29-4f74-9787-533689996722","system_id":"levelo_inurba_marseille","lat":43.2941,"lon":5.38615,"is_reserved":false,"is_disabled":false,"rental_uris":{"android":"levelo://app?vid=f2c7a35c-da29-4f74-9787-533689996722","ios":"levelo://app?vid=f2c7a35c-da29-4f74-9787-533689996722"},"vehicle_type_id":"4","last_reported":1745259227,"current_range_meters":9200,"station_id":"ce4bh2h2rcd13ifvqdh0","pricing_plan_id":"cebpf4jnsgd1na2vs0mg"},{"bike_id":"f71ef2ed-3092-4940-9e73-cc832a078dc6","system_id":"levelo_inurba_marseille","lat":43.26047,"lon":5.39397,"is_reserved":false,"is_disabled":false,"rental_uris":{"android":"levelo://app?vid=f71ef2ed-3092-4940-9e73-cc832a078dc6","ios":"levelo://app?vid=f71ef2ed-3092-4940-9e73-cc832a078dc6"},"vehicle_type_id":"4","last_reported":1745259227,"current_range_meters":9200,"station_id":"ce4bhh92rcd13ifvqfj0","pricing_plan_id":"cebpf4jnsgd1na2vs0mg"},{"bike_id":"d5aaf7b9-7fe4-4e49-ab5f-5b64544b07d5","system_id":"levelo_inurba_marseille","lat":43.25004,"lon":5.38926,"is_reserved":false,"is_disabled":false,"rental_uris":{"android":"levelo://app?vid=d5aaf7b9-7fe4-4e49-ab5f-5b64544b07d5","ios":"levelo://app?vid=d5aaf7b9-7fe4-4e49-ab5f-5b64544b07d5"},"vehicle_type_id":"4","last_reported":1745259227,"current_range_meters":9200,"station_id":"ce4bhgp2rcd13ifvqfd0","pricing_plan_id":"cebpf4jnsgd1na2vs0mg"},{"bike_id":"24899145-0ca4-4c18-9d4a-a07581aa429d","system_id":"levelo_inurba_marseille","lat":43.29267,"lon":5.3844,"is_reserved":false,"is_disabled":false,"rental_uris":{"android":"levelo://app?vid=24899145-0ca4-4c18-9d4a-a07581aa429d","ios":"levelo://app?vid=24899145-0ca4-4c18-9d4a-a07581aa429d"},"vehicle_type_id":"4","last_reported":1745259227,"current_range_meters":9200,"station_id":"ce4bh692rcd13ifvqea0","pricing_plan_id":"cebpf4jnsgd1na2vs0mg"},{"bike_id":"08adba7b-eac3-4cfc-9923-2ccf0cc4ffef","system_id":"levelo_inurba_marseille","lat":43.24557,"lon":5.41285,"is_reserved":false,"is_disabled":false,"rental_uris":{"android":"levelo://app?vid=08adba7b-eac3-4cfc-9923-2ccf0cc4ffef","ios":"levelo://app?vid=08adba7b-eac3-4cfc-9923-2ccf0cc4ffef"},"vehicle_type_id":"4","last_reported":1745259227,"current_range_meters":9200,"station_id":"","pricing_plan_id":"cebpf4jnsgd1na2vs0mg"},{"bike_id":"0704165f-9e9b-4a18-a67c-54960943ae78","system_id":"levelo_inurba_marseille","lat":43.27992,"lon":5.41649,"is_reserved":false,"is_disabled":false,"rental_uris":{"android":"levelo://app?vid=0704165f-9e9b-4a18-a67c-54960943ae78","ios":"levelo://app?vid=0704165f-9e9b-4a18-a67c-54960943ae78"},"vehicle_type_id":"4","last_reported":1745259227,"current_range_meters":9200,"station_id":"ce4bho12rcd13ifvqh1g","pricing_plan_id":"cebpf4jnsgd1na2vs0mg"},{"bike_id":"d1be1167-d8d0-444d-93f2-ba551cf54cdb","system_id":"levelo_inurba_marseille","lat":43.29532,"lon":5.38548,"is_reserved":false,"is_disabled":false,"rental_uris":{"android":"levelo://app?vid=d1be1167-d8d0-444d-93f2-ba551cf54cdb","ios":"levelo://app?vid=d1be1167-d8d0-444d-93f2-ba551cf54cdb"},"vehicle_type_id":"4","last_reported":1745259227,"current_range_meters":9200,"station_id":"ce4bgih2rcd13ifvqba0","pricing_plan_id":"cebpf4jnsgd1na2vs0mg"},{"bike_id":"5eb689d0-1a02-480e-898e-4fbf2c8b1899","system_id":"levelo_inurba_marseille","lat":43.26571,"lon":5.39009,"is_reserved":false,"is_disabled":false,"rental_uris":{"android":"levelo://app?vid=5eb689d0-1a02-480e-898e-4fbf2c8b1899","ios":"levelo://app?vid=5eb689d0-1a02-480e-898e-4fbf2c8b1899"},"vehicle_type_id":"4","last_reported":1745259227,"current_range_meters":9200,"station_id":"ce4bhe12rcd13ifvqf30","pricing_plan_id":"cebpf4jnsgd1na2vs0mg"},{"bike_id":"425d5531-b59c-4089-976e-23bfdba61798","system_id":"levelo_inurba_marseille","lat":43.30458,"lon":5.37908,"is_reserved":false,"is_disabled":false,"rental_uris":{"android":"levelo://app?vid=425d5531-b59c-4089-976e-23bfdba61798","ios":"levelo://app?vid=425d5531-b59c-4089-976e-23bfdba61798"},"vehicle_type_id":"4","last_reported":1745259227,"current_range_meters":9600,"station_id":"ce4bgup2rcd13ifvqcn0","pricing_plan_id":"cebpf4jnsgd1na2vs0mg"},{"bike_id":"20bfa81f-b34e-4a1c-bbd4-b0b4cdeef624","system_id":"levelo_inurba_marseille","lat":43.30425,"lon":5.38883,"is_reserved":false,"is_disabled":false,"rental_uris":{"android":"levelo://app?vid=20bfa81f-b34e-4a1c-bbd4-b0b4cdeef624","ios":"levelo://app?vid=20bfa81f-b34e-4a1c-bbd4-b0b4cdeef624"},"vehicle_type_id":"4","last_reported":1745259227,"current_range_meters":9600,"station_id":"ce4bgk12rcd13ifvqbi0","pricing_plan_id":"cebpf4jnsgd1na2vs0mg"},{"bike_id":"34166cb2-24d1-48d4-88e5-65264e3a037d","system_id":"levelo_inurba_marseille","lat":43.31038,"lon":5.37109,"is_reserved":false,"is_disabled":false,"rental_uris":{"android":"levelo://app?vid=34166cb2-24d1-48d4-88e5-65264e3a037d","ios":"levelo://app?vid=34166cb2-24d1-48d4-88e5-65264e3a037d"},"vehicle_type_id":"4","last_reported":1745259227,"current_range_meters":9600,"station_id":"","pricing_plan_id":"cebpf4jnsgd1na2vs0mg"},{"bike_id":"4663eb54-ac9d-4c55-b20c-b67076cf4083","system_id":"levelo_inurba_marseille","lat":43.30137,"lon":5.38775,"is_reserved":false,"is_disabled":false,"rental_uris":{"android":"levelo://app?vid=4663eb54-ac9d-4c55-b20c-b67076cf4083","ios":"levelo://app?vid=4663eb54-ac9d-4c55-b20c-b67076cf4083"},"vehicle_type_id":"4","last_reported":1745259227,"current_range_meters":9600,"station_id":"ce4bghh2rcd13ifvqb60","pricing_plan_id":"cebpf4jnsgd1na2vs0mg"},{"bike_id":"628cd7b9-3018-43e3-8b3a-f8f52315616a","system_id":"levelo_inurba_marseille","lat":43.29901,"lon":5.38161,"is_reserved":false,"is_disabled":false,"rental_uris":{"android":"levelo://app?vid=628cd7b9-3018-43e3-8b3a-f8f52315616a","ios":"levelo://app?vid=628cd7b9-3018-43e3-8b3a-f8f52315616a"},"vehicle_type_id":"4","last_reported":1745259227,"current_range_meters":9600,"station_id":"ce4bgj12rcd13ifvqbc0","pricing_plan_id":"cebpf4jnsgd1na2vs0mg"},{"bike_id":"4679c1f6-1330-4cc3-b177-4ce3fb4890a3","system_id":"levelo_inurba_marseille","lat":43.31084,"lon":5.42431,"is_reserved":false,"is_disabled":false,"rental_uris":{"android":"levelo://app?vid=4679c1f6-1330-4cc3-b177-4ce3fb4890a3","ios":"levelo://app?vid=4679c1f6-1330-4cc3-b177-4ce3fb4890a3"},"vehicle_type_id":"4","last_reported":1745259227,"current_range_meters":9600,"station_id":"ce4bhp92rcd13ifvqhag","pricing_plan_id":"cebpf4jnsgd1na2vs0mg"},{"bike_id":"6fb68eeb-bb6c-4034-b8e9-17ab20e7939b","system_id":"levelo_inurba_marseille","lat":43.2766,"lon":5.38968,"is_reserved":false,"is_disabled":false,"rental_uris":{"android":"levelo://app?vid=6fb68eeb-bb6c-4034-b8e9-17ab20e7939b","ios":"levelo://app?vid=6fb68eeb-bb6c-4034-b8e9-17ab20e7939b"},"vehicle_type_id":"4","last_reported":1745259227,"current_range_meters":10000,"station_id":"ce4bhi12rcd13ifvqfo0","pricing_plan_id":"cebpf4jnsgd1na2vs0mg"},{"bike_id":"d01df6a6-b745-430f-aed3-8244c27e3204","system_id":"levelo_inurba_marseille","lat":43.2835,"lon":5.38106,"is_reserved":false,"is_disabled":false,"rental_uris":{"android":"levelo://app?vid=d01df6a6-b745-430f-aed3-8244c27e3204","ios":"levelo://app?vid=d01df6a6-b745-430f-aed3-8244c27e3204"},"vehicle_type_id":"4","last_reported":1745259227,"current_range_meters":9600,"station_id":"ce4bh412rcd13ifvqdr0","pricing_plan_id":"cebpf4jnsgd1na2vs0mg"},{"bike_id":"01af44ff-c6fa-4cec-ba8e-036c0312c26d","system_id":"levelo_inurba_marseille","lat":43.27819,"lon":5.407,"is_reserved":false,"is_disabled":false,"rental_uris":{"android":"levelo://app?vid=01af44ff-c6fa-4cec-ba8e-036c0312c26d","ios":"levelo://app?vid=01af44ff-c6fa-4cec-ba8e-036c0312c26d"},"vehicle_type_id":"4","last_reported":1745259227,"current_range_meters":10000,"station_id":"ce4bhnh2rcd13ifvqgtg","pricing_plan_id":"cebpf4jnsgd1na2vs0mg"},{"bike_id":"a4c49803-08cd-44e9-8cec-c58a79dc5fef","system_id":"levelo_inurba_marseille","lat":43.2789,"lon":5.38007,"is_reserved":false,"is_disabled":false,"rental_uris":{"android":"levelo://app?vid=a4c49803-08cd-44e9-8cec-c58a79dc5fef","ios":"levelo://app?vid=a4c49803-08cd-44e9-8cec-c58a79dc5fef"},"vehicle_type_id":"4","last_reported":1745259227,"current_range_meters":10000,"station_id":"ce4bhf92rcd13ifvqf50","pricing_plan_id":"cebpf4jnsgd1na2vs0mg"},{"bike_id":"b5cc8185-e581-46d7-8df3-59634ab6fc6e","system_id":"levelo_inurba_marseille","lat":43.2828,"lon":5.3507,"is_reserved":false,"is_disabled":true,"rental_uris":{"android":"levelo://app?vid=b5cc8185-e581-46d7-8df3-59634ab6fc6e","ios":"levelo://app?vid=b5cc8185-e581-46d7-8df3-59634ab6fc6e"},"vehicle_type_id":"4","last_reported":1745259227,"current_range_meters":10000,"station_id":"ce4bhbp2rcd13ifvqerg","pricing_plan_id":"cebpf4jnsgd1na2vs0mg"},{"bike_id":"b09a0f3d-c48b-475b-8346-07998bdf0685","system_id":"levelo_inurba_marseille","lat":43.24067,"lon":5.37755,"is_reserved":false,"is_disabled":false,"rental_uris":{"android":"levelo://app?vid=b09a0f3d-c48b-475b-8346-07998bdf0685","ios":"levelo://app?vid=b09a0f3d-c48b-475b-8346-07998bdf0685"},"vehicle_type_id":"4","last_reported":1745259227,"current_range_meters":10000,"station_id":"ce4bhnp2rcd13ifvqgvg","pricing_plan_id":"cebpf4jnsgd1na2vs0mg"},{"bike_id":"e109bb39-a2f8-4d23-8852-62f264109c8e","system_id":"levelo_inurba_marseille","lat":43.28669,"lon":5.38676,"is_reserved":false,"is_disabled":false,"rental_uris":{"android":"levelo://app?vid=e109bb39-a2f8-4d23-8852-62f264109c8e","ios":"levelo://app?vid=e109bb39-a2f8-4d23-8852-62f264109c8e"},"vehicle_type_id":"4","last_reported":1745259227,"current_range_meters":10000,"station_id":"ce4bh492rcd13ifvqdug","pricing_plan_id":"cebpf4jnsgd1na2vs0mg"},{"bike_id":"efa84ecd-ec60-47b2-874a-5a13f40320c0","system_id":"levelo_inurba_marseille","lat":43.29865,"lon":5.39721,"is_reserved":false,"is_disabled":false,"rental_uris":{"android":"levelo://app?vid=efa84ecd-ec60-47b2-874a-5a13f40320c0","ios":"levelo://app?vid=efa84ecd-ec60-47b2-874a-5a13f40320c0"},"vehicle_type_id":"4","last_reported":1745259227,"current_range_meters":10000,"station_id":"ce4bh0h2rcd13ifvqd50","pricing_plan_id":"cebpf4jnsgd1na2vs0mg"},{"bike_id":"6b57e870-dfa4-456d-8906-4f75d5e3439c","system_id":"levelo_inurba_marseille","lat":43.30331,"lon":5.4043,"is_reserved":false,"is_disabled":false,"rental_uris":{"android":"levelo://app?vid=6b57e870-dfa4-456d-8906-4f75d5e3439c","ios":"levelo://app?vid=6b57e870-dfa4-456d-8906-4f75d5e3439c"},"vehicle_type_id":"4","last_reported":1745259227,"current_range_meters":10000,"station_id":"ce4bh012rcd13ifvqd10","pricing_plan_id":"cebpf4jnsgd1na2vs0mg"},{"bike_id":"e6db9924-58e0-40de-b15f-4b349bad09ad","system_id":"levelo_inurba_marseille","lat":43.289347,"lon":5.366329,"is_reserved":false,"is_disabled":true,"rental_uris":{"android":"levelo://app?vid=e6db9924-58e0-40de-b15f-4b349bad09ad","ios":"levelo://app?vid=e6db9924-58e0-40de-b15f-4b349bad09ad"},"vehicle_type_id":"4","last_reported":1745259227,"current_range_meters":10800,"station_id":"ce4bhap2rcd13ifvqek0","pricing_plan_id":"cebpf4jnsgd1na2vs0mg"},{"bike_id":"91e08a4b-ddcc-4b67-9353-958cd7ae2dab","system_id":"levelo_inurba_marseille","lat":43.29439,"lon":5.38631,"is_reserved":false,"is_disabled":false,"rental_uris":{"android":"levelo://app?vid=91e08a4b-ddcc-4b67-9353-958cd7ae2dab","ios":"levelo://app?vid=91e08a4b-ddcc-4b67-9353-958cd7ae2dab"},"vehicle_type_id":"4","last_reported":1745259227,"current_range_meters":10800,"station_id":"ce4bh2h2rcd13ifvqdh0","pricing_plan_id":"cebpf4jnsgd1na2vs0mg"},{"bike_id":"c633ffb6-a2e4-43ee-bc04-55b3730fd199","system_id":"levelo_inurba_marseille","lat":43.29401,"lon":5.38638,"is_reserved":false,"is_disabled":true,"rental_uris":{"android":"levelo://app?vid=c633ffb6-a2e4-43ee-bc04-55b3730fd199","ios":"levelo://app?vid=c633ffb6-a2e4-43ee-bc04-55b3730fd199"},"vehicle_type_id":"4","last_reported":1745259227,"current_range_meters":10800,"station_id":"ce4bh2h2rcd13ifvqdh0","pricing_plan_id":"cebpf4jnsgd1na2vs0mg"},{"bike_id":"90e0b130-5136-4d08-9d37-613283692d66","system_id":"levelo_inurba_marseille","lat":43.29527,"lon":5.3854,"is_reserved":false,"is_disabled":false,"rental_uris":{"android":"levelo://app?vid=90e0b130-5136-4d08-9d37-613283692d66","ios":"levelo://app?vid=90e0b130-5136-4d08-9d37-613283692d66"},"vehicle_type_id":"4","last_reported":1745259227,"current_range_meters":10800,"station_id":"ce4bgih2rcd13ifvqba0","pricing_plan_id":"cebpf4jnsgd1na2vs0mg"},{"bike_id":"05e567bf-6336-41fe-810a-6485e95e184b","system_id":"levelo_inurba_marseille","lat":43.29854,"lon":5.39724,"is_reserved":false,"is_disabled":false,"rental_uris":{"android":"levelo://app?vid=05e567bf-6336-41fe-810a-6485e95e184b","ios":"levelo://app?vid=05e567bf-6336-41fe-810a-6485e95e184b"},"vehicle_type_id":"4","last_reported":1745259227,"current_range_meters":10000,"station_id":"ce4bh0h2rcd13ifvqd50","pricing_plan_id":"cebpf4jnsgd1na2vs0mg"},{"bike_id":"62801924-329e-46ea-aa72-be8e28d87636","system_id":"levelo_inurba_marseille","lat":43.2666,"lon":5.39985,"is_reserved":false,"is_disabled":false,"rental_uris":{"android":"levelo://app?vid=62801924-329e-46ea-aa72-be8e28d87636","ios":"levelo://app?vid=62801924-329e-46ea-aa72-be8e28d87636"},"vehicle_type_id":"4","last_reported":1745259227,"current_range_meters":10800,"station_id":"","pricing_plan_id":"cebpf4jnsgd1na2vs0mg"},{"bike_id":"38496ab1-dcd9-47e1-88de-12902fbdc1d3","system_id":"levelo_inurba_marseille","lat":43.29027,"lon":5.38641,"is_reserved":false,"is_disabled":false,"rental_uris":{"android":"levelo://app?vid=38496ab1-dcd9-47e1-88de-12902fbdc1d3","ios":"levelo://app?vid=38496ab1-dcd9-47e1-88de-12902fbdc1d3"},"vehicle_type_id":"4","last_reported":1745259227,"current_range_meters":10800,"station_id":"ce4bh4p2rcd13ifvqe0g","pricing_plan_id":"cebpf4jnsgd1na2vs0mg"},{"bike_id":"09044409-61ee-4b20-ba01-00f31c3d8e48","system_id":"levelo_inurba_marseille","lat":43.29787,"lon":5.3809,"is_reserved":false,"is_disabled":false,"rental_uris":{"android":"levelo://app?vid=09044409-61ee-4b20-ba01-00f31c3d8e48","ios":"levelo://app?vid=09044409-61ee-4b20-ba01-00f31c3d8e48"},"vehicle_type_id":"4","last_reported":1745259227,"current_range_meters":10800,"station_id":"ce4bgip2rcd13ifvqbb0","pricing_plan_id":"cebpf4jnsgd1na2vs0mg"},{"bike_id":"6c6f62a6-6d59-45b5-953e-615dcd3a370e","system_id":"levelo_inurba_marseille","lat":43.26952,"lon":5.38653,"is_reserved":false,"is_disabled":false,"rental_uris":{"android":"levelo://app?vid=6c6f62a6-6d59-45b5-953e-615dcd3a370e","ios":"levelo://app?vid=6c6f62a6-6d59-45b5-953e-615dcd3a370e"},"vehicle_type_id":"4","last_reported":1745259227,"current_range_meters":10800,"station_id":"ce4bhh92rcd13ifvqfh0","pricing_plan_id":"cebpf4jnsgd1na2vs0mg"},{"bike_id":"30393bbb-0638-41c6-bc4f-8811c5612030","system_id":"levelo_inurba_marseille","lat":43.28684,"lon":5.38661,"is_reserved":false,"is_disabled":false,"rental_uris":{"android":"levelo://app?vid=30393bbb-0638-41c6-bc4f-8811c5612030","ios":"levelo://app?vid=30393bbb-0638-41c6-bc4f-8811c5612030"},"vehicle_type_id":"4","last_reported":1745259227,"current_range_meters":10800,"station_id":"ce4bh492rcd13ifvqdug","pricing_plan_id":"cebpf4jnsgd1na2vs0mg"},{"bike_id":"1f35e118-c40e-476b-9336-1d733c01bb4f","system_id":"levelo_inurba_marseille","lat":43.29098,"lon":5.38139,"is_reserved":false,"is_disabled":false,"rental_uris":{"android":"levelo://app?vid=1f35e118-c40e-476b-9336-1d733c01bb4f","ios":"levelo://app?vid=1f35e118-c40e-476b-9336-1d733c01bb4f"},"vehicle_type_id":"4","last_reported":1745259227,"current_range_meters":10000,"station_id":"ce4bh512rcd13ifvqe2g","pricing_plan_id":"cebpf4jnsgd1na2vs0mg"},{"bike_id":"393f2994-d65c-4840-a140-6d4495ba90fc","system_id":"levelo_inurba_marseille","lat":43.29256,"lon":5.40904,"is_reserved":false,"is_disabled":false,"rental_uris":{"android":"levelo://app?vid=393f2994-d65c-4840-a140-6d4495ba90fc","ios":"levelo://app?vid=393f2994-d65c-4840-a140-6d4495ba90fc"},"vehicle_type_id":"4","last_reported":1745259227,"current_range_meters":10800,"station_id":"ce4bh192rcd13ifvqdc0","pricing_plan_id":"cebpf4jnsgd1na2vs0mg"},{"bike_id":"0bf1f289-5b5d-4148-b563-1960ad2b696a","system_id":"levelo_inurba_marseille","lat":43.29867,"lon":5.39727,"is_reserved":false,"is_disabled":false,"rental_uris":{"android":"levelo://app?vid=0bf1f289-5b5d-4148-b563-1960ad2b696a","ios":"levelo://app?vid=0bf1f289-5b5d-4148-b563-1960ad2b696a"},"vehicle_type_id":"4","last_reported":1745259227,"current_range_meters":11200,"station_id":"ce4bh0h2rcd13ifvqd50","pricing_plan_id":"cebpf4jnsgd1na2vs0mg"},{"bike_id":"35f2a906-9ed9-4281-a569-57111b51db28","system_id":"levelo_inurba_marseille","lat":43.24996,"lon":5.38948,"is_reserved":false,"is_disabled":false,"rental_uris":{"android":"levelo://app?vid=35f2a906-9ed9-4281-a569-57111b51db28","ios":"levelo://app?vid=35f2a906-9ed9-4281-a569-57111b51db28"},"vehicle_type_id":"4","last_reported":1745259227,"current_range_meters":11200,"station_id":"ce4bhgp2rcd13ifvqfd0","pricing_plan_id":"cebpf4jnsgd1na2vs0mg"},{"bike_id":"5be65ad6-9740-4e7b-afdc-0d70f1572bfb","system_id":"levelo_inurba_marseille","lat":43.3043,"lon":5.41293,"is_reserved":false,"is_disabled":false,"rental_uris":{"android":"levelo://app?vid=5be65ad6-9740-4e7b-afdc-0d70f1572bfb","ios":"levelo://app?vid=5be65ad6-9740-4e7b-afdc-0d70f1572bfb"},"vehicle_type_id":"4","last_reported":1745259227,"current_range_meters":11200,"station_id":"ce4bhop2rcd13ifvqh8g","pricing_plan_id":"cebpf4jnsgd1na2vs0mg"},{"bike_id":"1c755526-7610-4241-9257-348acde561d3","system_id":"levelo_inurba_marseille","lat":43.24865,"lon":5.38208,"is_reserved":false,"is_disabled":false,"rental_uris":{"android":"levelo://app?vid=1c755526-7610-4241-9257-348acde561d3","ios":"levelo://app?vid=1c755526-7610-4241-9257-348acde561d3"},"vehicle_type_id":"4","last_reported":1745259227,"current_range_meters":11200,"station_id":"","pricing_plan_id":"cebpf4jnsgd1na2vs0mg"},{"bike_id":"1876efe3-4383-4229-8f00-c649a9491ada","system_id":"levelo_inurba_marseille","lat":43.303676,"lon":5.418825,"is_reserved":false,"is_disabled":false,"rental_uris":{"android":"levelo://app?vid=1876efe3-4383-4229-8f00-c649a9491ada","ios":"levelo://app?vid=1876efe3-4383-4229-8f00-c649a9491ada"},"vehicle_type_id":"4","last_reported":1745259227,"current_range_meters":11200,"station_id":"ce4bhop2rcd13ifvqh7g","pricing_plan_id":"cebpf4jnsgd1na2vs0mg"},{"bike_id":"895a56a6-79e4-46da-830b-f51ebd573d90","system_id":"levelo_inurba_marseille","lat":43.27556,"lon":5.38418,"is_reserved":false,"is_disabled":false,"rental_uris":{"android":"levelo://app?vid=895a56a6-79e4-46da-830b-f51ebd573d90","ios":"levelo://app?vid=895a56a6-79e4-46da-830b-f51ebd573d90"},"vehicle_type_id":"4","last_reported":1745259227,"current_range_meters":10800,"station_id":"ce4bhh92rcd13ifvqfi0","pricing_plan_id":"cebpf4jnsgd1na2vs0mg"},{"bike_id":"29f8f44d-accb-4ec6-ba97-fa6a4015ca42","system_id":"levelo_inurba_marseille","lat":43.28473,"lon":5.38449,"is_reserved":false,"is_disabled":false,"rental_uris":{"android":"levelo://app?vid=29f8f44d-accb-4ec6-ba97-fa6a4015ca42","ios":"levelo://app?vid=29f8f44d-accb-4ec6-ba97-fa6a4015ca42"},"vehicle_type_id":"4","last_reported":1745259227,"current_range_meters":11200,"station_id":"ce4bh512rcd13ifvqe3g","pricing_plan_id":"cebpf4jnsgd1na2vs0mg"},{"bike_id":"4f44d42c-fc3a-4423-8a47-3956c6523972","system_id":"levelo_inurba_marseille","lat":43.29263,"lon":5.38432,"is_reserved":false,"is_disabled":false,"rental_uris":{"android":"levelo://app?vid=4f44d42c-fc3a-4423-8a47-3956c6523972","ios":"levelo://app?vid=4f44d42c-fc3a-4423-8a47-3956c6523972"},"vehicle_type_id":"4","last_reported":1745259227,"current_range_meters":11600,"station_id":"ce4bh692rcd13ifvqea0","pricing_plan_id":"cebpf4jnsgd1na2vs0mg"},{"bike_id":"2764f5e8-3d41-42de-91e1-22dadc299b85","system_id":"levelo_inurba_marseille","lat":43.28713,"lon":5.37378,"is_reserved":false,"is_disabled":false,"rental_uris":{"android":"levelo://app?vid=2764f5e8-3d41-42de-91e1-22dadc299b85","ios":"levelo://app?vid=2764f5e8-3d41-42de-91e1-22dadc299b85"},"vehicle_type_id":"4","last_reported":1745259227,"current_range_meters":11600,"station_id":"ce4bh3p2rcd13ifvqdq0","pricing_plan_id":"cebpf4jnsgd1na2vs0mg"},{"bike_id":"994bee52-f9be-44d3-ae29-6886858b8f6e","system_id":"levelo_inurba_marseille","lat":43.27563,"lon":5.38417,"is_reserved":false,"is_disabled":false,"rental_uris":{"android":"levelo://app?vid=994bee52-f9be-44d3-ae29-6886858b8f6e","ios":"levelo://app?vid=994bee52-f9be-44d3-ae29-6886858b8f6e"},"vehicle_type_id":"4","last_reported":1745259227,"current_range_meters":11200,"station_id":"ce4bhh92rcd13ifvqfi0","pricing_plan_id":"cebpf4jnsgd1na2vs0mg"},{"bike_id":"bf4c75cc-035f-4c1b-95bc-06322504f79a","system_id":"levelo_inurba_marseille","lat":43.29043,"lon":5.38628,"is_reserved":false,"is_disabled":false,"rental_uris":{"android":"levelo://app?vid=bf4c75cc-035f-4c1b-95bc-06322504f79a","ios":"levelo://app?vid=bf4c75cc-035f-4c1b-95bc-06322504f79a"},"vehicle_type_id":"4","last_reported":1745259227,"current_range_meters":11600,"station_id":"ce4bh4p2rcd13ifvqe0g","pricing_plan_id":"cebpf4jnsgd1na2vs0mg"},{"bike_id":"a9e22109-681f-4d01-8c3e-fafe696c88f5","system_id":"levelo_inurba_marseille","lat":43.2937,"lon":5.37849,"is_reserved":false,"is_disabled":false,"rental_uris":{"android":"levelo://app?vid=a9e22109-681f-4d01-8c3e-fafe696c88f5","ios":"levelo://app?vid=a9e22109-681f-4d01-8c3e-fafe696c88f5"},"vehicle_type_id":"4","last_reported":1745259227,"current_range_meters":11600,"station_id":"ce4bgjh2rcd13ifvqbf0","pricing_plan_id":"cebpf4jnsgd1na2vs0mg"},{"bike_id":"66442328-b242-41df-940c-de593b9696e0","system_id":"levelo_inurba_marseille","lat":43.28617,"lon":5.35105,"is_reserved":false,"is_disabled":false,"rental_uris":{"android":"levelo://app?vid=66442328-b242-41df-940c-de593b9696e0","ios":"levelo://app?vid=66442328-b242-41df-940c-de593b9696e0"},"vehicle_type_id":"4","last_reported":1745259227,"current_range_meters":11600,"station_id":"ce4bhch2rcd13ifvqeug","pricing_plan_id":"cebpf4jnsgd1na2vs0mg"},{"bike_id":"36d8fe73-be81-4fe9-8749-b6dcc4206368","system_id":"levelo_inurba_marseille","lat":43.30087,"lon":5.39083,"is_reserved":false,"is_disabled":false,"rental_uris":{"android":"levelo://app?vid=36d8fe73-be81-4fe9-8749-b6dcc4206368","ios":"levelo://app?vid=36d8fe73-be81-4fe9-8749-b6dcc4206368"},"vehicle_type_id":"4","last_reported":1745259227,"current_range_meters":11600,"station_id":"ce4bh192rcd13ifvqdb0","pricing_plan_id":"cebpf4jnsgd1na2vs0mg"},{"bike_id":"a4a5b149-a5c6-4cdb-9a5f-7dba897dfb3b","system_id":"levelo_inurba_marseille","lat":43.29555,"lon":5.42291,"is_reserved":false,"is_disabled":false,"rental_uris":{"android":"levelo://app?vid=a4a5b149-a5c6-4cdb-9a5f-7dba897dfb3b","ios":"levelo://app?vid=a4a5b149-a5c6-4cdb-9a5f-7dba897dfb3b"},"vehicle_type_id":"4","last_reported":1745259227,"current_range_meters":11200,"station_id":"ce4bhph2rcd13ifvqhdg","pricing_plan_id":"cebpf4jnsgd1na2vs0mg"},{"bike_id":"920eb2ef-57fe-4cbb-a017-496602c7bbf7","system_id":"levelo_inurba_marseille","lat":43.29549,"lon":5.42289,"is_reserved":false,"is_disabled":false,"rental_uris":{"android":"levelo://app?vid=920eb2ef-57fe-4cbb-a017-496602c7bbf7","ios":"levelo://app?vid=920eb2ef-57fe-4cbb-a017-496602c7bbf7"},"vehicle_type_id":"4","last_reported":1745259227,"current_range_meters":12000,"station_id":"ce4bhph2rcd13ifvqhdg","pricing_plan_id":"cebpf4jnsgd1na2vs0mg"},{"bike_id":"5c8ff57c-dace-4232-a144-85ae5b02f10d","system_id":"levelo_inurba_marseille","lat":43.28951,"lon":5.364,"is_reserved":false,"is_disabled":false,"rental_uris":{"android":"levelo://app?vid=5c8ff57c-dace-4232-a144-85ae5b02f10d","ios":"levelo://app?vid=5c8ff57c-dace-4232-a144-85ae5b02f10d"},"vehicle_type_id":"4","last_reported":1745259227,"current_range_meters":12400,"station_id":"ce4bhc92rcd13ifvqetg","pricing_plan_id":"cebpf4jnsgd1na2vs0mg"},{"bike_id":"9b6e2ffa-5c18-4fb2-bd7e-29bb9bf12907","system_id":"levelo_inurba_marseille","lat":43.28662,"lon":5.36351,"is_reserved":false,"is_disabled":false,"rental_uris":{"android":"levelo://app?vid=9b6e2ffa-5c18-4fb2-bd7e-29bb9bf12907","ios":"levelo://app?vid=9b6e2ffa-5c18-4fb2-bd7e-29bb9bf12907"},"vehicle_type_id":"4","last_reported":1745259227,"current_range_meters":12400,"station_id":"ce4bhah2rcd13ifvqej0","pricing_plan_id":"cebpf4jnsgd1na2vs0mg"},{"bike_id":"cc2df3e1-fdf0-452c-a24c-2d3f0ecd9f1d","system_id":"levelo_inurba_marseille","lat":43.29787,"lon":5.39341,"is_reserved":false,"is_disabled":false,"rental_uris":{"android":"levelo://app?vid=cc2df3e1-fdf0-452c-a24c-2d3f0ecd9f1d","ios":"levelo://app?vid=cc2df3e1-fdf0-452c-a24c-2d3f0ecd9f1d"},"vehicle_type_id":"4","last_reported":1745259227,"current_range_meters":12400,"station_id":"chh1huq6cuj3fo74tm60","pricing_plan_id":"cebpf4jnsgd1na2vs0mg"},{"bike_id":"a96b66c7-ec51-44f9-959c-33d2b7122e0b","system_id":"levelo_inurba_marseille","lat":43.29001,"lon":5.38122,"is_reserved":false,"is_disabled":false,"rental_uris":{"android":"levelo://app?vid=a96b66c7-ec51-44f9-959c-33d2b7122e0b","ios":"levelo://app?vid=a96b66c7-ec51-44f9-959c-33d2b7122e0b"},"vehicle_type_id":"4","last_reported":1745259227,"current_range_meters":12400,"station_id":"ce4bh4p2rcd13ifvqe1g","pricing_plan_id":"cebpf4jnsgd1na2vs0mg"},{"bike_id":"c740dfe3-1957-46f0-aee9-08cc1c999b76","system_id":"levelo_inurba_marseille","lat":43.28094,"lon":5.3784,"is_reserved":false,"is_disabled":false,"rental_uris":{"android":"levelo://app?vid=c740dfe3-1957-46f0-aee9-08cc1c999b76","ios":"levelo://app?vid=c740dfe3-1957-46f0-aee9-08cc1c999b76"},"vehicle_type_id":"4","last_reported":1745259227,"current_range_meters":12800,"station_id":"ce4bha12rcd13ifvqee0","pricing_plan_id":"cebpf4jnsgd1na2vs0mg"},{"bike_id":"8a5e469e-8f73-4295-9e2a-f7c916d70e3e","system_id":"levelo_inurba_marseille","lat":43.261599,"lon":5.374508,"is_reserved":false,"is_disabled":false,"rental_uris":{"android":"levelo://app?vid=8a5e469e-8f73-4295-9e2a-f7c916d70e3e","ios":"levelo://app?vid=8a5e469e-8f73-4295-9e2a-f7c916d70e3e"},"vehicle_type_id":"4","last_reported":1745259227,"current_range_meters":13600,"station_id":"ce4bhf92rcd13ifvqf40","pricing_plan_id":"cebpf4jnsgd1na2vs0mg"},{"bike_id":"4ff69965-e844-4eab-8d63-a77ad3f179dd","system_id":"levelo_inurba_marseille","lat":43.32284,"lon":5.38278,"is_reserved":false,"is_disabled":false,"rental_uris":{"android":"levelo://app?vid=4ff69965-e844-4eab-8d63-a77ad3f179dd","ios":"levelo://app?vid=4ff69965-e844-4eab-8d63-a77ad3f179dd"},"vehicle_type_id":"4","last_reported":1745259227,"current_range_meters":13600,"station_id":"ce4bhr12rcd13ifvqhqg","pricing_plan_id":"cebpf4jnsgd1na2vs0mg"},{"bike_id":"f2ef1eee-e43d-4994-8cda-638c098233af","system_id":"levelo_inurba_marseille","lat":43.29707,"lon":5.37691,"is_reserved":false,"is_disabled":false,"rental_uris":{"android":"levelo://app?vid=f2ef1eee-e43d-4994-8cda-638c098233af","ios":"levelo://app?vid=f2ef1eee-e43d-4994-8cda-638c098233af"},"vehicle_type_id":"4","last_reported":1745259227,"current_range_meters":12800,"station_id":"ce4bgkh2rcd13ifvqbl0","pricing_plan_id":"cebpf4jnsgd1na2vs0mg"},{"bike_id":"8fd43598-927a-4b0c-abdc-ee6ebcc379cd","system_id":"levelo_inurba_marseille","lat":43.3079,"lon":5.38139,"is_reserved":false,"is_disabled":false,"rental_uris":{"android":"levelo://app?vid=8fd43598-927a-4b0c-abdc-ee6ebcc379cd","ios":"levelo://app?vid=8fd43598-927a-4b0c-abdc-ee6ebcc379cd"},"vehicle_type_id":"4","last_reported":1745259227,"current_range_meters":13600,"station_id":"ce4bgt12rcd13ifvqce0","pricing_plan_id":"cebpf4jnsgd1na2vs0mg"},{"bike_id":"2dc4e79a-33a8-48b0-bf03-f6328f1dc1f6","system_id":"levelo_inurba_marseille","lat":43.32382,"lon":5.38921,"is_reserved":false,"is_disabled":true,"rental_uris":{"android":"levelo://app?vid=2dc4e79a-33a8-48b0-bf03-f6328f1dc1f6","ios":"levelo://app?vid=2dc4e79a-33a8-48b0-bf03-f6328f1dc1f6"},"vehicle_type_id":"4","last_reported":1745259227,"current_range_meters":13600,"station_id":"ce4bhqp2rcd13ifvqhog","pricing_plan_id":"cebpf4jnsgd1na2vs0mg"},{"bike_id":"14088e1e-6a3a-40e1-9f1d-0c535a237656","system_id":"levelo_inurba_marseille","lat":43.29846,"lon":5.36255,"is_reserved":false,"is_disabled":false,"rental_uris":{"android":"levelo://app?vid=14088e1e-6a3a-40e1-9f1d-0c535a237656","ios":"levelo://app?vid=14088e1e-6a3a-40e1-9f1d-0c535a237656"},"vehicle_type_id":"4","last_reported":1745259227,"current_range_meters":13600,"station_id":"ce4bgpp2rcd13ifvqc3g","pricing_plan_id":"cebpf4jnsgd1na2vs0mg"},{"bike_id":"4eb3e58f-17bb-4007-b6f7-ead627ffb500","system_id":"levelo_inurba_marseille","lat":43.29261,"lon":5.38424,"is_reserved":false,"is_disabled":true,"rental_uris":{"android":"levelo://app?vid=4eb3e58f-17bb-4007-b6f7-ead627ffb500","ios":"levelo://app?vid=4eb3e58f-17bb-4007-b6f7-ead627ffb500"},"vehicle_type_id":"4","last_reported":1745259227,"current_range_meters":13600,"station_id":"ce4bh692rcd13ifvqea0","pricing_plan_id":"cebpf4jnsgd1na2vs0mg"},{"bike_id":"0a536518-79a4-40dc-8bd3-71d044441b24","system_id":"levelo_inurba_marseille","lat":43.25707,"lon":5.4109,"is_reserved":false,"is_disabled":false,"rental_uris":{"android":"levelo://app?vid=0a536518-79a4-40dc-8bd3-71d044441b24","ios":"levelo://app?vid=0a536518-79a4-40dc-8bd3-71d044441b24"},"vehicle_type_id":"4","last_reported":1745259227,"current_range_meters":14000,"station_id":"ce4bhkp2rcd13ifvqgd0","pricing_plan_id":"cebpf4jnsgd1na2vs0mg"},{"bike_id":"0e7c49e7-5087-438a-9cdd-b873366a1692","system_id":"levelo_inurba_marseille","lat":43.27969,"lon":5.38748,"is_reserved":false,"is_disabled":false,"rental_uris":{"android":"levelo://app?vid=0e7c49e7-5087-438a-9cdd-b873366a1692","ios":"levelo://app?vid=0e7c49e7-5087-438a-9cdd-b873366a1692"},"vehicle_type_id":"4","last_reported":1745259227,"current_range_meters":14000,"station_id":"ce4bhg12rcd13ifvqf80","pricing_plan_id":"cebpf4jnsgd1na2vs0mg"},{"bike_id":"9e6c8233-0c25-4acd-a7a8-029b3138d66a","system_id":"levelo_inurba_marseille","lat":43.29531,"lon":5.38544,"is_reserved":false,"is_disabled":false,"rental_uris":{"android":"levelo://app?vid=9e6c8233-0c25-4acd-a7a8-029b3138d66a","ios":"levelo://app?vid=9e6c8233-0c25-4acd-a7a8-029b3138d66a"},"vehicle_type_id":"4","last_reported":1745259227,"current_range_meters":14000,"station_id":"ce4bgih2rcd13ifvqba0","pricing_plan_id":"cebpf4jnsgd1na2vs0mg"},{"bike_id":"ca62fc37-4f28-42e1-8992-3e4769c6cf3a","system_id":"levelo_inurba_marseille","lat":43.24089,"lon":5.37753,"is_reserved":false,"is_disabled":false,"rental_uris":{"android":"levelo://app?vid=ca62fc37-4f28-42e1-8992-3e4769c6cf3a","ios":"levelo://app?vid=ca62fc37-4f28-42e1-8992-3e4769c6cf3a"},"vehicle_type_id":"4","last_reported":1745259227,"current_range_meters":14400,"station_id":"ce4bhnp2rcd13ifvqgvg","pricing_plan_id":"cebpf4jnsgd1na2vs0mg"},{"bike_id":"5a968a37-0ff6-48cf-b3d3-0e5a96c4904f","system_id":"levelo_inurba_marseille","lat":43.29269,"lon":5.3762,"is_reserved":false,"is_disabled":false,"rental_uris":{"android":"levelo://app?vid=5a968a37-0ff6-48cf-b3d3-0e5a96c4904f","ios":"levelo://app?vid=5a968a37-0ff6-48cf-b3d3-0e5a96c4904f"},"vehicle_type_id":"4","last_reported":1745259227,"current_range_meters":14400,"station_id":"ce4bgi12rcd13ifvqb80","pricing_plan_id":"cebpf4jnsgd1na2vs0mg"},{"bike_id":"b2ba3b84-9ca4-43a6-b730-cf6fbdc88d17","system_id":"levelo_inurba_marseille","lat":43.29616,"lon":5.37721,"is_reserved":false,"is_disabled":false,"rental_uris":{"android":"levelo://app?vid=b2ba3b84-9ca4-43a6-b730-cf6fbdc88d17","ios":"levelo://app?vid=b2ba3b84-9ca4-43a6-b730-cf6fbdc88d17"},"vehicle_type_id":"4","last_reported":1745259227,"current_range_meters":14800,"station_id":"ce4bgi92rcd13ifvqb90","pricing_plan_id":"cebpf4jnsgd1na2vs0mg"},{"bike_id":"f4a612dc-df33-48e6-a2c0-1f6803c18ed5","system_id":"levelo_inurba_marseille","lat":43.2756,"lon":5.38412,"is_reserved":false,"is_disabled":false,"rental_uris":{"android":"levelo://app?vid=f4a612dc-df33-48e6-a2c0-1f6803c18ed5","ios":"levelo://app?vid=f4a612dc-df33-48e6-a2c0-1f6803c18ed5"},"vehicle_type_id":"4","last_reported":1745259227,"current_range_meters":14400,"station_id":"ce4bhh92rcd13ifvqfi0","pricing_plan_id":"cebpf4jnsgd1na2vs0mg"},{"bike_id":"92c2be27-23df-4098-8e09-5e373a8d8976","system_id":"levelo_inurba_marseille","lat":43.29842,"lon":5.36295,"is_reserved":false,"is_disabled":false,"rental_uris":{"android":"levelo://app?vid=92c2be27-23df-4098-8e09-5e373a8d8976","ios":"levelo://app?vid=92c2be27-23df-4098-8e09-5e373a8d8976"},"vehicle_type_id":"4","last_reported":1745259227,"current_range_meters":14800,"station_id":"ce4bgpp2rcd13ifvqc3g","pricing_plan_id":"cebpf4jnsgd1na2vs0mg"},{"bike_id":"8256ac83-90ce-442a-9baf-069db289cae4","system_id":"levelo_inurba_marseille","lat":43.28975,"lon":5.37832,"is_reserved":false,"is_disabled":false,"rental_uris":{"android":"levelo://app?vid=8256ac83-90ce-442a-9baf-069db289cae4","ios":"levelo://app?vid=8256ac83-90ce-442a-9baf-069db289cae4"},"vehicle_type_id":"4","last_reported":1745259227,"current_range_meters":14800,"station_id":"ce4bh9p2rcd13ifvqed0","pricing_plan_id":"cebpf4jnsgd1na2vs0mg"},{"bike_id":"ee56bb0d-f391-445b-8456-6e98a45f328e","system_id":"levelo_inurba_marseille","lat":43.24061,"lon":5.37763,"is_reserved":false,"is_disabled":false,"rental_uris":{"android":"levelo://app?vid=ee56bb0d-f391-445b-8456-6e98a45f328e","ios":"levelo://app?vid=ee56bb0d-f391-445b-8456-6e98a45f328e"},"vehicle_type_id":"4","last_reported":1745259227,"current_range_meters":14800,"station_id":"ce4bhnp2rcd13ifvqgvg","pricing_plan_id":"cebpf4jnsgd1na2vs0mg"},{"bike_id":"fa6fb692-3c02-45e3-ae8b-7fd21c19ed5f","system_id":"levelo_inurba_marseille","lat":43.286393,"lon":5.383277,"is_reserved":false,"is_disabled":false,"rental_uris":{"android":"levelo://app?vid=fa6fb692-3c02-45e3-ae8b-7fd21c19ed5f","ios":"levelo://app?vid=fa6fb692-3c02-45e3-ae8b-7fd21c19ed5f"},"vehicle_type_id":"4","last_reported":1745259227,"current_range_meters":14800,"station_id":"","pricing_plan_id":"cebpf4jnsgd1na2vs0mg"},{"bike_id":"e3f2ff94-19f7-4b16-a506-885772f72f4c","system_id":"levelo_inurba_marseille","lat":43.24167,"lon":5.36402,"is_reserved":false,"is_disabled":true,"rental_uris":{"android":"levelo://app?vid=e3f2ff94-19f7-4b16-a506-885772f72f4c","ios":"levelo://app?vid=e3f2ff94-19f7-4b16-a506-885772f72f4c"},"vehicle_type_id":"4","last_reported":1745259227,"current_range_meters":14800,"station_id":"cpo36qri1sfpv3e86is0","pricing_plan_id":"cebpf4jnsgd1na2vs0mg"},{"bike_id":"eb2da90e-ab39-4182-8bed-2eb057f51420","system_id":"levelo_inurba_marseille","lat":43.312228,"lon":5.368481,"is_reserved":false,"is_disabled":false,"rental_uris":{"android":"levelo://app?vid=eb2da90e-ab39-4182-8bed-2eb057f51420","ios":"levelo://app?vid=eb2da90e-ab39-4182-8bed-2eb057f51420"},"vehicle_type_id":"4","last_reported":1745259227,"current_range_meters":14800,"station_id":"ce4bgl92rcd13ifvqbq0","pricing_plan_id":"cebpf4jnsgd1na2vs0mg"},{"bike_id":"a9376866-aee8-410d-ab95-119d48733037","system_id":"levelo_inurba_marseille","lat":43.32286,"lon":5.38276,"is_reserved":false,"is_disabled":false,"rental_uris":{"android":"levelo://app?vid=a9376866-aee8-410d-ab95-119d48733037","ios":"levelo://app?vid=a9376866-aee8-410d-ab95-119d48733037"},"vehicle_type_id":"4","last_reported":1745259227,"current_range_meters":14800,"station_id":"ce4bhr12rcd13ifvqhqg","pricing_plan_id":"cebpf4jnsgd1na2vs0mg"},{"bike_id":"4d7b9806-a680-4ed0-a4c1-a384b251cdaa","system_id":"levelo_inurba_marseille","lat":43.24379,"lon":5.37064,"is_reserved":false,"is_disabled":false,"rental_uris":{"android":"levelo://app?vid=4d7b9806-a680-4ed0-a4c1-a384b251cdaa","ios":"levelo://app?vid=4d7b9806-a680-4ed0-a4c1-a384b251cdaa"},"vehicle_type_id":"4","last_reported":1745259227,"current_range_meters":14800,"station_id":"ce4bhhh2rcd13ifvqfk0","pricing_plan_id":"cebpf4jnsgd1na2vs0mg"},{"bike_id":"80a2ab3b-2595-4a1f-abcc-783f02da5d82","system_id":"levelo_inurba_marseille","lat":43.29417,"lon":5.38622,"is_reserved":false,"is_disabled":false,"rental_uris":{"android":"levelo://app?vid=80a2ab3b-2595-4a1f-abcc-783f02da5d82","ios":"levelo://app?vid=80a2ab3b-2595-4a1f-abcc-783f02da5d82"},"vehicle_type_id":"4","last_reported":1745259227,"current_range_meters":15200,"station_id":"ce4bh2h2rcd13ifvqdh0","pricing_plan_id":"cebpf4jnsgd1na2vs0mg"},{"bike_id":"b373a9fc-b19f-49e6-9414-e3e614041e34","system_id":"levelo_inurba_marseille","lat":43.27068,"lon":5.42284,"is_reserved":false,"is_disabled":true,"rental_uris":{"android":"levelo://app?vid=b373a9fc-b19f-49e6-9414-e3e614041e34","ios":"levelo://app?vid=b373a9fc-b19f-49e6-9414-e3e614041e34"},"vehicle_type_id":"4","last_reported":1745259227,"current_range_meters":15200,"station_id":"ce4bhk92rcd13ifvqgb0","pricing_plan_id":"cebpf4jnsgd1na2vs0mg"},{"bike_id":"b49419d7-f274-4137-a8b8-6032ff8ae37e","system_id":"levelo_inurba_marseille","lat":43.3236,"lon":5.38899,"is_reserved":false,"is_disabled":false,"rental_uris":{"android":"levelo://app?vid=b49419d7-f274-4137-a8b8-6032ff8ae37e","ios":"levelo://app?vid=b49419d7-f274-4137-a8b8-6032ff8ae37e"},"vehicle_type_id":"4","last_reported":1745259227,"current_range_meters":16000,"station_id":"ce4bhqp2rcd13ifvqhog","pricing_plan_id":"cebpf4jnsgd1na2vs0mg"},{"bike_id":"f66c1e1f-f72e-4e6a-a09d-99b14efdb6e0","system_id":"levelo_inurba_marseille","lat":43.30648,"lon":5.40091,"is_reserved":false,"is_disabled":false,"rental_uris":{"android":"levelo://app?vid=f66c1e1f-f72e-4e6a-a09d-99b14efdb6e0","ios":"levelo://app?vid=f66c1e1f-f72e-4e6a-a09d-99b14efdb6e0"},"vehicle_type_id":"4","last_reported":1745259227,"current_range_meters":16000,"station_id":"ce4bh112rcd13ifvqda0","pricing_plan_id":"cebpf4jnsgd1na2vs0mg"},{"bike_id":"afca05cb-9dea-4e13-bae3-b0bd83251e29","system_id":"levelo_inurba_marseille","lat":43.33748,"lon":5.37446,"is_reserved":false,"is_disabled":false,"rental_uris":{"android":"levelo://app?vid=afca05cb-9dea-4e13-bae3-b0bd83251e29","ios":"levelo://app?vid=afca05cb-9dea-4e13-bae3-b0bd83251e29"},"vehicle_type_id":"4","last_reported":1745259227,"current_range_meters":16000,"station_id":"","pricing_plan_id":"cebpf4jnsgd1na2vs0mg"},{"bike_id":"012645d0-a5fd-48d8-a661-e6d5a3bdcf92","system_id":"levelo_inurba_marseille","lat":43.30672,"lon":5.40072,"is_reserved":false,"is_disabled":false,"rental_uris":{"android":"levelo://app?vid=012645d0-a5fd-48d8-a661-e6d5a3bdcf92","ios":"levelo://app?vid=012645d0-a5fd-48d8-a661-e6d5a3bdcf92"},"vehicle_type_id":"4","last_reported":1745259227,"current_range_meters":15200,"station_id":"ce4bh112rcd13ifvqda0","pricing_plan_id":"cebpf4jnsgd1na2vs0mg"},{"bike_id":"a597aa79-a9e7-446e-9f8d-ad8e32781eda","system_id":"levelo_inurba_marseille","lat":43.25938,"lon":5.40901,"is_reserved":false,"is_disabled":false,"rental_uris":{"android":"levelo://app?vid=a597aa79-a9e7-446e-9f8d-ad8e32781eda","ios":"levelo://app?vid=a597aa79-a9e7-446e-9f8d-ad8e32781eda"},"vehicle_type_id":"4","last_reported":1745259227,"current_range_meters":16000,"station_id":"ce4bhm92rcd13ifvqglg","pricing_plan_id":"cebpf4jnsgd1na2vs0mg"},{"bike_id":"31dad1ac-0f84-44f8-a969-f5f6007b9b50","system_id":"levelo_inurba_marseille","lat":43.25021,"lon":5.38944,"is_reserved":false,"is_disabled":true,"rental_uris":{"android":"levelo://app?vid=31dad1ac-0f84-44f8-a969-f5f6007b9b50","ios":"levelo://app?vid=31dad1ac-0f84-44f8-a969-f5f6007b9b50"},"vehicle_type_id":"4","last_reported":1745259227,"current_range_meters":16400,"station_id":"ce4bhgp2rcd13ifvqfd0","pricing_plan_id":"cebpf4jnsgd1na2vs0mg"},{"bike_id":"a7aa4f0d-dbae-40db-a193-3ad158f70ff8","system_id":"levelo_inurba_marseille","lat":43.31013,"lon":5.37074,"is_reserved":false,"is_disabled":false,"rental_uris":{"android":"levelo://app?vid=a7aa4f0d-dbae-40db-a193-3ad158f70ff8","ios":"levelo://app?vid=a7aa4f0d-dbae-40db-a193-3ad158f70ff8"},"vehicle_type_id":"4","last_reported":1745259227,"current_range_meters":16400,"station_id":"","pricing_plan_id":"cebpf4jnsgd1na2vs0mg"},{"bike_id":"85ad59b1-5a63-4feb-9bb3-b1d69e0241a5","system_id":"levelo_inurba_marseille","lat":43.29932,"lon":5.36534,"is_reserved":false,"is_disabled":false,"rental_uris":{"android":"levelo://app?vid=85ad59b1-5a63-4feb-9bb3-b1d69e0241a5","ios":"levelo://app?vid=85ad59b1-5a63-4feb-9bb3-b1d69e0241a5"},"vehicle_type_id":"4","last_reported":1745259227,"current_range_meters":16400,"station_id":"ce4bgm92rcd13ifvqbr0","pricing_plan_id":"cebpf4jnsgd1na2vs0mg"},{"bike_id":"7826f4d8-4644-4a01-b747-e24bf3162715","system_id":"levelo_inurba_marseille","lat":43.299752,"lon":5.371861,"is_reserved":false,"is_disabled":false,"rental_uris":{"android":"levelo://app?vid=7826f4d8-4644-4a01-b747-e24bf3162715","ios":"levelo://app?vid=7826f4d8-4644-4a01-b747-e24bf3162715"},"vehicle_type_id":"4","last_reported":1745259227,"current_range_meters":16000,"station_id":"ce4bgr92rcd13ifvqc7g","pricing_plan_id":"cebpf4jnsgd1na2vs0mg"},{"bike_id":"217bc09c-9054-444f-b0a6-1a91698bbf60","system_id":"levelo_inurba_marseille","lat":43.261952,"lon":5.374512,"is_reserved":false,"is_disabled":true,"rental_uris":{"android":"levelo://app?vid=217bc09c-9054-444f-b0a6-1a91698bbf60","ios":"levelo://app?vid=217bc09c-9054-444f-b0a6-1a91698bbf60"},"vehicle_type_id":"4","last_reported":1745259227,"current_range_meters":16400,"station_id":"ce4bhgp2rcd13ifvqfc0","pricing_plan_id":"cebpf4jnsgd1na2vs0mg"},{"bike_id":"c195bf8c-e1da-459a-b256-2d606fdbe635","system_id":"levelo_inurba_marseille","lat":43.300913,"lon":5.390743,"is_reserved":false,"is_disabled":false,"rental_uris":{"android":"levelo://app?vid=c195bf8c-e1da-459a-b256-2d606fdbe635","ios":"levelo://app?vid=c195bf8c-e1da-459a-b256-2d606fdbe635"},"vehicle_type_id":"4","last_reported":1745259227,"current_range_meters":16000,"station_id":"ce4bh192rcd13ifvqdb0","pricing_plan_id":"cebpf4jnsgd1na2vs0mg"},{"bike_id":"5ae5c52a-4058-4cd2-bc78-4940a0b8bb56","system_id":"levelo_inurba_marseille","lat":43.2737,"lon":5.36251,"is_reserved":false,"is_disabled":false,"rental_uris":{"android":"levelo://app?vid=5ae5c52a-4058-4cd2-bc78-4940a0b8bb56","ios":"levelo://app?vid=5ae5c52a-4058-4cd2-bc78-4940a0b8bb56"},"vehicle_type_id":"4","last_reported":1745259227,"current_range_meters":16400,"station_id":"ce4bhbh2rcd13ifvqeo0","pricing_plan_id":"cebpf4jnsgd1na2vs0mg"},{"bike_id":"8e83c5b2-a197-423b-adee-b8a5d9068476","system_id":"levelo_inurba_marseille","lat":43.29416,"lon":5.38622,"is_reserved":false,"is_disabled":false,"rental_uris":{"android":"levelo://app?vid=8e83c5b2-a197-423b-adee-b8a5d9068476","ios":"levelo://app?vid=8e83c5b2-a197-423b-adee-b8a5d9068476"},"vehicle_type_id":"4","last_reported":1745259227,"current_range_meters":16400,"station_id":"ce4bh2h2rcd13ifvqdh0","pricing_plan_id":"cebpf4jnsgd1na2vs0mg"},{"bike_id":"d6760a24-af39-49a8-bd81-427c75d4d772","system_id":"levelo_inurba_marseille","lat":43.29617,"lon":5.37162,"is_reserved":false,"is_disabled":false,"rental_uris":{"android":"levelo://app?vid=d6760a24-af39-49a8-bd81-427c75d4d772","ios":"levelo://app?vid=d6760a24-af39-49a8-bd81-427c75d4d772"},"vehicle_type_id":"4","last_reported":1745259227,"current_range_meters":16400,"station_id":"ce4bgnh2rcd13ifvqc0g","pricing_plan_id":"cebpf4jnsgd1na2vs0mg"},{"bike_id":"6b4282bc-9432-4c95-847b-7452cf13e716","system_id":"levelo_inurba_marseille","lat":43.29324,"lon":5.37124,"is_reserved":false,"is_disabled":true,"rental_uris":{"android":"levelo://app?vid=6b4282bc-9432-4c95-847b-7452cf13e716","ios":"levelo://app?vid=6b4282bc-9432-4c95-847b-7452cf13e716"},"vehicle_type_id":"4","last_reported":1745259227,"current_range_meters":16800,"station_id":"ce4bgh92rcd13ifvqb40","pricing_plan_id":"cebpf4jnsgd1na2vs0mg"},{"bike_id":"49918b56-7686-4aae-9d05-e9fbec1b6ec9","system_id":"levelo_inurba_marseille","lat":43.31363,"lon":5.38488,"is_reserved":false,"is_disabled":false,"rental_uris":{"android":"levelo://app?vid=49918b56-7686-4aae-9d05-e9fbec1b6ec9","ios":"levelo://app?vid=49918b56-7686-4aae-9d05-e9fbec1b6ec9"},"vehicle_type_id":"4","last_reported":1745259227,"current_range_meters":16800,"station_id":"ce4bgt92rcd13ifvqcf0","pricing_plan_id":"cebpf4jnsgd1na2vs0mg"},{"bike_id":"2a35ab10-f416-439f-a4fa-784873cd587f","system_id":"levelo_inurba_marseille","lat":43.26946,"lon":5.38641,"is_reserved":false,"is_disabled":true,"rental_uris":{"android":"levelo://app?vid=2a35ab10-f416-439f-a4fa-784873cd587f","ios":"levelo://app?vid=2a35ab10-f416-439f-a4fa-784873cd587f"},"vehicle_type_id":"4","last_reported":1745259227,"current_range_meters":16800,"station_id":"ce4bhh92rcd13ifvqfh0","pricing_plan_id":"cebpf4jnsgd1na2vs0mg"},{"bike_id":"3512237b-eef6-4f2c-999d-f0cbf2a32717","system_id":"levelo_inurba_marseille","lat":43.31073,"lon":5.38363,"is_reserved":false,"is_disabled":false,"rental_uris":{"android":"levelo://app?vid=3512237b-eef6-4f2c-999d-f0cbf2a32717","ios":"levelo://app?vid=3512237b-eef6-4f2c-999d-f0cbf2a32717"},"vehicle_type_id":"4","last_reported":1745259227,"current_range_meters":16800,"station_id":"ce4bgv92rcd13ifvqcr0","pricing_plan_id":"cebpf4jnsgd1na2vs0mg"},{"bike_id":"2da6ef4a-0251-4b2f-8641-c041e466b079","system_id":"levelo_inurba_marseille","lat":43.28721,"lon":5.37952,"is_reserved":false,"is_disabled":false,"rental_uris":{"android":"levelo://app?vid=2da6ef4a-0251-4b2f-8641-c041e466b079","ios":"levelo://app?vid=2da6ef4a-0251-4b2f-8641-c041e466b079"},"vehicle_type_id":"4","last_reported":1745259227,"current_range_meters":16800,"station_id":"ce4bh9p2rcd13ifvqec0","pricing_plan_id":"cebpf4jnsgd1na2vs0mg"},{"bike_id":"a756bae3-49c1-4d6c-89e8-fcb7b0e7d2e2","system_id":"levelo_inurba_marseille","lat":43.29034,"lon":5.35911,"is_reserved":false,"is_disabled":true,"rental_uris":{"android":"levelo://app?vid=a756bae3-49c1-4d6c-89e8-fcb7b0e7d2e2","ios":"levelo://app?vid=a756bae3-49c1-4d6c-89e8-fcb7b0e7d2e2"},"vehicle_type_id":"4","last_reported":1745259227,"current_range_meters":17200,"station_id":"ce4bha92rcd13ifvqeg0","pricing_plan_id":"cebpf4jnsgd1na2vs0mg"},{"bike_id":"f3b9e8c0-c590-426c-bd13-b5edb8aa1705","system_id":"levelo_inurba_marseille","lat":43.31114,"lon":5.37765,"is_reserved":false,"is_disabled":false,"rental_uris":{"android":"levelo://app?vid=f3b9e8c0-c590-426c-bd13-b5edb8aa1705","ios":"levelo://app?vid=f3b9e8c0-c590-426c-bd13-b5edb8aa1705"},"vehicle_type_id":"4","last_reported":1745259227,"current_range_meters":16800,"station_id":"ce4bgt92rcd13ifvqcg0","pricing_plan_id":"cebpf4jnsgd1na2vs0mg"},{"bike_id":"5c969bc1-b3a2-4968-9b7d-8b16b4a529f9","system_id":"levelo_inurba_marseille","lat":43.309682,"lon":5.389983,"is_reserved":false,"is_disabled":false,"rental_uris":{"android":"levelo://app?vid=5c969bc1-b3a2-4968-9b7d-8b16b4a529f9","ios":"levelo://app?vid=5c969bc1-b3a2-4968-9b7d-8b16b4a529f9"},"vehicle_type_id":"4","last_reported":1745259227,"current_range_meters":17200,"station_id":"ce4bgup2rcd13ifvqco0","pricing_plan_id":"cebpf4jnsgd1na2vs0mg"},{"bike_id":"12505a0a-b14f-4f59-9be1-55ce43130db1","system_id":"levelo_inurba_marseille","lat":43.29597,"lon":5.38094,"is_reserved":false,"is_disabled":true,"rental_uris":{"android":"levelo://app?vid=12505a0a-b14f-4f59-9be1-55ce43130db1","ios":"levelo://app?vid=12505a0a-b14f-4f59-9be1-55ce43130db1"},"vehicle_type_id":"4","last_reported":1745259227,"current_range_meters":17200,"station_id":"ce4bgl12rcd13ifvqbo0","pricing_plan_id":"cebpf4jnsgd1na2vs0mg"},{"bike_id":"1b603a5a-a474-4f69-84d1-2805e44245e3","system_id":"levelo_inurba_marseille","lat":43.298433,"lon":5.362993,"is_reserved":false,"is_disabled":false,"rental_uris":{"android":"levelo://app?vid=1b603a5a-a474-4f69-84d1-2805e44245e3","ios":"levelo://app?vid=1b603a5a-a474-4f69-84d1-2805e44245e3"},"vehicle_type_id":"4","last_reported":1745259227,"current_range_meters":17200,"station_id":"ce4bgpp2rcd13ifvqc3g","pricing_plan_id":"cebpf4jnsgd1na2vs0mg"},{"bike_id":"9ac475c0-4998-4796-be85-11573ffec7ca","system_id":"levelo_inurba_marseille","lat":43.275902,"lon":5.3607,"is_reserved":false,"is_disabled":false,"rental_uris":{"android":"levelo://app?vid=9ac475c0-4998-4796-be85-11573ffec7ca","ios":"levelo://app?vid=9ac475c0-4998-4796-be85-11573ffec7ca"},"vehicle_type_id":"4","last_reported":1745259227,"current_range_meters":17200,"station_id":"ce4bgj92rcd13ifvqbe0","pricing_plan_id":"cebpf4jnsgd1na2vs0mg"},{"bike_id":"916b480d-34f4-4d24-b95f-924b122e58af","system_id":"levelo_inurba_marseille","lat":43.28377,"lon":5.38114,"is_reserved":false,"is_disabled":false,"rental_uris":{"android":"levelo://app?vid=916b480d-34f4-4d24-b95f-924b122e58af","ios":"levelo://app?vid=916b480d-34f4-4d24-b95f-924b122e58af"},"vehicle_type_id":"4","last_reported":1745259227,"current_range_meters":17200,"station_id":"ce4bh412rcd13ifvqdr0","pricing_plan_id":"cebpf4jnsgd1na2vs0mg"},{"bike_id":"b9e8e494-b1b3-441e-8db7-d3816dea57d1","system_id":"levelo_inurba_marseille","lat":43.2927,"lon":5.36839,"is_reserved":false,"is_disabled":false,"rental_uris":{"android":"levelo://app?vid=b9e8e494-b1b3-441e-8db7-d3816dea57d1","ios":"levelo://app?vid=b9e8e494-b1b3-441e-8db7-d3816dea57d1"},"vehicle_type_id":"4","last_reported":1745259227,"current_range_meters":17200,"station_id":"ce4bhbp2rcd13ifvqesg","pricing_plan_id":"cebpf4jnsgd1na2vs0mg"},{"bike_id":"01a5ee5c-d052-4ef2-be4d-44ff44658bf5","system_id":"levelo_inurba_marseille","lat":43.26496,"lon":5.39538,"is_reserved":false,"is_disabled":false,"rental_uris":{"android":"levelo://app?vid=01a5ee5c-d052-4ef2-be4d-44ff44658bf5","ios":"levelo://app?vid=01a5ee5c-d052-4ef2-be4d-44ff44658bf5"},"vehicle_type_id":"4","last_reported":1745259227,"current_range_meters":17600,"station_id":"ce4bhi12rcd13ifvqfq0","pricing_plan_id":"cebpf4jnsgd1na2vs0mg"},{"bike_id":"013b0bba-3a8e-4176-aec5-9b030be1a006","system_id":"levelo_inurba_marseille","lat":43.31731,"lon":5.37776,"is_reserved":false,"is_disabled":false,"rental_uris":{"android":"levelo://app?vid=013b0bba-3a8e-4176-aec5-9b030be1a006","ios":"levelo://app?vid=013b0bba-3a8e-4176-aec5-9b030be1a006"},"vehicle_type_id":"4","last_reported":1745259227,"current_range_meters":17600,"station_id":"ce4bgth2rcd13ifvqch0","pricing_plan_id":"cebpf4jnsgd1na2vs0mg"},{"bike_id":"75ae2f71-3553-419c-a37d-bb5d0f7a4061","system_id":"levelo_inurba_marseille","lat":43.26942,"lon":5.40251,"is_reserved":false,"is_disabled":false,"rental_uris":{"android":"levelo://app?vid=75ae2f71-3553-419c-a37d-bb5d0f7a4061","ios":"levelo://app?vid=75ae2f71-3553-419c-a37d-bb5d0f7a4061"},"vehicle_type_id":"4","last_reported":1745259227,"current_range_meters":17600,"station_id":"cjm6bp8fraef2m0cb0m0","pricing_plan_id":"cebpf4jnsgd1na2vs0mg"},{"bike_id":"4782e463-a79a-4dc6-9407-f32db016c3dc","system_id":"levelo_inurba_marseille","lat":43.28677,"lon":5.38655,"is_reserved":false,"is_disabled":false,"rental_uris":{"android":"levelo://app?vid=4782e463-a79a-4dc6-9407-f32db016c3dc","ios":"levelo://app?vid=4782e463-a79a-4dc6-9407-f32db016c3dc"},"vehicle_type_id":"4","last_reported":1745259227,"current_range_meters":17600,"station_id":"ce4bh492rcd13ifvqdug","pricing_plan_id":"cebpf4jnsgd1na2vs0mg"},{"bike_id":"7b2dc864-a4e9-468c-9cee-f3075a20977d","system_id":"levelo_inurba_marseille","lat":43.31251,"lon":5.37714,"is_reserved":false,"is_disabled":true,"rental_uris":{"android":"levelo://app?vid=7b2dc864-a4e9-468c-9cee-f3075a20977d","ios":"levelo://app?vid=7b2dc864-a4e9-468c-9cee-f3075a20977d"},"vehicle_type_id":"4","last_reported":1745259227,"current_range_meters":17600,"station_id":"","pricing_plan_id":"cebpf4jnsgd1na2vs0mg"},{"bike_id":"a5255d90-225f-40e7-9173-60478be8a6fd","system_id":"levelo_inurba_marseille","lat":43.29537,"lon":5.38541,"is_reserved":false,"is_disabled":false,"rental_uris":{"android":"levelo://app?vid=a5255d90-225f-40e7-9173-60478be8a6fd","ios":"levelo://app?vid=a5255d90-225f-40e7-9173-60478be8a6fd"},"vehicle_type_id":"4","last_reported":1745259227,"current_range_meters":17600,"station_id":"ce4bgih2rcd13ifvqba0","pricing_plan_id":"cebpf4jnsgd1na2vs0mg"},{"bike_id":"b93b1bb8-0ff4-4558-b0f0-ef30cab6a048","system_id":"levelo_inurba_marseille","lat":43.295774,"lon":5.3674,"is_reserved":false,"is_disabled":false,"rental_uris":{"android":"levelo://app?vid=b93b1bb8-0ff4-4558-b0f0-ef30cab6a048","ios":"levelo://app?vid=b93b1bb8-0ff4-4558-b0f0-ef30cab6a048"},"vehicle_type_id":"4","last_reported":1745259227,"current_range_meters":17200,"station_id":"ce4bgph2rcd13ifvqc2g","pricing_plan_id":"cebpf4jnsgd1na2vs0mg"},{"bike_id":"950a830e-a225-4472-8b65-b229c4be1377","system_id":"levelo_inurba_marseille","lat":43.296936,"lon":5.365965,"is_reserved":false,"is_disabled":false,"rental_uris":{"android":"levelo://app?vid=950a830e-a225-4472-8b65-b229c4be1377","ios":"levelo://app?vid=950a830e-a225-4472-8b65-b229c4be1377"},"vehicle_type_id":"4","last_reported":1745259227,"current_range_meters":17600,"station_id":"ce4bgl12rcd13ifvqbo0","pricing_plan_id":"cebpf4jnsgd1na2vs0mg"},{"bike_id":"1b06bef2-142e-4557-810a-fc865fa25a0b","system_id":"levelo_inurba_marseille","lat":43.26548,"lon":5.37319,"is_reserved":false,"is_disabled":true,"rental_uris":{"android":"levelo://app?vid=1b06bef2-142e-4557-810a-fc865fa25a0b","ios":"levelo://app?vid=1b06bef2-142e-4557-810a-fc865fa25a0b"},"vehicle_type_id":"4","last_reported":1745259227,"current_range_meters":18000,"station_id":"ce4bhg12rcd13ifvqf70","pricing_plan_id":"cebpf4jnsgd1na2vs0mg"},{"bike_id":"322cb3bd-1b2c-4ec8-9cd5-563729b64d42","system_id":"levelo_inurba_marseille","lat":43.24095,"lon":5.37735,"is_reserved":false,"is_disabled":false,"rental_uris":{"android":"levelo://app?vid=322cb3bd-1b2c-4ec8-9cd5-563729b64d42","ios":"levelo://app?vid=322cb3bd-1b2c-4ec8-9cd5-563729b64d42"},"vehicle_type_id":"4","last_reported":1745259227,"current_range_meters":18000,"station_id":"ce4bhnp2rcd13ifvqgvg","pricing_plan_id":"cebpf4jnsgd1na2vs0mg"},{"bike_id":"9400bd7b-a45f-4386-8af7-886615d15cd0","system_id":"levelo_inurba_marseille","lat":43.25812,"lon":5.39408,"is_reserved":false,"is_disabled":false,"rental_uris":{"android":"levelo://app?vid=9400bd7b-a45f-4386-8af7-886615d15cd0","ios":"levelo://app?vid=9400bd7b-a45f-4386-8af7-886615d15cd0"},"vehicle_type_id":"4","last_reported":1745259227,"current_range_meters":18000,"station_id":"ce4bhip2rcd13ifvqft0","pricing_plan_id":"cebpf4jnsgd1na2vs0mg"},{"bike_id":"3e9c1db8-7dce-4e99-bd9f-96cfdfd7dfc6","system_id":"levelo_inurba_marseille","lat":43.28349,"lon":5.38102,"is_reserved":false,"is_disabled":false,"rental_uris":{"android":"levelo://app?vid=3e9c1db8-7dce-4e99-bd9f-96cfdfd7dfc6","ios":"levelo://app?vid=3e9c1db8-7dce-4e99-bd9f-96cfdfd7dfc6"},"vehicle_type_id":"4","last_reported":1745259227,"current_range_meters":18000,"station_id":"ce4bh412rcd13ifvqdr0","pricing_plan_id":"cebpf4jnsgd1na2vs0mg"},{"bike_id":"88d28b4a-86aa-45b0-8a4b-66593392c29c","system_id":"levelo_inurba_marseille","lat":43.29531,"lon":5.38544,"is_reserved":false,"is_disabled":false,"rental_uris":{"android":"levelo://app?vid=88d28b4a-86aa-45b0-8a4b-66593392c29c","ios":"levelo://app?vid=88d28b4a-86aa-45b0-8a4b-66593392c29c"},"vehicle_type_id":"4","last_reported":1745259227,"current_range_meters":18000,"station_id":"ce4bgih2rcd13ifvqba0","pricing_plan_id":"cebpf4jnsgd1na2vs0mg"},{"bike_id":"252f5e7a-c223-4dfb-b8bd-be8bf89e5280","system_id":"levelo_inurba_marseille","lat":43.2937,"lon":5.37833,"is_reserved":false,"is_disabled":false,"rental_uris":{"android":"levelo://app?vid=252f5e7a-c223-4dfb-b8bd-be8bf89e5280","ios":"levelo://app?vid=252f5e7a-c223-4dfb-b8bd-be8bf89e5280"},"vehicle_type_id":"4","last_reported":1745259227,"current_range_meters":17600,"station_id":"ce4bgjh2rcd13ifvqbf0","pricing_plan_id":"cebpf4jnsgd1na2vs0mg"},{"bike_id":"41906ae8-ac18-4569-84f9-105a262c6d44","system_id":"levelo_inurba_marseille","lat":43.29515,"lon":5.39395,"is_reserved":false,"is_disabled":false,"rental_uris":{"android":"levelo://app?vid=41906ae8-ac18-4569-84f9-105a262c6d44","ios":"levelo://app?vid=41906ae8-ac18-4569-84f9-105a262c6d44"},"vehicle_type_id":"4","last_reported":1745259227,"current_range_meters":17600,"station_id":"ce4bh292rcd13ifvqdf0","pricing_plan_id":"cebpf4jnsgd1na2vs0mg"},{"bike_id":"fbf28edc-c79b-41e1-bb5b-ed1bff50cb77","system_id":"levelo_inurba_marseille","lat":43.29272,"lon":5.38452,"is_reserved":false,"is_disabled":false,"rental_uris":{"android":"levelo://app?vid=fbf28edc-c79b-41e1-bb5b-ed1bff50cb77","ios":"levelo://app?vid=fbf28edc-c79b-41e1-bb5b-ed1bff50cb77"},"vehicle_type_id":"4","last_reported":1745259227,"current_range_meters":18000,"station_id":"ce4bh692rcd13ifvqea0","pricing_plan_id":"cebpf4jnsgd1na2vs0mg"},{"bike_id":"1f1f9885-6e62-4243-a5b0-45be9ddf4073","system_id":"levelo_inurba_marseille","lat":43.2396,"lon":5.36633,"is_reserved":false,"is_disabled":true,"rental_uris":{"android":"levelo://app?vid=1f1f9885-6e62-4243-a5b0-45be9ddf4073","ios":"levelo://app?vid=1f1f9885-6e62-4243-a5b0-45be9ddf4073"},"vehicle_type_id":"4","last_reported":1745259227,"current_range_meters":18000,"station_id":"ce4bhi12rcd13ifvqfp0","pricing_plan_id":"cebpf4jnsgd1na2vs0mg"},{"bike_id":"96c11cbc-40c8-4f48-a070-25fb8aa7f8eb","system_id":"levelo_inurba_marseille","lat":43.29531,"lon":5.38533,"is_reserved":false,"is_disabled":false,"rental_uris":{"android":"levelo://app?vid=96c11cbc-40c8-4f48-a070-25fb8aa7f8eb","ios":"levelo://app?vid=96c11cbc-40c8-4f48-a070-25fb8aa7f8eb"},"vehicle_type_id":"4","last_reported":1745259227,"current_range_meters":18000,"station_id":"ce4bgih2rcd13ifvqba0","pricing_plan_id":"cebpf4jnsgd1na2vs0mg"},{"bike_id":"363caf3d-0c7c-4256-bf5f-7cc5771c35b5","system_id":"levelo_inurba_marseille","lat":43.29414,"lon":5.38631,"is_reserved":false,"is_disabled":false,"rental_uris":{"android":"levelo://app?vid=363caf3d-0c7c-4256-bf5f-7cc5771c35b5","ios":"levelo://app?vid=363caf3d-0c7c-4256-bf5f-7cc5771c35b5"},"vehicle_type_id":"4","last_reported":1745259227,"current_range_meters":18800,"station_id":"ce4bh2h2rcd13ifvqdh0","pricing_plan_id":"cebpf4jnsgd1na2vs0mg"},{"bike_id":"0ec838b1-1170-4750-95cb-0b024e60e444","system_id":"levelo_inurba_marseille","lat":43.30907,"lon":5.36836,"is_reserved":false,"is_disabled":false,"rental_uris":{"android":"levelo://app?vid=0ec838b1-1170-4750-95cb-0b024e60e444","ios":"levelo://app?vid=0ec838b1-1170-4750-95cb-0b024e60e444"},"vehicle_type_id":"4","last_reported":1745259227,"current_range_meters":18000,"station_id":"ce4bgn92rcd13ifvqbvg","pricing_plan_id":"cebpf4jnsgd1na2vs0mg"},{"bike_id":"68081e59-a49d-4025-b574-bdcf826bd472","system_id":"levelo_inurba_marseille","lat":43.28621,"lon":5.38479,"is_reserved":false,"is_disabled":false,"rental_uris":{"android":"levelo://app?vid=68081e59-a49d-4025-b574-bdcf826bd472","ios":"levelo://app?vid=68081e59-a49d-4025-b574-bdcf826bd472"},