{"last_updated":1752084901,"ttl":60,"version":"2.2","data":{"bikes":[{"bike_id":"cd20cfea-2f2f-444d-a882-a49b6cf370eb","system_id":"levelo_inurba_marseille","lat":43.337444,"lon":5.374475,"is_reserved":false,"is_disabled":true,"rental_uris":{"android":"levelo://app?vid=cd20cfea-2f2f-444d-a882-a49b6cf370eb","ios":"levelo://app?vid=cd20cfea-2f2f-444d-a882-a49b6cf370eb"},"vehicle_type_id":"4","last_reported":1752084901,"current_range_meters":0,"station_id":"","pricing_plan_id":"cebpf4jnsgd1na2vs0mg"},{"bike_id":"3da29fb8-fc97-44c6-b9ac-31dd456b2fd4","system_id":"levelo_inurba_marseille","lat":43.33771,"lon":5.37424,"is_reserved":false,"is_disabled":true,"rental_uris":{"android":"levelo://app?vid=3da29fb8-fc97-44c6-b9ac-31dd456b2fd4","ios":"levelo://app?vid=3da29fb8-fc97-44c6-b9ac-31dd456b2fd4"},"vehicle_type_id":"4","last_reported":1752084901,"current_range_meters":0,"station_id":"","pricing_plan_id":"cebpf4jnsgd1na2vs0mg"},{"bike_id":"01861ad8-a8d7-4be6-816e-651927c87584","system_id":"levelo_inurba_marseille","lat":43.33751,"lon":5.37456,"is_reserved":false,"is_disabled":true,"rental_uris":{"android":"levelo://app?vid=01861ad8-a8d7-4be6-816e-651927c87584","ios":"levelo://app?vid=01861ad8-a8d7-4be6-816e-651927c87584"},"vehicle_type_id":"4","last_reported":1752084901,"current_range_meters":0,"station_id":"","pricing_plan_id":"cebpf4jnsgd1na2vs0mg"},{"bike_id":"53b1a31e-8ada-40c0-8d64-113a81233c84","system_id":"levelo_inurba_marseille","lat":43.36411,"lon":5.31917,"is_reserved":false,"is_disabled":true,"rental_uris":{"android":"levelo://app?vid=53b1a31e-8ada-40c0-8d64-113a81233c84","ios":"levelo://app?vid=53b1a31e-8ada-40c0-8d64-113a81233c84"},"vehicle_type_id":"4","last_reported":1752084901,"current_range_meters":0,"station_id":"","pricing_plan_id":"cebpf4jnsgd1na2vs0mg"},{"bike_id":"acd61c62-30f4-4010-bdfd-2dd0ad9e241c","system_id":"levelo_inurba_marseille","lat":43.33124,"lon":5.38589,"is_reserved":false,"is_disabled":true,"rental_uris":{"android":"levelo://app?vid=acd61c62-30f4-4010-bdfd-2dd0ad9e241c","ios":"levelo://app?vid=acd61c62-30f4-4010-bdfd-2dd0ad9e241c"},"vehicle_type_id":"4","last_reported":1752084901,"current_range_meters":0,"station_id":"","pricing_plan_id":"cebpf4jnsgd1na2vs0mg"},{"bike_id":"c00a6874-d26c-4b65-bae9-0ac05cb51a02","system_id":"levelo_inurba_marseille","lat":43.295353,"lon":5.385404,"is_reserved":false,"is_disabled":false,"rental_uris":{"android":"levelo://app?vid=c00a6874-d26c-4b65-bae9-0ac05cb51a02","ios":"levelo://app?vid=c00a6874-d26c-4b65-bae9-0ac05cb51a02"},"vehicle_type_id":"4","last_reported":1752084901,"current_range_meters":0,"station_id":"ce4bgih2rcd13ifvqba0","pricing_plan_id":"cebpf4jnsgd1na2vs0mg"},{"bike_id":"014453ed-f6cd-4974-bb51-92737acd1974","system_id":"levelo_inurba_marseille","lat":43.29264,"lon":5.40909,"is_reserved":false,"is_disabled":true,"rental_uris":{"android":"levelo://app?vid=014453ed-f6cd-4974-bb51-92737acd1974","ios":"levelo://app?vid=014453ed-f6cd-4974-bb51-92737acd1974"},"vehicle_type_id":"4","last_reported":1752084901,"current_range_meters":0,"station_id":"ce4bh192rcd13ifvqdc0","pricing_plan_id":"cebpf4jnsgd1na2vs0mg"},{"bike_id":"99ff108a-30ff-4999-8cb8-ff0ea4c101ce","system_id":"levelo_inurba_marseille","lat":43.273801,"lon":5.36265,"is_reserved":false,"is_disabled":true,"rental_uris":{"android":"levelo://app?vid=99ff108a-30ff-4999-8cb8-ff0ea4c101ce","ios":"levelo://app?vid=99ff108a-30ff-4999-8cb8-ff0ea4c101ce"},"vehicle_type_id":"4","last_reported":1752084901,"current_range_meters":0,"station_id":"ce4bhbh2rcd13ifvqeo0","pricing_plan_id":"cebpf4jnsgd1na2vs0mg"},{"bike_id":"b316c1ac-0fdb-4ed0-a090-085daeb90041","system_id":"levelo_inurba_marseille","lat":43.28618,"lon":5.35106,"is_reserved":false,"is_disabled":true,"rental_uris":{"android":"levelo://app?vid=b316c1ac-0fdb-4ed0-a090-085daeb90041","ios":"levelo://app?vid=b316c1ac-0fdb-4ed0-a090-085daeb90041"},"vehicle_type_id":"4","last_reported":1752084901,"current_range_meters":0,"station_id":"ce4bhch2rcd13ifvqeug","pricing_plan_id":"cebpf4jnsgd1na2vs0mg"},{"bike_id":"fba617fe-f054-49b7-9277-90a0f2516b93","system_id":"levelo_inurba_marseille","lat":43.28615,"lon":5.35106,"is_reserved":false,"is_disabled":true,"rental_uris":{"android":"levelo://app?vid=fba617fe-f054-49b7-9277-90a0f2516b93","ios":"levelo://app?vid=fba617fe-f054-49b7-9277-90a0f2516b93"},"vehicle_type_id":"4","last_reported":1752084901,"current_range_meters":0,"station_id":"ce4bhch2rcd13ifvqeug","pricing_plan_id":"cebpf4jnsgd1na2vs0mg"},{"bike_id":"9e143942-2c32-464b-937c-26f5f8534186","system_id":"levelo_inurba_marseille","lat":43.26707,"lon":5.38238,"is_reserved":false,"is_disabled":true,"rental_uris":{"android":"levelo://app?vid=9e143942-2c32-464b-937c-26f5f8534186","ios":"levelo://app?vid=9e143942-2c32-464b-937c-26f5f8534186"},"vehicle_type_id":"4","last_reported":1752084901,"current_range_meters":0,"station_id":"ce4bhg92rcd13ifvqf90","pricing_plan_id":"cebpf4jnsgd1na2vs0mg"},{"bike_id":"e562ad4e-a577-4b7b-a74e-7e00b9c0f52f","system_id":"levelo_inurba_marseille","lat":43.225027,"lon":5.347812,"is_reserved":false,"is_disabled":true,"rental_uris":{"android":"levelo://app?vid=e562ad4e-a577-4b7b-a74e-7e00b9c0f52f","ios":"levelo://app?vid=e562ad4e-a577-4b7b-a74e-7e00b9c0f52f"},"vehicle_type_id":"4","last_reported":1752084901,"current_range_meters":0,"station_id":"st_cvj5dfep6f1abm77gieg","pricing_plan_id":"cebpf4jnsgd1na2vs0mg"},{"bike_id":"6661cbd2-6ba2-4b46-b15e-1188df0f29d7","system_id":"levelo_inurba_marseille","lat":43.21173,"lon":5.35119,"is_reserved":false,"is_disabled":true,"rental_uris":{"android":"levelo://app?vid=6661cbd2-6ba2-4b46-b15e-1188df0f29d7","ios":"levelo://app?vid=6661cbd2-6ba2-4b46-b15e-1188df0f29d7"},"vehicle_type_id":"4","last_reported":1752084901,"current_range_meters":0,"station_id":"st_cvj6sg6p6f1abm77japg","pricing_plan_id":"cebpf4jnsgd1na2vs0mg"},{"bike_id":"fd87c9c1-5b74-43e2-bb83-e93304db398c","system_id":"levelo_inurba_marseille","lat":43.28658,"lon":5.36364,"is_reserved":false,"is_disabled":true,"rental_uris":{"android":"levelo://app?vid=fd87c9c1-5b74-43e2-bb83-e93304db398c","ios":"levelo://app?vid=fd87c9c1-5b74-43e2-bb83-e93304db398c"},"vehicle_type_id":"4","last_reported":1752084901,"current_range_meters":400,"station_id":"ce4bhah2rcd13ifvqej0","pricing_plan_id":"cebpf4jnsgd1na2vs0mg"},{"bike_id":"9d6d4dac-2cfa-44a2-8d63-bea753867872","system_id":"levelo_inurba_marseille","lat":43.27375,"lon":5.36257,"is_reserved":false,"is_disabled":true,"rental_uris":{"android":"levelo://app?vid=9d6d4dac-2cfa-44a2-8d63-bea753867872","ios":"levelo://app?vid=9d6d4dac-2cfa-44a2-8d63-bea753867872"},"vehicle_type_id":"4","last_reported":1752084901,"current_range_meters":400,"station_id":"ce4bhbh2rcd13ifvqeo0","pricing_plan_id":"cebpf4jnsgd1na2vs0mg"},{"bike_id":"336eaf6b-6955-4ef9-8dfa-abf06b057d2c","system_id":"levelo_inurba_marseille","lat":43.21207,"lon":5.35053,"is_reserved":false,"is_disabled":true,"rental_uris":{"android":"levelo://app?vid=336eaf6b-6955-4ef9-8dfa-abf06b057d2c","ios":"levelo://app?vid=336eaf6b-6955-4ef9-8dfa-abf06b057d2c"},"vehicle_type_id":"4","last_reported":1752084901,"current_range_meters":400,"station_id":"st_cvj6sg6p6f1abm77japg","pricing_plan_id":"cebpf4jnsgd1na2vs0mg"},{"bike_id":"7ae59836-c859-4616-9192-09c462971dfb","system_id":"levelo_inurba_marseille","lat":43.30139,"lon":5.38065,"is_reserved":false,"is_disabled":true,"rental_uris":{"android":"levelo://app?vid=7ae59836-c859-4616-9192-09c462971dfb","ios":"levelo://app?vid=7ae59836-c859-4616-9192-09c462971dfb"},"vehicle_type_id":"4","last_reported":1752084901,"current_range_meters":800,"station_id":"ce4bgjp2rcd13ifvqbh0","pricing_plan_id":"cebpf4jnsgd1na2vs0mg"},{"bike_id":"5c2e93ea-4cf8-4b3a-bc5b-9f49d3d84f9f","system_id":"levelo_inurba_marseille","lat":43.310746,"lon":5.383579,"is_reserved":false,"is_disabled":true,"rental_uris":{"android":"levelo://app?vid=5c2e93ea-4cf8-4b3a-bc5b-9f49d3d84f9f","ios":"levelo://app?vid=5c2e93ea-4cf8-4b3a-bc5b-9f49d3d84f9f"},"vehicle_type_id":"4","last_reported":1752084901,"current_range_meters":800,"station_id":"ce4bgv92rcd13ifvqcr0","pricing_plan_id":"cebpf4jnsgd1na2vs0mg"},{"bike_id":"9dbe87cc-21c9-4b6c-952c-c09e35887f80","system_id":"levelo_inurba_marseille","lat":43.21753,"lon":5.34576,"is_reserved":false,"is_disabled":true,"rental_uris":{"android":"levelo://app?vid=9dbe87cc-21c9-4b6c-952c-c09e35887f80","ios":"levelo://app?vid=9dbe87cc-21c9-4b6c-952c-c09e35887f80"},"vehicle_type_id":"4","last_reported":1752084901,"current_range_meters":800,"station_id":"st_cvj6r9ubvosntc0bgbag","pricing_plan_id":"cebpf4jnsgd1na2vs0mg"},{"bike_id":"8cc58f1e-5039-4517-88da-bb314968fdf0","system_id":"levelo_inurba_marseille","lat":43.26205,"lon":5.3745,"is_reserved":false,"is_disabled":true,"rental_uris":{"android":"levelo://app?vid=8cc58f1e-5039-4517-88da-bb314968fdf0","ios":"levelo://app?vid=8cc58f1e-5039-4517-88da-bb314968fdf0"},"vehicle_type_id":"4","last_reported":1752084901,"current_range_meters":1200,"station_id":"ce4bhgp2rcd13ifvqfc0","pricing_plan_id":"cebpf4jnsgd1na2vs0mg"},{"bike_id":"a2dbcbc2-915b-47e5-b482-505f177af7d3","system_id":"levelo_inurba_marseille","lat":43.26194,"lon":5.37449,"is_reserved":false,"is_disabled":true,"rental_uris":{"android":"levelo://app?vid=a2dbcbc2-915b-47e5-b482-505f177af7d3","ios":"levelo://app?vid=a2dbcbc2-915b-47e5-b482-505f177af7d3"},"vehicle_type_id":"4","last_reported":1752084901,"current_range_meters":1200,"station_id":"ce4bhgp2rcd13ifvqfc0","pricing_plan_id":"cebpf4jnsgd1na2vs0mg"},{"bike_id":"1ea07c30-7637-4836-8280-b70950b610b5","system_id":"levelo_inurba_marseille","lat":43.224852,"lon":5.347898,"is_reserved":false,"is_disabled":true,"rental_uris":{"android":"levelo://app?vid=1ea07c30-7637-4836-8280-b70950b610b5","ios":"levelo://app?vid=1ea07c30-7637-4836-8280-b70950b610b5"},"vehicle_type_id":"4","last_reported":1752084901,"current_range_meters":1200,"station_id":"st_cvj5dfep6f1abm77gieg","pricing_plan_id":"cebpf4jnsgd1na2vs0mg"},{"bike_id":"5745f131-cd4a-4ac9-bdc2-7385b3c3e0a5","system_id":"levelo_inurba_marseille","lat":43.21763,"lon":5.34586,"is_reserved":false,"is_disabled":true,"rental_uris":{"android":"levelo://app?vid=5745f131-cd4a-4ac9-bdc2-7385b3c3e0a5","ios":"levelo://app?vid=5745f131-cd4a-4ac9-bdc2-7385b3c3e0a5"},"vehicle_type_id":"4","last_reported":1752084901,"current_range_meters":1200,"station_id":"st_cvj6r9ubvosntc0bgbag","pricing_plan_id":"cebpf4jnsgd1na2vs0mg"},{"bike_id":"2581b7c5-1b42-4417-a9e6-cbdbedb7a2dd","system_id":"levelo_inurba_marseille","lat":43.21764,"lon":5.34581,"is_reserved":false,"is_disabled":true,"rental_uris":{"android":"levelo://app?vid=2581b7c5-1b42-4417-a9e6-cbdbedb7a2dd","ios":"levelo://app?vid=2581b7c5-1b42-4417-a9e6-cbdbedb7a2dd"},"vehicle_type_id":"4","last_reported":1752084901,"current_range_meters":1200,"station_id":"st_cvj6r9ubvosntc0bgbag","pricing_plan_id":"cebpf4jnsgd1na2vs0mg"},{"bike_id":"c98d0307-3157-4a39-9409-864e8e505802","system_id":"levelo_inurba_marseille","lat":43.24177,"lon":5.39357,"is_reserved":false,"is_disabled":true,"rental_uris":{"android":"levelo://app?vid=c98d0307-3157-4a39-9409-864e8e505802","ios":"levelo://app?vid=c98d0307-3157-4a39-9409-864e8e505802"},"vehicle_type_id":"4","last_reported":1752084901,"current_range_meters":1600,"station_id":"","pricing_plan_id":"cebpf4jnsgd1na2vs0mg"},{"bike_id":"f1fdc045-34da-4077-a6b4-38c932429440","system_id":"levelo_inurba_marseille","lat":43.29845,"lon":5.36271,"is_reserved":false,"is_disabled":true,"rental_uris":{"android":"levelo://app?vid=f1fdc045-34da-4077-a6b4-38c932429440","ios":"levelo://app?vid=f1fdc045-34da-4077-a6b4-38c932429440"},"vehicle_type_id":"4","last_reported":1752084901,"current_range_meters":1600,"station_id":"ce4bgpp2rcd13ifvqc3g","pricing_plan_id":"cebpf4jnsgd1na2vs0mg"},{"bike_id":"831b8dd3-6cd0-4961-9bbf-8786877f00eb","system_id":"levelo_inurba_marseille","lat":43.28721,"lon":5.37937,"is_reserved":false,"is_disabled":true,"rental_uris":{"android":"levelo://app?vid=831b8dd3-6cd0-4961-9bbf-8786877f00eb","ios":"levelo://app?vid=831b8dd3-6cd0-4961-9bbf-8786877f00eb"},"vehicle_type_id":"4","last_reported":1752084901,"current_range_meters":1600,"station_id":"ce4bh9p2rcd13ifvqec0","pricing_plan_id":"cebpf4jnsgd1na2vs0mg"},{"bike_id":"cb230794-b7fb-4f6d-8dc0-29044d88e81a","system_id":"levelo_inurba_marseille","lat":43.29208,"lon":5.36054,"is_reserved":false,"is_disabled":true,"rental_uris":{"android":"levelo://app?vid=cb230794-b7fb-4f6d-8dc0-29044d88e81a","ios":"levelo://app?vid=cb230794-b7fb-4f6d-8dc0-29044d88e81a"},"vehicle_type_id":"4","last_reported":1752084901,"current_range_meters":2000,"station_id":"ce4bhbh2rcd13ifvqeqg","pricing_plan_id":"cebpf4jnsgd1na2vs0mg"},{"bike_id":"37f2becd-23f9-4f13-a711-38b8024eeec7","system_id":"levelo_inurba_marseille","lat":43.33768,"lon":5.37516,"is_reserved":false,"is_disabled":false,"rental_uris":{"android":"levelo://app?vid=37f2becd-23f9-4f13-a711-38b8024eeec7","ios":"levelo://app?vid=37f2becd-23f9-4f13-a711-38b8024eeec7"},"vehicle_type_id":"4","last_reported":1752084901,"current_range_meters":2800,"station_id":"","pricing_plan_id":"cebpf4jnsgd1na2vs0mg"},{"bike_id":"fddf98af-7a8e-44e9-98b4-31edfd219c6c","system_id":"levelo_inurba_marseille","lat":43.28,"lon":5.40013,"is_reserved":false,"is_disabled":false,"rental_uris":{"android":"levelo://app?vid=fddf98af-7a8e-44e9-98b4-31edfd219c6c","ios":"levelo://app?vid=fddf98af-7a8e-44e9-98b4-31edfd219c6c"},"vehicle_type_id":"4","last_reported":1752084901,"current_range_meters":2800,"station_id":"ce4bho92rcd13ifvqh4g","pricing_plan_id":"cebpf4jnsgd1na2vs0mg"},{"bike_id":"58d08e15-4944-4889-af97-fb3dc817e52f","system_id":"levelo_inurba_marseille","lat":43.23195,"lon":5.35555,"is_reserved":false,"is_disabled":false,"rental_uris":{"android":"levelo://app?vid=58d08e15-4944-4889-af97-fb3dc817e52f","ios":"levelo://app?vid=58d08e15-4944-4889-af97-fb3dc817e52f"},"vehicle_type_id":"4","last_reported":1752084901,"current_range_meters":2800,"station_id":"ce4bhu92rcd13ifvqi70","pricing_plan_id":"cebpf4jnsgd1na2vs0mg"},{"bike_id":"2c423baa-ecca-420a-87d7-ad0b7e0b9ebb","system_id":"levelo_inurba_marseille","lat":43.28046,"lon":5.35342,"is_reserved":false,"is_disabled":false,"rental_uris":{"android":"levelo://app?vid=2c423baa-ecca-420a-87d7-ad0b7e0b9ebb","ios":"levelo://app?vid=2c423baa-ecca-420a-87d7-ad0b7e0b9ebb"},"vehicle_type_id":"4","last_reported":1752084901,"current_range_meters":3200,"station_id":"","pricing_plan_id":"cebpf4jnsgd1na2vs0mg"},{"bike_id":"366ab505-baab-48af-9718-33756b34ee93","system_id":"levelo_inurba_marseille","lat":43.27616,"lon":5.36113,"is_reserved":false,"is_disabled":false,"rental_uris":{"android":"levelo://app?vid=366ab505-baab-48af-9718-33756b34ee93","ios":"levelo://app?vid=366ab505-baab-48af-9718-33756b34ee93"},"vehicle_type_id":"4","last_reported":1752084901,"current_range_meters":3200,"station_id":"ce4bgj92rcd13ifvqbe0","pricing_plan_id":"cebpf4jnsgd1na2vs0mg"},{"bike_id":"09710f28-26e4-49ee-817d-14d788f5e12a","system_id":"levelo_inurba_marseille","lat":43.29945,"lon":5.36558,"is_reserved":false,"is_disabled":false,"rental_uris":{"android":"levelo://app?vid=09710f28-26e4-49ee-817d-14d788f5e12a","ios":"levelo://app?vid=09710f28-26e4-49ee-817d-14d788f5e12a"},"vehicle_type_id":"4","last_reported":1752084901,"current_range_meters":3200,"station_id":"ce4bgm92rcd13ifvqbr0","pricing_plan_id":"cebpf4jnsgd1na2vs0mg"},{"bike_id":"5d6f30f3-ae86-4d7f-9bbb-88dba67d368a","system_id":"levelo_inurba_marseille","lat":43.27511,"lon":5.42487,"is_reserved":false,"is_disabled":false,"rental_uris":{"android":"levelo://app?vid=5d6f30f3-ae86-4d7f-9bbb-88dba67d368a","ios":"levelo://app?vid=5d6f30f3-ae86-4d7f-9bbb-88dba67d368a"},"vehicle_type_id":"4","last_reported":1752084901,"current_range_meters":3200,"station_id":"ce4bhn92rcd13ifvqgrg","pricing_plan_id":"cebpf4jnsgd1na2vs0mg"},{"bike_id":"926324f1-f845-4f36-9400-7751cd1e609d","system_id":"levelo_inurba_marseille","lat":43.29299,"lon":5.37464,"is_reserved":false,"is_disabled":false,"rental_uris":{"android":"levelo://app?vid=926324f1-f845-4f36-9400-7751cd1e609d","ios":"levelo://app?vid=926324f1-f845-4f36-9400-7751cd1e609d"},"vehicle_type_id":"4","last_reported":1752084901,"current_range_meters":3600,"station_id":"ce4bgi12rcd13ifvqb70","pricing_plan_id":"cebpf4jnsgd1na2vs0mg"},{"bike_id":"2658c489-ae27-40e2-a401-0c483bb76879","system_id":"levelo_inurba_marseille","lat":43.30146,"lon":5.38087,"is_reserved":false,"is_disabled":false,"rental_uris":{"android":"levelo://app?vid=2658c489-ae27-40e2-a401-0c483bb76879","ios":"levelo://app?vid=2658c489-ae27-40e2-a401-0c483bb76879"},"vehicle_type_id":"4","last_reported":1752084901,"current_range_meters":3600,"station_id":"ce4bgjp2rcd13ifvqbh0","pricing_plan_id":"cebpf4jnsgd1na2vs0mg"},{"bike_id":"465dc936-dc4f-4783-8e36-adb55a63c23d","system_id":"levelo_inurba_marseille","lat":43.30885,"lon":5.39652,"is_reserved":false,"is_disabled":false,"rental_uris":{"android":"levelo://app?vid=465dc936-dc4f-4783-8e36-adb55a63c23d","ios":"levelo://app?vid=465dc936-dc4f-4783-8e36-adb55a63c23d"},"vehicle_type_id":"4","last_reported":1752084901,"current_range_meters":3600,"station_id":"ce4bh012rcd13ifvqcv0","pricing_plan_id":"cebpf4jnsgd1na2vs0mg"},{"bike_id":"7a0a8184-7440-4417-b3ee-ad7012541d50","system_id":"levelo_inurba_marseille","lat":43.30094,"lon":5.391,"is_reserved":false,"is_disabled":false,"rental_uris":{"android":"levelo://app?vid=7a0a8184-7440-4417-b3ee-ad7012541d50","ios":"levelo://app?vid=7a0a8184-7440-4417-b3ee-ad7012541d50"},"vehicle_type_id":"4","last_reported":1752084901,"current_range_meters":3600,"station_id":"ce4bh192rcd13ifvqdb0","pricing_plan_id":"cebpf4jnsgd1na2vs0mg"},{"bike_id":"bc5b40e0-c7af-4c89-a991-b17c66ca2049","system_id":"levelo_inurba_marseille","lat":43.2903,"lon":5.38641,"is_reserved":false,"is_disabled":false,"rental_uris":{"android":"levelo://app?vid=bc5b40e0-c7af-4c89-a991-b17c66ca2049","ios":"levelo://app?vid=bc5b40e0-c7af-4c89-a991-b17c66ca2049"},"vehicle_type_id":"4","last_reported":1752084901,"current_range_meters":3600,"station_id":"ce4bh4p2rcd13ifvqe0g","pricing_plan_id":"cebpf4jnsgd1na2vs0mg"},{"bike_id":"cfe526d5-1008-46d6-91b2-e629e9712c99","system_id":"levelo_inurba_marseille","lat":43.29225,"lon":5.36067,"is_reserved":false,"is_disabled":false,"rental_uris":{"android":"levelo://app?vid=cfe526d5-1008-46d6-91b2-e629e9712c99","ios":"levelo://app?vid=cfe526d5-1008-46d6-91b2-e629e9712c99"},"vehicle_type_id":"4","last_reported":1752084901,"current_range_meters":3600,"station_id":"ce4bhbh2rcd13ifvqeqg","pricing_plan_id":"cebpf4jnsgd1na2vs0mg"},{"bike_id":"b6298908-c110-4734-bd54-5126c1515414","system_id":"levelo_inurba_marseille","lat":43.21187,"lon":5.35075,"is_reserved":false,"is_disabled":false,"rental_uris":{"android":"levelo://app?vid=b6298908-c110-4734-bd54-5126c1515414","ios":"levelo://app?vid=b6298908-c110-4734-bd54-5126c1515414"},"vehicle_type_id":"4","last_reported":1752084901,"current_range_meters":3600,"station_id":"st_cvj6sg6p6f1abm77japg","pricing_plan_id":"cebpf4jnsgd1na2vs0mg"},{"bike_id":"603e0242-062c-47c8-9150-edfdddc7c5a7","system_id":"levelo_inurba_marseille","lat":43.29705,"lon":5.36613,"is_reserved":false,"is_disabled":false,"rental_uris":{"android":"levelo://app?vid=603e0242-062c-47c8-9150-edfdddc7c5a7","ios":"levelo://app?vid=603e0242-062c-47c8-9150-edfdddc7c5a7"},"vehicle_type_id":"4","last_reported":1752084901,"current_range_meters":4000,"station_id":"ce4bgn12rcd13ifvqbt0","pricing_plan_id":"cebpf4jnsgd1na2vs0mg"},{"bike_id":"1122096b-a25c-423a-8679-c580e7c1ac81","system_id":"levelo_inurba_marseille","lat":43.25574,"lon":5.38264,"is_reserved":false,"is_disabled":false,"rental_uris":{"android":"levelo://app?vid=1122096b-a25c-423a-8679-c580e7c1ac81","ios":"levelo://app?vid=1122096b-a25c-423a-8679-c580e7c1ac81"},"vehicle_type_id":"4","last_reported":1752084901,"current_range_meters":4000,"station_id":"ce4bhih2rcd13ifvqfs0","pricing_plan_id":"cebpf4jnsgd1na2vs0mg"},{"bike_id":"e6274472-cdce-4241-8bd9-dbda1dc4c809","system_id":"levelo_inurba_marseille","lat":43.2513,"lon":5.40318,"is_reserved":false,"is_disabled":false,"rental_uris":{"android":"levelo://app?vid=e6274472-cdce-4241-8bd9-dbda1dc4c809","ios":"levelo://app?vid=e6274472-cdce-4241-8bd9-dbda1dc4c809"},"vehicle_type_id":"4","last_reported":1752084901,"current_range_meters":4000,"station_id":"ce4bhlh2rcd13ifvqgig","pricing_plan_id":"cebpf4jnsgd1na2vs0mg"},{"bike_id":"230d2d5f-7a2b-41d5-b9f5-b2df82aedc06","system_id":"levelo_inurba_marseille","lat":43.27618,"lon":5.36109,"is_reserved":false,"is_disabled":false,"rental_uris":{"android":"levelo://app?vid=230d2d5f-7a2b-41d5-b9f5-b2df82aedc06","ios":"levelo://app?vid=230d2d5f-7a2b-41d5-b9f5-b2df82aedc06"},"vehicle_type_id":"4","last_reported":1752084901,"current_range_meters":4400,"station_id":"ce4bgj92rcd13ifvqbe0","pricing_plan_id":"cebpf4jnsgd1na2vs0mg"},{"bike_id":"20a84379-f034-46c6-a57a-9ca7c2745dd8","system_id":"levelo_inurba_marseille","lat":43.29918,"lon":5.37471,"is_reserved":false,"is_disabled":false,"rental_uris":{"android":"levelo://app?vid=20a84379-f034-46c6-a57a-9ca7c2745dd8","ios":"levelo://app?vid=20a84379-f034-46c6-a57a-9ca7c2745dd8"},"vehicle_type_id":"4","last_reported":1752084901,"current_range_meters":4400,"station_id":"ce4bgjh2rcd13ifvqbg0","pricing_plan_id":"cebpf4jnsgd1na2vs0mg"},{"bike_id":"47116e43-0763-4403-92a2-0f49f70983f8","system_id":"levelo_inurba_marseille","lat":43.312224,"lon":5.368491,"is_reserved":false,"is_disabled":false,"rental_uris":{"android":"levelo://app?vid=47116e43-0763-4403-92a2-0f49f70983f8","ios":"levelo://app?vid=47116e43-0763-4403-92a2-0f49f70983f8"},"vehicle_type_id":"4","last_reported":1752084901,"current_range_meters":4400,"station_id":"ce4bgl92rcd13ifvqbq0","pricing_plan_id":"cebpf4jnsgd1na2vs0mg"},{"bike_id":"0bd07a5a-c9b5-48fc-bb04-083c19617d41","system_id":"levelo_inurba_marseille","lat":43.30731,"lon":5.4244,"is_reserved":false,"is_disabled":false,"rental_uris":{"android":"levelo://app?vid=0bd07a5a-c9b5-48fc-bb04-083c19617d41","ios":"levelo://app?vid=0bd07a5a-c9b5-48fc-bb04-083c19617d41"},"vehicle_type_id":"4","last_reported":1752084901,"current_range_meters":4400,"station_id":"st_cvj6ca6bvosntc0bfgr0","pricing_plan_id":"cebpf4jnsgd1na2vs0mg"},{"bike_id":"f4451057-882f-4e76-8c75-ee21dd3a686e","system_id":"levelo_inurba_marseille","lat":43.30436,"lon":5.38887,"is_reserved":false,"is_disabled":false,"rental_uris":{"android":"levelo://app?vid=f4451057-882f-4e76-8c75-ee21dd3a686e","ios":"levelo://app?vid=f4451057-882f-4e76-8c75-ee21dd3a686e"},"vehicle_type_id":"4","last_reported":1752084901,"current_range_meters":4800,"station_id":"ce4bgk12rcd13ifvqbi0","pricing_plan_id":"cebpf4jnsgd1na2vs0mg"},{"bike_id":"0c8f92f0-34dd-4528-ac9a-218976babbcb","system_id":"levelo_inurba_marseille","lat":43.297057,"lon":5.376893,"is_reserved":false,"is_disabled":false,"rental_uris":{"android":"levelo://app?vid=0c8f92f0-34dd-4528-ac9a-218976babbcb","ios":"levelo://app?vid=0c8f92f0-34dd-4528-ac9a-218976babbcb"},"vehicle_type_id":"4","last_reported":1752084901,"current_range_meters":4800,"station_id":"ce4bgkh2rcd13ifvqbl0","pricing_plan_id":"cebpf4jnsgd1na2vs0mg"},{"bike_id":"ac2a3738-1d51-4524-9e3f-cf62050e683a","system_id":"levelo_inurba_marseille","lat":43.28933,"lon":5.36637,"is_reserved":false,"is_disabled":false,"rental_uris":{"android":"levelo://app?vid=ac2a3738-1d51-4524-9e3f-cf62050e683a","ios":"levelo://app?vid=ac2a3738-1d51-4524-9e3f-cf62050e683a"},"vehicle_type_id":"4","last_reported":1752084901,"current_range_meters":4800,"station_id":"ce4bhap2rcd13ifvqek0","pricing_plan_id":"cebpf4jnsgd1na2vs0mg"},{"bike_id":"33d5fc92-aa7c-4ae2-b08a-742d9e31d258","system_id":"levelo_inurba_marseille","lat":43.32659,"lon":5.40995,"is_reserved":false,"is_disabled":false,"rental_uris":{"android":"levelo://app?vid=33d5fc92-aa7c-4ae2-b08a-742d9e31d258","ios":"levelo://app?vid=33d5fc92-aa7c-4ae2-b08a-742d9e31d258"},"vehicle_type_id":"4","last_reported":1752084901,"current_range_meters":4800,"station_id":"ce4bhpp2rcd13ifvqhgg","pricing_plan_id":"cebpf4jnsgd1na2vs0mg"},{"bike_id":"a8ab41c4-36c2-4508-9484-3ab200f89b8e","system_id":"levelo_inurba_marseille","lat":43.284405,"lon":5.392135,"is_reserved":false,"is_disabled":false,"rental_uris":{"android":"levelo://app?vid=a8ab41c4-36c2-4508-9484-3ab200f89b8e","ios":"levelo://app?vid=a8ab41c4-36c2-4508-9484-3ab200f89b8e"},"vehicle_type_id":"4","last_reported":1752084901,"current_range_meters":5600,"station_id":"ce4bhoh2rcd13ifvqh5g","pricing_plan_id":"cebpf4jnsgd1na2vs0mg"},{"bike_id":"1b908338-e9cf-435b-a075-6c3b9283dc73","system_id":"levelo_inurba_marseille","lat":43.3009,"lon":5.39081,"is_reserved":false,"is_disabled":false,"rental_uris":{"android":"levelo://app?vid=1b908338-e9cf-435b-a075-6c3b9283dc73","ios":"levelo://app?vid=1b908338-e9cf-435b-a075-6c3b9283dc73"},"vehicle_type_id":"4","last_reported":1752084901,"current_range_meters":6000,"station_id":"ce4bh192rcd13ifvqdb0","pricing_plan_id":"cebpf4jnsgd1na2vs0mg"},{"bike_id":"64239007-1800-4243-9641-2cf230bc70ee","system_id":"levelo_inurba_marseille","lat":43.29036,"lon":5.37565,"is_reserved":false,"is_disabled":false,"rental_uris":{"android":"levelo://app?vid=64239007-1800-4243-9641-2cf230bc70ee","ios":"levelo://app?vid=64239007-1800-4243-9641-2cf230bc70ee"},"vehicle_type_id":"4","last_reported":1752084901,"current_range_meters":6000,"station_id":"ce4bh692rcd13ifvqe90","pricing_plan_id":"cebpf4jnsgd1na2vs0mg"},{"bike_id":"a24926b4-5ef0-4613-b9bb-b127b08adc80","system_id":"levelo_inurba_marseille","lat":43.2439,"lon":5.37064,"is_reserved":false,"is_disabled":false,"rental_uris":{"android":"levelo://app?vid=a24926b4-5ef0-4613-b9bb-b127b08adc80","ios":"levelo://app?vid=a24926b4-5ef0-4613-b9bb-b127b08adc80"},"vehicle_type_id":"4","last_reported":1752084901,"current_range_meters":6000,"station_id":"ce4bhhh2rcd13ifvqfk0","pricing_plan_id":"cebpf4jnsgd1na2vs0mg"},{"bike_id":"a487f840-39ab-4c15-b0d6-0d3919c2ef9f","system_id":"levelo_inurba_marseille","lat":43.29837,"lon":5.36266,"is_reserved":false,"is_disabled":false,"rental_uris":{"android":"levelo://app?vid=a487f840-39ab-4c15-b0d6-0d3919c2ef9f","ios":"levelo://app?vid=a487f840-39ab-4c15-b0d6-0d3919c2ef9f"},"vehicle_type_id":"4","last_reported":1752084901,"current_range_meters":6400,"station_id":"ce4bgpp2rcd13ifvqc3g","pricing_plan_id":"cebpf4jnsgd1na2vs0mg"},{"bike_id":"888522e3-39b6-4ff3-ad74-ff6c6f771157","system_id":"levelo_inurba_marseille","lat":43.29511,"lon":5.40285,"is_reserved":false,"is_disabled":false,"rental_uris":{"android":"levelo://app?vid=888522e3-39b6-4ff3-ad74-ff6c6f771157","ios":"levelo://app?vid=888522e3-39b6-4ff3-ad74-ff6c6f771157"},"vehicle_type_id":"4","last_reported":1752084901,"current_range_meters":6800,"station_id":"","pricing_plan_id":"cebpf4jnsgd1na2vs0mg"},{"bike_id":"b64848f6-13cd-440c-92f0-fdb84f1e1fe7","system_id":"levelo_inurba_marseille","lat":43.29237,"lon":5.36067,"is_reserved":false,"is_disabled":false,"rental_uris":{"android":"levelo://app?vid=b64848f6-13cd-440c-92f0-fdb84f1e1fe7","ios":"levelo://app?vid=b64848f6-13cd-440c-92f0-fdb84f1e1fe7"},"vehicle_type_id":"4","last_reported":1752084901,"current_range_meters":6800,"station_id":"ce4bhbh2rcd13ifvqeqg","pricing_plan_id":"cebpf4jnsgd1na2vs0mg"},{"bike_id":"67bc05b5-4f84-4567-86b1-4605266f63a5","system_id":"levelo_inurba_marseille","lat":43.27375,"lon":5.3626,"is_reserved":false,"is_disabled":false,"rental_uris":{"android":"levelo://app?vid=67bc05b5-4f84-4567-86b1-4605266f63a5","ios":"levelo://app?vid=67bc05b5-4f84-4567-86b1-4605266f63a5"},"vehicle_type_id":"4","last_reported":1752084901,"current_range_meters":7200,"station_id":"ce4bhbh2rcd13ifvqeo0","pricing_plan_id":"cebpf4jnsgd1na2vs0mg"},{"bike_id":"97923d8c-5ed7-45a3-a34d-45a29f2dc5eb","system_id":"levelo_inurba_marseille","lat":43.29226,"lon":5.36071,"is_reserved":false,"is_disabled":false,"rental_uris":{"android":"levelo://app?vid=97923d8c-5ed7-45a3-a34d-45a29f2dc5eb","ios":"levelo://app?vid=97923d8c-5ed7-45a3-a34d-45a29f2dc5eb"},"vehicle_type_id":"4","last_reported":1752084901,"current_range_meters":7200,"station_id":"ce4bhbh2rcd13ifvqeqg","pricing_plan_id":"cebpf4jnsgd1na2vs0mg"},{"bike_id":"1db4d04b-edcd-434c-9296-cec89d778929","system_id":"levelo_inurba_marseille","lat":43.28261,"lon":5.35073,"is_reserved":false,"is_disabled":false,"rental_uris":{"android":"levelo://app?vid=1db4d04b-edcd-434c-9296-cec89d778929","ios":"levelo://app?vid=1db4d04b-edcd-434c-9296-cec89d778929"},"vehicle_type_id":"4","last_reported":1752084901,"current_range_meters":8400,"station_id":"ce4bhbp2rcd13ifvqerg","pricing_plan_id":"cebpf4jnsgd1na2vs0mg"},{"bike_id":"32a9110c-956c-42fa-901c-d18c5ae8d82d","system_id":"levelo_inurba_marseille","lat":43.24077,"lon":5.37757,"is_reserved":false,"is_disabled":false,"rental_uris":{"android":"levelo://app?vid=32a9110c-956c-42fa-901c-d18c5ae8d82d","ios":"levelo://app?vid=32a9110c-956c-42fa-901c-d18c5ae8d82d"},"vehicle_type_id":"4","last_reported":1752084901,"current_range_meters":8400,"station_id":"ce4bhnp2rcd13ifvqgvg","pricing_plan_id":"cebpf4jnsgd1na2vs0mg"},{"bike_id":"39553800-36a3-4878-abac-a1797fe3f549","system_id":"levelo_inurba_marseille","lat":43.30734,"lon":5.4244,"is_reserved":false,"is_disabled":false,"rental_uris":{"android":"levelo://app?vid=39553800-36a3-4878-abac-a1797fe3f549","ios":"levelo://app?vid=39553800-36a3-4878-abac-a1797fe3f549"},"vehicle_type_id":"4","last_reported":1752084901,"current_range_meters":8400,"station_id":"st_cvj6ca6bvosntc0bfgr0","pricing_plan_id":"cebpf4jnsgd1na2vs0mg"},{"bike_id":"0e6193a7-94c7-4f0d-861a-02ae486da896","system_id":"levelo_inurba_marseille","lat":43.28413,"lon":5.34991,"is_reserved":false,"is_disabled":false,"rental_uris":{"android":"levelo://app?vid=0e6193a7-94c7-4f0d-861a-02ae486da896","ios":"levelo://app?vid=0e6193a7-94c7-4f0d-861a-02ae486da896"},"vehicle_type_id":"4","last_reported":1752084901,"current_range_meters":8800,"station_id":"ce4bhbh2rcd13ifvqepg","pricing_plan_id":"cebpf4jnsgd1na2vs0mg"},{"bike_id":"dfe1b682-637a-43a7-a154-ee4bf060bf2f","system_id":"levelo_inurba_marseille","lat":43.29321,"lon":5.3774,"is_reserved":false,"is_disabled":false,"rental_uris":{"android":"levelo://app?vid=dfe1b682-637a-43a7-a154-ee4bf060bf2f","ios":"levelo://app?vid=dfe1b682-637a-43a7-a154-ee4bf060bf2f"},"vehicle_type_id":"4","last_reported":1752084901,"current_range_meters":9200,"station_id":"","pricing_plan_id":"cebpf4jnsgd1na2vs0mg"},{"bike_id":"3030cb07-c041-4d87-a253-8c849c24aa85","system_id":"levelo_inurba_marseille","lat":43.32644,"lon":5.36219,"is_reserved":false,"is_disabled":false,"rental_uris":{"android":"levelo://app?vid=3030cb07-c041-4d87-a253-8c849c24aa85","ios":"levelo://app?vid=3030cb07-c041-4d87-a253-8c849c24aa85"},"vehicle_type_id":"4","last_reported":1752084901,"current_range_meters":9200,"station_id":"","pricing_plan_id":"cebpf4jnsgd1na2vs0mg"},{"bike_id":"436dfed1-4ca2-4386-8fb5-fbe8323f2799","system_id":"levelo_inurba_marseille","lat":43.29893,"lon":5.3749,"is_reserved":false,"is_disabled":false,"rental_uris":{"android":"levelo://app?vid=436dfed1-4ca2-4386-8fb5-fbe8323f2799","ios":"levelo://app?vid=436dfed1-4ca2-4386-8fb5-fbe8323f2799"},"vehicle_type_id":"4","last_reported":1752084901,"current_range_meters":9200,"station_id":"ce4bgjh2rcd13ifvqbg0","pricing_plan_id":"cebpf4jnsgd1na2vs0mg"},{"bike_id":"cdba77df-57e9-45a9-ba6d-55b07ebddc77","system_id":"levelo_inurba_marseille","lat":43.27377,"lon":5.36255,"is_reserved":false,"is_disabled":false,"rental_uris":{"android":"levelo://app?vid=cdba77df-57e9-45a9-ba6d-55b07ebddc77","ios":"levelo://app?vid=cdba77df-57e9-45a9-ba6d-55b07ebddc77"},"vehicle_type_id":"4","last_reported":1752084901,"current_range_meters":9200,"station_id":"ce4bhbh2rcd13ifvqeo0","pricing_plan_id":"cebpf4jnsgd1na2vs0mg"},{"bike_id":"489dea07-c3a6-46d2-b1cc-73df15ca25d7","system_id":"levelo_inurba_marseille","lat":43.27374,"lon":5.36256,"is_reserved":false,"is_disabled":false,"rental_uris":{"android":"levelo://app?vid=489dea07-c3a6-46d2-b1cc-73df15ca25d7","ios":"levelo://app?vid=489dea07-c3a6-46d2-b1cc-73df15ca25d7"},"vehicle_type_id":"4","last_reported":1752084901,"current_range_meters":9200,"station_id":"ce4bhbh2rcd13ifvqeo0","pricing_plan_id":"cebpf4jnsgd1na2vs0mg"},{"bike_id":"48f006cd-a219-4458-ae6c-a1cd04a9a446","system_id":"levelo_inurba_marseille","lat":43.251064,"lon":5.40322,"is_reserved":false,"is_disabled":false,"rental_uris":{"android":"levelo://app?vid=48f006cd-a219-4458-ae6c-a1cd04a9a446","ios":"levelo://app?vid=48f006cd-a219-4458-ae6c-a1cd04a9a446"},"vehicle_type_id":"4","last_reported":1752084901,"current_range_meters":9600,"station_id":"ce4bhlh2rcd13ifvqgig","pricing_plan_id":"cebpf4jnsgd1na2vs0mg"},{"bike_id":"e345de03-8bba-4c5f-81e4-87b7e6579ea1","system_id":"levelo_inurba_marseille","lat":43.296265,"lon":5.405861,"is_reserved":false,"is_disabled":false,"rental_uris":{"android":"levelo://app?vid=e345de03-8bba-4c5f-81e4-87b7e6579ea1","ios":"levelo://app?vid=e345de03-8bba-4c5f-81e4-87b7e6579ea1"},"vehicle_type_id":"4","last_reported":1752084901,"current_range_meters":10000,"station_id":"ce4bh0h2rcd13ifvqd60","pricing_plan_id":"cebpf4jnsgd1na2vs0mg"},{"bike_id":"74f5dfc3-498d-4a73-96c9-49c7911eca11","system_id":"levelo_inurba_marseille","lat":43.28267,"lon":5.35056,"is_reserved":false,"is_disabled":false,"rental_uris":{"android":"levelo://app?vid=74f5dfc3-498d-4a73-96c9-49c7911eca11","ios":"levelo://app?vid=74f5dfc3-498d-4a73-96c9-49c7911eca11"},"vehicle_type_id":"4","last_reported":1752084901,"current_range_meters":10000,"station_id":"ce4bhbp2rcd13ifvqerg","pricing_plan_id":"cebpf4jnsgd1na2vs0mg"},{"bike_id":"b0a8871e-dcdf-4cec-ae52-5fb12dc3d683","system_id":"levelo_inurba_marseille","lat":43.30328,"lon":5.40429,"is_reserved":false,"is_disabled":false,"rental_uris":{"android":"levelo://app?vid=b0a8871e-dcdf-4cec-ae52-5fb12dc3d683","ios":"levelo://app?vid=b0a8871e-dcdf-4cec-ae52-5fb12dc3d683"},"vehicle_type_id":"4","last_reported":1752084901,"current_range_meters":10800,"station_id":"ce4bh012rcd13ifvqd10","pricing_plan_id":"cebpf4jnsgd1na2vs0mg"},{"bike_id":"c15428d3-2a32-48e0-9cc2-017d4f99be87","system_id":"levelo_inurba_marseille","lat":43.29031,"lon":5.38644,"is_reserved":false,"is_disabled":false,"rental_uris":{"android":"levelo://app?vid=c15428d3-2a32-48e0-9cc2-017d4f99be87","ios":"levelo://app?vid=c15428d3-2a32-48e0-9cc2-017d4f99be87"},"vehicle_type_id":"4","last_reported":1752084901,"current_range_meters":10800,"station_id":"ce4bh4p2rcd13ifvqe0g","pricing_plan_id":"cebpf4jnsgd1na2vs0mg"},{"bike_id":"a03650a7-9d74-4188-9046-d3ca39fa5db9","system_id":"levelo_inurba_marseille","lat":43.2841,"lon":5.3499,"is_reserved":false,"is_disabled":false,"rental_uris":{"android":"levelo://app?vid=a03650a7-9d74-4188-9046-d3ca39fa5db9","ios":"levelo://app?vid=a03650a7-9d74-4188-9046-d3ca39fa5db9"},"vehicle_type_id":"4","last_reported":1752084901,"current_range_meters":10800,"station_id":"ce4bhbh2rcd13ifvqepg","pricing_plan_id":"cebpf4jnsgd1na2vs0mg"},{"bike_id":"5db44857-9ed0-4850-a05a-f2fc6bd5fa46","system_id":"levelo_inurba_marseille","lat":43.27985,"lon":5.3848,"is_reserved":false,"is_disabled":false,"rental_uris":{"android":"levelo://app?vid=5db44857-9ed0-4850-a05a-f2fc6bd5fa46","ios":"levelo://app?vid=5db44857-9ed0-4850-a05a-f2fc6bd5fa46"},"vehicle_type_id":"4","last_reported":1752084901,"current_range_meters":11200,"station_id":"","pricing_plan_id":"cebpf4jnsgd1na2vs0mg"},{"bike_id":"41e25de3-8877-4bb2-be57-30bf834ded8f","system_id":"levelo_inurba_marseille","lat":43.295337,"lon":5.385407,"is_reserved":false,"is_disabled":false,"rental_uris":{"android":"levelo://app?vid=41e25de3-8877-4bb2-be57-30bf834ded8f","ios":"levelo://app?vid=41e25de3-8877-4bb2-be57-30bf834ded8f"},"vehicle_type_id":"4","last_reported":1752084901,"current_range_meters":11200,"station_id":"ce4bgih2rcd13ifvqba0","pricing_plan_id":"cebpf4jnsgd1na2vs0mg"},{"bike_id":"3c833827-09f6-428c-90e1-b49ce4eec3fc","system_id":"levelo_inurba_marseille","lat":43.28724,"lon":5.3794,"is_reserved":false,"is_disabled":false,"rental_uris":{"android":"levelo://app?vid=3c833827-09f6-428c-90e1-b49ce4eec3fc","ios":"levelo://app?vid=3c833827-09f6-428c-90e1-b49ce4eec3fc"},"vehicle_type_id":"4","last_reported":1752084901,"current_range_meters":11200,"station_id":"ce4bh9p2rcd13ifvqec0","pricing_plan_id":"cebpf4jnsgd1na2vs0mg"},{"bike_id":"bcf91a6e-6be5-4b45-b153-ede31338792e","system_id":"levelo_inurba_marseille","lat":43.28274,"lon":5.35067,"is_reserved":false,"is_disabled":false,"rental_uris":{"android":"levelo://app?vid=bcf91a6e-6be5-4b45-b153-ede31338792e","ios":"levelo://app?vid=bcf91a6e-6be5-4b45-b153-ede31338792e"},"vehicle_type_id":"4","last_reported":1752084901,"current_range_meters":11200,"station_id":"ce4bhbp2rcd13ifvqerg","pricing_plan_id":"cebpf4jnsgd1na2vs0mg"},{"bike_id":"4a8e1ba7-6a98-4773-8aa5-c978babfdc0d","system_id":"levelo_inurba_marseille","lat":43.27615,"lon":5.36103,"is_reserved":false,"is_disabled":false,"rental_uris":{"android":"levelo://app?vid=4a8e1ba7-6a98-4773-8aa5-c978babfdc0d","ios":"levelo://app?vid=4a8e1ba7-6a98-4773-8aa5-c978babfdc0d"},"vehicle_type_id":"4","last_reported":1752084901,"current_range_meters":11600,"station_id":"ce4bgj92rcd13ifvqbe0","pricing_plan_id":"cebpf4jnsgd1na2vs0mg"},{"bike_id":"57f9e5a6-8253-4b9a-a8cc-408088fd1d72","system_id":"levelo_inurba_marseille","lat":43.29034,"lon":5.3865,"is_reserved":false,"is_disabled":false,"rental_uris":{"android":"levelo://app?vid=57f9e5a6-8253-4b9a-a8cc-408088fd1d72","ios":"levelo://app?vid=57f9e5a6-8253-4b9a-a8cc-408088fd1d72"},"vehicle_type_id":"4","last_reported":1752084901,"current_range_meters":11600,"station_id":"ce4bh4p2rcd13ifvqe0g","pricing_plan_id":"cebpf4jnsgd1na2vs0mg"},{"bike_id":"67cf9971-a5b9-4893-8bad-aa4c372e10c9","system_id":"levelo_inurba_marseille","lat":43.280365,"lon":5.369425,"is_reserved":false,"is_disabled":false,"rental_uris":{"android":"levelo://app?vid=67cf9971-a5b9-4893-8bad-aa4c372e10c9","ios":"levelo://app?vid=67cf9971-a5b9-4893-8bad-aa4c372e10c9"},"vehicle_type_id":"4","last_reported":1752084901,"current_range_meters":11600,"station_id":"ce4bha12rcd13ifvqef0","pricing_plan_id":"cebpf4jnsgd1na2vs0mg"},{"bike_id":"8a729d75-2197-493c-81b1-abd99134aca2","system_id":"levelo_inurba_marseille","lat":43.28263,"lon":5.35061,"is_reserved":false,"is_disabled":false,"rental_uris":{"android":"levelo://app?vid=8a729d75-2197-493c-81b1-abd99134aca2","ios":"levelo://app?vid=8a729d75-2197-493c-81b1-abd99134aca2"},"vehicle_type_id":"4","last_reported":1752084901,"current_range_meters":11600,"station_id":"ce4bhbp2rcd13ifvqerg","pricing_plan_id":"cebpf4jnsgd1na2vs0mg"},{"bike_id":"58d4370f-f8d6-43ee-b5c1-f4e470d236f1","system_id":"levelo_inurba_marseille","lat":43.279147,"lon":5.39579,"is_reserved":false,"is_disabled":false,"rental_uris":{"android":"levelo://app?vid=58d4370f-f8d6-43ee-b5c1-f4e470d236f1","ios":"levelo://app?vid=58d4370f-f8d6-43ee-b5c1-f4e470d236f1"},"vehicle_type_id":"4","last_reported":1752084901,"current_range_meters":11600,"station_id":"ce4bhf92rcd13ifvqf40","pricing_plan_id":"cebpf4jnsgd1na2vs0mg"},{"bike_id":"86b9b08b-1620-4bce-b388-6a966eb11cb3","system_id":"levelo_inurba_marseille","lat":43.24817,"lon":5.37423,"is_reserved":false,"is_disabled":false,"rental_uris":{"android":"levelo://app?vid=86b9b08b-1620-4bce-b388-6a966eb11cb3","ios":"levelo://app?vid=86b9b08b-1620-4bce-b388-6a966eb11cb3"},"vehicle_type_id":"4","last_reported":1752084901,"current_range_meters":11600,"station_id":"ce4bhgh2rcd13ifvqfb0","pricing_plan_id":"cebpf4jnsgd1na2vs0mg"},{"bike_id":"830ca46b-969b-473f-8d1d-9113a656779c","system_id":"levelo_inurba_marseille","lat":43.281687,"lon":5.426337,"is_reserved":false,"is_disabled":false,"rental_uris":{"android":"levelo://app?vid=830ca46b-969b-473f-8d1d-9113a656779c","ios":"levelo://app?vid=830ca46b-969b-473f-8d1d-9113a656779c"},"vehicle_type_id":"4","last_reported":1752084901,"current_range_meters":11600,"station_id":"ce4bhnh2rcd13ifvqgug","pricing_plan_id":"cebpf4jnsgd1na2vs0mg"},{"bike_id":"175c765f-5c18-4218-adb2-081fb4cfe564","system_id":"levelo_inurba_marseille","lat":43.2815,"lon":5.42649,"is_reserved":false,"is_disabled":false,"rental_uris":{"android":"levelo://app?vid=175c765f-5c18-4218-adb2-081fb4cfe564","ios":"levelo://app?vid=175c765f-5c18-4218-adb2-081fb4cfe564"},"vehicle_type_id":"4","last_reported":1752084901,"current_range_meters":11600,"station_id":"ce4bhnh2rcd13ifvqgug","pricing_plan_id":"cebpf4jnsgd1na2vs0mg"},{"bike_id":"84e7e709-4e4f-4764-818c-af719435bfca","system_id":"levelo_inurba_marseille","lat":43.31957,"lon":5.37275,"is_reserved":false,"is_disabled":false,"rental_uris":{"android":"levelo://app?vid=84e7e709-4e4f-4764-818c-af719435bfca","ios":"levelo://app?vid=84e7e709-4e4f-4764-818c-af719435bfca"},"vehicle_type_id":"4","last_reported":1752084901,"current_range_meters":12000,"station_id":"","pricing_plan_id":"cebpf4jnsgd1na2vs0mg"},{"bike_id":"0aa093d6-e26f-4171-8147-14ca283c8d59","system_id":"levelo_inurba_marseille","lat":43.292566,"lon":5.384443,"is_reserved":false,"is_disabled":false,"rental_uris":{"android":"levelo://app?vid=0aa093d6-e26f-4171-8147-14ca283c8d59","ios":"levelo://app?vid=0aa093d6-e26f-4171-8147-14ca283c8d59"},"vehicle_type_id":"4","last_reported":1752084901,"current_range_meters":12000,"station_id":"","pricing_plan_id":"cebpf4jnsgd1na2vs0mg"},{"bike_id":"85339cdc-4037-4417-9054-e722f7e495c5","system_id":"levelo_inurba_marseille","lat":43.27377,"lon":5.36241,"is_reserved":false,"is_disabled":false,"rental_uris":{"android":"levelo://app?vid=85339cdc-4037-4417-9054-e722f7e495c5","ios":"levelo://app?vid=85339cdc-4037-4417-9054-e722f7e495c5"},"vehicle_type_id":"4","last_reported":1752084901,"current_range_meters":12000,"station_id":"ce4bhbh2rcd13ifvqeo0","pricing_plan_id":"cebpf4jnsgd1na2vs0mg"},{"bike_id":"2fa231de-f74d-4e49-b569-19825602707e","system_id":"levelo_inurba_marseille","lat":43.23967,"lon":5.36626,"is_reserved":false,"is_disabled":false,"rental_uris":{"android":"levelo://app?vid=2fa231de-f74d-4e49-b569-19825602707e","ios":"levelo://app?vid=2fa231de-f74d-4e49-b569-19825602707e"},"vehicle_type_id":"4","last_reported":1752084901,"current_range_meters":12000,"station_id":"ce4bhi12rcd13ifvqfp0","pricing_plan_id":"cebpf4jnsgd1na2vs0mg"},{"bike_id":"f573a8fb-f1f8-47c4-901e-ddf2739a5cca","system_id":"levelo_inurba_marseille","lat":43.36016,"lon":5.32461,"is_reserved":false,"is_disabled":false,"rental_uris":{"android":"levelo://app?vid=f573a8fb-f1f8-47c4-901e-ddf2739a5cca","ios":"levelo://app?vid=f573a8fb-f1f8-47c4-901e-ddf2739a5cca"},"vehicle_type_id":"4","last_reported":1752084901,"current_range_meters":12400,"station_id":"","pricing_plan_id":"cebpf4jnsgd1na2vs0mg"},{"bike_id":"c2b72fe0-bae6-4c7b-ad48-9e771b203dc8","system_id":"levelo_inurba_marseille","lat":43.313547,"lon":5.38469,"is_reserved":false,"is_disabled":false,"rental_uris":{"android":"levelo://app?vid=c2b72fe0-bae6-4c7b-ad48-9e771b203dc8","ios":"levelo://app?vid=c2b72fe0-bae6-4c7b-ad48-9e771b203dc8"},"vehicle_type_id":"4","last_reported":1752084901,"current_range_meters":12400,"station_id":"ce4bgt92rcd13ifvqcf0","pricing_plan_id":"cebpf4jnsgd1na2vs0mg"},{"bike_id":"2a76e2fe-7880-4919-bb4c-e8add5d49394","system_id":"levelo_inurba_marseille","lat":43.30463,"lon":5.37899,"is_reserved":false,"is_disabled":false,"rental_uris":{"android":"levelo://app?vid=2a76e2fe-7880-4919-bb4c-e8add5d49394","ios":"levelo://app?vid=2a76e2fe-7880-4919-bb4c-e8add5d49394"},"vehicle_type_id":"4","last_reported":1752084901,"current_range_meters":12400,"station_id":"ce4bgup2rcd13ifvqcn0","pricing_plan_id":"cebpf4jnsgd1na2vs0mg"},{"bike_id":"8366e0c1-629b-450c-ae3b-cc9b8a5bc3f2","system_id":"levelo_inurba_marseille","lat":43.29272,"lon":5.4012,"is_reserved":false,"is_disabled":false,"rental_uris":{"android":"levelo://app?vid=8366e0c1-629b-450c-ae3b-cc9b8a5bc3f2","ios":"levelo://app?vid=8366e0c1-629b-450c-ae3b-cc9b8a5bc3f2"},"vehicle_type_id":"4","last_reported":1752084901,"current_range_meters":12400,"station_id":"ce4bh312rcd13ifvqdk0","pricing_plan_id":"cebpf4jnsgd1na2vs0mg"},{"bike_id":"4896d751-980a-4eed-9a0f-eda1b7e837c2","system_id":"levelo_inurba_marseille","lat":43.28258,"lon":5.35074,"is_reserved":false,"is_disabled":false,"rental_uris":{"android":"levelo://app?vid=4896d751-980a-4eed-9a0f-eda1b7e837c2","ios":"levelo://app?vid=4896d751-980a-4eed-9a0f-eda1b7e837c2"},"vehicle_type_id":"4","last_reported":1752084901,"current_range_meters":12400,"station_id":"ce4bhbp2rcd13ifvqerg","pricing_plan_id":"cebpf4jnsgd1na2vs0mg"},{"bike_id":"35361cf0-7a2b-4533-a38b-c4b36cb47ed1","system_id":"levelo_inurba_marseille","lat":43.24808,"lon":5.37444,"is_reserved":false,"is_disabled":false,"rental_uris":{"android":"levelo://app?vid=35361cf0-7a2b-4533-a38b-c4b36cb47ed1","ios":"levelo://app?vid=35361cf0-7a2b-4533-a38b-c4b36cb47ed1"},"vehicle_type_id":"4","last_reported":1752084901,"current_range_meters":12400,"station_id":"ce4bhgh2rcd13ifvqfb0","pricing_plan_id":"cebpf4jnsgd1na2vs0mg"},{"bike_id":"8414d9a2-4ef1-4cf6-9630-774f2aed7f6c","system_id":"levelo_inurba_marseille","lat":43.320477,"lon":5.415431,"is_reserved":false,"is_disabled":false,"rental_uris":{"android":"levelo://app?vid=8414d9a2-4ef1-4cf6-9630-774f2aed7f6c","ios":"levelo://app?vid=8414d9a2-4ef1-4cf6-9630-774f2aed7f6c"},"vehicle_type_id":"4","last_reported":1752084901,"current_range_meters":12400,"station_id":"ce4bhq92rcd13ifvqhkg","pricing_plan_id":"cebpf4jnsgd1na2vs0mg"},{"bike_id":"ac39d365-5643-4610-bf4b-0e5167a77f88","system_id":"levelo_inurba_marseille","lat":43.33724,"lon":5.39173,"is_reserved":false,"is_disabled":false,"rental_uris":{"android":"levelo://app?vid=ac39d365-5643-4610-bf4b-0e5167a77f88","ios":"levelo://app?vid=ac39d365-5643-4610-bf4b-0e5167a77f88"},"vehicle_type_id":"4","last_reported":1752084901,"current_range_meters":12400,"station_id":"ce4bhr92rcd13ifvqhsg","pricing_plan_id":"cebpf4jnsgd1na2vs0mg"},{"bike_id":"6e4460a5-d0d0-479e-826f-a258b3d7862c","system_id":"levelo_inurba_marseille","lat":43.29107,"lon":5.3813,"is_reserved":false,"is_disabled":false,"rental_uris":{"android":"levelo://app?vid=6e4460a5-d0d0-479e-826f-a258b3d7862c","ios":"levelo://app?vid=6e4460a5-d0d0-479e-826f-a258b3d7862c"},"vehicle_type_id":"4","last_reported":1752084901,"current_range_meters":12800,"station_id":"ce4bh512rcd13ifvqe2g","pricing_plan_id":"cebpf4jnsgd1na2vs0mg"},{"bike_id":"4975b22d-8c48-452f-bd19-7a9d3ed7c378","system_id":"levelo_inurba_marseille","lat":43.29676,"lon":5.37424,"is_reserved":false,"is_disabled":false,"rental_uris":{"android":"levelo://app?vid=4975b22d-8c48-452f-bd19-7a9d3ed7c378","ios":"levelo://app?vid=4975b22d-8c48-452f-bd19-7a9d3ed7c378"},"vehicle_type_id":"4","last_reported":1752084901,"current_range_meters":13600,"station_id":"","pricing_plan_id":"cebpf4jnsgd1na2vs0mg"},{"bike_id":"134ec0d2-daef-4b96-bb6d-137c164de6a2","system_id":"levelo_inurba_marseille","lat":43.24814,"lon":5.37465,"is_reserved":false,"is_disabled":false,"rental_uris":{"android":"levelo://app?vid=134ec0d2-daef-4b96-bb6d-137c164de6a2","ios":"levelo://app?vid=134ec0d2-daef-4b96-bb6d-137c164de6a2"},"vehicle_type_id":"4","last_reported":1752084901,"current_range_meters":13600,"station_id":"ce4bhgh2rcd13ifvqfb0","pricing_plan_id":"cebpf4jnsgd1na2vs0mg"},{"bike_id":"7dc48cb7-b742-4446-8d3e-f56bc6d6cf97","system_id":"levelo_inurba_marseille","lat":43.26206,"lon":5.374687,"is_reserved":false,"is_disabled":false,"rental_uris":{"android":"levelo://app?vid=7dc48cb7-b742-4446-8d3e-f56bc6d6cf97","ios":"levelo://app?vid=7dc48cb7-b742-4446-8d3e-f56bc6d6cf97"},"vehicle_type_id":"4","last_reported":1752084901,"current_range_meters":13600,"station_id":"ce4bhgp2rcd13ifvqfc0","pricing_plan_id":"cebpf4jnsgd1na2vs0mg"},{"bike_id":"c1cff196-d54f-47e4-81ce-f4eaf24d87dc","system_id":"levelo_inurba_marseille","lat":43.281613,"lon":5.395512,"is_reserved":false,"is_disabled":false,"rental_uris":{"android":"levelo://app?vid=c1cff196-d54f-47e4-81ce-f4eaf24d87dc","ios":"levelo://app?vid=c1cff196-d54f-47e4-81ce-f4eaf24d87dc"},"vehicle_type_id":"4","last_reported":1752084901,"current_range_meters":13600,"station_id":"ce4bho12rcd13ifvqh2g","pricing_plan_id":"cebpf4jnsgd1na2vs0mg"},{"bike_id":"c514ad25-b83c-4d10-a595-57ae5a32aef4","system_id":"levelo_inurba_marseille","lat":43.2294,"lon":5.3537,"is_reserved":false,"is_disabled":false,"rental_uris":{"android":"levelo://app?vid=c514ad25-b83c-4d10-a595-57ae5a32aef4","ios":"levelo://app?vid=c514ad25-b83c-4d10-a595-57ae5a32aef4"},"vehicle_type_id":"4","last_reported":1752084901,"current_range_meters":13600,"station_id":"cpo3532slgdg3j2ikp40","pricing_plan_id":"cebpf4jnsgd1na2vs0mg"},{"bike_id":"cfbd3a18-6624-404b-9395-5fd26ae03775","system_id":"levelo_inurba_marseille","lat":43.21745,"lon":5.34607,"is_reserved":false,"is_disabled":false,"rental_uris":{"android":"levelo://app?vid=cfbd3a18-6624-404b-9395-5fd26ae03775","ios":"levelo://app?vid=cfbd3a18-6624-404b-9395-5fd26ae03775"},"vehicle_type_id":"4","last_reported":1752084901,"current_range_meters":14000,"station_id":"","pricing_plan_id":"cebpf4jnsgd1na2vs0mg"},{"bike_id":"4c1f85f6-9135-497b-8e1a-53534062bb9e","system_id":"levelo_inurba_marseille","lat":43.29058,"lon":5.35908,"is_reserved":false,"is_disabled":false,"rental_uris":{"android":"levelo://app?vid=4c1f85f6-9135-497b-8e1a-53534062bb9e","ios":"levelo://app?vid=4c1f85f6-9135-497b-8e1a-53534062bb9e"},"vehicle_type_id":"4","last_reported":1752084901,"current_range_meters":14000,"station_id":"ce4bha92rcd13ifvqeg0","pricing_plan_id":"cebpf4jnsgd1na2vs0mg"},{"bike_id":"8fc96add-786a-4f96-a861-7500d74aa2a1","system_id":"levelo_inurba_marseille","lat":43.28405,"lon":5.34982,"is_reserved":false,"is_disabled":false,"rental_uris":{"android":"levelo://app?vid=8fc96add-786a-4f96-a861-7500d74aa2a1","ios":"levelo://app?vid=8fc96add-786a-4f96-a861-7500d74aa2a1"},"vehicle_type_id":"4","last_reported":1752084901,"current_range_meters":14000,"station_id":"ce4bhbh2rcd13ifvqepg","pricing_plan_id":"cebpf4jnsgd1na2vs0mg"},{"bike_id":"63177951-27bc-4cb8-bcf8-0bc3e8e0e208","system_id":"levelo_inurba_marseille","lat":43.28267,"lon":5.35061,"is_reserved":false,"is_disabled":false,"rental_uris":{"android":"levelo://app?vid=63177951-27bc-4cb8-bcf8-0bc3e8e0e208","ios":"levelo://app?vid=63177951-27bc-4cb8-bcf8-0bc3e8e0e208"},"vehicle_type_id":"4","last_reported":1752084901,"current_range_meters":14000,"station_id":"ce4bhbp2rcd13ifvqerg","pricing_plan_id":"cebpf4jnsgd1na2vs0mg"},{"bike_id":"69851d52-03c7-490b-86b7-e4b62b3ba12e","system_id":"levelo_inurba_marseille","lat":43.28624,"lon":5.35096,"is_reserved":false,"is_disabled":false,"rental_uris":{"android":"levelo://app?vid=69851d52-03c7-490b-86b7-e4b62b3ba12e","ios":"levelo://app?vid=69851d52-03c7-490b-86b7-e4b62b3ba12e"},"vehicle_type_id":"4","last_reported":1752084901,"current_range_meters":14000,"station_id":"ce4bhch2rcd13ifvqeug","pricing_plan_id":"cebpf4jnsgd1na2vs0mg"},{"bike_id":"5fad8e47-621e-4cd6-b2ac-7dfb456cd9bf","system_id":"levelo_inurba_marseille","lat":43.24803,"lon":5.37453,"is_reserved":false,"is_disabled":false,"rental_uris":{"android":"levelo://app?vid=5fad8e47-621e-4cd6-b2ac-7dfb456cd9bf","ios":"levelo://app?vid=5fad8e47-621e-4cd6-b2ac-7dfb456cd9bf"},"vehicle_type_id":"4","last_reported":1752084901,"current_range_meters":14000,"station_id":"ce4bhgh2rcd13ifvqfb0","pricing_plan_id":"cebpf4jnsgd1na2vs0mg"},{"bike_id":"760d471b-26dc-40d7-9140-09a9f4623bc8","system_id":"levelo_inurba_marseille","lat":43.25501,"lon":5.376488,"is_reserved":false,"is_disabled":false,"rental_uris":{"android":"levelo://app?vid=760d471b-26dc-40d7-9140-09a9f4623bc8","ios":"levelo://app?vid=760d471b-26dc-40d7-9140-09a9f4623bc8"},"vehicle_type_id":"4","last_reported":1752084901,"current_range_meters":14000,"station_id":"ce4bhh12rcd13ifvqff0","pricing_plan_id":"cebpf4jnsgd1na2vs0mg"},{"bike_id":"b2caa530-bb19-4cc6-a6bd-61e3e1d7432e","system_id":"levelo_inurba_marseille","lat":43.33763,"lon":5.37461,"is_reserved":false,"is_disabled":false,"rental_uris":{"android":"levelo://app?vid=b2caa530-bb19-4cc6-a6bd-61e3e1d7432e","ios":"levelo://app?vid=b2caa530-bb19-4cc6-a6bd-61e3e1d7432e"},"vehicle_type_id":"4","last_reported":1752084901,"current_range_meters":14400,"station_id":"","pricing_plan_id":"cebpf4jnsgd1na2vs0mg"},{"bike_id":"f5c16f07-bc6f-4121-91a7-5ad90eec4f34","system_id":"levelo_inurba_marseille","lat":43.31212,"lon":5.37322,"is_reserved":false,"is_disabled":false,"rental_uris":{"android":"levelo://app?vid=f5c16f07-bc6f-4121-91a7-5ad90eec4f34","ios":"levelo://app?vid=f5c16f07-bc6f-4121-91a7-5ad90eec4f34"},"vehicle_type_id":"4","last_reported":1752084901,"current_range_meters":14400,"station_id":"","pricing_plan_id":"cebpf4jnsgd1na2vs0mg"},{"bike_id":"0a00e06d-d743-4212-9d7f-267ecb1359c8","system_id":"levelo_inurba_marseille","lat":43.31165,"lon":5.38728,"is_reserved":false,"is_disabled":false,"rental_uris":{"android":"levelo://app?vid=0a00e06d-d743-4212-9d7f-267ecb1359c8","ios":"levelo://app?vid=0a00e06d-d743-4212-9d7f-267ecb1359c8"},"vehicle_type_id":"4","last_reported":1752084901,"current_range_meters":14400,"station_id":"ce4bgv12rcd13ifvqcp0","pricing_plan_id":"cebpf4jnsgd1na2vs0mg"},{"bike_id":"449ed129-2f06-47da-936f-6e63a3609258","system_id":"levelo_inurba_marseille","lat":43.232005,"lon":5.355483,"is_reserved":false,"is_disabled":false,"rental_uris":{"android":"levelo://app?vid=449ed129-2f06-47da-936f-6e63a3609258","ios":"levelo://app?vid=449ed129-2f06-47da-936f-6e63a3609258"},"vehicle_type_id":"4","last_reported":1752084901,"current_range_meters":14400,"station_id":"ce4bhu92rcd13ifvqi70","pricing_plan_id":"cebpf4jnsgd1na2vs0mg"},{"bike_id":"b2cc59a5-c50c-4ebc-af34-43c13b199e8f","system_id":"levelo_inurba_marseille","lat":43.26804,"lon":5.40269,"is_reserved":false,"is_disabled":false,"rental_uris":{"android":"levelo://app?vid=b2cc59a5-c50c-4ebc-af34-43c13b199e8f","ios":"levelo://app?vid=b2cc59a5-c50c-4ebc-af34-43c13b199e8f"},"vehicle_type_id":"4","last_reported":1752084901,"current_range_meters":14400,"station_id":"ce501612rcd8frsf0b60","pricing_plan_id":"cebpf4jnsgd1na2vs0mg"},{"bike_id":"b6d9b946-f66a-4c6f-96e5-5d23e176360c","system_id":"levelo_inurba_marseille","lat":43.31315,"lon":5.38172,"is_reserved":false,"is_disabled":false,"rental_uris":{"android":"levelo://app?vid=b6d9b946-f66a-4c6f-96e5-5d23e176360c","ios":"levelo://app?vid=b6d9b946-f66a-4c6f-96e5-5d23e176360c"},"vehicle_type_id":"4","last_reported":1752084901,"current_range_meters":14800,"station_id":"","pricing_plan_id":"cebpf4jnsgd1na2vs0mg"},{"bike_id":"b757ffbb-2b71-4330-9f60-5f8a9d46d16e","system_id":"levelo_inurba_marseille","lat":43.29658,"lon":5.37109,"is_reserved":false,"is_disabled":false,"rental_uris":{"android":"levelo://app?vid=b757ffbb-2b71-4330-9f60-5f8a9d46d16e","ios":"levelo://app?vid=b757ffbb-2b71-4330-9f60-5f8a9d46d16e"},"vehicle_type_id":"4","last_reported":1752084901,"current_range_meters":14800,"station_id":"","pricing_plan_id":"cebpf4jnsgd1na2vs0mg"},{"bike_id":"7d7fadfa-d0da-4e5c-8341-70ccc392ee85","system_id":"levelo_inurba_marseille","lat":43.26235,"lon":5.37415,"is_reserved":false,"is_disabled":false,"rental_uris":{"android":"levelo://app?vid=7d7fadfa-d0da-4e5c-8341-70ccc392ee85","ios":"levelo://app?vid=7d7fadfa-d0da-4e5c-8341-70ccc392ee85"},"vehicle_type_id":"4","last_reported":1752084901,"current_range_meters":14800,"station_id":"","pricing_plan_id":"cebpf4jnsgd1na2vs0mg"},{"bike_id":"93d6be08-2471-48d7-9948-c35dc9626201","system_id":"levelo_inurba_marseille","lat":43.31714,"lon":5.37647,"is_reserved":false,"is_disabled":false,"rental_uris":{"android":"levelo://app?vid=93d6be08-2471-48d7-9948-c35dc9626201","ios":"levelo://app?vid=93d6be08-2471-48d7-9948-c35dc9626201"},"vehicle_type_id":"4","last_reported":1752084901,"current_range_meters":14800,"station_id":"","pricing_plan_id":"cebpf4jnsgd1na2vs0mg"},{"bike_id":"ebbf1306-a609-4f25-ad63-8ab956df438d","system_id":"levelo_inurba_marseille","lat":43.28353,"lon":5.38638,"is_reserved":false,"is_disabled":false,"rental_uris":{"android":"levelo://app?vid=ebbf1306-a609-4f25-ad63-8ab956df438d","ios":"levelo://app?vid=ebbf1306-a609-4f25-ad63-8ab956df438d"},"vehicle_type_id":"4","last_reported":1752084901,"current_range_meters":14800,"station_id":"ce4bh492rcd13ifvqdvg","pricing_plan_id":"cebpf4jnsgd1na2vs0mg"},{"bike_id":"d6b14c12-0d86-4d9f-9ed5-310e45867cfd","system_id":"levelo_inurba_marseille","lat":43.2681,"lon":5.40274,"is_reserved":false,"is_disabled":false,"rental_uris":{"android":"levelo://app?vid=d6b14c12-0d86-4d9f-9ed5-310e45867cfd","ios":"levelo://app?vid=d6b14c12-0d86-4d9f-9ed5-310e45867cfd"},"vehicle_type_id":"4","last_reported":1752084901,"current_range_meters":14800,"station_id":"ce501612rcd8frsf0b60","pricing_plan_id":"cebpf4jnsgd1na2vs0mg"},{"bike_id":"6e5c2657-ccb8-4153-8b94-2143bc427a03","system_id":"levelo_inurba_marseille","lat":43.22499,"lon":5.34766,"is_reserved":false,"is_disabled":false,"rental_uris":{"android":"levelo://app?vid=6e5c2657-ccb8-4153-8b94-2143bc427a03","ios":"levelo://app?vid=6e5c2657-ccb8-4153-8b94-2143bc427a03"},"vehicle_type_id":"4","last_reported":1752084901,"current_range_meters":14800,"station_id":"st_cvj5dfep6f1abm77gieg","pricing_plan_id":"cebpf4jnsgd1na2vs0mg"},{"bike_id":"88e36905-9185-42cd-b3d3-afce6da694d5","system_id":"levelo_inurba_marseille","lat":43.26039,"lon":5.37532,"is_reserved":false,"is_disabled":false,"rental_uris":{"android":"levelo://app?vid=88e36905-9185-42cd-b3d3-afce6da694d5","ios":"levelo://app?vid=88e36905-9185-42cd-b3d3-afce6da694d5"},"vehicle_type_id":"4","last_reported":1752084901,"current_range_meters":15200,"station_id":"ce4bhgh2rcd13ifvqfa0","pricing_plan_id":"cebpf4jnsgd1na2vs0mg"},{"bike_id":"c88498d3-407a-4954-8385-87664db936e3","system_id":"levelo_inurba_marseille","lat":43.24811,"lon":5.37448,"is_reserved":false,"is_disabled":false,"rental_uris":{"android":"levelo://app?vid=c88498d3-407a-4954-8385-87664db936e3","ios":"levelo://app?vid=c88498d3-407a-4954-8385-87664db936e3"},"vehicle_type_id":"4","last_reported":1752084901,"current_range_meters":15200,"station_id":"ce4bhgh2rcd13ifvqfb0","pricing_plan_id":"cebpf4jnsgd1na2vs0mg"},{"bike_id":"ba188a47-43dd-4302-94ff-d27058e5ac4a","system_id":"levelo_inurba_marseille","lat":43.255,"lon":5.37648,"is_reserved":false,"is_disabled":false,"rental_uris":{"android":"levelo://app?vid=ba188a47-43dd-4302-94ff-d27058e5ac4a","ios":"levelo://app?vid=ba188a47-43dd-4302-94ff-d27058e5ac4a"},"vehicle_type_id":"4","last_reported":1752084901,"current_range_meters":15200,"station_id":"ce4bhh12rcd13ifvqff0","pricing_plan_id":"cebpf4jnsgd1na2vs0mg"},{"bike_id":"b28aa0a0-791c-4a08-9a16-c7bf6ea0ed5a","system_id":"levelo_inurba_marseille","lat":43.22502,"lon":5.34776,"is_reserved":false,"is_disabled":false,"rental_uris":{"android":"levelo://app?vid=b28aa0a0-791c-4a08-9a16-c7bf6ea0ed5a","ios":"levelo://app?vid=b28aa0a0-791c-4a08-9a16-c7bf6ea0ed5a"},"vehicle_type_id":"4","last_reported":1752084901,"current_range_meters":15200,"station_id":"st_cvj5dfep6f1abm77gieg","pricing_plan_id":"cebpf4jnsgd1na2vs0mg"},{"bike_id":"91828ce3-3c2e-42f4-8cdb-398219522ac1","system_id":"levelo_inurba_marseille","lat":43.27627,"lon":5.3611,"is_reserved":false,"is_disabled":false,"rental_uris":{"android":"levelo://app?vid=91828ce3-3c2e-42f4-8cdb-398219522ac1","ios":"levelo://app?vid=91828ce3-3c2e-42f4-8cdb-398219522ac1"},"vehicle_type_id":"4","last_reported":1752084901,"current_range_meters":16000,"station_id":"ce4bgj92rcd13ifvqbe0","pricing_plan_id":"cebpf4jnsgd1na2vs0mg"},{"bike_id":"430167f3-0b1b-46ce-ab53-df9da93c2bd5","system_id":"levelo_inurba_marseille","lat":43.2985,"lon":5.36262,"is_reserved":false,"is_disabled":false,"rental_uris":{"android":"levelo://app?vid=430167f3-0b1b-46ce-ab53-df9da93c2bd5","ios":"levelo://app?vid=430167f3-0b1b-46ce-ab53-df9da93c2bd5"},"vehicle_type_id":"4","last_reported":1752084901,"current_range_meters":16000,"station_id":"ce4bgpp2rcd13ifvqc3g","pricing_plan_id":"cebpf4jnsgd1na2vs0mg"},{"bike_id":"cbe24894-afae-401d-85be-0d598559e49e","system_id":"levelo_inurba_marseille","lat":43.246598,"lon":5.38167,"is_reserved":false,"is_disabled":false,"rental_uris":{"android":"levelo://app?vid=cbe24894-afae-401d-85be-0d598559e49e","ios":"levelo://app?vid=cbe24894-afae-401d-85be-0d598559e49e"},"vehicle_type_id":"4","last_reported":1752084901,"current_range_meters":16000,"station_id":"ce4bhih2rcd13ifvqfr0","pricing_plan_id":"cebpf4jnsgd1na2vs0mg"},{"bike_id":"b9540c66-043e-4c9a-9eed-76e5b1c05479","system_id":"levelo_inurba_marseille","lat":43.23152,"lon":5.43706,"is_reserved":false,"is_disabled":false,"rental_uris":{"android":"levelo://app?vid=b9540c66-043e-4c9a-9eed-76e5b1c05479","ios":"levelo://app?vid=b9540c66-043e-4c9a-9eed-76e5b1c05479"},"vehicle_type_id":"4","last_reported":1752084901,"current_range_meters":16000,"station_id":"ce4bhmp2rcd13ifvqgog","pricing_plan_id":"cebpf4jnsgd1na2vs0mg"},{"bike_id":"1be39311-cfa5-4cbb-b93d-fb0870d6e611","system_id":"levelo_inurba_marseille","lat":43.21199,"lon":5.35054,"is_reserved":false,"is_disabled":false,"rental_uris":{"android":"levelo://app?vid=1be39311-cfa5-4cbb-b93d-fb0870d6e611","ios":"levelo://app?vid=1be39311-cfa5-4cbb-b93d-fb0870d6e611"},"vehicle_type_id":"4","last_reported":1752084901,"current_range_meters":16000,"station_id":"st_cvj6sg6p6f1abm77japg","pricing_plan_id":"cebpf4jnsgd1na2vs0mg"},{"bike_id":"744de9c5-5760-4c22-96e4-d65a1e22d14f","system_id":"levelo_inurba_marseille","lat":43.32045,"lon":5.40931,"is_reserved":false,"is_disabled":false,"rental_uris":{"android":"levelo://app?vid=744de9c5-5760-4c22-96e4-d65a1e22d14f","ios":"levelo://app?vid=744de9c5-5760-4c22-96e4-d65a1e22d14f"},"vehicle_type_id":"4","last_reported":1752084901,"current_range_meters":16400,"station_id":"","pricing_plan_id":"cebpf4jnsgd1na2vs0mg"},{"bike_id":"320f2a33-deaa-4e0a-a3d5-c39ce8ad680a","system_id":"levelo_inurba_marseille","lat":43.315634,"lon":5.374334,"is_reserved":false,"is_disabled":false,"rental_uris":{"android":"levelo://app?vid=320f2a33-deaa-4e0a-a3d5-c39ce8ad680a","ios":"levelo://app?vid=320f2a33-deaa-4e0a-a3d5-c39ce8ad680a"},"vehicle_type_id":"4","last_reported":1752084901,"current_range_meters":16400,"station_id":"","pricing_plan_id":"cebpf4jnsgd1na2vs0mg"},{"bike_id":"4a69cd1c-a9bd-4bb6-b294-335eb9c2ac5d","system_id":"levelo_inurba_marseille","lat":43.26699,"lon":5.38191,"is_reserved":false,"is_disabled":false,"rental_uris":{"android":"levelo://app?vid=4a69cd1c-a9bd-4bb6-b294-335eb9c2ac5d","ios":"levelo://app?vid=4a69cd1c-a9bd-4bb6-b294-335eb9c2ac5d"},"vehicle_type_id":"4","last_reported":1752084901,"current_range_meters":16400,"station_id":"","pricing_plan_id":"cebpf4jnsgd1na2vs0mg"},{"bike_id":"b9aad953-9bed-4824-834b-f3f50fd8c58d","system_id":"levelo_inurba_marseille","lat":43.284222,"lon":5.349909,"is_reserved":false,"is_disabled":false,"rental_uris":{"android":"levelo://app?vid=b9aad953-9bed-4824-834b-f3f50fd8c58d","ios":"levelo://app?vid=b9aad953-9bed-4824-834b-f3f50fd8c58d"},"vehicle_type_id":"4","last_reported":1752084901,"current_range_meters":16400,"station_id":"ce4bhbh2rcd13ifvqepg","pricing_plan_id":"cebpf4jnsgd1na2vs0mg"},{"bike_id":"191da7b9-bed7-4843-89f5-6df19e076b49","system_id":"levelo_inurba_marseille","lat":43.28619,"lon":5.35097,"is_reserved":false,"is_disabled":false,"rental_uris":{"android":"levelo://app?vid=191da7b9-bed7-4843-89f5-6df19e076b49","ios":"levelo://app?vid=191da7b9-bed7-4843-89f5-6df19e076b49"},"vehicle_type_id":"4","last_reported":1752084901,"current_range_meters":16400,"station_id":"ce4bhch2rcd13ifvqeug","pricing_plan_id":"cebpf4jnsgd1na2vs0mg"},{"bike_id":"7dd4258d-8fe1-466b-bba8-036a896c4262","system_id":"levelo_inurba_marseille","lat":43.23195,"lon":5.35552,"is_reserved":false,"is_disabled":false,"rental_uris":{"android":"levelo://app?vid=7dd4258d-8fe1-466b-bba8-036a896c4262","ios":"levelo://app?vid=7dd4258d-8fe1-466b-bba8-036a896c4262"},"vehicle_type_id":"4","last_reported":1752084901,"current_range_meters":16400,"station_id":"ce4bhu92rcd13ifvqi70","pricing_plan_id":"cebpf4jnsgd1na2vs0mg"},{"bike_id":"0163d05f-58a1-4b43-90c6-da8aacadcaaa","system_id":"levelo_inurba_marseille","lat":43.304371,"lon":5.378426,"is_reserved":false,"is_disabled":false,"rental_uris":{"android":"levelo://app?vid=0163d05f-58a1-4b43-90c6-da8aacadcaaa","ios":"levelo://app?vid=0163d05f-58a1-4b43-90c6-da8aacadcaaa"},"vehicle_type_id":"4","last_reported":1752084901,"current_range_meters":16800,"station_id":"ce4bgup2rcd13ifvqcn0","pricing_plan_id":"cebpf4jnsgd1na2vs0mg"},{"bike_id":"8ca3e50a-a68f-4bbd-b142-7eaf2b9ed42c","system_id":"levelo_inurba_marseille","lat":43.28261,"lon":5.35065,"is_reserved":false,"is_disabled":false,"rental_uris":{"android":"levelo://app?vid=8ca3e50a-a68f-4bbd-b142-7eaf2b9ed42c","ios":"levelo://app?vid=8ca3e50a-a68f-4bbd-b142-7eaf2b9ed42c"},"vehicle_type_id":"4","last_reported":1752084901,"current_range_meters":16800,"station_id":"ce4bhbp2rcd13ifvqerg","pricing_plan_id":"cebpf4jnsgd1na2vs0mg"},{"bike_id":"1201c45c-3a9d-4223-9027-cfe199e542d0","system_id":"levelo_inurba_marseille","lat":43.282631,"lon":5.350572,"is_reserved":false,"is_disabled":false,"rental_uris":{"android":"levelo://app?vid=1201c45c-3a9d-4223-9027-cfe199e542d0","ios":"levelo://app?vid=1201c45c-3a9d-4223-9027-cfe199e542d0"},"vehicle_type_id":"4","last_reported":1752084901,"current_range_meters":16800,"station_id":"ce4bhbp2rcd13ifvqerg","pricing_plan_id":"cebpf4jnsgd1na2vs0mg"},{"bike_id":"2f2923b9-ab45-4f53-93e6-57a7fa5481c0","system_id":"levelo_inurba_marseille","lat":43.255024,"lon":5.376497,"is_reserved":false,"is_disabled":false,"rental_uris":{"android":"levelo://app?vid=2f2923b9-ab45-4f53-93e6-57a7fa5481c0","ios":"levelo://app?vid=2f2923b9-ab45-4f53-93e6-57a7fa5481c0"},"vehicle_type_id":"4","last_reported":1752084901,"current_range_meters":16800,"station_id":"ce4bhh12rcd13ifvqff0","pricing_plan_id":"cebpf4jnsgd1na2vs0mg"},{"bike_id":"367485b7-87d1-4616-a7ee-358054e3543b","system_id":"levelo_inurba_marseille","lat":43.2737,"lon":5.36258,"is_reserved":false,"is_disabled":false,"rental_uris":{"android":"levelo://app?vid=367485b7-87d1-4616-a7ee-358054e3543b","ios":"levelo://app?vid=367485b7-87d1-4616-a7ee-358054e3543b"},"vehicle_type_id":"4","last_reported":1752084901,"current_range_meters":17200,"station_id":"ce4bhbh2rcd13ifvqeo0","pricing_plan_id":"cebpf4jnsgd1na2vs0mg"},{"bike_id":"1ee3caf5-59c2-452b-913a-5b7e597c4fb3","system_id":"levelo_inurba_marseille","lat":43.27376,"lon":5.3625,"is_reserved":false,"is_disabled":false,"rental_uris":{"android":"levelo://app?vid=1ee3caf5-59c2-452b-913a-5b7e597c4fb3","ios":"levelo://app?vid=1ee3caf5-59c2-452b-913a-5b7e597c4fb3"},"vehicle_type_id":"4","last_reported":1752084901,"current_range_meters":17200,"station_id":"ce4bhbh2rcd13ifvqeo0","pricing_plan_id":"cebpf4jnsgd1na2vs0mg"},{"bike_id":"de8d5a3d-6620-44dc-b1ec-80ec8253da1b","system_id":"levelo_inurba_marseille","lat":43.28421,"lon":5.34977,"is_reserved":false,"is_disabled":false,"rental_uris":{"android":"levelo://app?vid=de8d5a3d-6620-44dc-b1ec-80ec8253da1b","ios":"levelo://app?vid=de8d5a3d-6620-44dc-b1ec-80ec8253da1b"},"vehicle_type_id":"4","last_reported":1752084901,"current_range_meters":17200,"station_id":"ce4bhbh2rcd13ifvqepg","pricing_plan_id":"cebpf4jnsgd1na2vs0mg"},{"bike_id":"9d2e056a-5a76-483e-bd70-1ba4cc8582d9","system_id":"levelo_inurba_marseille","lat":43.28266,"lon":5.35075,"is_reserved":false,"is_disabled":false,"rental_uris":{"android":"levelo://app?vid=9d2e056a-5a76-483e-bd70-1ba4cc8582d9","ios":"levelo://app?vid=9d2e056a-5a76-483e-bd70-1ba4cc8582d9"},"vehicle_type_id":"4","last_reported":1752084901,"current_range_meters":17200,"station_id":"ce4bhbp2rcd13ifvqerg","pricing_plan_id":"cebpf4jnsgd1na2vs0mg"},{"bike_id":"92db8c5b-bf30-43b4-9b76-415df938f614","system_id":"levelo_inurba_marseille","lat":43.25615,"lon":5.38218,"is_reserved":false,"is_disabled":false,"rental_uris":{"android":"levelo://app?vid=92db8c5b-bf30-43b4-9b76-415df938f614","ios":"levelo://app?vid=92db8c5b-bf30-43b4-9b76-415df938f614"},"vehicle_type_id":"4","last_reported":1752084901,"current_range_meters":17200,"station_id":"ce4bhih2rcd13ifvqfs0","pricing_plan_id":"cebpf4jnsgd1na2vs0mg"},{"bike_id":"bc79cf22-9600-43f9-855f-d2516f160b65","system_id":"levelo_inurba_marseille","lat":43.31418,"lon":5.375,"is_reserved":false,"is_disabled":false,"rental_uris":{"android":"levelo://app?vid=bc79cf22-9600-43f9-855f-d2516f160b65","ios":"levelo://app?vid=bc79cf22-9600-43f9-855f-d2516f160b65"},"vehicle_type_id":"4","last_reported":1752084901,"current_range_meters":17600,"station_id":"","pricing_plan_id":"cebpf4jnsgd1na2vs0mg"},{"bike_id":"36c387ea-be50-4028-8ecc-21605fe3e879","system_id":"levelo_inurba_marseille","lat":43.29362,"lon":5.42855,"is_reserved":false,"is_disabled":false,"rental_uris":{"android":"levelo://app?vid=36c387ea-be50-4028-8ecc-21605fe3e879","ios":"levelo://app?vid=36c387ea-be50-4028-8ecc-21605fe3e879"},"vehicle_type_id":"4","last_reported":1752084901,"current_range_meters":17600,"station_id":"","pricing_plan_id":"cebpf4jnsgd1na2vs0mg"},{"bike_id":"b904489d-b2c8-4b7e-b087-eb9c6301dffe","system_id":"levelo_inurba_marseille","lat":43.26231,"lon":5.37467,"is_reserved":false,"is_disabled":false,"rental_uris":{"android":"levelo://app?vid=b904489d-b2c8-4b7e-b087-eb9c6301dffe","ios":"levelo://app?vid=b904489d-b2c8-4b7e-b087-eb9c6301dffe"},"vehicle_type_id":"4","last_reported":1752084901,"current_range_meters":17600,"station_id":"","pricing_plan_id":"cebpf4jnsgd1na2vs0mg"},{"bike_id":"feaa7e3a-cbe4-4489-be11-8a12d7eec173","system_id":"levelo_inurba_marseille","lat":43.25159,"lon":5.42503,"is_reserved":false,"is_disabled":false,"rental_uris":{"android":"levelo://app?vid=feaa7e3a-cbe4-4489-be11-8a12d7eec173","ios":"levelo://app?vid=feaa7e3a-cbe4-4489-be11-8a12d7eec173"},"vehicle_type_id":"4","last_reported":1752084901,"current_range_meters":17600,"station_id":"","pricing_plan_id":"cebpf4jnsgd1na2vs0mg"},{"bike_id":"19b7d519-dee8-4395-88c2-5c7d2d9f9ea4","system_id":"levelo_inurba_marseille","lat":43.29711,"lon":5.36587,"is_reserved":false,"is_disabled":false,"rental_uris":{"android":"levelo://app?vid=19b7d519-dee8-4395-88c2-5c7d2d9f9ea4","ios":"levelo://app?vid=19b7d519-dee8-4395-88c2-5c7d2d9f9ea4"},"vehicle_type_id":"4","last_reported":1752084901,"current_range_meters":17600,"station_id":"ce4bgn12rcd13ifvqbt0","pricing_plan_id":"cebpf4jnsgd1na2vs0mg"},{"bike_id":"f53fe449-028f-4cad-9a61-b081180f8847","system_id":"levelo_inurba_marseille","lat":43.287957,"lon":5.391277,"is_reserved":false,"is_disabled":false,"rental_uris":{"android":"levelo://app?vid=f53fe449-028f-4cad-9a61-b081180f8847","ios":"levelo://app?vid=f53fe449-028f-4cad-9a61-b081180f8847"},"vehicle_type_id":"4","last_reported":1752084901,"current_range_meters":17600,"station_id":"ce4bh3h2rcd13ifvqdn0","pricing_plan_id":"cebpf4jnsgd1na2vs0mg"},{"bike_id":"3c2be974-f10a-47a0-ae30-b9e120db49ce","system_id":"levelo_inurba_marseille","lat":43.25482,"lon":5.37637,"is_reserved":false,"is_disabled":false,"rental_uris":{"android":"levelo://app?vid=3c2be974-f10a-47a0-ae30-b9e120db49ce","ios":"levelo://app?vid=3c2be974-f10a-47a0-ae30-b9e120db49ce"},"vehicle_type_id":"4","last_reported":1752084901,"current_range_meters":17600,"station_id":"ce4bhh12rcd13ifvqff0","pricing_plan_id":"cebpf4jnsgd1na2vs0mg"},{"bike_id":"87d13c3c-9453-4492-8a8f-f2b4c8e828c6","system_id":"levelo_inurba_marseille","lat":43.26177,"lon":5.37049,"is_reserved":false,"is_disabled":false,"rental_uris":{"android":"levelo://app?vid=87d13c3c-9453-4492-8a8f-f2b4c8e828c6","ios":"levelo://app?vid=87d13c3c-9453-4492-8a8f-f2b4c8e828c6"},"vehicle_type_id":"4","last_reported":1752084901,"current_range_meters":18000,"station_id":"","pricing_plan_id":"cebpf4jnsgd1na2vs0mg"},{"bike_id":"df8b97f3-f3d6-4664-bf58-6e64e3425e14","system_id":"levelo_inurba_marseille","lat":43.29843,"lon":5.36276,"is_reserved":false,"is_disabled":false,"rental_uris":{"android":"levelo://app?vid=df8b97f3-f3d6-4664-bf58-6e64e3425e14","ios":"levelo://app?vid=df8b97f3-f3d6-4664-bf58-6e64e3425e14"},"vehicle_type_id":"4","last_reported":1752084901,"current_range_meters":18000,"station_id":"ce4bgpp2rcd13ifvqc3g","pricing_plan_id":"cebpf4jnsgd1na2vs0mg"},{"bike_id":"45256b16-b131-4591-ae26-520bd0c04fc4","system_id":"levelo_inurba_marseille","lat":43.291967,"lon":5.357998,"is_reserved":false,"is_disabled":false,"rental_uris":{"android":"levelo://app?vid=45256b16-b131-4591-ae26-520bd0c04fc4","ios":"levelo://app?vid=45256b16-b131-4591-ae26-520bd0c04fc4"},"vehicle_type_id":"4","last_reported":1752084901,"current_range_meters":18000,"station_id":"ce4bhb12rcd13ifvqel0","pricing_plan_id":"cebpf4jnsgd1na2vs0mg"},{"bike_id":"c7e88ad0-ccb2-433f-8ee1-39e1d50d10f8","system_id":"levelo_inurba_marseille","lat":43.27391,"lon":5.36261,"is_reserved":false,"is_disabled":false,"rental_uris":{"android":"levelo://app?vid=c7e88ad0-ccb2-433f-8ee1-39e1d50d10f8","ios":"levelo://app?vid=c7e88ad0-ccb2-433f-8ee1-39e1d50d10f8"},"vehicle_type_id":"4","last_reported":1752084901,"current_range_meters":18000,"station_id":"ce4bhbh2rcd13ifvqeo0","pricing_plan_id":"cebpf4jnsgd1na2vs0mg"},{"bike_id":"fe393e70-3017-4f74-9643-ce2ab31a2adc","system_id":"levelo_inurba_marseille","lat":43.28623,"lon":5.351045,"is_reserved":false,"is_disabled":false,"rental_uris":{"android":"levelo://app?vid=fe393e70-3017-4f74-9643-ce2ab31a2adc","ios":"levelo://app?vid=fe393e70-3017-4f74-9643-ce2ab31a2adc"},"vehicle_type_id":"4","last_reported":1752084901,"current_range_meters":18000,"station_id":"ce4bhch2rcd13ifvqeug","pricing_plan_id":"cebpf4jnsgd1na2vs0mg"},{"bike_id":"85e3320e-8cee-43de-83f2-e982ac59c075","system_id":"levelo_inurba_marseille","lat":43.2251,"lon":5.34755,"is_reserved":false,"is_disabled":false,"rental_uris":{"android":"levelo://app?vid=85e3320e-8cee-43de-83f2-e982ac59c075","ios":"levelo://app?vid=85e3320e-8cee-43de-83f2-e982ac59c075"},"vehicle_type_id":"4","last_reported":1752084901,"current_range_meters":18000,"station_id":"st_cvj5dfep6f1abm77gieg","pricing_plan_id":"cebpf4jnsgd1na2vs0mg"},{"bike_id":"069759f3-8488-4973-b337-5e447fc27e24","system_id":"levelo_inurba_marseille","lat":43.2121,"lon":5.35042,"is_reserved":false,"is_disabled":false,"rental_uris":{"android":"levelo://app?vid=069759f3-8488-4973-b337-5e447fc27e24","ios":"levelo://app?vid=069759f3-8488-4973-b337-5e447fc27e24"},"vehicle_type_id":"4","last_reported":1752084901,"current_range_meters":18000,"station_id":"st_cvj6sg6p6f1abm77japg","pricing_plan_id":"cebpf4jnsgd1na2vs0mg"},{"bike_id":"cade331f-a6e3-4d01-8bc4-dd218718d65a","system_id":"levelo_inurba_marseille","lat":43.33776,"lon":5.3748,"is_reserved":false,"is_disabled":false,"rental_uris":{"android":"levelo://app?vid=cade331f-a6e3-4d01-8bc4-dd218718d65a","ios":"levelo://app?vid=cade331f-a6e3-4d01-8bc4-dd218718d65a"},"vehicle_type_id":"4","last_reported":1752084901,"current_range_meters":18800,"station_id":"","pricing_plan_id":"cebpf4jnsgd1na2vs0mg"},{"bike_id":"9f5e74ce-2459-4c6f-a171-f6d1e8a1ed83","system_id":"levelo_inurba_marseille","lat":43.31851,"lon":5.37562,"is_reserved":false,"is_disabled":false,"rental_uris":{"android":"levelo://app?vid=9f5e74ce-2459-4c6f-a171-f6d1e8a1ed83","ios":"levelo://app?vid=9f5e74ce-2459-4c6f-a171-f6d1e8a1ed83"},"vehicle_type_id":"4","last_reported":1752084901,"current_range_meters":18800,"station_id":"","pricing_plan_id":"cebpf4jnsgd1na2vs0mg"},{"bike_id":"32a45745-158f-4e9b-8347-39544e4e467d","system_id":"levelo_inurba_marseille","lat":43.28423,"lon":5.34987,"is_reserved":false,"is_disabled":false,"rental_uris":{"android":"levelo://app?vid=32a45745-158f-4e9b-8347-39544e4e467d","ios":"levelo://app?vid=32a45745-158f-4e9b-8347-39544e4e467d"},"vehicle_type_id":"4","last_reported":1752084901,"current_range_meters":18800,"station_id":"ce4bhbh2rcd13ifvqepg","pricing_plan_id":"cebpf4jnsgd1na2vs0mg"},{"bike_id":"0060d8b5-c948-44a3-b956-ae06328608cb","system_id":"levelo_inurba_marseille","lat":43.29224,"lon":5.36069,"is_reserved":false,"is_disabled":false,"rental_uris":{"android":"levelo://app?vid=0060d8b5-c948-44a3-b956-ae06328608cb","ios":"levelo://app?vid=0060d8b5-c948-44a3-b956-ae06328608cb"},"vehicle_type_id":"4","last_reported":1752084901,"current_range_meters":18800,"station_id":"ce4bhbh2rcd13ifvqeqg","pricing_plan_id":"cebpf4jnsgd1na2vs0mg"},{"bike_id":"99905753-dc58-47c3-a4e3-8dd14a40632c","system_id":"levelo_inurba_marseille","lat":43.28267,"lon":5.35041,"is_reserved":false,"is_disabled":false,"rental_uris":{"android":"levelo://app?vid=99905753-dc58-47c3-a4e3-8dd14a40632c","ios":"levelo://app?vid=99905753-dc58-47c3-a4e3-8dd14a40632c"},"vehicle_type_id":"4","last_reported":1752084901,"current_range_meters":18800,"station_id":"ce4bhbp2rcd13ifvqerg","pricing_plan_id":"cebpf4jnsgd1na2vs0mg"},{"bike_id":"29d6c75e-103c-41a4-909d-4d11dafb2724","system_id":"levelo_inurba_marseille","lat":43.27427,"lon":5.39424,"is_reserved":false,"is_disabled":false,"rental_uris":{"android":"levelo://app?vid=29d6c75e-103c-41a4-909d-4d11dafb2724","ios":"levelo://app?vid=29d6c75e-103c-41a4-909d-4d11dafb2724"},"vehicle_type_id":"4","last_reported":1752084901,"current_range_meters":18800,"station_id":"ce4bhdp2rcd13ifvqf20","pricing_plan_id":"cebpf4jnsgd1na2vs0mg"},{"bike_id":"f7db4f76-f9b4-4c58-81f0-17769d8a997d","system_id":"levelo_inurba_marseille","lat":43.25572,"lon":5.38208,"is_reserved":false,"is_disabled":false,"rental_uris":{"android":"levelo://app?vid=f7db4f76-f9b4-4c58-81f0-17769d8a997d","ios":"levelo://app?vid=f7db4f76-f9b4-4c58-81f0-17769d8a997d"},"vehicle_type_id":"4","last_reported":1752084901,"current_range_meters":18800,"station_id":"ce4bhih2rcd13ifvqfs0","pricing_plan_id":"cebpf4jnsgd1na2vs0mg"},{"bike_id":"7725683b-3883-4cb7-b23c-591c9a76b7b2","system_id":"levelo_inurba_marseille","lat":43.25615,"lon":5.38226,"is_reserved":false,"is_disabled":false,"rental_uris":{"android":"levelo://app?vid=7725683b-3883-4cb7-b23c-591c9a76b7b2","ios":"levelo://app?vid=7725683b-3883-4cb7-b23c-591c9a76b7b2"},"vehicle_type_id":"4","last_reported":1752084901,"current_range_meters":18800,"station_id":"ce4bhih2rcd13ifvqfs0","pricing_plan_id":"cebpf4jnsgd1na2vs0mg"},{"bike_id":"fde530d0-eeed-4692-bb9c-2c65ba0cdd9f","system_id":"levelo_inurba_marseille","lat":43.3086,"lon":5.42556,"is_reserved":false,"is_disabled":false,"rental_uris":{"android":"levelo://app?vid=fde530d0-eeed-4692-bb9c-2c65ba0cdd9f","ios":"levelo://app?vid=fde530d0-eeed-4692-bb9c-2c65ba0cdd9f"},"vehicle_type_id":"4","last_reported":1752084901,"current_range_meters":19200,"station_id":"","pricing_plan_id":"cebpf4jnsgd1na2vs0mg"},{"bike_id":"2377c003-119a-47d2-a2b3-5ad067c3e3f1","system_id":"levelo_inurba_marseille","lat":43.29585,"lon":5.36749,"is_reserved":false,"is_disabled":false,"rental_uris":{"android":"levelo://app?vid=2377c003-119a-47d2-a2b3-5ad067c3e3f1","ios":"levelo://app?vid=2377c003-119a-47d2-a2b3-5ad067c3e3f1"},"vehicle_type_id":"4","last_reported":1752084901,"current_range_meters":19200,"station_id":"ce4bgph2rcd13ifvqc2g","pricing_plan_id":"cebpf4jnsgd1na2vs0mg"},{"bike_id":"758ed1a4-3a7b-4a00-a1d2-077f5cf1b6e9","system_id":"levelo_inurba_marseille","lat":43.26194,"lon":5.37448,"is_reserved":false,"is_disabled":false,"rental_uris":{"android":"levelo://app?vid=758ed1a4-3a7b-4a00-a1d2-077f5cf1b6e9","ios":"levelo://app?vid=758ed1a4-3a7b-4a00-a1d2-077f5cf1b6e9"},"vehicle_type_id":"4","last_reported":1752084901,"current_range_meters":19200,"station_id":"ce4bhgp2rcd13ifvqfc0","pricing_plan_id":"cebpf4jnsgd1na2vs0mg"},{"bike_id":"e24235e2-2d9e-430e-92e5-de9139aeb518","system_id":"levelo_inurba_marseille","lat":43.25115,"lon":5.40323,"is_reserved":false,"is_disabled":false,"rental_uris":{"android":"levelo://app?vid=e24235e2-2d9e-430e-92e5-de9139aeb518","ios":"levelo://app?vid=e24235e2-2d9e-430e-92e5-de9139aeb518"},"vehicle_type_id":"4","last_reported":1752084901,"current_range_meters":19200,"station_id":"ce4bhlh2rcd13ifvqgig","pricing_plan_id":"cebpf4jnsgd1na2vs0mg"},{"bike_id":"cc63da02-fffb-4f4c-8416-18cf7673613b","system_id":"levelo_inurba_marseille","lat":43.31063,"lon":5.4009,"is_reserved":false,"is_disabled":false,"rental_uris":{"android":"levelo://app?vid=cc63da02-fffb-4f4c-8416-18cf7673613b","ios":"levelo://app?vid=cc63da02-fffb-4f4c-8416-18cf7673613b"},"vehicle_type_id":"4","last_reported":1752084901,"current_range_meters":19600,"station_id":"","pricing_plan_id":"cebpf4jnsgd1na2vs0mg"},{"bike_id":"fa87fcb5-aacb-41a1-a789-0296bbd02085","system_id":"levelo_inurba_marseille","lat":43.24584,"lon":5.37367,"is_reserved":false,"is_disabled":false,"rental_uris":{"android":"levelo://app?vid=fa87fcb5-aacb-41a1-a789-0296bbd02085","ios":"levelo://app?vid=fa87fcb5-aacb-41a1-a789-0296bbd02085"},"vehicle_type_id":"4","last_reported":1752084901,"current_range_meters":19600,"station_id":"","pricing_plan_id":"cebpf4jnsgd1na2vs0mg"},{"bike_id":"4e209b0c-855f-4b51-8120-2faef8673853","system_id":"levelo_inurba_marseille","lat":43.30611,"lon":5.36908,"is_reserved":false,"is_disabled":false,"rental_uris":{"android":"levelo://app?vid=4e209b0c-855f-4b51-8120-2faef8673853","ios":"levelo://app?vid=4e209b0c-855f-4b51-8120-2faef8673853"},"vehicle_type_id":"4","last_reported":1752084901,"current_range_meters":19600,"station_id":"","pricing_plan_id":"cebpf4jnsgd1na2vs0mg"},{"bike_id":"349ff3b8-c875-4c6d-ad28-0372560d9cc3","system_id":"levelo_inurba_marseille","lat":43.26022,"lon":5.37552,"is_reserved":false,"is_disabled":false,"rental_uris":{"android":"levelo://app?vid=349ff3b8-c875-4c6d-ad28-0372560d9cc3","ios":"levelo://app?vid=349ff3b8-c875-4c6d-ad28-0372560d9cc3"},"vehicle_type_id":"4","last_reported":1752084901,"current_range_meters":19600,"station_id":"ce4bhgh2rcd13ifvqfa0","pricing_plan_id":"cebpf4jnsgd1na2vs0mg"},{"bike_id":"47df1d66-9b17-4333-b0b8-46f879498bef","system_id":"levelo_inurba_marseille","lat":43.2693,"lon":5.38927,"is_reserved":false,"is_disabled":false,"rental_uris":{"android":"levelo://app?vid=47df1d66-9b17-4333-b0b8-46f879498bef","ios":"levelo://app?vid=47df1d66-9b17-4333-b0b8-46f879498bef"},"vehicle_type_id":"4","last_reported":1752084901,"current_range_meters":19600,"station_id":"ce4bhhh2rcd13ifvqfl0","pricing_plan_id":"cebpf4jnsgd1na2vs0mg"},{"bike_id":"cdb427f2-ce89-44c4-ad60-1317a37bae27","system_id":"levelo_inurba_marseille","lat":43.27205,"lon":5.39186,"is_reserved":false,"is_disabled":false,"rental_uris":{"android":"levelo://app?vid=cdb427f2-ce89-44c4-ad60-1317a37bae27","ios":"levelo://app?vid=cdb427f2-ce89-44c4-ad60-1317a37bae27"},"vehicle_type_id":"4","last_reported":1752084901,"current_range_meters":19600,"station_id":"ce4bhhp2rcd13ifvqfm0","pricing_plan_id":"cebpf4jnsgd1na2vs0mg"},{"bike_id":"89c88601-23fc-46eb-8f34-723cccb1bf9d","system_id":"levelo_inurba_marseille","lat":43.27503,"lon":5.42447,"is_reserved":false,"is_disabled":false,"rental_uris":{"android":"levelo://app?vid=89c88601-23fc-46eb-8f34-723cccb1bf9d","ios":"levelo://app?vid=89c88601-23fc-46eb-8f34-723cccb1bf9d"},"vehicle_type_id":"4","last_reported":1752084901,"current_range_meters":19600,"station_id":"ce4bhn92rcd13ifvqgrg","pricing_plan_id":"cebpf4jnsgd1na2vs0mg"},{"bike_id":"b49a87a9-6259-475b-a854-4d5ff8075199","system_id":"levelo_inurba_marseille","lat":43.29786,"lon":5.3934,"is_reserved":false,"is_disabled":false,"rental_uris":{"android":"levelo://app?vid=b49a87a9-6259-475b-a854-4d5ff8075199","ios":"levelo://app?vid=b49a87a9-6259-475b-a854-4d5ff8075199"},"vehicle_type_id":"4","last_reported":1752084901,"current_range_meters":19600,"station_id":"chh1huq6cuj3fo74tm60","pricing_plan_id":"cebpf4jnsgd1na2vs0mg"},{"bike_id":"3b30cb48-100f-4f80-ae9c-c05fdbf5ac62","system_id":"levelo_inurba_marseille","lat":43.25451,"lon":5.37946,"is_reserved":false,"is_disabled":false,"rental_uris":{"android":"levelo://app?vid=3b30cb48-100f-4f80-ae9c-c05fdbf5ac62","ios":"levelo://app?vid=3b30cb48-100f-4f80-ae9c-c05fdbf5ac62"},"vehicle_type_id":"4","last_reported":1752084901,"current_range_meters":20000,"station_id":"","pricing_plan_id":"cebpf4jnsgd1na2vs0mg"},{"bike_id":"bd5228ab-002e-4f81-bbd3-2baf5452f591","system_id":"levelo_inurba_marseille","lat":43.27831,"lon":5.41436,"is_reserved":false,"is_disabled":false,"rental_uris":{"android":"levelo://app?vid=bd5228ab-002e-4f81-bbd3-2baf5452f591","ios":"levelo://app?vid=bd5228ab-002e-4f81-bbd3-2baf5452f591"},"vehicle_type_id":"4","last_reported":1752084901,"current_range_meters":20000,"station_id":"","pricing_plan_id":"cebpf4jnsgd1na2vs0mg"},{"bike_id":"e2bb7ee9-ac0d-44b3-bb61-6afabc57f457","system_id":"levelo_inurba_marseille","lat":43.27387,"lon":5.36224,"is_reserved":false,"is_disabled":false,"rental_uris":{"android":"levelo://app?vid=e2bb7ee9-ac0d-44b3-bb61-6afabc57f457","ios":"levelo://app?vid=e2bb7ee9-ac0d-44b3-bb61-6afabc57f457"},"vehicle_type_id":"4","last_reported":1752084901,"current_range_meters":20000,"station_id":"ce4bhbh2rcd13ifvqeo0","pricing_plan_id":"cebpf4jnsgd1na2vs0mg"},{"bike_id":"33ca56ee-489a-4240-9d4c-667abf911c67","system_id":"levelo_inurba_marseille","lat":43.27375,"lon":5.36225,"is_reserved":false,"is_disabled":false,"rental_uris":{"android":"levelo://app?vid=33ca56ee-489a-4240-9d4c-667abf911c67","ios":"levelo://app?vid=33ca56ee-489a-4240-9d4c-667abf911c67"},"vehicle_type_id":"4","last_reported":1752084901,"current_range_meters":20000,"station_id":"ce4bhbh2rcd13ifvqeo0","pricing_plan_id":"cebpf4jnsgd1na2vs0mg"},{"bike_id":"d29d784e-d8e4-46dd-bb3f-f0c18ed60e4d","system_id":"levelo_inurba_marseille","lat":43.2922,"lon":5.3603,"is_reserved":false,"is_disabled":false,"rental_uris":{"android":"levelo://app?vid=d29d784e-d8e4-46dd-bb3f-f0c18ed60e4d","ios":"levelo://app?vid=d29d784e-d8e4-46dd-bb3f-f0c18ed60e4d"},"vehicle_type_id":"4","last_reported":1752084901,"current_range_meters":20000,"station_id":"ce4bhbh2rcd13ifvqeqg","pricing_plan_id":"cebpf4jnsgd1na2vs0mg"},{"bike_id":"4e89a14c-7f81-4b2f-8ad5-7cd73836a167","system_id":"levelo_inurba_marseille","lat":43.28264,"lon":5.35075,"is_reserved":false,"is_disabled":false,"rental_uris":{"android":"levelo://app?vid=4e89a14c-7f81-4b2f-8ad5-7cd73836a167","ios":"levelo://app?vid=4e89a14c-7f81-4b2f-8ad5-7cd73836a167"},"vehicle_type_id":"4","last_reported":1752084901,"current_range_meters":20000,"station_id":"ce4bhbp2rcd13ifvqerg","pricing_plan_id":"cebpf4jnsgd1na2vs0mg"},{"bike_id":"2b2517c9-9c88-4d99-95a4-7c894082fd14","system_id":"levelo_inurba_marseille","lat":43.28248,"lon":5.3506,"is_reserved":false,"is_disabled":false,"rental_uris":{"android":"levelo://app?vid=2b2517c9-9c88-4d99-95a4-7c894082fd14","ios":"levelo://app?vid=2b2517c9-9c88-4d99-95a4-7c894082fd14"},"vehicle_type_id":"4","last_reported":1752084901,"current_range_meters":20000,"station_id":"ce4bhbp2rcd13ifvqerg","pricing_plan_id":"cebpf4jnsgd1na2vs0mg"},{"bike_id":"beccceff-fb95-4cb6-9b0f-7251567f3776","system_id":"levelo_inurba_marseille","lat":43.24809,"lon":5.37454,"is_reserved":false,"is_disabled":false,"rental_uris":{"android":"levelo://app?vid=beccceff-fb95-4cb6-9b0f-7251567f3776","ios":"levelo://app?vid=beccceff-fb95-4cb6-9b0f-7251567f3776"},"vehicle_type_id":"4","last_reported":1752084901,"current_range_meters":20000,"station_id":"ce4bhgh2rcd13ifvqfb0","pricing_plan_id":"cebpf4jnsgd1na2vs0mg"},{"bike_id":"dcc5c73e-402b-4587-af5d-58c239b1cf9a","system_id":"levelo_inurba_marseille","lat":43.26202,"lon":5.3742,"is_reserved":false,"is_disabled":false,"rental_uris":{"android":"levelo://app?vid=dcc5c73e-402b-4587-af5d-58c239b1cf9a","ios":"levelo://app?vid=dcc5c73e-402b-4587-af5d-58c239b1cf9a"},"vehicle_type_id":"4","last_reported":1752084901,"current_range_meters":20000,"station_id":"ce4bhgp2rcd13ifvqfc0","pricing_plan_id":"cebpf4jnsgd1na2vs0mg"},{"bike_id":"d84fcb78-434e-4857-a59b-bf1ff23ff44a","system_id":"levelo_inurba_marseille","lat":43.28159,"lon":5.42637,"is_reserved":false,"is_disabled":false,"rental_uris":{"android":"levelo://app?vid=d84fcb78-434e-4857-a59b-bf1ff23ff44a","ios":"levelo://app?vid=d84fcb78-434e-4857-a59b-bf1ff23ff44a"},"vehicle_type_id":"4","last_reported":1752084901,"current_range_meters":20000,"station_id":"ce4bhnh2rcd13ifvqgug","pricing_plan_id":"cebpf4jnsgd1na2vs0mg"},{"bike_id":"d3243029-3e59-4ed5-b9be-163641c9427e","system_id":"levelo_inurba_marseille","lat":43.31886,"lon":5.40742,"is_reserved":false,"is_disabled":false,"rental_uris":{"android":"levelo://app?vid=d3243029-3e59-4ed5-b9be-163641c9427e","ios":"levelo://app?vid=d3243029-3e59-4ed5-b9be-163641c9427e"},"vehicle_type_id":"4","last_reported":1752084901,"current_range_meters":20000,"station_id":"ce4bhq12rcd13ifvqhig","pricing_plan_id":"cebpf4jnsgd1na2vs0mg"},{"bike_id":"ee1ac907-8623-4d00-ac01-d41dd90be9fe","system_id":"levelo_inurba_marseille","lat":43.2119,"lon":5.35073,"is_reserved":false,"is_disabled":false,"rental_uris":{"android":"levelo://app?vid=ee1ac907-8623-4d00-ac01-d41dd90be9fe","ios":"levelo://app?vid=ee1ac907-8623-4d00-ac01-d41dd90be9fe"},"vehicle_type_id":"4","last_reported":1752084901,"current_range_meters":20000,"station_id":"st_cvj6sg6p6f1abm77japg","pricing_plan_id":"cebpf4jnsgd1na2vs0mg"},{"bike_id":"24b17f7b-dff1-4936-b27a-7c2c6813a894","system_id":"levelo_inurba_marseille","lat":43.245861,"lon":5.373754,"is_reserved":false,"is_disabled":false,"rental_uris":{"android":"levelo://app?vid=24b17f7b-dff1-4936-b27a-7c2c6813a894","ios":"levelo://app?vid=24b17f7b-dff1-4936-b27a-7c2c6813a894"},"vehicle_type_id":"4","last_reported":1752084901,"current_range_meters":20400,"station_id":"","pricing_plan_id":"cebpf4jnsgd1na2vs0mg"},{"bike_id":"55eb3ee3-207d-45c9-a356-7e275a6ee08e","system_id":"levelo_inurba_marseille","lat":43.322208,"lon":5.407363,"is_reserved":false,"is_disabled":false,"rental_uris":{"android":"levelo://app?vid=55eb3ee3-207d-45c9-a356-7e275a6ee08e","ios":"levelo://app?vid=55eb3ee3-207d-45c9-a356-7e275a6ee08e"},"vehicle_type_id":"4","last_reported":1752084901,"current_range_meters":20400,"station_id":"ce4bh092rcd13ifvqd30","pricing_plan_id":"cebpf4jnsgd1na2vs0mg"},{"bike_id":"d283b3ce-28ad-4b5e-a397-4f25536715d1","system_id":"levelo_inurba_marseille","lat":43.27369,"lon":5.3625,"is_reserved":false,"is_disabled":false,"rental_uris":{"android":"levelo://app?vid=d283b3ce-28ad-4b5e-a397-4f25536715d1","ios":"levelo://app?vid=d283b3ce-28ad-4b5e-a397-4f25536715d1"},"vehicle_type_id":"4","last_reported":1752084901,"current_range_meters":20400,"station_id":"ce4bhbh2rcd13ifvqeo0","pricing_plan_id":"cebpf4jnsgd1na2vs0mg"},{"bike_id":"10c59449-1e22-41d8-be57-73de9f1e8e96","system_id":"levelo_inurba_marseille","lat":43.28425,"lon":5.34952,"is_reserved":false,"is_disabled":false,"rental_uris":{"android":"levelo://app?vid=10c59449-1e22-41d8-be57-73de9f1e8e96","ios":"levelo://app?vid=10c59449-1e22-41d8-be57-73de9f1e8e96"},"vehicle_type_id":"4","last_reported":1752084901,"current_range_meters":20400,"station_id":"ce4bhbh2rcd13ifvqepg","pricing_plan_id":"cebpf4jnsgd1na2vs0mg"},{"bike_id":"ab5d5fcf-9aa2-47fc-bf4e-dd8601d15f1c","system_id":"levelo_inurba_marseille","lat":43.28425,"lon":5.3499,"is_reserved":false,"is_disabled":false,"rental_uris":{"android":"levelo://app?vid=ab5d5fcf-9aa2-47fc-bf4e-dd8601d15f1c","ios":"levelo://app?vid=ab5d5fcf-9aa2-47fc-bf4e-dd8601d15f1c"},"vehicle_type_id":"4","last_reported":1752084901,"current_range_meters":20400,"station_id":"ce4bhbh2rcd13ifvqepg","pricing_plan_id":"cebpf4jnsgd1na2vs0mg"},{"bike_id":"0e055446-1a25-4d64-8b1f-e6595d6f372e","system_id":"levelo_inurba_marseille","lat":43.28618,"lon":5.35121,"is_reserved":false,"is_disabled":false,"rental_uris":{"android":"levelo://app?vid=0e055446-1a25-4d64-8b1f-e6595d6f372e","ios":"levelo://app?vid=0e055446-1a25-4d64-8b1f-e6595d6f372e"},"vehicle_type_id":"4","last_reported":1752084901,"current_range_meters":20400,"station_id":"ce4bhch2rcd13ifvqeug","pricing_plan_id":"cebpf4jnsgd1na2vs0mg"},{"bike_id":"9239d50f-454f-4cfe-bb52-525aa9c261e6","system_id":"levelo_inurba_marseille","lat":43.286165,"lon":5.351015,"is_reserved":false,"is_disabled":false,"rental_uris":{"android":"levelo://app?vid=9239d50f-454f-4cfe-bb52-525aa9c261e6","ios":"levelo://app?vid=9239d50f-454f-4cfe-bb52-525aa9c261e6"},"vehicle_type_id":"4","last_reported":1752084901,"current_range_meters":20400,"station_id":"ce4bhch2rcd13ifvqeug","pricing_plan_id":"cebpf4jnsgd1na2vs0mg"},{"bike_id":"6a354a12-93bf-4b39-84f5-3c48c161dc12","system_id":"levelo_inurba_marseille","lat":43.26556,"lon":5.37284,"is_reserved":false,"is_disabled":false,"rental_uris":{"android":"levelo://app?vid=6a354a12-93bf-4b39-84f5-3c48c161dc12","ios":"levelo://app?vid=6a354a12-93bf-4b39-84f5-3c48c161dc12"},"vehicle_type_id":"4","last_reported":1752084901,"current_range_meters":20400,"station_id":"ce4bhg12rcd13ifvqf70","pricing_plan_id":"cebpf4jnsgd1na2vs0mg"},{"bike_id":"310baaf4-91dd-437d-9a03-aa952b8a94ee","system_id":"levelo_inurba_marseille","lat":43.30134,"lon":5.39846,"is_reserved":false,"is_disabled":false,"rental_uris":{"android":"levelo://app?vid=310baaf4-91dd-437d-9a03-aa952b8a94ee","ios":"levelo://app?vid=310baaf4-91dd-437d-9a03-aa952b8a94ee"},"vehicle_type_id":"4","last_reported":1752084901,"current_range_meters":20800,"station_id":"ce4bh0h2rcd13ifvqd40","pricing_plan_id":"cebpf4jnsgd1na2vs0mg"},{"bike_id":"c9b5b835-5930-47ef-a19d-a9426c9cf3a5","system_id":"levelo_inurba_marseille","lat":43.27376,"lon":5.36255,"is_reserved":false,"is_disabled":false,"rental_uris":{"android":"levelo://app?vid=c9b5b835-5930-47ef-a19d-a9426c9cf3a5","ios":"levelo://app?vid=c9b5b835-5930-47ef-a19d-a9426c9cf3a5"},"vehicle_type_id":"4","last_reported":1752084901,"current_range_meters":20800,"station_id":"ce4bhbh2rcd13ifvqeo0","pricing_plan_id":"cebpf4jnsgd1na2vs0mg"},{"bike_id":"6006a9aa-40e9-4dd0-9916-778076e2eaee","system_id":"levelo_inurba_marseille","lat":43.28428,"lon":5.34992,"is_reserved":false,"is_disabled":false,"rental_uris":{"android":"levelo://app?vid=6006a9aa-40e9-4dd0-9916-778076e2eaee","ios":"levelo://app?vid=6006a9aa-40e9-4dd0-9916-778076e2eaee"},"vehicle_type_id":"4","last_reported":1752084901,"current_range_meters":20800,"station_id":"ce4bhbh2rcd13ifvqepg","pricing_plan_id":"cebpf4jnsgd1na2vs0mg"},{"bike_id":"95e4f479-cca0-4e20-9ef1-9fb7e08aea97","system_id":"levelo_inurba_marseille","lat":43.27916,"lon":5.39581,"is_reserved":false,"is_disabled":false,"rental_uris":{"android":"levelo://app?vid=95e4f479-cca0-4e20-9ef1-9fb7e08aea97","ios":"levelo://app?vid=95e4f479-cca0-4e20-9ef1-9fb7e08aea97"},"vehicle_type_id":"4","last_reported":1752084901,"current_range_meters":20800,"station_id":"ce4bhf92rcd13ifvqf40","pricing_plan_id":"cebpf4jnsgd1na2vs0mg"},{"bike_id":"859089b9-e587-42da-9eb1-bedbd05dfec5","system_id":"levelo_inurba_marseille","lat":43.27559,"lon":5.38436,"is_reserved":false,"is_disabled":false,"rental_uris":{"android":"levelo://app?vid=859089b9-e587-42da-9eb1-bedbd05dfec5","ios":"levelo://app?vid=859089b9-e587-42da-9eb1-bedbd05dfec5"},"vehicle_type_id":"4","last_reported":1752084901,"current_range_meters":20800,"station_id":"ce4bhh92rcd13ifvqfi0","pricing_plan_id":"cebpf4jnsgd1na2vs0mg"},{"bike_id":"033d7f31-9a91-4330-b4c1-742b302a574a","system_id":"levelo_inurba_marseille","lat":43.27977,"lon":5.41639,"is_reserved":false,"is_disabled":false,"rental_uris":{"android":"levelo://app?vid=033d7f31-9a91-4330-b4c1-742b302a574a","ios":"levelo://app?vid=033d7f31-9a91-4330-b4c1-742b302a574a"},"vehicle_type_id":"4","last_reported":1752084901,"current_range_meters":20800,"station_id":"ce4bho12rcd13ifvqh1g","pricing_plan_id":"cebpf4jnsgd1na2vs0mg"},{"bike_id":"37d52a77-a909-4260-8385-667ed0dc6f01","system_id":"levelo_inurba_marseille","lat":43.299257,"lon":5.374755,"is_reserved":false,"is_disabled":false,"rental_uris":{"android":"levelo://app?vid=37d52a77-a909-4260-8385-667ed0dc6f01","ios":"levelo://app?vid=37d52a77-a909-4260-8385-667ed0dc6f01"},"vehicle_type_id":"4","last_reported":1752084901,"current_range_meters":21600,"station_id":"","pricing_plan_id":"cebpf4jnsgd1na2vs0mg"},{"bike_id":"ab521df9-ab36-4a3d-a446-31ee393c87dd","system_id":"levelo_inurba_marseille","lat":43.30868,"lon":5.40369,"is_reserved":false,"is_disabled":false,"rental_uris":{"android":"levelo://app?vid=ab521df9-ab36-4a3d-a446-31ee393c87dd","ios":"levelo://app?vid=ab521df9-ab36-4a3d-a446-31ee393c87dd"},"vehicle_type_id":"4","last_reported":1752084901,"current_range_meters":21600,"station_id":"","pricing_plan_id":"cebpf4jnsgd1na2vs0mg"},{"bike_id":"5ca8a0db-0821-49ba-8289-50b69b2d817d","system_id":"levelo_inurba_marseille","lat":43.295254,"lon":5.385234,"is_reserved":false,"is_disabled":false,"rental_uris":{"android":"levelo://app?vid=5ca8a0db-0821-49ba-8289-50b69b2d817d","ios":"levelo://app?vid=5ca8a0db-0821-49ba-8289-50b69b2d817d"},"vehicle_type_id":"4","last_reported":1752084901,"current_range_meters":21600,"station_id":"ce4bgih2rcd13ifvqba0","pricing_plan_id":"cebpf4jnsgd1na2vs0mg"},{"bike_id":"2849a863-7fab-44c6-b073-4cbb9c6b543a","system_id":"levelo_inurba_marseille","lat":43.29524,"lon":5.39406,"is_reserved":false,"is_disabled":false,"rental_uris":{"android":"levelo://app?vid=2849a863-7fab-44c6-b073-4cbb9c6b543a","ios":"levelo://app?vid=2849a863-7fab-44c6-b073-4cbb9c6b543a"},"vehicle_type_id":"4","last_reported":1752084901,"current_range_meters":21600,"station_id":"ce4bh292rcd13ifvqdf0","pricing_plan_id":"cebpf4jnsgd1na2vs0mg"},{"bike_id":"8f89e4f3-495a-4317-bd6d-37a19186d65b","system_id":"levelo_inurba_marseille","lat":43.33722,"lon":5.39199,"is_reserved":false,"is_disabled":false,"rental_uris":{"android":"levelo://app?vid=8f89e4f3-495a-4317-bd6d-37a19186d65b","ios":"levelo://app?vid=8f89e4f3-495a-4317-bd6d-37a19186d65b"},"vehicle_type_id":"4","last_reported":1752084901,"current_range_meters":21600,"station_id":"ce4bhr92rcd13ifvqhsg","pricing_plan_id":"cebpf4jnsgd1na2vs0mg"},{"bike_id":"d6183b14-14ca-44c7-b355-9bc124d67e93","system_id":"levelo_inurba_marseille","lat":43.31497,"lon":5.38016,"is_reserved":false,"is_disabled":false,"rental_uris":{"android":"levelo://app?vid=d6183b14-14ca-44c7-b355-9bc124d67e93","ios":"levelo://app?vid=d6183b14-14ca-44c7-b355-9bc124d67e93"},"vehicle_type_id":"4","last_reported":1752084901,"current_range_meters":21600,"station_id":"ce4bhsp2rcd13ifvqi50","pricing_plan_id":"cebpf4jnsgd1na2vs0mg"},{"bike_id":"b622dadd-cca6-42e7-87d2-efc245e16d3b","system_id":"levelo_inurba_marseille","lat":43.29851,"lon":5.36268,"is_reserved":false,"is_disabled":false,"rental_uris":{"android":"levelo://app?vid=b622dadd-cca6-42e7-87d2-efc245e16d3b","ios":"levelo://app?vid=b622dadd-cca6-42e7-87d2-efc245e16d3b"},"vehicle_type_id":"4","last_reported":1752084901,"current_range_meters":22000,"station_id":"ce4bgpp2rcd13ifvqc3g","pricing_plan_id":"cebpf4jnsgd1na2vs0mg"},{"bike_id":"e510ade2-3bf1-4e76-bfa8-7ebe6d4288a2","system_id":"levelo_inurba_marseille","lat":43.28427,"lon":5.34982,"is_reserved":false,"is_disabled":false,"rental_uris":{"android":"levelo://app?vid=e510ade2-3bf1-4e76-bfa8-7ebe6d4288a2","ios":"levelo://app?vid=e510ade2-3bf1-4e76-bfa8-7ebe6d4288a2"},"vehicle_type_id":"4","last_reported":1752084901,"current_range_meters":22000,"station_id":"ce4bhbh2rcd13ifvqepg","pricing_plan_id":"cebpf4jnsgd1na2vs0mg"},{"bike_id":"a37c81c5-d096-4e6d-b1b3-5bbb8251fbd0","system_id":"levelo_inurba_marseille","lat":43.24392,"lon":5.37061,"is_reserved":false,"is_disabled":false,"rental_uris":{"android":"levelo://app?vid=a37c81c5-d096-4e6d-b1b3-5bbb8251fbd0","ios":"levelo://app?vid=a37c81c5-d096-4e6d-b1b3-5bbb8251fbd0"},"vehicle_type_id":"4","last_reported":1752084901,"current_range_meters":22000,"station_id":"ce4bhhh2rcd13ifvqfk0","pricing_plan_id":"cebpf4jnsgd1na2vs0mg"},{"bike_id":"99f7bb54-3b7f-43ea-b09b-57093e41c137","system_id":"levelo_inurba_marseille","lat":43.25112,"lon":5.40322,"is_reserved":false,"is_disabled":false,"rental_uris":{"android":"levelo://app?vid=99f7bb54-3b7f-43ea-b09b-57093e41c137","ios":"levelo://app?vid=99f7bb54-3b7f-43ea-b09b-57093e41c137"},"vehicle_type_id":"4","last_reported":1752084901,"current_range_meters":22000,"station_id":"ce4bhlh2rcd13ifvqgig","pricing_plan_id":"cebpf4jnsgd1na2vs0mg"},{"bike_id":"4da5d463-3ec2-4443-a38b-2551d2f31039","system_id":"levelo_inurba_marseille","lat":43.22504,"lon":5.34781,"is_reserved":false,"is_disabled":false,"rental_uris":{"android":"levelo://app?vid=4da5d463-3ec2-4443-a38b-2551d2f31039","ios":"levelo://app?vid=4da5d463-3ec2-4443-a38b-2551d2f31039"},