{"last_updated":1729112888,"ttl":60,"version":"2.2","data":{"bikes":[{"bike_id":"60882861-bf8c-4d22-964f-ecff7d884ae5","system_id":"levelo_inurba_marseille","lat":43.24999,"lon":5.38928,"is_reserved":false,"is_disabled":false,"rental_uris":{"android":"levelo://app?vid=60882861-bf8c-4d22-964f-ecff7d884ae5","ios":"levelo://app?vid=60882861-bf8c-4d22-964f-ecff7d884ae5"},"vehicle_type_id":"4","last_reported":1729112888,"current_range_meters":38800,"station_id":"ce4bhgp2rcd13ifvqfd0","pricing_plan_id":"cebpf4jnsgd1na2vs0mg"},{"bike_id":"43cd7b5a-c989-427b-b9c5-6da18d1e2981","system_id":"levelo_inurba_marseille","lat":43.31689,"lon":5.4046,"is_reserved":false,"is_disabled":false,"rental_uris":{"android":"levelo://app?vid=43cd7b5a-c989-427b-b9c5-6da18d1e2981","ios":"levelo://app?vid=43cd7b5a-c989-427b-b9c5-6da18d1e2981"},"vehicle_type_id":"4","last_reported":1729112888,"current_range_meters":4400,"station_id":"ce4bh012rcd13ifvqd00","pricing_plan_id":"cebpf4jnsgd1na2vs0mg"},{"bike_id":"38af802b-0dd3-4001-8bdf-786db676d355","system_id":"levelo_inurba_marseille","lat":43.30549,"lon":5.37506,"is_reserved":false,"is_disabled":false,"rental_uris":{"android":"levelo://app?vid=38af802b-0dd3-4001-8bdf-786db676d355","ios":"levelo://app?vid=38af802b-0dd3-4001-8bdf-786db676d355"},"vehicle_type_id":"4","last_reported":1729112888,"current_range_meters":33600,"station_id":"","pricing_plan_id":"cebpf4jnsgd1na2vs0mg"},{"bike_id":"a8f63e31-a061-4340-ac24-cf1c35bfad22","system_id":"levelo_inurba_marseille","lat":43.31305,"lon":5.40179,"is_reserved":false,"is_disabled":false,"rental_uris":{"android":"levelo://app?vid=a8f63e31-a061-4340-ac24-cf1c35bfad22","ios":"levelo://app?vid=a8f63e31-a061-4340-ac24-cf1c35bfad22"},"vehicle_type_id":"4","last_reported":1729112888,"current_range_meters":22800,"station_id":"ce4bh092rcd13ifvqd30","pricing_plan_id":"cebpf4jnsgd1na2vs0mg"},{"bike_id":"676ec6c4-6b42-43e0-81fe-327782965da5","system_id":"levelo_inurba_marseille","lat":43.337444,"lon":5.374475,"is_reserved":false,"is_disabled":false,"rental_uris":{"android":"levelo://app?vid=676ec6c4-6b42-43e0-81fe-327782965da5","ios":"levelo://app?vid=676ec6c4-6b42-43e0-81fe-327782965da5"},"vehicle_type_id":"4","last_reported":1729112888,"current_range_meters":19600,"station_id":"","pricing_plan_id":"cebpf4jnsgd1na2vs0mg"},{"bike_id":"ed4d664b-8377-4e98-80e3-12b95da190cc","system_id":"levelo_inurba_marseille","lat":43.23495,"lon":5.36239,"is_reserved":false,"is_disabled":false,"rental_uris":{"android":"levelo://app?vid=ed4d664b-8377-4e98-80e3-12b95da190cc","ios":"levelo://app?vid=ed4d664b-8377-4e98-80e3-12b95da190cc"},"vehicle_type_id":"4","last_reported":1729112888,"current_range_meters":16000,"station_id":"","pricing_plan_id":"cebpf4jnsgd1na2vs0mg"},{"bike_id":"ee22ed23-b661-4149-8d5e-d3667e92dc0b","system_id":"levelo_inurba_marseille","lat":43.27494,"lon":5.4245,"is_reserved":false,"is_disabled":false,"rental_uris":{"android":"levelo://app?vid=ee22ed23-b661-4149-8d5e-d3667e92dc0b","ios":"levelo://app?vid=ee22ed23-b661-4149-8d5e-d3667e92dc0b"},"vehicle_type_id":"4","last_reported":1729112888,"current_range_meters":25600,"station_id":"ce4bhn92rcd13ifvqgrg","pricing_plan_id":"cebpf4jnsgd1na2vs0mg"},{"bike_id":"5e3bc5d0-d299-4af6-8212-065a73233b87","system_id":"levelo_inurba_marseille","lat":43.24389,"lon":5.37066,"is_reserved":false,"is_disabled":false,"rental_uris":{"android":"levelo://app?vid=5e3bc5d0-d299-4af6-8212-065a73233b87","ios":"levelo://app?vid=5e3bc5d0-d299-4af6-8212-065a73233b87"},"vehicle_type_id":"4","last_reported":1729112888,"current_range_meters":24400,"station_id":"ce4bhhh2rcd13ifvqfk0","pricing_plan_id":"cebpf4jnsgd1na2vs0mg"},{"bike_id":"62cee784-efb2-4c4e-802e-62fd36e87dde","system_id":"levelo_inurba_marseille","lat":43.26805,"lon":5.40272,"is_reserved":false,"is_disabled":false,"rental_uris":{"android":"levelo://app?vid=62cee784-efb2-4c4e-802e-62fd36e87dde","ios":"levelo://app?vid=62cee784-efb2-4c4e-802e-62fd36e87dde"},"vehicle_type_id":"4","last_reported":1729112888,"current_range_meters":38400,"station_id":"ce501612rcd8frsf0b60","pricing_plan_id":"cebpf4jnsgd1na2vs0mg"},{"bike_id":"cfe68d4f-eb61-4ff2-b903-bf1cf8e56faf","system_id":"levelo_inurba_marseille","lat":43.28442,"lon":5.39195,"is_reserved":false,"is_disabled":false,"rental_uris":{"android":"levelo://app?vid=cfe68d4f-eb61-4ff2-b903-bf1cf8e56faf","ios":"levelo://app?vid=cfe68d4f-eb61-4ff2-b903-bf1cf8e56faf"},"vehicle_type_id":"4","last_reported":1729112888,"current_range_meters":16000,"station_id":"ce4bhoh2rcd13ifvqh5g","pricing_plan_id":"cebpf4jnsgd1na2vs0mg"},{"bike_id":"7a7ecb6c-b0ab-42fc-8056-9d5a9669eadb","system_id":"levelo_inurba_marseille","lat":43.290271,"lon":5.386517,"is_reserved":false,"is_disabled":false,"rental_uris":{"android":"levelo://app?vid=7a7ecb6c-b0ab-42fc-8056-9d5a9669eadb","ios":"levelo://app?vid=7a7ecb6c-b0ab-42fc-8056-9d5a9669eadb"},"vehicle_type_id":"4","last_reported":1729112888,"current_range_meters":17200,"station_id":"ce4bh4p2rcd13ifvqe0g","pricing_plan_id":"cebpf4jnsgd1na2vs0mg"},{"bike_id":"f883cfa2-9c75-4d93-9e83-a804c574fd24","system_id":"levelo_inurba_marseille","lat":43.33024,"lon":5.39055,"is_reserved":false,"is_disabled":false,"rental_uris":{"android":"levelo://app?vid=f883cfa2-9c75-4d93-9e83-a804c574fd24","ios":"levelo://app?vid=f883cfa2-9c75-4d93-9e83-a804c574fd24"},"vehicle_type_id":"4","last_reported":1729112888,"current_range_meters":24800,"station_id":"ce4bhr92rcd13ifvqhrg","pricing_plan_id":"cebpf4jnsgd1na2vs0mg"},{"bike_id":"2702bce9-0dbf-43a3-a781-d01b806104bc","system_id":"levelo_inurba_marseille","lat":43.29573,"lon":5.39977,"is_reserved":false,"is_disabled":false,"rental_uris":{"android":"levelo://app?vid=2702bce9-0dbf-43a3-a781-d01b806104bc","ios":"levelo://app?vid=2702bce9-0dbf-43a3-a781-d01b806104bc"},"vehicle_type_id":"4","last_reported":1729112888,"current_range_meters":18000,"station_id":"ce4bh312rcd13ifvqdj0","pricing_plan_id":"cebpf4jnsgd1na2vs0mg"},{"bike_id":"63b06a67-c778-4433-957a-842b5bbd290a","system_id":"levelo_inurba_marseille","lat":43.275729,"lon":5.384333,"is_reserved":false,"is_disabled":false,"rental_uris":{"android":"levelo://app?vid=63b06a67-c778-4433-957a-842b5bbd290a","ios":"levelo://app?vid=63b06a67-c778-4433-957a-842b5bbd290a"},"vehicle_type_id":"4","last_reported":1729112888,"current_range_meters":24400,"station_id":"ce4bhh92rcd13ifvqfi0","pricing_plan_id":"cebpf4jnsgd1na2vs0mg"},{"bike_id":"042e5b40-9e97-45f4-843e-ff54af18e3a3","system_id":"levelo_inurba_marseille","lat":43.337444,"lon":5.374475,"is_reserved":false,"is_disabled":false,"rental_uris":{"android":"levelo://app?vid=042e5b40-9e97-45f4-843e-ff54af18e3a3","ios":"levelo://app?vid=042e5b40-9e97-45f4-843e-ff54af18e3a3"},"vehicle_type_id":"4","last_reported":1729112888,"current_range_meters":34800,"station_id":"","pricing_plan_id":"cebpf4jnsgd1na2vs0mg"},{"bike_id":"d25e3192-c141-44fa-83a9-f7ae7b4adfc7","system_id":"levelo_inurba_marseille","lat":43.23185,"lon":5.3998,"is_reserved":false,"is_disabled":false,"rental_uris":{"android":"levelo://app?vid=d25e3192-c141-44fa-83a9-f7ae7b4adfc7","ios":"levelo://app?vid=d25e3192-c141-44fa-83a9-f7ae7b4adfc7"},"vehicle_type_id":"4","last_reported":1729112888,"current_range_meters":38800,"station_id":"ce4bhn12rcd13ifvqgqg","pricing_plan_id":"cebpf4jnsgd1na2vs0mg"},{"bike_id":"6544e9d5-c8f7-4f45-8e6e-e26f68f3cb7c","system_id":"levelo_inurba_marseille","lat":43.29619,"lon":5.40593,"is_reserved":false,"is_disabled":false,"rental_uris":{"android":"levelo://app?vid=6544e9d5-c8f7-4f45-8e6e-e26f68f3cb7c","ios":"levelo://app?vid=6544e9d5-c8f7-4f45-8e6e-e26f68f3cb7c"},"vehicle_type_id":"4","last_reported":1729112888,"current_range_meters":23200,"station_id":"ce4bh0h2rcd13ifvqd60","pricing_plan_id":"cebpf4jnsgd1na2vs0mg"},{"bike_id":"0a2ced11-f865-4ac7-954c-e0b6fcbdc00c","system_id":"levelo_inurba_marseille","lat":43.30878,"lon":5.37197,"is_reserved":false,"is_disabled":false,"rental_uris":{"android":"levelo://app?vid=0a2ced11-f865-4ac7-954c-e0b6fcbdc00c","ios":"levelo://app?vid=0a2ced11-f865-4ac7-954c-e0b6fcbdc00c"},"vehicle_type_id":"4","last_reported":1729112888,"current_range_meters":12000,"station_id":"ce4bguh2rcd13ifvqckg","pricing_plan_id":"cebpf4jnsgd1na2vs0mg"},{"bike_id":"9b57a733-ce7f-4bc3-a164-005f5b251f43","system_id":"levelo_inurba_marseille","lat":43.29001,"lon":5.35614,"is_reserved":false,"is_disabled":false,"rental_uris":{"android":"levelo://app?vid=9b57a733-ce7f-4bc3-a164-005f5b251f43","ios":"levelo://app?vid=9b57a733-ce7f-4bc3-a164-005f5b251f43"},"vehicle_type_id":"4","last_reported":1729112888,"current_range_meters":20000,"station_id":"ce4bhb92rcd13ifvqen0","pricing_plan_id":"cebpf4jnsgd1na2vs0mg"},{"bike_id":"b1b60781-1f61-4f02-bc26-c0542080d31e","system_id":"levelo_inurba_marseille","lat":43.30925,"lon":5.40142,"is_reserved":false,"is_disabled":false,"rental_uris":{"android":"levelo://app?vid=b1b60781-1f61-4f02-bc26-c0542080d31e","ios":"levelo://app?vid=b1b60781-1f61-4f02-bc26-c0542080d31e"},"vehicle_type_id":"4","last_reported":1729112888,"current_range_meters":30800,"station_id":"ce4bgvp2rcd13ifvqct0","pricing_plan_id":"cebpf4jnsgd1na2vs0mg"},{"bike_id":"6f888c43-0c70-449b-b901-f19143125317","system_id":"levelo_inurba_marseille","lat":43.29261,"lon":5.40917,"is_reserved":false,"is_disabled":false,"rental_uris":{"android":"levelo://app?vid=6f888c43-0c70-449b-b901-f19143125317","ios":"levelo://app?vid=6f888c43-0c70-449b-b901-f19143125317"},"vehicle_type_id":"4","last_reported":1729112888,"current_range_meters":38800,"station_id":"ce4bh192rcd13ifvqdc0","pricing_plan_id":"cebpf4jnsgd1na2vs0mg"},{"bike_id":"d431d213-4458-42c1-99e7-f7fc65d44d06","system_id":"levelo_inurba_marseille","lat":43.28576,"lon":5.395,"is_reserved":false,"is_disabled":false,"rental_uris":{"android":"levelo://app?vid=d431d213-4458-42c1-99e7-f7fc65d44d06","ios":"levelo://app?vid=d431d213-4458-42c1-99e7-f7fc65d44d06"},"vehicle_type_id":"4","last_reported":1729112888,"current_range_meters":27200,"station_id":"ce4bh292rcd13ifvqdg0","pricing_plan_id":"cebpf4jnsgd1na2vs0mg"},{"bike_id":"e0ba7378-4139-4f45-a9e6-4d17e46e0da7","system_id":"levelo_inurba_marseille","lat":43.27987,"lon":5.40013,"is_reserved":false,"is_disabled":false,"rental_uris":{"android":"levelo://app?vid=e0ba7378-4139-4f45-a9e6-4d17e46e0da7","ios":"levelo://app?vid=e0ba7378-4139-4f45-a9e6-4d17e46e0da7"},"vehicle_type_id":"4","last_reported":1729112888,"current_range_meters":28800,"station_id":"ce4bho92rcd13ifvqh4g","pricing_plan_id":"cebpf4jnsgd1na2vs0mg"},{"bike_id":"3d0ee87b-66fb-488e-b5d3-c5b0d406322c","system_id":"levelo_inurba_marseille","lat":43.24507,"lon":5.42853,"is_reserved":false,"is_disabled":false,"rental_uris":{"android":"levelo://app?vid=3d0ee87b-66fb-488e-b5d3-c5b0d406322c","ios":"levelo://app?vid=3d0ee87b-66fb-488e-b5d3-c5b0d406322c"},"vehicle_type_id":"4","last_reported":1729112888,"current_range_meters":38800,"station_id":"","pricing_plan_id":"cebpf4jnsgd1na2vs0mg"},{"bike_id":"9e86bce5-0001-4db8-8193-ae63f1bd7629","system_id":"levelo_inurba_marseille","lat":43.315205,"lon":5.380263,"is_reserved":false,"is_disabled":false,"rental_uris":{"android":"levelo://app?vid=9e86bce5-0001-4db8-8193-ae63f1bd7629","ios":"levelo://app?vid=9e86bce5-0001-4db8-8193-ae63f1bd7629"},"vehicle_type_id":"4","last_reported":1729112888,"current_range_meters":6400,"station_id":"ce4bhsp2rcd13ifvqi50","pricing_plan_id":"cebpf4jnsgd1na2vs0mg"},{"bike_id":"784c30fb-a546-4e03-ab5e-2c82ce3261b8","system_id":"levelo_inurba_marseille","lat":43.289362,"lon":5.364072,"is_reserved":false,"is_disabled":false,"rental_uris":{"android":"levelo://app?vid=784c30fb-a546-4e03-ab5e-2c82ce3261b8","ios":"levelo://app?vid=784c30fb-a546-4e03-ab5e-2c82ce3261b8"},"vehicle_type_id":"4","last_reported":1729112888,"current_range_meters":18000,"station_id":"ce4bhc92rcd13ifvqetg","pricing_plan_id":"cebpf4jnsgd1na2vs0mg"},{"bike_id":"851bada0-f0f3-427a-91b9-2220a922230e","system_id":"levelo_inurba_marseille","lat":43.31539,"lon":5.3804,"is_reserved":false,"is_disabled":false,"rental_uris":{"android":"levelo://app?vid=851bada0-f0f3-427a-91b9-2220a922230e","ios":"levelo://app?vid=851bada0-f0f3-427a-91b9-2220a922230e"},"vehicle_type_id":"4","last_reported":1729112888,"current_range_meters":28400,"station_id":"ce4bhsp2rcd13ifvqi50","pricing_plan_id":"cebpf4jnsgd1na2vs0mg"},{"bike_id":"8d8c5120-1604-4f49-9622-bd274e20d6f9","system_id":"levelo_inurba_marseille","lat":43.29915,"lon":5.37485,"is_reserved":false,"is_disabled":false,"rental_uris":{"android":"levelo://app?vid=8d8c5120-1604-4f49-9622-bd274e20d6f9","ios":"levelo://app?vid=8d8c5120-1604-4f49-9622-bd274e20d6f9"},"vehicle_type_id":"4","last_reported":1729112888,"current_range_meters":26800,"station_id":"ce4bgjh2rcd13ifvqbg0","pricing_plan_id":"cebpf4jnsgd1na2vs0mg"},{"bike_id":"6cd899d8-1f88-459f-b491-3f17e4af5020","system_id":"levelo_inurba_marseille","lat":43.24063,"lon":5.3775,"is_reserved":false,"is_disabled":false,"rental_uris":{"android":"levelo://app?vid=6cd899d8-1f88-459f-b491-3f17e4af5020","ios":"levelo://app?vid=6cd899d8-1f88-459f-b491-3f17e4af5020"},"vehicle_type_id":"4","last_reported":1729112888,"current_range_meters":26800,"station_id":"ce4bhnp2rcd13ifvqgvg","pricing_plan_id":"cebpf4jnsgd1na2vs0mg"},{"bike_id":"5bf1fbcd-3b04-4ff9-98d0-4c591b143bd0","system_id":"levelo_inurba_marseille","lat":43.25087,"lon":5.39524,"is_reserved":false,"is_disabled":false,"rental_uris":{"android":"levelo://app?vid=5bf1fbcd-3b04-4ff9-98d0-4c591b143bd0","ios":"levelo://app?vid=5bf1fbcd-3b04-4ff9-98d0-4c591b143bd0"},"vehicle_type_id":"4","last_reported":1729112888,"current_range_meters":4000,"station_id":"ce4bhm12rcd13ifvqgkg","pricing_plan_id":"cebpf4jnsgd1na2vs0mg"},{"bike_id":"786307c4-e27e-45ca-9e78-15b721f519ac","system_id":"levelo_inurba_marseille","lat":43.30093,"lon":5.39083,"is_reserved":false,"is_disabled":false,"rental_uris":{"android":"levelo://app?vid=786307c4-e27e-45ca-9e78-15b721f519ac","ios":"levelo://app?vid=786307c4-e27e-45ca-9e78-15b721f519ac"},"vehicle_type_id":"4","last_reported":1729112888,"current_range_meters":38800,"station_id":"ce4bh192rcd13ifvqdb0","pricing_plan_id":"cebpf4jnsgd1na2vs0mg"},{"bike_id":"12a0ce46-2b5b-482a-baf5-be50baa26765","system_id":"levelo_inurba_marseille","lat":43.28155,"lon":5.42638,"is_reserved":false,"is_disabled":false,"rental_uris":{"android":"levelo://app?vid=12a0ce46-2b5b-482a-baf5-be50baa26765","ios":"levelo://app?vid=12a0ce46-2b5b-482a-baf5-be50baa26765"},"vehicle_type_id":"4","last_reported":1729112888,"current_range_meters":32400,"station_id":"ce4bhnh2rcd13ifvqgug","pricing_plan_id":"cebpf4jnsgd1na2vs0mg"},{"bike_id":"572ed7b0-691c-497d-9a19-61e65acf0f2d","system_id":"levelo_inurba_marseille","lat":43.25117,"lon":5.40317,"is_reserved":false,"is_disabled":false,"rental_uris":{"android":"levelo://app?vid=572ed7b0-691c-497d-9a19-61e65acf0f2d","ios":"levelo://app?vid=572ed7b0-691c-497d-9a19-61e65acf0f2d"},"vehicle_type_id":"4","last_reported":1729112888,"current_range_meters":16800,"station_id":"ce4bhlh2rcd13ifvqgig","pricing_plan_id":"cebpf4jnsgd1na2vs0mg"},{"bike_id":"caa50f4a-17a8-4d51-8772-27afd11b3a71","system_id":"levelo_inurba_marseille","lat":43.27556,"lon":5.38393,"is_reserved":false,"is_disabled":false,"rental_uris":{"android":"levelo://app?vid=caa50f4a-17a8-4d51-8772-27afd11b3a71","ios":"levelo://app?vid=caa50f4a-17a8-4d51-8772-27afd11b3a71"},"vehicle_type_id":"4","last_reported":1729112888,"current_range_meters":25600,"station_id":"ce4bhh92rcd13ifvqfi0","pricing_plan_id":"cebpf4jnsgd1na2vs0mg"},{"bike_id":"cc1a8d87-1277-48cd-af4d-6e13f71411d4","system_id":"levelo_inurba_marseille","lat":43.29024,"lon":5.38636,"is_reserved":false,"is_disabled":false,"rental_uris":{"android":"levelo://app?vid=cc1a8d87-1277-48cd-af4d-6e13f71411d4","ios":"levelo://app?vid=cc1a8d87-1277-48cd-af4d-6e13f71411d4"},"vehicle_type_id":"4","last_reported":1729112888,"current_range_meters":29600,"station_id":"ce4bh4p2rcd13ifvqe0g","pricing_plan_id":"cebpf4jnsgd1na2vs0mg"},{"bike_id":"a8dce093-4f1c-4ea0-b22a-79050193c3bf","system_id":"levelo_inurba_marseille","lat":43.30643,"lon":5.40085,"is_reserved":false,"is_disabled":false,"rental_uris":{"android":"levelo://app?vid=a8dce093-4f1c-4ea0-b22a-79050193c3bf","ios":"levelo://app?vid=a8dce093-4f1c-4ea0-b22a-79050193c3bf"},"vehicle_type_id":"4","last_reported":1729112888,"current_range_meters":10000,"station_id":"ce4bh112rcd13ifvqda0","pricing_plan_id":"cebpf4jnsgd1na2vs0mg"},{"bike_id":"05545084-0c06-4cb7-bb4b-6c510970601e","system_id":"levelo_inurba_marseille","lat":43.31113,"lon":5.37766,"is_reserved":false,"is_disabled":false,"rental_uris":{"android":"levelo://app?vid=05545084-0c06-4cb7-bb4b-6c510970601e","ios":"levelo://app?vid=05545084-0c06-4cb7-bb4b-6c510970601e"},"vehicle_type_id":"4","last_reported":1729112888,"current_range_meters":38800,"station_id":"ce4bgt92rcd13ifvqcg0","pricing_plan_id":"cebpf4jnsgd1na2vs0mg"},{"bike_id":"d3e02234-2473-432a-89ac-358e423cfef9","system_id":"levelo_inurba_marseille","lat":43.28668,"lon":5.36349,"is_reserved":false,"is_disabled":false,"rental_uris":{"android":"levelo://app?vid=d3e02234-2473-432a-89ac-358e423cfef9","ios":"levelo://app?vid=d3e02234-2473-432a-89ac-358e423cfef9"},"vehicle_type_id":"4","last_reported":1729112888,"current_range_meters":12800,"station_id":"ce4bhah2rcd13ifvqej0","pricing_plan_id":"cebpf4jnsgd1na2vs0mg"},{"bike_id":"6550a6b0-b0f9-43c4-87b3-d418129f3b71","system_id":"levelo_inurba_marseille","lat":43.26066,"lon":5.39396,"is_reserved":false,"is_disabled":false,"rental_uris":{"android":"levelo://app?vid=6550a6b0-b0f9-43c4-87b3-d418129f3b71","ios":"levelo://app?vid=6550a6b0-b0f9-43c4-87b3-d418129f3b71"},"vehicle_type_id":"4","last_reported":1729112888,"current_range_meters":36800,"station_id":"ce4bhh92rcd13ifvqfj0","pricing_plan_id":"cebpf4jnsgd1na2vs0mg"},{"bike_id":"2c19e221-9f7f-4047-ae1b-dcfc25fbbda7","system_id":"levelo_inurba_marseille","lat":43.28461,"lon":5.3589,"is_reserved":false,"is_disabled":false,"rental_uris":{"android":"levelo://app?vid=2c19e221-9f7f-4047-ae1b-dcfc25fbbda7","ios":"levelo://app?vid=2c19e221-9f7f-4047-ae1b-dcfc25fbbda7"},"vehicle_type_id":"4","last_reported":1729112888,"current_range_meters":6800,"station_id":"ce4bhah2rcd13ifvqei0","pricing_plan_id":"cebpf4jnsgd1na2vs0mg"},{"bike_id":"bdb4f070-8bae-407b-bc70-9ee3db878f96","system_id":"levelo_inurba_marseille","lat":43.24667,"lon":5.38157,"is_reserved":false,"is_disabled":false,"rental_uris":{"android":"levelo://app?vid=bdb4f070-8bae-407b-bc70-9ee3db878f96","ios":"levelo://app?vid=bdb4f070-8bae-407b-bc70-9ee3db878f96"},"vehicle_type_id":"4","last_reported":1729112888,"current_range_meters":23200,"station_id":"ce4bhih2rcd13ifvqfr0","pricing_plan_id":"cebpf4jnsgd1na2vs0mg"},{"bike_id":"a6b4578e-3cab-4bcb-ae84-333753b03084","system_id":"levelo_inurba_marseille","lat":43.2318,"lon":5.39989,"is_reserved":false,"is_disabled":false,"rental_uris":{"android":"levelo://app?vid=a6b4578e-3cab-4bcb-ae84-333753b03084","ios":"levelo://app?vid=a6b4578e-3cab-4bcb-ae84-333753b03084"},"vehicle_type_id":"4","last_reported":1729112888,"current_range_meters":37600,"station_id":"ce4bhn12rcd13ifvqgqg","pricing_plan_id":"cebpf4jnsgd1na2vs0mg"},{"bike_id":"a149fe7e-fad8-4a0f-bdc5-381fde4a6176","system_id":"levelo_inurba_marseille","lat":43.29874,"lon":5.39732,"is_reserved":false,"is_disabled":false,"rental_uris":{"android":"levelo://app?vid=a149fe7e-fad8-4a0f-bdc5-381fde4a6176","ios":"levelo://app?vid=a149fe7e-fad8-4a0f-bdc5-381fde4a6176"},"vehicle_type_id":"4","last_reported":1729112888,"current_range_meters":32800,"station_id":"ce4bh0h2rcd13ifvqd50","pricing_plan_id":"cebpf4jnsgd1na2vs0mg"},{"bike_id":"87542a63-8d63-491b-83e3-8a4c8019fce9","system_id":"levelo_inurba_marseille","lat":43.30904,"lon":5.396,"is_reserved":false,"is_disabled":false,"rental_uris":{"android":"levelo://app?vid=87542a63-8d63-491b-83e3-8a4c8019fce9","ios":"levelo://app?vid=87542a63-8d63-491b-83e3-8a4c8019fce9"},"vehicle_type_id":"4","last_reported":1729112888,"current_range_meters":30800,"station_id":"ce4bh012rcd13ifvqcv0","pricing_plan_id":"cebpf4jnsgd1na2vs0mg"},{"bike_id":"8e8d46c3-6a96-480e-b7fd-bc578daaaec6","system_id":"levelo_inurba_marseille","lat":43.30925,"lon":5.40143,"is_reserved":false,"is_disabled":false,"rental_uris":{"android":"levelo://app?vid=8e8d46c3-6a96-480e-b7fd-bc578daaaec6","ios":"levelo://app?vid=8e8d46c3-6a96-480e-b7fd-bc578daaaec6"},"vehicle_type_id":"4","last_reported":1729112888,"current_range_meters":9200,"station_id":"ce4bgvp2rcd13ifvqct0","pricing_plan_id":"cebpf4jnsgd1na2vs0mg"},{"bike_id":"6c0cb852-8a6d-4147-92b5-d0bcf163ea0b","system_id":"levelo_inurba_marseille","lat":43.26197,"lon":5.37932,"is_reserved":false,"is_disabled":false,"rental_uris":{"android":"levelo://app?vid=6c0cb852-8a6d-4147-92b5-d0bcf163ea0b","ios":"levelo://app?vid=6c0cb852-8a6d-4147-92b5-d0bcf163ea0b"},"vehicle_type_id":"4","last_reported":1729112888,"current_range_meters":38000,"station_id":"ce4bhjp2rcd13ifvqg90","pricing_plan_id":"cebpf4jnsgd1na2vs0mg"},{"bike_id":"faafdf6c-f564-4ef6-b6e1-54989b90e65d","system_id":"levelo_inurba_marseille","lat":43.31173,"lon":5.38715,"is_reserved":false,"is_disabled":false,"rental_uris":{"android":"levelo://app?vid=faafdf6c-f564-4ef6-b6e1-54989b90e65d","ios":"levelo://app?vid=faafdf6c-f564-4ef6-b6e1-54989b90e65d"},"vehicle_type_id":"4","last_reported":1729112888,"current_range_meters":39200,"station_id":"ce4bgv12rcd13ifvqcp0","pricing_plan_id":"cebpf4jnsgd1na2vs0mg"},{"bike_id":"51218d5a-a4cd-42ed-8091-20b8f3a2d0ca","system_id":"levelo_inurba_marseille","lat":43.28848,"lon":5.35855,"is_reserved":false,"is_disabled":false,"rental_uris":{"android":"levelo://app?vid=51218d5a-a4cd-42ed-8091-20b8f3a2d0ca","ios":"levelo://app?vid=51218d5a-a4cd-42ed-8091-20b8f3a2d0ca"},"vehicle_type_id":"4","last_reported":1729112888,"current_range_meters":16800,"station_id":"ce4bhb12rcd13ifvqem0","pricing_plan_id":"cebpf4jnsgd1na2vs0mg"},{"bike_id":"af7f2d64-17dc-42fb-a98b-46080d1d96a1","system_id":"levelo_inurba_marseille","lat":43.25724,"lon":5.41107,"is_reserved":false,"is_disabled":false,"rental_uris":{"android":"levelo://app?vid=af7f2d64-17dc-42fb-a98b-46080d1d96a1","ios":"levelo://app?vid=af7f2d64-17dc-42fb-a98b-46080d1d96a1"},"vehicle_type_id":"4","last_reported":1729112888,"current_range_meters":21600,"station_id":"ce4bhkp2rcd13ifvqgd0","pricing_plan_id":"cebpf4jnsgd1na2vs0mg"},{"bike_id":"cf082c9e-105a-45c0-87f0-9187061a40f0","system_id":"levelo_inurba_marseille","lat":43.29252,"lon":5.40916,"is_reserved":false,"is_disabled":false,"rental_uris":{"android":"levelo://app?vid=cf082c9e-105a-45c0-87f0-9187061a40f0","ios":"levelo://app?vid=cf082c9e-105a-45c0-87f0-9187061a40f0"},"vehicle_type_id":"4","last_reported":1729112888,"current_range_meters":38000,"station_id":"ce4bh192rcd13ifvqdc0","pricing_plan_id":"cebpf4jnsgd1na2vs0mg"},{"bike_id":"eb2975e6-751f-46f3-9f1c-bba14fd6b1d4","system_id":"levelo_inurba_marseille","lat":43.31172,"lon":5.38709,"is_reserved":false,"is_disabled":false,"rental_uris":{"android":"levelo://app?vid=eb2975e6-751f-46f3-9f1c-bba14fd6b1d4","ios":"levelo://app?vid=eb2975e6-751f-46f3-9f1c-bba14fd6b1d4"},"vehicle_type_id":"4","last_reported":1729112888,"current_range_meters":15200,"station_id":"ce4bgv12rcd13ifvqcp0","pricing_plan_id":"cebpf4jnsgd1na2vs0mg"},{"bike_id":"bccffad3-9e91-4d99-a249-a6d681893e09","system_id":"levelo_inurba_marseille","lat":43.29561,"lon":5.39939,"is_reserved":false,"is_disabled":false,"rental_uris":{"android":"levelo://app?vid=bccffad3-9e91-4d99-a249-a6d681893e09","ios":"levelo://app?vid=bccffad3-9e91-4d99-a249-a6d681893e09"},"vehicle_type_id":"4","last_reported":1729112888,"current_range_meters":13600,"station_id":"ce4bh312rcd13ifvqdj0","pricing_plan_id":"cebpf4jnsgd1na2vs0mg"},{"bike_id":"90263e99-d5aa-44b8-a4c8-0353aa3b308c","system_id":"levelo_inurba_marseille","lat":43.23057,"lon":5.35495,"is_reserved":false,"is_disabled":false,"rental_uris":{"android":"levelo://app?vid=90263e99-d5aa-44b8-a4c8-0353aa3b308c","ios":"levelo://app?vid=90263e99-d5aa-44b8-a4c8-0353aa3b308c"},"vehicle_type_id":"4","last_reported":1729112888,"current_range_meters":12000,"station_id":"cpo3342slgdg3j2ifvpg","pricing_plan_id":"cebpf4jnsgd1na2vs0mg"},{"bike_id":"3eb57885-801f-4e29-bc1c-eef096bd5d43","system_id":"levelo_inurba_marseille","lat":43.29033,"lon":5.39971,"is_reserved":false,"is_disabled":false,"rental_uris":{"android":"levelo://app?vid=3eb57885-801f-4e29-bc1c-eef096bd5d43","ios":"levelo://app?vid=3eb57885-801f-4e29-bc1c-eef096bd5d43"},"vehicle_type_id":"4","last_reported":1729112888,"current_range_meters":37600,"station_id":"ce4bh392rcd13ifvqdm0","pricing_plan_id":"cebpf4jnsgd1na2vs0mg"},{"bike_id":"d3457713-0e8e-4bee-ae6b-c4b8b36e8262","system_id":"levelo_inurba_marseille","lat":43.31992,"lon":5.38148,"is_reserved":false,"is_disabled":false,"rental_uris":{"android":"levelo://app?vid=d3457713-0e8e-4bee-ae6b-c4b8b36e8262","ios":"levelo://app?vid=d3457713-0e8e-4bee-ae6b-c4b8b36e8262"},"vehicle_type_id":"4","last_reported":1729112888,"current_range_meters":38800,"station_id":"ce4bhr12rcd13ifvqhpg","pricing_plan_id":"cebpf4jnsgd1na2vs0mg"},{"bike_id":"c8356f63-c63d-40f1-af3e-891940805776","system_id":"levelo_inurba_marseille","lat":43.25936,"lon":5.40903,"is_reserved":false,"is_disabled":false,"rental_uris":{"android":"levelo://app?vid=c8356f63-c63d-40f1-af3e-891940805776","ios":"levelo://app?vid=c8356f63-c63d-40f1-af3e-891940805776"},"vehicle_type_id":"4","last_reported":1729112888,"current_range_meters":35600,"station_id":"ce4bhm92rcd13ifvqglg","pricing_plan_id":"cebpf4jnsgd1na2vs0mg"},{"bike_id":"7db0ec6d-085c-4813-b3f7-84036c3560ec","system_id":"levelo_inurba_marseille","lat":43.28568,"lon":5.39504,"is_reserved":false,"is_disabled":false,"rental_uris":{"android":"levelo://app?vid=7db0ec6d-085c-4813-b3f7-84036c3560ec","ios":"levelo://app?vid=7db0ec6d-085c-4813-b3f7-84036c3560ec"},"vehicle_type_id":"4","last_reported":1729112888,"current_range_meters":16400,"station_id":"ce4bh292rcd13ifvqdg0","pricing_plan_id":"cebpf4jnsgd1na2vs0mg"},{"bike_id":"c56f6937-5ef6-491d-8577-91a1972d529d","system_id":"levelo_inurba_marseille","lat":43.31688,"lon":5.4048,"is_reserved":false,"is_disabled":false,"rental_uris":{"android":"levelo://app?vid=c56f6937-5ef6-491d-8577-91a1972d529d","ios":"levelo://app?vid=c56f6937-5ef6-491d-8577-91a1972d529d"},"vehicle_type_id":"4","last_reported":1729112888,"current_range_meters":16400,"station_id":"ce4bh012rcd13ifvqd00","pricing_plan_id":"cebpf4jnsgd1na2vs0mg"},{"bike_id":"a50552f0-4213-4c9a-97e3-e55e4f3bc997","system_id":"levelo_inurba_marseille","lat":43.28939,"lon":5.36397,"is_reserved":false,"is_disabled":false,"rental_uris":{"android":"levelo://app?vid=a50552f0-4213-4c9a-97e3-e55e4f3bc997","ios":"levelo://app?vid=a50552f0-4213-4c9a-97e3-e55e4f3bc997"},"vehicle_type_id":"4","last_reported":1729112888,"current_range_meters":28400,"station_id":"ce4bhc92rcd13ifvqetg","pricing_plan_id":"cebpf4jnsgd1na2vs0mg"},{"bike_id":"04b23576-9745-4103-a2b5-6a5729d7659b","system_id":"levelo_inurba_marseille","lat":43.29743,"lon":5.37711,"is_reserved":false,"is_disabled":false,"rental_uris":{"android":"levelo://app?vid=04b23576-9745-4103-a2b5-6a5729d7659b","ios":"levelo://app?vid=04b23576-9745-4103-a2b5-6a5729d7659b"},"vehicle_type_id":"4","last_reported":1729112888,"current_range_meters":35600,"station_id":"ce4bgkh2rcd13ifvqbl0","pricing_plan_id":"cebpf4jnsgd1na2vs0mg"},{"bike_id":"ebb6577c-ea8b-4cc1-b954-f3473e85ae11","system_id":"levelo_inurba_marseille","lat":43.25499,"lon":5.37646,"is_reserved":false,"is_disabled":false,"rental_uris":{"android":"levelo://app?vid=ebb6577c-ea8b-4cc1-b954-f3473e85ae11","ios":"levelo://app?vid=ebb6577c-ea8b-4cc1-b954-f3473e85ae11"},"vehicle_type_id":"4","last_reported":1729112888,"current_range_meters":38000,"station_id":"ce4bhh12rcd13ifvqff0","pricing_plan_id":"cebpf4jnsgd1na2vs0mg"},{"bike_id":"1673285f-7e64-40ac-9ddf-ea3babe0032a","system_id":"levelo_inurba_marseille","lat":43.28613,"lon":5.35097,"is_reserved":false,"is_disabled":false,"rental_uris":{"android":"levelo://app?vid=1673285f-7e64-40ac-9ddf-ea3babe0032a","ios":"levelo://app?vid=1673285f-7e64-40ac-9ddf-ea3babe0032a"},"vehicle_type_id":"4","last_reported":1729112888,"current_range_meters":38800,"station_id":"ce4bhch2rcd13ifvqeug","pricing_plan_id":"cebpf4jnsgd1na2vs0mg"},{"bike_id":"1ac934dc-7eba-4c90-8cce-fb3e7425e98d","system_id":"levelo_inurba_marseille","lat":43.30776,"lon":5.37654,"is_reserved":false,"is_disabled":false,"rental_uris":{"android":"levelo://app?vid=1ac934dc-7eba-4c90-8cce-fb3e7425e98d","ios":"levelo://app?vid=1ac934dc-7eba-4c90-8cce-fb3e7425e98d"},"vehicle_type_id":"4","last_reported":1729112888,"current_range_meters":17200,"station_id":"ce4bgv92rcd13ifvqcq0","pricing_plan_id":"cebpf4jnsgd1na2vs0mg"},{"bike_id":"b5b99623-414d-4eb1-b427-c0178ad49012","system_id":"levelo_inurba_marseille","lat":43.25717,"lon":5.41115,"is_reserved":false,"is_disabled":false,"rental_uris":{"android":"levelo://app?vid=b5b99623-414d-4eb1-b427-c0178ad49012","ios":"levelo://app?vid=b5b99623-414d-4eb1-b427-c0178ad49012"},"vehicle_type_id":"4","last_reported":1729112888,"current_range_meters":33600,"station_id":"ce4bhkp2rcd13ifvqgd0","pricing_plan_id":"cebpf4jnsgd1na2vs0mg"},{"bike_id":"8a2124ac-5422-4960-bd68-1bcb8591b5b6","system_id":"levelo_inurba_marseille","lat":43.24667,"lon":5.3816,"is_reserved":false,"is_disabled":false,"rental_uris":{"android":"levelo://app?vid=8a2124ac-5422-4960-bd68-1bcb8591b5b6","ios":"levelo://app?vid=8a2124ac-5422-4960-bd68-1bcb8591b5b6"},"vehicle_type_id":"4","last_reported":1729112888,"current_range_meters":30800,"station_id":"ce4bhih2rcd13ifvqfr0","pricing_plan_id":"cebpf4jnsgd1na2vs0mg"},{"bike_id":"fa7bbdc9-afbe-404d-8676-647037cc76a9","system_id":"levelo_inurba_marseille","lat":43.23191,"lon":5.35541,"is_reserved":false,"is_disabled":false,"rental_uris":{"android":"levelo://app?vid=fa7bbdc9-afbe-404d-8676-647037cc76a9","ios":"levelo://app?vid=fa7bbdc9-afbe-404d-8676-647037cc76a9"},"vehicle_type_id":"4","last_reported":1729112888,"current_range_meters":36800,"station_id":"ce4bhu92rcd13ifvqi70","pricing_plan_id":"cebpf4jnsgd1na2vs0mg"},{"bike_id":"c72a80b3-732b-4352-9c21-737d91286679","system_id":"levelo_inurba_marseille","lat":43.28564,"lon":5.39503,"is_reserved":false,"is_disabled":false,"rental_uris":{"android":"levelo://app?vid=c72a80b3-732b-4352-9c21-737d91286679","ios":"levelo://app?vid=c72a80b3-732b-4352-9c21-737d91286679"},"vehicle_type_id":"4","last_reported":1729112888,"current_range_meters":34000,"station_id":"ce4bh292rcd13ifvqdg0","pricing_plan_id":"cebpf4jnsgd1na2vs0mg"},{"bike_id":"931ad2f4-35ea-42b5-bc1a-1fdec477398a","system_id":"levelo_inurba_marseille","lat":43.337444,"lon":5.374475,"is_reserved":false,"is_disabled":false,"rental_uris":{"android":"levelo://app?vid=931ad2f4-35ea-42b5-bc1a-1fdec477398a","ios":"levelo://app?vid=931ad2f4-35ea-42b5-bc1a-1fdec477398a"},"vehicle_type_id":"4","last_reported":1729112888,"current_range_meters":36800,"station_id":"","pricing_plan_id":"cebpf4jnsgd1na2vs0mg"},{"bike_id":"7b9fe451-7a11-474c-9063-21c15b0c577b","system_id":"levelo_inurba_marseille","lat":43.30206,"lon":5.39464,"is_reserved":false,"is_disabled":false,"rental_uris":{"android":"levelo://app?vid=7b9fe451-7a11-474c-9063-21c15b0c577b","ios":"levelo://app?vid=7b9fe451-7a11-474c-9063-21c15b0c577b"},"vehicle_type_id":"4","last_reported":1729112888,"current_range_meters":39200,"station_id":"ce4bh0p2rcd13ifvqd70","pricing_plan_id":"cebpf4jnsgd1na2vs0mg"},{"bike_id":"89e45b8b-dc82-4018-a313-5f868c8711f0","system_id":"levelo_inurba_marseille","lat":43.3361,"lon":5.41031,"is_reserved":false,"is_disabled":false,"rental_uris":{"android":"levelo://app?vid=89e45b8b-dc82-4018-a313-5f868c8711f0","ios":"levelo://app?vid=89e45b8b-dc82-4018-a313-5f868c8711f0"},"vehicle_type_id":"4","last_reported":1729112888,"current_range_meters":38800,"station_id":"ce4bhqh2rcd13ifvqhmg","pricing_plan_id":"cebpf4jnsgd1na2vs0mg"},{"bike_id":"543b5141-f53c-4d1c-b6b6-b150adf52504","system_id":"levelo_inurba_marseille","lat":43.31175,"lon":5.38711,"is_reserved":false,"is_disabled":false,"rental_uris":{"android":"levelo://app?vid=543b5141-f53c-4d1c-b6b6-b150adf52504","ios":"levelo://app?vid=543b5141-f53c-4d1c-b6b6-b150adf52504"},"vehicle_type_id":"4","last_reported":1729112888,"current_range_meters":25600,"station_id":"ce4bgv12rcd13ifvqcp0","pricing_plan_id":"cebpf4jnsgd1na2vs0mg"},{"bike_id":"0a0670db-b874-441e-acee-24140b51ffca","system_id":"levelo_inurba_marseille","lat":43.28434,"lon":5.39185,"is_reserved":false,"is_disabled":false,"rental_uris":{"android":"levelo://app?vid=0a0670db-b874-441e-acee-24140b51ffca","ios":"levelo://app?vid=0a0670db-b874-441e-acee-24140b51ffca"},"vehicle_type_id":"4","last_reported":1729112888,"current_range_meters":38800,"station_id":"ce4bhoh2rcd13ifvqh5g","pricing_plan_id":"cebpf4jnsgd1na2vs0mg"},{"bike_id":"767cda57-54ee-4f57-889a-d4f937525043","system_id":"levelo_inurba_marseille","lat":43.28934,"lon":5.36396,"is_reserved":false,"is_disabled":false,"rental_uris":{"android":"levelo://app?vid=767cda57-54ee-4f57-889a-d4f937525043","ios":"levelo://app?vid=767cda57-54ee-4f57-889a-d4f937525043"},"vehicle_type_id":"4","last_reported":1729112888,"current_range_meters":36000,"station_id":"ce4bhc92rcd13ifvqetg","pricing_plan_id":"cebpf4jnsgd1na2vs0mg"},{"bike_id":"81e32d4e-df25-4349-90c7-1831752870c9","system_id":"levelo_inurba_marseille","lat":43.27933,"lon":5.41044,"is_reserved":false,"is_disabled":false,"rental_uris":{"android":"levelo://app?vid=81e32d4e-df25-4349-90c7-1831752870c9","ios":"levelo://app?vid=81e32d4e-df25-4349-90c7-1831752870c9"},"vehicle_type_id":"4","last_reported":1729112888,"current_range_meters":32800,"station_id":"ce4bhnp2rcd13ifvqh0g","pricing_plan_id":"cebpf4jnsgd1na2vs0mg"},{"bike_id":"8c1ec6cb-2291-4814-837b-be8625c706f3","system_id":"levelo_inurba_marseille","lat":43.23189,"lon":5.35544,"is_reserved":false,"is_disabled":false,"rental_uris":{"android":"levelo://app?vid=8c1ec6cb-2291-4814-837b-be8625c706f3","ios":"levelo://app?vid=8c1ec6cb-2291-4814-837b-be8625c706f3"},"vehicle_type_id":"4","last_reported":1729112888,"current_range_meters":38800,"station_id":"ce4bhu92rcd13ifvqi70","pricing_plan_id":"cebpf4jnsgd1na2vs0mg"},{"bike_id":"f97ed4df-1a5b-4335-8f24-cb02977ba46e","system_id":"levelo_inurba_marseille","lat":43.29278,"lon":5.40131,"is_reserved":false,"is_disabled":false,"rental_uris":{"android":"levelo://app?vid=f97ed4df-1a5b-4335-8f24-cb02977ba46e","ios":"levelo://app?vid=f97ed4df-1a5b-4335-8f24-cb02977ba46e"},"vehicle_type_id":"4","last_reported":1729112888,"current_range_meters":20000,"station_id":"ce4bh312rcd13ifvqdk0","pricing_plan_id":"cebpf4jnsgd1na2vs0mg"},{"bike_id":"8cd9a0be-5e98-4d55-a4ec-d164ab97f55f","system_id":"levelo_inurba_marseille","lat":43.3199,"lon":5.38149,"is_reserved":false,"is_disabled":false,"rental_uris":{"android":"levelo://app?vid=8cd9a0be-5e98-4d55-a4ec-d164ab97f55f","ios":"levelo://app?vid=8cd9a0be-5e98-4d55-a4ec-d164ab97f55f"},"vehicle_type_id":"4","last_reported":1729112888,"current_range_meters":16000,"station_id":"ce4bhr12rcd13ifvqhpg","pricing_plan_id":"cebpf4jnsgd1na2vs0mg"},{"bike_id":"db810d77-ca6d-4491-b176-96ce95bcc9bc","system_id":"levelo_inurba_marseille","lat":43.25719,"lon":5.41107,"is_reserved":false,"is_disabled":false,"rental_uris":{"android":"levelo://app?vid=db810d77-ca6d-4491-b176-96ce95bcc9bc","ios":"levelo://app?vid=db810d77-ca6d-4491-b176-96ce95bcc9bc"},"vehicle_type_id":"4","last_reported":1729112888,"current_range_meters":38000,"station_id":"ce4bhkp2rcd13ifvqgd0","pricing_plan_id":"cebpf4jnsgd1na2vs0mg"},{"bike_id":"c02f842a-f0c7-4310-b5bd-a3d42ba74564","system_id":"levelo_inurba_marseille","lat":43.31065,"lon":5.38349,"is_reserved":false,"is_disabled":false,"rental_uris":{"android":"levelo://app?vid=c02f842a-f0c7-4310-b5bd-a3d42ba74564","ios":"levelo://app?vid=c02f842a-f0c7-4310-b5bd-a3d42ba74564"},"vehicle_type_id":"4","last_reported":1729112888,"current_range_meters":38800,"station_id":"ce4bgv92rcd13ifvqcr0","pricing_plan_id":"cebpf4jnsgd1na2vs0mg"},{"bike_id":"2d3ed27a-f7ed-4429-affd-6349b92ad9ac","system_id":"levelo_inurba_marseille","lat":43.27909,"lon":5.38003,"is_reserved":false,"is_disabled":false,"rental_uris":{"android":"levelo://app?vid=2d3ed27a-f7ed-4429-affd-6349b92ad9ac","ios":"levelo://app?vid=2d3ed27a-f7ed-4429-affd-6349b92ad9ac"},"vehicle_type_id":"4","last_reported":1729112888,"current_range_meters":22000,"station_id":"ce4bhf92rcd13ifvqf50","pricing_plan_id":"cebpf4jnsgd1na2vs0mg"},{"bike_id":"09ba8262-4e38-4d25-a916-fe154f2cdd71","system_id":"levelo_inurba_marseille","lat":43.28705,"lon":5.39969,"is_reserved":false,"is_disabled":false,"rental_uris":{"android":"levelo://app?vid=09ba8262-4e38-4d25-a916-fe154f2cdd71","ios":"levelo://app?vid=09ba8262-4e38-4d25-a916-fe154f2cdd71"},"vehicle_type_id":"4","last_reported":1729112888,"current_range_meters":36800,"station_id":"ce4bho92rcd13ifvqh3g","pricing_plan_id":"cebpf4jnsgd1na2vs0mg"},{"bike_id":"08ae83cb-f31d-469e-8b8d-1172d9f867d3","system_id":"levelo_inurba_marseille","lat":43.23964,"lon":5.36634,"is_reserved":false,"is_disabled":false,"rental_uris":{"android":"levelo://app?vid=08ae83cb-f31d-469e-8b8d-1172d9f867d3","ios":"levelo://app?vid=08ae83cb-f31d-469e-8b8d-1172d9f867d3"},"vehicle_type_id":"4","last_reported":1729112888,"current_range_meters":20400,"station_id":"ce4bhi12rcd13ifvqfp0","pricing_plan_id":"cebpf4jnsgd1na2vs0mg"},{"bike_id":"3aff10c0-d74b-4d6d-b4d6-210a1d89b6db","system_id":"levelo_inurba_marseille","lat":43.29713,"lon":5.36609,"is_reserved":false,"is_disabled":false,"rental_uris":{"android":"levelo://app?vid=3aff10c0-d74b-4d6d-b4d6-210a1d89b6db","ios":"levelo://app?vid=3aff10c0-d74b-4d6d-b4d6-210a1d89b6db"},"vehicle_type_id":"4","last_reported":1729112888,"current_range_meters":27600,"station_id":"ce4bgn12rcd13ifvqbt0","pricing_plan_id":"cebpf4jnsgd1na2vs0mg"},{"bike_id":"a9400308-7820-4b35-a30e-ac5b59ed3f3e","system_id":"levelo_inurba_marseille","lat":43.25122,"lon":5.40316,"is_reserved":false,"is_disabled":false,"rental_uris":{"android":"levelo://app?vid=a9400308-7820-4b35-a30e-ac5b59ed3f3e","ios":"levelo://app?vid=a9400308-7820-4b35-a30e-ac5b59ed3f3e"},"vehicle_type_id":"4","last_reported":1729112888,"current_range_meters":38400,"station_id":"ce4bhlh2rcd13ifvqgig","pricing_plan_id":"cebpf4jnsgd1na2vs0mg"},{"bike_id":"0994d7f0-fa2e-480f-b967-2b1e1b476b78","system_id":"levelo_inurba_marseille","lat":43.23191,"lon":5.35569,"is_reserved":false,"is_disabled":false,"rental_uris":{"android":"levelo://app?vid=0994d7f0-fa2e-480f-b967-2b1e1b476b78","ios":"levelo://app?vid=0994d7f0-fa2e-480f-b967-2b1e1b476b78"},"vehicle_type_id":"4","last_reported":1729112888,"current_range_meters":18800,"station_id":"ce4bhu92rcd13ifvqi70","pricing_plan_id":"cebpf4jnsgd1na2vs0mg"},{"bike_id":"dcedea5b-73c4-4888-b703-3d96c56f5318","system_id":"levelo_inurba_marseille","lat":43.30939,"lon":5.40144,"is_reserved":false,"is_disabled":false,"rental_uris":{"android":"levelo://app?vid=dcedea5b-73c4-4888-b703-3d96c56f5318","ios":"levelo://app?vid=dcedea5b-73c4-4888-b703-3d96c56f5318"},"vehicle_type_id":"4","last_reported":1729112888,"current_range_meters":19600,"station_id":"ce4bgvp2rcd13ifvqct0","pricing_plan_id":"cebpf4jnsgd1na2vs0mg"},{"bike_id":"66ccc46d-618e-4760-b09c-27382152bdab","system_id":"levelo_inurba_marseille","lat":43.23193,"lon":5.35545,"is_reserved":false,"is_disabled":false,"rental_uris":{"android":"levelo://app?vid=66ccc46d-618e-4760-b09c-27382152bdab","ios":"levelo://app?vid=66ccc46d-618e-4760-b09c-27382152bdab"},"vehicle_type_id":"4","last_reported":1729112888,"current_range_meters":36400,"station_id":"ce4bhu92rcd13ifvqi70","pricing_plan_id":"cebpf4jnsgd1na2vs0mg"},{"bike_id":"2a9918f0-f13c-4780-9714-8bd827691343","system_id":"levelo_inurba_marseille","lat":43.29632,"lon":5.40599,"is_reserved":false,"is_disabled":false,"rental_uris":{"android":"levelo://app?vid=2a9918f0-f13c-4780-9714-8bd827691343","ios":"levelo://app?vid=2a9918f0-f13c-4780-9714-8bd827691343"},"vehicle_type_id":"4","last_reported":1729112888,"current_range_meters":16400,"station_id":"ce4bh0h2rcd13ifvqd60","pricing_plan_id":"cebpf4jnsgd1na2vs0mg"},{"bike_id":"a073cbb3-1627-43ef-923a-3c793e1abf15","system_id":"levelo_inurba_marseille","lat":43.30879,"lon":5.39642,"is_reserved":false,"is_disabled":false,"rental_uris":{"android":"levelo://app?vid=a073cbb3-1627-43ef-923a-3c793e1abf15","ios":"levelo://app?vid=a073cbb3-1627-43ef-923a-3c793e1abf15"},"vehicle_type_id":"4","last_reported":1729112888,"current_range_meters":24800,"station_id":"ce4bh012rcd13ifvqcv0","pricing_plan_id":"cebpf4jnsgd1na2vs0mg"},{"bike_id":"8e2b0f48-ccb5-4260-b9f7-e017b8cb13de","system_id":"levelo_inurba_marseille","lat":43.28101,"lon":5.3785,"is_reserved":false,"is_disabled":false,"rental_uris":{"android":"levelo://app?vid=8e2b0f48-ccb5-4260-b9f7-e017b8cb13de","ios":"levelo://app?vid=8e2b0f48-ccb5-4260-b9f7-e017b8cb13de"},"vehicle_type_id":"4","last_reported":1729112888,"current_range_meters":38800,"station_id":"ce4bha12rcd13ifvqee0","pricing_plan_id":"cebpf4jnsgd1na2vs0mg"},{"bike_id":"2208eed6-92d9-4d46-88d0-e19a867b711f","system_id":"levelo_inurba_marseille","lat":43.30329,"lon":5.40468,"is_reserved":false,"is_disabled":false,"rental_uris":{"android":"levelo://app?vid=2208eed6-92d9-4d46-88d0-e19a867b711f","ios":"levelo://app?vid=2208eed6-92d9-4d46-88d0-e19a867b711f"},"vehicle_type_id":"4","last_reported":1729112888,"current_range_meters":38800,"station_id":"ce4bh012rcd13ifvqd10","pricing_plan_id":"cebpf4jnsgd1na2vs0mg"},{"bike_id":"f35bf8c9-6a46-43c9-8d4f-2819ae217681","system_id":"levelo_inurba_marseille","lat":43.32654,"lon":5.40996,"is_reserved":false,"is_disabled":false,"rental_uris":{"android":"levelo://app?vid=f35bf8c9-6a46-43c9-8d4f-2819ae217681","ios":"levelo://app?vid=f35bf8c9-6a46-43c9-8d4f-2819ae217681"},"vehicle_type_id":"4","last_reported":1729112888,"current_range_meters":20800,"station_id":"ce4bhpp2rcd13ifvqhgg","pricing_plan_id":"cebpf4jnsgd1na2vs0mg"},{"bike_id":"f64d87dd-e9f5-40b3-9fce-ab56b783abeb","system_id":"levelo_inurba_marseille","lat":43.3117,"lon":5.38718,"is_reserved":false,"is_disabled":false,"rental_uris":{"android":"levelo://app?vid=f64d87dd-e9f5-40b3-9fce-ab56b783abeb","ios":"levelo://app?vid=f64d87dd-e9f5-40b3-9fce-ab56b783abeb"},"vehicle_type_id":"4","last_reported":1729112888,"current_range_meters":32400,"station_id":"ce4bgv12rcd13ifvqcp0","pricing_plan_id":"cebpf4jnsgd1na2vs0mg"},{"bike_id":"6300df2c-b9fe-4275-916d-dd75e59140c9","system_id":"levelo_inurba_marseille","lat":43.2319,"lon":5.35543,"is_reserved":false,"is_disabled":false,"rental_uris":{"android":"levelo://app?vid=6300df2c-b9fe-4275-916d-dd75e59140c9","ios":"levelo://app?vid=6300df2c-b9fe-4275-916d-dd75e59140c9"},"vehicle_type_id":"4","last_reported":1729112888,"current_range_meters":36800,"station_id":"ce4bhu92rcd13ifvqi70","pricing_plan_id":"cebpf4jnsgd1na2vs0mg"},{"bike_id":"f9dcef24-46bb-48b7-adaf-938d3db7b7f1","system_id":"levelo_inurba_marseille","lat":43.30874,"lon":5.37194,"is_reserved":false,"is_disabled":false,"rental_uris":{"android":"levelo://app?vid=f9dcef24-46bb-48b7-adaf-938d3db7b7f1","ios":"levelo://app?vid=f9dcef24-46bb-48b7-adaf-938d3db7b7f1"},"vehicle_type_id":"4","last_reported":1729112888,"current_range_meters":23200,"station_id":"ce4bguh2rcd13ifvqckg","pricing_plan_id":"cebpf4jnsgd1na2vs0mg"},{"bike_id":"6d56330f-5e73-42d5-b4b2-2b0523e4e635","system_id":"levelo_inurba_marseille","lat":43.27937,"lon":5.41043,"is_reserved":false,"is_disabled":false,"rental_uris":{"android":"levelo://app?vid=6d56330f-5e73-42d5-b4b2-2b0523e4e635","ios":"levelo://app?vid=6d56330f-5e73-42d5-b4b2-2b0523e4e635"},"vehicle_type_id":"4","last_reported":1729112888,"current_range_meters":20800,"station_id":"ce4bhnp2rcd13ifvqh0g","pricing_plan_id":"cebpf4jnsgd1na2vs0mg"},{"bike_id":"613c8ae3-a799-410f-92ce-3bf349e7941d","system_id":"levelo_inurba_marseille","lat":43.25083,"lon":5.39516,"is_reserved":false,"is_disabled":false,"rental_uris":{"android":"levelo://app?vid=613c8ae3-a799-410f-92ce-3bf349e7941d","ios":"levelo://app?vid=613c8ae3-a799-410f-92ce-3bf349e7941d"},"vehicle_type_id":"4","last_reported":1729112888,"current_range_meters":38800,"station_id":"ce4bhm12rcd13ifvqgkg","pricing_plan_id":"cebpf4jnsgd1na2vs0mg"},{"bike_id":"cd26ba12-f665-4e80-b30d-fa818267c67a","system_id":"levelo_inurba_marseille","lat":43.25121,"lon":5.40319,"is_reserved":false,"is_disabled":false,"rental_uris":{"android":"levelo://app?vid=cd26ba12-f665-4e80-b30d-fa818267c67a","ios":"levelo://app?vid=cd26ba12-f665-4e80-b30d-fa818267c67a"},"vehicle_type_id":"4","last_reported":1729112888,"current_range_meters":24400,"station_id":"ce4bhlh2rcd13ifvqgig","pricing_plan_id":"cebpf4jnsgd1na2vs0mg"},{"bike_id":"25cc4ae7-ab7a-49fc-9170-45024ce5e464","system_id":"levelo_inurba_marseille","lat":43.29272,"lon":5.40126,"is_reserved":false,"is_disabled":false,"rental_uris":{"android":"levelo://app?vid=25cc4ae7-ab7a-49fc-9170-45024ce5e464","ios":"levelo://app?vid=25cc4ae7-ab7a-49fc-9170-45024ce5e464"},"vehicle_type_id":"4","last_reported":1729112888,"current_range_meters":39200,"station_id":"ce4bh312rcd13ifvqdk0","pricing_plan_id":"cebpf4jnsgd1na2vs0mg"},{"bike_id":"caa040fc-814a-4299-872d-f4944e75160a","system_id":"levelo_inurba_marseille","lat":43.29198,"lon":5.35796,"is_reserved":false,"is_disabled":false,"rental_uris":{"android":"levelo://app?vid=caa040fc-814a-4299-872d-f4944e75160a","ios":"levelo://app?vid=caa040fc-814a-4299-872d-f4944e75160a"},"vehicle_type_id":"4","last_reported":1729112888,"current_range_meters":34000,"station_id":"ce4bhb12rcd13ifvqel0","pricing_plan_id":"cebpf4jnsgd1na2vs0mg"},{"bike_id":"3ed97689-64de-44a4-8654-31563cd4203b","system_id":"levelo_inurba_marseille","lat":43.279388,"lon":5.41048,"is_reserved":false,"is_disabled":false,"rental_uris":{"android":"levelo://app?vid=3ed97689-64de-44a4-8654-31563cd4203b","ios":"levelo://app?vid=3ed97689-64de-44a4-8654-31563cd4203b"},"vehicle_type_id":"4","last_reported":1729112888,"current_range_meters":8800,"station_id":"ce4bhnp2rcd13ifvqh0g","pricing_plan_id":"cebpf4jnsgd1na2vs0mg"},{"bike_id":"2140b6a3-5118-4150-823e-9225aeb56201","system_id":"levelo_inurba_marseille","lat":43.23194,"lon":5.35544,"is_reserved":false,"is_disabled":false,"rental_uris":{"android":"levelo://app?vid=2140b6a3-5118-4150-823e-9225aeb56201","ios":"levelo://app?vid=2140b6a3-5118-4150-823e-9225aeb56201"},"vehicle_type_id":"4","last_reported":1729112888,"current_range_meters":38400,"station_id":"ce4bhu92rcd13ifvqi70","pricing_plan_id":"cebpf4jnsgd1na2vs0mg"},{"bike_id":"8f557e3a-e042-4d01-b362-455fe3912d45","system_id":"levelo_inurba_marseille","lat":43.33611,"lon":5.41026,"is_reserved":false,"is_disabled":false,"rental_uris":{"android":"levelo://app?vid=8f557e3a-e042-4d01-b362-455fe3912d45","ios":"levelo://app?vid=8f557e3a-e042-4d01-b362-455fe3912d45"},"vehicle_type_id":"4","last_reported":1729112888,"current_range_meters":38800,"station_id":"ce4bhqh2rcd13ifvqhmg","pricing_plan_id":"cebpf4jnsgd1na2vs0mg"},{"bike_id":"4ef8b531-22de-4ceb-a5e6-f5ee3059c8bd","system_id":"levelo_inurba_marseille","lat":43.29038,"lon":5.39962,"is_reserved":false,"is_disabled":false,"rental_uris":{"android":"levelo://app?vid=4ef8b531-22de-4ceb-a5e6-f5ee3059c8bd","ios":"levelo://app?vid=4ef8b531-22de-4ceb-a5e6-f5ee3059c8bd"},"vehicle_type_id":"4","last_reported":1729112888,"current_range_meters":32000,"station_id":"ce4bh392rcd13ifvqdm0","pricing_plan_id":"cebpf4jnsgd1na2vs0mg"},{"bike_id":"6d3bf938-0787-415e-949c-c2324e1c36b9","system_id":"levelo_inurba_marseille","lat":43.31072,"lon":5.38352,"is_reserved":false,"is_disabled":false,"rental_uris":{"android":"levelo://app?vid=6d3bf938-0787-415e-949c-c2324e1c36b9","ios":"levelo://app?vid=6d3bf938-0787-415e-949c-c2324e1c36b9"},"vehicle_type_id":"4","last_reported":1729112888,"current_range_meters":32000,"station_id":"ce4bgv92rcd13ifvqcr0","pricing_plan_id":"cebpf4jnsgd1na2vs0mg"},{"bike_id":"64038440-7d16-488e-ba76-3dcaf2fc4cb0","system_id":"levelo_inurba_marseille","lat":43.31874,"lon":5.40734,"is_reserved":false,"is_disabled":false,"rental_uris":{"android":"levelo://app?vid=64038440-7d16-488e-ba76-3dcaf2fc4cb0","ios":"levelo://app?vid=64038440-7d16-488e-ba76-3dcaf2fc4cb0"},"vehicle_type_id":"4","last_reported":1729112888,"current_range_meters":25600,"station_id":"ce4bhq12rcd13ifvqhig","pricing_plan_id":"cebpf4jnsgd1na2vs0mg"},{"bike_id":"705d56a5-88a2-4cdf-99f9-21ee8c1daf09","system_id":"levelo_inurba_marseille","lat":43.29877,"lon":5.39746,"is_reserved":false,"is_disabled":false,"rental_uris":{"android":"levelo://app?vid=705d56a5-88a2-4cdf-99f9-21ee8c1daf09","ios":"levelo://app?vid=705d56a5-88a2-4cdf-99f9-21ee8c1daf09"},"vehicle_type_id":"4","last_reported":1729112888,"current_range_meters":33600,"station_id":"ce4bh0h2rcd13ifvqd50","pricing_plan_id":"cebpf4jnsgd1na2vs0mg"},{"bike_id":"ea5e655f-17be-40c7-9228-17d3eab622b7","system_id":"levelo_inurba_marseille","lat":43.23189,"lon":5.39983,"is_reserved":false,"is_disabled":false,"rental_uris":{"android":"levelo://app?vid=ea5e655f-17be-40c7-9228-17d3eab622b7","ios":"levelo://app?vid=ea5e655f-17be-40c7-9228-17d3eab622b7"},"vehicle_type_id":"4","last_reported":1729112888,"current_range_meters":38800,"station_id":"ce4bhn12rcd13ifvqgqg","pricing_plan_id":"cebpf4jnsgd1na2vs0mg"},{"bike_id":"2082f3b6-e4b4-43c2-bdcd-64d3aadfd6a1","system_id":"levelo_inurba_marseille","lat":43.25576,"lon":5.38237,"is_reserved":false,"is_disabled":false,"rental_uris":{"android":"levelo://app?vid=2082f3b6-e4b4-43c2-bdcd-64d3aadfd6a1","ios":"levelo://app?vid=2082f3b6-e4b4-43c2-bdcd-64d3aadfd6a1"},"vehicle_type_id":"4","last_reported":1729112888,"current_range_meters":38000,"station_id":"ce4bhih2rcd13ifvqfs0","pricing_plan_id":"cebpf4jnsgd1na2vs0mg"},{"bike_id":"80be08ff-304a-4329-b0df-46f6267d3ecd","system_id":"levelo_inurba_marseille","lat":43.32285,"lon":5.38276,"is_reserved":false,"is_disabled":false,"rental_uris":{"android":"levelo://app?vid=80be08ff-304a-4329-b0df-46f6267d3ecd","ios":"levelo://app?vid=80be08ff-304a-4329-b0df-46f6267d3ecd"},"vehicle_type_id":"4","last_reported":1729112888,"current_range_meters":27600,"station_id":"ce4bhr12rcd13ifvqhqg","pricing_plan_id":"cebpf4jnsgd1na2vs0mg"},{"bike_id":"640350ac-69ee-4118-a052-72396d01dfd7","system_id":"levelo_inurba_marseille","lat":43.24391,"lon":5.37064,"is_reserved":false,"is_disabled":false,"rental_uris":{"android":"levelo://app?vid=640350ac-69ee-4118-a052-72396d01dfd7","ios":"levelo://app?vid=640350ac-69ee-4118-a052-72396d01dfd7"},"vehicle_type_id":"4","last_reported":1729112888,"current_range_meters":33200,"station_id":"ce4bhhh2rcd13ifvqfk0","pricing_plan_id":"cebpf4jnsgd1na2vs0mg"},{"bike_id":"8d56d269-4b29-48f3-afa4-2d25429a351d","system_id":"levelo_inurba_marseille","lat":43.29034,"lon":5.39965,"is_reserved":false,"is_disabled":false,"rental_uris":{"android":"levelo://app?vid=8d56d269-4b29-48f3-afa4-2d25429a351d","ios":"levelo://app?vid=8d56d269-4b29-48f3-afa4-2d25429a351d"},"vehicle_type_id":"4","last_reported":1729112888,"current_range_meters":34800,"station_id":"ce4bh392rcd13ifvqdm0","pricing_plan_id":"cebpf4jnsgd1na2vs0mg"},{"bike_id":"83bcafb6-7740-4133-8b56-4bf302222f17","system_id":"levelo_inurba_marseille","lat":43.23966,"lon":5.36635,"is_reserved":false,"is_disabled":false,"rental_uris":{"android":"levelo://app?vid=83bcafb6-7740-4133-8b56-4bf302222f17","ios":"levelo://app?vid=83bcafb6-7740-4133-8b56-4bf302222f17"},"vehicle_type_id":"4","last_reported":1729112888,"current_range_meters":8000,"station_id":"ce4bhi12rcd13ifvqfp0","pricing_plan_id":"cebpf4jnsgd1na2vs0mg"},{"bike_id":"fe785414-8f42-4bcb-ade6-848bbe1c4a39","system_id":"levelo_inurba_marseille","lat":43.28439,"lon":5.39184,"is_reserved":false,"is_disabled":false,"rental_uris":{"android":"levelo://app?vid=fe785414-8f42-4bcb-ade6-848bbe1c4a39","ios":"levelo://app?vid=fe785414-8f42-4bcb-ade6-848bbe1c4a39"},"vehicle_type_id":"4","last_reported":1729112888,"current_range_meters":38800,"station_id":"ce4bhoh2rcd13ifvqh5g","pricing_plan_id":"cebpf4jnsgd1na2vs0mg"},{"bike_id":"3213665e-989c-4d22-9f5a-31c8522597dd","system_id":"levelo_inurba_marseille","lat":43.296,"lon":5.36142,"is_reserved":false,"is_disabled":false,"rental_uris":{"android":"levelo://app?vid=3213665e-989c-4d22-9f5a-31c8522597dd","ios":"levelo://app?vid=3213665e-989c-4d22-9f5a-31c8522597dd"},"vehicle_type_id":"4","last_reported":1729112888,"current_range_meters":31200,"station_id":"","pricing_plan_id":"cebpf4jnsgd1na2vs0mg"},{"bike_id":"85a43556-7d17-45ce-b0ba-e030bdf7e83d","system_id":"levelo_inurba_marseille","lat":43.28043,"lon":5.3695,"is_reserved":false,"is_disabled":false,"rental_uris":{"android":"levelo://app?vid=85a43556-7d17-45ce-b0ba-e030bdf7e83d","ios":"levelo://app?vid=85a43556-7d17-45ce-b0ba-e030bdf7e83d"},"vehicle_type_id":"4","last_reported":1729112888,"current_range_meters":38400,"station_id":"ce4bha12rcd13ifvqef0","pricing_plan_id":"cebpf4jnsgd1na2vs0mg"},{"bike_id":"d5076738-edd8-4abd-b963-e85a45a82003","system_id":"levelo_inurba_marseille","lat":43.27409,"lon":5.39407,"is_reserved":false,"is_disabled":false,"rental_uris":{"android":"levelo://app?vid=d5076738-edd8-4abd-b963-e85a45a82003","ios":"levelo://app?vid=d5076738-edd8-4abd-b963-e85a45a82003"},"vehicle_type_id":"4","last_reported":1729112888,"current_range_meters":38800,"station_id":"ce4bhdp2rcd13ifvqf20","pricing_plan_id":"cebpf4jnsgd1na2vs0mg"},{"bike_id":"ea6b55e4-b239-45dd-8e8e-09c03895e920","system_id":"levelo_inurba_marseille","lat":43.29527,"lon":5.39039,"is_reserved":false,"is_disabled":false,"rental_uris":{"android":"levelo://app?vid=ea6b55e4-b239-45dd-8e8e-09c03895e920","ios":"levelo://app?vid=ea6b55e4-b239-45dd-8e8e-09c03895e920"},"vehicle_type_id":"4","last_reported":1729112888,"current_range_meters":32800,"station_id":"ce4bh3p2rcd13ifvqdp0","pricing_plan_id":"cebpf4jnsgd1na2vs0mg"},{"bike_id":"03af8069-ad9b-4a92-b07f-9fa60aa8899e","system_id":"levelo_inurba_marseille","lat":43.30552,"lon":5.38434,"is_reserved":false,"is_disabled":false,"rental_uris":{"android":"levelo://app?vid=03af8069-ad9b-4a92-b07f-9fa60aa8899e","ios":"levelo://app?vid=03af8069-ad9b-4a92-b07f-9fa60aa8899e"},"vehicle_type_id":"4","last_reported":1729112888,"current_range_meters":28000,"station_id":"ce4bgg92rcd13ifvqb30","pricing_plan_id":"cebpf4jnsgd1na2vs0mg"},{"bike_id":"1641b826-604a-4181-8231-dca386f637a6","system_id":"levelo_inurba_marseille","lat":43.2319,"lon":5.35554,"is_reserved":false,"is_disabled":false,"rental_uris":{"android":"levelo://app?vid=1641b826-604a-4181-8231-dca386f637a6","ios":"levelo://app?vid=1641b826-604a-4181-8231-dca386f637a6"},"vehicle_type_id":"4","last_reported":1729112888,"current_range_meters":36800,"station_id":"ce4bhu92rcd13ifvqi70","pricing_plan_id":"cebpf4jnsgd1na2vs0mg"},{"bike_id":"89211ee2-076f-4df3-92bd-cd8885f2e76d","system_id":"levelo_inurba_marseille","lat":43.23201,"lon":5.35562,"is_reserved":false,"is_disabled":false,"rental_uris":{"android":"levelo://app?vid=89211ee2-076f-4df3-92bd-cd8885f2e76d","ios":"levelo://app?vid=89211ee2-076f-4df3-92bd-cd8885f2e76d"},"vehicle_type_id":"4","last_reported":1729112888,"current_range_meters":36800,"station_id":"ce4bhu92rcd13ifvqi70","pricing_plan_id":"cebpf4jnsgd1na2vs0mg"},{"bike_id":"9f889efc-42cd-4cb1-bc9a-8eb4b981bcf1","system_id":"levelo_inurba_marseille","lat":43.27839,"lon":5.39211,"is_reserved":false,"is_disabled":false,"rental_uris":{"android":"levelo://app?vid=9f889efc-42cd-4cb1-bc9a-8eb4b981bcf1","ios":"levelo://app?vid=9f889efc-42cd-4cb1-bc9a-8eb4b981bcf1"},"vehicle_type_id":"4","last_reported":1729112888,"current_range_meters":4000,"station_id":"ce4bhjp2rcd13ifvqga0","pricing_plan_id":"cebpf4jnsgd1na2vs0mg"},{"bike_id":"b67fd924-8775-430e-a5ef-ef25139c6204","system_id":"levelo_inurba_marseille","lat":43.28735,"lon":5.36076,"is_reserved":false,"is_disabled":false,"rental_uris":{"android":"levelo://app?vid=b67fd924-8775-430e-a5ef-ef25139c6204","ios":"levelo://app?vid=b67fd924-8775-430e-a5ef-ef25139c6204"},"vehicle_type_id":"4","last_reported":1729112888,"current_range_meters":3600,"station_id":"cki0cbj6b192h4jlfktg","pricing_plan_id":"cebpf4jnsgd1na2vs0mg"},{"bike_id":"318d5d9c-849f-4f8f-b309-807f78d3b9a2","system_id":"levelo_inurba_marseille","lat":43.29028,"lon":5.38655,"is_reserved":false,"is_disabled":false,"rental_uris":{"android":"levelo://app?vid=318d5d9c-849f-4f8f-b309-807f78d3b9a2","ios":"levelo://app?vid=318d5d9c-849f-4f8f-b309-807f78d3b9a2"},"vehicle_type_id":"4","last_reported":1729112888,"current_range_meters":15200,"station_id":"ce4bh4p2rcd13ifvqe0g","pricing_plan_id":"cebpf4jnsgd1na2vs0mg"},{"bike_id":"17c9014d-8c1c-4003-a611-f3e54d519e1a","system_id":"levelo_inurba_marseille","lat":43.29416,"lon":5.3862,"is_reserved":false,"is_disabled":false,"rental_uris":{"android":"levelo://app?vid=17c9014d-8c1c-4003-a611-f3e54d519e1a","ios":"levelo://app?vid=17c9014d-8c1c-4003-a611-f3e54d519e1a"},"vehicle_type_id":"4","last_reported":1729112888,"current_range_meters":38000,"station_id":"ce4bh2h2rcd13ifvqdh0","pricing_plan_id":"cebpf4jnsgd1na2vs0mg"},{"bike_id":"11071df5-8346-4075-b6c4-ef5e24af5ef5","system_id":"levelo_inurba_marseille","lat":43.29228,"lon":5.40075,"is_reserved":false,"is_disabled":false,"rental_uris":{"android":"levelo://app?vid=11071df5-8346-4075-b6c4-ef5e24af5ef5","ios":"levelo://app?vid=11071df5-8346-4075-b6c4-ef5e24af5ef5"},"vehicle_type_id":"4","last_reported":1729112888,"current_range_meters":36400,"station_id":"ce4bh112rcd13ifvqd90","pricing_plan_id":"cebpf4jnsgd1na2vs0mg"},{"bike_id":"b0d32892-91f1-45ad-ba89-968a04f1b24c","system_id":"levelo_inurba_marseille","lat":43.32486,"lon":5.36562,"is_reserved":false,"is_disabled":false,"rental_uris":{"android":"levelo://app?vid=b0d32892-91f1-45ad-ba89-968a04f1b24c","ios":"levelo://app?vid=b0d32892-91f1-45ad-ba89-968a04f1b24c"},"vehicle_type_id":"4","last_reported":1729112888,"current_range_meters":38800,"station_id":"ce4bhs12rcd13ifvqhvg","pricing_plan_id":"cebpf4jnsgd1na2vs0mg"},{"bike_id":"c578b0df-8e72-4cf3-b064-b97180609dff","system_id":"levelo_inurba_marseille","lat":43.23188,"lon":5.39986,"is_reserved":false,"is_disabled":false,"rental_uris":{"android":"levelo://app?vid=c578b0df-8e72-4cf3-b064-b97180609dff","ios":"levelo://app?vid=c578b0df-8e72-4cf3-b064-b97180609dff"},"vehicle_type_id":"4","last_reported":1729112888,"current_range_meters":9600,"station_id":"ce4bhn12rcd13ifvqgqg","pricing_plan_id":"cebpf4jnsgd1na2vs0mg"},{"bike_id":"efc0309f-431d-4158-afa3-be5f5d796e15","system_id":"levelo_inurba_marseille","lat":43.28666,"lon":5.36359,"is_reserved":false,"is_disabled":false,"rental_uris":{"android":"levelo://app?vid=efc0309f-431d-4158-afa3-be5f5d796e15","ios":"levelo://app?vid=efc0309f-431d-4158-afa3-be5f5d796e15"},"vehicle_type_id":"4","last_reported":1729112888,"current_range_meters":37600,"station_id":"ce4bhah2rcd13ifvqej0","pricing_plan_id":"cebpf4jnsgd1na2vs0mg"},{"bike_id":"afcc66a1-298d-483e-93e3-62b59e7df33e","system_id":"levelo_inurba_marseille","lat":43.29046,"lon":5.40008,"is_reserved":false,"is_disabled":false,"rental_uris":{"android":"levelo://app?vid=afcc66a1-298d-483e-93e3-62b59e7df33e","ios":"levelo://app?vid=afcc66a1-298d-483e-93e3-62b59e7df33e"},"vehicle_type_id":"4","last_reported":1729112888,"current_range_meters":38800,"station_id":"ce4bh392rcd13ifvqdm0","pricing_plan_id":"cebpf4jnsgd1na2vs0mg"},{"bike_id":"65a4f7fb-68f0-47e9-ac16-e9219e58dae5","system_id":"levelo_inurba_marseille","lat":43.31114,"lon":5.37761,"is_reserved":false,"is_disabled":false,"rental_uris":{"android":"levelo://app?vid=65a4f7fb-68f0-47e9-ac16-e9219e58dae5","ios":"levelo://app?vid=65a4f7fb-68f0-47e9-ac16-e9219e58dae5"},"vehicle_type_id":"4","last_reported":1729112888,"current_range_meters":38800,"station_id":"ce4bgt92rcd13ifvqcg0","pricing_plan_id":"cebpf4jnsgd1na2vs0mg"},{"bike_id":"7b5d439c-19e0-4a4e-9000-56a231442241","system_id":"levelo_inurba_marseille","lat":43.29514,"lon":5.39034,"is_reserved":false,"is_disabled":false,"rental_uris":{"android":"levelo://app?vid=7b5d439c-19e0-4a4e-9000-56a231442241","ios":"levelo://app?vid=7b5d439c-19e0-4a4e-9000-56a231442241"},"vehicle_type_id":"4","last_reported":1729112888,"current_range_meters":24800,"station_id":"ce4bh3p2rcd13ifvqdp0","pricing_plan_id":"cebpf4jnsgd1na2vs0mg"},{"bike_id":"24f85f72-dee6-41bb-bdb8-974ca7c83215","system_id":"levelo_inurba_marseille","lat":43.33023,"lon":5.39042,"is_reserved":false,"is_disabled":false,"rental_uris":{"android":"levelo://app?vid=24f85f72-dee6-41bb-bdb8-974ca7c83215","ios":"levelo://app?vid=24f85f72-dee6-41bb-bdb8-974ca7c83215"},"vehicle_type_id":"4","last_reported":1729112888,"current_range_meters":28000,"station_id":"ce4bhr92rcd13ifvqhrg","pricing_plan_id":"cebpf4jnsgd1na2vs0mg"},{"bike_id":"448507d1-2887-4b00-b742-a809cd67ef32","system_id":"levelo_inurba_marseille","lat":43.31539,"lon":5.38031,"is_reserved":false,"is_disabled":false,"rental_uris":{"android":"levelo://app?vid=448507d1-2887-4b00-b742-a809cd67ef32","ios":"levelo://app?vid=448507d1-2887-4b00-b742-a809cd67ef32"},"vehicle_type_id":"4","last_reported":1729112888,"current_range_meters":16400,"station_id":"ce4bhsp2rcd13ifvqi50","pricing_plan_id":"cebpf4jnsgd1na2vs0mg"},{"bike_id":"87440bd7-4730-412f-b52f-03b263c3d6ba","system_id":"levelo_inurba_marseille","lat":43.2319,"lon":5.35557,"is_reserved":false,"is_disabled":false,"rental_uris":{"android":"levelo://app?vid=87440bd7-4730-412f-b52f-03b263c3d6ba","ios":"levelo://app?vid=87440bd7-4730-412f-b52f-03b263c3d6ba"},"vehicle_type_id":"4","last_reported":1729112888,"current_range_meters":23200,"station_id":"ce4bhu92rcd13ifvqi70","pricing_plan_id":"cebpf4jnsgd1na2vs0mg"},{"bike_id":"7b98e5cd-0e82-4493-9779-29528e876c23","system_id":"levelo_inurba_marseille","lat":43.31169,"lon":5.38706,"is_reserved":false,"is_disabled":false,"rental_uris":{"android":"levelo://app?vid=7b98e5cd-0e82-4493-9779-29528e876c23","ios":"levelo://app?vid=7b98e5cd-0e82-4493-9779-29528e876c23"},"vehicle_type_id":"4","last_reported":1729112888,"current_range_meters":39200,"station_id":"ce4bgv12rcd13ifvqcp0","pricing_plan_id":"cebpf4jnsgd1na2vs0mg"},{"bike_id":"921b477e-15c8-4404-9f20-1758fb7015e9","system_id":"levelo_inurba_marseille","lat":43.24178,"lon":5.39734,"is_reserved":false,"is_disabled":false,"rental_uris":{"android":"levelo://app?vid=921b477e-15c8-4404-9f20-1758fb7015e9","ios":"levelo://app?vid=921b477e-15c8-4404-9f20-1758fb7015e9"},"vehicle_type_id":"4","last_reported":1729112888,"current_range_meters":23200,"station_id":"ce4bhn12rcd13ifvqgpg","pricing_plan_id":"cebpf4jnsgd1na2vs0mg"},{"bike_id":"cbc0f41c-f406-4437-b8c7-7ccab2e9a106","system_id":"levelo_inurba_marseille","lat":43.28445,"lon":5.392,"is_reserved":false,"is_disabled":false,"rental_uris":{"android":"levelo://app?vid=cbc0f41c-f406-4437-b8c7-7ccab2e9a106","ios":"levelo://app?vid=cbc0f41c-f406-4437-b8c7-7ccab2e9a106"},"vehicle_type_id":"4","last_reported":1729112888,"current_range_meters":9200,"station_id":"ce4bhoh2rcd13ifvqh5g","pricing_plan_id":"cebpf4jnsgd1na2vs0mg"},{"bike_id":"ff96eee3-1ac8-4888-9ae7-e4b6cc8154af","system_id":"levelo_inurba_marseille","lat":43.33739,"lon":5.3746,"is_reserved":false,"is_disabled":false,"rental_uris":{"android":"levelo://app?vid=ff96eee3-1ac8-4888-9ae7-e4b6cc8154af","ios":"levelo://app?vid=ff96eee3-1ac8-4888-9ae7-e4b6cc8154af"},"vehicle_type_id":"4","last_reported":1729112888,"current_range_meters":27600,"station_id":"","pricing_plan_id":"cebpf4jnsgd1na2vs0mg"},{"bike_id":"fd31b6d3-f2cd-422f-bf88-b8f3f1704f37","system_id":"levelo_inurba_marseille","lat":43.28926,"lon":5.38402,"is_reserved":false,"is_disabled":false,"rental_uris":{"android":"levelo://app?vid=fd31b6d3-f2cd-422f-bf88-b8f3f1704f37","ios":"levelo://app?vid=fd31b6d3-f2cd-422f-bf88-b8f3f1704f37"},"vehicle_type_id":"4","last_reported":1729112888,"current_range_meters":27200,"station_id":"ce4bh612rcd13ifvqe6g","pricing_plan_id":"cebpf4jnsgd1na2vs0mg"},{"bike_id":"49c3db25-f66c-4541-ad54-af787a8b9e0e","system_id":"levelo_inurba_marseille","lat":43.27495,"lon":5.42452,"is_reserved":false,"is_disabled":false,"rental_uris":{"android":"levelo://app?vid=49c3db25-f66c-4541-ad54-af787a8b9e0e","ios":"levelo://app?vid=49c3db25-f66c-4541-ad54-af787a8b9e0e"},"vehicle_type_id":"4","last_reported":1729112888,"current_range_meters":9200,"station_id":"ce4bhn92rcd13ifvqgrg","pricing_plan_id":"cebpf4jnsgd1na2vs0mg"},{"bike_id":"3b922f0e-2823-4c39-9e27-d9836eb9e938","system_id":"levelo_inurba_marseille","lat":43.30593,"lon":5.39346,"is_reserved":false,"is_disabled":false,"rental_uris":{"android":"levelo://app?vid=3b922f0e-2823-4c39-9e27-d9836eb9e938","ios":"levelo://app?vid=3b922f0e-2823-4c39-9e27-d9836eb9e938"},"vehicle_type_id":"4","last_reported":1729112888,"current_range_meters":21600,"station_id":"ce4bh0p2rcd13ifvqd80","pricing_plan_id":"cebpf4jnsgd1na2vs0mg"},{"bike_id":"9b149a0a-3ac6-467a-b9a1-c55da0c07d21","system_id":"levelo_inurba_marseille","lat":43.29306,"lon":5.37456,"is_reserved":false,"is_disabled":false,"rental_uris":{"android":"levelo://app?vid=9b149a0a-3ac6-467a-b9a1-c55da0c07d21","ios":"levelo://app?vid=9b149a0a-3ac6-467a-b9a1-c55da0c07d21"},"vehicle_type_id":"4","last_reported":1729112888,"current_range_meters":4400,"station_id":"ce4bgi12rcd13ifvqb70","pricing_plan_id":"cebpf4jnsgd1na2vs0mg"},{"bike_id":"db9f1951-b3af-4a73-be7b-37c43d83b120","system_id":"levelo_inurba_marseille","lat":43.292,"lon":5.39325,"is_reserved":false,"is_disabled":false,"rental_uris":{"android":"levelo://app?vid=db9f1951-b3af-4a73-be7b-37c43d83b120","ios":"levelo://app?vid=db9f1951-b3af-4a73-be7b-37c43d83b120"},"vehicle_type_id":"4","last_reported":1729112888,"current_range_meters":38800,"station_id":"ce4bh192rcd13ifvqdd0","pricing_plan_id":"cebpf4jnsgd1na2vs0mg"},{"bike_id":"bde88b53-17d8-48d7-9e49-9feabd039b14","system_id":"levelo_inurba_marseille","lat":43.29522,"lon":5.38544,"is_reserved":false,"is_disabled":false,"rental_uris":{"android":"levelo://app?vid=bde88b53-17d8-48d7-9e49-9feabd039b14","ios":"levelo://app?vid=bde88b53-17d8-48d7-9e49-9feabd039b14"},"vehicle_type_id":"4","last_reported":1729112888,"current_range_meters":30000,"station_id":"ce4bgih2rcd13ifvqba0","pricing_plan_id":"cebpf4jnsgd1na2vs0mg"},{"bike_id":"1b20dbd5-2b2d-4144-bc9b-6356f36497ca","system_id":"levelo_inurba_marseille","lat":43.24179,"lon":5.39737,"is_reserved":false,"is_disabled":false,"rental_uris":{"android":"levelo://app?vid=1b20dbd5-2b2d-4144-bc9b-6356f36497ca","ios":"levelo://app?vid=1b20dbd5-2b2d-4144-bc9b-6356f36497ca"},"vehicle_type_id":"4","last_reported":1729112888,"current_range_meters":10000,"station_id":"ce4bhn12rcd13ifvqgpg","pricing_plan_id":"cebpf4jnsgd1na2vs0mg"},{"bike_id":"8e3990aa-7c51-4932-868e-0e872a92b45b","system_id":"levelo_inurba_marseille","lat":43.28939,"lon":5.36625,"is_reserved":false,"is_disabled":false,"rental_uris":{"android":"levelo://app?vid=8e3990aa-7c51-4932-868e-0e872a92b45b","ios":"levelo://app?vid=8e3990aa-7c51-4932-868e-0e872a92b45b"},"vehicle_type_id":"4","last_reported":1729112888,"current_range_meters":10000,"station_id":"ce4bhap2rcd13ifvqek0","pricing_plan_id":"cebpf4jnsgd1na2vs0mg"},{"bike_id":"cc5b7569-0a80-4efc-88b5-0cfec89540cb","system_id":"levelo_inurba_marseille","lat":43.27901,"lon":5.38007,"is_reserved":false,"is_disabled":false,"rental_uris":{"android":"levelo://app?vid=cc5b7569-0a80-4efc-88b5-0cfec89540cb","ios":"levelo://app?vid=cc5b7569-0a80-4efc-88b5-0cfec89540cb"},"vehicle_type_id":"4","last_reported":1729112888,"current_range_meters":28800,"station_id":"ce4bhf92rcd13ifvqf50","pricing_plan_id":"cebpf4jnsgd1na2vs0mg"},{"bike_id":"292b9425-1372-40d4-bf0a-fe57aa779a41","system_id":"levelo_inurba_marseille","lat":43.23064,"lon":5.35495,"is_reserved":false,"is_disabled":false,"rental_uris":{"android":"levelo://app?vid=292b9425-1372-40d4-bf0a-fe57aa779a41","ios":"levelo://app?vid=292b9425-1372-40d4-bf0a-fe57aa779a41"},"vehicle_type_id":"4","last_reported":1729112888,"current_range_meters":27200,"station_id":"cpo3342slgdg3j2ifvpg","pricing_plan_id":"cebpf4jnsgd1na2vs0mg"},{"bike_id":"ee05f638-6df5-4391-946d-0d99cd4a4030","system_id":"levelo_inurba_marseille","lat":43.31269,"lon":5.40167,"is_reserved":false,"is_disabled":false,"rental_uris":{"android":"levelo://app?vid=ee05f638-6df5-4391-946d-0d99cd4a4030","ios":"levelo://app?vid=ee05f638-6df5-4391-946d-0d99cd4a4030"},"vehicle_type_id":"4","last_reported":1729112888,"current_range_meters":26800,"station_id":"ce4bh092rcd13ifvqd30","pricing_plan_id":"cebpf4jnsgd1na2vs0mg"},{"bike_id":"94eae76f-9257-483c-89a4-cf0ade9875e4","system_id":"levelo_inurba_marseille","lat":43.307495,"lon":5.402709,"is_reserved":false,"is_disabled":false,"rental_uris":{"android":"levelo://app?vid=94eae76f-9257-483c-89a4-cf0ade9875e4","ios":"levelo://app?vid=94eae76f-9257-483c-89a4-cf0ade9875e4"},"vehicle_type_id":"4","last_reported":1729112888,"current_range_meters":36000,"station_id":"ce4bhoh2rcd13ifvqh5g","pricing_plan_id":"cebpf4jnsgd1na2vs0mg"},{"bike_id":"8518d50a-def0-42c3-8f65-459244226eb7","system_id":"levelo_inurba_marseille","lat":43.30891,"lon":5.3964,"is_reserved":false,"is_disabled":false,"rental_uris":{"android":"levelo://app?vid=8518d50a-def0-42c3-8f65-459244226eb7","ios":"levelo://app?vid=8518d50a-def0-42c3-8f65-459244226eb7"},"vehicle_type_id":"4","last_reported":1729112888,"current_range_meters":9200,"station_id":"ce4bh012rcd13ifvqcv0","pricing_plan_id":"cebpf4jnsgd1na2vs0mg"},{"bike_id":"32a580c4-53d6-43f4-8202-300b3057e660","system_id":"levelo_inurba_marseille","lat":43.28407,"lon":5.37513,"is_reserved":false,"is_disabled":false,"rental_uris":{"android":"levelo://app?vid=32a580c4-53d6-43f4-8202-300b3057e660","ios":"levelo://app?vid=32a580c4-53d6-43f4-8202-300b3057e660"},"vehicle_type_id":"4","last_reported":1729112888,"current_range_meters":4000,"station_id":"ce4bh412rcd13ifvqds0","pricing_plan_id":"cebpf4jnsgd1na2vs0mg"},{"bike_id":"49b75a91-d34f-4cd0-a94c-376dd7b8cab3","system_id":"levelo_inurba_marseille","lat":43.27903,"lon":5.38002,"is_reserved":false,"is_disabled":false,"rental_uris":{"android":"levelo://app?vid=49b75a91-d34f-4cd0-a94c-376dd7b8cab3","ios":"levelo://app?vid=49b75a91-d34f-4cd0-a94c-376dd7b8cab3"},"vehicle_type_id":"4","last_reported":1729112888,"current_range_meters":18000,"station_id":"ce4bhf92rcd13ifvqf50","pricing_plan_id":"cebpf4jnsgd1na2vs0mg"},{"bike_id":"9ba3e93e-4e4d-4950-920c-6e9f36a6cdd6","system_id":"levelo_inurba_marseille","lat":43.27072,"lon":5.4228,"is_reserved":false,"is_disabled":false,"rental_uris":{"android":"levelo://app?vid=9ba3e93e-4e4d-4950-920c-6e9f36a6cdd6","ios":"levelo://app?vid=9ba3e93e-4e4d-4950-920c-6e9f36a6cdd6"},"vehicle_type_id":"4","last_reported":1729112888,"current_range_meters":16000,"station_id":"ce4bhk92rcd13ifvqgb0","pricing_plan_id":"cebpf4jnsgd1na2vs0mg"},{"bike_id":"da820585-1a0d-4039-9364-475c1b8a6e88","system_id":"levelo_inurba_marseille","lat":43.29015,"lon":5.38131,"is_reserved":false,"is_disabled":false,"rental_uris":{"android":"levelo://app?vid=da820585-1a0d-4039-9364-475c1b8a6e88","ios":"levelo://app?vid=da820585-1a0d-4039-9364-475c1b8a6e88"},"vehicle_type_id":"4","last_reported":1729112888,"current_range_meters":28400,"station_id":"ce4bh4p2rcd13ifvqe1g","pricing_plan_id":"cebpf4jnsgd1na2vs0mg"},{"bike_id":"e2edaf99-5782-4b62-8256-c9bab1ba7b6f","system_id":"levelo_inurba_marseille","lat":43.29277,"lon":5.40129,"is_reserved":false,"is_disabled":false,"rental_uris":{"android":"levelo://app?vid=e2edaf99-5782-4b62-8256-c9bab1ba7b6f","ios":"levelo://app?vid=e2edaf99-5782-4b62-8256-c9bab1ba7b6f"},"vehicle_type_id":"4","last_reported":1729112888,"current_range_meters":38800,"station_id":"ce4bh312rcd13ifvqdk0","pricing_plan_id":"cebpf4jnsgd1na2vs0mg"},{"bike_id":"75a536d5-c566-435f-8994-dc9c347877e7","system_id":"levelo_inurba_marseille","lat":43.301,"lon":5.39071,"is_reserved":false,"is_disabled":false,"rental_uris":{"android":"levelo://app?vid=75a536d5-c566-435f-8994-dc9c347877e7","ios":"levelo://app?vid=75a536d5-c566-435f-8994-dc9c347877e7"},"vehicle_type_id":"4","last_reported":1729112888,"current_range_meters":3600,"station_id":"ce4bh192rcd13ifvqdb0","pricing_plan_id":"cebpf4jnsgd1na2vs0mg"},{"bike_id":"65406e49-8594-4cfa-8223-dde29203d51c","system_id":"levelo_inurba_marseille","lat":43.27383,"lon":5.36253,"is_reserved":false,"is_disabled":false,"rental_uris":{"android":"levelo://app?vid=65406e49-8594-4cfa-8223-dde29203d51c","ios":"levelo://app?vid=65406e49-8594-4cfa-8223-dde29203d51c"},"vehicle_type_id":"4","last_reported":1729112888,"current_range_meters":6800,"station_id":"ce4bhbh2rcd13ifvqeo0","pricing_plan_id":"cebpf4jnsgd1na2vs0mg"},{"bike_id":"062fd435-e62a-4678-9d8e-1fcfac65814f","system_id":"levelo_inurba_marseille","lat":43.31333,"lon":5.39702,"is_reserved":false,"is_disabled":false,"rental_uris":{"android":"levelo://app?vid=062fd435-e62a-4678-9d8e-1fcfac65814f","ios":"levelo://app?vid=062fd435-e62a-4678-9d8e-1fcfac65814f"},"vehicle_type_id":"4","last_reported":1729112888,"current_range_meters":38800,"station_id":"ce4bgvp2rcd13ifvqcu0","pricing_plan_id":"cebpf4jnsgd1na2vs0mg"},{"bike_id":"ae34c915-6c8c-45f4-bd71-c5975b0e71f4","system_id":"levelo_inurba_marseille","lat":43.3189,"lon":5.4073,"is_reserved":false,"is_disabled":false,"rental_uris":{"android":"levelo://app?vid=ae34c915-6c8c-45f4-bd71-c5975b0e71f4","ios":"levelo://app?vid=ae34c915-6c8c-45f4-bd71-c5975b0e71f4"},"vehicle_type_id":"4","last_reported":1729112888,"current_range_meters":36800,"station_id":"ce4bhq12rcd13ifvqhig","pricing_plan_id":"cebpf4jnsgd1na2vs0mg"},{"bike_id":"064bc3f1-4c7d-4e67-b0b0-c95b28fcb395","system_id":"levelo_inurba_marseille","lat":43.24083,"lon":5.3775,"is_reserved":false,"is_disabled":false,"rental_uris":{"android":"levelo://app?vid=064bc3f1-4c7d-4e67-b0b0-c95b28fcb395","ios":"levelo://app?vid=064bc3f1-4c7d-4e67-b0b0-c95b28fcb395"},"vehicle_type_id":"4","last_reported":1729112888,"current_range_meters":26800,"station_id":"ce4bhnp2rcd13ifvqgvg","pricing_plan_id":"cebpf4jnsgd1na2vs0mg"},{"bike_id":"7e022d50-fee0-48bd-8f68-64779ba65969","system_id":"levelo_inurba_marseille","lat":43.2572,"lon":5.41117,"is_reserved":false,"is_disabled":false,"rental_uris":{"android":"levelo://app?vid=7e022d50-fee0-48bd-8f68-64779ba65969","ios":"levelo://app?vid=7e022d50-fee0-48bd-8f68-64779ba65969"},"vehicle_type_id":"4","last_reported":1729112888,"current_range_meters":4800,"station_id":"ce4bhkp2rcd13ifvqgd0","pricing_plan_id":"cebpf4jnsgd1na2vs0mg"},{"bike_id":"84203c6b-3738-4857-9baa-9a4a42e258a4","system_id":"levelo_inurba_marseille","lat":43.28916,"lon":5.36382,"is_reserved":false,"is_disabled":false,"rental_uris":{"android":"levelo://app?vid=84203c6b-3738-4857-9baa-9a4a42e258a4","ios":"levelo://app?vid=84203c6b-3738-4857-9baa-9a4a42e258a4"},"vehicle_type_id":"4","last_reported":1729112888,"current_range_meters":30000,"station_id":"ce4bhc92rcd13ifvqetg","pricing_plan_id":"cebpf4jnsgd1na2vs0mg"},{"bike_id":"4b39118f-bb62-406b-9203-0b8ddf9c99cc","system_id":"levelo_inurba_marseille","lat":43.22934,"lon":5.35378,"is_reserved":false,"is_disabled":false,"rental_uris":{"android":"levelo://app?vid=4b39118f-bb62-406b-9203-0b8ddf9c99cc","ios":"levelo://app?vid=4b39118f-bb62-406b-9203-0b8ddf9c99cc"},"vehicle_type_id":"4","last_reported":1729112888,"current_range_meters":16000,"station_id":"cpo3532slgdg3j2ikp40","pricing_plan_id":"cebpf4jnsgd1na2vs0mg"},{"bike_id":"044358a4-9556-4db7-8947-9b9dbe130c14","system_id":"levelo_inurba_marseille","lat":43.33018,"lon":5.39044,"is_reserved":false,"is_disabled":false,"rental_uris":{"android":"levelo://app?vid=044358a4-9556-4db7-8947-9b9dbe130c14","ios":"levelo://app?vid=044358a4-9556-4db7-8947-9b9dbe130c14"},"vehicle_type_id":"4","last_reported":1729112888,"current_range_meters":24800,"station_id":"ce4bhr92rcd13ifvqhrg","pricing_plan_id":"cebpf4jnsgd1na2vs0mg"},{"bike_id":"5e905ee2-3b76-4d5c-99d5-5afb1b3abd5c","system_id":"levelo_inurba_marseille","lat":43.29036,"lon":5.39971,"is_reserved":false,"is_disabled":false,"rental_uris":{"android":"levelo://app?vid=5e905ee2-3b76-4d5c-99d5-5afb1b3abd5c","ios":"levelo://app?vid=5e905ee2-3b76-4d5c-99d5-5afb1b3abd5c"},"vehicle_type_id":"4","last_reported":1729112888,"current_range_meters":25200,"station_id":"ce4bh392rcd13ifvqdm0","pricing_plan_id":"cebpf4jnsgd1na2vs0mg"},{"bike_id":"15a0fb58-97fc-44a6-a470-84a4ce5fd498","system_id":"levelo_inurba_marseille","lat":43.306,"lon":5.3936,"is_reserved":false,"is_disabled":false,"rental_uris":{"android":"levelo://app?vid=15a0fb58-97fc-44a6-a470-84a4ce5fd498","ios":"levelo://app?vid=15a0fb58-97fc-44a6-a470-84a4ce5fd498"},"vehicle_type_id":"4","last_reported":1729112888,"current_range_meters":28800,"station_id":"ce4bh0p2rcd13ifvqd80","pricing_plan_id":"cebpf4jnsgd1na2vs0mg"},{"bike_id":"f5fa6493-fc7c-42e4-b3f8-48e1a1dd711c","system_id":"levelo_inurba_marseille","lat":43.31325,"lon":5.39695,"is_reserved":false,"is_disabled":false,"rental_uris":{"android":"levelo://app?vid=f5fa6493-fc7c-42e4-b3f8-48e1a1dd711c","ios":"levelo://app?vid=f5fa6493-fc7c-42e4-b3f8-48e1a1dd711c"},"vehicle_type_id":"4","last_reported":1729112888,"current_range_meters":24000,"station_id":"ce4bgvp2rcd13ifvqcu0","pricing_plan_id":"cebpf4jnsgd1na2vs0mg"},{"bike_id":"a9d80141-cb04-4f88-bcc5-9763572e3517","system_id":"levelo_inurba_marseille","lat":43.23195,"lon":5.35546,"is_reserved":false,"is_disabled":false,"rental_uris":{"android":"levelo://app?vid=a9d80141-cb04-4f88-bcc5-9763572e3517","ios":"levelo://app?vid=a9d80141-cb04-4f88-bcc5-9763572e3517"},"vehicle_type_id":"4","last_reported":1729112888,"current_range_meters":36400,"station_id":"ce4bhu92rcd13ifvqi70","pricing_plan_id":"cebpf4jnsgd1na2vs0mg"},{"bike_id":"2c6e294c-f13d-4321-8a92-e25b2a5b65ea","system_id":"levelo_inurba_marseille","lat":43.28462,"lon":5.35897,"is_reserved":false,"is_disabled":false,"rental_uris":{"android":"levelo://app?vid=2c6e294c-f13d-4321-8a92-e25b2a5b65ea","ios":"levelo://app?vid=2c6e294c-f13d-4321-8a92-e25b2a5b65ea"},"vehicle_type_id":"4","last_reported":1729112888,"current_range_meters":38800,"station_id":"ce4bhah2rcd13ifvqei0","pricing_plan_id":"cebpf4jnsgd1na2vs0mg"},{"bike_id":"1a1e70ec-2d4c-43eb-ade0-2d94ccd2230b","system_id":"levelo_inurba_marseille","lat":43.24666,"lon":5.38166,"is_reserved":false,"is_disabled":false,"rental_uris":{"android":"levelo://app?vid=1a1e70ec-2d4c-43eb-ade0-2d94ccd2230b","ios":"levelo://app?vid=1a1e70ec-2d4c-43eb-ade0-2d94ccd2230b"},"vehicle_type_id":"4","last_reported":1729112888,"current_range_meters":6000,"station_id":"ce4bhih2rcd13ifvqfr0","pricing_plan_id":"cebpf4jnsgd1na2vs0mg"},{"bike_id":"58fc0300-f080-417b-95f8-1703c9f98f7e","system_id":"levelo_inurba_marseille","lat":43.29675,"lon":5.374533,"is_reserved":false,"is_disabled":false,"rental_uris":{"android":"levelo://app?vid=58fc0300-f080-417b-95f8-1703c9f98f7e","ios":"levelo://app?vid=58fc0300-f080-417b-95f8-1703c9f98f7e"},"vehicle_type_id":"4","last_reported":1729112888,"current_range_meters":17200,"station_id":"","pricing_plan_id":"cebpf4jnsgd1na2vs0mg"},{"bike_id":"8dd2e3cf-bd56-4995-8abf-09c0673583de","system_id":"levelo_inurba_marseille","lat":43.28457,"lon":5.35878,"is_reserved":false,"is_disabled":false,"rental_uris":{"android":"levelo://app?vid=8dd2e3cf-bd56-4995-8abf-09c0673583de","ios":"levelo://app?vid=8dd2e3cf-bd56-4995-8abf-09c0673583de"},"vehicle_type_id":"4","last_reported":1729112888,"current_range_meters":38800,"station_id":"ce4bhah2rcd13ifvqei0","pricing_plan_id":"cebpf4jnsgd1na2vs0mg"},{"bike_id":"4f00c2b5-5278-421c-be9b-8b7ab009d1bf","system_id":"levelo_inurba_marseille","lat":43.287933,"lon":5.378372,"is_reserved":false,"is_disabled":false,"rental_uris":{"android":"levelo://app?vid=4f00c2b5-5278-421c-be9b-8b7ab009d1bf","ios":"levelo://app?vid=4f00c2b5-5278-421c-be9b-8b7ab009d1bf"},"vehicle_type_id":"4","last_reported":1729112888,"current_range_meters":3600,"station_id":"","pricing_plan_id":"cebpf4jnsgd1na2vs0mg"},{"bike_id":"2195c9f1-4dc4-4a5d-b2b0-331d0442ad86","system_id":"levelo_inurba_marseille","lat":43.3015,"lon":5.3742,"is_reserved":false,"is_disabled":false,"rental_uris":{"android":"levelo://app?vid=2195c9f1-4dc4-4a5d-b2b0-331d0442ad86","ios":"levelo://app?vid=2195c9f1-4dc4-4a5d-b2b0-331d0442ad86"},"vehicle_type_id":"4","last_reported":1729112888,"current_range_meters":22400,"station_id":"ce4bgs92rcd13ifvqcc0","pricing_plan_id":"cebpf4jnsgd1na2vs0mg"},{"bike_id":"213e22b1-000f-42c2-afd8-74fbd1306890","system_id":"levelo_inurba_marseille","lat":43.297,"lon":5.36595,"is_reserved":false,"is_disabled":false,"rental_uris":{"android":"levelo://app?vid=213e22b1-000f-42c2-afd8-74fbd1306890","ios":"levelo://app?vid=213e22b1-000f-42c2-afd8-74fbd1306890"},"vehicle_type_id":"4","last_reported":1729112888,"current_range_meters":33200,"station_id":"ce4bgn12rcd13ifvqbt0","pricing_plan_id":"cebpf4jnsgd1na2vs0mg"},{"bike_id":"d9a323b0-ce75-4932-8073-0726874a2cda","system_id":"levelo_inurba_marseille","lat":43.27613,"lon":5.36106,"is_reserved":false,"is_disabled":false,"rental_uris":{"android":"levelo://app?vid=d9a323b0-ce75-4932-8073-0726874a2cda","ios":"levelo://app?vid=d9a323b0-ce75-4932-8073-0726874a2cda"},"vehicle_type_id":"4","last_reported":1729112888,"current_range_meters":32000,"station_id":"ce4bgj92rcd13ifvqbe0","pricing_plan_id":"cebpf4jnsgd1na2vs0mg"},{"bike_id":"0ec05727-e2d2-42fb-a9cf-bb4e194ed6c5","system_id":"levelo_inurba_marseille","lat":43.27953,"lon":5.41047,"is_reserved":false,"is_disabled":false,"rental_uris":{"android":"levelo://app?vid=0ec05727-e2d2-42fb-a9cf-bb4e194ed6c5","ios":"levelo://app?vid=0ec05727-e2d2-42fb-a9cf-bb4e194ed6c5"},"vehicle_type_id":"4","last_reported":1729112888,"current_range_meters":35200,"station_id":"ce4bhnp2rcd13ifvqh0g","pricing_plan_id":"cebpf4jnsgd1na2vs0mg"},{"bike_id":"a62844f9-3c30-4960-aff4-3516b7de4e8c","system_id":"levelo_inurba_marseille","lat":43.29052,"lon":5.35909,"is_reserved":false,"is_disabled":false,"rental_uris":{"android":"levelo://app?vid=a62844f9-3c30-4960-aff4-3516b7de4e8c","ios":"levelo://app?vid=a62844f9-3c30-4960-aff4-3516b7de4e8c"},"vehicle_type_id":"4","last_reported":1729112888,"current_range_meters":30000,"station_id":"ce4bha92rcd13ifvqeg0","pricing_plan_id":"cebpf4jnsgd1na2vs0mg"},{"bike_id":"7ff36f83-b374-4cdb-a5f2-89010a244830","system_id":"levelo_inurba_marseille","lat":43.28562,"lon":5.39509,"is_reserved":false,"is_disabled":false,"rental_uris":{"android":"levelo://app?vid=7ff36f83-b374-4cdb-a5f2-89010a244830","ios":"levelo://app?vid=7ff36f83-b374-4cdb-a5f2-89010a244830"},"vehicle_type_id":"4","last_reported":1729112888,"current_range_meters":38000,"station_id":"ce4bh292rcd13ifvqdg0","pricing_plan_id":"cebpf4jnsgd1na2vs0mg"},{"bike_id":"d41309ab-1a1f-4395-acaa-455483c3f8e1","system_id":"levelo_inurba_marseille","lat":43.23193,"lon":5.3556,"is_reserved":false,"is_disabled":false,"rental_uris":{"android":"levelo://app?vid=d41309ab-1a1f-4395-acaa-455483c3f8e1","ios":"levelo://app?vid=d41309ab-1a1f-4395-acaa-455483c3f8e1"},"vehicle_type_id":"4","last_reported":1729112888,"current_range_meters":38800,"station_id":"ce4bhu92rcd13ifvqi70","pricing_plan_id":"cebpf4jnsgd1na2vs0mg"},{"bike_id":"1356d4ef-9a94-4462-9c7a-c5993d9eaaa3","system_id":"levelo_inurba_marseille","lat":43.291718,"lon":5.373171,"is_reserved":false,"is_disabled":false,"rental_uris":{"android":"levelo://app?vid=1356d4ef-9a94-4462-9c7a-c5993d9eaaa3","ios":"levelo://app?vid=1356d4ef-9a94-4462-9c7a-c5993d9eaaa3"},"vehicle_type_id":"4","last_reported":1729112888,"current_range_meters":35600,"station_id":"","pricing_plan_id":"cebpf4jnsgd1na2vs0mg"},{"bike_id":"423bc40c-69fa-4410-8647-c9dc4523555a","system_id":"levelo_inurba_marseille","lat":43.25856,"lon":5.39905,"is_reserved":false,"is_disabled":false,"rental_uris":{"android":"levelo://app?vid=423bc40c-69fa-4410-8647-c9dc4523555a","ios":"levelo://app?vid=423bc40c-69fa-4410-8647-c9dc4523555a"},"vehicle_type_id":"4","last_reported":1729112888,"current_range_meters":38800,"station_id":"ce4bhl92rcd13ifvqghg","pricing_plan_id":"cebpf4jnsgd1na2vs0mg"},{"bike_id":"4a4cbc3a-1f7d-476b-ac9c-2dbba0c5a735","system_id":"levelo_inurba_marseille","lat":43.31755,"lon":5.39006,"is_reserved":false,"is_disabled":false,"rental_uris":{"android":"levelo://app?vid=4a4cbc3a-1f7d-476b-ac9c-2dbba0c5a735","ios":"levelo://app?vid=4a4cbc3a-1f7d-476b-ac9c-2dbba0c5a735"},"vehicle_type_id":"4","last_reported":1729112888,"current_range_meters":30800,"station_id":"ce4bhqp2rcd13ifvqhng","pricing_plan_id":"cebpf4jnsgd1na2vs0mg"},{"bike_id":"0cbdff9d-d656-4d6b-aae9-a049bc5605d3","system_id":"levelo_inurba_marseille","lat":43.24387,"lon":5.37054,"is_reserved":false,"is_disabled":false,"rental_uris":{"android":"levelo://app?vid=0cbdff9d-d656-4d6b-aae9-a049bc5605d3","ios":"levelo://app?vid=0cbdff9d-d656-4d6b-aae9-a049bc5605d3"},"vehicle_type_id":"4","last_reported":1729112888,"current_range_meters":29600,"station_id":"ce4bhhh2rcd13ifvqfk0","pricing_plan_id":"cebpf4jnsgd1na2vs0mg"},{"bike_id":"a572217d-c1c6-46bc-95af-7cfb429a3976","system_id":"levelo_inurba_marseille","lat":43.28463,"lon":5.35882,"is_reserved":false,"is_disabled":false,"rental_uris":{"android":"levelo://app?vid=a572217d-c1c6-46bc-95af-7cfb429a3976","ios":"levelo://app?vid=a572217d-c1c6-46bc-95af-7cfb429a3976"},"vehicle_type_id":"4","last_reported":1729112888,"current_range_meters":8800,"station_id":"ce4bhah2rcd13ifvqei0","pricing_plan_id":"cebpf4jnsgd1na2vs0mg"},{"bike_id":"f17083eb-70c9-4e31-9372-dd4003ed2c3e","system_id":"levelo_inurba_marseille","lat":43.31489,"lon":5.37305,"is_reserved":false,"is_disabled":false,"rental_uris":{"android":"levelo://app?vid=f17083eb-70c9-4e31-9372-dd4003ed2c3e","ios":"levelo://app?vid=f17083eb-70c9-4e31-9372-dd4003ed2c3e"},"vehicle_type_id":"4","last_reported":1729112888,"current_range_meters":36400,"station_id":"ce4bgt12rcd13ifvqcd0","pricing_plan_id":"cebpf4jnsgd1na2vs0mg"},{"bike_id":"fc08979f-ee4d-4fde-bb82-6a833765d4c6","system_id":"levelo_inurba_marseille","lat":43.27952,"lon":5.41054,"is_reserved":false,"is_disabled":false,"rental_uris":{"android":"levelo://app?vid=fc08979f-ee4d-4fde-bb82-6a833765d4c6","ios":"levelo://app?vid=fc08979f-ee4d-4fde-bb82-6a833765d4c6"},"vehicle_type_id":"4","last_reported":1729112888,"current_range_meters":28400,"station_id":"ce4bhnp2rcd13ifvqh0g","pricing_plan_id":"cebpf4jnsgd1na2vs0mg"},{"bike_id":"033a7f68-f273-426e-84a9-8a3b2c56f6f5","system_id":"levelo_inurba_marseille","lat":43.35096,"lon":5.36807,"is_reserved":false,"is_disabled":false,"rental_uris":{"android":"levelo://app?vid=033a7f68-f273-426e-84a9-8a3b2c56f6f5","ios":"levelo://app?vid=033a7f68-f273-426e-84a9-8a3b2c56f6f5"},"vehicle_type_id":"4","last_reported":1729112888,"current_range_meters":9600,"station_id":"","pricing_plan_id":"cebpf4jnsgd1na2vs0mg"},{"bike_id":"7a722380-e827-4c13-9f79-05ae586fd52d","system_id":"levelo_inurba_marseille","lat":43.29026,"lon":5.38651,"is_reserved":false,"is_disabled":false,"rental_uris":{"android":"levelo://app?vid=7a722380-e827-4c13-9f79-05ae586fd52d","ios":"levelo://app?vid=7a722380-e827-4c13-9f79-05ae586fd52d"},"vehicle_type_id":"4","last_reported":1729112888,"current_range_meters":29600,"station_id":"ce4bh4p2rcd13ifvqe0g","pricing_plan_id":"cebpf4jnsgd1na2vs0mg"},{"bike_id":"eb6946e8-d20f-456f-b5bf-ca11a1f468f2","system_id":"levelo_inurba_marseille","lat":43.3127,"lon":5.40169,"is_reserved":false,"is_disabled":false,"rental_uris":{"android":"levelo://app?vid=eb6946e8-d20f-456f-b5bf-ca11a1f468f2","ios":"levelo://app?vid=eb6946e8-d20f-456f-b5bf-ca11a1f468f2"},"vehicle_type_id":"4","last_reported":1729112888,"current_range_meters":24000,"station_id":"ce4bh092rcd13ifvqd30","pricing_plan_id":"cebpf4jnsgd1na2vs0mg"},{"bike_id":"98c1e7e3-2010-42f5-b9c3-cb3360673e54","system_id":"levelo_inurba_marseille","lat":43.30881,"lon":5.37195,"is_reserved":false,"is_disabled":false,"rental_uris":{"android":"levelo://app?vid=98c1e7e3-2010-42f5-b9c3-cb3360673e54","ios":"levelo://app?vid=98c1e7e3-2010-42f5-b9c3-cb3360673e54"},"vehicle_type_id":"4","last_reported":1729112888,"current_range_meters":25600,"station_id":"ce4bguh2rcd13ifvqckg","pricing_plan_id":"cebpf4jnsgd1na2vs0mg"},{"bike_id":"1af2813b-98a0-4b62-aaf8-89652b30f639","system_id":"levelo_inurba_marseille","lat":43.22931,"lon":5.35379,"is_reserved":false,"is_disabled":false,"rental_uris":{"android":"levelo://app?vid=1af2813b-98a0-4b62-aaf8-89652b30f639","ios":"levelo://app?vid=1af2813b-98a0-4b62-aaf8-89652b30f639"},"vehicle_type_id":"4","last_reported":1729112888,"current_range_meters":24000,"station_id":"cpo3532slgdg3j2ikp40","pricing_plan_id":"cebpf4jnsgd1na2vs0mg"},{"bike_id":"fb933d35-6f9c-4f01-bae7-8f45bd52d41a","system_id":"levelo_inurba_marseille","lat":43.29538,"lon":5.38539,"is_reserved":false,"is_disabled":false,"rental_uris":{"android":"levelo://app?vid=fb933d35-6f9c-4f01-bae7-8f45bd52d41a","ios":"levelo://app?vid=fb933d35-6f9c-4f01-bae7-8f45bd52d41a"},"vehicle_type_id":"4","last_reported":1729112888,"current_range_meters":38400,"station_id":"ce4bgih2rcd13ifvqba0","pricing_plan_id":"cebpf4jnsgd1na2vs0mg"},{"bike_id":"9e27694a-1922-4e68-ab1e-95892bc0ce04","system_id":"levelo_inurba_marseille","lat":43.28951,"lon":5.36395,"is_reserved":false,"is_disabled":false,"rental_uris":{"android":"levelo://app?vid=9e27694a-1922-4e68-ab1e-95892bc0ce04","ios":"levelo://app?vid=9e27694a-1922-4e68-ab1e-95892bc0ce04"},"vehicle_type_id":"4","last_reported":1729112888,"current_range_meters":29600,"station_id":"ce4bhc92rcd13ifvqetg","pricing_plan_id":"cebpf4jnsgd1na2vs0mg"},{"bike_id":"ac2c8a7c-ea6f-44c3-a289-2291eca1989c","system_id":"levelo_inurba_marseille","lat":43.29276,"lon":5.40134,"is_reserved":false,"is_disabled":false,"rental_uris":{"android":"levelo://app?vid=ac2c8a7c-ea6f-44c3-a289-2291eca1989c","ios":"levelo://app?vid=ac2c8a7c-ea6f-44c3-a289-2291eca1989c"},"vehicle_type_id":"4","last_reported":1729112888,"current_range_meters":38800,"station_id":"ce4bh312rcd13ifvqdk0","pricing_plan_id":"cebpf4jnsgd1na2vs0mg"},{"bike_id":"f93454e1-a669-4c63-a4ca-b572042c7971","system_id":"levelo_inurba_marseille","lat":43.23193,"lon":5.35562,"is_reserved":false,"is_disabled":false,"rental_uris":{"android":"levelo://app?vid=f93454e1-a669-4c63-a4ca-b572042c7971","ios":"levelo://app?vid=f93454e1-a669-4c63-a4ca-b572042c7971"},"vehicle_type_id":"4","last_reported":1729112888,"current_range_meters":18000,"station_id":"ce4bhu92rcd13ifvqi70","pricing_plan_id":"cebpf4jnsgd1na2vs0mg"},{"bike_id":"5991a3d2-0cb9-494d-b3ed-321a28cd7251","system_id":"levelo_inurba_marseille","lat":43.22933,"lon":5.35384,"is_reserved":false,"is_disabled":false,"rental_uris":{"android":"levelo://app?vid=5991a3d2-0cb9-494d-b3ed-321a28cd7251","ios":"levelo://app?vid=5991a3d2-0cb9-494d-b3ed-321a28cd7251"},"vehicle_type_id":"4","last_reported":1729112888,"current_range_meters":38800,"station_id":"cpo3532slgdg3j2ikp40","pricing_plan_id":"cebpf4jnsgd1na2vs0mg"},{"bike_id":"62aed439-6d13-4865-8fe7-380337ddee05","system_id":"levelo_inurba_marseille","lat":43.283537,"lon":5.386475,"is_reserved":false,"is_disabled":false,"rental_uris":{"android":"levelo://app?vid=62aed439-6d13-4865-8fe7-380337ddee05","ios":"levelo://app?vid=62aed439-6d13-4865-8fe7-380337ddee05"},"vehicle_type_id":"4","last_reported":1729112888,"current_range_meters":24400,"station_id":"ce4bh492rcd13ifvqdvg","pricing_plan_id":"cebpf4jnsgd1na2vs0mg"},{"bike_id":"6949cde2-e4ff-4f27-9d8d-dbf04678e6f4","system_id":"levelo_inurba_marseille","lat":43.28102,"lon":5.3785,"is_reserved":false,"is_disabled":false,"rental_uris":{"android":"levelo://app?vid=6949cde2-e4ff-4f27-9d8d-dbf04678e6f4","ios":"levelo://app?vid=6949cde2-e4ff-4f27-9d8d-dbf04678e6f4"},"vehicle_type_id":"4","last_reported":1729112888,"current_range_meters":38800,"station_id":"ce4bha12rcd13ifvqee0","pricing_plan_id":"cebpf4jnsgd1na2vs0mg"},{"bike_id":"4cb0e1a9-7df1-4a4e-ac4a-f1d3ac701a5f","system_id":"levelo_inurba_marseille","lat":43.31749,"lon":5.39016,"is_reserved":false,"is_disabled":false,"rental_uris":{"android":"levelo://app?vid=4cb0e1a9-7df1-4a4e-ac4a-f1d3ac701a5f","ios":"levelo://app?vid=4cb0e1a9-7df1-4a4e-ac4a-f1d3ac701a5f"},"vehicle_type_id":"4","last_reported":1729112888,"current_range_meters":20000,"station_id":"ce4bhqp2rcd13ifvqhng","pricing_plan_id":"cebpf4jnsgd1na2vs0mg"},{"bike_id":"29d9c58d-8740-44d0-83ee-8599942659a7","system_id":"levelo_inurba_marseille","lat":43.30257,"lon":5.40068,"is_reserved":false,"is_disabled":false,"rental_uris":{"android":"levelo://app?vid=29d9c58d-8740-44d0-83ee-8599942659a7","ios":"levelo://app?vid=29d9c58d-8740-44d0-83ee-8599942659a7"},"vehicle_type_id":"4","last_reported":1729112888,"current_range_meters":7200,"station_id":"ce4bgvh2rcd13ifvqcs0","pricing_plan_id":"cebpf4jnsgd1na2vs0mg"},{"bike_id":"d34145d4-3555-41f0-ab08-8795f2d8021c","system_id":"levelo_inurba_marseille","lat":43.28031,"lon":5.36966,"is_reserved":false,"is_disabled":false,"rental_uris":{"android":"levelo://app?vid=d34145d4-3555-41f0-ab08-8795f2d8021c","ios":"levelo://app?vid=d34145d4-3555-41f0-ab08-8795f2d8021c"},"vehicle_type_id":"4","last_reported":1729112888,"current_range_meters":25600,"station_id":"ce4bha12rcd13ifvqef0","pricing_plan_id":"cebpf4jnsgd1na2vs0mg"},{"bike_id":"d7e46f4f-9fe1-418e-a157-668d74189314","system_id":"levelo_inurba_marseille","lat":43.31884,"lon":5.40728,"is_reserved":false,"is_disabled":false,"rental_uris":{"android":"levelo://app?vid=d7e46f4f-9fe1-418e-a157-668d74189314","ios":"levelo://app?vid=d7e46f4f-9fe1-418e-a157-668d74189314"},"vehicle_type_id":"4","last_reported":1729112888,"current_range_meters":39200,"station_id":"ce4bhq12rcd13ifvqhig","pricing_plan_id":"cebpf4jnsgd1na2vs0mg"},{"bike_id":"cc85962f-2424-4de7-837e-cc311911c414","system_id":"levelo_inurba_marseille","lat":43.2465,"lon":5.38903,"is_reserved":false,"is_disabled":false,"rental_uris":{"android":"levelo://app?vid=cc85962f-2424-4de7-837e-cc311911c414","ios":"levelo://app?vid=cc85962f-2424-4de7-837e-cc311911c414"},"vehicle_type_id":"4","last_reported":1729112888,"current_range_meters":38400,"station_id":"ce4bhg12rcd13ifvqf60","pricing_plan_id":"cebpf4jnsgd1na2vs0mg"},{"bike_id":"be95fa02-e7b9-475a-b011-5c99e0709b21","system_id":"levelo_inurba_marseille","lat":43.27369,"lon":5.36258,"is_reserved":false,"is_disabled":false,"rental_uris":{"android":"levelo://app?vid=be95fa02-e7b9-475a-b011-5c99e0709b21","ios":"levelo://app?vid=be95fa02-e7b9-475a-b011-5c99e0709b21"},"vehicle_type_id":"4","last_reported":1729112888,"current_range_meters":22400,"station_id":"ce4bhbh2rcd13ifvqeo0","pricing_plan_id":"cebpf4jnsgd1na2vs0mg"},{"bike_id":"5816af43-bdef-4c69-b771-46560c3df253","system_id":"levelo_inurba_marseille","lat":43.28709,"lon":5.3998,"is_reserved":false,"is_disabled":false,"rental_uris":{"android":"levelo://app?vid=5816af43-bdef-4c69-b771-46560c3df253","ios":"levelo://app?vid=5816af43-bdef-4c69-b771-46560c3df253"},"vehicle_type_id":"4","last_reported":1729112888,"current_range_meters":38800,"station_id":"ce4bho92rcd13ifvqh3g","pricing_plan_id":"cebpf4jnsgd1na2vs0mg"},{"bike_id":"697d4be6-07c6-42ab-b498-48c49a4ea4d0","system_id":"levelo_inurba_marseille","lat":43.29095,"lon":5.38132,"is_reserved":false,"is_disabled":false,"rental_uris":{"android":"levelo://app?vid=697d4be6-07c6-42ab-b498-48c49a4ea4d0","ios":"levelo://app?vid=697d4be6-07c6-42ab-b498-48c49a4ea4d0"},"vehicle_type_id":"4","last_reported":1729112888,"current_range_meters":17200,"station_id":"ce4bh512rcd13ifvqe2g","pricing_plan_id":"cebpf4jnsgd1na2vs0mg"},{"bike_id":"168d70a8-6977-4ba9-8955-97f3f4fcfa76","system_id":"levelo_inurba_marseille","lat":43.27951,"lon":5.41041,"is_reserved":false,"is_disabled":false,"rental_uris":{"android":"levelo://app?vid=168d70a8-6977-4ba9-8955-97f3f4fcfa76","ios":"levelo://app?vid=168d70a8-6977-4ba9-8955-97f3f4fcfa76"},"vehicle_type_id":"4","last_reported":1729112888,"current_range_meters":28000,"station_id":"ce4bhnp2rcd13ifvqh0g","pricing_plan_id":"cebpf4jnsgd1na2vs0mg"},{"bike_id":"4f8e2acf-08ec-482f-a76c-633ec4cc6b7f","system_id":"levelo_inurba_marseille","lat":43.291683,"lon":5.371507,"is_reserved":false,"is_disabled":false,"rental_uris":{"android":"levelo://app?vid=4f8e2acf-08ec-482f-a76c-633ec4cc6b7f","ios":"levelo://app?vid=4f8e2acf-08ec-482f-a76c-633ec4cc6b7f"},"vehicle_type_id":"4","last_reported":1729112888,"current_range_meters":30000,"station_id":"ce4bha92rcd13ifvqeh0","pricing_plan_id":"cebpf4jnsgd1na2vs0mg"},{"bike_id":"20558bd5-b849-45d7-bb49-19822b69f191","system_id":"levelo_inurba_marseille","lat":43.31272,"lon":5.40164,"is_reserved":false,"is_disabled":false,"rental_uris":{"android":"levelo://app?vid=20558bd5-b849-45d7-bb49-19822b69f191","ios":"levelo://app?vid=20558bd5-b849-45d7-bb49-19822b69f191"},"vehicle_type_id":"4","last_reported":1729112888,"current_range_meters":24800,"station_id":"ce4bh092rcd13ifvqd30","pricing_plan_id":"cebpf4jnsgd1na2vs0mg"},{"bike_id":"02defe18-436d-40cf-a8a4-4c3decc6eac0","system_id":"levelo_inurba_marseille","lat":43.32656,"lon":5.40996,"is_reserved":false,"is_disabled":false,"rental_uris":{"android":"levelo://app?vid=02defe18-436d-40cf-a8a4-4c3decc6eac0","ios":"levelo://app?vid=02defe18-436d-40cf-a8a4-4c3decc6eac0"},"vehicle_type_id":"4","last_reported":1729112888,"current_range_meters":2800,"station_id":"ce4bhpp2rcd13ifvqhgg","pricing_plan_id":"cebpf4jnsgd1na2vs0mg"},{"bike_id":"34dd65b3-3034-43e3-ac77-d05a30c9f0be","system_id":"levelo_inurba_marseille","lat":43.29528,"lon":5.38536,"is_reserved":false,"is_disabled":false,"rental_uris":{"android":"levelo://app?vid=34dd65b3-3034-43e3-ac77-d05a30c9f0be","ios":"levelo://app?vid=34dd65b3-3034-43e3-ac77-d05a30c9f0be"},"vehicle_type_id":"4","last_reported":1729112888,"current_range_meters":37600,"station_id":"ce4bgih2rcd13ifvqba0","pricing_plan_id":"cebpf4jnsgd1na2vs0mg"},{"bike_id":"107a26a0-2aaf-4df5-81c0-7a9afa99f440","system_id":"levelo_inurba_marseille","lat":43.3094,"lon":5.40153,"is_reserved":false,"is_disabled":false,"rental_uris":{"android":"levelo://app?vid=107a26a0-2aaf-4df5-81c0-7a9afa99f440","ios":"levelo://app?vid=107a26a0-2aaf-4df5-81c0-7a9afa99f440"},"vehicle_type_id":"4","last_reported":1729112888,"current_range_meters":33600,"station_id":"ce4bgvp2rcd13ifvqct0","pricing_plan_id":"cebpf4jnsgd1na2vs0mg"},{"bike_id":"1d1690d8-7bf9-4891-95e8-0c58c44f3633","system_id":"levelo_inurba_marseille","lat":43.29874,"lon":5.39747,"is_reserved":false,"is_disabled":false,"rental_uris":{"android":"levelo://app?vid=1d1690d8-7bf9-4891-95e8-0c58c44f3633","ios":"levelo://app?vid=1d1690d8-7bf9-4891-95e8-0c58c44f3633"},"vehicle_type_id":"4","last_reported":1729112888,"current_range_meters":30000,"station_id":"ce4bh0h2rcd13ifvqd50","pricing_plan_id":"cebpf4jnsgd1na2vs0mg"},{"bike_id":"60f510e3-1bd7-4870-9c9b-d65be71a3424","system_id":"levelo_inurba_marseille","lat":43.29221,"lon":5.36051,"is_reserved":false,"is_disabled":false,"rental_uris":{"android":"levelo://app?vid=60f510e3-1bd7-4870-9c9b-d65be71a3424","ios":"levelo://app?vid=60f510e3-1bd7-4870-9c9b-d65be71a3424"},"vehicle_type_id":"4","last_reported":1729112888,"current_range_meters":38400,"station_id":"ce4bhbh2rcd13ifvqeqg","pricing_plan_id":"cebpf4jnsgd1na2vs0mg"},{"bike_id":"655c4a8f-a8dd-49d7-9bca-5b3089d283e9","system_id":"levelo_inurba_marseille","lat":43.2558,"lon":5.38234,"is_reserved":false,"is_disabled":false,"rental_uris":{"android":"levelo://app?vid=655c4a8f-a8dd-49d7-9bca-5b3089d283e9","ios":"levelo://app?vid=655c4a8f-a8dd-49d7-9bca-5b3089d283e9"},"vehicle_type_id":"4","last_reported":1729112888,"current_range_meters":26800,"station_id":"ce4bhih2rcd13ifvqfs0","pricing_plan_id":"cebpf4jnsgd1na2vs0mg"},{"bike_id":"f94da947-b1a0-40ed-8143-ed5ebffc5c44","system_id":"levelo_inurba_marseille","lat":43.27954,"lon":5.41045,"is_reserved":false,"is_disabled":false,"rental_uris":{"android":"levelo://app?vid=f94da947-b1a0-40ed-8143-ed5ebffc5c44","ios":"levelo://app?vid=f94da947-b1a0-40ed-8143-ed5ebffc5c44"},"vehicle_type_id":"4","last_reported":1729112888,"current_range_meters":33600,"station_id":"ce4bhnp2rcd13ifvqh0g","pricing_plan_id":"cebpf4jnsgd1na2vs0mg"},