{"last_updated":1753193604,"ttl":60,"version":"2.2","data":{"bikes":[{"bike_id":"29ecaa95-fa5a-4a85-9cf1-1d4cb08bdf04","system_id":"levelo_inurba_marseille","lat":43.30595,"lon":5.39357,"is_reserved":false,"is_disabled":false,"rental_uris":{"android":"levelo://app?vid=29ecaa95-fa5a-4a85-9cf1-1d4cb08bdf04","ios":"levelo://app?vid=29ecaa95-fa5a-4a85-9cf1-1d4cb08bdf04"},"vehicle_type_id":"4","last_reported":1753193604,"current_range_meters":2800,"station_id":"ce4bh0p2rcd13ifvqd80","pricing_plan_id":"cebpf4jnsgd1na2vs0mg"},{"bike_id":"5c38d4f0-8e8b-48a2-88b3-9dfd5b019185","system_id":"levelo_inurba_marseille","lat":43.30185,"lon":5.36623,"is_reserved":false,"is_disabled":false,"rental_uris":{"android":"levelo://app?vid=5c38d4f0-8e8b-48a2-88b3-9dfd5b019185","ios":"levelo://app?vid=5c38d4f0-8e8b-48a2-88b3-9dfd5b019185"},"vehicle_type_id":"4","last_reported":1753193604,"current_range_meters":2800,"station_id":"ce4bgrh2rcd13ifvqc8g","pricing_plan_id":"cebpf4jnsgd1na2vs0mg"},{"bike_id":"2d14f003-b7aa-43d4-a9fc-63b26b2cedf9","system_id":"levelo_inurba_marseille","lat":43.29503,"lon":5.38174,"is_reserved":false,"is_disabled":false,"rental_uris":{"android":"levelo://app?vid=2d14f003-b7aa-43d4-a9fc-63b26b2cedf9","ios":"levelo://app?vid=2d14f003-b7aa-43d4-a9fc-63b26b2cedf9"},"vehicle_type_id":"4","last_reported":1753193604,"current_range_meters":3200,"station_id":"","pricing_plan_id":"cebpf4jnsgd1na2vs0mg"},{"bike_id":"61b57b03-9d69-4f1d-8c61-02663b682476","system_id":"levelo_inurba_marseille","lat":43.3038,"lon":5.42493,"is_reserved":false,"is_disabled":false,"rental_uris":{"android":"levelo://app?vid=61b57b03-9d69-4f1d-8c61-02663b682476","ios":"levelo://app?vid=61b57b03-9d69-4f1d-8c61-02663b682476"},"vehicle_type_id":"4","last_reported":1753193604,"current_range_meters":3200,"station_id":"ce4bhoh2rcd13ifvqh6g","pricing_plan_id":"cebpf4jnsgd1na2vs0mg"},{"bike_id":"6d3e3ec0-7b8c-4398-b910-06c714393de9","system_id":"levelo_inurba_marseille","lat":43.217481,"lon":5.345975,"is_reserved":false,"is_disabled":false,"rental_uris":{"android":"levelo://app?vid=6d3e3ec0-7b8c-4398-b910-06c714393de9","ios":"levelo://app?vid=6d3e3ec0-7b8c-4398-b910-06c714393de9"},"vehicle_type_id":"4","last_reported":1753193604,"current_range_meters":3600,"station_id":"st_cvj6r9ubvosntc0bgbag","pricing_plan_id":"cebpf4jnsgd1na2vs0mg"},{"bike_id":"963edeb4-4517-4b97-8b4c-59f8e1bf35ec","system_id":"levelo_inurba_marseille","lat":43.26958,"lon":5.38629,"is_reserved":false,"is_disabled":false,"rental_uris":{"android":"levelo://app?vid=963edeb4-4517-4b97-8b4c-59f8e1bf35ec","ios":"levelo://app?vid=963edeb4-4517-4b97-8b4c-59f8e1bf35ec"},"vehicle_type_id":"4","last_reported":1753193604,"current_range_meters":3600,"station_id":"ce4bhh92rcd13ifvqfh0","pricing_plan_id":"cebpf4jnsgd1na2vs0mg"},{"bike_id":"e6e780c5-7d0f-48d5-8489-21f23fd407d9","system_id":"levelo_inurba_marseille","lat":43.28264,"lon":5.3508,"is_reserved":false,"is_disabled":false,"rental_uris":{"android":"levelo://app?vid=e6e780c5-7d0f-48d5-8489-21f23fd407d9","ios":"levelo://app?vid=e6e780c5-7d0f-48d5-8489-21f23fd407d9"},"vehicle_type_id":"4","last_reported":1753193604,"current_range_meters":3600,"station_id":"ce4bhbp2rcd13ifvqerg","pricing_plan_id":"cebpf4jnsgd1na2vs0mg"},{"bike_id":"0e68452b-b2ad-4bdd-9285-8e4bb9299778","system_id":"levelo_inurba_marseille","lat":43.290001,"lon":5.356104,"is_reserved":false,"is_disabled":false,"rental_uris":{"android":"levelo://app?vid=0e68452b-b2ad-4bdd-9285-8e4bb9299778","ios":"levelo://app?vid=0e68452b-b2ad-4bdd-9285-8e4bb9299778"},"vehicle_type_id":"4","last_reported":1753193604,"current_range_meters":10000,"station_id":"","pricing_plan_id":"cebpf4jnsgd1na2vs0mg"},{"bike_id":"2bfea1a2-f839-4e28-b043-ef2432f01c43","system_id":"levelo_inurba_marseille","lat":43.30308,"lon":5.39215,"is_reserved":false,"is_disabled":false,"rental_uris":{"android":"levelo://app?vid=2bfea1a2-f839-4e28-b043-ef2432f01c43","ios":"levelo://app?vid=2bfea1a2-f839-4e28-b043-ef2432f01c43"},"vehicle_type_id":"4","last_reported":1753193604,"current_range_meters":4000,"station_id":"ce4bgkh2rcd13ifvqbk0","pricing_plan_id":"cebpf4jnsgd1na2vs0mg"},{"bike_id":"960da327-329d-4c2e-8442-b145681e2374","system_id":"levelo_inurba_marseille","lat":43.279774,"lon":5.387393,"is_reserved":false,"is_disabled":false,"rental_uris":{"android":"levelo://app?vid=960da327-329d-4c2e-8442-b145681e2374","ios":"levelo://app?vid=960da327-329d-4c2e-8442-b145681e2374"},"vehicle_type_id":"4","last_reported":1753193604,"current_range_meters":3200,"station_id":"ce4bhg12rcd13ifvqf80","pricing_plan_id":"cebpf4jnsgd1na2vs0mg"},{"bike_id":"075af0ac-817f-4405-89bf-9b736b3d7b03","system_id":"levelo_inurba_marseille","lat":43.29796,"lon":5.40408,"is_reserved":false,"is_disabled":false,"rental_uris":{"android":"levelo://app?vid=075af0ac-817f-4405-89bf-9b736b3d7b03","ios":"levelo://app?vid=075af0ac-817f-4405-89bf-9b736b3d7b03"},"vehicle_type_id":"4","last_reported":1753193604,"current_range_meters":4400,"station_id":"ce4bh112rcd13ifvqd90","pricing_plan_id":"cebpf4jnsgd1na2vs0mg"},{"bike_id":"ea06b397-ee01-475e-9f34-8fccd6129e23","system_id":"levelo_inurba_marseille","lat":43.32487,"lon":5.36583,"is_reserved":false,"is_disabled":false,"rental_uris":{"android":"levelo://app?vid=ea06b397-ee01-475e-9f34-8fccd6129e23","ios":"levelo://app?vid=ea06b397-ee01-475e-9f34-8fccd6129e23"},"vehicle_type_id":"4","last_reported":1753193604,"current_range_meters":4400,"station_id":"ce4bhs12rcd13ifvqhvg","pricing_plan_id":"cebpf4jnsgd1na2vs0mg"},{"bike_id":"c304ea96-45f9-4ae7-b475-84bd022d6a73","system_id":"levelo_inurba_marseille","lat":43.2919,"lon":5.35804,"is_reserved":false,"is_disabled":false,"rental_uris":{"android":"levelo://app?vid=c304ea96-45f9-4ae7-b475-84bd022d6a73","ios":"levelo://app?vid=c304ea96-45f9-4ae7-b475-84bd022d6a73"},"vehicle_type_id":"4","last_reported":1753193604,"current_range_meters":4400,"station_id":"ce4bhb12rcd13ifvqel0","pricing_plan_id":"cebpf4jnsgd1na2vs0mg"},{"bike_id":"581038ad-6fdf-4d91-8b8d-49a7366a8482","system_id":"levelo_inurba_marseille","lat":43.23181,"lon":5.39995,"is_reserved":false,"is_disabled":false,"rental_uris":{"android":"levelo://app?vid=581038ad-6fdf-4d91-8b8d-49a7366a8482","ios":"levelo://app?vid=581038ad-6fdf-4d91-8b8d-49a7366a8482"},"vehicle_type_id":"4","last_reported":1753193604,"current_range_meters":4400,"station_id":"ce4bhn12rcd13ifvqgqg","pricing_plan_id":"cebpf4jnsgd1na2vs0mg"},{"bike_id":"f4ac9e74-1f07-4e4c-a794-15e2c3ac20c4","system_id":"levelo_inurba_marseille","lat":43.29002,"lon":5.35606,"is_reserved":false,"is_disabled":false,"rental_uris":{"android":"levelo://app?vid=f4ac9e74-1f07-4e4c-a794-15e2c3ac20c4","ios":"levelo://app?vid=f4ac9e74-1f07-4e4c-a794-15e2c3ac20c4"},"vehicle_type_id":"4","last_reported":1753193604,"current_range_meters":4400,"station_id":"ce4bhb92rcd13ifvqen0","pricing_plan_id":"cebpf4jnsgd1na2vs0mg"},{"bike_id":"6c93d708-59cf-4164-b22a-379554487e9d","system_id":"levelo_inurba_marseille","lat":43.30528,"lon":5.36718,"is_reserved":false,"is_disabled":false,"rental_uris":{"android":"levelo://app?vid=6c93d708-59cf-4164-b22a-379554487e9d","ios":"levelo://app?vid=6c93d708-59cf-4164-b22a-379554487e9d"},"vehicle_type_id":"4","last_reported":1753193604,"current_range_meters":4800,"station_id":"ce4bgrp2rcd13ifvqc9g","pricing_plan_id":"cebpf4jnsgd1na2vs0mg"},{"bike_id":"f1c98cbe-d5a4-46d0-a31a-eb928aaadb83","system_id":"levelo_inurba_marseille","lat":43.24078,"lon":5.37758,"is_reserved":false,"is_disabled":false,"rental_uris":{"android":"levelo://app?vid=f1c98cbe-d5a4-46d0-a31a-eb928aaadb83","ios":"levelo://app?vid=f1c98cbe-d5a4-46d0-a31a-eb928aaadb83"},"vehicle_type_id":"4","last_reported":1753193604,"current_range_meters":4800,"station_id":"ce4bhnp2rcd13ifvqgvg","pricing_plan_id":"cebpf4jnsgd1na2vs0mg"},{"bike_id":"7c662f51-5f92-42af-87a3-117e4071cdc5","system_id":"levelo_inurba_marseille","lat":43.24078,"lon":5.37757,"is_reserved":false,"is_disabled":false,"rental_uris":{"android":"levelo://app?vid=7c662f51-5f92-42af-87a3-117e4071cdc5","ios":"levelo://app?vid=7c662f51-5f92-42af-87a3-117e4071cdc5"},"vehicle_type_id":"4","last_reported":1753193604,"current_range_meters":5600,"station_id":"ce4bhnp2rcd13ifvqgvg","pricing_plan_id":"cebpf4jnsgd1na2vs0mg"},{"bike_id":"29281d26-e973-410b-97dd-b2384965095b","system_id":"levelo_inurba_marseille","lat":43.27619,"lon":5.36111,"is_reserved":false,"is_disabled":false,"rental_uris":{"android":"levelo://app?vid=29281d26-e973-410b-97dd-b2384965095b","ios":"levelo://app?vid=29281d26-e973-410b-97dd-b2384965095b"},"vehicle_type_id":"4","last_reported":1753193604,"current_range_meters":5600,"station_id":"ce4bgj92rcd13ifvqbe0","pricing_plan_id":"cebpf4jnsgd1na2vs0mg"},{"bike_id":"28b7f62a-6e7f-4c7a-a8ae-2a063e187631","system_id":"levelo_inurba_marseille","lat":43.29275,"lon":5.40119,"is_reserved":false,"is_disabled":false,"rental_uris":{"android":"levelo://app?vid=28b7f62a-6e7f-4c7a-a8ae-2a063e187631","ios":"levelo://app?vid=28b7f62a-6e7f-4c7a-a8ae-2a063e187631"},"vehicle_type_id":"4","last_reported":1753193604,"current_range_meters":6000,"station_id":"ce4bh312rcd13ifvqdk0","pricing_plan_id":"cebpf4jnsgd1na2vs0mg"},{"bike_id":"3c1a151c-c843-4f4c-bc44-8169e849d3b1","system_id":"levelo_inurba_marseille","lat":43.27562,"lon":5.38422,"is_reserved":false,"is_disabled":false,"rental_uris":{"android":"levelo://app?vid=3c1a151c-c843-4f4c-bc44-8169e849d3b1","ios":"levelo://app?vid=3c1a151c-c843-4f4c-bc44-8169e849d3b1"},"vehicle_type_id":"4","last_reported":1753193604,"current_range_meters":6000,"station_id":"ce4bhh92rcd13ifvqfi0","pricing_plan_id":"cebpf4jnsgd1na2vs0mg"},{"bike_id":"c992cf84-43bb-4b6b-be22-8a31e438131c","system_id":"levelo_inurba_marseille","lat":43.29886,"lon":5.37497,"is_reserved":false,"is_disabled":false,"rental_uris":{"android":"levelo://app?vid=c992cf84-43bb-4b6b-be22-8a31e438131c","ios":"levelo://app?vid=c992cf84-43bb-4b6b-be22-8a31e438131c"},"vehicle_type_id":"4","last_reported":1753193604,"current_range_meters":6000,"station_id":"ce4bgjh2rcd13ifvqbg0","pricing_plan_id":"cebpf4jnsgd1na2vs0mg"},{"bike_id":"c39ce912-de24-43e6-9882-e3904610bda4","system_id":"levelo_inurba_marseille","lat":43.28371,"lon":5.38639,"is_reserved":false,"is_disabled":false,"rental_uris":{"android":"levelo://app?vid=c39ce912-de24-43e6-9882-e3904610bda4","ios":"levelo://app?vid=c39ce912-de24-43e6-9882-e3904610bda4"},"vehicle_type_id":"4","last_reported":1753193604,"current_range_meters":6000,"station_id":"ce4bh492rcd13ifvqdvg","pricing_plan_id":"cebpf4jnsgd1na2vs0mg"},{"bike_id":"cedbf5d4-c89f-4322-b169-16854ecf3a04","system_id":"levelo_inurba_marseille","lat":43.30558,"lon":5.36531,"is_reserved":false,"is_disabled":false,"rental_uris":{"android":"levelo://app?vid=cedbf5d4-c89f-4322-b169-16854ecf3a04","ios":"levelo://app?vid=cedbf5d4-c89f-4322-b169-16854ecf3a04"},"vehicle_type_id":"4","last_reported":1753193604,"current_range_meters":6000,"station_id":"ce4bgs12rcd13ifvqcag","pricing_plan_id":"cebpf4jnsgd1na2vs0mg"},{"bike_id":"01a5bb85-57db-487c-a0cf-495072e15836","system_id":"levelo_inurba_marseille","lat":43.27803,"lon":5.35505,"is_reserved":false,"is_disabled":false,"rental_uris":{"android":"levelo://app?vid=01a5bb85-57db-487c-a0cf-495072e15836","ios":"levelo://app?vid=01a5bb85-57db-487c-a0cf-495072e15836"},"vehicle_type_id":"4","last_reported":1753193604,"current_range_meters":6400,"station_id":"","pricing_plan_id":"cebpf4jnsgd1na2vs0mg"},{"bike_id":"d49b76c9-c176-425b-8d8c-bc7d9bd9c0ab","system_id":"levelo_inurba_marseille","lat":43.29004,"lon":5.35614,"is_reserved":false,"is_disabled":false,"rental_uris":{"android":"levelo://app?vid=d49b76c9-c176-425b-8d8c-bc7d9bd9c0ab","ios":"levelo://app?vid=d49b76c9-c176-425b-8d8c-bc7d9bd9c0ab"},"vehicle_type_id":"4","last_reported":1753193604,"current_range_meters":6800,"station_id":"ce4bhb92rcd13ifvqen0","pricing_plan_id":"cebpf4jnsgd1na2vs0mg"},{"bike_id":"9d6c03f0-9613-4785-a37e-e029d87b5494","system_id":"levelo_inurba_marseille","lat":43.24079,"lon":5.37766,"is_reserved":false,"is_disabled":false,"rental_uris":{"android":"levelo://app?vid=9d6c03f0-9613-4785-a37e-e029d87b5494","ios":"levelo://app?vid=9d6c03f0-9613-4785-a37e-e029d87b5494"},"vehicle_type_id":"4","last_reported":1753193604,"current_range_meters":6800,"station_id":"ce4bhnp2rcd13ifvqgvg","pricing_plan_id":"cebpf4jnsgd1na2vs0mg"},{"bike_id":"ba4bf7aa-f0fa-4acb-808e-841119b47f49","system_id":"levelo_inurba_marseille","lat":43.27972,"lon":5.38736,"is_reserved":false,"is_disabled":false,"rental_uris":{"android":"levelo://app?vid=ba4bf7aa-f0fa-4acb-808e-841119b47f49","ios":"levelo://app?vid=ba4bf7aa-f0fa-4acb-808e-841119b47f49"},"vehicle_type_id":"4","last_reported":1753193604,"current_range_meters":4800,"station_id":"ce4bhg12rcd13ifvqf80","pricing_plan_id":"cebpf4jnsgd1na2vs0mg"},{"bike_id":"1e75584f-4c34-4588-95ae-93f55598dc84","system_id":"levelo_inurba_marseille","lat":43.29004,"lon":5.35609,"is_reserved":false,"is_disabled":false,"rental_uris":{"android":"levelo://app?vid=1e75584f-4c34-4588-95ae-93f55598dc84","ios":"levelo://app?vid=1e75584f-4c34-4588-95ae-93f55598dc84"},"vehicle_type_id":"4","last_reported":1753193604,"current_range_meters":7200,"station_id":"ce4bhb92rcd13ifvqen0","pricing_plan_id":"cebpf4jnsgd1na2vs0mg"},{"bike_id":"992c9b96-4a7e-4f5f-a255-36ab3705f097","system_id":"levelo_inurba_marseille","lat":43.29293,"lon":5.37467,"is_reserved":false,"is_disabled":false,"rental_uris":{"android":"levelo://app?vid=992c9b96-4a7e-4f5f-a255-36ab3705f097","ios":"levelo://app?vid=992c9b96-4a7e-4f5f-a255-36ab3705f097"},"vehicle_type_id":"4","last_reported":1753193604,"current_range_meters":8400,"station_id":"ce4bgi12rcd13ifvqb70","pricing_plan_id":"cebpf4jnsgd1na2vs0mg"},{"bike_id":"b663bd74-b2eb-4bd2-baf7-fb99422da5d7","system_id":"levelo_inurba_marseille","lat":43.32482,"lon":5.36558,"is_reserved":false,"is_disabled":false,"rental_uris":{"android":"levelo://app?vid=b663bd74-b2eb-4bd2-baf7-fb99422da5d7","ios":"levelo://app?vid=b663bd74-b2eb-4bd2-baf7-fb99422da5d7"},"vehicle_type_id":"4","last_reported":1753193604,"current_range_meters":8400,"station_id":"ce4bhs12rcd13ifvqhvg","pricing_plan_id":"cebpf4jnsgd1na2vs0mg"},{"bike_id":"f78a3375-6371-45b1-bccf-f4155e66554d","system_id":"levelo_inurba_marseille","lat":43.28273,"lon":5.35061,"is_reserved":false,"is_disabled":false,"rental_uris":{"android":"levelo://app?vid=f78a3375-6371-45b1-bccf-f4155e66554d","ios":"levelo://app?vid=f78a3375-6371-45b1-bccf-f4155e66554d"},"vehicle_type_id":"4","last_reported":1753193604,"current_range_meters":8400,"station_id":"ce4bhbp2rcd13ifvqerg","pricing_plan_id":"cebpf4jnsgd1na2vs0mg"},{"bike_id":"7afce8bb-6c01-461e-8c42-521862b5a4f0","system_id":"levelo_inurba_marseille","lat":43.28275,"lon":5.3509,"is_reserved":false,"is_disabled":false,"rental_uris":{"android":"levelo://app?vid=7afce8bb-6c01-461e-8c42-521862b5a4f0","ios":"levelo://app?vid=7afce8bb-6c01-461e-8c42-521862b5a4f0"},"vehicle_type_id":"4","last_reported":1753193604,"current_range_meters":8400,"station_id":"ce4bhbp2rcd13ifvqerg","pricing_plan_id":"cebpf4jnsgd1na2vs0mg"},{"bike_id":"4c768557-8dc7-4752-b71e-bbd0e28698a8","system_id":"levelo_inurba_marseille","lat":43.29422,"lon":5.43227,"is_reserved":false,"is_disabled":false,"rental_uris":{"android":"levelo://app?vid=4c768557-8dc7-4752-b71e-bbd0e28698a8","ios":"levelo://app?vid=4c768557-8dc7-4752-b71e-bbd0e28698a8"},"vehicle_type_id":"4","last_reported":1753193604,"current_range_meters":8800,"station_id":"","pricing_plan_id":"cebpf4jnsgd1na2vs0mg"},{"bike_id":"39772d83-ed7f-4238-befb-f48acb41a4e1","system_id":"levelo_inurba_marseille","lat":43.21757,"lon":5.34608,"is_reserved":false,"is_disabled":false,"rental_uris":{"android":"levelo://app?vid=39772d83-ed7f-4238-befb-f48acb41a4e1","ios":"levelo://app?vid=39772d83-ed7f-4238-befb-f48acb41a4e1"},"vehicle_type_id":"4","last_reported":1753193604,"current_range_meters":8800,"station_id":"st_cvj6r9ubvosntc0bgbag","pricing_plan_id":"cebpf4jnsgd1na2vs0mg"},{"bike_id":"b9920502-7832-4d71-a16b-302e6cc9bedc","system_id":"levelo_inurba_marseille","lat":43.29042,"lon":5.37554,"is_reserved":false,"is_disabled":false,"rental_uris":{"android":"levelo://app?vid=b9920502-7832-4d71-a16b-302e6cc9bedc","ios":"levelo://app?vid=b9920502-7832-4d71-a16b-302e6cc9bedc"},"vehicle_type_id":"4","last_reported":1753193604,"current_range_meters":8800,"station_id":"ce4bh692rcd13ifvqe90","pricing_plan_id":"cebpf4jnsgd1na2vs0mg"},{"bike_id":"42413a25-16d1-4419-b44a-45580e0c6ac6","system_id":"levelo_inurba_marseille","lat":43.282171,"lon":5.395775,"is_reserved":false,"is_disabled":false,"rental_uris":{"android":"levelo://app?vid=42413a25-16d1-4419-b44a-45580e0c6ac6","ios":"levelo://app?vid=42413a25-16d1-4419-b44a-45580e0c6ac6"},"vehicle_type_id":"4","last_reported":1753193604,"current_range_meters":9200,"station_id":"","pricing_plan_id":"cebpf4jnsgd1na2vs0mg"},{"bike_id":"872ed4b8-fdbf-4ac0-a05b-5ec98592fd43","system_id":"levelo_inurba_marseille","lat":43.28282,"lon":5.35077,"is_reserved":false,"is_disabled":false,"rental_uris":{"android":"levelo://app?vid=872ed4b8-fdbf-4ac0-a05b-5ec98592fd43","ios":"levelo://app?vid=872ed4b8-fdbf-4ac0-a05b-5ec98592fd43"},"vehicle_type_id":"4","last_reported":1753193604,"current_range_meters":9200,"station_id":"ce4bhbp2rcd13ifvqerg","pricing_plan_id":"cebpf4jnsgd1na2vs0mg"},{"bike_id":"0a8bc049-b735-4791-9749-e6790f79cdb8","system_id":"levelo_inurba_marseille","lat":43.232,"lon":5.39981,"is_reserved":false,"is_disabled":false,"rental_uris":{"android":"levelo://app?vid=0a8bc049-b735-4791-9749-e6790f79cdb8","ios":"levelo://app?vid=0a8bc049-b735-4791-9749-e6790f79cdb8"},"vehicle_type_id":"4","last_reported":1753193604,"current_range_meters":9200,"station_id":"ce4bhn12rcd13ifvqgqg","pricing_plan_id":"cebpf4jnsgd1na2vs0mg"},{"bike_id":"6f0bcb77-dee8-40ab-812c-ed403c52a0df","system_id":"levelo_inurba_marseille","lat":43.31704,"lon":5.37671,"is_reserved":false,"is_disabled":false,"rental_uris":{"android":"levelo://app?vid=6f0bcb77-dee8-40ab-812c-ed403c52a0df","ios":"levelo://app?vid=6f0bcb77-dee8-40ab-812c-ed403c52a0df"},"vehicle_type_id":"4","last_reported":1753193604,"current_range_meters":9200,"station_id":"","pricing_plan_id":"cebpf4jnsgd1na2vs0mg"},{"bike_id":"3c3e19b6-8d7f-4830-88d3-aca5ef5249db","system_id":"levelo_inurba_marseille","lat":43.304598,"lon":5.379015,"is_reserved":false,"is_disabled":false,"rental_uris":{"android":"levelo://app?vid=3c3e19b6-8d7f-4830-88d3-aca5ef5249db","ios":"levelo://app?vid=3c3e19b6-8d7f-4830-88d3-aca5ef5249db"},"vehicle_type_id":"4","last_reported":1753193604,"current_range_meters":9600,"station_id":"ce4bgup2rcd13ifvqcn0","pricing_plan_id":"cebpf4jnsgd1na2vs0mg"},{"bike_id":"d5604a34-cf51-4465-80b1-697b38e07e24","system_id":"levelo_inurba_marseille","lat":43.29011,"lon":5.35617,"is_reserved":false,"is_disabled":false,"rental_uris":{"android":"levelo://app?vid=d5604a34-cf51-4465-80b1-697b38e07e24","ios":"levelo://app?vid=d5604a34-cf51-4465-80b1-697b38e07e24"},"vehicle_type_id":"4","last_reported":1753193604,"current_range_meters":12800,"station_id":"ce4bhb92rcd13ifvqen0","pricing_plan_id":"cebpf4jnsgd1na2vs0mg"},{"bike_id":"3b7181ea-5d3a-45c5-b42b-53c72962b3ee","system_id":"levelo_inurba_marseille","lat":43.22328,"lon":5.34626,"is_reserved":false,"is_disabled":false,"rental_uris":{"android":"levelo://app?vid=3b7181ea-5d3a-45c5-b42b-53c72962b3ee","ios":"levelo://app?vid=3b7181ea-5d3a-45c5-b42b-53c72962b3ee"},"vehicle_type_id":"4","last_reported":1753193604,"current_range_meters":9600,"station_id":"","pricing_plan_id":"cebpf4jnsgd1na2vs0mg"},{"bike_id":"296caa36-be7d-4a88-8722-32ab0fe9e09a","system_id":"levelo_inurba_marseille","lat":43.32107,"lon":5.36777,"is_reserved":false,"is_disabled":false,"rental_uris":{"android":"levelo://app?vid=296caa36-be7d-4a88-8722-32ab0fe9e09a","ios":"levelo://app?vid=296caa36-be7d-4a88-8722-32ab0fe9e09a"},"vehicle_type_id":"4","last_reported":1753193604,"current_range_meters":9600,"station_id":"ce4bhrh2rcd13ifvqhug","pricing_plan_id":"cebpf4jnsgd1na2vs0mg"},{"bike_id":"6ba2c4b1-9a34-4db2-8bd0-acf36760dfcb","system_id":"levelo_inurba_marseille","lat":43.292987,"lon":5.374647,"is_reserved":false,"is_disabled":false,"rental_uris":{"android":"levelo://app?vid=6ba2c4b1-9a34-4db2-8bd0-acf36760dfcb","ios":"levelo://app?vid=6ba2c4b1-9a34-4db2-8bd0-acf36760dfcb"},"vehicle_type_id":"4","last_reported":1753193604,"current_range_meters":9600,"station_id":"","pricing_plan_id":"cebpf4jnsgd1na2vs0mg"},{"bike_id":"e7a5c1dc-7add-4603-a72a-798e1db3b678","system_id":"levelo_inurba_marseille","lat":43.29275,"lon":5.36848,"is_reserved":false,"is_disabled":false,"rental_uris":{"android":"levelo://app?vid=e7a5c1dc-7add-4603-a72a-798e1db3b678","ios":"levelo://app?vid=e7a5c1dc-7add-4603-a72a-798e1db3b678"},"vehicle_type_id":"4","last_reported":1753193604,"current_range_meters":9600,"station_id":"ce4bhbp2rcd13ifvqesg","pricing_plan_id":"cebpf4jnsgd1na2vs0mg"},{"bike_id":"a1fcea1c-150c-4f79-b026-02640e9c6085","system_id":"levelo_inurba_marseille","lat":43.28724,"lon":5.36099,"is_reserved":false,"is_disabled":false,"rental_uris":{"android":"levelo://app?vid=a1fcea1c-150c-4f79-b026-02640e9c6085","ios":"levelo://app?vid=a1fcea1c-150c-4f79-b026-02640e9c6085"},"vehicle_type_id":"4","last_reported":1753193604,"current_range_meters":10000,"station_id":"cki0cbj6b192h4jlfktg","pricing_plan_id":"cebpf4jnsgd1na2vs0mg"},{"bike_id":"d1399059-8327-4906-a867-5818e474d4a5","system_id":"levelo_inurba_marseille","lat":43.31086,"lon":5.42433,"is_reserved":false,"is_disabled":false,"rental_uris":{"android":"levelo://app?vid=d1399059-8327-4906-a867-5818e474d4a5","ios":"levelo://app?vid=d1399059-8327-4906-a867-5818e474d4a5"},"vehicle_type_id":"4","last_reported":1753193604,"current_range_meters":10000,"station_id":"ce4bhp92rcd13ifvqhag","pricing_plan_id":"cebpf4jnsgd1na2vs0mg"},{"bike_id":"2791a1cf-f8f1-4674-9084-f245d5cf3114","system_id":"levelo_inurba_marseille","lat":43.28417,"lon":5.34986,"is_reserved":false,"is_disabled":false,"rental_uris":{"android":"levelo://app?vid=2791a1cf-f8f1-4674-9084-f245d5cf3114","ios":"levelo://app?vid=2791a1cf-f8f1-4674-9084-f245d5cf3114"},"vehicle_type_id":"4","last_reported":1753193604,"current_range_meters":10000,"station_id":"ce4bhbh2rcd13ifvqepg","pricing_plan_id":"cebpf4jnsgd1na2vs0mg"},{"bike_id":"d85ec1a9-8ce8-4582-866f-e81b8010795f","system_id":"levelo_inurba_marseille","lat":43.28262,"lon":5.35076,"is_reserved":false,"is_disabled":false,"rental_uris":{"android":"levelo://app?vid=d85ec1a9-8ce8-4582-866f-e81b8010795f","ios":"levelo://app?vid=d85ec1a9-8ce8-4582-866f-e81b8010795f"},"vehicle_type_id":"4","last_reported":1753193604,"current_range_meters":10000,"station_id":"ce4bhbp2rcd13ifvqerg","pricing_plan_id":"cebpf4jnsgd1na2vs0mg"},{"bike_id":"0234105c-ef86-4caa-930c-a44a96d2ef04","system_id":"levelo_inurba_marseille","lat":43.26222,"lon":5.37435,"is_reserved":false,"is_disabled":false,"rental_uris":{"android":"levelo://app?vid=0234105c-ef86-4caa-930c-a44a96d2ef04","ios":"levelo://app?vid=0234105c-ef86-4caa-930c-a44a96d2ef04"},"vehicle_type_id":"4","last_reported":1753193604,"current_range_meters":10000,"station_id":"ce4bhgp2rcd13ifvqfc0","pricing_plan_id":"cebpf4jnsgd1na2vs0mg"},{"bike_id":"58827868-0166-4a71-9ee1-4905fa9336c9","system_id":"levelo_inurba_marseille","lat":43.225099,"lon":5.347786,"is_reserved":false,"is_disabled":false,"rental_uris":{"android":"levelo://app?vid=58827868-0166-4a71-9ee1-4905fa9336c9","ios":"levelo://app?vid=58827868-0166-4a71-9ee1-4905fa9336c9"},"vehicle_type_id":"4","last_reported":1753193604,"current_range_meters":10000,"station_id":"st_cvj5dfep6f1abm77gieg","pricing_plan_id":"cebpf4jnsgd1na2vs0mg"},{"bike_id":"9a7e3be2-a85c-41ba-8c0c-c12fe6a652ba","system_id":"levelo_inurba_marseille","lat":43.22506,"lon":5.3478,"is_reserved":false,"is_disabled":false,"rental_uris":{"android":"levelo://app?vid=9a7e3be2-a85c-41ba-8c0c-c12fe6a652ba","ios":"levelo://app?vid=9a7e3be2-a85c-41ba-8c0c-c12fe6a652ba"},"vehicle_type_id":"4","last_reported":1753193604,"current_range_meters":10000,"station_id":"st_cvj5dfep6f1abm77gieg","pricing_plan_id":"cebpf4jnsgd1na2vs0mg"},{"bike_id":"5f9f31e4-8a29-41f3-93a7-4ebfe39e1fbd","system_id":"levelo_inurba_marseille","lat":43.29624,"lon":5.37157,"is_reserved":false,"is_disabled":false,"rental_uris":{"android":"levelo://app?vid=5f9f31e4-8a29-41f3-93a7-4ebfe39e1fbd","ios":"levelo://app?vid=5f9f31e4-8a29-41f3-93a7-4ebfe39e1fbd"},"vehicle_type_id":"4","last_reported":1753193604,"current_range_meters":8000,"station_id":"ce4bgnh2rcd13ifvqc0g","pricing_plan_id":"cebpf4jnsgd1na2vs0mg"},{"bike_id":"64d265c8-d0b0-44d5-9c17-c540e809fd4a","system_id":"levelo_inurba_marseille","lat":43.31172,"lon":5.38711,"is_reserved":false,"is_disabled":false,"rental_uris":{"android":"levelo://app?vid=64d265c8-d0b0-44d5-9c17-c540e809fd4a","ios":"levelo://app?vid=64d265c8-d0b0-44d5-9c17-c540e809fd4a"},"vehicle_type_id":"4","last_reported":1753193604,"current_range_meters":10800,"station_id":"ce4bgv12rcd13ifvqcp0","pricing_plan_id":"cebpf4jnsgd1na2vs0mg"},{"bike_id":"f86a0b86-dc62-40b5-b913-638cffe31bda","system_id":"levelo_inurba_marseille","lat":43.275717,"lon":5.3843,"is_reserved":false,"is_disabled":false,"rental_uris":{"android":"levelo://app?vid=f86a0b86-dc62-40b5-b913-638cffe31bda","ios":"levelo://app?vid=f86a0b86-dc62-40b5-b913-638cffe31bda"},"vehicle_type_id":"4","last_reported":1753193604,"current_range_meters":10800,"station_id":"ce4bhh92rcd13ifvqfi0","pricing_plan_id":"cebpf4jnsgd1na2vs0mg"},{"bike_id":"aae1560a-1001-4332-bd57-c3f17d1965e7","system_id":"levelo_inurba_marseille","lat":43.32601,"lon":5.41499,"is_reserved":false,"is_disabled":false,"rental_uris":{"android":"levelo://app?vid=aae1560a-1001-4332-bd57-c3f17d1965e7","ios":"levelo://app?vid=aae1560a-1001-4332-bd57-c3f17d1965e7"},"vehicle_type_id":"4","last_reported":1753193604,"current_range_meters":10800,"station_id":"ce4bhq12rcd13ifvqhhg","pricing_plan_id":"cebpf4jnsgd1na2vs0mg"},{"bike_id":"4ee76a7b-1bb4-47c3-9188-2891fd5e9f45","system_id":"levelo_inurba_marseille","lat":43.28279,"lon":5.35071,"is_reserved":false,"is_disabled":false,"rental_uris":{"android":"levelo://app?vid=4ee76a7b-1bb4-47c3-9188-2891fd5e9f45","ios":"levelo://app?vid=4ee76a7b-1bb4-47c3-9188-2891fd5e9f45"},"vehicle_type_id":"4","last_reported":1753193604,"current_range_meters":10800,"station_id":"ce4bhbp2rcd13ifvqerg","pricing_plan_id":"cebpf4jnsgd1na2vs0mg"},{"bike_id":"9ce9f89e-58e6-4693-8497-fd5a6afacd2f","system_id":"levelo_inurba_marseille","lat":43.32124,"lon":5.36805,"is_reserved":false,"is_disabled":false,"rental_uris":{"android":"levelo://app?vid=9ce9f89e-58e6-4693-8497-fd5a6afacd2f","ios":"levelo://app?vid=9ce9f89e-58e6-4693-8497-fd5a6afacd2f"},"vehicle_type_id":"4","last_reported":1753193604,"current_range_meters":10800,"station_id":"ce4bhrh2rcd13ifvqhug","pricing_plan_id":"cebpf4jnsgd1na2vs0mg"},{"bike_id":"d220a544-aabc-4664-8a36-ccde4b4356ec","system_id":"levelo_inurba_marseille","lat":43.30887,"lon":5.39625,"is_reserved":false,"is_disabled":false,"rental_uris":{"android":"levelo://app?vid=d220a544-aabc-4664-8a36-ccde4b4356ec","ios":"levelo://app?vid=d220a544-aabc-4664-8a36-ccde4b4356ec"},"vehicle_type_id":"4","last_reported":1753193604,"current_range_meters":10800,"station_id":"ce4bh012rcd13ifvqcv0","pricing_plan_id":"cebpf4jnsgd1na2vs0mg"},{"bike_id":"02f62ba6-cb19-48be-956f-a91e18589f34","system_id":"levelo_inurba_marseille","lat":43.28264,"lon":5.35078,"is_reserved":false,"is_disabled":false,"rental_uris":{"android":"levelo://app?vid=02f62ba6-cb19-48be-956f-a91e18589f34","ios":"levelo://app?vid=02f62ba6-cb19-48be-956f-a91e18589f34"},"vehicle_type_id":"4","last_reported":1753193604,"current_range_meters":10800,"station_id":"ce4bhbp2rcd13ifvqerg","pricing_plan_id":"cebpf4jnsgd1na2vs0mg"},{"bike_id":"27380598-6f6f-4cb5-9814-6b46f87e461a","system_id":"levelo_inurba_marseille","lat":43.29006,"lon":5.35607,"is_reserved":false,"is_disabled":false,"rental_uris":{"android":"levelo://app?vid=27380598-6f6f-4cb5-9814-6b46f87e461a","ios":"levelo://app?vid=27380598-6f6f-4cb5-9814-6b46f87e461a"},"vehicle_type_id":"4","last_reported":1753193604,"current_range_meters":11200,"station_id":"ce4bhb92rcd13ifvqen0","pricing_plan_id":"cebpf4jnsgd1na2vs0mg"},{"bike_id":"9e7340c7-b615-449a-9624-1c51507c1782","system_id":"levelo_inurba_marseille","lat":43.31723,"lon":5.43698,"is_reserved":false,"is_disabled":false,"rental_uris":{"android":"levelo://app?vid=9e7340c7-b615-449a-9624-1c51507c1782","ios":"levelo://app?vid=9e7340c7-b615-449a-9624-1c51507c1782"},"vehicle_type_id":"4","last_reported":1753193604,"current_range_meters":11200,"station_id":"ce4bhp92rcd13ifvqhcg","pricing_plan_id":"cebpf4jnsgd1na2vs0mg"},{"bike_id":"20b9d723-9149-4587-ae80-b38f405e5269","system_id":"levelo_inurba_marseille","lat":43.29968,"lon":5.37174,"is_reserved":false,"is_disabled":false,"rental_uris":{"android":"levelo://app?vid=20b9d723-9149-4587-ae80-b38f405e5269","ios":"levelo://app?vid=20b9d723-9149-4587-ae80-b38f405e5269"},"vehicle_type_id":"4","last_reported":1753193604,"current_range_meters":11200,"station_id":"ce4bgr92rcd13ifvqc7g","pricing_plan_id":"cebpf4jnsgd1na2vs0mg"},{"bike_id":"ba251ace-0ca9-40ca-b2a8-1f86d1a9e39f","system_id":"levelo_inurba_marseille","lat":43.31208,"lon":5.36882,"is_reserved":false,"is_disabled":false,"rental_uris":{"android":"levelo://app?vid=ba251ace-0ca9-40ca-b2a8-1f86d1a9e39f","ios":"levelo://app?vid=ba251ace-0ca9-40ca-b2a8-1f86d1a9e39f"},"vehicle_type_id":"4","last_reported":1753193604,"current_range_meters":11200,"station_id":"ce4bgl92rcd13ifvqbq0","pricing_plan_id":"cebpf4jnsgd1na2vs0mg"},{"bike_id":"20a281eb-353f-4ce3-be36-127a9ce94c34","system_id":"levelo_inurba_marseille","lat":43.24803,"lon":5.37456,"is_reserved":false,"is_disabled":false,"rental_uris":{"android":"levelo://app?vid=20a281eb-353f-4ce3-be36-127a9ce94c34","ios":"levelo://app?vid=20a281eb-353f-4ce3-be36-127a9ce94c34"},"vehicle_type_id":"4","last_reported":1753193604,"current_range_meters":11600,"station_id":"ce4bhgh2rcd13ifvqfb0","pricing_plan_id":"cebpf4jnsgd1na2vs0mg"},{"bike_id":"9048f95a-03a3-48f5-8421-df7685f0f6b4","system_id":"levelo_inurba_marseille","lat":43.323596,"lon":5.367577,"is_reserved":false,"is_disabled":false,"rental_uris":{"android":"levelo://app?vid=9048f95a-03a3-48f5-8421-df7685f0f6b4","ios":"levelo://app?vid=9048f95a-03a3-48f5-8421-df7685f0f6b4"},"vehicle_type_id":"4","last_reported":1753193604,"current_range_meters":11600,"station_id":"ce4bhsh2rcd13ifvqi2g","pricing_plan_id":"cebpf4jnsgd1na2vs0mg"},{"bike_id":"3b9418a3-c786-4f5b-ac7c-7eabe0eaeb8e","system_id":"levelo_inurba_marseille","lat":43.24996,"lon":5.38941,"is_reserved":false,"is_disabled":false,"rental_uris":{"android":"levelo://app?vid=3b9418a3-c786-4f5b-ac7c-7eabe0eaeb8e","ios":"levelo://app?vid=3b9418a3-c786-4f5b-ac7c-7eabe0eaeb8e"},"vehicle_type_id":"4","last_reported":1753193604,"current_range_meters":12000,"station_id":"ce4bhgp2rcd13ifvqfd0","pricing_plan_id":"cebpf4jnsgd1na2vs0mg"},{"bike_id":"46cc9286-29a9-4fbc-b731-0c34ef4004d2","system_id":"levelo_inurba_marseille","lat":43.30577,"lon":5.36551,"is_reserved":false,"is_disabled":false,"rental_uris":{"android":"levelo://app?vid=46cc9286-29a9-4fbc-b731-0c34ef4004d2","ios":"levelo://app?vid=46cc9286-29a9-4fbc-b731-0c34ef4004d2"},"vehicle_type_id":"4","last_reported":1753193604,"current_range_meters":12000,"station_id":"ce4bgs12rcd13ifvqcag","pricing_plan_id":"cebpf4jnsgd1na2vs0mg"},{"bike_id":"9cafa81b-8072-4328-9598-fe53142b76c1","system_id":"levelo_inurba_marseille","lat":43.29198,"lon":5.35816,"is_reserved":false,"is_disabled":false,"rental_uris":{"android":"levelo://app?vid=9cafa81b-8072-4328-9598-fe53142b76c1","ios":"levelo://app?vid=9cafa81b-8072-4328-9598-fe53142b76c1"},"vehicle_type_id":"4","last_reported":1753193604,"current_range_meters":12000,"station_id":"ce4bhb12rcd13ifvqel0","pricing_plan_id":"cebpf4jnsgd1na2vs0mg"},{"bike_id":"93a8b295-0442-42cd-9a09-5ad251943cf6","system_id":"levelo_inurba_marseille","lat":43.28431,"lon":5.34989,"is_reserved":false,"is_disabled":false,"rental_uris":{"android":"levelo://app?vid=93a8b295-0442-42cd-9a09-5ad251943cf6","ios":"levelo://app?vid=93a8b295-0442-42cd-9a09-5ad251943cf6"},"vehicle_type_id":"4","last_reported":1753193604,"current_range_meters":12400,"station_id":"ce4bhbh2rcd13ifvqepg","pricing_plan_id":"cebpf4jnsgd1na2vs0mg"},{"bike_id":"14bfe123-f8e8-44fc-bbe3-440808c69a8b","system_id":"levelo_inurba_marseille","lat":43.28419,"lon":5.35,"is_reserved":false,"is_disabled":false,"rental_uris":{"android":"levelo://app?vid=14bfe123-f8e8-44fc-bbe3-440808c69a8b","ios":"levelo://app?vid=14bfe123-f8e8-44fc-bbe3-440808c69a8b"},"vehicle_type_id":"4","last_reported":1753193604,"current_range_meters":12400,"station_id":"ce4bhbh2rcd13ifvqepg","pricing_plan_id":"cebpf4jnsgd1na2vs0mg"},{"bike_id":"64ae9e8f-171c-49f2-a508-5e913a00ee7f","system_id":"levelo_inurba_marseille","lat":43.28461,"lon":5.35895,"is_reserved":false,"is_disabled":false,"rental_uris":{"android":"levelo://app?vid=64ae9e8f-171c-49f2-a508-5e913a00ee7f","ios":"levelo://app?vid=64ae9e8f-171c-49f2-a508-5e913a00ee7f"},"vehicle_type_id":"4","last_reported":1753193604,"current_range_meters":12400,"station_id":"ce4bhah2rcd13ifvqei0","pricing_plan_id":"cebpf4jnsgd1na2vs0mg"},{"bike_id":"47f8f673-30a6-404a-b883-29c8dd09c50c","system_id":"levelo_inurba_marseille","lat":43.25125,"lon":5.40329,"is_reserved":false,"is_disabled":false,"rental_uris":{"android":"levelo://app?vid=47f8f673-30a6-404a-b883-29c8dd09c50c","ios":"levelo://app?vid=47f8f673-30a6-404a-b883-29c8dd09c50c"},"vehicle_type_id":"4","last_reported":1753193604,"current_range_meters":12400,"station_id":"ce4bhlh2rcd13ifvqgig","pricing_plan_id":"cebpf4jnsgd1na2vs0mg"},{"bike_id":"5102b53d-eb14-482c-a2a9-8d0173681b87","system_id":"levelo_inurba_marseille","lat":43.31379,"lon":5.36723,"is_reserved":false,"is_disabled":false,"rental_uris":{"android":"levelo://app?vid=5102b53d-eb14-482c-a2a9-8d0173681b87","ios":"levelo://app?vid=5102b53d-eb14-482c-a2a9-8d0173681b87"},"vehicle_type_id":"4","last_reported":1753193604,"current_range_meters":12400,"station_id":"ce4bgr92rcd13ifvqc6g","pricing_plan_id":"cebpf4jnsgd1na2vs0mg"},{"bike_id":"a5f1f0d6-c678-45f4-9b29-96eaa29a3e36","system_id":"levelo_inurba_marseille","lat":43.25166,"lon":5.37308,"is_reserved":false,"is_disabled":false,"rental_uris":{"android":"levelo://app?vid=a5f1f0d6-c678-45f4-9b29-96eaa29a3e36","ios":"levelo://app?vid=a5f1f0d6-c678-45f4-9b29-96eaa29a3e36"},"vehicle_type_id":"4","last_reported":1753193604,"current_range_meters":12400,"station_id":"","pricing_plan_id":"cebpf4jnsgd1na2vs0mg"},{"bike_id":"0082530e-bede-4c25-a59b-99f14518d4f6","system_id":"levelo_inurba_marseille","lat":43.32368,"lon":5.36755,"is_reserved":false,"is_disabled":false,"rental_uris":{"android":"levelo://app?vid=0082530e-bede-4c25-a59b-99f14518d4f6","ios":"levelo://app?vid=0082530e-bede-4c25-a59b-99f14518d4f6"},"vehicle_type_id":"4","last_reported":1753193604,"current_range_meters":12800,"station_id":"ce4bhsh2rcd13ifvqi2g","pricing_plan_id":"cebpf4jnsgd1na2vs0mg"},{"bike_id":"06410ab7-646b-4a92-8c67-9be9379422d4","system_id":"levelo_inurba_marseille","lat":43.33026,"lon":5.41303,"is_reserved":false,"is_disabled":false,"rental_uris":{"android":"levelo://app?vid=06410ab7-646b-4a92-8c67-9be9379422d4","ios":"levelo://app?vid=06410ab7-646b-4a92-8c67-9be9379422d4"},"vehicle_type_id":"4","last_reported":1753193604,"current_range_meters":12800,"station_id":"","pricing_plan_id":"cebpf4jnsgd1na2vs0mg"},{"bike_id":"b2cde23e-f061-454e-9280-8b07da9edd7e","system_id":"levelo_inurba_marseille","lat":43.240692,"lon":5.377619,"is_reserved":false,"is_disabled":false,"rental_uris":{"android":"levelo://app?vid=b2cde23e-f061-454e-9280-8b07da9edd7e","ios":"levelo://app?vid=b2cde23e-f061-454e-9280-8b07da9edd7e"},"vehicle_type_id":"4","last_reported":1753193604,"current_range_meters":12800,"station_id":"ce4bhnp2rcd13ifvqgvg","pricing_plan_id":"cebpf4jnsgd1na2vs0mg"},{"bike_id":"63e367c8-10c3-4236-9825-5800ef476841","system_id":"levelo_inurba_marseille","lat":43.273717,"lon":5.362533,"is_reserved":false,"is_disabled":false,"rental_uris":{"android":"levelo://app?vid=63e367c8-10c3-4236-9825-5800ef476841","ios":"levelo://app?vid=63e367c8-10c3-4236-9825-5800ef476841"},"vehicle_type_id":"4","last_reported":1753193604,"current_range_meters":12800,"station_id":"ce4bhbh2rcd13ifvqeo0","pricing_plan_id":"cebpf4jnsgd1na2vs0mg"},{"bike_id":"b3040dad-29a1-4e2f-9174-11c500ccc5bb","system_id":"levelo_inurba_marseille","lat":43.29011,"lon":5.35611,"is_reserved":false,"is_disabled":false,"rental_uris":{"android":"levelo://app?vid=b3040dad-29a1-4e2f-9174-11c500ccc5bb","ios":"levelo://app?vid=b3040dad-29a1-4e2f-9174-11c500ccc5bb"},"vehicle_type_id":"4","last_reported":1753193604,"current_range_meters":12800,"station_id":"ce4bhb92rcd13ifvqen0","pricing_plan_id":"cebpf4jnsgd1na2vs0mg"},{"bike_id":"365bc9b2-68bd-4764-ad7a-4ff9aa780715","system_id":"levelo_inurba_marseille","lat":43.299003,"lon":5.436673,"is_reserved":false,"is_disabled":false,"rental_uris":{"android":"levelo://app?vid=365bc9b2-68bd-4764-ad7a-4ff9aa780715","ios":"levelo://app?vid=365bc9b2-68bd-4764-ad7a-4ff9aa780715"},"vehicle_type_id":"4","last_reported":1753193604,"current_range_meters":13600,"station_id":"ce4bhpp2rcd13ifvqhfg","pricing_plan_id":"cebpf4jnsgd1na2vs0mg"},{"bike_id":"41f0759b-d3a0-4658-bd9a-7658d27cb7a3","system_id":"levelo_inurba_marseille","lat":43.305953,"lon":5.393502,"is_reserved":false,"is_disabled":false,"rental_uris":{"android":"levelo://app?vid=41f0759b-d3a0-4658-bd9a-7658d27cb7a3","ios":"levelo://app?vid=41f0759b-d3a0-4658-bd9a-7658d27cb7a3"},"vehicle_type_id":"4","last_reported":1753193604,"current_range_meters":13600,"station_id":"ce4bh0p2rcd13ifvqd80","pricing_plan_id":"cebpf4jnsgd1na2vs0mg"},{"bike_id":"25e30967-ff13-4305-9c1e-539092e264ff","system_id":"levelo_inurba_marseille","lat":43.25948,"lon":5.40896,"is_reserved":false,"is_disabled":false,"rental_uris":{"android":"levelo://app?vid=25e30967-ff13-4305-9c1e-539092e264ff","ios":"levelo://app?vid=25e30967-ff13-4305-9c1e-539092e264ff"},"vehicle_type_id":"4","last_reported":1753193604,"current_range_meters":13600,"station_id":"ce4bhm92rcd13ifvqglg","pricing_plan_id":"cebpf4jnsgd1na2vs0mg"},{"bike_id":"c5e3bc4a-9bdf-46b0-a2e8-916eb9af5837","system_id":"levelo_inurba_marseille","lat":43.32659,"lon":5.40993,"is_reserved":false,"is_disabled":false,"rental_uris":{"android":"levelo://app?vid=c5e3bc4a-9bdf-46b0-a2e8-916eb9af5837","ios":"levelo://app?vid=c5e3bc4a-9bdf-46b0-a2e8-916eb9af5837"},"vehicle_type_id":"4","last_reported":1753193604,"current_range_meters":13600,"station_id":"ce4bhpp2rcd13ifvqhgg","pricing_plan_id":"cebpf4jnsgd1na2vs0mg"},{"bike_id":"79b507a4-6b69-4862-bc07-d60efb691c7d","system_id":"levelo_inurba_marseille","lat":43.28485,"lon":5.38536,"is_reserved":false,"is_disabled":false,"rental_uris":{"android":"levelo://app?vid=79b507a4-6b69-4862-bc07-d60efb691c7d","ios":"levelo://app?vid=79b507a4-6b69-4862-bc07-d60efb691c7d"},"vehicle_type_id":"4","last_reported":1753193604,"current_range_meters":14000,"station_id":"","pricing_plan_id":"cebpf4jnsgd1na2vs0mg"},{"bike_id":"4d85e987-a70b-41c3-815c-8d134756a26b","system_id":"levelo_inurba_marseille","lat":43.28393,"lon":5.37522,"is_reserved":false,"is_disabled":false,"rental_uris":{"android":"levelo://app?vid=4d85e987-a70b-41c3-815c-8d134756a26b","ios":"levelo://app?vid=4d85e987-a70b-41c3-815c-8d134756a26b"},"vehicle_type_id":"4","last_reported":1753193604,"current_range_meters":14000,"station_id":"ce4bh412rcd13ifvqds0","pricing_plan_id":"cebpf4jnsgd1na2vs0mg"},{"bike_id":"e3fb6c08-52ac-4791-82c8-6c5ada7a605a","system_id":"levelo_inurba_marseille","lat":43.25728,"lon":5.41109,"is_reserved":false,"is_disabled":false,"rental_uris":{"android":"levelo://app?vid=e3fb6c08-52ac-4791-82c8-6c5ada7a605a","ios":"levelo://app?vid=e3fb6c08-52ac-4791-82c8-6c5ada7a605a"},"vehicle_type_id":"4","last_reported":1753193604,"current_range_meters":14000,"station_id":"ce4bhkp2rcd13ifvqgd0","pricing_plan_id":"cebpf4jnsgd1na2vs0mg"},{"bike_id":"5d912c0a-b390-474c-a176-21ce79a555df","system_id":"levelo_inurba_marseille","lat":43.32534,"lon":5.41445,"is_reserved":false,"is_disabled":false,"rental_uris":{"android":"levelo://app?vid=5d912c0a-b390-474c-a176-21ce79a555df","ios":"levelo://app?vid=5d912c0a-b390-474c-a176-21ce79a555df"},"vehicle_type_id":"4","last_reported":1753193604,"current_range_meters":14000,"station_id":"ce4bhq12rcd13ifvqhhg","pricing_plan_id":"cebpf4jnsgd1na2vs0mg"},{"bike_id":"02a329dc-97e4-4ba9-bb36-a2c9dca82771","system_id":"levelo_inurba_marseille","lat":43.28459,"lon":5.35902,"is_reserved":false,"is_disabled":false,"rental_uris":{"android":"levelo://app?vid=02a329dc-97e4-4ba9-bb36-a2c9dca82771","ios":"levelo://app?vid=02a329dc-97e4-4ba9-bb36-a2c9dca82771"},"vehicle_type_id":"4","last_reported":1753193604,"current_range_meters":14400,"station_id":"ce4bhah2rcd13ifvqei0","pricing_plan_id":"cebpf4jnsgd1na2vs0mg"},{"bike_id":"72024e02-0ccc-45ec-87c8-bfd123ae2fcf","system_id":"levelo_inurba_marseille","lat":43.30412,"lon":5.4249,"is_reserved":false,"is_disabled":false,"rental_uris":{"android":"levelo://app?vid=72024e02-0ccc-45ec-87c8-bfd123ae2fcf","ios":"levelo://app?vid=72024e02-0ccc-45ec-87c8-bfd123ae2fcf"},"vehicle_type_id":"4","last_reported":1753193604,"current_range_meters":14400,"station_id":"ce4bhoh2rcd13ifvqh6g","pricing_plan_id":"cebpf4jnsgd1na2vs0mg"},{"bike_id":"5e5a0020-05bb-485f-a93a-d11ccf22fe69","system_id":"levelo_inurba_marseille","lat":43.31183,"lon":5.36862,"is_reserved":false,"is_disabled":false,"rental_uris":{"android":"levelo://app?vid=5e5a0020-05bb-485f-a93a-d11ccf22fe69","ios":"levelo://app?vid=5e5a0020-05bb-485f-a93a-d11ccf22fe69"},"vehicle_type_id":"4","last_reported":1753193604,"current_range_meters":14400,"station_id":"ce4bgl92rcd13ifvqbq0","pricing_plan_id":"cebpf4jnsgd1na2vs0mg"},{"bike_id":"89e5300e-f524-48d1-8669-762241baab60","system_id":"levelo_inurba_marseille","lat":43.22935,"lon":5.35371,"is_reserved":false,"is_disabled":false,"rental_uris":{"android":"levelo://app?vid=89e5300e-f524-48d1-8669-762241baab60","ios":"levelo://app?vid=89e5300e-f524-48d1-8669-762241baab60"},"vehicle_type_id":"4","last_reported":1753193604,"current_range_meters":14400,"station_id":"cpo3532slgdg3j2ikp40","pricing_plan_id":"cebpf4jnsgd1na2vs0mg"},{"bike_id":"25a1aabf-393f-4959-9d0c-79c1ac606318","system_id":"levelo_inurba_marseille","lat":43.23965,"lon":5.36638,"is_reserved":false,"is_disabled":false,"rental_uris":{"android":"levelo://app?vid=25a1aabf-393f-4959-9d0c-79c1ac606318","ios":"levelo://app?vid=25a1aabf-393f-4959-9d0c-79c1ac606318"},"vehicle_type_id":"4","last_reported":1753193604,"current_range_meters":14400,"station_id":"ce4bhi12rcd13ifvqfp0","pricing_plan_id":"cebpf4jnsgd1na2vs0mg"},{"bike_id":"2dd67ace-8ba9-4ae7-a8b2-e8c55257e73d","system_id":"levelo_inurba_marseille","lat":43.28614,"lon":5.35114,"is_reserved":false,"is_disabled":false,"rental_uris":{"android":"levelo://app?vid=2dd67ace-8ba9-4ae7-a8b2-e8c55257e73d","ios":"levelo://app?vid=2dd67ace-8ba9-4ae7-a8b2-e8c55257e73d"},"vehicle_type_id":"4","last_reported":1753193604,"current_range_meters":14400,"station_id":"ce4bhch2rcd13ifvqeug","pricing_plan_id":"cebpf4jnsgd1na2vs0mg"},{"bike_id":"4935e699-fc91-4332-8adb-5548b5bd35a2","system_id":"levelo_inurba_marseille","lat":43.25495,"lon":5.37649,"is_reserved":false,"is_disabled":false,"rental_uris":{"android":"levelo://app?vid=4935e699-fc91-4332-8adb-5548b5bd35a2","ios":"levelo://app?vid=4935e699-fc91-4332-8adb-5548b5bd35a2"},"vehicle_type_id":"4","last_reported":1753193604,"current_range_meters":14800,"station_id":"ce4bhh12rcd13ifvqff0","pricing_plan_id":"cebpf4jnsgd1na2vs0mg"},{"bike_id":"d048391f-4ae3-4d6d-bf2b-eef57347304e","system_id":"levelo_inurba_marseille","lat":43.26574,"lon":5.37314,"is_reserved":false,"is_disabled":false,"rental_uris":{"android":"levelo://app?vid=d048391f-4ae3-4d6d-bf2b-eef57347304e","ios":"levelo://app?vid=d048391f-4ae3-4d6d-bf2b-eef57347304e"},"vehicle_type_id":"4","last_reported":1753193604,"current_range_meters":14800,"station_id":"ce4bhg12rcd13ifvqf70","pricing_plan_id":"cebpf4jnsgd1na2vs0mg"},{"bike_id":"d963ac66-29f7-469a-9aea-2ff5f4d1b5d0","system_id":"levelo_inurba_marseille","lat":43.27041,"lon":5.40298,"is_reserved":false,"is_disabled":false,"rental_uris":{"android":"levelo://app?vid=d963ac66-29f7-469a-9aea-2ff5f4d1b5d0","ios":"levelo://app?vid=d963ac66-29f7-469a-9aea-2ff5f4d1b5d0"},"vehicle_type_id":"4","last_reported":1753193604,"current_range_meters":14800,"station_id":"ce4bhk92rcd13ifvqgc0","pricing_plan_id":"cebpf4jnsgd1na2vs0mg"},{"bike_id":"c9dbd36b-479c-4a5c-b200-3aa7673340d9","system_id":"levelo_inurba_marseille","lat":43.241448,"lon":5.363743,"is_reserved":false,"is_disabled":false,"rental_uris":{"android":"levelo://app?vid=c9dbd36b-479c-4a5c-b200-3aa7673340d9","ios":"levelo://app?vid=c9dbd36b-479c-4a5c-b200-3aa7673340d9"},"vehicle_type_id":"4","last_reported":1753193604,"current_range_meters":14800,"station_id":"","pricing_plan_id":"cebpf4jnsgd1na2vs0mg"},{"bike_id":"20fd57c7-dde0-4ec9-8cf4-c4e153b75ea9","system_id":"levelo_inurba_marseille","lat":43.29058,"lon":5.3717,"is_reserved":false,"is_disabled":false,"rental_uris":{"android":"levelo://app?vid=20fd57c7-dde0-4ec9-8cf4-c4e153b75ea9","ios":"levelo://app?vid=20fd57c7-dde0-4ec9-8cf4-c4e153b75ea9"},"vehicle_type_id":"4","last_reported":1753193604,"current_range_meters":14800,"station_id":"ce4bgh92rcd13ifvqb40","pricing_plan_id":"cebpf4jnsgd1na2vs0mg"},{"bike_id":"51b5f6e9-56b8-43dc-9ef5-ed465eec8208","system_id":"levelo_inurba_marseille","lat":43.28497,"lon":5.38562,"is_reserved":false,"is_disabled":false,"rental_uris":{"android":"levelo://app?vid=51b5f6e9-56b8-43dc-9ef5-ed465eec8208","ios":"levelo://app?vid=51b5f6e9-56b8-43dc-9ef5-ed465eec8208"},"vehicle_type_id":"4","last_reported":1753193604,"current_range_meters":14800,"station_id":"ce4bh8p2rcd13ifvqeb0","pricing_plan_id":"cebpf4jnsgd1na2vs0mg"},{"bike_id":"05d42747-d0a7-485b-804a-c208d042127e","system_id":"levelo_inurba_marseille","lat":43.2416,"lon":5.36415,"is_reserved":false,"is_disabled":false,"rental_uris":{"android":"levelo://app?vid=05d42747-d0a7-485b-804a-c208d042127e","ios":"levelo://app?vid=05d42747-d0a7-485b-804a-c208d042127e"},"vehicle_type_id":"4","last_reported":1753193604,"current_range_meters":14800,"station_id":"cpo36qri1sfpv3e86is0","pricing_plan_id":"cebpf4jnsgd1na2vs0mg"},{"bike_id":"9e35f87b-92fc-4ad1-8892-b7e25a0e8789","system_id":"levelo_inurba_marseille","lat":43.2582,"lon":5.39438,"is_reserved":false,"is_disabled":false,"rental_uris":{"android":"levelo://app?vid=9e35f87b-92fc-4ad1-8892-b7e25a0e8789","ios":"levelo://app?vid=9e35f87b-92fc-4ad1-8892-b7e25a0e8789"},"vehicle_type_id":"4","last_reported":1753193604,"current_range_meters":14800,"station_id":"ce4bhih2rcd13ifvqfr0","pricing_plan_id":"cebpf4jnsgd1na2vs0mg"},{"bike_id":"8937154b-18f3-474a-9cab-dd3935178b0b","system_id":"levelo_inurba_marseille","lat":43.29797,"lon":5.40408,"is_reserved":false,"is_disabled":false,"rental_uris":{"android":"levelo://app?vid=8937154b-18f3-474a-9cab-dd3935178b0b","ios":"levelo://app?vid=8937154b-18f3-474a-9cab-dd3935178b0b"},"vehicle_type_id":"4","last_reported":1753193604,"current_range_meters":15200,"station_id":"ce4bh112rcd13ifvqd90","pricing_plan_id":"cebpf4jnsgd1na2vs0mg"},{"bike_id":"a884821b-64f5-4cba-a429-6365233476ce","system_id":"levelo_inurba_marseille","lat":43.26999,"lon":5.40291,"is_reserved":false,"is_disabled":false,"rental_uris":{"android":"levelo://app?vid=a884821b-64f5-4cba-a429-6365233476ce","ios":"levelo://app?vid=a884821b-64f5-4cba-a429-6365233476ce"},"vehicle_type_id":"4","last_reported":1753193604,"current_range_meters":15200,"station_id":"cjm6bp8fraef2m0cb0m0","pricing_plan_id":"cebpf4jnsgd1na2vs0mg"},{"bike_id":"50d328c3-4551-41c9-a5e3-a71b2ef6df96","system_id":"levelo_inurba_marseille","lat":43.30531,"lon":5.36695,"is_reserved":false,"is_disabled":false,"rental_uris":{"android":"levelo://app?vid=50d328c3-4551-41c9-a5e3-a71b2ef6df96","ios":"levelo://app?vid=50d328c3-4551-41c9-a5e3-a71b2ef6df96"},"vehicle_type_id":"4","last_reported":1753193604,"current_range_meters":15200,"station_id":"ce4bgrp2rcd13ifvqc9g","pricing_plan_id":"cebpf4jnsgd1na2vs0mg"},{"bike_id":"13e8d40a-1535-45e1-919d-9be64f10ad03","system_id":"levelo_inurba_marseille","lat":43.30551,"lon":5.36531,"is_reserved":false,"is_disabled":false,"rental_uris":{"android":"levelo://app?vid=13e8d40a-1535-45e1-919d-9be64f10ad03","ios":"levelo://app?vid=13e8d40a-1535-45e1-919d-9be64f10ad03"},"vehicle_type_id":"4","last_reported":1753193604,"current_range_meters":15200,"station_id":"ce4bgs12rcd13ifvqcag","pricing_plan_id":"cebpf4jnsgd1na2vs0mg"},{"bike_id":"73995655-1f23-4957-a22a-bb9b7000d3a3","system_id":"levelo_inurba_marseille","lat":43.25011,"lon":5.38914,"is_reserved":false,"is_disabled":false,"rental_uris":{"android":"levelo://app?vid=73995655-1f23-4957-a22a-bb9b7000d3a3","ios":"levelo://app?vid=73995655-1f23-4957-a22a-bb9b7000d3a3"},"vehicle_type_id":"4","last_reported":1753193604,"current_range_meters":15200,"station_id":"ce4bhgp2rcd13ifvqfd0","pricing_plan_id":"cebpf4jnsgd1na2vs0mg"},{"bike_id":"2dc67426-c266-4362-827e-923864a51b3a","system_id":"levelo_inurba_marseille","lat":43.28947,"lon":5.36639,"is_reserved":false,"is_disabled":false,"rental_uris":{"android":"levelo://app?vid=2dc67426-c266-4362-827e-923864a51b3a","ios":"levelo://app?vid=2dc67426-c266-4362-827e-923864a51b3a"},"vehicle_type_id":"4","last_reported":1753193604,"current_range_meters":15200,"station_id":"","pricing_plan_id":"cebpf4jnsgd1na2vs0mg"},{"bike_id":"b264de25-d6e9-4502-912b-a76ce7a72680","system_id":"levelo_inurba_marseille","lat":43.288562,"lon":5.358439,"is_reserved":false,"is_disabled":false,"rental_uris":{"android":"levelo://app?vid=b264de25-d6e9-4502-912b-a76ce7a72680","ios":"levelo://app?vid=b264de25-d6e9-4502-912b-a76ce7a72680"},"vehicle_type_id":"4","last_reported":1753193604,"current_range_meters":15200,"station_id":"ce4bhb12rcd13ifvqem0","pricing_plan_id":"cebpf4jnsgd1na2vs0mg"},{"bike_id":"b0a0dbc6-135a-4072-ab75-ed77a6872dee","system_id":"levelo_inurba_marseille","lat":43.28941,"lon":5.38391,"is_reserved":false,"is_disabled":false,"rental_uris":{"android":"levelo://app?vid=b0a0dbc6-135a-4072-ab75-ed77a6872dee","ios":"levelo://app?vid=b0a0dbc6-135a-4072-ab75-ed77a6872dee"},"vehicle_type_id":"4","last_reported":1753193604,"current_range_meters":15200,"station_id":"ce4bh612rcd13ifvqe6g","pricing_plan_id":"cebpf4jnsgd1na2vs0mg"},{"bike_id":"85b65ca0-7365-40fb-8905-5a0638bc8593","system_id":"levelo_inurba_marseille","lat":43.2292,"lon":5.35378,"is_reserved":false,"is_disabled":false,"rental_uris":{"android":"levelo://app?vid=85b65ca0-7365-40fb-8905-5a0638bc8593","ios":"levelo://app?vid=85b65ca0-7365-40fb-8905-5a0638bc8593"},"vehicle_type_id":"4","last_reported":1753193604,"current_range_meters":15200,"station_id":"cpo3532slgdg3j2ikp40","pricing_plan_id":"cebpf4jnsgd1na2vs0mg"},{"bike_id":"b0eb9043-cafa-47b9-a1d1-b613981a5fac","system_id":"levelo_inurba_marseille","lat":43.26566,"lon":5.37295,"is_reserved":false,"is_disabled":false,"rental_uris":{"android":"levelo://app?vid=b0eb9043-cafa-47b9-a1d1-b613981a5fac","ios":"levelo://app?vid=b0eb9043-cafa-47b9-a1d1-b613981a5fac"},"vehicle_type_id":"4","last_reported":1753193604,"current_range_meters":15200,"station_id":"ce4bhg12rcd13ifvqf70","pricing_plan_id":"cebpf4jnsgd1na2vs0mg"},{"bike_id":"aa5097b6-6968-4aec-b711-e7780938924b","system_id":"levelo_inurba_marseille","lat":43.32972,"lon":5.35907,"is_reserved":false,"is_disabled":false,"rental_uris":{"android":"levelo://app?vid=aa5097b6-6968-4aec-b711-e7780938924b","ios":"levelo://app?vid=aa5097b6-6968-4aec-b711-e7780938924b"},"vehicle_type_id":"4","last_reported":1753193604,"current_range_meters":15200,"station_id":"","pricing_plan_id":"cebpf4jnsgd1na2vs0mg"},{"bike_id":"e98317a9-59d1-4035-a22a-3f15a041ffdf","system_id":"levelo_inurba_marseille","lat":43.24671,"lon":5.38166,"is_reserved":false,"is_disabled":false,"rental_uris":{"android":"levelo://app?vid=e98317a9-59d1-4035-a22a-3f15a041ffdf","ios":"levelo://app?vid=e98317a9-59d1-4035-a22a-3f15a041ffdf"},"vehicle_type_id":"4","last_reported":1753193604,"current_range_meters":16000,"station_id":"ce4bhih2rcd13ifvqfr0","pricing_plan_id":"cebpf4jnsgd1na2vs0mg"},{"bike_id":"e2b3275d-5d13-4f4e-80a9-ab41cf2602ab","system_id":"levelo_inurba_marseille","lat":43.30307,"lon":5.39211,"is_reserved":false,"is_disabled":false,"rental_uris":{"android":"levelo://app?vid=e2b3275d-5d13-4f4e-80a9-ab41cf2602ab","ios":"levelo://app?vid=e2b3275d-5d13-4f4e-80a9-ab41cf2602ab"},"vehicle_type_id":"4","last_reported":1753193604,"current_range_meters":16000,"station_id":"ce4bgkh2rcd13ifvqbk0","pricing_plan_id":"cebpf4jnsgd1na2vs0mg"},{"bike_id":"5e053b41-f6f9-44b0-89e5-409a84d58a0e","system_id":"levelo_inurba_marseille","lat":43.30887,"lon":5.39642,"is_reserved":false,"is_disabled":false,"rental_uris":{"android":"levelo://app?vid=5e053b41-f6f9-44b0-89e5-409a84d58a0e","ios":"levelo://app?vid=5e053b41-f6f9-44b0-89e5-409a84d58a0e"},"vehicle_type_id":"4","last_reported":1753193604,"current_range_meters":16000,"station_id":"ce4bh012rcd13ifvqcv0","pricing_plan_id":"cebpf4jnsgd1na2vs0mg"},{"bike_id":"23cd0a03-0a6a-466f-af9f-f265056bce3e","system_id":"levelo_inurba_marseille","lat":43.29597,"lon":5.3672,"is_reserved":false,"is_disabled":false,"rental_uris":{"android":"levelo://app?vid=23cd0a03-0a6a-466f-af9f-f265056bce3e","ios":"levelo://app?vid=23cd0a03-0a6a-466f-af9f-f265056bce3e"},"vehicle_type_id":"4","last_reported":1753193604,"current_range_meters":16000,"station_id":"ce4bgph2rcd13ifvqc2g","pricing_plan_id":"cebpf4jnsgd1na2vs0mg"},{"bike_id":"a2dd6018-6620-4bad-8da2-59900f365943","system_id":"levelo_inurba_marseille","lat":43.28286,"lon":5.35083,"is_reserved":false,"is_disabled":false,"rental_uris":{"android":"levelo://app?vid=a2dd6018-6620-4bad-8da2-59900f365943","ios":"levelo://app?vid=a2dd6018-6620-4bad-8da2-59900f365943"},"vehicle_type_id":"4","last_reported":1753193604,"current_range_meters":16000,"station_id":"ce4bhbp2rcd13ifvqerg","pricing_plan_id":"cebpf4jnsgd1na2vs0mg"},{"bike_id":"3c21b9e1-b296-4844-a6d5-b8d19c7f36c9","system_id":"levelo_inurba_marseille","lat":43.29171,"lon":5.38429,"is_reserved":false,"is_disabled":false,"rental_uris":{"android":"levelo://app?vid=3c21b9e1-b296-4844-a6d5-b8d19c7f36c9","ios":"levelo://app?vid=3c21b9e1-b296-4844-a6d5-b8d19c7f36c9"},"vehicle_type_id":"4","last_reported":1753193604,"current_range_meters":16000,"station_id":"","pricing_plan_id":"cebpf4jnsgd1na2vs0mg"},{"bike_id":"9b588286-6435-4c69-8e0c-33192cc3fcbf","system_id":"levelo_inurba_marseille","lat":43.29056,"lon":5.37556,"is_reserved":false,"is_disabled":true,"rental_uris":{"android":"levelo://app?vid=9b588286-6435-4c69-8e0c-33192cc3fcbf","ios":"levelo://app?vid=9b588286-6435-4c69-8e0c-33192cc3fcbf"},"vehicle_type_id":"4","last_reported":1753193604,"current_range_meters":16000,"station_id":"ce4bh692rcd13ifvqe90","pricing_plan_id":"cebpf4jnsgd1na2vs0mg"},{"bike_id":"de705abb-e301-4599-9f31-cc935b3b1a5f","system_id":"levelo_inurba_marseille","lat":43.21205,"lon":5.35145,"is_reserved":false,"is_disabled":false,"rental_uris":{"android":"levelo://app?vid=de705abb-e301-4599-9f31-cc935b3b1a5f","ios":"levelo://app?vid=de705abb-e301-4599-9f31-cc935b3b1a5f"},"vehicle_type_id":"4","last_reported":1753193604,"current_range_meters":16000,"station_id":"","pricing_plan_id":"cebpf4jnsgd1na2vs0mg"},{"bike_id":"1e6792f6-e23b-4a70-9f0d-cfc180638578","system_id":"levelo_inurba_marseille","lat":43.27413,"lon":5.39416,"is_reserved":false,"is_disabled":false,"rental_uris":{"android":"levelo://app?vid=1e6792f6-e23b-4a70-9f0d-cfc180638578","ios":"levelo://app?vid=1e6792f6-e23b-4a70-9f0d-cfc180638578"},"vehicle_type_id":"4","last_reported":1753193604,"current_range_meters":16000,"station_id":"ce4bhgp2rcd13ifvqfe0","pricing_plan_id":"cebpf4jnsgd1na2vs0mg"},{"bike_id":"38fc8df3-fe60-493e-a9c4-e49429113c89","system_id":"levelo_inurba_marseille","lat":43.21199,"lon":5.35081,"is_reserved":false,"is_disabled":false,"rental_uris":{"android":"levelo://app?vid=38fc8df3-fe60-493e-a9c4-e49429113c89","ios":"levelo://app?vid=38fc8df3-fe60-493e-a9c4-e49429113c89"},"vehicle_type_id":"4","last_reported":1753193604,"current_range_meters":16000,"station_id":"st_cvj6sg6p6f1abm77japg","pricing_plan_id":"cebpf4jnsgd1na2vs0mg"},{"bike_id":"56d29d7b-0840-4d8c-8300-f08d40064ddb","system_id":"levelo_inurba_marseille","lat":43.22499,"lon":5.34776,"is_reserved":false,"is_disabled":false,"rental_uris":{"android":"levelo://app?vid=56d29d7b-0840-4d8c-8300-f08d40064ddb","ios":"levelo://app?vid=56d29d7b-0840-4d8c-8300-f08d40064ddb"},"vehicle_type_id":"4","last_reported":1753193604,"current_range_meters":16000,"station_id":"","pricing_plan_id":"cebpf4jnsgd1na2vs0mg"},{"bike_id":"c756da3c-3b80-4de8-bd37-7495b58c7a2b","system_id":"levelo_inurba_marseille","lat":43.24074,"lon":5.3776,"is_reserved":false,"is_disabled":false,"rental_uris":{"android":"levelo://app?vid=c756da3c-3b80-4de8-bd37-7495b58c7a2b","ios":"levelo://app?vid=c756da3c-3b80-4de8-bd37-7495b58c7a2b"},"vehicle_type_id":"4","last_reported":1753193604,"current_range_meters":16400,"station_id":"ce4bhnp2rcd13ifvqgvg","pricing_plan_id":"cebpf4jnsgd1na2vs0mg"},{"bike_id":"2c1da84b-9e1f-4b0d-9079-5ae01b550c24","system_id":"levelo_inurba_marseille","lat":43.26198,"lon":5.374475,"is_reserved":false,"is_disabled":false,"rental_uris":{"android":"levelo://app?vid=2c1da84b-9e1f-4b0d-9079-5ae01b550c24","ios":"levelo://app?vid=2c1da84b-9e1f-4b0d-9079-5ae01b550c24"},"vehicle_type_id":"4","last_reported":1753193604,"current_range_meters":16400,"station_id":"ce4bhgp2rcd13ifvqfc0","pricing_plan_id":"cebpf4jnsgd1na2vs0mg"},{"bike_id":"f7d24d79-fb73-44fe-a579-eccbe39a5e1e","system_id":"levelo_inurba_marseille","lat":43.24175,"lon":5.36397,"is_reserved":false,"is_disabled":false,"rental_uris":{"android":"levelo://app?vid=f7d24d79-fb73-44fe-a579-eccbe39a5e1e","ios":"levelo://app?vid=f7d24d79-fb73-44fe-a579-eccbe39a5e1e"},"vehicle_type_id":"4","last_reported":1753193604,"current_range_meters":16400,"station_id":"cpo36qri1sfpv3e86is0","pricing_plan_id":"cebpf4jnsgd1na2vs0mg"},{"bike_id":"de3675fa-c77f-4be3-9586-a3073bd197c1","system_id":"levelo_inurba_marseille","lat":43.25014,"lon":5.38919,"is_reserved":false,"is_disabled":false,"rental_uris":{"android":"levelo://app?vid=de3675fa-c77f-4be3-9586-a3073bd197c1","ios":"levelo://app?vid=de3675fa-c77f-4be3-9586-a3073bd197c1"},"vehicle_type_id":"4","last_reported":1753193604,"current_range_meters":16400,"station_id":"ce4bhgp2rcd13ifvqfd0","pricing_plan_id":"cebpf4jnsgd1na2vs0mg"},{"bike_id":"87a25bf9-60ea-48cf-a8dd-7937449bef54","system_id":"levelo_inurba_marseille","lat":43.23062,"lon":5.35501,"is_reserved":false,"is_disabled":false,"rental_uris":{"android":"levelo://app?vid=87a25bf9-60ea-48cf-a8dd-7937449bef54","ios":"levelo://app?vid=87a25bf9-60ea-48cf-a8dd-7937449bef54"},"vehicle_type_id":"4","last_reported":1753193604,"current_range_meters":16400,"station_id":"cpo3342slgdg3j2ifvpg","pricing_plan_id":"cebpf4jnsgd1na2vs0mg"},{"bike_id":"b07be36a-faff-41ef-b483-e9222c75464b","system_id":"levelo_inurba_marseille","lat":43.27376,"lon":5.36259,"is_reserved":false,"is_disabled":false,"rental_uris":{"android":"levelo://app?vid=b07be36a-faff-41ef-b483-e9222c75464b","ios":"levelo://app?vid=b07be36a-faff-41ef-b483-e9222c75464b"},"vehicle_type_id":"4","last_reported":1753193604,"current_range_meters":16400,"station_id":"ce4bhbh2rcd13ifvqeo0","pricing_plan_id":"cebpf4jnsgd1na2vs0mg"},{"bike_id":"21cde49a-9e00-4572-81bc-3d691f3c97fa","system_id":"levelo_inurba_marseille","lat":43.25945,"lon":5.4093,"is_reserved":false,"is_disabled":false,"rental_uris":{"android":"levelo://app?vid=21cde49a-9e00-4572-81bc-3d691f3c97fa","ios":"levelo://app?vid=21cde49a-9e00-4572-81bc-3d691f3c97fa"},"vehicle_type_id":"4","last_reported":1753193604,"current_range_meters":16400,"station_id":"ce4bhm92rcd13ifvqglg","pricing_plan_id":"cebpf4jnsgd1na2vs0mg"},{"bike_id":"78319bf2-ede5-4a49-91b7-f6267170e0d4","system_id":"levelo_inurba_marseille","lat":43.25492,"lon":5.37648,"is_reserved":false,"is_disabled":false,"rental_uris":{"android":"levelo://app?vid=78319bf2-ede5-4a49-91b7-f6267170e0d4","ios":"levelo://app?vid=78319bf2-ede5-4a49-91b7-f6267170e0d4"},"vehicle_type_id":"4","last_reported":1753193604,"current_range_meters":16400,"station_id":"ce4bhh12rcd13ifvqff0","pricing_plan_id":"cebpf4jnsgd1na2vs0mg"},{"bike_id":"c774f4c2-bc5f-4cf6-9563-a432097878f3","system_id":"levelo_inurba_marseille","lat":43.29181,"lon":5.35796,"is_reserved":false,"is_disabled":false,"rental_uris":{"android":"levelo://app?vid=c774f4c2-bc5f-4cf6-9563-a432097878f3","ios":"levelo://app?vid=c774f4c2-bc5f-4cf6-9563-a432097878f3"},"vehicle_type_id":"4","last_reported":1753193604,"current_range_meters":16400,"station_id":"ce4bhb12rcd13ifvqel0","pricing_plan_id":"cebpf4jnsgd1na2vs0mg"},{"bike_id":"e44893bb-5cdf-4921-b4e8-39ee578180a1","system_id":"levelo_inurba_marseille","lat":43.24068,"lon":5.37788,"is_reserved":false,"is_disabled":false,"rental_uris":{"android":"levelo://app?vid=e44893bb-5cdf-4921-b4e8-39ee578180a1","ios":"levelo://app?vid=e44893bb-5cdf-4921-b4e8-39ee578180a1"},"vehicle_type_id":"4","last_reported":1753193604,"current_range_meters":16400,"station_id":"ce4bhnp2rcd13ifvqgvg","pricing_plan_id":"cebpf4jnsgd1na2vs0mg"},{"bike_id":"d3eea4a0-76ba-4059-ba6b-c1ecd6270925","system_id":"levelo_inurba_marseille","lat":43.211933,"lon":5.350795,"is_reserved":false,"is_disabled":false,"rental_uris":{"android":"levelo://app?vid=d3eea4a0-76ba-4059-ba6b-c1ecd6270925","ios":"levelo://app?vid=d3eea4a0-76ba-4059-ba6b-c1ecd6270925"},"vehicle_type_id":"4","last_reported":1753193604,"current_range_meters":16800,"station_id":"st_cvj6sg6p6f1abm77japg","pricing_plan_id":"cebpf4jnsgd1na2vs0mg"},{"bike_id":"857bb120-c9e4-4f1b-8121-53704ad4e184","system_id":"levelo_inurba_marseille","lat":43.28943,"lon":5.36637,"is_reserved":false,"is_disabled":false,"rental_uris":{"android":"levelo://app?vid=857bb120-c9e4-4f1b-8121-53704ad4e184","ios":"levelo://app?vid=857bb120-c9e4-4f1b-8121-53704ad4e184"},"vehicle_type_id":"4","last_reported":1753193604,"current_range_meters":16800,"station_id":"ce4bhap2rcd13ifvqek0","pricing_plan_id":"cebpf4jnsgd1na2vs0mg"},{"bike_id":"194e348e-1696-4be5-b40d-bcccaabbbbd9","system_id":"levelo_inurba_marseille","lat":43.28284,"lon":5.35072,"is_reserved":false,"is_disabled":false,"rental_uris":{"android":"levelo://app?vid=194e348e-1696-4be5-b40d-bcccaabbbbd9","ios":"levelo://app?vid=194e348e-1696-4be5-b40d-bcccaabbbbd9"},"vehicle_type_id":"4","last_reported":1753193604,"current_range_meters":16800,"station_id":"ce4bhbp2rcd13ifvqerg","pricing_plan_id":"cebpf4jnsgd1na2vs0mg"},{"bike_id":"1d46de9d-1074-4bbb-ba0d-38867406f627","system_id":"levelo_inurba_marseille","lat":43.211956,"lon":5.350825,"is_reserved":false,"is_disabled":false,"rental_uris":{"android":"levelo://app?vid=1d46de9d-1074-4bbb-ba0d-38867406f627","ios":"levelo://app?vid=1d46de9d-1074-4bbb-ba0d-38867406f627"},"vehicle_type_id":"4","last_reported":1753193604,"current_range_meters":16800,"station_id":"st_cvj6sg6p6f1abm77japg","pricing_plan_id":"cebpf4jnsgd1na2vs0mg"},{"bike_id":"768a6774-6f88-4d8b-b7a7-29c2587ddd57","system_id":"levelo_inurba_marseille","lat":43.271733,"lon":5.409975,"is_reserved":false,"is_disabled":false,"rental_uris":{"android":"levelo://app?vid=768a6774-6f88-4d8b-b7a7-29c2587ddd57","ios":"levelo://app?vid=768a6774-6f88-4d8b-b7a7-29c2587ddd57"},"vehicle_type_id":"4","last_reported":1753193604,"current_range_meters":16800,"station_id":"","pricing_plan_id":"cebpf4jnsgd1na2vs0mg"},{"bike_id":"4be8ab13-53fe-4991-84b7-8c8e15d8b8c8","system_id":"levelo_inurba_marseille","lat":43.28435,"lon":5.34981,"is_reserved":false,"is_disabled":false,"rental_uris":{"android":"levelo://app?vid=4be8ab13-53fe-4991-84b7-8c8e15d8b8c8","ios":"levelo://app?vid=4be8ab13-53fe-4991-84b7-8c8e15d8b8c8"},"vehicle_type_id":"4","last_reported":1753193604,"current_range_meters":16800,"station_id":"ce4bhbh2rcd13ifvqepg","pricing_plan_id":"cebpf4jnsgd1na2vs0mg"},{"bike_id":"743a90b8-556b-497e-ae30-b2d47d51b687","system_id":"levelo_inurba_marseille","lat":43.2512,"lon":5.40323,"is_reserved":false,"is_disabled":false,"rental_uris":{"android":"levelo://app?vid=743a90b8-556b-497e-ae30-b2d47d51b687","ios":"levelo://app?vid=743a90b8-556b-497e-ae30-b2d47d51b687"},"vehicle_type_id":"4","last_reported":1753193604,"current_range_meters":16800,"station_id":"ce4bhlh2rcd13ifvqgig","pricing_plan_id":"cebpf4jnsgd1na2vs0mg"},{"bike_id":"fe50cf1d-fc61-4e48-98f2-ea42037cc2b3","system_id":"levelo_inurba_marseille","lat":43.22961,"lon":5.35401,"is_reserved":false,"is_disabled":false,"rental_uris":{"android":"levelo://app?vid=fe50cf1d-fc61-4e48-98f2-ea42037cc2b3","ios":"levelo://app?vid=fe50cf1d-fc61-4e48-98f2-ea42037cc2b3"},"vehicle_type_id":"4","last_reported":1753193604,"current_range_meters":16800,"station_id":"cpo3532slgdg3j2ikp40","pricing_plan_id":"cebpf4jnsgd1na2vs0mg"},{"bike_id":"2a83acc1-56d2-45cb-92af-0b7521755432","system_id":"levelo_inurba_marseille","lat":43.31367,"lon":5.3672,"is_reserved":false,"is_disabled":false,"rental_uris":{"android":"levelo://app?vid=2a83acc1-56d2-45cb-92af-0b7521755432","ios":"levelo://app?vid=2a83acc1-56d2-45cb-92af-0b7521755432"},"vehicle_type_id":"4","last_reported":1753193604,"current_range_meters":16800,"station_id":"ce4bgr92rcd13ifvqc6g","pricing_plan_id":"cebpf4jnsgd1na2vs0mg"},{"bike_id":"cc1f39de-d652-4096-bfae-3b48643d524d","system_id":"levelo_inurba_marseille","lat":43.2501,"lon":5.3892,"is_reserved":false,"is_disabled":false,"rental_uris":{"android":"levelo://app?vid=cc1f39de-d652-4096-bfae-3b48643d524d","ios":"levelo://app?vid=cc1f39de-d652-4096-bfae-3b48643d524d"},"vehicle_type_id":"4","last_reported":1753193604,"current_range_meters":17200,"station_id":"ce4bhgp2rcd13ifvqfd0","pricing_plan_id":"cebpf4jnsgd1na2vs0mg"},{"bike_id":"911c3e66-c4b4-4e9c-bf6d-21f121179e38","system_id":"levelo_inurba_marseille","lat":43.29931,"lon":5.37968,"is_reserved":false,"is_disabled":false,"rental_uris":{"android":"levelo://app?vid=911c3e66-c4b4-4e9c-bf6d-21f121179e38","ios":"levelo://app?vid=911c3e66-c4b4-4e9c-bf6d-21f121179e38"},"vehicle_type_id":"4","last_reported":1753193604,"current_range_meters":17200,"station_id":"","pricing_plan_id":"cebpf4jnsgd1na2vs0mg"},{"bike_id":"ee5b3c26-9f03-4693-8484-d66daff728e8","system_id":"levelo_inurba_marseille","lat":43.32338,"lon":5.36734,"is_reserved":false,"is_disabled":false,"rental_uris":{"android":"levelo://app?vid=ee5b3c26-9f03-4693-8484-d66daff728e8","ios":"levelo://app?vid=ee5b3c26-9f03-4693-8484-d66daff728e8"},"vehicle_type_id":"4","last_reported":1753193604,"current_range_meters":17200,"station_id":"ce4bhsh2rcd13ifvqi2g","pricing_plan_id":"cebpf4jnsgd1na2vs0mg"},{"bike_id":"dd602369-1910-4209-bb75-19b7f940fc97","system_id":"levelo_inurba_marseille","lat":43.21751,"lon":5.345997,"is_reserved":false,"is_disabled":false,"rental_uris":{"android":"levelo://app?vid=dd602369-1910-4209-bb75-19b7f940fc97","ios":"levelo://app?vid=dd602369-1910-4209-bb75-19b7f940fc97"},"vehicle_type_id":"4","last_reported":1753193604,"current_range_meters":17600,"station_id":"st_cvj6r9ubvosntc0bgbag","pricing_plan_id":"cebpf4jnsgd1na2vs0mg"},{"bike_id":"cc926983-7496-48df-9677-b8723ddc96b9","system_id":"levelo_inurba_marseille","lat":43.22937,"lon":5.35388,"is_reserved":false,"is_disabled":false,"rental_uris":{"android":"levelo://app?vid=cc926983-7496-48df-9677-b8723ddc96b9","ios":"levelo://app?vid=cc926983-7496-48df-9677-b8723ddc96b9"},"vehicle_type_id":"4","last_reported":1753193604,"current_range_meters":17600,"station_id":"cpo3532slgdg3j2ikp40","pricing_plan_id":"cebpf4jnsgd1na2vs0mg"},{"bike_id":"9a143ed1-a3c7-421c-a22c-84e79d27e230","system_id":"levelo_inurba_marseille","lat":43.28421,"lon":5.34985,"is_reserved":false,"is_disabled":true,"rental_uris":{"android":"levelo://app?vid=9a143ed1-a3c7-421c-a22c-84e79d27e230","ios":"levelo://app?vid=9a143ed1-a3c7-421c-a22c-84e79d27e230"},"vehicle_type_id":"4","last_reported":1753193604,"current_range_meters":17600,"station_id":"ce4bhbh2rcd13ifvqepg","pricing_plan_id":"cebpf4jnsgd1na2vs0mg"},{"bike_id":"6a354c9f-e5b1-4629-a81b-736eb34d194c","system_id":"levelo_inurba_marseille","lat":43.25149,"lon":5.40325,"is_reserved":false,"is_disabled":false,"rental_uris":{"android":"levelo://app?vid=6a354c9f-e5b1-4629-a81b-736eb34d194c","ios":"levelo://app?vid=6a354c9f-e5b1-4629-a81b-736eb34d194c"},"vehicle_type_id":"4","last_reported":1753193604,"current_range_meters":17600,"station_id":"","pricing_plan_id":"cebpf4jnsgd1na2vs0mg"},{"bike_id":"fb81ee79-6688-4d05-be53-1ac881d0c7b8","system_id":"levelo_inurba_marseille","lat":43.231942,"lon":5.355417,"is_reserved":false,"is_disabled":false,"rental_uris":{"android":"levelo://app?vid=fb81ee79-6688-4d05-be53-1ac881d0c7b8","ios":"levelo://app?vid=fb81ee79-6688-4d05-be53-1ac881d0c7b8"},"vehicle_type_id":"4","last_reported":1753193604,"current_range_meters":17600,"station_id":"ce4bhu92rcd13ifvqi70","pricing_plan_id":"cebpf4jnsgd1na2vs0mg"},{"bike_id":"bb74e696-d878-4d41-b7f0-3b9df9bd212d","system_id":"levelo_inurba_marseille","lat":43.250136,"lon":5.389188,"is_reserved":false,"is_disabled":false,"rental_uris":{"android":"levelo://app?vid=bb74e696-d878-4d41-b7f0-3b9df9bd212d","ios":"levelo://app?vid=bb74e696-d878-4d41-b7f0-3b9df9bd212d"},"vehicle_type_id":"4","last_reported":1753193604,"current_range_meters":17600,"station_id":"ce4bhgp2rcd13ifvqfd0","pricing_plan_id":"cebpf4jnsgd1na2vs0mg"},{"bike_id":"4275f695-0917-4f48-a74e-44a8f290a142","system_id":"levelo_inurba_marseille","lat":43.30543,"lon":5.36545,"is_reserved":false,"is_disabled":false,"rental_uris":{"android":"levelo://app?vid=4275f695-0917-4f48-a74e-44a8f290a142","ios":"levelo://app?vid=4275f695-0917-4f48-a74e-44a8f290a142"},"vehicle_type_id":"4","last_reported":1753193604,"current_range_meters":17600,"station_id":"ce4bgs12rcd13ifvqcag","pricing_plan_id":"cebpf4jnsgd1na2vs0mg"},{"bike_id":"fe07410f-2ac3-4d42-a644-c798c7a25a84","system_id":"levelo_inurba_marseille","lat":43.26571,"lon":5.372879,"is_reserved":false,"is_disabled":false,"rental_uris":{"android":"levelo://app?vid=fe07410f-2ac3-4d42-a644-c798c7a25a84","ios":"levelo://app?vid=fe07410f-2ac3-4d42-a644-c798c7a25a84"},"vehicle_type_id":"4","last_reported":1753193604,"current_range_meters":17600,"station_id":"","pricing_plan_id":"cebpf4jnsgd1na2vs0mg"},{"bike_id":"bb51de5b-6a6b-4eb6-b538-4430470290f8","system_id":"levelo_inurba_marseille","lat":43.303051,"lon":5.392128,"is_reserved":false,"is_disabled":false,"rental_uris":{"android":"levelo://app?vid=bb51de5b-6a6b-4eb6-b538-4430470290f8","ios":"levelo://app?vid=bb51de5b-6a6b-4eb6-b538-4430470290f8"},"vehicle_type_id":"4","last_reported":1753193604,"current_range_meters":15200,"station_id":"ce4bgkh2rcd13ifvqbk0","pricing_plan_id":"cebpf4jnsgd1na2vs0mg"},{"bike_id":"0af94eb6-11c3-4c50-b237-533b0cb77abe","system_id":"levelo_inurba_marseille","lat":43.29795,"lon":5.40401,"is_reserved":false,"is_disabled":false,"rental_uris":{"android":"levelo://app?vid=0af94eb6-11c3-4c50-b237-533b0cb77abe","ios":"levelo://app?vid=0af94eb6-11c3-4c50-b237-533b0cb77abe"},"vehicle_type_id":"4","last_reported":1753193604,"current_range_meters":17600,"station_id":"ce4bh112rcd13ifvqd90","pricing_plan_id":"cebpf4jnsgd1na2vs0mg"},{"bike_id":"5984b2a9-df08-472f-9972-51a1ce9935d3","system_id":"levelo_inurba_marseille","lat":43.21755,"lon":5.346,"is_reserved":false,"is_disabled":false,"rental_uris":{"android":"levelo://app?vid=5984b2a9-df08-472f-9972-51a1ce9935d3","ios":"levelo://app?vid=5984b2a9-df08-472f-9972-51a1ce9935d3"},"vehicle_type_id":"4","last_reported":1753193604,"current_range_meters":17600,"station_id":"st_cvj6r9ubvosntc0bgbag","pricing_plan_id":"cebpf4jnsgd1na2vs0mg"},{"bike_id":"6093672b-1e9a-4299-b920-36e4f293a348","system_id":"levelo_inurba_marseille","lat":43.22957,"lon":5.35366,"is_reserved":false,"is_disabled":false,"rental_uris":{"android":"levelo://app?vid=6093672b-1e9a-4299-b920-36e4f293a348","ios":"levelo://app?vid=6093672b-1e9a-4299-b920-36e4f293a348"},"vehicle_type_id":"4","last_reported":1753193604,"current_range_meters":18000,"station_id":"cpo3532slgdg3j2ikp40","pricing_plan_id":"cebpf4jnsgd1na2vs0mg"},{"bike_id":"bae9e4f5-dbf1-4ef8-bb8b-6fd8e0d7440a","system_id":"levelo_inurba_marseille","lat":43.27179,"lon":5.40997,"is_reserved":false,"is_disabled":false,"rental_uris":{"android":"levelo://app?vid=bae9e4f5-dbf1-4ef8-bb8b-6fd8e0d7440a","ios":"levelo://app?vid=bae9e4f5-dbf1-4ef8-bb8b-6fd8e0d7440a"},"vehicle_type_id":"4","last_reported":1753193604,"current_range_meters":19200,"station_id":"ce4bhl12rcd13ifvqgf0","pricing_plan_id":"cebpf4jnsgd1na2vs0mg"},{"bike_id":"1a2751da-031a-4246-8d2c-dd848ee0e802","system_id":"levelo_inurba_marseille","lat":43.29546,"lon":5.38551,"is_reserved":false,"is_disabled":true,"rental_uris":{"android":"levelo://app?vid=1a2751da-031a-4246-8d2c-dd848ee0e802","ios":"levelo://app?vid=1a2751da-031a-4246-8d2c-dd848ee0e802"},"vehicle_type_id":"4","last_reported":1753193604,"current_range_meters":18000,"station_id":"ce4bgih2rcd13ifvqba0","pricing_plan_id":"cebpf4jnsgd1na2vs0mg"},{"bike_id":"ebe20fab-c45d-48cb-8050-daa1fd639402","system_id":"levelo_inurba_marseille","lat":43.25491,"lon":5.37657,"is_reserved":false,"is_disabled":false,"rental_uris":{"android":"levelo://app?vid=ebe20fab-c45d-48cb-8050-daa1fd639402","ios":"levelo://app?vid=ebe20fab-c45d-48cb-8050-daa1fd639402"},"vehicle_type_id":"4","last_reported":1753193604,"current_range_meters":18000,"station_id":"ce4bhh12rcd13ifvqff0","pricing_plan_id":"cebpf4jnsgd1na2vs0mg"},{"bike_id":"5d8f83fc-c16f-4c49-8413-bafa6c97e674","system_id":"levelo_inurba_marseille","lat":43.277,"lon":5.3887,"is_reserved":false,"is_disabled":false,"rental_uris":{"android":"levelo://app?vid=5d8f83fc-c16f-4c49-8413-bafa6c97e674","ios":"levelo://app?vid=5d8f83fc-c16f-4c49-8413-bafa6c97e674"},"vehicle_type_id":"4","last_reported":1753193604,"current_range_meters":18000,"station_id":"ce4bhi12rcd13ifvqfo0","pricing_plan_id":"cebpf4jnsgd1na2vs0mg"},{"bike_id":"273b06c0-d958-4344-80b3-c54f34f09a15","system_id":"levelo_inurba_marseille","lat":43.2894,"lon":5.38384,"is_reserved":false,"is_disabled":false,"rental_uris":{"android":"levelo://app?vid=273b06c0-d958-4344-80b3-c54f34f09a15","ios":"levelo://app?vid=273b06c0-d958-4344-80b3-c54f34f09a15"},"vehicle_type_id":"4","last_reported":1753193604,"current_range_meters":18000,"station_id":"ce4bh612rcd13ifvqe6g","pricing_plan_id":"cebpf4jnsgd1na2vs0mg"},{"bike_id":"ac185759-c261-4718-bdc4-b3b390f0c20f","system_id":"levelo_inurba_marseille","lat":43.24176,"lon":5.39725,"is_reserved":false,"is_disabled":false,"rental_uris":{"android":"levelo://app?vid=ac185759-c261-4718-bdc4-b3b390f0c20f","ios":"levelo://app?vid=ac185759-c261-4718-bdc4-b3b390f0c20f"},"vehicle_type_id":"4","last_reported":1753193604,"current_range_meters":18000,"station_id":"ce4bhn12rcd13ifvqgpg","pricing_plan_id":"cebpf4jnsgd1na2vs0mg"},{"bike_id":"a87328a1-9225-4419-b45d-c275e4739a6a","system_id":"levelo_inurba_marseille","lat":43.2119,"lon":5.35072,"is_reserved":false,"is_disabled":false,"rental_uris":{"android":"levelo://app?vid=a87328a1-9225-4419-b45d-c275e4739a6a","ios":"levelo://app?vid=a87328a1-9225-4419-b45d-c275e4739a6a"},"vehicle_type_id":"4","last_reported":1753193604,"current_range_meters":18000,"station_id":"st_cvj6sg6p6f1abm77japg","pricing_plan_id":"cebpf4jnsgd1na2vs0mg"},{"bike_id":"378529d2-baf2-47df-b557-10b4b0fca26c","system_id":"levelo_inurba_marseille","lat":43.32366,"lon":5.38889,"is_reserved":false,"is_disabled":false,"rental_uris":{"android":"levelo://app?vid=378529d2-baf2-47df-b557-10b4b0fca26c","ios":"levelo://app?vid=378529d2-baf2-47df-b557-10b4b0fca26c"},"vehicle_type_id":"4","last_reported":1753193604,"current_range_meters":18800,"station_id":"ce4bhqp2rcd13ifvqhog","pricing_plan_id":"cebpf4jnsgd1na2vs0mg"},{"bike_id":"c91c609e-f697-43e6-9df9-b8ae7e941caf","system_id":"levelo_inurba_marseille","lat":43.30443,"lon":5.39745,"is_reserved":false,"is_disabled":false,"rental_uris":{"android":"levelo://app?vid=c91c609e-f697-43e6-9df9-b8ae7e941caf","ios":"levelo://app?vid=c91c609e-f697-43e6-9df9-b8ae7e941caf"},"vehicle_type_id":"4","last_reported":1753193604,"current_range_meters":18800,"station_id":"ce4bh092rcd13ifvqd20","pricing_plan_id":"cebpf4jnsgd1na2vs0mg"},{"bike_id":"97b76cd8-e4ae-4906-b020-93fa58af7b80","system_id":"levelo_inurba_marseille","lat":43.295802,"lon":5.367436,"is_reserved":false,"is_disabled":false,"rental_uris":{"android":"levelo://app?vid=97b76cd8-e4ae-4906-b020-93fa58af7b80","ios":"levelo://app?vid=97b76cd8-e4ae-4906-b020-93fa58af7b80"},"vehicle_type_id":"4","last_reported":1753193604,"current_range_meters":18800,"station_id":"ce4bgph2rcd13ifvqc2g","pricing_plan_id":"cebpf4jnsgd1na2vs0mg"},{"bike_id":"019f83c0-d742-473f-9d74-4785f553fcd9","system_id":"levelo_inurba_marseille","lat":43.30156,"lon":5.38101,"is_reserved":false,"is_disabled":false,"rental_uris":{"android":"levelo://app?vid=019f83c0-d742-473f-9d74-4785f553fcd9","ios":"levelo://app?vid=019f83c0-d742-473f-9d74-4785f553fcd9"},"vehicle_type_id":"4","last_reported":1753193604,"current_range_meters":18800,"station_id":"ce4bgjp2rcd13ifvqbh0","pricing_plan_id":"cebpf4jnsgd1na2vs0mg"},{"bike_id":"e3a9e6d1-788b-4774-babe-289560a0bee7","system_id":"levelo_inurba_marseille","lat":43.29973,"lon":5.37452,"is_reserved":false,"is_disabled":false,"rental_uris":{"android":"levelo://app?vid=e3a9e6d1-788b-4774-babe-289560a0bee7","ios":"levelo://app?vid=e3a9e6d1-788b-4774-babe-289560a0bee7"},"vehicle_type_id":"4","last_reported":1753193604,"current_range_meters":18800,"station_id":"","pricing_plan_id":"cebpf4jnsgd1na2vs0mg"},{"bike_id":"177aa1e7-e7c1-4e92-bc28-5c7f8fd3ca86","system_id":"levelo_inurba_marseille","lat":43.212097,"lon":5.350711,"is_reserved":false,"is_disabled":false,"rental_uris":{"android":"levelo://app?vid=177aa1e7-e7c1-4e92-bc28-5c7f8fd3ca86","ios":"levelo://app?vid=177aa1e7-e7c1-4e92-bc28-5c7f8fd3ca86"},"vehicle_type_id":"4","last_reported":1753193604,"current_range_meters":18800,"station_id":"st_cvj6sg6p6f1abm77japg","pricing_plan_id":"cebpf4jnsgd1na2vs0mg"},{"bike_id":"ded11646-09b7-4dbc-8f9e-7334ebbd506e","system_id":"levelo_inurba_marseille","lat":43.28283,"lon":5.35076,"is_reserved":false,"is_disabled":false,"rental_uris":{"android":"levelo://app?vid=ded11646-09b7-4dbc-8f9e-7334ebbd506e","ios":"levelo://app?vid=ded11646-09b7-4dbc-8f9e-7334ebbd506e"},"vehicle_type_id":"4","last_reported":1753193604,"current_range_meters":18800,"station_id":"ce4bhbp2rcd13ifvqerg","pricing_plan_id":"cebpf4jnsgd1na2vs0mg"},{"bike_id":"d509b331-e799-4503-90e7-40b1e687c26f","system_id":"levelo_inurba_marseille","lat":43.28646,"lon":5.37037,"is_reserved":false,"is_disabled":true,"rental_uris":{"android":"levelo://app?vid=d509b331-e799-4503-90e7-40b1e687c26f","ios":"levelo://app?vid=d509b331-e799-4503-90e7-40b1e687c26f"},"vehicle_type_id":"4","last_reported":1753193604,"current_range_meters":18800,"station_id":"ce4bht12rcd13ifvqi60","pricing_plan_id":"cebpf4jnsgd1na2vs0mg"},{"bike_id":"d36e3ab5-4992-4b22-8db1-20289b0a3e52","system_id":"levelo_inurba_marseille","lat":43.28933,"lon":5.36642,"is_reserved":false,"is_disabled":false,"rental_uris":{"android":"levelo://app?vid=d36e3ab5-4992-4b22-8db1-20289b0a3e52","ios":"levelo://app?vid=d36e3ab5-4992-4b22-8db1-20289b0a3e52"},"vehicle_type_id":"4","last_reported":1753193604,"current_range_meters":18800,"station_id":"ce4bhap2rcd13ifvqek0","pricing_plan_id":"cebpf4jnsgd1na2vs0mg"},{"bike_id":"508d6599-053a-421e-97ea-64e56ab64783","system_id":"levelo_inurba_marseille","lat":43.27377,"lon":5.36259,"is_reserved":false,"is_disabled":false,"rental_uris":{"android":"levelo://app?vid=508d6599-053a-421e-97ea-64e56ab64783","ios":"levelo://app?vid=508d6599-053a-421e-97ea-64e56ab64783"},"vehicle_type_id":"4","last_reported":1753193604,"current_range_meters":18800,"station_id":"ce4bhbh2rcd13ifvqeo0","pricing_plan_id":"cebpf4jnsgd1na2vs0mg"},{"bike_id":"b25ad7ed-75d0-4efb-a270-0d4f9e7b754f","system_id":"levelo_inurba_marseille","lat":43.27382,"lon":5.36262,"is_reserved":false,"is_disabled":false,"rental_uris":{"android":"levelo://app?vid=b25ad7ed-75d0-4efb-a270-0d4f9e7b754f","ios":"levelo://app?vid=b25ad7ed-75d0-4efb-a270-0d4f9e7b754f"},"vehicle_type_id":"4","last_reported":1753193604,"current_range_meters":18800,"station_id":"ce4bhbh2rcd13ifvqeo0","pricing_plan_id":"cebpf4jnsgd1na2vs0mg"},{"bike_id":"f9e4a978-9c4a-407d-95e3-3da95b4e11ec","system_id":"levelo_inurba_marseille","lat":43.29259,"lon":5.37626,"is_reserved":false,"is_disabled":false,"rental_uris":{"android":"levelo://app?vid=f9e4a978-9c4a-407d-95e3-3da95b4e11ec","ios":"levelo://app?vid=f9e4a978-9c4a-407d-95e3-3da95b4e11ec"},"vehicle_type_id":"4","last_reported":1753193604,"current_range_meters":18800,"station_id":"ce4bgi12rcd13ifvqb80","pricing_plan_id":"cebpf4jnsgd1na2vs0mg"},{"bike_id":"0328809f-87e4-43d4-9881-2db7d232e7fc","system_id":"levelo_inurba_marseille","lat":43.28941,"lon":5.36629,"is_reserved":false,"is_disabled":false,"rental_uris":{"android":"levelo://app?vid=0328809f-87e4-43d4-9881-2db7d232e7fc","ios":"levelo://app?vid=0328809f-87e4-43d4-9881-2db7d232e7fc"},"vehicle_type_id":"4","last_reported":1753193604,"current_range_meters":18800,"station_id":"ce4bhap2rcd13ifvqek0","pricing_plan_id":"cebpf4jnsgd1na2vs0mg"},{"bike_id":"7260d1f8-7eb9-4abe-a057-b602e20d28f8","system_id":"levelo_inurba_marseille","lat":43.24083,"lon":5.37754,"is_reserved":false,"is_disabled":false,"rental_uris":{"android":"levelo://app?vid=7260d1f8-7eb9-4abe-a057-b602e20d28f8","ios":"levelo://app?vid=7260d1f8-7eb9-4abe-a057-b602e20d28f8"},"vehicle_type_id":"4","last_reported":1753193604,"current_range_meters":18800,"station_id":"ce4bhnp2rcd13ifvqgvg","pricing_plan_id":"cebpf4jnsgd1na2vs0mg"},{"bike_id":"93cb8eee-ce53-4a24-944f-4fc636fd3a4f","system_id":"levelo_inurba_marseille","lat":43.28947,"lon":5.36639,"is_reserved":false,"is_disabled":false,"rental_uris":{"android":"levelo://app?vid=93cb8eee-ce53-4a24-944f-4fc636fd3a4f","ios":"levelo://app?vid=93cb8eee-ce53-4a24-944f-4fc636fd3a4f"},"vehicle_type_id":"4","last_reported":1753193604,"current_range_meters":18800,"station_id":"ce4bhap2rcd13ifvqek0","pricing_plan_id":"cebpf4jnsgd1na2vs0mg"},{"bike_id":"eb9ca644-aee8-47bb-a8ed-053332a8d838","system_id":"levelo_inurba_marseille","lat":43.26552,"lon":5.37326,"is_reserved":false,"is_disabled":false,"rental_uris":{"android":"levelo://app?vid=eb9ca644-aee8-47bb-a8ed-053332a8d838","ios":"levelo://app?vid=eb9ca644-aee8-47bb-a8ed-053332a8d838"},"vehicle_type_id":"4","last_reported":1753193604,"current_range_meters":19200,"station_id":"ce4bhg12rcd13ifvqf70","pricing_plan_id":"cebpf4jnsgd1na2vs0mg"},{"bike_id":"c6e26e57-de9b-4f2f-b033-fc07ce861c11","system_id":"levelo_inurba_marseille","lat":43.28497,"lon":5.38544,"is_reserved":false,"is_disabled":false,"rental_uris":{"android":"levelo://app?vid=c6e26e57-de9b-4f2f-b033-fc07ce861c11","ios":"levelo://app?vid=c6e26e57-de9b-4f2f-b033-fc07ce861c11"},"vehicle_type_id":"4","last_reported":1753193604,"current_range_meters":19200,"station_id":"ce4bh8p2rcd13ifvqeb0","pricing_plan_id":"cebpf4jnsgd1na2vs0mg"},{"bike_id":"248219e7-14bb-4f0e-9e02-0501bea0b7b4","system_id":"levelo_inurba_marseille","lat":43.241686,"lon":5.363931,"is_reserved":false,"is_disabled":false,"rental_uris":{"android":"levelo://app?vid=248219e7-14bb-4f0e-9e02-0501bea0b7b4","ios":"levelo://app?vid=248219e7-14bb-4f0e-9e02-0501bea0b7b4"},"vehicle_type_id":"4","last_reported":1753193604,"current_range_meters":19200,"station_id":"cpo36qri1sfpv3e86is0","pricing_plan_id":"cebpf4jnsgd1na2vs0mg"},{"bike_id":"2926e178-6436-4ad4-a9a0-63631e890abe","system_id":"levelo_inurba_marseille","lat":43.21764,"lon":5.34613,"is_reserved":false,"is_disabled":false,"rental_uris":{"android":"levelo://app?vid=2926e178-6436-4ad4-a9a0-63631e890abe","ios":"levelo://app?vid=2926e178-6436-4ad4-a9a0-63631e890abe"},"vehicle_type_id":"4","last_reported":1753193604,"current_range_meters":19200,"station_id":"st_cvj6r9ubvosntc0bgbag","pricing_plan_id":"cebpf4jnsgd1na2vs0mg"},{"bike_id":"4fd2ce6e-422e-48af-9a87-09d327424c2e","system_id":"levelo_inurba_marseille","lat":43.27613,"lon":5.36131,"is_reserved":false,"is_disabled":false,"rental_uris":{"android":"levelo://app?vid=4fd2ce6e-422e-48af-9a87-09d327424c2e","ios":"levelo://app?vid=4fd2ce6e-422e-48af-9a87-09d327424c2e"},"vehicle_type_id":"4","last_reported":1753193604,"current_range_meters":19200,"station_id":"ce4bgj92rcd13ifvqbe0","pricing_plan_id":"cebpf4jnsgd1na2vs0mg"},{"bike_id":"3f486dec-f17e-4a3a-8404-dce448eaaa26","system_id":"levelo_inurba_marseille","lat":43.32105,"lon":5.36793,"is_reserved":false,"is_disabled":false,"rental_uris":{"android":"levelo://app?vid=3f486dec-f17e-4a3a-8404-dce448eaaa26","ios":"levelo://app?vid=3f486dec-f17e-4a3a-8404-dce448eaaa26"},"vehicle_type_id":"4","last_reported":1753193604,"current_range_meters":19200,"station_id":"ce4bhrh2rcd13ifvqhug","pricing_plan_id":"cebpf4jnsgd1na2vs0mg"},{"bike_id":"8639fd84-c349-4ade-9679-6910fe2cbb0b","system_id":"levelo_inurba_marseille","lat":43.21754,"lon":5.34609,"is_reserved":false,"is_disabled":false,"rental_uris":{"android":"levelo://app?vid=8639fd84-c349-4ade-9679-6910fe2cbb0b","ios":"levelo://app?vid=8639fd84-c349-4ade-9679-6910fe2cbb0b"},"vehicle_type_id":"4","last_reported":1753193604,"current_range_meters":19200,"station_id":"st_cvj6r9ubvosntc0bgbag","pricing_plan_id":"cebpf4jnsgd1na2vs0mg"},{"bike_id":"93aed92c-845e-4801-a5c6-08e7a5b90d9a","system_id":"levelo_inurba_marseille","lat":43.2316,"lon":5.43703,"is_reserved":false,"is_disabled":false,"rental_uris":{"android":"levelo://app?vid=93aed92c-845e-4801-a5c6-08e7a5b90d9a","ios":"levelo://app?vid=93aed92c-845e-4801-a5c6-08e7a5b90d9a"},"vehicle_type_id":"4","last_reported":1753193604,"current_range_meters":19200,"station_id":"ce4bhmp2rcd13ifvqgog","pricing_plan_id":"cebpf4jnsgd1na2vs0mg"},{"bike_id":"b304cf20-8bfb-49c6-a586-601ec14197ae","system_id":"levelo_inurba_marseille","lat":43.30533,"lon":5.36712,"is_reserved":false,"is_disabled":false,"rental_uris":{"android":"levelo://app?vid=b304cf20-8bfb-49c6-a586-601ec14197ae","ios":"levelo://app?vid=b304cf20-8bfb-49c6-a586-601ec14197ae"},"vehicle_type_id":"4","last_reported":1753193604,"current_range_meters":19600,"station_id":"ce4bgrp2rcd13ifvqc9g","pricing_plan_id":"cebpf4jnsgd1na2vs0mg"},{"bike_id":"4b7b5be6-0a5b-41a1-8516-a13df95ad868","system_id":"levelo_inurba_marseille","lat":43.3374,"lon":5.37452,"is_reserved":false,"is_disabled":false,"rental_uris":{"android":"levelo://app?vid=4b7b5be6-0a5b-41a1-8516-a13df95ad868","ios":"levelo://app?vid=4b7b5be6-0a5b-41a1-8516-a13df95ad868"},"vehicle_type_id":"4","last_reported":1753193604,"current_range_meters":19600,"station_id":"","pricing_plan_id":"cebpf4jnsgd1na2vs0mg"},{"bike_id":"35724039-7f87-4c8b-9981-9137ab21326b","system_id":"levelo_inurba_marseille","lat":43.270624,"lon":5.402591,"is_reserved":false,"is_disabled":false,"rental_uris":{"android":"levelo://app?vid=35724039-7f87-4c8b-9981-9137ab21326b","ios":"levelo://app?vid=35724039-7f87-4c8b-9981-9137ab21326b"},"vehicle_type_id":"4","last_reported":1753193604,"current_range_meters":19600,"station_id":"ce4bhk92rcd13ifvqgc0","pricing_plan_id":"cebpf4jnsgd1na2vs0mg"},{"bike_id":"9b3bc160-f51b-4823-99cc-fac83e31e09e","system_id":"levelo_inurba_marseille","lat":43.321064,"lon":5.367768,"is_reserved":false,"is_disabled":false,"rental_uris":{"android":"levelo://app?vid=9b3bc160-f51b-4823-99cc-fac83e31e09e","ios":"levelo://app?vid=9b3bc160-f51b-4823-99cc-fac83e31e09e"},"vehicle_type_id":"4","last_reported":1753193604,"current_range_meters":19600,"station_id":"ce4bhrh2rcd13ifvqhug","pricing_plan_id":"cebpf4jnsgd1na2vs0mg"},{"bike_id":"4f1dd806-4cc0-4731-a103-d84b6076bb8f","system_id":"levelo_inurba_marseille","lat":43.2557,"lon":5.38242,"is_reserved":false,"is_disabled":true,"rental_uris":{"android":"levelo://app?vid=4f1dd806-4cc0-4731-a103-d84b6076bb8f","ios":"levelo://app?vid=4f1dd806-4cc0-4731-a103-d84b6076bb8f"},"vehicle_type_id":"4","last_reported":1753193604,"current_range_meters":19600,"station_id":"ce4bhih2rcd13ifvqfs0","pricing_plan_id":"cebpf4jnsgd1na2vs0mg"},{"bike_id":"7fd6bbc4-f379-46c6-9856-9e8888143456","system_id":"levelo_inurba_marseille","lat":43.29199,"lon":5.3931,"is_reserved":false,"is_disabled":false,"rental_uris":{"android":"levelo://app?vid=7fd6bbc4-f379-46c6-9856-9e8888143456","ios":"levelo://app?vid=7fd6bbc4-f379-46c6-9856-9e8888143456"},"vehicle_type_id":"4","last_reported":1753193604,"current_range_meters":20400,"station_id":"ce4bh192rcd13ifvqdd0","pricing_plan_id":"cebpf4jnsgd1na2vs0mg"},{"bike_id":"87c9dd7a-9164-42e7-90fd-acbb0843047e","system_id":"levelo_inurba_marseille","lat":43.25941,"lon":5.40902,"is_reserved":false,"is_disabled":false,"rental_uris":{"android":"levelo://app?vid=87c9dd7a-9164-42e7-90fd-acbb0843047e","ios":"levelo://app?vid=87c9dd7a-9164-42e7-90fd-acbb0843047e"},"vehicle_type_id":"4","last_reported":1753193604,"current_range_meters":19600,"station_id":"ce4bhm92rcd13ifvqglg","pricing_plan_id":"cebpf4jnsgd1na2vs0mg"},{"bike_id":"87efb87e-9c1b-48bc-9816-65bf93d44e2c","system_id":"levelo_inurba_marseille","lat":43.276176,"lon":5.361005,"is_reserved":false,"is_disabled":false,"rental_uris":{"android":"levelo://app?vid=87efb87e-9c1b-48bc-9816-65bf93d44e2c","ios":"levelo://app?vid=87efb87e-9c1b-48bc-9816-65bf93d44e2c"},"vehicle_type_id":"4","last_reported":1753193604,"current_range_meters":19600,"station_id":"","pricing_plan_id":"cebpf4jnsgd1na2vs0mg"},{"bike_id":"f66855e1-18fe-470f-8fec-4e5be71eaad5","system_id":"levelo_inurba_marseille","lat":43.259315,"lon":5.409064,"is_reserved":false,"is_disabled":false,"rental_uris":{"android":"levelo://app?vid=f66855e1-18fe-470f-8fec-4e5be71eaad5","ios":"levelo://app?vid=f66855e1-18fe-470f-8fec-4e5be71eaad5"},"vehicle_type_id":"4","last_reported":1753193604,"current_range_meters":19600,"station_id":"ce4bhm92rcd13ifvqglg","pricing_plan_id":"cebpf4jnsgd1na2vs0mg"},{"bike_id":"23c29e00-ece7-4cf5-8159-4b8848728223","system_id":"levelo_inurba_marseille","lat":43.28416,"lon":5.34987,"is_reserved":false,"is_disabled":false,"rental_uris":{"android":"levelo://app?vid=23c29e00-ece7-4cf5-8159-4b8848728223","ios":"levelo://app?vid=23c29e00-ece7-4cf5-8159-4b8848728223"},"vehicle_type_id":"4","last_reported":1753193604,"current_range_meters":19600,"station_id":"ce4bhbh2rcd13ifvqepg","pricing_plan_id":"cebpf4jnsgd1na2vs0mg"},{"bike_id":"a55df707-9fe8-49a8-a89b-5d0023a45a8e","system_id":"levelo_inurba_marseille","lat":43.25005,"lon":5.38927,"is_reserved":false,"is_disabled":false,"rental_uris":{"android":"levelo://app?vid=a55df707-9fe8-49a8-a89b-5d0023a45a8e","ios":"levelo://app?vid=a55df707-9fe8-49a8-a89b-5d0023a45a8e"},"vehicle_type_id":"4","last_reported":1753193604,"current_range_meters":19600,"station_id":"ce4bhgp2rcd13ifvqfd0","pricing_plan_id":"cebpf4jnsgd1na2vs0mg"},{"bike_id":"957634bc-79de-4b4c-b452-d0169c4affe9","system_id":"levelo_inurba_marseille","lat":43.32364,"lon":5.36754,"is_reserved":false,"is_disabled":false,"rental_uris":{"android":"levelo://app?vid=957634bc-79de-4b4c-b452-d0169c4affe9","ios":"levelo://app?vid=957634bc-79de-4b4c-b452-d0169c4affe9"},"vehicle_type_id":"4","last_reported":1753193604,"current_range_meters":19600,"station_id":"ce4bhsh2rcd13ifvqi2g","pricing_plan_id":"cebpf4jnsgd1na2vs0mg"},{"bike_id":"33ea1ae2-221d-4bf9-904e-053e01549dfa","system_id":"levelo_inurba_marseille","lat":43.26507,"lon":5.39547,"is_reserved":false,"is_disabled":false,"rental_uris":{"android":"levelo://app?vid=33ea1ae2-221d-4bf9-904e-053e01549dfa","ios":"levelo://app?vid=33ea1ae2-221d-4bf9-904e-053e01549dfa"},"vehicle_type_id":"4","last_reported":1753193604,"current_range_meters":19600,"station_id":"ce4bhi12rcd13ifvqfq0","pricing_plan_id":"cebpf4jnsgd1na2vs0mg"},{"bike_id":"06101cf9-8ecc-4c54-9850-330545d2ec08","system_id":"levelo_inurba_marseille","lat":43.30796,"lon":5.379577,"is_reserved":false,"is_disabled":false,"rental_uris":{"android":"levelo://app?vid=06101cf9-8ecc-4c54-9850-330545d2ec08","ios":"levelo://app?vid=06101cf9-8ecc-4c54-9850-330545d2ec08"},"vehicle_type_id":"4","last_reported":1753193604,"current_range_meters":19600,"station_id":"","pricing_plan_id":"cebpf4jnsgd1na2vs0mg"},{"bike_id":"1037e2b0-5159-4ab5-8ab8-3ca01c76ac4b","system_id":"levelo_inurba_marseille","lat":43.217619,"lon":5.34585,"is_reserved":false,"is_disabled":false,"rental_uris":{"android":"levelo://app?vid=1037e2b0-5159-4ab5-8ab8-3ca01c76ac4b","ios":"levelo://app?vid=1037e2b0-5159-4ab5-8ab8-3ca01c76ac4b"},"vehicle_type_id":"4","last_reported":1753193604,"current_range_meters":19600,"station_id":"st_cvj6r9ubvosntc0bgbag","pricing_plan_id":"cebpf4jnsgd1na2vs0mg"},{"bike_id":"4949ff53-3e16-4494-93b5-6a2170915647","system_id":"levelo_inurba_marseille","lat":43.25867,"lon":5.398986,"is_reserved":false,"is_disabled":false,"rental_uris":{"android":"levelo://app?vid=4949ff53-3e16-4494-93b5-6a2170915647","ios":"levelo://app?vid=4949ff53-3e16-4494-93b5-6a2170915647"},"vehicle_type_id":"4","last_reported":1753193604,"current_range_meters":19600,"station_id":"ce4bhl92rcd13ifvqghg","pricing_plan_id":"cebpf4jnsgd1na2vs0mg"},{"bike_id":"b8bfa5de-b4d6-4d38-8e40-510ea441fe00","system_id":"levelo_inurba_marseille","lat":43.28412,"lon":5.34994,"is_reserved":false,"is_disabled":false,"rental_uris":{"android":"levelo://app?vid=b8bfa5de-b4d6-4d38-8e40-510ea441fe00","ios":"levelo://app?vid=b8bfa5de-b4d6-4d38-8e40-510ea441fe00"},"vehicle_type_id":"4","last_reported":1753193604,"current_range_meters":19600,"station_id":"ce4bhbh2rcd13ifvqepg","pricing_plan_id":"cebpf4jnsgd1na2vs0mg"},{"bike_id":"9bb5d30e-7a3b-416b-8265-fcc7d15a3375","system_id":"levelo_inurba_marseille","lat":43.284211,"lon":5.349923,"is_reserved":false,"is_disabled":false,"rental_uris":{"android":"levelo://app?vid=9bb5d30e-7a3b-416b-8265-fcc7d15a3375","ios":"levelo://app?vid=9bb5d30e-7a3b-416b-8265-fcc7d15a3375"},"vehicle_type_id":"4","last_reported":1753193604,"current_range_meters":19600,"station_id":"ce4bhbh2rcd13ifvqepg","pricing_plan_id":"cebpf4jnsgd1na2vs0mg"},{"bike_id":"0a7e2862-d8ec-4c77-89d9-cfcdd51f8d75","system_id":"levelo_inurba_marseille","lat":43.31852,"lon":5.36806,"is_reserved":false,"is_disabled":false,"rental_uris":{"android":"levelo://app?vid=0a7e2862-d8ec-4c77-89d9-cfcdd51f8d75","ios":"levelo://app?vid=0a7e2862-d8ec-4c77-89d9-cfcdd51f8d75"},"vehicle_type_id":"4","last_reported":1753193604,"current_range_meters":19600,"station_id":"","pricing_plan_id":"cebpf4jnsgd1na2vs0mg"},{"bike_id":"23dd2ea2-9260-49e5-a1c6-c11892c60b12","system_id":"levelo_inurba_marseille","lat":43.28607,"lon":5.37068,"is_reserved":false,"is_disabled":false,"rental_uris":{"android":"levelo://app?vid=23dd2ea2-9260-49e5-a1c6-c11892c60b12","ios":"levelo://app?vid=23dd2ea2-9260-49e5-a1c6-c11892c60b12"},"vehicle_type_id":"4","last_reported":1753193604,"current_range_meters":19600,"station_id":"ce4bht12rcd13ifvqi60","pricing_plan_id":"cebpf4jnsgd1na2vs0mg"},{"bike_id":"a3f4ea86-f042-44ca-8ee5-ba45d4f6e22f","system_id":"levelo_inurba_marseille","lat":43.28616,"lon":5.35103,"is_reserved":false,"is_disabled":false,"rental_uris":{"android":"levelo://app?vid=a3f4ea86-f042-44ca-8ee5-ba45d4f6e22f","ios":"levelo://app?vid=a3f4ea86-f042-44ca-8ee5-ba45d4f6e22f"},"vehicle_type_id":"4","last_reported":1753193604,"current_range_meters":20000,"station_id":"ce4bhch2rcd13ifvqeug","pricing_plan_id":"cebpf4jnsgd1na2vs0mg"},{"bike_id":"36329976-ead1-480c-9dc6-f7148a3f9d3a","system_id":"levelo_inurba_marseille","lat":43.30515,"lon":5.367131,"is_reserved":false,"is_disabled":false,"rental_uris":{"android":"levelo://app?vid=36329976-ead1-480c-9dc6-f7148a3f9d3a","ios":"levelo://app?vid=36329976-ead1-480c-9dc6-f7148a3f9d3a"},"vehicle_type_id":"4","last_reported":1753193604,"current_range_meters":20000,"station_id":"ce4bgrp2rcd13ifvqc9g","pricing_plan_id":"cebpf4jnsgd1na2vs0mg"},{"bike_id":"2a1f2403-152b-47d3-8001-ec26c6a37468","system_id":"levelo_inurba_marseille","lat":43.23146,"lon":5.43718,"is_reserved":false,"is_disabled":false,"rental_uris":{"android":"levelo://app?vid=2a1f2403-152b-47d3-8001-ec26c6a37468","ios":"levelo://app?vid=2a1f2403-152b-47d3-8001-ec26c6a37468"},"vehicle_type_id":"4","last_reported":1753193604,"current_range_meters":20000,"station_id":"ce4bhmp2rcd13ifvqgog","pricing_plan_id":"cebpf4jnsgd1na2vs0mg"},{"bike_id":"c600cb00-0fcf-41d7-b7de-1a1d8c9ff5e8","system_id":"levelo_inurba_marseille","lat":43.246045,"lon":5.388632,"is_reserved":false,"is_disabled":false,"rental_uris":{"android":"levelo://app?vid=c600cb00-0fcf-41d7-b7de-1a1d8c9ff5e8","ios":"levelo://app?vid=c600cb00-0fcf-41d7-b7de-1a1d8c9ff5e8"},"vehicle_type_id":"4","last_reported":1753193604,"current_range_meters":20000,"station_id":"ce4bhg12rcd13ifvqf60","pricing_plan_id":"cebpf4jnsgd1na2vs0mg"},{"bike_id":"8ebb18e8-0410-49b5-bcce-3f247d7bd09f","system_id":"levelo_inurba_marseille","lat":43.25491,"lon":5.37695,"is_reserved":false,"is_disabled":false,"rental_uris":{"android":"levelo://app?vid=8ebb18e8-0410-49b5-bcce-3f247d7bd09f","ios":"levelo://app?vid=8ebb18e8-0410-49b5-bcce-3f247d7bd09f"},"vehicle_type_id":"4","last_reported":1753193604,"current_range_meters":20000,"station_id":"ce4bhh12rcd13ifvqff0","pricing_plan_id":"cebpf4jnsgd1na2vs0mg"},{"bike_id":"cffcc51c-152a-47c2-8e33-82c26e2349c9","system_id":"levelo_inurba_marseille","lat":43.30535,"lon":5.36699,"is_reserved":false,"is_disabled":false,"rental_uris":{"android":"levelo://app?vid=cffcc51c-152a-47c2-8e33-82c26e2349c9","ios":"levelo://app?vid=cffcc51c-152a-47c2-8e33-82c26e2349c9"},"vehicle_type_id":"4","last_reported":1753193604,"current_range_meters":20000,"station_id":"ce4bgrp2rcd13ifvqc9g","pricing_plan_id":"cebpf4jnsgd1na2vs0mg"},{"bike_id":"ca5d7126-7cda-40b6-b165-1a295411436c","system_id":"levelo_inurba_marseille","lat":43.28853,"lon":5.35856,"is_reserved":false,"is_disabled":false,"rental_uris":{"android":"levelo://app?vid=ca5d7126-7cda-40b6-b165-1a295411436c","ios":"levelo://app?vid=ca5d7126-7cda-40b6-b165-1a295411436c"},"vehicle_type_id":"4","last_reported":1753193604,"current_range_meters":20000,"station_id":"ce4bhb12rcd13ifvqem0","pricing_plan_id":"cebpf4jnsgd1na2vs0mg"},{"bike_id":"e4182196-e252-4e25-966f-ca82789e0ac3","system_id":"levelo_inurba_marseille","lat":43.27061,"lon":5.40265,"is_reserved":false,"is_disabled":false,"rental_uris":{"android":"levelo://app?vid=e4182196-e252-4e25-966f-ca82789e0ac3","ios":"levelo://app?vid=e4182196-e252-4e25-966f-ca82789e0ac3"},"vehicle_type_id":"4","last_reported":1753193604,"current_range_meters":20000,"station_id":"ce4bhk92rcd13ifvqgc0","pricing_plan_id":"cebpf4jnsgd1na2vs0mg"},{"bike_id":"66468342-0f85-4683-89d8-35e4f3844c4a","system_id":"levelo_inurba_marseille","lat":43.305437,"lon":5.367028,"is_reserved":false,"is_disabled":false,"rental_uris":{"android":"levelo://app?vid=66468342-0f85-4683-89d8-35e4f3844c4a","ios":"levelo://app?vid=66468342-0f85-4683-89d8-35e4f3844c4a"},"vehicle_type_id":"4","last_reported":1753193604,"current_range_meters":20000,"station_id":"ce4bgrp2rcd13ifvqc9g","pricing_plan_id":"cebpf4jnsgd1na2vs0mg"},{"bike_id":"a0de01aa-cd68-4a4d-8bab-65fa167b8610","system_id":"levelo_inurba_marseille","lat":43.23183,"lon":5.35573,"is_reserved":false,"is_disabled":false,"rental_uris":{"android":"levelo://app?vid=a0de01aa-cd68-4a4d-8bab-65fa167b8610","ios":"levelo://app?vid=a0de01aa-cd68-4a4d-8bab-65fa167b8610"},"vehicle_type_id":"4","last_reported":1753193604,"current_range_meters":20000,"station_id":"ce4bhu92rcd13ifvqi70","pricing_plan_id":"cebpf4jnsgd1na2vs0mg"},{"bike_id":"b270637b-2eb6-49a1-8c47-775176ae915c","system_id":"levelo_inurba_marseille","lat":43.28501,"lon":5.38573,"is_reserved":false,"is_disabled":false,"rental_uris":{"android":"levelo://app?vid=b270637b-2eb6-49a1-8c47-775176ae915c","ios":"levelo://app?vid=b270637b-2eb6-49a1-8c47-775176ae915c"},