{"last_updated":1744628885,"ttl":60,"version":"2.2","data":{"bikes":[{"bike_id":"b30c0f6d-de6e-41ba-bb6f-e797cf12398b","system_id":"levelo_inurba_marseille","lat":43.33726,"lon":5.3919,"is_reserved":false,"is_disabled":false,"rental_uris":{"android":"levelo://app?vid=b30c0f6d-de6e-41ba-bb6f-e797cf12398b","ios":"levelo://app?vid=b30c0f6d-de6e-41ba-bb6f-e797cf12398b"},"vehicle_type_id":"4","last_reported":1744628885,"current_range_meters":2800,"station_id":"ce4bhr92rcd13ifvqhsg","pricing_plan_id":"cebpf4jnsgd1na2vs0mg"},{"bike_id":"1130922e-9ccc-463b-9207-aadecd794edb","system_id":"levelo_inurba_marseille","lat":43.31995,"lon":5.38155,"is_reserved":false,"is_disabled":true,"rental_uris":{"android":"levelo://app?vid=1130922e-9ccc-463b-9207-aadecd794edb","ios":"levelo://app?vid=1130922e-9ccc-463b-9207-aadecd794edb"},"vehicle_type_id":"4","last_reported":1744628885,"current_range_meters":2800,"station_id":"ce4bhr12rcd13ifvqhpg","pricing_plan_id":"cebpf4jnsgd1na2vs0mg"},{"bike_id":"f6fdc286-979e-468f-b9f0-1bbc4b538f29","system_id":"levelo_inurba_marseille","lat":43.27061,"lon":5.40261,"is_reserved":false,"is_disabled":false,"rental_uris":{"android":"levelo://app?vid=f6fdc286-979e-468f-b9f0-1bbc4b538f29","ios":"levelo://app?vid=f6fdc286-979e-468f-b9f0-1bbc4b538f29"},"vehicle_type_id":"4","last_reported":1744628885,"current_range_meters":2800,"station_id":"ce4bhk92rcd13ifvqgc0","pricing_plan_id":"cebpf4jnsgd1na2vs0mg"},{"bike_id":"ef291804-1477-432e-b153-82ea15725418","system_id":"levelo_inurba_marseille","lat":43.33742,"lon":5.37454,"is_reserved":false,"is_disabled":false,"rental_uris":{"android":"levelo://app?vid=ef291804-1477-432e-b153-82ea15725418","ios":"levelo://app?vid=ef291804-1477-432e-b153-82ea15725418"},"vehicle_type_id":"4","last_reported":1744628885,"current_range_meters":2800,"station_id":"","pricing_plan_id":"cebpf4jnsgd1na2vs0mg"},{"bike_id":"f88fd664-7d17-452e-8ffb-40a3e4fd18b8","system_id":"levelo_inurba_marseille","lat":43.21751,"lon":5.34605,"is_reserved":false,"is_disabled":false,"rental_uris":{"android":"levelo://app?vid=f88fd664-7d17-452e-8ffb-40a3e4fd18b8","ios":"levelo://app?vid=f88fd664-7d17-452e-8ffb-40a3e4fd18b8"},"vehicle_type_id":"4","last_reported":1744628885,"current_range_meters":3200,"station_id":"st_cvj6r9ubvosntc0bgbag","pricing_plan_id":"cebpf4jnsgd1na2vs0mg"},{"bike_id":"2fc95e6a-2708-462b-b6bb-8734eb69a062","system_id":"levelo_inurba_marseille","lat":43.32356,"lon":5.3676,"is_reserved":false,"is_disabled":false,"rental_uris":{"android":"levelo://app?vid=2fc95e6a-2708-462b-b6bb-8734eb69a062","ios":"levelo://app?vid=2fc95e6a-2708-462b-b6bb-8734eb69a062"},"vehicle_type_id":"4","last_reported":1744628885,"current_range_meters":3200,"station_id":"ce4bhsh2rcd13ifvqi2g","pricing_plan_id":"cebpf4jnsgd1na2vs0mg"},{"bike_id":"8e116d9c-b1e1-461d-b0c4-e1fbd4732bc1","system_id":"levelo_inurba_marseille","lat":43.30558,"lon":5.36535,"is_reserved":false,"is_disabled":false,"rental_uris":{"android":"levelo://app?vid=8e116d9c-b1e1-461d-b0c4-e1fbd4732bc1","ios":"levelo://app?vid=8e116d9c-b1e1-461d-b0c4-e1fbd4732bc1"},"vehicle_type_id":"4","last_reported":1744628885,"current_range_meters":3200,"station_id":"ce4bgs12rcd13ifvqcag","pricing_plan_id":"cebpf4jnsgd1na2vs0mg"},{"bike_id":"85851936-bf1d-4a51-91fc-a68055e7d82a","system_id":"levelo_inurba_marseille","lat":43.26057,"lon":5.39401,"is_reserved":false,"is_disabled":false,"rental_uris":{"android":"levelo://app?vid=85851936-bf1d-4a51-91fc-a68055e7d82a","ios":"levelo://app?vid=85851936-bf1d-4a51-91fc-a68055e7d82a"},"vehicle_type_id":"4","last_reported":1744628885,"current_range_meters":3200,"station_id":"ce4bhh92rcd13ifvqfj0","pricing_plan_id":"cebpf4jnsgd1na2vs0mg"},{"bike_id":"4a0973b0-92a0-41e8-9b0d-a99e944bafe0","system_id":"levelo_inurba_marseille","lat":43.34485,"lon":5.4126,"is_reserved":false,"is_disabled":false,"rental_uris":{"android":"levelo://app?vid=4a0973b0-92a0-41e8-9b0d-a99e944bafe0","ios":"levelo://app?vid=4a0973b0-92a0-41e8-9b0d-a99e944bafe0"},"vehicle_type_id":"4","last_reported":1744628885,"current_range_meters":3600,"station_id":"","pricing_plan_id":"cebpf4jnsgd1na2vs0mg"},{"bike_id":"493cde9e-7859-4c26-a2e6-f744ee5d8553","system_id":"levelo_inurba_marseille","lat":43.3141,"lon":5.37308,"is_reserved":false,"is_disabled":false,"rental_uris":{"android":"levelo://app?vid=493cde9e-7859-4c26-a2e6-f744ee5d8553","ios":"levelo://app?vid=493cde9e-7859-4c26-a2e6-f744ee5d8553"},"vehicle_type_id":"4","last_reported":1744628885,"current_range_meters":3600,"station_id":"","pricing_plan_id":"cebpf4jnsgd1na2vs0mg"},{"bike_id":"5b77a833-8185-45c2-9fe3-07eb40df54ca","system_id":"levelo_inurba_marseille","lat":43.33995,"lon":5.38057,"is_reserved":false,"is_disabled":false,"rental_uris":{"android":"levelo://app?vid=5b77a833-8185-45c2-9fe3-07eb40df54ca","ios":"levelo://app?vid=5b77a833-8185-45c2-9fe3-07eb40df54ca"},"vehicle_type_id":"4","last_reported":1744628885,"current_range_meters":3600,"station_id":"","pricing_plan_id":"cebpf4jnsgd1na2vs0mg"},{"bike_id":"2f5bc015-0a98-4a0d-a50f-f7181e1d6abe","system_id":"levelo_inurba_marseille","lat":43.23432,"lon":5.41254,"is_reserved":false,"is_disabled":false,"rental_uris":{"android":"levelo://app?vid=2f5bc015-0a98-4a0d-a50f-f7181e1d6abe","ios":"levelo://app?vid=2f5bc015-0a98-4a0d-a50f-f7181e1d6abe"},"vehicle_type_id":"4","last_reported":1744628885,"current_range_meters":4800,"station_id":"","pricing_plan_id":"cebpf4jnsgd1na2vs0mg"},{"bike_id":"a8b89d78-2450-42d8-855d-8566c79069ad","system_id":"levelo_inurba_marseille","lat":43.32033,"lon":5.41549,"is_reserved":false,"is_disabled":false,"rental_uris":{"android":"levelo://app?vid=a8b89d78-2450-42d8-855d-8566c79069ad","ios":"levelo://app?vid=a8b89d78-2450-42d8-855d-8566c79069ad"},"vehicle_type_id":"4","last_reported":1744628885,"current_range_meters":4800,"station_id":"ce4bhq92rcd13ifvqhkg","pricing_plan_id":"cebpf4jnsgd1na2vs0mg"},{"bike_id":"77098909-6870-450c-bac4-dea1caf4f9cb","system_id":"levelo_inurba_marseille","lat":43.32658,"lon":5.4099,"is_reserved":false,"is_disabled":false,"rental_uris":{"android":"levelo://app?vid=77098909-6870-450c-bac4-dea1caf4f9cb","ios":"levelo://app?vid=77098909-6870-450c-bac4-dea1caf4f9cb"},"vehicle_type_id":"4","last_reported":1744628885,"current_range_meters":4400,"station_id":"ce4bhpp2rcd13ifvqhgg","pricing_plan_id":"cebpf4jnsgd1na2vs0mg"},{"bike_id":"f2693a08-21a0-4e7d-9985-32623d579b29","system_id":"levelo_inurba_marseille","lat":43.23195,"lon":5.35558,"is_reserved":false,"is_disabled":false,"rental_uris":{"android":"levelo://app?vid=f2693a08-21a0-4e7d-9985-32623d579b29","ios":"levelo://app?vid=f2693a08-21a0-4e7d-9985-32623d579b29"},"vehicle_type_id":"4","last_reported":1744628885,"current_range_meters":4800,"station_id":"ce4bhu92rcd13ifvqi70","pricing_plan_id":"cebpf4jnsgd1na2vs0mg"},{"bike_id":"4f38e127-be9f-468e-8871-e9cd4f365dca","system_id":"levelo_inurba_marseille","lat":43.24699,"lon":5.41157,"is_reserved":false,"is_disabled":false,"rental_uris":{"android":"levelo://app?vid=4f38e127-be9f-468e-8871-e9cd4f365dca","ios":"levelo://app?vid=4f38e127-be9f-468e-8871-e9cd4f365dca"},"vehicle_type_id":"4","last_reported":1744628885,"current_range_meters":5600,"station_id":"","pricing_plan_id":"cebpf4jnsgd1na2vs0mg"},{"bike_id":"3d16c2e3-7c12-4342-883a-029e0fc16b05","system_id":"levelo_inurba_marseille","lat":43.31041,"lon":5.37111,"is_reserved":false,"is_disabled":false,"rental_uris":{"android":"levelo://app?vid=3d16c2e3-7c12-4342-883a-029e0fc16b05","ios":"levelo://app?vid=3d16c2e3-7c12-4342-883a-029e0fc16b05"},"vehicle_type_id":"4","last_reported":1744628885,"current_range_meters":5600,"station_id":"","pricing_plan_id":"cebpf4jnsgd1na2vs0mg"},{"bike_id":"cf675099-ac1b-4818-b622-5e6e28428c4a","system_id":"levelo_inurba_marseille","lat":43.22938,"lon":5.35376,"is_reserved":false,"is_disabled":false,"rental_uris":{"android":"levelo://app?vid=cf675099-ac1b-4818-b622-5e6e28428c4a","ios":"levelo://app?vid=cf675099-ac1b-4818-b622-5e6e28428c4a"},"vehicle_type_id":"4","last_reported":1744628885,"current_range_meters":6000,"station_id":"cpo3532slgdg3j2ikp40","pricing_plan_id":"cebpf4jnsgd1na2vs0mg"},{"bike_id":"52718689-ec5a-4d01-8c4c-216994e88cbe","system_id":"levelo_inurba_marseille","lat":43.28422,"lon":5.34992,"is_reserved":false,"is_disabled":false,"rental_uris":{"android":"levelo://app?vid=52718689-ec5a-4d01-8c4c-216994e88cbe","ios":"levelo://app?vid=52718689-ec5a-4d01-8c4c-216994e88cbe"},"vehicle_type_id":"4","last_reported":1744628885,"current_range_meters":6000,"station_id":"ce4bhbh2rcd13ifvqepg","pricing_plan_id":"cebpf4jnsgd1na2vs0mg"},{"bike_id":"7fd526a2-3b8e-4c71-a5b3-c70d3dfd5d85","system_id":"levelo_inurba_marseille","lat":43.31079,"lon":5.4244,"is_reserved":false,"is_disabled":false,"rental_uris":{"android":"levelo://app?vid=7fd526a2-3b8e-4c71-a5b3-c70d3dfd5d85","ios":"levelo://app?vid=7fd526a2-3b8e-4c71-a5b3-c70d3dfd5d85"},"vehicle_type_id":"4","last_reported":1744628885,"current_range_meters":6400,"station_id":"ce4bhp92rcd13ifvqhag","pricing_plan_id":"cebpf4jnsgd1na2vs0mg"},{"bike_id":"e654e523-849c-4f04-8e39-f201a550baf0","system_id":"levelo_inurba_marseille","lat":43.295443,"lon":5.422809,"is_reserved":false,"is_disabled":false,"rental_uris":{"android":"levelo://app?vid=e654e523-849c-4f04-8e39-f201a550baf0","ios":"levelo://app?vid=e654e523-849c-4f04-8e39-f201a550baf0"},"vehicle_type_id":"4","last_reported":1744628885,"current_range_meters":6400,"station_id":"ce4bhph2rcd13ifvqhdg","pricing_plan_id":"cebpf4jnsgd1na2vs0mg"},{"bike_id":"c45d37e4-f415-4bdd-9432-d9fb1424c2a8","system_id":"levelo_inurba_marseille","lat":43.30623,"lon":5.40096,"is_reserved":false,"is_disabled":false,"rental_uris":{"android":"levelo://app?vid=c45d37e4-f415-4bdd-9432-d9fb1424c2a8","ios":"levelo://app?vid=c45d37e4-f415-4bdd-9432-d9fb1424c2a8"},"vehicle_type_id":"4","last_reported":1744628885,"current_range_meters":6400,"station_id":"ce4bh112rcd13ifvqda0","pricing_plan_id":"cebpf4jnsgd1na2vs0mg"},{"bike_id":"76450c2c-888f-4d08-a5c0-d825237615aa","system_id":"levelo_inurba_marseille","lat":43.2723,"lon":5.42298,"is_reserved":false,"is_disabled":false,"rental_uris":{"android":"levelo://app?vid=76450c2c-888f-4d08-a5c0-d825237615aa","ios":"levelo://app?vid=76450c2c-888f-4d08-a5c0-d825237615aa"},"vehicle_type_id":"4","last_reported":1744628885,"current_range_meters":6800,"station_id":"","pricing_plan_id":"cebpf4jnsgd1na2vs0mg"},{"bike_id":"3d38319d-59e2-4b1d-b835-18ca8df71aa4","system_id":"levelo_inurba_marseille","lat":43.29381,"lon":5.378391,"is_reserved":false,"is_disabled":false,"rental_uris":{"android":"levelo://app?vid=3d38319d-59e2-4b1d-b835-18ca8df71aa4","ios":"levelo://app?vid=3d38319d-59e2-4b1d-b835-18ca8df71aa4"},"vehicle_type_id":"4","last_reported":1744628885,"current_range_meters":6800,"station_id":"ce4bgjh2rcd13ifvqbf0","pricing_plan_id":"cebpf4jnsgd1na2vs0mg"},{"bike_id":"c127d1a8-0150-4856-a57b-18fd29314b2c","system_id":"levelo_inurba_marseille","lat":43.32486,"lon":5.36595,"is_reserved":false,"is_disabled":false,"rental_uris":{"android":"levelo://app?vid=c127d1a8-0150-4856-a57b-18fd29314b2c","ios":"levelo://app?vid=c127d1a8-0150-4856-a57b-18fd29314b2c"},"vehicle_type_id":"4","last_reported":1744628885,"current_range_meters":6800,"station_id":"ce4bhs12rcd13ifvqhvg","pricing_plan_id":"cebpf4jnsgd1na2vs0mg"},{"bike_id":"9eb9cb8b-6eb4-43a0-bd16-843b2404fdda","system_id":"levelo_inurba_marseille","lat":43.28573,"lon":5.39498,"is_reserved":false,"is_disabled":false,"rental_uris":{"android":"levelo://app?vid=9eb9cb8b-6eb4-43a0-bd16-843b2404fdda","ios":"levelo://app?vid=9eb9cb8b-6eb4-43a0-bd16-843b2404fdda"},"vehicle_type_id":"4","last_reported":1744628885,"current_range_meters":6800,"station_id":"ce4bh292rcd13ifvqdg0","pricing_plan_id":"cebpf4jnsgd1na2vs0mg"},{"bike_id":"8d77eca9-482b-49f8-a493-6136dd158a1e","system_id":"levelo_inurba_marseille","lat":43.31644,"lon":5.43718,"is_reserved":false,"is_disabled":false,"rental_uris":{"android":"levelo://app?vid=8d77eca9-482b-49f8-a493-6136dd158a1e","ios":"levelo://app?vid=8d77eca9-482b-49f8-a493-6136dd158a1e"},"vehicle_type_id":"4","last_reported":1744628885,"current_range_meters":7200,"station_id":"","pricing_plan_id":"cebpf4jnsgd1na2vs0mg"},{"bike_id":"22fbba64-62a4-4f59-8cfa-9726208bce9a","system_id":"levelo_inurba_marseille","lat":43.23151,"lon":5.43718,"is_reserved":false,"is_disabled":false,"rental_uris":{"android":"levelo://app?vid=22fbba64-62a4-4f59-8cfa-9726208bce9a","ios":"levelo://app?vid=22fbba64-62a4-4f59-8cfa-9726208bce9a"},"vehicle_type_id":"4","last_reported":1744628885,"current_range_meters":7200,"station_id":"ce4bhmp2rcd13ifvqgog","pricing_plan_id":"cebpf4jnsgd1na2vs0mg"},{"bike_id":"f95e93e9-7b5d-4b6b-89d0-c82c6ee462a8","system_id":"levelo_inurba_marseille","lat":43.29702,"lon":5.36619,"is_reserved":false,"is_disabled":false,"rental_uris":{"android":"levelo://app?vid=f95e93e9-7b5d-4b6b-89d0-c82c6ee462a8","ios":"levelo://app?vid=f95e93e9-7b5d-4b6b-89d0-c82c6ee462a8"},"vehicle_type_id":"4","last_reported":1744628885,"current_range_meters":7200,"station_id":"ce4bgn12rcd13ifvqbt0","pricing_plan_id":"cebpf4jnsgd1na2vs0mg"},{"bike_id":"d7646f41-1163-4b9e-bf05-a11135fbf07d","system_id":"levelo_inurba_marseille","lat":43.28155,"lon":5.42649,"is_reserved":false,"is_disabled":false,"rental_uris":{"android":"levelo://app?vid=d7646f41-1163-4b9e-bf05-a11135fbf07d","ios":"levelo://app?vid=d7646f41-1163-4b9e-bf05-a11135fbf07d"},"vehicle_type_id":"4","last_reported":1744628885,"current_range_meters":7200,"station_id":"ce4bhnh2rcd13ifvqgug","pricing_plan_id":"cebpf4jnsgd1na2vs0mg"},{"bike_id":"1354834f-1a16-4e38-8ad6-544f05e905f6","system_id":"levelo_inurba_marseille","lat":43.24166,"lon":5.36393,"is_reserved":false,"is_disabled":false,"rental_uris":{"android":"levelo://app?vid=1354834f-1a16-4e38-8ad6-544f05e905f6","ios":"levelo://app?vid=1354834f-1a16-4e38-8ad6-544f05e905f6"},"vehicle_type_id":"4","last_reported":1744628885,"current_range_meters":8000,"station_id":"cpo36qri1sfpv3e86is0","pricing_plan_id":"cebpf4jnsgd1na2vs0mg"},{"bike_id":"b55dd5e7-54b2-4035-b945-7b626dd7afc7","system_id":"levelo_inurba_marseille","lat":43.27559,"lon":5.409123,"is_reserved":false,"is_disabled":false,"rental_uris":{"android":"levelo://app?vid=b55dd5e7-54b2-4035-b945-7b626dd7afc7","ios":"levelo://app?vid=b55dd5e7-54b2-4035-b945-7b626dd7afc7"},"vehicle_type_id":"4","last_reported":1744628885,"current_range_meters":8000,"station_id":"","pricing_plan_id":"cebpf4jnsgd1na2vs0mg"},{"bike_id":"84534c75-afab-43e1-bed1-cacf782229e5","system_id":"levelo_inurba_marseille","lat":43.24899,"lon":5.39408,"is_reserved":false,"is_disabled":false,"rental_uris":{"android":"levelo://app?vid=84534c75-afab-43e1-bed1-cacf782229e5","ios":"levelo://app?vid=84534c75-afab-43e1-bed1-cacf782229e5"},"vehicle_type_id":"4","last_reported":1744628885,"current_range_meters":8000,"station_id":"","pricing_plan_id":"cebpf4jnsgd1na2vs0mg"},{"bike_id":"efd328ca-f8bf-4550-bd94-c2fd75978f3c","system_id":"levelo_inurba_marseille","lat":43.33045,"lon":5.3807,"is_reserved":false,"is_disabled":false,"rental_uris":{"android":"levelo://app?vid=efd328ca-f8bf-4550-bd94-c2fd75978f3c","ios":"levelo://app?vid=efd328ca-f8bf-4550-bd94-c2fd75978f3c"},"vehicle_type_id":"4","last_reported":1744628885,"current_range_meters":8000,"station_id":"","pricing_plan_id":"cebpf4jnsgd1na2vs0mg"},{"bike_id":"f4c6fd18-b2ed-404d-9b02-9921cb6c1386","system_id":"levelo_inurba_marseille","lat":43.27051,"lon":5.4228,"is_reserved":false,"is_disabled":false,"rental_uris":{"android":"levelo://app?vid=f4c6fd18-b2ed-404d-9b02-9921cb6c1386","ios":"levelo://app?vid=f4c6fd18-b2ed-404d-9b02-9921cb6c1386"},"vehicle_type_id":"4","last_reported":1744628885,"current_range_meters":8400,"station_id":"ce4bhk92rcd13ifvqgb0","pricing_plan_id":"cebpf4jnsgd1na2vs0mg"},{"bike_id":"189bc3aa-c23a-4e02-a51e-2e6020d77594","system_id":"levelo_inurba_marseille","lat":43.23145,"lon":5.43721,"is_reserved":false,"is_disabled":false,"rental_uris":{"android":"levelo://app?vid=189bc3aa-c23a-4e02-a51e-2e6020d77594","ios":"levelo://app?vid=189bc3aa-c23a-4e02-a51e-2e6020d77594"},"vehicle_type_id":"4","last_reported":1744628885,"current_range_meters":8400,"station_id":"ce4bhmp2rcd13ifvqgog","pricing_plan_id":"cebpf4jnsgd1na2vs0mg"},{"bike_id":"5956f2e2-7c9b-47f4-a4fc-b1bbb9cc7056","system_id":"levelo_inurba_marseille","lat":43.31712,"lon":5.43707,"is_reserved":false,"is_disabled":false,"rental_uris":{"android":"levelo://app?vid=5956f2e2-7c9b-47f4-a4fc-b1bbb9cc7056","ios":"levelo://app?vid=5956f2e2-7c9b-47f4-a4fc-b1bbb9cc7056"},"vehicle_type_id":"4","last_reported":1744628885,"current_range_meters":8800,"station_id":"ce4bhp92rcd13ifvqhcg","pricing_plan_id":"cebpf4jnsgd1na2vs0mg"},{"bike_id":"8797f1bc-3db1-44f8-b663-5b753ad494e8","system_id":"levelo_inurba_marseille","lat":43.29363,"lon":5.37839,"is_reserved":false,"is_disabled":false,"rental_uris":{"android":"levelo://app?vid=8797f1bc-3db1-44f8-b663-5b753ad494e8","ios":"levelo://app?vid=8797f1bc-3db1-44f8-b663-5b753ad494e8"},"vehicle_type_id":"4","last_reported":1744628885,"current_range_meters":8800,"station_id":"ce4bgjh2rcd13ifvqbf0","pricing_plan_id":"cebpf4jnsgd1na2vs0mg"},{"bike_id":"5f90b732-7adb-4e3a-a2c8-04b8a619e288","system_id":"levelo_inurba_marseille","lat":43.25499,"lon":5.37646,"is_reserved":false,"is_disabled":false,"rental_uris":{"android":"levelo://app?vid=5f90b732-7adb-4e3a-a2c8-04b8a619e288","ios":"levelo://app?vid=5f90b732-7adb-4e3a-a2c8-04b8a619e288"},"vehicle_type_id":"4","last_reported":1744628885,"current_range_meters":9200,"station_id":"ce4bhh12rcd13ifvqff0","pricing_plan_id":"cebpf4jnsgd1na2vs0mg"},{"bike_id":"012851f7-56cd-4d98-8bad-d55b07e5c5ae","system_id":"levelo_inurba_marseille","lat":43.28617,"lon":5.35104,"is_reserved":false,"is_disabled":false,"rental_uris":{"android":"levelo://app?vid=012851f7-56cd-4d98-8bad-d55b07e5c5ae","ios":"levelo://app?vid=012851f7-56cd-4d98-8bad-d55b07e5c5ae"},"vehicle_type_id":"4","last_reported":1744628885,"current_range_meters":6000,"station_id":"ce4bhch2rcd13ifvqeug","pricing_plan_id":"cebpf4jnsgd1na2vs0mg"},{"bike_id":"acd575b5-64e2-46d0-9647-d1a5da5ae732","system_id":"levelo_inurba_marseille","lat":43.23145,"lon":5.43726,"is_reserved":false,"is_disabled":false,"rental_uris":{"android":"levelo://app?vid=acd575b5-64e2-46d0-9647-d1a5da5ae732","ios":"levelo://app?vid=acd575b5-64e2-46d0-9647-d1a5da5ae732"},"vehicle_type_id":"4","last_reported":1744628885,"current_range_meters":9200,"station_id":"ce4bhmp2rcd13ifvqgog","pricing_plan_id":"cebpf4jnsgd1na2vs0mg"},{"bike_id":"3a78d523-0df7-4421-a05f-7245a2500a36","system_id":"levelo_inurba_marseille","lat":43.28396,"lon":5.37519,"is_reserved":false,"is_disabled":false,"rental_uris":{"android":"levelo://app?vid=3a78d523-0df7-4421-a05f-7245a2500a36","ios":"levelo://app?vid=3a78d523-0df7-4421-a05f-7245a2500a36"},"vehicle_type_id":"4","last_reported":1744628885,"current_range_meters":9200,"station_id":"ce4bh412rcd13ifvqds0","pricing_plan_id":"cebpf4jnsgd1na2vs0mg"},{"bike_id":"3b9eb7b2-f459-4ece-88d8-9370f04a1afc","system_id":"levelo_inurba_marseille","lat":43.25014,"lon":5.38912,"is_reserved":false,"is_disabled":false,"rental_uris":{"android":"levelo://app?vid=3b9eb7b2-f459-4ece-88d8-9370f04a1afc","ios":"levelo://app?vid=3b9eb7b2-f459-4ece-88d8-9370f04a1afc"},"vehicle_type_id":"4","last_reported":1744628885,"current_range_meters":9200,"station_id":"ce4bhgp2rcd13ifvqfd0","pricing_plan_id":"cebpf4jnsgd1na2vs0mg"},{"bike_id":"636d77cb-2c72-409f-8b96-62f6270f1d77","system_id":"levelo_inurba_marseille","lat":43.30947,"lon":5.39028,"is_reserved":false,"is_disabled":false,"rental_uris":{"android":"levelo://app?vid=636d77cb-2c72-409f-8b96-62f6270f1d77","ios":"levelo://app?vid=636d77cb-2c72-409f-8b96-62f6270f1d77"},"vehicle_type_id":"4","last_reported":1744628885,"current_range_meters":8800,"station_id":"ce4bgup2rcd13ifvqco0","pricing_plan_id":"cebpf4jnsgd1na2vs0mg"},{"bike_id":"72ebdd68-4727-45bd-ae87-df9c54928155","system_id":"levelo_inurba_marseille","lat":43.3257,"lon":5.41067,"is_reserved":false,"is_disabled":false,"rental_uris":{"android":"levelo://app?vid=72ebdd68-4727-45bd-ae87-df9c54928155","ios":"levelo://app?vid=72ebdd68-4727-45bd-ae87-df9c54928155"},"vehicle_type_id":"4","last_reported":1744628885,"current_range_meters":9600,"station_id":"","pricing_plan_id":"cebpf4jnsgd1na2vs0mg"},{"bike_id":"6a003e47-a1cc-4c38-b762-6e37af426d05","system_id":"levelo_inurba_marseille","lat":43.32365,"lon":5.36761,"is_reserved":false,"is_disabled":false,"rental_uris":{"android":"levelo://app?vid=6a003e47-a1cc-4c38-b762-6e37af426d05","ios":"levelo://app?vid=6a003e47-a1cc-4c38-b762-6e37af426d05"},"vehicle_type_id":"4","last_reported":1744628885,"current_range_meters":9600,"station_id":"ce4bhsh2rcd13ifvqi2g","pricing_plan_id":"cebpf4jnsgd1na2vs0mg"},{"bike_id":"5cacdac6-936a-44c6-9e06-3d5924e24ab3","system_id":"levelo_inurba_marseille","lat":43.28419,"lon":5.34996,"is_reserved":false,"is_disabled":false,"rental_uris":{"android":"levelo://app?vid=5cacdac6-936a-44c6-9e06-3d5924e24ab3","ios":"levelo://app?vid=5cacdac6-936a-44c6-9e06-3d5924e24ab3"},"vehicle_type_id":"4","last_reported":1744628885,"current_range_meters":10000,"station_id":"ce4bhbh2rcd13ifvqepg","pricing_plan_id":"cebpf4jnsgd1na2vs0mg"},{"bike_id":"52467ef2-bb23-4d5a-aebd-2782338dc161","system_id":"levelo_inurba_marseille","lat":43.21196,"lon":5.35072,"is_reserved":false,"is_disabled":false,"rental_uris":{"android":"levelo://app?vid=52467ef2-bb23-4d5a-aebd-2782338dc161","ios":"levelo://app?vid=52467ef2-bb23-4d5a-aebd-2782338dc161"},"vehicle_type_id":"4","last_reported":1744628885,"current_range_meters":10000,"station_id":"st_cvj6sg6p6f1abm77japg","pricing_plan_id":"cebpf4jnsgd1na2vs0mg"},{"bike_id":"a92d32b7-3eb3-4558-8c61-0436825bb550","system_id":"levelo_inurba_marseille","lat":43.31494,"lon":5.37325,"is_reserved":false,"is_disabled":false,"rental_uris":{"android":"levelo://app?vid=a92d32b7-3eb3-4558-8c61-0436825bb550","ios":"levelo://app?vid=a92d32b7-3eb3-4558-8c61-0436825bb550"},"vehicle_type_id":"4","last_reported":1744628885,"current_range_meters":10000,"station_id":"ce4bgt12rcd13ifvqcd0","pricing_plan_id":"cebpf4jnsgd1na2vs0mg"},{"bike_id":"60041c94-72b6-472a-8215-c9aa6d5787e3","system_id":"levelo_inurba_marseille","lat":43.30461,"lon":5.3791,"is_reserved":false,"is_disabled":false,"rental_uris":{"android":"levelo://app?vid=60041c94-72b6-472a-8215-c9aa6d5787e3","ios":"levelo://app?vid=60041c94-72b6-472a-8215-c9aa6d5787e3"},"vehicle_type_id":"4","last_reported":1744628885,"current_range_meters":10000,"station_id":"ce4bgup2rcd13ifvqcn0","pricing_plan_id":"cebpf4jnsgd1na2vs0mg"},{"bike_id":"0d8bdb10-2148-468c-be8d-fbb7185ec7c9","system_id":"levelo_inurba_marseille","lat":43.2316,"lon":5.43709,"is_reserved":false,"is_disabled":false,"rental_uris":{"android":"levelo://app?vid=0d8bdb10-2148-468c-be8d-fbb7185ec7c9","ios":"levelo://app?vid=0d8bdb10-2148-468c-be8d-fbb7185ec7c9"},"vehicle_type_id":"4","last_reported":1744628885,"current_range_meters":10800,"station_id":"ce4bhmp2rcd13ifvqgog","pricing_plan_id":"cebpf4jnsgd1na2vs0mg"},{"bike_id":"6471a2bb-b45f-450b-a1e7-e7ecee005728","system_id":"levelo_inurba_marseille","lat":43.27375,"lon":5.36258,"is_reserved":false,"is_disabled":false,"rental_uris":{"android":"levelo://app?vid=6471a2bb-b45f-450b-a1e7-e7ecee005728","ios":"levelo://app?vid=6471a2bb-b45f-450b-a1e7-e7ecee005728"},"vehicle_type_id":"4","last_reported":1744628885,"current_range_meters":10000,"station_id":"ce4bhbh2rcd13ifvqeo0","pricing_plan_id":"cebpf4jnsgd1na2vs0mg"},{"bike_id":"e931a8f5-1078-4a04-a56d-8cfff48676c5","system_id":"levelo_inurba_marseille","lat":43.26946,"lon":5.40268,"is_reserved":false,"is_disabled":true,"rental_uris":{"android":"levelo://app?vid=e931a8f5-1078-4a04-a56d-8cfff48676c5","ios":"levelo://app?vid=e931a8f5-1078-4a04-a56d-8cfff48676c5"},"vehicle_type_id":"4","last_reported":1744628885,"current_range_meters":10800,"station_id":"cjm6bp8fraef2m0cb0m0","pricing_plan_id":"cebpf4jnsgd1na2vs0mg"},{"bike_id":"650ca47c-8781-4e15-bc6b-cf7deccdeb32","system_id":"levelo_inurba_marseille","lat":43.29576,"lon":5.37513,"is_reserved":false,"is_disabled":true,"rental_uris":{"android":"levelo://app?vid=650ca47c-8781-4e15-bc6b-cf7deccdeb32","ios":"levelo://app?vid=650ca47c-8781-4e15-bc6b-cf7deccdeb32"},"vehicle_type_id":"4","last_reported":1744628885,"current_range_meters":10800,"station_id":"ce4bgh92rcd13ifvqb50","pricing_plan_id":"cebpf4jnsgd1na2vs0mg"},{"bike_id":"f14a9dcf-6f46-45d8-b7eb-d820f4be50b1","system_id":"levelo_inurba_marseille","lat":43.25725,"lon":5.41108,"is_reserved":false,"is_disabled":false,"rental_uris":{"android":"levelo://app?vid=f14a9dcf-6f46-45d8-b7eb-d820f4be50b1","ios":"levelo://app?vid=f14a9dcf-6f46-45d8-b7eb-d820f4be50b1"},"vehicle_type_id":"4","last_reported":1744628885,"current_range_meters":11200,"station_id":"ce4bhkp2rcd13ifvqgd0","pricing_plan_id":"cebpf4jnsgd1na2vs0mg"},{"bike_id":"baf2a1e6-8572-41ea-a7aa-7e85b0540488","system_id":"levelo_inurba_marseille","lat":43.21193,"lon":5.35073,"is_reserved":false,"is_disabled":false,"rental_uris":{"android":"levelo://app?vid=baf2a1e6-8572-41ea-a7aa-7e85b0540488","ios":"levelo://app?vid=baf2a1e6-8572-41ea-a7aa-7e85b0540488"},"vehicle_type_id":"4","last_reported":1744628885,"current_range_meters":12000,"station_id":"st_cvj6sg6p6f1abm77japg","pricing_plan_id":"cebpf4jnsgd1na2vs0mg"},{"bike_id":"51015699-3c69-4bcc-90c0-ad1b51454d9d","system_id":"levelo_inurba_marseille","lat":43.30119,"lon":5.39876,"is_reserved":false,"is_disabled":false,"rental_uris":{"android":"levelo://app?vid=51015699-3c69-4bcc-90c0-ad1b51454d9d","ios":"levelo://app?vid=51015699-3c69-4bcc-90c0-ad1b51454d9d"},"vehicle_type_id":"4","last_reported":1744628885,"current_range_meters":12000,"station_id":"ce4bh0h2rcd13ifvqd40","pricing_plan_id":"cebpf4jnsgd1na2vs0mg"},{"bike_id":"37209aa0-4eef-4869-91b7-2a64df8e4451","system_id":"levelo_inurba_marseille","lat":43.30465,"lon":5.37882,"is_reserved":false,"is_disabled":false,"rental_uris":{"android":"levelo://app?vid=37209aa0-4eef-4869-91b7-2a64df8e4451","ios":"levelo://app?vid=37209aa0-4eef-4869-91b7-2a64df8e4451"},"vehicle_type_id":"4","last_reported":1744628885,"current_range_meters":12400,"station_id":"ce4bgup2rcd13ifvqcn0","pricing_plan_id":"cebpf4jnsgd1na2vs0mg"},{"bike_id":"2263131a-ceaf-472f-b821-6c2aebaa55cb","system_id":"levelo_inurba_marseille","lat":43.29525,"lon":5.39045,"is_reserved":false,"is_disabled":false,"rental_uris":{"android":"levelo://app?vid=2263131a-ceaf-472f-b821-6c2aebaa55cb","ios":"levelo://app?vid=2263131a-ceaf-472f-b821-6c2aebaa55cb"},"vehicle_type_id":"4","last_reported":1744628885,"current_range_meters":12400,"station_id":"ce4bh3p2rcd13ifvqdp0","pricing_plan_id":"cebpf4jnsgd1na2vs0mg"},{"bike_id":"13a0096e-957b-4511-b9e7-f78b46bbee33","system_id":"levelo_inurba_marseille","lat":43.30089,"lon":5.39095,"is_reserved":false,"is_disabled":false,"rental_uris":{"android":"levelo://app?vid=13a0096e-957b-4511-b9e7-f78b46bbee33","ios":"levelo://app?vid=13a0096e-957b-4511-b9e7-f78b46bbee33"},"vehicle_type_id":"4","last_reported":1744628885,"current_range_meters":12000,"station_id":"ce4bh192rcd13ifvqdb0","pricing_plan_id":"cebpf4jnsgd1na2vs0mg"},{"bike_id":"4d03f4d1-29cb-4c72-abb0-39b325e5dc63","system_id":"levelo_inurba_marseille","lat":43.29087,"lon":5.38155,"is_reserved":false,"is_disabled":false,"rental_uris":{"android":"levelo://app?vid=4d03f4d1-29cb-4c72-abb0-39b325e5dc63","ios":"levelo://app?vid=4d03f4d1-29cb-4c72-abb0-39b325e5dc63"},"vehicle_type_id":"4","last_reported":1744628885,"current_range_meters":12000,"station_id":"ce4bh512rcd13ifvqe2g","pricing_plan_id":"cebpf4jnsgd1na2vs0mg"},{"bike_id":"29009a2a-c2a4-49bd-94bc-e9fadb28c34a","system_id":"levelo_inurba_marseille","lat":43.31881,"lon":5.40737,"is_reserved":false,"is_disabled":false,"rental_uris":{"android":"levelo://app?vid=29009a2a-c2a4-49bd-94bc-e9fadb28c34a","ios":"levelo://app?vid=29009a2a-c2a4-49bd-94bc-e9fadb28c34a"},"vehicle_type_id":"4","last_reported":1744628885,"current_range_meters":12000,"station_id":"ce4bhq12rcd13ifvqhig","pricing_plan_id":"cebpf4jnsgd1na2vs0mg"},{"bike_id":"ab25c2fd-d40e-4278-b08f-3a702154e771","system_id":"levelo_inurba_marseille","lat":43.3016,"lon":5.3809,"is_reserved":false,"is_disabled":false,"rental_uris":{"android":"levelo://app?vid=ab25c2fd-d40e-4278-b08f-3a702154e771","ios":"levelo://app?vid=ab25c2fd-d40e-4278-b08f-3a702154e771"},"vehicle_type_id":"4","last_reported":1744628885,"current_range_meters":13600,"station_id":"ce4bgjp2rcd13ifvqbh0","pricing_plan_id":"cebpf4jnsgd1na2vs0mg"},{"bike_id":"34bdf589-744f-4fe4-af1b-91b4155cb538","system_id":"levelo_inurba_marseille","lat":43.30188,"lon":5.37364,"is_reserved":false,"is_disabled":false,"rental_uris":{"android":"levelo://app?vid=34bdf589-744f-4fe4-af1b-91b4155cb538","ios":"levelo://app?vid=34bdf589-744f-4fe4-af1b-91b4155cb538"},"vehicle_type_id":"4","last_reported":1744628885,"current_range_meters":13600,"station_id":"","pricing_plan_id":"cebpf4jnsgd1na2vs0mg"},{"bike_id":"4e295450-c88d-4ce0-ab4e-7dbc9e427511","system_id":"levelo_inurba_marseille","lat":43.30308,"lon":5.3687,"is_reserved":false,"is_disabled":false,"rental_uris":{"android":"levelo://app?vid=4e295450-c88d-4ce0-ab4e-7dbc9e427511","ios":"levelo://app?vid=4e295450-c88d-4ce0-ab4e-7dbc9e427511"},"vehicle_type_id":"4","last_reported":1744628885,"current_range_meters":14000,"station_id":"ce4bgqh2rcd13ifvqc5g","pricing_plan_id":"cebpf4jnsgd1na2vs0mg"},{"bike_id":"d2f6a288-7d44-4be4-b798-932022d90e9d","system_id":"levelo_inurba_marseille","lat":43.30285,"lon":5.377,"is_reserved":false,"is_disabled":false,"rental_uris":{"android":"levelo://app?vid=d2f6a288-7d44-4be4-b798-932022d90e9d","ios":"levelo://app?vid=d2f6a288-7d44-4be4-b798-932022d90e9d"},"vehicle_type_id":"4","last_reported":1744628885,"current_range_meters":14000,"station_id":"ce4bguh2rcd13ifvqcj0","pricing_plan_id":"cebpf4jnsgd1na2vs0mg"},{"bike_id":"54119146-fe1e-4edc-a2c1-2dd033be7bad","system_id":"levelo_inurba_marseille","lat":43.28614,"lon":5.35113,"is_reserved":false,"is_disabled":false,"rental_uris":{"android":"levelo://app?vid=54119146-fe1e-4edc-a2c1-2dd033be7bad","ios":"levelo://app?vid=54119146-fe1e-4edc-a2c1-2dd033be7bad"},"vehicle_type_id":"4","last_reported":1744628885,"current_range_meters":14000,"station_id":"ce4bhch2rcd13ifvqeug","pricing_plan_id":"cebpf4jnsgd1na2vs0mg"},{"bike_id":"7fb0ba58-d66d-4fb7-ae20-fd1fad45cef2","system_id":"levelo_inurba_marseille","lat":43.21748,"lon":5.34602,"is_reserved":false,"is_disabled":false,"rental_uris":{"android":"levelo://app?vid=7fb0ba58-d66d-4fb7-ae20-fd1fad45cef2","ios":"levelo://app?vid=7fb0ba58-d66d-4fb7-ae20-fd1fad45cef2"},"vehicle_type_id":"4","last_reported":1744628885,"current_range_meters":14000,"station_id":"st_cvj6r9ubvosntc0bgbag","pricing_plan_id":"cebpf4jnsgd1na2vs0mg"},{"bike_id":"998dc2d9-9b8d-412d-8460-e11889487761","system_id":"levelo_inurba_marseille","lat":43.293,"lon":5.37463,"is_reserved":false,"is_disabled":false,"rental_uris":{"android":"levelo://app?vid=998dc2d9-9b8d-412d-8460-e11889487761","ios":"levelo://app?vid=998dc2d9-9b8d-412d-8460-e11889487761"},"vehicle_type_id":"4","last_reported":1744628885,"current_range_meters":14000,"station_id":"ce4bgi12rcd13ifvqb70","pricing_plan_id":"cebpf4jnsgd1na2vs0mg"},{"bike_id":"5418d109-d00b-4f33-abb8-1ad5dbc1c1ea","system_id":"levelo_inurba_marseille","lat":43.23145,"lon":5.43714,"is_reserved":false,"is_disabled":false,"rental_uris":{"android":"levelo://app?vid=5418d109-d00b-4f33-abb8-1ad5dbc1c1ea","ios":"levelo://app?vid=5418d109-d00b-4f33-abb8-1ad5dbc1c1ea"},"vehicle_type_id":"4","last_reported":1744628885,"current_range_meters":14400,"station_id":"ce4bhmp2rcd13ifvqgog","pricing_plan_id":"cebpf4jnsgd1na2vs0mg"},{"bike_id":"fb13c941-1858-46a4-86ad-2a5e302996c3","system_id":"levelo_inurba_marseille","lat":43.25861,"lon":5.39898,"is_reserved":false,"is_disabled":true,"rental_uris":{"android":"levelo://app?vid=fb13c941-1858-46a4-86ad-2a5e302996c3","ios":"levelo://app?vid=fb13c941-1858-46a4-86ad-2a5e302996c3"},"vehicle_type_id":"4","last_reported":1744628885,"current_range_meters":14400,"station_id":"ce4bhl92rcd13ifvqghg","pricing_plan_id":"cebpf4jnsgd1na2vs0mg"},{"bike_id":"9032fd9f-8258-4b06-828f-3216c8110290","system_id":"levelo_inurba_marseille","lat":43.31002,"lon":5.41723,"is_reserved":false,"is_disabled":true,"rental_uris":{"android":"levelo://app?vid=9032fd9f-8258-4b06-828f-3216c8110290","ios":"levelo://app?vid=9032fd9f-8258-4b06-828f-3216c8110290"},"vehicle_type_id":"4","last_reported":1744628885,"current_range_meters":14400,"station_id":"","pricing_plan_id":"cebpf4jnsgd1na2vs0mg"},{"bike_id":"5badbb30-e7bf-4735-8929-7b4b101f03b1","system_id":"levelo_inurba_marseille","lat":43.24171,"lon":5.36403,"is_reserved":false,"is_disabled":false,"rental_uris":{"android":"levelo://app?vid=5badbb30-e7bf-4735-8929-7b4b101f03b1","ios":"levelo://app?vid=5badbb30-e7bf-4735-8929-7b4b101f03b1"},"vehicle_type_id":"4","last_reported":1744628885,"current_range_meters":14800,"station_id":"cpo36qri1sfpv3e86is0","pricing_plan_id":"cebpf4jnsgd1na2vs0mg"},{"bike_id":"d40b5a00-f40e-4a32-8d81-bc42e6201f22","system_id":"levelo_inurba_marseille","lat":43.29261,"lon":5.38444,"is_reserved":false,"is_disabled":false,"rental_uris":{"android":"levelo://app?vid=d40b5a00-f40e-4a32-8d81-bc42e6201f22","ios":"levelo://app?vid=d40b5a00-f40e-4a32-8d81-bc42e6201f22"},"vehicle_type_id":"4","last_reported":1744628885,"current_range_meters":14800,"station_id":"ce4bh692rcd13ifvqea0","pricing_plan_id":"cebpf4jnsgd1na2vs0mg"},{"bike_id":"216a8464-4ea5-4b56-8cd6-224becea39c4","system_id":"levelo_inurba_marseille","lat":43.27799,"lon":5.40671,"is_reserved":false,"is_disabled":false,"rental_uris":{"android":"levelo://app?vid=216a8464-4ea5-4b56-8cd6-224becea39c4","ios":"levelo://app?vid=216a8464-4ea5-4b56-8cd6-224becea39c4"},"vehicle_type_id":"4","last_reported":1744628885,"current_range_meters":14800,"station_id":"ce4bhnh2rcd13ifvqgtg","pricing_plan_id":"cebpf4jnsgd1na2vs0mg"},{"bike_id":"8fa1822e-3b07-4b95-aa9e-47c5187cdff9","system_id":"levelo_inurba_marseille","lat":43.27312,"lon":5.39086,"is_reserved":false,"is_disabled":false,"rental_uris":{"android":"levelo://app?vid=8fa1822e-3b07-4b95-aa9e-47c5187cdff9","ios":"levelo://app?vid=8fa1822e-3b07-4b95-aa9e-47c5187cdff9"},"vehicle_type_id":"4","last_reported":1744628885,"current_range_meters":14800,"station_id":"ce4bhgp2rcd13ifvqfe0","pricing_plan_id":"cebpf4jnsgd1na2vs0mg"},{"bike_id":"f30109d2-2f4a-489f-baa1-7cfdb1698d80","system_id":"levelo_inurba_marseille","lat":43.29618,"lon":5.37163,"is_reserved":false,"is_disabled":false,"rental_uris":{"android":"levelo://app?vid=f30109d2-2f4a-489f-baa1-7cfdb1698d80","ios":"levelo://app?vid=f30109d2-2f4a-489f-baa1-7cfdb1698d80"},"vehicle_type_id":"4","last_reported":1744628885,"current_range_meters":14800,"station_id":"ce4bgnh2rcd13ifvqc0g","pricing_plan_id":"cebpf4jnsgd1na2vs0mg"},{"bike_id":"a4c8939e-6d85-4fed-a587-6669e893ebab","system_id":"levelo_inurba_marseille","lat":43.23154,"lon":5.43707,"is_reserved":false,"is_disabled":false,"rental_uris":{"android":"levelo://app?vid=a4c8939e-6d85-4fed-a587-6669e893ebab","ios":"levelo://app?vid=a4c8939e-6d85-4fed-a587-6669e893ebab"},"vehicle_type_id":"4","last_reported":1744628885,"current_range_meters":14800,"station_id":"ce4bhmp2rcd13ifvqgog","pricing_plan_id":"cebpf4jnsgd1na2vs0mg"},{"bike_id":"662e8eb5-9e87-4564-a16d-ff5a8c0dc638","system_id":"levelo_inurba_marseille","lat":43.326624,"lon":5.409958,"is_reserved":false,"is_disabled":false,"rental_uris":{"android":"levelo://app?vid=662e8eb5-9e87-4564-a16d-ff5a8c0dc638","ios":"levelo://app?vid=662e8eb5-9e87-4564-a16d-ff5a8c0dc638"},"vehicle_type_id":"4","last_reported":1744628885,"current_range_meters":15200,"station_id":"ce4bhpp2rcd13ifvqhgg","pricing_plan_id":"cebpf4jnsgd1na2vs0mg"},{"bike_id":"0bd74514-075c-4332-8717-eaf12dfff18e","system_id":"levelo_inurba_marseille","lat":43.298548,"lon":5.362848,"is_reserved":false,"is_disabled":false,"rental_uris":{"android":"levelo://app?vid=0bd74514-075c-4332-8717-eaf12dfff18e","ios":"levelo://app?vid=0bd74514-075c-4332-8717-eaf12dfff18e"},"vehicle_type_id":"4","last_reported":1744628885,"current_range_meters":15200,"station_id":"ce4bgpp2rcd13ifvqc3g","pricing_plan_id":"cebpf4jnsgd1na2vs0mg"},{"bike_id":"27a55245-8dd2-4f1a-af63-95a9d7b71690","system_id":"levelo_inurba_marseille","lat":43.31064,"lon":5.37863,"is_reserved":false,"is_disabled":true,"rental_uris":{"android":"levelo://app?vid=27a55245-8dd2-4f1a-af63-95a9d7b71690","ios":"levelo://app?vid=27a55245-8dd2-4f1a-af63-95a9d7b71690"},"vehicle_type_id":"4","last_reported":1744628885,"current_range_meters":15200,"station_id":"","pricing_plan_id":"cebpf4jnsgd1na2vs0mg"},{"bike_id":"e0f3280e-5150-40b7-af48-087b12aa049d","system_id":"levelo_inurba_marseille","lat":43.27835,"lon":5.39207,"is_reserved":false,"is_disabled":false,"rental_uris":{"android":"levelo://app?vid=e0f3280e-5150-40b7-af48-087b12aa049d","ios":"levelo://app?vid=e0f3280e-5150-40b7-af48-087b12aa049d"},"vehicle_type_id":"4","last_reported":1744628885,"current_range_meters":16000,"station_id":"ce4bhjp2rcd13ifvqga0","pricing_plan_id":"cebpf4jnsgd1na2vs0mg"},{"bike_id":"2700ba75-2a72-4bb5-aff7-02b480c7e34c","system_id":"levelo_inurba_marseille","lat":43.30593,"lon":5.37226,"is_reserved":false,"is_disabled":false,"rental_uris":{"android":"levelo://app?vid=2700ba75-2a72-4bb5-aff7-02b480c7e34c","ios":"levelo://app?vid=2700ba75-2a72-4bb5-aff7-02b480c7e34c"},"vehicle_type_id":"4","last_reported":1744628885,"current_range_meters":15200,"station_id":"ce4bgqh2rcd13ifvqc4g","pricing_plan_id":"cebpf4jnsgd1na2vs0mg"},{"bike_id":"907403d0-f569-4f67-becc-1c6bc89570fa","system_id":"levelo_inurba_marseille","lat":43.29278,"lon":5.40111,"is_reserved":false,"is_disabled":false,"rental_uris":{"android":"levelo://app?vid=907403d0-f569-4f67-becc-1c6bc89570fa","ios":"levelo://app?vid=907403d0-f569-4f67-becc-1c6bc89570fa"},"vehicle_type_id":"4","last_reported":1744628885,"current_range_meters":16000,"station_id":"ce4bh312rcd13ifvqdk0","pricing_plan_id":"cebpf4jnsgd1na2vs0mg"},{"bike_id":"61377ee4-fd99-4c2f-b5ad-a5ac167d945b","system_id":"levelo_inurba_marseille","lat":43.23165,"lon":5.43689,"is_reserved":false,"is_disabled":false,"rental_uris":{"android":"levelo://app?vid=61377ee4-fd99-4c2f-b5ad-a5ac167d945b","ios":"levelo://app?vid=61377ee4-fd99-4c2f-b5ad-a5ac167d945b"},"vehicle_type_id":"4","last_reported":1744628885,"current_range_meters":16000,"station_id":"ce4bhmp2rcd13ifvqgog","pricing_plan_id":"cebpf4jnsgd1na2vs0mg"},{"bike_id":"4bde7ac1-16a4-4691-a3fc-be036661e2eb","system_id":"levelo_inurba_marseille","lat":43.24196,"lon":5.36383,"is_reserved":false,"is_disabled":false,"rental_uris":{"android":"levelo://app?vid=4bde7ac1-16a4-4691-a3fc-be036661e2eb","ios":"levelo://app?vid=4bde7ac1-16a4-4691-a3fc-be036661e2eb"},"vehicle_type_id":"4","last_reported":1744628885,"current_range_meters":16400,"station_id":"cpo36qri1sfpv3e86is0","pricing_plan_id":"cebpf4jnsgd1na2vs0mg"},{"bike_id":"d5a25843-a862-432c-b9b2-e2627b892a44","system_id":"levelo_inurba_marseille","lat":43.31377,"lon":5.36725,"is_reserved":false,"is_disabled":false,"rental_uris":{"android":"levelo://app?vid=d5a25843-a862-432c-b9b2-e2627b892a44","ios":"levelo://app?vid=d5a25843-a862-432c-b9b2-e2627b892a44"},"vehicle_type_id":"4","last_reported":1744628885,"current_range_meters":16400,"station_id":"ce4bgr92rcd13ifvqc6g","pricing_plan_id":"cebpf4jnsgd1na2vs0mg"},{"bike_id":"31ad0aaf-c76b-4424-b2d1-5e6ff16af216","system_id":"levelo_inurba_marseille","lat":43.30956,"lon":5.39027,"is_reserved":false,"is_disabled":true,"rental_uris":{"android":"levelo://app?vid=31ad0aaf-c76b-4424-b2d1-5e6ff16af216","ios":"levelo://app?vid=31ad0aaf-c76b-4424-b2d1-5e6ff16af216"},"vehicle_type_id":"4","last_reported":1744628885,"current_range_meters":16400,"station_id":"ce4bgup2rcd13ifvqco0","pricing_plan_id":"cebpf4jnsgd1na2vs0mg"},{"bike_id":"d08e80fd-e4d9-4833-8121-f2a9ec1898a3","system_id":"levelo_inurba_marseille","lat":43.28418,"lon":5.37517,"is_reserved":false,"is_disabled":false,"rental_uris":{"android":"levelo://app?vid=d08e80fd-e4d9-4833-8121-f2a9ec1898a3","ios":"levelo://app?vid=d08e80fd-e4d9-4833-8121-f2a9ec1898a3"},"vehicle_type_id":"4","last_reported":1744628885,"current_range_meters":16000,"station_id":"ce4bh412rcd13ifvqds0","pricing_plan_id":"cebpf4jnsgd1na2vs0mg"},{"bike_id":"9481a4d4-998c-4242-822b-0b8fa3017440","system_id":"levelo_inurba_marseille","lat":43.28853,"lon":5.39318,"is_reserved":false,"is_disabled":true,"rental_uris":{"android":"levelo://app?vid=9481a4d4-998c-4242-822b-0b8fa3017440","ios":"levelo://app?vid=9481a4d4-998c-4242-822b-0b8fa3017440"},"vehicle_type_id":"4","last_reported":1744628885,"current_range_meters":16400,"station_id":"ce4bh2p2rcd13ifvqdi0","pricing_plan_id":"cebpf4jnsgd1na2vs0mg"},{"bike_id":"56135a82-d19f-45ea-a72c-58b1131d0fcb","system_id":"levelo_inurba_marseille","lat":43.28085,"lon":5.39668,"is_reserved":false,"is_disabled":true,"rental_uris":{"android":"levelo://app?vid=56135a82-d19f-45ea-a72c-58b1131d0fcb","ios":"levelo://app?vid=56135a82-d19f-45ea-a72c-58b1131d0fcb"},"vehicle_type_id":"4","last_reported":1744628885,"current_range_meters":16400,"station_id":"ce4bho12rcd13ifvqh2g","pricing_plan_id":"cebpf4jnsgd1na2vs0mg"},{"bike_id":"40db818b-5b9e-46bf-8274-264778958c39","system_id":"levelo_inurba_marseille","lat":43.23158,"lon":5.43699,"is_reserved":false,"is_disabled":false,"rental_uris":{"android":"levelo://app?vid=40db818b-5b9e-46bf-8274-264778958c39","ios":"levelo://app?vid=40db818b-5b9e-46bf-8274-264778958c39"},"vehicle_type_id":"4","last_reported":1744628885,"current_range_meters":16400,"station_id":"ce4bhmp2rcd13ifvqgog","pricing_plan_id":"cebpf4jnsgd1na2vs0mg"},{"bike_id":"7adddab7-923b-4462-b2a1-9f66441fc24d","system_id":"levelo_inurba_marseille","lat":43.30483,"lon":5.37913,"is_reserved":false,"is_disabled":false,"rental_uris":{"android":"levelo://app?vid=7adddab7-923b-4462-b2a1-9f66441fc24d","ios":"levelo://app?vid=7adddab7-923b-4462-b2a1-9f66441fc24d"},"vehicle_type_id":"4","last_reported":1744628885,"current_range_meters":16400,"station_id":"ce4bgup2rcd13ifvqcn0","pricing_plan_id":"cebpf4jnsgd1na2vs0mg"},{"bike_id":"82467333-b790-429c-b463-4c29e8ba8131","system_id":"levelo_inurba_marseille","lat":43.29777,"lon":5.39351,"is_reserved":false,"is_disabled":false,"rental_uris":{"android":"levelo://app?vid=82467333-b790-429c-b463-4c29e8ba8131","ios":"levelo://app?vid=82467333-b790-429c-b463-4c29e8ba8131"},"vehicle_type_id":"4","last_reported":1744628885,"current_range_meters":16800,"station_id":"chh1huq6cuj3fo74tm60","pricing_plan_id":"cebpf4jnsgd1na2vs0mg"},{"bike_id":"4c7e3872-2a7d-46f3-b581-3ef46671ef50","system_id":"levelo_inurba_marseille","lat":43.26817,"lon":5.40255,"is_reserved":false,"is_disabled":false,"rental_uris":{"android":"levelo://app?vid=4c7e3872-2a7d-46f3-b581-3ef46671ef50","ios":"levelo://app?vid=4c7e3872-2a7d-46f3-b581-3ef46671ef50"},"vehicle_type_id":"4","last_reported":1744628885,"current_range_meters":16800,"station_id":"ce501612rcd8frsf0b60","pricing_plan_id":"cebpf4jnsgd1na2vs0mg"},{"bike_id":"a818834f-725d-4dbb-9bab-d3518b1b13c4","system_id":"levelo_inurba_marseille","lat":43.32366,"lon":5.36763,"is_reserved":false,"is_disabled":false,"rental_uris":{"android":"levelo://app?vid=a818834f-725d-4dbb-9bab-d3518b1b13c4","ios":"levelo://app?vid=a818834f-725d-4dbb-9bab-d3518b1b13c4"},"vehicle_type_id":"4","last_reported":1744628885,"current_range_meters":16800,"station_id":"ce4bhsh2rcd13ifvqi2g","pricing_plan_id":"cebpf4jnsgd1na2vs0mg"},{"bike_id":"7068e823-0ef7-4bec-9d46-9774d9ea3ba0","system_id":"levelo_inurba_marseille","lat":43.31477,"lon":5.37289,"is_reserved":false,"is_disabled":false,"rental_uris":{"android":"levelo://app?vid=7068e823-0ef7-4bec-9d46-9774d9ea3ba0","ios":"levelo://app?vid=7068e823-0ef7-4bec-9d46-9774d9ea3ba0"},"vehicle_type_id":"4","last_reported":1744628885,"current_range_meters":16800,"station_id":"ce4bgt12rcd13ifvqcd0","pricing_plan_id":"cebpf4jnsgd1na2vs0mg"},{"bike_id":"08e69920-6699-44a2-bf5e-065531bec167","system_id":"levelo_inurba_marseille","lat":43.29267,"lon":5.401,"is_reserved":false,"is_disabled":true,"rental_uris":{"android":"levelo://app?vid=08e69920-6699-44a2-bf5e-065531bec167","ios":"levelo://app?vid=08e69920-6699-44a2-bf5e-065531bec167"},"vehicle_type_id":"4","last_reported":1744628885,"current_range_meters":16800,"station_id":"ce4bh312rcd13ifvqdk0","pricing_plan_id":"cebpf4jnsgd1na2vs0mg"},{"bike_id":"78693eb5-85d1-4a0d-a9e3-05dcc0e2f9c9","system_id":"levelo_inurba_marseille","lat":43.29527,"lon":5.39055,"is_reserved":false,"is_disabled":false,"rental_uris":{"android":"levelo://app?vid=78693eb5-85d1-4a0d-a9e3-05dcc0e2f9c9","ios":"levelo://app?vid=78693eb5-85d1-4a0d-a9e3-05dcc0e2f9c9"},"vehicle_type_id":"4","last_reported":1744628885,"current_range_meters":17200,"station_id":"ce4bh3p2rcd13ifvqdp0","pricing_plan_id":"cebpf4jnsgd1na2vs0mg"},{"bike_id":"301f53d6-0a8d-48c7-b250-860880def1f4","system_id":"levelo_inurba_marseille","lat":43.31034,"lon":5.37116,"is_reserved":false,"is_disabled":false,"rental_uris":{"android":"levelo://app?vid=301f53d6-0a8d-48c7-b250-860880def1f4","ios":"levelo://app?vid=301f53d6-0a8d-48c7-b250-860880def1f4"},"vehicle_type_id":"4","last_reported":1744628885,"current_range_meters":17200,"station_id":"","pricing_plan_id":"cebpf4jnsgd1na2vs0mg"},{"bike_id":"98f1ad2d-9ddc-42d6-82bf-b6c56a8de94a","system_id":"levelo_inurba_marseille","lat":43.29598,"lon":5.37718,"is_reserved":false,"is_disabled":true,"rental_uris":{"android":"levelo://app?vid=98f1ad2d-9ddc-42d6-82bf-b6c56a8de94a","ios":"levelo://app?vid=98f1ad2d-9ddc-42d6-82bf-b6c56a8de94a"},"vehicle_type_id":"4","last_reported":1744628885,"current_range_meters":17200,"station_id":"ce4bgi92rcd13ifvqb90","pricing_plan_id":"cebpf4jnsgd1na2vs0mg"},{"bike_id":"8fd353aa-1c37-4075-bb73-f15eba51c75f","system_id":"levelo_inurba_marseille","lat":43.243923,"lon":5.370827,"is_reserved":false,"is_disabled":false,"rental_uris":{"android":"levelo://app?vid=8fd353aa-1c37-4075-bb73-f15eba51c75f","ios":"levelo://app?vid=8fd353aa-1c37-4075-bb73-f15eba51c75f"},"vehicle_type_id":"4","last_reported":1744628885,"current_range_meters":17200,"station_id":"ce4bhhh2rcd13ifvqfk0","pricing_plan_id":"cebpf4jnsgd1na2vs0mg"},{"bike_id":"85732ddb-8399-49d6-a41e-e00dbdf23169","system_id":"levelo_inurba_marseille","lat":43.32489,"lon":5.36585,"is_reserved":false,"is_disabled":false,"rental_uris":{"android":"levelo://app?vid=85732ddb-8399-49d6-a41e-e00dbdf23169","ios":"levelo://app?vid=85732ddb-8399-49d6-a41e-e00dbdf23169"},"vehicle_type_id":"4","last_reported":1744628885,"current_range_meters":17200,"station_id":"ce4bhs12rcd13ifvqhvg","pricing_plan_id":"cebpf4jnsgd1na2vs0mg"},{"bike_id":"91cd5f61-fcd7-440a-9c95-b35a968d1ead","system_id":"levelo_inurba_marseille","lat":43.25726,"lon":5.4113,"is_reserved":false,"is_disabled":false,"rental_uris":{"android":"levelo://app?vid=91cd5f61-fcd7-440a-9c95-b35a968d1ead","ios":"levelo://app?vid=91cd5f61-fcd7-440a-9c95-b35a968d1ead"},"vehicle_type_id":"4","last_reported":1744628885,"current_range_meters":17200,"station_id":"ce4bhkp2rcd13ifvqgd0","pricing_plan_id":"cebpf4jnsgd1na2vs0mg"},{"bike_id":"86507adb-43c1-4a89-acc7-c74cd80a099f","system_id":"levelo_inurba_marseille","lat":43.23123,"lon":5.36663,"is_reserved":false,"is_disabled":false,"rental_uris":{"android":"levelo://app?vid=86507adb-43c1-4a89-acc7-c74cd80a099f","ios":"levelo://app?vid=86507adb-43c1-4a89-acc7-c74cd80a099f"},"vehicle_type_id":"4","last_reported":1744628885,"current_range_meters":17200,"station_id":"","pricing_plan_id":"cebpf4jnsgd1na2vs0mg"},{"bike_id":"cae5cb7a-b5a0-4962-b670-708b44fc2a06","system_id":"levelo_inurba_marseille","lat":43.305486,"lon":5.365332,"is_reserved":false,"is_disabled":false,"rental_uris":{"android":"levelo://app?vid=cae5cb7a-b5a0-4962-b670-708b44fc2a06","ios":"levelo://app?vid=cae5cb7a-b5a0-4962-b670-708b44fc2a06"},"vehicle_type_id":"4","last_reported":1744628885,"current_range_meters":17200,"station_id":"ce4bgs12rcd13ifvqcag","pricing_plan_id":"cebpf4jnsgd1na2vs0mg"},{"bike_id":"8645c423-1e29-4e06-95ef-5e30c848bfa3","system_id":"levelo_inurba_marseille","lat":43.25868,"lon":5.39894,"is_reserved":false,"is_disabled":false,"rental_uris":{"android":"levelo://app?vid=8645c423-1e29-4e06-95ef-5e30c848bfa3","ios":"levelo://app?vid=8645c423-1e29-4e06-95ef-5e30c848bfa3"},"vehicle_type_id":"4","last_reported":1744628885,"current_range_meters":17600,"station_id":"ce4bhl92rcd13ifvqghg","pricing_plan_id":"cebpf4jnsgd1na2vs0mg"},{"bike_id":"ec55715f-50ef-4b62-b932-d89df8729be7","system_id":"levelo_inurba_marseille","lat":43.31575,"lon":5.38842,"is_reserved":false,"is_disabled":false,"rental_uris":{"android":"levelo://app?vid=ec55715f-50ef-4b62-b932-d89df8729be7","ios":"levelo://app?vid=ec55715f-50ef-4b62-b932-d89df8729be7"},"vehicle_type_id":"4","last_reported":1744628885,"current_range_meters":17600,"station_id":"","pricing_plan_id":"cebpf4jnsgd1na2vs0mg"},{"bike_id":"decf32ff-ed42-4d56-8260-f0c51b71e997","system_id":"levelo_inurba_marseille","lat":43.24183,"lon":5.39726,"is_reserved":false,"is_disabled":false,"rental_uris":{"android":"levelo://app?vid=decf32ff-ed42-4d56-8260-f0c51b71e997","ios":"levelo://app?vid=decf32ff-ed42-4d56-8260-f0c51b71e997"},"vehicle_type_id":"4","last_reported":1744628885,"current_range_meters":17600,"station_id":"ce4bhn12rcd13ifvqgpg","pricing_plan_id":"cebpf4jnsgd1na2vs0mg"},{"bike_id":"e0184a0d-bf9b-49ec-af1c-f28f638a51a0","system_id":"levelo_inurba_marseille","lat":43.30123,"lon":5.3879,"is_reserved":false,"is_disabled":false,"rental_uris":{"android":"levelo://app?vid=e0184a0d-bf9b-49ec-af1c-f28f638a51a0","ios":"levelo://app?vid=e0184a0d-bf9b-49ec-af1c-f28f638a51a0"},"vehicle_type_id":"4","last_reported":1744628885,"current_range_meters":18000,"station_id":"ce4bghh2rcd13ifvqb60","pricing_plan_id":"cebpf4jnsgd1na2vs0mg"},{"bike_id":"7b11de61-3c6a-4d33-88ee-7dfddbdbd4ba","system_id":"levelo_inurba_marseille","lat":43.24177,"lon":5.39729,"is_reserved":false,"is_disabled":false,"rental_uris":{"android":"levelo://app?vid=7b11de61-3c6a-4d33-88ee-7dfddbdbd4ba","ios":"levelo://app?vid=7b11de61-3c6a-4d33-88ee-7dfddbdbd4ba"},"vehicle_type_id":"4","last_reported":1744628885,"current_range_meters":18000,"station_id":"ce4bhn12rcd13ifvqgpg","pricing_plan_id":"cebpf4jnsgd1na2vs0mg"},{"bike_id":"82f5cf43-9f59-4ba5-9847-1b7ef8d186fb","system_id":"levelo_inurba_marseille","lat":43.267943,"lon":5.39416,"is_reserved":false,"is_disabled":false,"rental_uris":{"android":"levelo://app?vid=82f5cf43-9f59-4ba5-9847-1b7ef8d186fb","ios":"levelo://app?vid=82f5cf43-9f59-4ba5-9847-1b7ef8d186fb"},"vehicle_type_id":"4","last_reported":1744628885,"current_range_meters":18000,"station_id":"ce4bhh12rcd13ifvqfg0","pricing_plan_id":"cebpf4jnsgd1na2vs0mg"},{"bike_id":"e1cdcd88-4a6b-4a95-887f-82f9936440ef","system_id":"levelo_inurba_marseille","lat":43.325448,"lon":5.414517,"is_reserved":false,"is_disabled":false,"rental_uris":{"android":"levelo://app?vid=e1cdcd88-4a6b-4a95-887f-82f9936440ef","ios":"levelo://app?vid=e1cdcd88-4a6b-4a95-887f-82f9936440ef"},"vehicle_type_id":"4","last_reported":1744628885,"current_range_meters":18000,"station_id":"ce4bhq12rcd13ifvqhhg","pricing_plan_id":"cebpf4jnsgd1na2vs0mg"},{"bike_id":"9ccaf1e8-d14c-4218-be36-430bac425c11","system_id":"levelo_inurba_marseille","lat":43.30604,"lon":5.39339,"is_reserved":false,"is_disabled":true,"rental_uris":{"android":"levelo://app?vid=9ccaf1e8-d14c-4218-be36-430bac425c11","ios":"levelo://app?vid=9ccaf1e8-d14c-4218-be36-430bac425c11"},"vehicle_type_id":"4","last_reported":1744628885,"current_range_meters":18000,"station_id":"ce4bh0p2rcd13ifvqd80","pricing_plan_id":"cebpf4jnsgd1na2vs0mg"},{"bike_id":"b813909c-20f7-48cd-a01a-c3c5e63836b9","system_id":"levelo_inurba_marseille","lat":43.31051,"lon":5.37109,"is_reserved":false,"is_disabled":false,"rental_uris":{"android":"levelo://app?vid=b813909c-20f7-48cd-a01a-c3c5e63836b9","ios":"levelo://app?vid=b813909c-20f7-48cd-a01a-c3c5e63836b9"},"vehicle_type_id":"4","last_reported":1744628885,"current_range_meters":18000,"station_id":"","pricing_plan_id":"cebpf4jnsgd1na2vs0mg"},{"bike_id":"f6d1e3b3-0fb2-4485-bd36-7044edc7d543","system_id":"levelo_inurba_marseille","lat":43.27994,"lon":5.40006,"is_reserved":false,"is_disabled":false,"rental_uris":{"android":"levelo://app?vid=f6d1e3b3-0fb2-4485-bd36-7044edc7d543","ios":"levelo://app?vid=f6d1e3b3-0fb2-4485-bd36-7044edc7d543"},"vehicle_type_id":"4","last_reported":1744628885,"current_range_meters":17600,"station_id":"ce4bho92rcd13ifvqh4g","pricing_plan_id":"cebpf4jnsgd1na2vs0mg"},{"bike_id":"1db2c28a-e0ef-4f48-818f-eb01d86707b7","system_id":"levelo_inurba_marseille","lat":43.29251,"lon":5.40902,"is_reserved":false,"is_disabled":true,"rental_uris":{"android":"levelo://app?vid=1db2c28a-e0ef-4f48-818f-eb01d86707b7","ios":"levelo://app?vid=1db2c28a-e0ef-4f48-818f-eb01d86707b7"},"vehicle_type_id":"4","last_reported":1744628885,"current_range_meters":18000,"station_id":"ce4bh192rcd13ifvqdc0","pricing_plan_id":"cebpf4jnsgd1na2vs0mg"},{"bike_id":"382a1a40-cce5-4bcf-8677-ad51fb5a2457","system_id":"levelo_inurba_marseille","lat":43.28855,"lon":5.39308,"is_reserved":false,"is_disabled":true,"rental_uris":{"android":"levelo://app?vid=382a1a40-cce5-4bcf-8677-ad51fb5a2457","ios":"levelo://app?vid=382a1a40-cce5-4bcf-8677-ad51fb5a2457"},"vehicle_type_id":"4","last_reported":1744628885,"current_range_meters":18000,"station_id":"ce4bh2p2rcd13ifvqdi0","pricing_plan_id":"cebpf4jnsgd1na2vs0mg"},{"bike_id":"b6b1b30c-d184-448b-a73f-0f32940baf98","system_id":"levelo_inurba_marseille","lat":43.29774,"lon":5.39335,"is_reserved":false,"is_disabled":false,"rental_uris":{"android":"levelo://app?vid=b6b1b30c-d184-448b-a73f-0f32940baf98","ios":"levelo://app?vid=b6b1b30c-d184-448b-a73f-0f32940baf98"},"vehicle_type_id":"4","last_reported":1744628885,"current_range_meters":18800,"station_id":"chh1huq6cuj3fo74tm60","pricing_plan_id":"cebpf4jnsgd1na2vs0mg"},{"bike_id":"d071f3fc-b4c2-41a3-8922-180306498d8c","system_id":"levelo_inurba_marseille","lat":43.27312,"lon":5.39133,"is_reserved":false,"is_disabled":false,"rental_uris":{"android":"levelo://app?vid=d071f3fc-b4c2-41a3-8922-180306498d8c","ios":"levelo://app?vid=d071f3fc-b4c2-41a3-8922-180306498d8c"},"vehicle_type_id":"4","last_reported":1744628885,"current_range_meters":18800,"station_id":"ce4bhgp2rcd13ifvqfe0","pricing_plan_id":"cebpf4jnsgd1na2vs0mg"},{"bike_id":"5bd4080e-cdba-49c5-a829-9c3dae7d98e5","system_id":"levelo_inurba_marseille","lat":43.21771,"lon":5.34606,"is_reserved":false,"is_disabled":false,"rental_uris":{"android":"levelo://app?vid=5bd4080e-cdba-49c5-a829-9c3dae7d98e5","ios":"levelo://app?vid=5bd4080e-cdba-49c5-a829-9c3dae7d98e5"},"vehicle_type_id":"4","last_reported":1744628885,"current_range_meters":18800,"station_id":"st_cvj6r9ubvosntc0bgbag","pricing_plan_id":"cebpf4jnsgd1na2vs0mg"},{"bike_id":"d2d37f01-fa46-4fbc-a721-7789f4003663","system_id":"levelo_inurba_marseille","lat":43.2498,"lon":5.38974,"is_reserved":false,"is_disabled":false,"rental_uris":{"android":"levelo://app?vid=d2d37f01-fa46-4fbc-a721-7789f4003663","ios":"levelo://app?vid=d2d37f01-fa46-4fbc-a721-7789f4003663"},"vehicle_type_id":"4","last_reported":1744628885,"current_range_meters":18800,"station_id":"","pricing_plan_id":"cebpf4jnsgd1na2vs0mg"},{"bike_id":"d3ef79fd-6570-4243-bf7a-f37d60285df3","system_id":"levelo_inurba_marseille","lat":43.24175,"lon":5.36391,"is_reserved":false,"is_disabled":false,"rental_uris":{"android":"levelo://app?vid=d3ef79fd-6570-4243-bf7a-f37d60285df3","ios":"levelo://app?vid=d3ef79fd-6570-4243-bf7a-f37d60285df3"},"vehicle_type_id":"4","last_reported":1744628885,"current_range_meters":18800,"station_id":"cpo36qri1sfpv3e86is0","pricing_plan_id":"cebpf4jnsgd1na2vs0mg"},{"bike_id":"f6c8f6a9-e39a-4139-94fa-41f49afbecc9","system_id":"levelo_inurba_marseille","lat":43.30557,"lon":5.36498,"is_reserved":false,"is_disabled":false,"rental_uris":{"android":"levelo://app?vid=f6c8f6a9-e39a-4139-94fa-41f49afbecc9","ios":"levelo://app?vid=f6c8f6a9-e39a-4139-94fa-41f49afbecc9"},"vehicle_type_id":"4","last_reported":1744628885,"current_range_meters":18800,"station_id":"ce4bgs12rcd13ifvqcag","pricing_plan_id":"cebpf4jnsgd1na2vs0mg"},{"bike_id":"504ebeda-7a78-4e61-92b4-5aec980ab708","system_id":"levelo_inurba_marseille","lat":43.26589,"lon":5.39066,"is_reserved":false,"is_disabled":false,"rental_uris":{"android":"levelo://app?vid=504ebeda-7a78-4e61-92b4-5aec980ab708","ios":"levelo://app?vid=504ebeda-7a78-4e61-92b4-5aec980ab708"},"vehicle_type_id":"4","last_reported":1744628885,"current_range_meters":18800,"station_id":"","pricing_plan_id":"cebpf4jnsgd1na2vs0mg"},{"bike_id":"205a676e-388e-4b5d-b5d4-92bca6b76c07","system_id":"levelo_inurba_marseille","lat":43.31155,"lon":5.38016,"is_reserved":false,"is_disabled":true,"rental_uris":{"android":"levelo://app?vid=205a676e-388e-4b5d-b5d4-92bca6b76c07","ios":"levelo://app?vid=205a676e-388e-4b5d-b5d4-92bca6b76c07"},"vehicle_type_id":"4","last_reported":1744628885,"current_range_meters":18800,"station_id":"","pricing_plan_id":"cebpf4jnsgd1na2vs0mg"},{"bike_id":"019787ea-ff49-4651-a134-e2be3c835748","system_id":"levelo_inurba_marseille","lat":43.30538,"lon":5.36711,"is_reserved":false,"is_disabled":false,"rental_uris":{"android":"levelo://app?vid=019787ea-ff49-4651-a134-e2be3c835748","ios":"levelo://app?vid=019787ea-ff49-4651-a134-e2be3c835748"},"vehicle_type_id":"4","last_reported":1744628885,"current_range_meters":18800,"station_id":"ce4bgrp2rcd13ifvqc9g","pricing_plan_id":"cebpf4jnsgd1na2vs0mg"},{"bike_id":"8219ad35-60a5-47e6-a4b6-d3c1e9726111","system_id":"levelo_inurba_marseille","lat":43.268013,"lon":5.402657,"is_reserved":false,"is_disabled":false,"rental_uris":{"android":"levelo://app?vid=8219ad35-60a5-47e6-a4b6-d3c1e9726111","ios":"levelo://app?vid=8219ad35-60a5-47e6-a4b6-d3c1e9726111"},"vehicle_type_id":"4","last_reported":1744628885,"current_range_meters":19200,"station_id":"ce501612rcd8frsf0b60","pricing_plan_id":"cebpf4jnsgd1na2vs0mg"},{"bike_id":"1c60beeb-dd04-4a98-9bf2-8393d9fc0a86","system_id":"levelo_inurba_marseille","lat":43.25006,"lon":5.3894,"is_reserved":false,"is_disabled":false,"rental_uris":{"android":"levelo://app?vid=1c60beeb-dd04-4a98-9bf2-8393d9fc0a86","ios":"levelo://app?vid=1c60beeb-dd04-4a98-9bf2-8393d9fc0a86"},"vehicle_type_id":"4","last_reported":1744628885,"current_range_meters":19200,"station_id":"ce4bhgp2rcd13ifvqfd0","pricing_plan_id":"cebpf4jnsgd1na2vs0mg"},{"bike_id":"b3ea20ce-5604-45b6-ace7-cad39f4f56d5","system_id":"levelo_inurba_marseille","lat":43.29688,"lon":5.36365,"is_reserved":false,"is_disabled":false,"rental_uris":{"android":"levelo://app?vid=b3ea20ce-5604-45b6-ace7-cad39f4f56d5","ios":"levelo://app?vid=b3ea20ce-5604-45b6-ace7-cad39f4f56d5"},"vehicle_type_id":"4","last_reported":1744628885,"current_range_meters":19200,"station_id":"","pricing_plan_id":"cebpf4jnsgd1na2vs0mg"},{"bike_id":"8ba8da06-09b4-4e35-9af5-e823a105a352","system_id":"levelo_inurba_marseille","lat":43.23066,"lon":5.35497,"is_reserved":false,"is_disabled":false,"rental_uris":{"android":"levelo://app?vid=8ba8da06-09b4-4e35-9af5-e823a105a352","ios":"levelo://app?vid=8ba8da06-09b4-4e35-9af5-e823a105a352"},"vehicle_type_id":"4","last_reported":1744628885,"current_range_meters":19200,"station_id":"cpo3342slgdg3j2ifvpg","pricing_plan_id":"cebpf4jnsgd1na2vs0mg"},{"bike_id":"469cac9e-0c72-4c46-a796-98a152ab1135","system_id":"levelo_inurba_marseille","lat":43.23538,"lon":5.41346,"is_reserved":false,"is_disabled":false,"rental_uris":{"android":"levelo://app?vid=469cac9e-0c72-4c46-a796-98a152ab1135","ios":"levelo://app?vid=469cac9e-0c72-4c46-a796-98a152ab1135"},"vehicle_type_id":"4","last_reported":1744628885,"current_range_meters":19200,"station_id":"","pricing_plan_id":"cebpf4jnsgd1na2vs0mg"},{"bike_id":"9dd91eee-e815-4bfa-b592-f43501a2ac0d","system_id":"levelo_inurba_marseille","lat":43.304278,"lon":5.412847,"is_reserved":false,"is_disabled":false,"rental_uris":{"android":"levelo://app?vid=9dd91eee-e815-4bfa-b592-f43501a2ac0d","ios":"levelo://app?vid=9dd91eee-e815-4bfa-b592-f43501a2ac0d"},"vehicle_type_id":"4","last_reported":1744628885,"current_range_meters":19200,"station_id":"ce4bhop2rcd13ifvqh8g","pricing_plan_id":"cebpf4jnsgd1na2vs0mg"},{"bike_id":"8cfe48e6-9c2d-41c3-93b3-d50e95fb9e27","system_id":"levelo_inurba_marseille","lat":43.30883,"lon":5.37197,"is_reserved":false,"is_disabled":false,"rental_uris":{"android":"levelo://app?vid=8cfe48e6-9c2d-41c3-93b3-d50e95fb9e27","ios":"levelo://app?vid=8cfe48e6-9c2d-41c3-93b3-d50e95fb9e27"},"vehicle_type_id":"4","last_reported":1744628885,"current_range_meters":19200,"station_id":"ce4bguh2rcd13ifvqckg","pricing_plan_id":"cebpf4jnsgd1na2vs0mg"},{"bike_id":"fbacecab-fdbc-437f-ad37-ef07ea1c1eac","system_id":"levelo_inurba_marseille","lat":43.30531,"lon":5.36558,"is_reserved":false,"is_disabled":false,"rental_uris":{"android":"levelo://app?vid=fbacecab-fdbc-437f-ad37-ef07ea1c1eac","ios":"levelo://app?vid=fbacecab-fdbc-437f-ad37-ef07ea1c1eac"},"vehicle_type_id":"4","last_reported":1744628885,"current_range_meters":19600,"station_id":"ce4bgs12rcd13ifvqcag","pricing_plan_id":"cebpf4jnsgd1na2vs0mg"},{"bike_id":"c970a39a-c798-420d-8e5c-904e0565b92d","system_id":"levelo_inurba_marseille","lat":43.30298,"lon":5.39208,"is_reserved":false,"is_disabled":false,"rental_uris":{"android":"levelo://app?vid=c970a39a-c798-420d-8e5c-904e0565b92d","ios":"levelo://app?vid=c970a39a-c798-420d-8e5c-904e0565b92d"},"vehicle_type_id":"4","last_reported":1744628885,"current_range_meters":19600,"station_id":"ce4bgkh2rcd13ifvqbk0","pricing_plan_id":"cebpf4jnsgd1na2vs0mg"},{"bike_id":"d3a0e309-41d2-4981-b517-0536179b4cff","system_id":"levelo_inurba_marseille","lat":43.33607,"lon":5.41022,"is_reserved":false,"is_disabled":false,"rental_uris":{"android":"levelo://app?vid=d3a0e309-41d2-4981-b517-0536179b4cff","ios":"levelo://app?vid=d3a0e309-41d2-4981-b517-0536179b4cff"},"vehicle_type_id":"4","last_reported":1744628885,"current_range_meters":19600,"station_id":"ce4bhqh2rcd13ifvqhmg","pricing_plan_id":"cebpf4jnsgd1na2vs0mg"},{"bike_id":"fe3bbc1f-7f75-4eef-b028-c7730d1645d3","system_id":"levelo_inurba_marseille","lat":43.26188,"lon":5.4043,"is_reserved":false,"is_disabled":false,"rental_uris":{"android":"levelo://app?vid=fe3bbc1f-7f75-4eef-b028-c7730d1645d3","ios":"levelo://app?vid=fe3bbc1f-7f75-4eef-b028-c7730d1645d3"},"vehicle_type_id":"4","last_reported":1744628885,"current_range_meters":19600,"station_id":"ce4bhmh2rcd13ifvqgmg","pricing_plan_id":"cebpf4jnsgd1na2vs0mg"},{"bike_id":"25444e59-2ef5-4974-ad41-fc8a19a1b05d","system_id":"levelo_inurba_marseille","lat":43.255798,"lon":5.382251,"is_reserved":false,"is_disabled":false,"rental_uris":{"android":"levelo://app?vid=25444e59-2ef5-4974-ad41-fc8a19a1b05d","ios":"levelo://app?vid=25444e59-2ef5-4974-ad41-fc8a19a1b05d"},"vehicle_type_id":"4","last_reported":1744628885,"current_range_meters":20000,"station_id":"ce4bhmp2rcd13ifvqgog","pricing_plan_id":"cebpf4jnsgd1na2vs0mg"},{"bike_id":"6d88f9fb-a7ba-4505-b6a4-708c99dac981","system_id":"levelo_inurba_marseille","lat":43.2926,"lon":5.40899,"is_reserved":false,"is_disabled":false,"rental_uris":{"android":"levelo://app?vid=6d88f9fb-a7ba-4505-b6a4-708c99dac981","ios":"levelo://app?vid=6d88f9fb-a7ba-4505-b6a4-708c99dac981"},"vehicle_type_id":"4","last_reported":1744628885,"current_range_meters":20000,"station_id":"ce4bh192rcd13ifvqdc0","pricing_plan_id":"cebpf4jnsgd1na2vs0mg"},{"bike_id":"8ba444c2-d8e1-42ae-9dd8-6b48744e7629","system_id":"levelo_inurba_marseille","lat":43.3091,"lon":5.36669,"is_reserved":false,"is_disabled":true,"rental_uris":{"android":"levelo://app?vid=8ba444c2-d8e1-42ae-9dd8-6b48744e7629","ios":"levelo://app?vid=8ba444c2-d8e1-42ae-9dd8-6b48744e7629"},"vehicle_type_id":"4","last_reported":1744628885,"current_range_meters":20000,"station_id":"","pricing_plan_id":"cebpf4jnsgd1na2vs0mg"},{"bike_id":"9df69b56-f0f4-4cc6-ac76-6a1811f856aa","system_id":"levelo_inurba_marseille","lat":43.24805,"lon":5.37459,"is_reserved":false,"is_disabled":false,"rental_uris":{"android":"levelo://app?vid=9df69b56-f0f4-4cc6-ac76-6a1811f856aa","ios":"levelo://app?vid=9df69b56-f0f4-4cc6-ac76-6a1811f856aa"},"vehicle_type_id":"4","last_reported":1744628885,"current_range_meters":20000,"station_id":"ce4bhgh2rcd13ifvqfb0","pricing_plan_id":"cebpf4jnsgd1na2vs0mg"},{"bike_id":"69330968-31be-4072-8333-3419318ec490","system_id":"levelo_inurba_marseille","lat":43.29258,"lon":5.37625,"is_reserved":false,"is_disabled":false,"rental_uris":{"android":"levelo://app?vid=69330968-31be-4072-8333-3419318ec490","ios":"levelo://app?vid=69330968-31be-4072-8333-3419318ec490"},"vehicle_type_id":"4","last_reported":1744628885,"current_range_meters":20000,"station_id":"ce4bgi12rcd13ifvqb80","pricing_plan_id":"cebpf4jnsgd1na2vs0mg"},{"bike_id":"40e32cee-9c94-4ec8-8cc1-dfc745c5629a","system_id":"levelo_inurba_marseille","lat":43.24181,"lon":5.36394,"is_reserved":false,"is_disabled":false,"rental_uris":{"android":"levelo://app?vid=40e32cee-9c94-4ec8-8cc1-dfc745c5629a","ios":"levelo://app?vid=40e32cee-9c94-4ec8-8cc1-dfc745c5629a"},"vehicle_type_id":"4","last_reported":1744628885,"current_range_meters":20000,"station_id":"cpo36qri1sfpv3e86is0","pricing_plan_id":"cebpf4jnsgd1na2vs0mg"},{"bike_id":"41f001d3-31a8-4f18-98fd-480d3637133d","system_id":"levelo_inurba_marseille","lat":43.292643,"lon":5.384493,"is_reserved":false,"is_disabled":false,"rental_uris":{"android":"levelo://app?vid=41f001d3-31a8-4f18-98fd-480d3637133d","ios":"levelo://app?vid=41f001d3-31a8-4f18-98fd-480d3637133d"},"vehicle_type_id":"4","last_reported":1744628885,"current_range_meters":20400,"station_id":"ce4bh692rcd13ifvqea0","pricing_plan_id":"cebpf4jnsgd1na2vs0mg"},{"bike_id":"33f29b75-f4e6-4e71-a299-29a3904a9b72","system_id":"levelo_inurba_marseille","lat":43.34151,"lon":5.4091,"is_reserved":false,"is_disabled":false,"rental_uris":{"android":"levelo://app?vid=33f29b75-f4e6-4e71-a299-29a3904a9b72","ios":"levelo://app?vid=33f29b75-f4e6-4e71-a299-29a3904a9b72"},"vehicle_type_id":"4","last_reported":1744628885,"current_range_meters":20400,"station_id":"ce4bhqh2rcd13ifvqhlg","pricing_plan_id":"cebpf4jnsgd1na2vs0mg"},{"bike_id":"33fee0d6-be41-4eb8-ba49-0436c300cb71","system_id":"levelo_inurba_marseille","lat":43.31361,"lon":5.36713,"is_reserved":false,"is_disabled":false,"rental_uris":{"android":"levelo://app?vid=33fee0d6-be41-4eb8-ba49-0436c300cb71","ios":"levelo://app?vid=33fee0d6-be41-4eb8-ba49-0436c300cb71"},"vehicle_type_id":"4","last_reported":1744628885,"current_range_meters":20400,"station_id":"ce4bgr92rcd13ifvqc6g","pricing_plan_id":"cebpf4jnsgd1na2vs0mg"},{"bike_id":"063a4feb-f159-4598-aabd-f22df34edb42","system_id":"levelo_inurba_marseille","lat":43.2928,"lon":5.40114,"is_reserved":false,"is_disabled":false,"rental_uris":{"android":"levelo://app?vid=063a4feb-f159-4598-aabd-f22df34edb42","ios":"levelo://app?vid=063a4feb-f159-4598-aabd-f22df34edb42"},"vehicle_type_id":"4","last_reported":1744628885,"current_range_meters":20400,"station_id":"ce4bh312rcd13ifvqdk0","pricing_plan_id":"cebpf4jnsgd1na2vs0mg"},{"bike_id":"c876396c-8044-4b8d-908e-60e9823ea08d","system_id":"levelo_inurba_marseille","lat":43.29708,"lon":5.36618,"is_reserved":false,"is_disabled":false,"rental_uris":{"android":"levelo://app?vid=c876396c-8044-4b8d-908e-60e9823ea08d","ios":"levelo://app?vid=c876396c-8044-4b8d-908e-60e9823ea08d"},"vehicle_type_id":"4","last_reported":1744628885,"current_range_meters":20000,"station_id":"ce4bgn12rcd13ifvqbt0","pricing_plan_id":"cebpf4jnsgd1na2vs0mg"},{"bike_id":"e699cb84-72cc-499d-a4b3-9822d7456264","system_id":"levelo_inurba_marseille","lat":43.32497,"lon":5.36559,"is_reserved":false,"is_disabled":false,"rental_uris":{"android":"levelo://app?vid=e699cb84-72cc-499d-a4b3-9822d7456264","ios":"levelo://app?vid=e699cb84-72cc-499d-a4b3-9822d7456264"},"vehicle_type_id":"4","last_reported":1744628885,"current_range_meters":20800,"station_id":"ce4bhs12rcd13ifvqhvg","pricing_plan_id":"cebpf4jnsgd1na2vs0mg"},{"bike_id":"e2b5c1c3-8a61-4de4-a851-cf768b759e51","system_id":"levelo_inurba_marseille","lat":43.24181,"lon":5.39731,"is_reserved":false,"is_disabled":false,"rental_uris":{"android":"levelo://app?vid=e2b5c1c3-8a61-4de4-a851-cf768b759e51","ios":"levelo://app?vid=e2b5c1c3-8a61-4de4-a851-cf768b759e51"},"vehicle_type_id":"4","last_reported":1744628885,"current_range_meters":20800,"station_id":"ce4bhn12rcd13ifvqgpg","pricing_plan_id":"cebpf4jnsgd1na2vs0mg"},{"bike_id":"7f894daf-9bb3-46d8-b1d8-928133b97f69","system_id":"levelo_inurba_marseille","lat":43.29624,"lon":5.37166,"is_reserved":false,"is_disabled":false,"rental_uris":{"android":"levelo://app?vid=7f894daf-9bb3-46d8-b1d8-928133b97f69","ios":"levelo://app?vid=7f894daf-9bb3-46d8-b1d8-928133b97f69"},"vehicle_type_id":"4","last_reported":1744628885,"current_range_meters":20800,"station_id":"ce4bgnh2rcd13ifvqc0g","pricing_plan_id":"cebpf4jnsgd1na2vs0mg"},{"bike_id":"a4f5419a-50a0-419f-bbd9-3fd2e6b6f619","system_id":"levelo_inurba_marseille","lat":43.23149,"lon":5.43702,"is_reserved":false,"is_disabled":false,"rental_uris":{"android":"levelo://app?vid=a4f5419a-50a0-419f-bbd9-3fd2e6b6f619","ios":"levelo://app?vid=a4f5419a-50a0-419f-bbd9-3fd2e6b6f619"},"vehicle_type_id":"4","last_reported":1744628885,"current_range_meters":20800,"station_id":"ce4bhmp2rcd13ifvqgog","pricing_plan_id":"cebpf4jnsgd1na2vs0mg"},{"bike_id":"b179d169-8161-4023-a951-b6bbfea7a60d","system_id":"levelo_inurba_marseille","lat":43.29572,"lon":5.37519,"is_reserved":false,"is_disabled":false,"rental_uris":{"android":"levelo://app?vid=b179d169-8161-4023-a951-b6bbfea7a60d","ios":"levelo://app?vid=b179d169-8161-4023-a951-b6bbfea7a60d"},"vehicle_type_id":"4","last_reported":1744628885,"current_range_meters":20800,"station_id":"ce4bgh92rcd13ifvqb50","pricing_plan_id":"cebpf4jnsgd1na2vs0mg"},{"bike_id":"98d87c4d-5713-4192-b62d-ccff0659b802","system_id":"levelo_inurba_marseille","lat":43.26211,"lon":5.37443,"is_reserved":false,"is_disabled":false,"rental_uris":{"android":"levelo://app?vid=98d87c4d-5713-4192-b62d-ccff0659b802","ios":"levelo://app?vid=98d87c4d-5713-4192-b62d-ccff0659b802"},"vehicle_type_id":"4","last_reported":1744628885,"current_range_meters":20800,"station_id":"ce4bhgp2rcd13ifvqfc0","pricing_plan_id":"cebpf4jnsgd1na2vs0mg"},{"bike_id":"533e9005-f862-45be-8a27-cbe947d944e6","system_id":"levelo_inurba_marseille","lat":43.30305,"lon":5.37697,"is_reserved":false,"is_disabled":false,"rental_uris":{"android":"levelo://app?vid=533e9005-f862-45be-8a27-cbe947d944e6","ios":"levelo://app?vid=533e9005-f862-45be-8a27-cbe947d944e6"},"vehicle_type_id":"4","last_reported":1744628885,"current_range_meters":21600,"station_id":"ce4bguh2rcd13ifvqcj0","pricing_plan_id":"cebpf4jnsgd1na2vs0mg"},{"bike_id":"6390059a-27c9-4901-b3b6-a9372a0f953b","system_id":"levelo_inurba_marseille","lat":43.28158,"lon":5.42648,"is_reserved":false,"is_disabled":false,"rental_uris":{"android":"levelo://app?vid=6390059a-27c9-4901-b3b6-a9372a0f953b","ios":"levelo://app?vid=6390059a-27c9-4901-b3b6-a9372a0f953b"},"vehicle_type_id":"4","last_reported":1744628885,"current_range_meters":21600,"station_id":"ce4bhnh2rcd13ifvqgug","pricing_plan_id":"cebpf4jnsgd1na2vs0mg"},{"bike_id":"7cecc5fb-f95e-40a3-a562-35b9067e7ba9","system_id":"levelo_inurba_marseille","lat":43.30951,"lon":5.39032,"is_reserved":false,"is_disabled":false,"rental_uris":{"android":"levelo://app?vid=7cecc5fb-f95e-40a3-a562-35b9067e7ba9","ios":"levelo://app?vid=7cecc5fb-f95e-40a3-a562-35b9067e7ba9"},"vehicle_type_id":"4","last_reported":1744628885,"current_range_meters":21600,"station_id":"ce4bgup2rcd13ifvqco0","pricing_plan_id":"cebpf4jnsgd1na2vs0mg"},{"bike_id":"0dbb8451-6fbf-4474-9639-bd687b68c8c2","system_id":"levelo_inurba_marseille","lat":43.3259,"lon":5.36286,"is_reserved":false,"is_disabled":false,"rental_uris":{"android":"levelo://app?vid=0dbb8451-6fbf-4474-9639-bd687b68c8c2","ios":"levelo://app?vid=0dbb8451-6fbf-4474-9639-bd687b68c8c2"},"vehicle_type_id":"4","last_reported":1744628885,"current_range_meters":21600,"station_id":"","pricing_plan_id":"cebpf4jnsgd1na2vs0mg"},{"bike_id":"f6375cd8-5ddf-4b3f-b398-501a93558e36","system_id":"levelo_inurba_marseille","lat":43.24173,"lon":5.36396,"is_reserved":false,"is_disabled":false,"rental_uris":{"android":"levelo://app?vid=f6375cd8-5ddf-4b3f-b398-501a93558e36","ios":"levelo://app?vid=f6375cd8-5ddf-4b3f-b398-501a93558e36"},"vehicle_type_id":"4","last_reported":1744628885,"current_range_meters":21600,"station_id":"cpo36qri1sfpv3e86is0","pricing_plan_id":"cebpf4jnsgd1na2vs0mg"},{"bike_id":"349086b4-ab37-406f-a6d9-82d4d8d420d0","system_id":"levelo_inurba_marseille","lat":43.29785,"lon":5.39336,"is_reserved":false,"is_disabled":false,"rental_uris":{"android":"levelo://app?vid=349086b4-ab37-406f-a6d9-82d4d8d420d0","ios":"levelo://app?vid=349086b4-ab37-406f-a6d9-82d4d8d420d0"},"vehicle_type_id":"4","last_reported":1744628885,"current_range_meters":21600,"station_id":"chh1huq6cuj3fo74tm60","pricing_plan_id":"cebpf4jnsgd1na2vs0mg"},{"bike_id":"17e60389-466b-44c1-8e32-5d8220ded524","system_id":"levelo_inurba_marseille","lat":43.29599,"lon":5.38107,"is_reserved":false,"is_disabled":false,"rental_uris":{"android":"levelo://app?vid=17e60389-466b-44c1-8e32-5d8220ded524","ios":"levelo://app?vid=17e60389-466b-44c1-8e32-5d8220ded524"},"vehicle_type_id":"4","last_reported":1744628885,"current_range_meters":22000,"station_id":"ce4bgl12rcd13ifvqbo0","pricing_plan_id":"cebpf4jnsgd1na2vs0mg"},{"bike_id":"2fcf9cd4-ff07-4097-93ae-686061858918","system_id":"levelo_inurba_marseille","lat":43.288704,"lon":5.382049,"is_reserved":false,"is_disabled":false,"rental_uris":{"android":"levelo://app?vid=2fcf9cd4-ff07-4097-93ae-686061858918","ios":"levelo://app?vid=2fcf9cd4-ff07-4097-93ae-686061858918"},"vehicle_type_id":"4","last_reported":1744628885,"current_range_meters":21600,"station_id":"ce4bh292rcd13ifvqdg0","pricing_plan_id":"cebpf4jnsgd1na2vs0mg"},{"bike_id":"bcfbbe10-eb28-4df1-a01f-7371405dfa0e","system_id":"levelo_inurba_marseille","lat":43.29521,"lon":5.39042,"is_reserved":false,"is_disabled":false,"rental_uris":{"android":"levelo://app?vid=bcfbbe10-eb28-4df1-a01f-7371405dfa0e","ios":"levelo://app?vid=bcfbbe10-eb28-4df1-a01f-7371405dfa0e"},"vehicle_type_id":"4","last_reported":1744628885,"current_range_meters":22000,"station_id":"ce4bh3p2rcd13ifvqdp0","pricing_plan_id":"cebpf4jnsgd1na2vs0mg"},{"bike_id":"e66e4f51-a050-4e48-9033-8d7a2ec2d288","system_id":"levelo_inurba_marseille","lat":43.21194,"lon":5.35075,"is_reserved":false,"is_disabled":false,"rental_uris":{"android":"levelo://app?vid=e66e4f51-a050-4e48-9033-8d7a2ec2d288","ios":"levelo://app?vid=e66e4f51-a050-4e48-9033-8d7a2ec2d288"},"vehicle_type_id":"4","last_reported":1744628885,"current_range_meters":22000,"station_id":"st_cvj6sg6p6f1abm77japg","pricing_plan_id":"cebpf4jnsgd1na2vs0mg"},{"bike_id":"05664e36-336b-404a-b8de-2ca42d4238f0","system_id":"levelo_inurba_marseille","lat":43.25005,"lon":5.38178,"is_reserved":false,"is_disabled":false,"rental_uris":{"android":"levelo://app?vid=05664e36-336b-404a-b8de-2ca42d4238f0","ios":"levelo://app?vid=05664e36-336b-404a-b8de-2ca42d4238f0"},"vehicle_type_id":"4","last_reported":1744628885,"current_range_meters":22000,"station_id":"","pricing_plan_id":"cebpf4jnsgd1na2vs0mg"},{"bike_id":"fa8ea7da-a0ad-4495-b009-786bfabb858f","system_id":"levelo_inurba_marseille","lat":43.30468,"lon":5.37928,"is_reserved":false,"is_disabled":false,"rental_uris":{"android":"levelo://app?vid=fa8ea7da-a0ad-4495-b009-786bfabb858f","ios":"levelo://app?vid=fa8ea7da-a0ad-4495-b009-786bfabb858f"},"vehicle_type_id":"4","last_reported":1744628885,"current_range_meters":22000,"station_id":"ce4bgup2rcd13ifvqcn0","pricing_plan_id":"cebpf4jnsgd1na2vs0mg"},{"bike_id":"61788b27-74ee-400b-92ea-fa87486fb4d1","system_id":"levelo_inurba_marseille","lat":43.329992,"lon":5.438576,"is_reserved":false,"is_disabled":false,"rental_uris":{"android":"levelo://app?vid=61788b27-74ee-400b-92ea-fa87486fb4d1","ios":"levelo://app?vid=61788b27-74ee-400b-92ea-fa87486fb4d1"},"vehicle_type_id":"4","last_reported":1744628885,"current_range_meters":22400,"station_id":"","pricing_plan_id":"cebpf4jnsgd1na2vs0mg"},{"bike_id":"ba13a1f0-bd3b-46bd-a4ab-c1cd2a917a90","system_id":"levelo_inurba_marseille","lat":43.25109,"lon":5.4032,"is_reserved":false,"is_disabled":false,"rental_uris":{"android":"levelo://app?vid=ba13a1f0-bd3b-46bd-a4ab-c1cd2a917a90","ios":"levelo://app?vid=ba13a1f0-bd3b-46bd-a4ab-c1cd2a917a90"},"vehicle_type_id":"4","last_reported":1744628885,"current_range_meters":22400,"station_id":"ce4bhlh2rcd13ifvqgig","pricing_plan_id":"cebpf4jnsgd1na2vs0mg"},{"bike_id":"f0080d9b-9cdd-4c45-aa2a-be53b8289078","system_id":"levelo_inurba_marseille","lat":43.27996,"lon":5.41665,"is_reserved":false,"is_disabled":false,"rental_uris":{"android":"levelo://app?vid=f0080d9b-9cdd-4c45-aa2a-be53b8289078","ios":"levelo://app?vid=f0080d9b-9cdd-4c45-aa2a-be53b8289078"},"vehicle_type_id":"4","last_reported":1744628885,"current_range_meters":22000,"station_id":"ce4bho12rcd13ifvqh1g","pricing_plan_id":"cebpf4jnsgd1na2vs0mg"},{"bike_id":"ac047d77-f5fc-423f-8664-329e79a276e9","system_id":"levelo_inurba_marseille","lat":43.29555,"lon":5.423,"is_reserved":false,"is_disabled":false,"rental_uris":{"android":"levelo://app?vid=ac047d77-f5fc-423f-8664-329e79a276e9","ios":"levelo://app?vid=ac047d77-f5fc-423f-8664-329e79a276e9"},"vehicle_type_id":"4","last_reported":1744628885,"current_range_meters":22400,"station_id":"ce4bhph2rcd13ifvqhdg","pricing_plan_id":"cebpf4jnsgd1na2vs0mg"},{"bike_id":"f3cfa726-8c51-4140-8f4b-59d3b8b2f08d","system_id":"levelo_inurba_marseille","lat":43.26203,"lon":5.37934,"is_reserved":false,"is_disabled":false,"rental_uris":{"android":"levelo://app?vid=f3cfa726-8c51-4140-8f4b-59d3b8b2f08d","ios":"levelo://app?vid=f3cfa726-8c51-4140-8f4b-59d3b8b2f08d"},"vehicle_type_id":"4","last_reported":1744628885,"current_range_meters":22400,"station_id":"ce4bhjp2rcd13ifvqg90","pricing_plan_id":"cebpf4jnsgd1na2vs0mg"},{"bike_id":"6f9ef2c6-883e-412b-8947-8bc32c601f3e","system_id":"levelo_inurba_marseille","lat":43.26218,"lon":5.37443,"is_reserved":false,"is_disabled":false,"rental_uris":{"android":"levelo://app?vid=6f9ef2c6-883e-412b-8947-8bc32c601f3e","ios":"levelo://app?vid=6f9ef2c6-883e-412b-8947-8bc32c601f3e"},"vehicle_type_id":"4","last_reported":1744628885,"current_range_meters":22400,"station_id":"ce4bhgp2rcd13ifvqfc0","pricing_plan_id":"cebpf4jnsgd1na2vs0mg"},{"bike_id":"deb416d8-f4b1-431e-904b-7013df4def54","system_id":"levelo_inurba_marseille","lat":43.24565,"lon":5.39509,"is_reserved":false,"is_disabled":false,"rental_uris":{"android":"levelo://app?vid=deb416d8-f4b1-431e-904b-7013df4def54","ios":"levelo://app?vid=deb416d8-f4b1-431e-904b-7013df4def54"},"vehicle_type_id":"4","last_reported":1744628885,"current_range_meters":22400,"station_id":"ce4bhlp2rcd13ifvqgjg","pricing_plan_id":"cebpf4jnsgd1na2vs0mg"},{"bike_id":"2436999a-c8d6-4a3c-b3fb-07f049a197e6","system_id":"levelo_inurba_marseille","lat":43.2904,"lon":5.39966,"is_reserved":false,"is_disabled":false,"rental_uris":{"android":"levelo://app?vid=2436999a-c8d6-4a3c-b3fb-07f049a197e6","ios":"levelo://app?vid=2436999a-c8d6-4a3c-b3fb-07f049a197e6"},"vehicle_type_id":"4","last_reported":1744628885,"current_range_meters":22000,"station_id":"ce4bh392rcd13ifvqdm0","pricing_plan_id":"cebpf4jnsgd1na2vs0mg"},{"bike_id":"97eaab4d-1dff-49ff-86e5-23bd769ff75d","system_id":"levelo_inurba_marseille","lat":43.341398,"lon":5.409089,"is_reserved":false,"is_disabled":false,"rental_uris":{"android":"levelo://app?vid=97eaab4d-1dff-49ff-86e5-23bd769ff75d","ios":"levelo://app?vid=97eaab4d-1dff-49ff-86e5-23bd769ff75d"},"vehicle_type_id":"4","last_reported":1744628885,"current_range_meters":22400,"station_id":"ce4bhqh2rcd13ifvqhlg","pricing_plan_id":"cebpf4jnsgd1na2vs0mg"},{"bike_id":"f5937a56-2053-48c6-a25a-972606402463","system_id":"levelo_inurba_marseille","lat":43.27058,"lon":5.42272,"is_reserved":false,"is_disabled":false,"rental_uris":{"android":"levelo://app?vid=f5937a56-2053-48c6-a25a-972606402463","ios":"levelo://app?vid=f5937a56-2053-48c6-a25a-972606402463"},"vehicle_type_id":"4","last_reported":1744628885,"current_range_meters":22400,"station_id":"ce4bhk92rcd13ifvqgb0","pricing_plan_id":"cebpf4jnsgd1na2vs0mg"},{"bike_id":"84dc9436-0564-49a3-8e61-5f2df826318c","system_id":"levelo_inurba_marseille","lat":43.27993,"lon":5.40007,"is_reserved":false,"is_disabled":false,"rental_uris":{"android":"levelo://app?vid=84dc9436-0564-49a3-8e61-5f2df826318c","ios":"levelo://app?vid=84dc9436-0564-49a3-8e61-5f2df826318c"},"vehicle_type_id":"4","last_reported":1744628885,"current_range_meters":22800,"station_id":"ce4bho92rcd13ifvqh4g","pricing_plan_id":"cebpf4jnsgd1na2vs0mg"},{"bike_id":"db24447a-c47f-493c-a77b-a32c94cb650f","system_id":"levelo_inurba_marseille","lat":43.246354,"lon":5.387616,"is_reserved":false,"is_disabled":true,"rental_uris":{"android":"levelo://app?vid=db24447a-c47f-493c-a77b-a32c94cb650f","ios":"levelo://app?vid=db24447a-c47f-493c-a77b-a32c94cb650f"},"vehicle_type_id":"4","last_reported":1744628885,"current_range_meters":22800,"station_id":"","pricing_plan_id":"cebpf4jnsgd1na2vs0mg"},{"bike_id":"1ac6cae9-5a5f-4765-b8d5-20772275ca89","system_id":"levelo_inurba_marseille","lat":43.23337,"lon":5.3614,"is_reserved":false,"is_disabled":false,"rental_uris":{"android":"levelo://app?vid=1ac6cae9-5a5f-4765-b8d5-20772275ca89","ios":"levelo://app?vid=1ac6cae9-5a5f-4765-b8d5-20772275ca89"},"vehicle_type_id":"4","last_reported":1744628885,"current_range_meters":22800,"station_id":"","pricing_plan_id":"cebpf4jnsgd1na2vs0mg"},{"bike_id":"9504a23f-fc70-4d3f-8c43-d3abc49fba6f","system_id":"levelo_inurba_marseille","lat":43.25906,"lon":5.40887,"is_reserved":false,"is_disabled":false,"rental_uris":{"android":"levelo://app?vid=9504a23f-fc70-4d3f-8c43-d3abc49fba6f","ios":"levelo://app?vid=9504a23f-fc70-4d3f-8c43-d3abc49fba6f"},"vehicle_type_id":"4","last_reported":1744628885,"current_range_meters":22800,"station_id":"ce4bhm92rcd13ifvqglg","pricing_plan_id":"cebpf4jnsgd1na2vs0mg"},{"bike_id":"10aca034-1e00-40fe-b124-adc554df6a01","system_id":"levelo_inurba_marseille","lat":43.29849,"lon":5.36259,"is_reserved":false,"is_disabled":false,"rental_uris":{"android":"levelo://app?vid=10aca034-1e00-40fe-b124-adc554df6a01","ios":"levelo://app?vid=10aca034-1e00-40fe-b124-adc554df6a01"},"vehicle_type_id":"4","last_reported":1744628885,"current_range_meters":22400,"station_id":"ce4bgpp2rcd13ifvqc3g","pricing_plan_id":"cebpf4jnsgd1na2vs0mg"},{"bike_id":"b035f8ab-1633-42ac-9aa2-e0f018b270f8","system_id":"levelo_inurba_marseille","lat":43.26021,"lon":5.37559,"is_reserved":false,"is_disabled":false,"rental_uris":{"android":"levelo://app?vid=b035f8ab-1633-42ac-9aa2-e0f018b270f8","ios":"levelo://app?vid=b035f8ab-1633-42ac-9aa2-e0f018b270f8"},"vehicle_type_id":"4","last_reported":1744628885,"current_range_meters":23200,"station_id":"ce4bhgh2rcd13ifvqfa0","pricing_plan_id":"cebpf4jnsgd1na2vs0mg"},{"bike_id":"e190b69d-bffe-41bb-b19d-d016459a4501","system_id":"levelo_inurba_marseille","lat":43.30913,"lon":5.36853,"is_reserved":false,"is_disabled":false,"rental_uris":{"android":"levelo://app?vid=e190b69d-bffe-41bb-b19d-d016459a4501","ios":"levelo://app?vid=e190b69d-bffe-41bb-b19d-d016459a4501"},"vehicle_type_id":"4","last_reported":1744628885,"current_range_meters":23200,"station_id":"ce4bgn92rcd13ifvqbvg","pricing_plan_id":"cebpf4jnsgd1na2vs0mg"},{"bike_id":"7f16acec-55c1-4c54-a5fd-903bd233c002","system_id":"levelo_inurba_marseille","lat":43.2962,"lon":5.37165,"is_reserved":false,"is_disabled":false,"rental_uris":{"android":"levelo://app?vid=7f16acec-55c1-4c54-a5fd-903bd233c002","ios":"levelo://app?vid=7f16acec-55c1-4c54-a5fd-903bd233c002"},"vehicle_type_id":"4","last_reported":1744628885,"current_range_meters":23200,"station_id":"ce4bgnh2rcd13ifvqc0g","pricing_plan_id":"cebpf4jnsgd1na2vs0mg"},{"bike_id":"24acbce7-260f-46c8-9ba2-af24377b2147","system_id":"levelo_inurba_marseille","lat":43.21757,"lon":5.34604,"is_reserved":false,"is_disabled":false,"rental_uris":{"android":"levelo://app?vid=24acbce7-260f-46c8-9ba2-af24377b2147","ios":"levelo://app?vid=24acbce7-260f-46c8-9ba2-af24377b2147"},"vehicle_type_id":"4","last_reported":1744628885,"current_range_meters":23200,"station_id":"","pricing_plan_id":"cebpf4jnsgd1na2vs0mg"},{"bike_id":"9f57b40e-ac40-480d-89dd-f22a63c7a767","system_id":"levelo_inurba_marseille","lat":43.25874,"lon":5.39912,"is_reserved":false,"is_disabled":false,"rental_uris":{"android":"levelo://app?vid=9f57b40e-ac40-480d-89dd-f22a63c7a767","ios":"levelo://app?vid=9f57b40e-ac40-480d-89dd-f22a63c7a767"},"vehicle_type_id":"4","last_reported":1744628885,"current_range_meters":23200,"station_id":"ce4bhl92rcd13ifvqghg","pricing_plan_id":"cebpf4jnsgd1na2vs0mg"},{"bike_id":"80581a5c-f0ad-4895-a131-36c495c1c1df","system_id":"levelo_inurba_marseille","lat":43.305448,"lon":5.365342,"is_reserved":false,"is_disabled":false,"rental_uris":{"android":"levelo://app?vid=80581a5c-f0ad-4895-a131-36c495c1c1df","ios":"levelo://app?vid=80581a5c-f0ad-4895-a131-36c495c1c1df"},"vehicle_type_id":"4","last_reported":1744628885,"current_range_meters":23200,"station_id":"ce4bgs12rcd13ifvqcag","pricing_plan_id":"cebpf4jnsgd1na2vs0mg"},{"bike_id":"29d95d95-9e17-4f7a-b230-abb382bf24ac","system_id":"levelo_inurba_marseille","lat":43.3249,"lon":5.36586,"is_reserved":false,"is_disabled":false,"rental_uris":{"android":"levelo://app?vid=29d95d95-9e17-4f7a-b230-abb382bf24ac","ios":"levelo://app?vid=29d95d95-9e17-4f7a-b230-abb382bf24ac"},"vehicle_type_id":"4","last_reported":1744628885,"current_range_meters":23200,"station_id":"ce4bhs12rcd13ifvqhvg","pricing_plan_id":"cebpf4jnsgd1na2vs0mg"},{"bike_id":"7eacb872-0584-4b06-8fad-feb612d3799a","system_id":"levelo_inurba_marseille","lat":43.30145,"lon":5.38077,"is_reserved":false,"is_disabled":false,"rental_uris":{"android":"levelo://app?vid=7eacb872-0584-4b06-8fad-feb612d3799a","ios":"levelo://app?vid=7eacb872-0584-4b06-8fad-feb612d3799a"},"vehicle_type_id":"4","last_reported":1744628885,"current_range_meters":23200,"station_id":"ce4bgjp2rcd13ifvqbh0","pricing_plan_id":"cebpf4jnsgd1na2vs0mg"},{"bike_id":"e9562967-2552-4bae-bf4a-6d0975e1cb5e","system_id":"levelo_inurba_marseille","lat":43.28349,"lon":5.38113,"is_reserved":false,"is_disabled":false,"rental_uris":{"android":"levelo://app?vid=e9562967-2552-4bae-bf4a-6d0975e1cb5e","ios":"levelo://app?vid=e9562967-2552-4bae-bf4a-6d0975e1cb5e"},"vehicle_type_id":"4","last_reported":1744628885,"current_range_meters":23200,"station_id":"ce4bh412rcd13ifvqdr0","pricing_plan_id":"cebpf4jnsgd1na2vs0mg"},{"bike_id":"da1b5626-368f-460c-86f8-92d9382feff8","system_id":"levelo_inurba_marseille","lat":43.30155,"lon":5.38086,"is_reserved":false,"is_disabled":false,"rental_uris":{"android":"levelo://app?vid=da1b5626-368f-460c-86f8-92d9382feff8","ios":"levelo://app?vid=da1b5626-368f-460c-86f8-92d9382feff8"},"vehicle_type_id":"4","last_reported":1744628885,"current_range_meters":23200,"station_id":"ce4bgjp2rcd13ifvqbh0","pricing_plan_id":"cebpf4jnsgd1na2vs0mg"},{"bike_id":"7184a8f5-8b38-4050-b949-b83e362d5f74","system_id":"levelo_inurba_marseille","lat":43.32485,"lon":5.36573,"is_reserved":false,"is_disabled":false,"rental_uris":{"android":"levelo://app?vid=7184a8f5-8b38-4050-b949-b83e362d5f74","ios":"levelo://app?vid=7184a8f5-8b38-4050-b949-b83e362d5f74"},"vehicle_type_id":"4","last_reported":1744628885,"current_range_meters":23200,"station_id":"ce4bhs12rcd13ifvqhvg","pricing_plan_id":"cebpf4jnsgd1na2vs0mg"},{"bike_id":"97975664-d867-42f6-8a80-e13008dbcacb","system_id":"levelo_inurba_marseille","lat":43.25724,"lon":5.41112,"is_reserved":false,"is_disabled":false,"rental_uris":{"android":"levelo://app?vid=97975664-d867-42f6-8a80-e13008dbcacb","ios":"levelo://app?vid=97975664-d867-42f6-8a80-e13008dbcacb"},"vehicle_type_id":"4","last_reported":1744628885,"current_range_meters":23200,"station_id":"ce4bhkp2rcd13ifvqgd0","pricing_plan_id":"cebpf4jnsgd1na2vs0mg"},{"bike_id":"ee33e4a3-9ed1-445d-9974-26da2f858986","system_id":"levelo_inurba_marseille","lat":43.32364,"lon":5.38893,"is_reserved":false,"is_disabled":false,"rental_uris":{"android":"levelo://app?vid=ee33e4a3-9ed1-445d-9974-26da2f858986","ios":"levelo://app?vid=ee33e4a3-9ed1-445d-9974-26da2f858986"},"vehicle_type_id":"4","last_reported":1744628885,"current_range_meters":24000,"station_id":"ce4bhqp2rcd13ifvqhog","pricing_plan_id":"cebpf4jnsgd1na2vs0mg"},{"bike_id":"d80fe21d-85bd-4d50-aa69-7545e6b9cc6e","system_id":"levelo_inurba_marseille","lat":43.30141,"lon":5.37424,"is_reserved":false,"is_disabled":false,"rental_uris":{"android":"levelo://app?vid=d80fe21d-85bd-4d50-aa69-7545e6b9cc6e","ios":"levelo://app?vid=d80fe21d-85bd-4d50-aa69-7545e6b9cc6e"},"vehicle_type_id":"4","last_reported":1744628885,"current_range_meters":24000,"station_id":"ce4bgs92rcd13ifvqcc0","pricing_plan_id":"cebpf4jnsgd1na2vs0mg"},{"bike_id":"09e27f96-55e6-42b2-b6b0-c7d769d0be7b","system_id":"levelo_inurba_marseille","lat":43.33619,"lon":5.41017,"is_reserved":false,"is_disabled":true,"rental_uris":{"android":"levelo://app?vid=09e27f96-55e6-42b2-b6b0-c7d769d0be7b","ios":"levelo://app?vid=09e27f96-55e6-42b2-b6b0-c7d769d0be7b"},"vehicle_type_id":"4","last_reported":1744628885,"current_range_meters":24000,"station_id":"ce4bhqh2rcd13ifvqhmg","pricing_plan_id":"cebpf4jnsgd1na2vs0mg"},{"bike_id":"1de97d97-376a-494b-9971-4d91067f87de","system_id":"levelo_inurba_marseille","lat":43.26931,"lon":5.38923,"is_reserved":false,"is_disabled":false,"rental_uris":{"android":"levelo://app?vid=1de97d97-376a-494b-9971-4d91067f87de","ios":"levelo://app?vid=1de97d97-376a-494b-9971-4d91067f87de"},"vehicle_type_id":"4","last_reported":1744628885,"current_range_meters":23200,"station_id":"ce4bhhh2rcd13ifvqfl0","pricing_plan_id":"cebpf4jnsgd1na2vs0mg"},{"bike_id":"e61eb72d-2152-4e42-a8db-1ea20dfcb944","system_id":"levelo_inurba_marseille","lat":43.25086,"lon":5.39509,"is_reserved":false,"is_disabled":true,"rental_uris":{"android":"levelo://app?vid=e61eb72d-2152-4e42-a8db-1ea20dfcb944","ios":"levelo://app?vid=e61eb72d-2152-4e42-a8db-1ea20dfcb944"},"vehicle_type_id":"4","last_reported":1744628885,"current_range_meters":24000,"station_id":"ce4bhm12rcd13ifvqgkg","pricing_plan_id":"cebpf4jnsgd1na2vs0mg"},{"bike_id":"1926533a-db64-4961-b376-267a822493a9","system_id":"levelo_inurba_marseille","lat":43.29404,"lon":5.37422,"is_reserved":false,"is_disabled":false,"rental_uris":{"android":"levelo://app?vid=1926533a-db64-4961-b376-267a822493a9","ios":"levelo://app?vid=1926533a-db64-4961-b376-267a822493a9"},"vehicle_type_id":"4","last_reported":1744628885,"current_range_meters":24400,"station_id":"","pricing_plan_id":"cebpf4jnsgd1na2vs0mg"},{"bike_id":"6e6254cd-c8a3-4578-8106-16372ddc2842","system_id":"levelo_inurba_marseille","lat":43.27313,"lon":5.39079,"is_reserved":false,"is_disabled":false,"rental_uris":{"android":"levelo://app?vid=6e6254cd-c8a3-4578-8106-16372ddc2842","ios":"levelo://app?vid=6e6254cd-c8a3-4578-8106-16372ddc2842"},"vehicle_type_id":"4","last_reported":1744628885,"current_range_meters":24400,"station_id":"ce4bhgp2rcd13ifvqfe0","pricing_plan_id":"cebpf4jnsgd1na2vs0mg"},{"bike_id":"0d975a0c-3368-410c-a2cb-fd87f048f4fa","system_id":"levelo_inurba_marseille","lat":43.29296,"lon":5.37458,"is_reserved":false,"is_disabled":false,"rental_uris":{"android":"levelo://app?vid=0d975a0c-3368-410c-a2cb-fd87f048f4fa","ios":"levelo://app?vid=0d975a0c-3368-410c-a2cb-fd87f048f4fa"},"vehicle_type_id":"4","last_reported":1744628885,"current_range_meters":24400,"station_id":"ce4bgi12rcd13ifvqb70","pricing_plan_id":"cebpf4jnsgd1na2vs0mg"},{"bike_id":"fdba217f-6a30-4b28-b681-20c5bad4ae92","system_id":"levelo_inurba_marseille","lat":43.30464,"lon":5.37917,"is_reserved":false,"is_disabled":false,"rental_uris":{"android":"levelo://app?vid=fdba217f-6a30-4b28-b681-20c5bad4ae92","ios":"levelo://app?vid=fdba217f-6a30-4b28-b681-20c5bad4ae92"},"vehicle_type_id":"4","last_reported":1744628885,"current_range_meters":24400,"station_id":"ce4bgup2rcd13ifvqcn0","pricing_plan_id":"cebpf4jnsgd1na2vs0mg"},{"bike_id":"442e33f1-e8cc-40bf-b9e9-cfb6fe6234aa","system_id":"levelo_inurba_marseille","lat":43.28433,"lon":5.34981,"is_reserved":false,"is_disabled":false,"rental_uris":{"android":"levelo://app?vid=442e33f1-e8cc-40bf-b9e9-cfb6fe6234aa","ios":"levelo://app?vid=442e33f1-e8cc-40bf-b9e9-cfb6fe6234aa"},"vehicle_type_id":"4","last_reported":1744628885,"current_range_meters":24400,"station_id":"ce4bhbh2rcd13ifvqepg","pricing_plan_id":"cebpf4jnsgd1na2vs0mg"},{"bike_id":"1981afc4-10ff-4535-b254-3b1b8b7fa094","system_id":"levelo_inurba_marseille","lat":43.2293,"lon":5.35375,"is_reserved":false,"is_disabled":false,"rental_uris":{"android":"levelo://app?vid=1981afc4-10ff-4535-b254-3b1b8b7fa094","ios":"levelo://app?vid=1981afc4-10ff-4535-b254-3b1b8b7fa094"},"vehicle_type_id":"4","last_reported":1744628885,"current_range_meters":24400,"station_id":"cpo3532slgdg3j2ikp40","pricing_plan_id":"cebpf4jnsgd1na2vs0mg"},{"bike_id":"c8577a26-7e73-46df-8e82-914727f13f86","system_id":"levelo_inurba_marseille","lat":43.301514,"lon":5.380986,"is_reserved":false,"is_disabled":true,"rental_uris":{"android":"levelo://app?vid=c8577a26-7e73-46df-8e82-914727f13f86","ios":"levelo://app?vid=c8577a26-7e73-46df-8e82-914727f13f86"},"vehicle_type_id":"4","last_reported":1744628885,"current_range_meters":24400,"station_id":"ce4bgjp2rcd13ifvqbh0","pricing_plan_id":"cebpf4jnsgd1na2vs0mg"},{"bike_id":"ff3cc019-99c3-492c-8ecb-48ce179d14ed","system_id":"levelo_inurba_marseille","lat":43.28638,"lon":5.35095,"is_reserved":false,"is_disabled":false,"rental_uris":{"android":"levelo://app?vid=ff3cc019-99c3-492c-8ecb-48ce179d14ed","ios":"levelo://app?vid=ff3cc019-99c3-492c-8ecb-48ce179d14ed"},"vehicle_type_id":"4","last_reported":1744628885,"current_range_meters":24400,"station_id":"ce4bhch2rcd13ifvqeug","pricing_plan_id":"cebpf4jnsgd1na2vs0mg"},{"bike_id":"a7998a74-641c-4044-83f8-abdf696a2c5f","system_id":"levelo_inurba_marseille","lat":43.31726,"lon":5.42392,"is_reserved":false,"is_disabled":false,"rental_uris":{"android":"levelo://app?vid=a7998a74-641c-4044-83f8-abdf696a2c5f","ios":"levelo://app?vid=a7998a74-641c-4044-83f8-abdf696a2c5f"},"vehicle_type_id":"4","last_reported":1744628885,"current_range_meters":24400,"station_id":"ce4bhp92rcd13ifvqhbg","pricing_plan_id":"cebpf4jnsgd1na2vs0mg"},{"bike_id":"06ac8ac1-06b1-44ee-ae56-58af4f7f9971","system_id":"levelo_inurba_marseille","lat":43.28939,"lon":5.36617,"is_reserved":false,"is_disabled":true,"rental_uris":{"android":"levelo://app?vid=06ac8ac1-06b1-44ee-ae56-58af4f7f9971","ios":"levelo://app?vid=06ac8ac1-06b1-44ee-ae56-58af4f7f9971"},"vehicle_type_id":"4","last_reported":1744628885,"current_range_meters":24400,"station_id":"ce4bhap2rcd13ifvqek0","pricing_plan_id":"cebpf4jnsgd1na2vs0mg"},{"bike_id":"6b7dd6f3-4543-409f-97cc-4db68642f84e","system_id":"levelo_inurba_marseille","lat":43.26204,"lon":5.3744,"is_reserved":false,"is_disabled":false,"rental_uris":{"android":"levelo://app?vid=6b7dd6f3-4543-409f-97cc-4db68642f84e","ios":"levelo://app?vid=6b7dd6f3-4543-409f-97cc-4db68642f84e"},"vehicle_type_id":"4","last_reported":1744628885,"current_range_meters":24400,"station_id":"ce4bhgp2rcd13ifvqfc0","pricing_plan_id":"cebpf4jnsgd1na2vs0mg"},{"bike_id":"fb35d104-b549-4fc9-bc51-631da2f0d934","system_id":"levelo_inurba_marseille","lat":43.29194,"lon":5.35812,"is_reserved":false,"is_disabled":false,"rental_uris":{"android":"levelo://app?vid=fb35d104-b549-4fc9-bc51-631da2f0d934","ios":"levelo://app?vid=fb35d104-b549-4fc9-bc51-631da2f0d934"},"vehicle_type_id":"4","last_reported":1744628885,"current_range_meters":24000,"station_id":"ce4bhb12rcd13ifvqel0","pricing_plan_id":"cebpf4jnsgd1na2vs0mg"},{"bike_id":"140745b8-2cec-4c54-b851-72159c2e7c53","system_id":"levelo_inurba_marseille","lat":43.29523,"lon":5.39041,"is_reserved":false,"is_disabled":false,"rental_uris":{"android":"levelo://app?vid=140745b8-2cec-4c54-b851-72159c2e7c53","ios":"levelo://app?vid=140745b8-2cec-4c54-b851-72159c2e7c53"},"vehicle_type_id":"4","last_reported":1744628885,"current_range_meters":24800,"station_id":"ce4bh3p2rcd13ifvqdp0","pricing_plan_id":"cebpf4jnsgd1na2vs0mg"},{"bike_id":"814768a9-3451-4aea-890a-f9d1dfa710aa","system_id":"levelo_inurba_marseille","lat":43.23059,"lon":5.35495,"is_reserved":false,"is_disabled":false,"rental_uris":{"android":"levelo://app?vid=814768a9-3451-4aea-890a-f9d1dfa710aa","ios":"levelo://app?vid=814768a9-3451-4aea-890a-f9d1dfa710aa"},"vehicle_type_id":"4","last_reported":1744628885,"current_range_meters":24800,"station_id":"cpo3342slgdg3j2ifvpg","pricing_plan_id":"cebpf4jnsgd1na2vs0mg"},{"bike_id":"85513bf9-e1af-42e1-a53e-8e01d6a5c373","system_id":"levelo_inurba_marseille","lat":43.29535,"lon":5.37545,"is_reserved":false,"is_disabled":true,"rental_uris":{"android":"levelo://app?vid=85513bf9-e1af-42e1-a53e-8e01d6a5c373","ios":"levelo://app?vid=85513bf9-e1af-42e1-a53e-8e01d6a5c373"},"vehicle_type_id":"4","last_reported":1744628885,"current_range_meters":24800,"station_id":"ce4bgkp2rcd13ifvqbmg","pricing_plan_id":"cebpf4jnsgd1na2vs0mg"},{"bike_id":"c938bdb0-e19f-43cd-b7eb-a3046c3091f2","system_id":"levelo_inurba_marseille","lat":43.23063,"lon":5.3549,"is_reserved":false,"is_disabled":false,"rental_uris":{"android":"levelo://app?vid=c938bdb0-e19f-43cd-b7eb-a3046c3091f2","ios":"levelo://app?vid=c938bdb0-e19f-43cd-b7eb-a3046c3091f2"},"vehicle_type_id":"4","last_reported":1744628885,"current_range_meters":24800,"station_id":"cpo3342slgdg3j2ifvpg","pricing_plan_id":"cebpf4jnsgd1na2vs0mg"},{"bike_id":"fde702e5-33ce-407d-b0e8-43aa1c22d2e2","system_id":"levelo_inurba_marseille","lat":43.3046,"lon":5.37931,"is_reserved":false,"is_disabled":false,"rental_uris":{"android":"levelo://app?vid=fde702e5-33ce-407d-b0e8-43aa1c22d2e2","ios":"levelo://app?vid=fde702e5-33ce-407d-b0e8-43aa1c22d2e2"},"vehicle_type_id":"4","last_reported":1744628885,"current_range_meters":24800,"station_id":"ce4bgup2rcd13ifvqcn0","pricing_plan_id":"cebpf4jnsgd1na2vs0mg"},{"bike_id":"a5d09ca5-70e9-4223-b625-2cc15fc86b6a","system_id":"levelo_inurba_marseille","lat":43.24183,"lon":5.36376,"is_reserved":false,"is_disabled":false,"rental_uris":{"android":"levelo://app?vid=a5d09ca5-70e9-4223-b625-2cc15fc86b6a","ios":"levelo://app?vid=a5d09ca5-70e9-4223-b625-2cc15fc86b6a"},"vehicle_type_id":"4","last_reported":1744628885,"current_range_meters":24800,"station_id":"cpo36qri1sfpv3e86is0","pricing_plan_id":"cebpf4jnsgd1na2vs0mg"},{"bike_id":"e2b0bbd3-75d9-40a8-8f1c-a2b8d92c4dcd","system_id":"levelo_inurba_marseille","lat":43.29608,"lon":5.37731,"is_reserved":false,"is_disabled":false,"rental_uris":{"android":"levelo://app?vid=e2b0bbd3-75d9-40a8-8f1c-a2b8d92c4dcd","ios":"levelo://app?vid=e2b0bbd3-75d9-40a8-8f1c-a2b8d92c4dcd"},"vehicle_type_id":"4","last_reported":1744628885,"current_range_meters":24800,"station_id":"ce4bgi92rcd13ifvqb90","pricing_plan_id":"cebpf4jnsgd1na2vs0mg"},{"bike_id":"5c344fe9-44ac-443a-bb27-3812e2d6e26d","system_id":"levelo_inurba_marseille","lat":43.29684,"lon":5.3713,"is_reserved":false,"is_disabled":true,"rental_uris":{"android":"levelo://app?vid=5c344fe9-44ac-443a-bb27-3812e2d6e26d","ios":"levelo://app?vid=5c344fe9-44ac-443a-bb27-3812e2d6e26d"},"vehicle_type_id":"4","last_reported":1744628885,"current_range_meters":24800,"station_id":"","pricing_plan_id":"cebpf4jnsgd1na2vs0mg"},{"bike_id":"d5b9a4de-2a44-4dbf-ba6d-4293398c4b39","system_id":"levelo_inurba_marseille","lat":43.26807,"lon":5.40267,"is_reserved":false,"is_disabled":false,"rental_uris":{"android":"levelo://app?vid=d5b9a4de-2a44-4dbf-ba6d-4293398c4b39","ios":"levelo://app?vid=d5b9a4de-2a44-4dbf-ba6d-4293398c4b39"},"vehicle_type_id":"4","last_reported":1744628885,"current_range_meters":24800,"station_id":"ce501612rcd8frsf0b60","pricing_plan_id":"cebpf4jnsgd1na2vs0mg"},