{"last_updated":1725736037,"ttl":30,"version":"2.2","data":{"bikes":[{"bike_id":"a11baed1-2b4f-49a7-991e-28894e739c98","system_id":"levelo_inurba_marseille","lat":43.312239,"lon":5.368562,"is_reserved":false,"is_disabled":false,"rental_uris":{"android":"levelo://app?vid=a11baed1-2b4f-49a7-991e-28894e739c98","ios":"levelo://app?vid=a11baed1-2b4f-49a7-991e-28894e739c98"},"vehicle_type_id":"4","last_reported":1725736038,"current_range_meters":30800,"station_id":"ce4bgl92rcd13ifvqbq0","pricing_plan_id":"cebpf4jnsgd1na2vs0mg"},{"bike_id":"0fdd196b-8eaa-4aa5-8ee8-8ff0bac4e3f6","system_id":"levelo_inurba_marseille","lat":43.31054,"lon":5.37185,"is_reserved":false,"is_disabled":false,"rental_uris":{"android":"levelo://app?vid=0fdd196b-8eaa-4aa5-8ee8-8ff0bac4e3f6","ios":"levelo://app?vid=0fdd196b-8eaa-4aa5-8ee8-8ff0bac4e3f6"},"vehicle_type_id":"4","last_reported":1725736038,"current_range_meters":14800,"station_id":"","pricing_plan_id":"cebpf4jnsgd1na2vs0mg"},{"bike_id":"69171d4b-5fd5-46e0-9e54-2c97728070dc","system_id":"levelo_inurba_marseille","lat":43.314811,"lon":5.373104,"is_reserved":false,"is_disabled":false,"rental_uris":{"android":"levelo://app?vid=69171d4b-5fd5-46e0-9e54-2c97728070dc","ios":"levelo://app?vid=69171d4b-5fd5-46e0-9e54-2c97728070dc"},"vehicle_type_id":"4","last_reported":1725736038,"current_range_meters":4800,"station_id":"ce4bgt12rcd13ifvqcd0","pricing_plan_id":"cebpf4jnsgd1na2vs0mg"},{"bike_id":"b35fd2a2-5cf3-40a8-a076-30626d6c5729","system_id":"levelo_inurba_marseille","lat":43.314811,"lon":5.373104,"is_reserved":false,"is_disabled":false,"rental_uris":{"android":"levelo://app?vid=b35fd2a2-5cf3-40a8-a076-30626d6c5729","ios":"levelo://app?vid=b35fd2a2-5cf3-40a8-a076-30626d6c5729"},"vehicle_type_id":"4","last_reported":1725736038,"current_range_meters":0,"station_id":"ce4bgt12rcd13ifvqcd0","pricing_plan_id":"cebpf4jnsgd1na2vs0mg"},{"bike_id":"dfd5f61e-3cdf-4404-98b2-1bb8a276e3e4","system_id":"levelo_inurba_marseille","lat":43.309039,"lon":5.371797,"is_reserved":false,"is_disabled":false,"rental_uris":{"android":"levelo://app?vid=dfd5f61e-3cdf-4404-98b2-1bb8a276e3e4","ios":"levelo://app?vid=dfd5f61e-3cdf-4404-98b2-1bb8a276e3e4"},"vehicle_type_id":"4","last_reported":1725736038,"current_range_meters":22400,"station_id":"ce4bguh2rcd13ifvqckg","pricing_plan_id":"cebpf4jnsgd1na2vs0mg"},{"bike_id":"59e0d469-6313-4842-80bb-7dcb8801a72a","system_id":"levelo_inurba_marseille","lat":43.309039,"lon":5.371797,"is_reserved":false,"is_disabled":false,"rental_uris":{"android":"levelo://app?vid=59e0d469-6313-4842-80bb-7dcb8801a72a","ios":"levelo://app?vid=59e0d469-6313-4842-80bb-7dcb8801a72a"},"vehicle_type_id":"4","last_reported":1725736038,"current_range_meters":800,"station_id":"ce4bguh2rcd13ifvqckg","pricing_plan_id":"cebpf4jnsgd1na2vs0mg"},{"bike_id":"da4160f6-f0cd-4093-93c2-1bc61f606e3c","system_id":"levelo_inurba_marseille","lat":43.306253,"lon":5.365485,"is_reserved":false,"is_disabled":false,"rental_uris":{"android":"levelo://app?vid=da4160f6-f0cd-4093-93c2-1bc61f606e3c","ios":"levelo://app?vid=da4160f6-f0cd-4093-93c2-1bc61f606e3c"},"vehicle_type_id":"4","last_reported":1725736038,"current_range_meters":0,"station_id":"","pricing_plan_id":"cebpf4jnsgd1na2vs0mg"},{"bike_id":"53058908-529e-408e-9249-23d702b14d86","system_id":"levelo_inurba_marseille","lat":43.310042,"lon":5.376433,"is_reserved":false,"is_disabled":false,"rental_uris":{"android":"levelo://app?vid=53058908-529e-408e-9249-23d702b14d86","ios":"levelo://app?vid=53058908-529e-408e-9249-23d702b14d86"},"vehicle_type_id":"4","last_reported":1725736038,"current_range_meters":0,"station_id":"","pricing_plan_id":"cebpf4jnsgd1na2vs0mg"},{"bike_id":"0f8ebea6-d005-4d26-bea0-5400197a68fe","system_id":"levelo_inurba_marseille","lat":43.305368,"lon":5.367343,"is_reserved":false,"is_disabled":false,"rental_uris":{"android":"levelo://app?vid=0f8ebea6-d005-4d26-bea0-5400197a68fe","ios":"levelo://app?vid=0f8ebea6-d005-4d26-bea0-5400197a68fe"},"vehicle_type_id":"4","last_reported":1725736038,"current_range_meters":13600,"station_id":"ce4bgrp2rcd13ifvqc9g","pricing_plan_id":"cebpf4jnsgd1na2vs0mg"},{"bike_id":"7c40b1f8-366f-4a38-9cd4-e93b68c71d96","system_id":"levelo_inurba_marseille","lat":43.305989,"lon":5.37225,"is_reserved":false,"is_disabled":false,"rental_uris":{"android":"levelo://app?vid=7c40b1f8-366f-4a38-9cd4-e93b68c71d96","ios":"levelo://app?vid=7c40b1f8-366f-4a38-9cd4-e93b68c71d96"},"vehicle_type_id":"4","last_reported":1725736038,"current_range_meters":6800,"station_id":"ce4bgqh2rcd13ifvqc4g","pricing_plan_id":"cebpf4jnsgd1na2vs0mg"},{"bike_id":"8481a961-d3d2-4088-b19e-599fe9ab924f","system_id":"levelo_inurba_marseille","lat":43.305989,"lon":5.37225,"is_reserved":false,"is_disabled":false,"rental_uris":{"android":"levelo://app?vid=8481a961-d3d2-4088-b19e-599fe9ab924f","ios":"levelo://app?vid=8481a961-d3d2-4088-b19e-599fe9ab924f"},"vehicle_type_id":"4","last_reported":1725736038,"current_range_meters":31200,"station_id":"ce4bgqh2rcd13ifvqc4g","pricing_plan_id":"cebpf4jnsgd1na2vs0mg"},{"bike_id":"2a12e62d-414a-4e0a-beb8-1df465865462","system_id":"levelo_inurba_marseille","lat":43.31115,"lon":5.37763,"is_reserved":false,"is_disabled":false,"rental_uris":{"android":"levelo://app?vid=2a12e62d-414a-4e0a-beb8-1df465865462","ios":"levelo://app?vid=2a12e62d-414a-4e0a-beb8-1df465865462"},"vehicle_type_id":"4","last_reported":1725736038,"current_range_meters":400,"station_id":"ce4bgt92rcd13ifvqcg0","pricing_plan_id":"cebpf4jnsgd1na2vs0mg"},{"bike_id":"24533f31-b761-47d3-b87f-f64d2cbbadd1","system_id":"levelo_inurba_marseille","lat":43.31115,"lon":5.37824,"is_reserved":false,"is_disabled":false,"rental_uris":{"android":"levelo://app?vid=24533f31-b761-47d3-b87f-f64d2cbbadd1","ios":"levelo://app?vid=24533f31-b761-47d3-b87f-f64d2cbbadd1"},"vehicle_type_id":"4","last_reported":1725736038,"current_range_meters":26000,"station_id":"ce4bgt92rcd13ifvqcg0","pricing_plan_id":"cebpf4jnsgd1na2vs0mg"},{"bike_id":"67871a83-827d-4e99-a7a7-fcd1cc961d46","system_id":"levelo_inurba_marseille","lat":43.317075,"lon":5.377367,"is_reserved":false,"is_disabled":false,"rental_uris":{"android":"levelo://app?vid=67871a83-827d-4e99-a7a7-fcd1cc961d46","ios":"levelo://app?vid=67871a83-827d-4e99-a7a7-fcd1cc961d46"},"vehicle_type_id":"4","last_reported":1725736038,"current_range_meters":3200,"station_id":"ce4bgth2rcd13ifvqch0","pricing_plan_id":"cebpf4jnsgd1na2vs0mg"},{"bike_id":"e6240958-5766-4e43-be3c-5414d3e93fa9","system_id":"levelo_inurba_marseille","lat":43.31354,"lon":5.37918,"is_reserved":false,"is_disabled":false,"rental_uris":{"android":"levelo://app?vid=e6240958-5766-4e43-be3c-5414d3e93fa9","ios":"levelo://app?vid=e6240958-5766-4e43-be3c-5414d3e93fa9"},"vehicle_type_id":"4","last_reported":1725736038,"current_range_meters":22000,"station_id":"","pricing_plan_id":"cebpf4jnsgd1na2vs0mg"},{"bike_id":"c236b50d-fc06-4bd9-9360-642d6b772cff","system_id":"levelo_inurba_marseille","lat":43.303046,"lon":5.368981,"is_reserved":false,"is_disabled":false,"rental_uris":{"android":"levelo://app?vid=c236b50d-fc06-4bd9-9360-642d6b772cff","ios":"levelo://app?vid=c236b50d-fc06-4bd9-9360-642d6b772cff"},"vehicle_type_id":"4","last_reported":1725736038,"current_range_meters":30000,"station_id":"ce4bgqh2rcd13ifvqc5g","pricing_plan_id":"cebpf4jnsgd1na2vs0mg"},{"bike_id":"b66a0f8c-ec8b-4828-bea6-5a0015054508","system_id":"levelo_inurba_marseille","lat":43.30312,"lon":5.36901,"is_reserved":false,"is_disabled":false,"rental_uris":{"android":"levelo://app?vid=b66a0f8c-ec8b-4828-bea6-5a0015054508","ios":"levelo://app?vid=b66a0f8c-ec8b-4828-bea6-5a0015054508"},"vehicle_type_id":"4","last_reported":1725736038,"current_range_meters":29200,"station_id":"ce4bgqh2rcd13ifvqc5g","pricing_plan_id":"cebpf4jnsgd1na2vs0mg"},{"bike_id":"9a7e9764-981d-4bda-883e-22c41d9314ff","system_id":"levelo_inurba_marseille","lat":43.30307,"lon":5.36911,"is_reserved":false,"is_disabled":false,"rental_uris":{"android":"levelo://app?vid=9a7e9764-981d-4bda-883e-22c41d9314ff","ios":"levelo://app?vid=9a7e9764-981d-4bda-883e-22c41d9314ff"},"vehicle_type_id":"4","last_reported":1725736038,"current_range_meters":31200,"station_id":"ce4bgqh2rcd13ifvqc5g","pricing_plan_id":"cebpf4jnsgd1na2vs0mg"},{"bike_id":"f707c8e2-72e5-479d-8623-99121cc29117","system_id":"levelo_inurba_marseille","lat":43.303046,"lon":5.368981,"is_reserved":false,"is_disabled":false,"rental_uris":{"android":"levelo://app?vid=f707c8e2-72e5-479d-8623-99121cc29117","ios":"levelo://app?vid=f707c8e2-72e5-479d-8623-99121cc29117"},"vehicle_type_id":"4","last_reported":1725736038,"current_range_meters":1600,"station_id":"ce4bgqh2rcd13ifvqc5g","pricing_plan_id":"cebpf4jnsgd1na2vs0mg"},{"bike_id":"930916df-2d1a-4d9d-bc9e-6695c95134cf","system_id":"levelo_inurba_marseille","lat":43.31557,"lon":5.380017,"is_reserved":false,"is_disabled":false,"rental_uris":{"android":"levelo://app?vid=930916df-2d1a-4d9d-bc9e-6695c95134cf","ios":"levelo://app?vid=930916df-2d1a-4d9d-bc9e-6695c95134cf"},"vehicle_type_id":"4","last_reported":1725736038,"current_range_meters":14400,"station_id":"ce4bhsp2rcd13ifvqi50","pricing_plan_id":"cebpf4jnsgd1na2vs0mg"},{"bike_id":"e7f8d253-53e4-4ab6-bd5f-cfe679a043cf","system_id":"levelo_inurba_marseille","lat":43.315289,"lon":5.380349,"is_reserved":false,"is_disabled":false,"rental_uris":{"android":"levelo://app?vid=e7f8d253-53e4-4ab6-bd5f-cfe679a043cf","ios":"levelo://app?vid=e7f8d253-53e4-4ab6-bd5f-cfe679a043cf"},"vehicle_type_id":"4","last_reported":1725736038,"current_range_meters":1200,"station_id":"ce4bhsp2rcd13ifvqi50","pricing_plan_id":"cebpf4jnsgd1na2vs0mg"},{"bike_id":"ff10f1b1-79b4-47a4-8e8c-09f60ccc794f","system_id":"levelo_inurba_marseille","lat":43.315289,"lon":5.380349,"is_reserved":false,"is_disabled":false,"rental_uris":{"android":"levelo://app?vid=ff10f1b1-79b4-47a4-8e8c-09f60ccc794f","ios":"levelo://app?vid=ff10f1b1-79b4-47a4-8e8c-09f60ccc794f"},"vehicle_type_id":"4","last_reported":1725736038,"current_range_meters":15200,"station_id":"ce4bhsp2rcd13ifvqi50","pricing_plan_id":"cebpf4jnsgd1na2vs0mg"},{"bike_id":"afaf3292-df54-42ff-bd82-9c8ade95b322","system_id":"levelo_inurba_marseille","lat":43.315293,"lon":5.380349,"is_reserved":false,"is_disabled":false,"rental_uris":{"android":"levelo://app?vid=afaf3292-df54-42ff-bd82-9c8ade95b322","ios":"levelo://app?vid=afaf3292-df54-42ff-bd82-9c8ade95b322"},"vehicle_type_id":"4","last_reported":1725736038,"current_range_meters":13600,"station_id":"ce4bhsp2rcd13ifvqi50","pricing_plan_id":"cebpf4jnsgd1na2vs0mg"},{"bike_id":"5c7e602c-f961-461f-96ab-799dea8e8115","system_id":"levelo_inurba_marseille","lat":43.32315,"lon":5.36737,"is_reserved":false,"is_disabled":false,"rental_uris":{"android":"levelo://app?vid=5c7e602c-f961-461f-96ab-799dea8e8115","ios":"levelo://app?vid=5c7e602c-f961-461f-96ab-799dea8e8115"},"vehicle_type_id":"4","last_reported":1725736038,"current_range_meters":13600,"station_id":"","pricing_plan_id":"cebpf4jnsgd1na2vs0mg"},{"bike_id":"4595105b-c95e-48d3-85a8-7c54958c535a","system_id":"levelo_inurba_marseille","lat":43.301939,"lon":5.366286,"is_reserved":false,"is_disabled":false,"rental_uris":{"android":"levelo://app?vid=4595105b-c95e-48d3-85a8-7c54958c535a","ios":"levelo://app?vid=4595105b-c95e-48d3-85a8-7c54958c535a"},"vehicle_type_id":"4","last_reported":1725736038,"current_range_meters":4400,"station_id":"ce4bgrh2rcd13ifvqc8g","pricing_plan_id":"cebpf4jnsgd1na2vs0mg"},{"bike_id":"74dd3d35-3ff5-4139-8c11-ff1ca20e9234","system_id":"levelo_inurba_marseille","lat":43.308012,"lon":5.381511,"is_reserved":false,"is_disabled":false,"rental_uris":{"android":"levelo://app?vid=74dd3d35-3ff5-4139-8c11-ff1ca20e9234","ios":"levelo://app?vid=74dd3d35-3ff5-4139-8c11-ff1ca20e9234"},"vehicle_type_id":"4","last_reported":1725736038,"current_range_meters":0,"station_id":"ce4bgt12rcd13ifvqce0","pricing_plan_id":"cebpf4jnsgd1na2vs0mg"},{"bike_id":"034a2b21-a254-44df-be6b-45114e2a3d6f","system_id":"levelo_inurba_marseille","lat":43.308012,"lon":5.381511,"is_reserved":false,"is_disabled":false,"rental_uris":{"android":"levelo://app?vid=034a2b21-a254-44df-be6b-45114e2a3d6f","ios":"levelo://app?vid=034a2b21-a254-44df-be6b-45114e2a3d6f"},"vehicle_type_id":"4","last_reported":1725736038,"current_range_meters":3600,"station_id":"ce4bgt12rcd13ifvqce0","pricing_plan_id":"cebpf4jnsgd1na2vs0mg"},{"bike_id":"65c91795-2ec5-482a-afb8-a5b9b4bc73cc","system_id":"levelo_inurba_marseille","lat":43.32471,"lon":5.36556,"is_reserved":false,"is_disabled":false,"rental_uris":{"android":"levelo://app?vid=65c91795-2ec5-482a-afb8-a5b9b4bc73cc","ios":"levelo://app?vid=65c91795-2ec5-482a-afb8-a5b9b4bc73cc"},"vehicle_type_id":"4","last_reported":1725736038,"current_range_meters":0,"station_id":"ce4bhs12rcd13ifvqhvg","pricing_plan_id":"cebpf4jnsgd1na2vs0mg"},{"bike_id":"13659ac6-de60-4185-a14f-d122c184ad43","system_id":"levelo_inurba_marseille","lat":43.324771,"lon":5.36557,"is_reserved":false,"is_disabled":false,"rental_uris":{"android":"levelo://app?vid=13659ac6-de60-4185-a14f-d122c184ad43","ios":"levelo://app?vid=13659ac6-de60-4185-a14f-d122c184ad43"},"vehicle_type_id":"4","last_reported":1725736038,"current_range_meters":17600,"station_id":"ce4bhs12rcd13ifvqhvg","pricing_plan_id":"cebpf4jnsgd1na2vs0mg"},{"bike_id":"943df34e-3f55-4d9e-80e4-2895fa921602","system_id":"levelo_inurba_marseille","lat":43.324771,"lon":5.36557,"is_reserved":false,"is_disabled":false,"rental_uris":{"android":"levelo://app?vid=943df34e-3f55-4d9e-80e4-2895fa921602","ios":"levelo://app?vid=943df34e-3f55-4d9e-80e4-2895fa921602"},"vehicle_type_id":"4","last_reported":1725736038,"current_range_meters":15600,"station_id":"ce4bhs12rcd13ifvqhvg","pricing_plan_id":"cebpf4jnsgd1na2vs0mg"},{"bike_id":"acc8d95b-b0ee-4e32-b0d6-6cb30a28b94d","system_id":"levelo_inurba_marseille","lat":43.324771,"lon":5.36557,"is_reserved":false,"is_disabled":false,"rental_uris":{"android":"levelo://app?vid=acc8d95b-b0ee-4e32-b0d6-6cb30a28b94d","ios":"levelo://app?vid=acc8d95b-b0ee-4e32-b0d6-6cb30a28b94d"},"vehicle_type_id":"4","last_reported":1725736038,"current_range_meters":25200,"station_id":"ce4bhs12rcd13ifvqhvg","pricing_plan_id":"cebpf4jnsgd1na2vs0mg"},{"bike_id":"385a7e82-f4fe-4655-88e8-8faffaa6e44c","system_id":"levelo_inurba_marseille","lat":43.324771,"lon":5.36557,"is_reserved":false,"is_disabled":false,"rental_uris":{"android":"levelo://app?vid=385a7e82-f4fe-4655-88e8-8faffaa6e44c","ios":"levelo://app?vid=385a7e82-f4fe-4655-88e8-8faffaa6e44c"},"vehicle_type_id":"4","last_reported":1725736038,"current_range_meters":2800,"station_id":"ce4bhs12rcd13ifvqhvg","pricing_plan_id":"cebpf4jnsgd1na2vs0mg"},{"bike_id":"3f59255a-3785-4e9f-b445-bee79e129496","system_id":"levelo_inurba_marseille","lat":43.324771,"lon":5.36557,"is_reserved":false,"is_disabled":false,"rental_uris":{"android":"levelo://app?vid=3f59255a-3785-4e9f-b445-bee79e129496","ios":"levelo://app?vid=3f59255a-3785-4e9f-b445-bee79e129496"},"vehicle_type_id":"4","last_reported":1725736038,"current_range_meters":5200,"station_id":"ce4bhs12rcd13ifvqhvg","pricing_plan_id":"cebpf4jnsgd1na2vs0mg"},{"bike_id":"7e56b2f0-5b05-467e-b16c-93d9fe6a3d5c","system_id":"levelo_inurba_marseille","lat":43.31084,"lon":5.38361,"is_reserved":false,"is_disabled":false,"rental_uris":{"android":"levelo://app?vid=7e56b2f0-5b05-467e-b16c-93d9fe6a3d5c","ios":"levelo://app?vid=7e56b2f0-5b05-467e-b16c-93d9fe6a3d5c"},"vehicle_type_id":"4","last_reported":1725736038,"current_range_meters":0,"station_id":"ce4bgv92rcd13ifvqcr0","pricing_plan_id":"cebpf4jnsgd1na2vs0mg"},{"bike_id":"4e2fa5fe-bca6-438d-9d0f-6e3548c07617","system_id":"levelo_inurba_marseille","lat":43.31076,"lon":5.38362,"is_reserved":false,"is_disabled":false,"rental_uris":{"android":"levelo://app?vid=4e2fa5fe-bca6-438d-9d0f-6e3548c07617","ios":"levelo://app?vid=4e2fa5fe-bca6-438d-9d0f-6e3548c07617"},"vehicle_type_id":"4","last_reported":1725736038,"current_range_meters":0,"station_id":"ce4bgv92rcd13ifvqcr0","pricing_plan_id":"cebpf4jnsgd1na2vs0mg"},{"bike_id":"95be270d-07d1-4076-8a31-0ec960a3b71f","system_id":"levelo_inurba_marseille","lat":43.310804,"lon":5.38359,"is_reserved":false,"is_disabled":false,"rental_uris":{"android":"levelo://app?vid=95be270d-07d1-4076-8a31-0ec960a3b71f","ios":"levelo://app?vid=95be270d-07d1-4076-8a31-0ec960a3b71f"},"vehicle_type_id":"4","last_reported":1725736038,"current_range_meters":11600,"station_id":"ce4bgv92rcd13ifvqcr0","pricing_plan_id":"cebpf4jnsgd1na2vs0mg"},{"bike_id":"99a21b44-d818-4e64-ace8-1595a8de7bdd","system_id":"levelo_inurba_marseille","lat":43.30143,"lon":5.37413,"is_reserved":false,"is_disabled":false,"rental_uris":{"android":"levelo://app?vid=99a21b44-d818-4e64-ace8-1595a8de7bdd","ios":"levelo://app?vid=99a21b44-d818-4e64-ace8-1595a8de7bdd"},"vehicle_type_id":"4","last_reported":1725736038,"current_range_meters":26800,"station_id":"ce4bgs92rcd13ifvqcc0","pricing_plan_id":"cebpf4jnsgd1na2vs0mg"},{"bike_id":"2e405741-ba02-4eb5-8e3a-33ca122e3075","system_id":"levelo_inurba_marseille","lat":43.30143,"lon":5.37413,"is_reserved":false,"is_disabled":false,"rental_uris":{"android":"levelo://app?vid=2e405741-ba02-4eb5-8e3a-33ca122e3075","ios":"levelo://app?vid=2e405741-ba02-4eb5-8e3a-33ca122e3075"},"vehicle_type_id":"4","last_reported":1725736038,"current_range_meters":5600,"station_id":"ce4bgs92rcd13ifvqcc0","pricing_plan_id":"cebpf4jnsgd1na2vs0mg"},{"bike_id":"eee2851c-7747-49c8-b3ad-c11670098ef7","system_id":"levelo_inurba_marseille","lat":43.31999,"lon":5.38149,"is_reserved":false,"is_disabled":false,"rental_uris":{"android":"levelo://app?vid=eee2851c-7747-49c8-b3ad-c11670098ef7","ios":"levelo://app?vid=eee2851c-7747-49c8-b3ad-c11670098ef7"},"vehicle_type_id":"4","last_reported":1725736038,"current_range_meters":2800,"station_id":"ce4bhr12rcd13ifvqhpg","pricing_plan_id":"cebpf4jnsgd1na2vs0mg"},{"bike_id":"da46f99f-142b-4d62-819a-b01b486272fd","system_id":"levelo_inurba_marseille","lat":43.319935,"lon":5.381699,"is_reserved":false,"is_disabled":false,"rental_uris":{"android":"levelo://app?vid=da46f99f-142b-4d62-819a-b01b486272fd","ios":"levelo://app?vid=da46f99f-142b-4d62-819a-b01b486272fd"},"vehicle_type_id":"4","last_reported":1725736038,"current_range_meters":800,"station_id":"ce4bhr12rcd13ifvqhpg","pricing_plan_id":"cebpf4jnsgd1na2vs0mg"},{"bike_id":"37ac62ed-4893-4712-9218-1ad9c9cd1509","system_id":"levelo_inurba_marseille","lat":43.31995,"lon":5.38167,"is_reserved":false,"is_disabled":false,"rental_uris":{"android":"levelo://app?vid=37ac62ed-4893-4712-9218-1ad9c9cd1509","ios":"levelo://app?vid=37ac62ed-4893-4712-9218-1ad9c9cd1509"},"vehicle_type_id":"4","last_reported":1725736038,"current_range_meters":1600,"station_id":"ce4bhr12rcd13ifvqhpg","pricing_plan_id":"cebpf4jnsgd1na2vs0mg"},{"bike_id":"3f05d5a0-de6e-4403-940b-736cfcf1e576","system_id":"levelo_inurba_marseille","lat":43.299222,"lon":5.365554,"is_reserved":false,"is_disabled":false,"rental_uris":{"android":"levelo://app?vid=3f05d5a0-de6e-4403-940b-736cfcf1e576","ios":"levelo://app?vid=3f05d5a0-de6e-4403-940b-736cfcf1e576"},"vehicle_type_id":"4","last_reported":1725736038,"current_range_meters":30400,"station_id":"ce4bgm92rcd13ifvqbr0","pricing_plan_id":"cebpf4jnsgd1na2vs0mg"},{"bike_id":"98d9feb0-e28f-46f1-b329-8bb9af6d22a9","system_id":"levelo_inurba_marseille","lat":43.299222,"lon":5.365554,"is_reserved":false,"is_disabled":false,"rental_uris":{"android":"levelo://app?vid=98d9feb0-e28f-46f1-b329-8bb9af6d22a9","ios":"levelo://app?vid=98d9feb0-e28f-46f1-b329-8bb9af6d22a9"},"vehicle_type_id":"4","last_reported":1725736038,"current_range_meters":31200,"station_id":"ce4bgm92rcd13ifvqbr0","pricing_plan_id":"cebpf4jnsgd1na2vs0mg"},{"bike_id":"b44e471b-95c0-4791-991a-0fcbd4fe1536","system_id":"levelo_inurba_marseille","lat":43.29941,"lon":5.36541,"is_reserved":false,"is_disabled":false,"rental_uris":{"android":"levelo://app?vid=b44e471b-95c0-4791-991a-0fcbd4fe1536","ios":"levelo://app?vid=b44e471b-95c0-4791-991a-0fcbd4fe1536"},"vehicle_type_id":"4","last_reported":1725736038,"current_range_meters":31200,"station_id":"ce4bgm92rcd13ifvqbr0","pricing_plan_id":"cebpf4jnsgd1na2vs0mg"},{"bike_id":"ded9e543-d8ea-48b2-a1eb-f7d100f3a97a","system_id":"levelo_inurba_marseille","lat":43.299222,"lon":5.365554,"is_reserved":false,"is_disabled":false,"rental_uris":{"android":"levelo://app?vid=ded9e543-d8ea-48b2-a1eb-f7d100f3a97a","ios":"levelo://app?vid=ded9e543-d8ea-48b2-a1eb-f7d100f3a97a"},"vehicle_type_id":"4","last_reported":1725736038,"current_range_meters":400,"station_id":"ce4bgm92rcd13ifvqbr0","pricing_plan_id":"cebpf4jnsgd1na2vs0mg"},{"bike_id":"1770b4c8-be32-4114-9156-2db65f092ae7","system_id":"levelo_inurba_marseille","lat":43.299222,"lon":5.365554,"is_reserved":false,"is_disabled":false,"rental_uris":{"android":"levelo://app?vid=1770b4c8-be32-4114-9156-2db65f092ae7","ios":"levelo://app?vid=1770b4c8-be32-4114-9156-2db65f092ae7"},"vehicle_type_id":"4","last_reported":1725736038,"current_range_meters":14000,"station_id":"ce4bgm92rcd13ifvqbr0","pricing_plan_id":"cebpf4jnsgd1na2vs0mg"},{"bike_id":"fe5460b1-4861-4986-95aa-0e76c8575a01","system_id":"levelo_inurba_marseille","lat":43.299222,"lon":5.365554,"is_reserved":false,"is_disabled":false,"rental_uris":{"android":"levelo://app?vid=fe5460b1-4861-4986-95aa-0e76c8575a01","ios":"levelo://app?vid=fe5460b1-4861-4986-95aa-0e76c8575a01"},"vehicle_type_id":"4","last_reported":1725736038,"current_range_meters":30800,"station_id":"ce4bgm92rcd13ifvqbr0","pricing_plan_id":"cebpf4jnsgd1na2vs0mg"},{"bike_id":"78066bd9-33cc-48e1-ba40-5d79e3cce68f","system_id":"levelo_inurba_marseille","lat":43.299724,"lon":5.371829,"is_reserved":false,"is_disabled":false,"rental_uris":{"android":"levelo://app?vid=78066bd9-33cc-48e1-ba40-5d79e3cce68f","ios":"levelo://app?vid=78066bd9-33cc-48e1-ba40-5d79e3cce68f"},"vehicle_type_id":"4","last_reported":1725736038,"current_range_meters":28800,"station_id":"ce4bgr92rcd13ifvqc7g","pricing_plan_id":"cebpf4jnsgd1na2vs0mg"},{"bike_id":"8678943d-49f5-4a4f-aaa3-75ac57df6bc9","system_id":"levelo_inurba_marseille","lat":43.29955,"lon":5.37196,"is_reserved":false,"is_disabled":false,"rental_uris":{"android":"levelo://app?vid=8678943d-49f5-4a4f-aaa3-75ac57df6bc9","ios":"levelo://app?vid=8678943d-49f5-4a4f-aaa3-75ac57df6bc9"},"vehicle_type_id":"4","last_reported":1725736038,"current_range_meters":17200,"station_id":"ce4bgr92rcd13ifvqc7g","pricing_plan_id":"cebpf4jnsgd1na2vs0mg"},{"bike_id":"864b019c-7554-47e8-816c-3486a9a6fe16","system_id":"levelo_inurba_marseille","lat":43.29994,"lon":5.37588,"is_reserved":false,"is_disabled":false,"rental_uris":{"android":"levelo://app?vid=864b019c-7554-47e8-816c-3486a9a6fe16","ios":"levelo://app?vid=864b019c-7554-47e8-816c-3486a9a6fe16"},"vehicle_type_id":"4","last_reported":1725736038,"current_range_meters":4000,"station_id":"","pricing_plan_id":"cebpf4jnsgd1na2vs0mg"},{"bike_id":"72aa66bd-26bc-487c-af46-13b8b3783564","system_id":"levelo_inurba_marseille","lat":43.29853,"lon":5.36286,"is_reserved":false,"is_disabled":false,"rental_uris":{"android":"levelo://app?vid=72aa66bd-26bc-487c-af46-13b8b3783564","ios":"levelo://app?vid=72aa66bd-26bc-487c-af46-13b8b3783564"},"vehicle_type_id":"4","last_reported":1725736038,"current_range_meters":0,"station_id":"ce4bgpp2rcd13ifvqc3g","pricing_plan_id":"cebpf4jnsgd1na2vs0mg"},{"bike_id":"801995ef-db0c-476d-8bb1-9663f492d9d4","system_id":"levelo_inurba_marseille","lat":43.305364,"lon":5.384119,"is_reserved":false,"is_disabled":false,"rental_uris":{"android":"levelo://app?vid=801995ef-db0c-476d-8bb1-9663f492d9d4","ios":"levelo://app?vid=801995ef-db0c-476d-8bb1-9663f492d9d4"},"vehicle_type_id":"4","last_reported":1725736038,"current_range_meters":3200,"station_id":"ce4bgg92rcd13ifvqb30","pricing_plan_id":"cebpf4jnsgd1na2vs0mg"},{"bike_id":"9b31a7e4-1748-45ea-852b-cf977649086b","system_id":"levelo_inurba_marseille","lat":43.298433,"lon":5.362774,"is_reserved":false,"is_disabled":false,"rental_uris":{"android":"levelo://app?vid=9b31a7e4-1748-45ea-852b-cf977649086b","ios":"levelo://app?vid=9b31a7e4-1748-45ea-852b-cf977649086b"},"vehicle_type_id":"4","last_reported":1725736038,"current_range_meters":11600,"station_id":"ce4bgpp2rcd13ifvqc3g","pricing_plan_id":"cebpf4jnsgd1na2vs0mg"},{"bike_id":"147d2d26-7212-49a0-b43f-92e948db0df0","system_id":"levelo_inurba_marseille","lat":43.299243,"lon":5.374807,"is_reserved":false,"is_disabled":false,"rental_uris":{"android":"levelo://app?vid=147d2d26-7212-49a0-b43f-92e948db0df0","ios":"levelo://app?vid=147d2d26-7212-49a0-b43f-92e948db0df0"},"vehicle_type_id":"4","last_reported":1725736038,"current_range_meters":20800,"station_id":"ce4bgjh2rcd13ifvqbg0","pricing_plan_id":"cebpf4jnsgd1na2vs0mg"},{"bike_id":"df87bf28-fa0a-48e9-a1f9-a57929c6bdda","system_id":"levelo_inurba_marseille","lat":43.298433,"lon":5.362774,"is_reserved":false,"is_disabled":false,"rental_uris":{"android":"levelo://app?vid=df87bf28-fa0a-48e9-a1f9-a57929c6bdda","ios":"levelo://app?vid=df87bf28-fa0a-48e9-a1f9-a57929c6bdda"},"vehicle_type_id":"4","last_reported":1725736038,"current_range_meters":26800,"station_id":"ce4bgpp2rcd13ifvqc3g","pricing_plan_id":"cebpf4jnsgd1na2vs0mg"},{"bike_id":"ddfe910a-7274-4dec-a8b7-d4ff28206167","system_id":"levelo_inurba_marseille","lat":43.299243,"lon":5.37481,"is_reserved":false,"is_disabled":false,"rental_uris":{"android":"levelo://app?vid=ddfe910a-7274-4dec-a8b7-d4ff28206167","ios":"levelo://app?vid=ddfe910a-7274-4dec-a8b7-d4ff28206167"},"vehicle_type_id":"4","last_reported":1725736038,"current_range_meters":10000,"station_id":"ce4bgjh2rcd13ifvqbg0","pricing_plan_id":"cebpf4jnsgd1na2vs0mg"},{"bike_id":"02edc137-fe6b-441c-9f46-fd72245ed0ea","system_id":"levelo_inurba_marseille","lat":43.305364,"lon":5.384119,"is_reserved":false,"is_disabled":false,"rental_uris":{"android":"levelo://app?vid=02edc137-fe6b-441c-9f46-fd72245ed0ea","ios":"levelo://app?vid=02edc137-fe6b-441c-9f46-fd72245ed0ea"},"vehicle_type_id":"4","last_reported":1725736038,"current_range_meters":10400,"station_id":"ce4bgg92rcd13ifvqb30","pricing_plan_id":"cebpf4jnsgd1na2vs0mg"},{"bike_id":"4de214bc-ec5f-4a57-a650-94921f791ab9","system_id":"levelo_inurba_marseille","lat":43.298433,"lon":5.362774,"is_reserved":false,"is_disabled":false,"rental_uris":{"android":"levelo://app?vid=4de214bc-ec5f-4a57-a650-94921f791ab9","ios":"levelo://app?vid=4de214bc-ec5f-4a57-a650-94921f791ab9"},"vehicle_type_id":"4","last_reported":1725736038,"current_range_meters":1200,"station_id":"ce4bgpp2rcd13ifvqc3g","pricing_plan_id":"cebpf4jnsgd1na2vs0mg"},{"bike_id":"87434015-219b-458f-9cdd-f57e5e988ea1","system_id":"levelo_inurba_marseille","lat":43.29841,"lon":5.36269,"is_reserved":false,"is_disabled":false,"rental_uris":{"android":"levelo://app?vid=87434015-219b-458f-9cdd-f57e5e988ea1","ios":"levelo://app?vid=87434015-219b-458f-9cdd-f57e5e988ea1"},"vehicle_type_id":"4","last_reported":1725736038,"current_range_meters":1200,"station_id":"ce4bgpp2rcd13ifvqc3g","pricing_plan_id":"cebpf4jnsgd1na2vs0mg"},{"bike_id":"393ce961-f79a-4996-83c3-57cb204732be","system_id":"levelo_inurba_marseille","lat":43.299243,"lon":5.37481,"is_reserved":false,"is_disabled":false,"rental_uris":{"android":"levelo://app?vid=393ce961-f79a-4996-83c3-57cb204732be","ios":"levelo://app?vid=393ce961-f79a-4996-83c3-57cb204732be"},"vehicle_type_id":"4","last_reported":1725736038,"current_range_meters":5600,"station_id":"ce4bgjh2rcd13ifvqbg0","pricing_plan_id":"cebpf4jnsgd1na2vs0mg"},{"bike_id":"35c4b970-6a5b-42e0-965c-4bd79dc5e802","system_id":"levelo_inurba_marseille","lat":43.298433,"lon":5.362774,"is_reserved":false,"is_disabled":false,"rental_uris":{"android":"levelo://app?vid=35c4b970-6a5b-42e0-965c-4bd79dc5e802","ios":"levelo://app?vid=35c4b970-6a5b-42e0-965c-4bd79dc5e802"},"vehicle_type_id":"4","last_reported":1725736038,"current_range_meters":17200,"station_id":"ce4bgpp2rcd13ifvqc3g","pricing_plan_id":"cebpf4jnsgd1na2vs0mg"},{"bike_id":"51c06ea0-af29-406d-94d6-bbbf9d45cf5d","system_id":"levelo_inurba_marseille","lat":43.299243,"lon":5.37481,"is_reserved":false,"is_disabled":false,"rental_uris":{"android":"levelo://app?vid=51c06ea0-af29-406d-94d6-bbbf9d45cf5d","ios":"levelo://app?vid=51c06ea0-af29-406d-94d6-bbbf9d45cf5d"},"vehicle_type_id":"4","last_reported":1725736038,"current_range_meters":14000,"station_id":"ce4bgjh2rcd13ifvqbg0","pricing_plan_id":"cebpf4jnsgd1na2vs0mg"},{"bike_id":"7cc93001-ddf2-4966-85e1-1a593e186e2e","system_id":"levelo_inurba_marseille","lat":43.299243,"lon":5.37481,"is_reserved":false,"is_disabled":false,"rental_uris":{"android":"levelo://app?vid=7cc93001-ddf2-4966-85e1-1a593e186e2e","ios":"levelo://app?vid=7cc93001-ddf2-4966-85e1-1a593e186e2e"},"vehicle_type_id":"4","last_reported":1725736038,"current_range_meters":18000,"station_id":"ce4bgjh2rcd13ifvqbg0","pricing_plan_id":"cebpf4jnsgd1na2vs0mg"},{"bike_id":"18e47222-d239-49a4-bf41-9876534ec5ac","system_id":"levelo_inurba_marseille","lat":43.311722,"lon":5.387247,"is_reserved":false,"is_disabled":false,"rental_uris":{"android":"levelo://app?vid=18e47222-d239-49a4-bf41-9876534ec5ac","ios":"levelo://app?vid=18e47222-d239-49a4-bf41-9876534ec5ac"},"vehicle_type_id":"4","last_reported":1725736038,"current_range_meters":15600,"station_id":"ce4bgv12rcd13ifvqcp0","pricing_plan_id":"cebpf4jnsgd1na2vs0mg"},{"bike_id":"6187aa6c-2a8b-440d-a393-20180ab67d37","system_id":"levelo_inurba_marseille","lat":43.311722,"lon":5.387247,"is_reserved":false,"is_disabled":false,"rental_uris":{"android":"levelo://app?vid=6187aa6c-2a8b-440d-a393-20180ab67d37","ios":"levelo://app?vid=6187aa6c-2a8b-440d-a393-20180ab67d37"},"vehicle_type_id":"4","last_reported":1725736038,"current_range_meters":21600,"station_id":"ce4bgv12rcd13ifvqcp0","pricing_plan_id":"cebpf4jnsgd1na2vs0mg"},{"bike_id":"701065ab-3ce5-424d-9ebf-42dd024b8016","system_id":"levelo_inurba_marseille","lat":43.311722,"lon":5.387247,"is_reserved":false,"is_disabled":false,"rental_uris":{"android":"levelo://app?vid=701065ab-3ce5-424d-9ebf-42dd024b8016","ios":"levelo://app?vid=701065ab-3ce5-424d-9ebf-42dd024b8016"},"vehicle_type_id":"4","last_reported":1725736038,"current_range_meters":19600,"station_id":"ce4bgv12rcd13ifvqcp0","pricing_plan_id":"cebpf4jnsgd1na2vs0mg"},{"bike_id":"e2cc141a-59e2-4b17-906c-796b94550ac9","system_id":"levelo_inurba_marseille","lat":43.299243,"lon":5.374807,"is_reserved":false,"is_disabled":false,"rental_uris":{"android":"levelo://app?vid=e2cc141a-59e2-4b17-906c-796b94550ac9","ios":"levelo://app?vid=e2cc141a-59e2-4b17-906c-796b94550ac9"},"vehicle_type_id":"4","last_reported":1725736038,"current_range_meters":5600,"station_id":"ce4bgjh2rcd13ifvqbg0","pricing_plan_id":"cebpf4jnsgd1na2vs0mg"},{"bike_id":"6cec8ec6-96ff-4bdb-a68f-f29a0570aa7f","system_id":"levelo_inurba_marseille","lat":43.301417,"lon":5.3809,"is_reserved":false,"is_disabled":false,"rental_uris":{"android":"levelo://app?vid=6cec8ec6-96ff-4bdb-a68f-f29a0570aa7f","ios":"levelo://app?vid=6cec8ec6-96ff-4bdb-a68f-f29a0570aa7f"},"vehicle_type_id":"4","last_reported":1725736038,"current_range_meters":0,"station_id":"ce4bgjp2rcd13ifvqbh0","pricing_plan_id":"cebpf4jnsgd1na2vs0mg"},{"bike_id":"4ae51d6b-aaaf-442a-873d-f8eca9a3e7b5","system_id":"levelo_inurba_marseille","lat":43.320701,"lon":5.384472,"is_reserved":false,"is_disabled":false,"rental_uris":{"android":"levelo://app?vid=4ae51d6b-aaaf-442a-873d-f8eca9a3e7b5","ios":"levelo://app?vid=4ae51d6b-aaaf-442a-873d-f8eca9a3e7b5"},"vehicle_type_id":"4","last_reported":1725736038,"current_range_meters":6000,"station_id":"","pricing_plan_id":"cebpf4jnsgd1na2vs0mg"},{"bike_id":"4c2641e0-c8d3-4d7c-b032-7b456729213f","system_id":"levelo_inurba_marseille","lat":43.30147,"lon":5.38086,"is_reserved":false,"is_disabled":false,"rental_uris":{"android":"levelo://app?vid=4c2641e0-c8d3-4d7c-b032-7b456729213f","ios":"levelo://app?vid=4c2641e0-c8d3-4d7c-b032-7b456729213f"},"vehicle_type_id":"4","last_reported":1725736038,"current_range_meters":22000,"station_id":"ce4bgjp2rcd13ifvqbh0","pricing_plan_id":"cebpf4jnsgd1na2vs0mg"},{"bike_id":"46026b44-e9c0-4c8a-a0e2-77662a774824","system_id":"levelo_inurba_marseille","lat":43.297794,"lon":5.370888,"is_reserved":false,"is_disabled":false,"rental_uris":{"android":"levelo://app?vid=46026b44-e9c0-4c8a-a0e2-77662a774824","ios":"levelo://app?vid=46026b44-e9c0-4c8a-a0e2-77662a774824"},"vehicle_type_id":"4","last_reported":1725736038,"current_range_meters":5200,"station_id":"ce4bgop2rcd13ifvqc1g","pricing_plan_id":"cebpf4jnsgd1na2vs0mg"},{"bike_id":"ba573b2f-8994-4ed6-9524-05560fb9ec8f","system_id":"levelo_inurba_marseille","lat":43.297794,"lon":5.370888,"is_reserved":false,"is_disabled":false,"rental_uris":{"android":"levelo://app?vid=ba573b2f-8994-4ed6-9524-05560fb9ec8f","ios":"levelo://app?vid=ba573b2f-8994-4ed6-9524-05560fb9ec8f"},"vehicle_type_id":"4","last_reported":1725736038,"current_range_meters":30800,"station_id":"ce4bgop2rcd13ifvqc1g","pricing_plan_id":"cebpf4jnsgd1na2vs0mg"},{"bike_id":"7c84911c-2ecd-4b2c-b331-07be92eb01df","system_id":"levelo_inurba_marseille","lat":43.297774,"lon":5.370875,"is_reserved":false,"is_disabled":false,"rental_uris":{"android":"levelo://app?vid=7c84911c-2ecd-4b2c-b331-07be92eb01df","ios":"levelo://app?vid=7c84911c-2ecd-4b2c-b331-07be92eb01df"},"vehicle_type_id":"4","last_reported":1725736038,"current_range_meters":28400,"station_id":"ce4bgop2rcd13ifvqc1g","pricing_plan_id":"cebpf4jnsgd1na2vs0mg"},{"bike_id":"9d4d4ad3-9fa4-4394-8995-8a5887e80cc8","system_id":"levelo_inurba_marseille","lat":43.322835,"lon":5.382614,"is_reserved":false,"is_disabled":false,"rental_uris":{"android":"levelo://app?vid=9d4d4ad3-9fa4-4394-8995-8a5887e80cc8","ios":"levelo://app?vid=9d4d4ad3-9fa4-4394-8995-8a5887e80cc8"},"vehicle_type_id":"4","last_reported":1725736038,"current_range_meters":12000,"station_id":"ce4bhr12rcd13ifvqhqg","pricing_plan_id":"cebpf4jnsgd1na2vs0mg"},{"bike_id":"66e565f3-5383-4c06-bc48-5d6da31db181","system_id":"levelo_inurba_marseille","lat":43.297794,"lon":5.370888,"is_reserved":false,"is_disabled":false,"rental_uris":{"android":"levelo://app?vid=66e565f3-5383-4c06-bc48-5d6da31db181","ios":"levelo://app?vid=66e565f3-5383-4c06-bc48-5d6da31db181"},"vehicle_type_id":"4","last_reported":1725736038,"current_range_meters":400,"station_id":"ce4bgop2rcd13ifvqc1g","pricing_plan_id":"cebpf4jnsgd1na2vs0mg"},{"bike_id":"298c5559-107f-4d0b-8a5a-4643afde30a6","system_id":"levelo_inurba_marseille","lat":43.322872,"lon":5.382756,"is_reserved":false,"is_disabled":false,"rental_uris":{"android":"levelo://app?vid=298c5559-107f-4d0b-8a5a-4643afde30a6","ios":"levelo://app?vid=298c5559-107f-4d0b-8a5a-4643afde30a6"},"vehicle_type_id":"4","last_reported":1725736038,"current_range_meters":26400,"station_id":"ce4bhr12rcd13ifvqhqg","pricing_plan_id":"cebpf4jnsgd1na2vs0mg"},{"bike_id":"f7d6fa9d-57c6-4609-bc86-c92329f8b503","system_id":"levelo_inurba_marseille","lat":43.297163,"lon":5.365866,"is_reserved":false,"is_disabled":false,"rental_uris":{"android":"levelo://app?vid=f7d6fa9d-57c6-4609-bc86-c92329f8b503","ios":"levelo://app?vid=f7d6fa9d-57c6-4609-bc86-c92329f8b503"},"vehicle_type_id":"4","last_reported":1725736038,"current_range_meters":800,"station_id":"ce4bgn12rcd13ifvqbt0","pricing_plan_id":"cebpf4jnsgd1na2vs0mg"},{"bike_id":"9f1af717-3f28-4947-9102-8f958aeed162","system_id":"levelo_inurba_marseille","lat":43.298772,"lon":5.378324,"is_reserved":false,"is_disabled":false,"rental_uris":{"android":"levelo://app?vid=9f1af717-3f28-4947-9102-8f958aeed162","ios":"levelo://app?vid=9f1af717-3f28-4947-9102-8f958aeed162"},"vehicle_type_id":"4","last_reported":1725736038,"current_range_meters":0,"station_id":"","pricing_plan_id":"cebpf4jnsgd1na2vs0mg"},{"bike_id":"ed09cf59-48fc-4819-b6af-64a42d47b17d","system_id":"levelo_inurba_marseille","lat":43.2968,"lon":5.37291,"is_reserved":false,"is_disabled":false,"rental_uris":{"android":"levelo://app?vid=ed09cf59-48fc-4819-b6af-64a42d47b17d","ios":"levelo://app?vid=ed09cf59-48fc-4819-b6af-64a42d47b17d"},"vehicle_type_id":"4","last_reported":1725736038,"current_range_meters":3600,"station_id":"ce4bgk12rcd13ifvqbj0","pricing_plan_id":"cebpf4jnsgd1na2vs0mg"},{"bike_id":"a24669a8-e90b-46d8-9880-5c1a9a7c588d","system_id":"levelo_inurba_marseille","lat":43.2968,"lon":5.37291,"is_reserved":false,"is_disabled":false,"rental_uris":{"android":"levelo://app?vid=a24669a8-e90b-46d8-9880-5c1a9a7c588d","ios":"levelo://app?vid=a24669a8-e90b-46d8-9880-5c1a9a7c588d"},"vehicle_type_id":"4","last_reported":1725736038,"current_range_meters":21200,"station_id":"ce4bgk12rcd13ifvqbj0","pricing_plan_id":"cebpf4jnsgd1na2vs0mg"},{"bike_id":"8a8887de-5c7d-4b1c-91b2-78e9c920b48d","system_id":"levelo_inurba_marseille","lat":43.2968,"lon":5.37291,"is_reserved":false,"is_disabled":false,"rental_uris":{"android":"levelo://app?vid=8a8887de-5c7d-4b1c-91b2-78e9c920b48d","ios":"levelo://app?vid=8a8887de-5c7d-4b1c-91b2-78e9c920b48d"},"vehicle_type_id":"4","last_reported":1725736038,"current_range_meters":30000,"station_id":"ce4bgk12rcd13ifvqbj0","pricing_plan_id":"cebpf4jnsgd1na2vs0mg"},{"bike_id":"331cb293-873f-448d-a73d-5ba68eb17fa3","system_id":"levelo_inurba_marseille","lat":43.303593,"lon":5.385837,"is_reserved":false,"is_disabled":false,"rental_uris":{"android":"levelo://app?vid=331cb293-873f-448d-a73d-5ba68eb17fa3","ios":"levelo://app?vid=331cb293-873f-448d-a73d-5ba68eb17fa3"},"vehicle_type_id":"4","last_reported":1725736038,"current_range_meters":9600,"station_id":"","pricing_plan_id":"cebpf4jnsgd1na2vs0mg"},{"bike_id":"967a8b4b-046c-414e-bc06-b6393d63b700","system_id":"levelo_inurba_marseille","lat":43.296131,"lon":5.370791,"is_reserved":false,"is_disabled":false,"rental_uris":{"android":"levelo://app?vid=967a8b4b-046c-414e-bc06-b6393d63b700","ios":"levelo://app?vid=967a8b4b-046c-414e-bc06-b6393d63b700"},"vehicle_type_id":"4","last_reported":1725736038,"current_range_meters":24800,"station_id":"ce4bgnh2rcd13ifvqc0g","pricing_plan_id":"cebpf4jnsgd1na2vs0mg"},{"bike_id":"852dbec9-2b80-4c2b-8b93-56f7b04f5434","system_id":"levelo_inurba_marseille","lat":43.29573,"lon":5.367355,"is_reserved":false,"is_disabled":false,"rental_uris":{"android":"levelo://app?vid=852dbec9-2b80-4c2b-8b93-56f7b04f5434","ios":"levelo://app?vid=852dbec9-2b80-4c2b-8b93-56f7b04f5434"},"vehicle_type_id":"4","last_reported":1725736038,"current_range_meters":0,"station_id":"ce4bgph2rcd13ifvqc2g","pricing_plan_id":"cebpf4jnsgd1na2vs0mg"},{"bike_id":"3c498248-1e61-400d-b81d-121ff354950f","system_id":"levelo_inurba_marseille","lat":43.29616,"lon":5.37153,"is_reserved":false,"is_disabled":false,"rental_uris":{"android":"levelo://app?vid=3c498248-1e61-400d-b81d-121ff354950f","ios":"levelo://app?vid=3c498248-1e61-400d-b81d-121ff354950f"},"vehicle_type_id":"4","last_reported":1725736038,"current_range_meters":15200,"station_id":"ce4bgnh2rcd13ifvqc0g","pricing_plan_id":"cebpf4jnsgd1na2vs0mg"},{"bike_id":"1e896817-af6d-4606-ba98-7730caa90999","system_id":"levelo_inurba_marseille","lat":43.29573,"lon":5.367355,"is_reserved":false,"is_disabled":false,"rental_uris":{"android":"levelo://app?vid=1e896817-af6d-4606-ba98-7730caa90999","ios":"levelo://app?vid=1e896817-af6d-4606-ba98-7730caa90999"},"vehicle_type_id":"4","last_reported":1725736038,"current_range_meters":7200,"station_id":"ce4bgph2rcd13ifvqc2g","pricing_plan_id":"cebpf4jnsgd1na2vs0mg"},{"bike_id":"cfc0acac-516e-448d-b0c9-2d9541b482f1","system_id":"levelo_inurba_marseille","lat":43.29573,"lon":5.367355,"is_reserved":false,"is_disabled":false,"rental_uris":{"android":"levelo://app?vid=cfc0acac-516e-448d-b0c9-2d9541b482f1","ios":"levelo://app?vid=cfc0acac-516e-448d-b0c9-2d9541b482f1"},"vehicle_type_id":"4","last_reported":1725736038,"current_range_meters":29200,"station_id":"ce4bgph2rcd13ifvqc2g","pricing_plan_id":"cebpf4jnsgd1na2vs0mg"},{"bike_id":"a4db2eab-141b-4c6e-a190-99be8a9f6ff4","system_id":"levelo_inurba_marseille","lat":43.29573,"lon":5.367355,"is_reserved":false,"is_disabled":false,"rental_uris":{"android":"levelo://app?vid=a4db2eab-141b-4c6e-a190-99be8a9f6ff4","ios":"levelo://app?vid=a4db2eab-141b-4c6e-a190-99be8a9f6ff4"},"vehicle_type_id":"4","last_reported":1725736038,"current_range_meters":5600,"station_id":"ce4bgph2rcd13ifvqc2g","pricing_plan_id":"cebpf4jnsgd1na2vs0mg"},{"bike_id":"029fd2ae-918b-4bf1-b05f-46c1e31304c9","system_id":"levelo_inurba_marseille","lat":43.29573,"lon":5.367355,"is_reserved":false,"is_disabled":false,"rental_uris":{"android":"levelo://app?vid=029fd2ae-918b-4bf1-b05f-46c1e31304c9","ios":"levelo://app?vid=029fd2ae-918b-4bf1-b05f-46c1e31304c9"},"vehicle_type_id":"4","last_reported":1725736038,"current_range_meters":18400,"station_id":"ce4bgph2rcd13ifvqc2g","pricing_plan_id":"cebpf4jnsgd1na2vs0mg"},{"bike_id":"149b150d-ae59-4188-90a9-6003407eb793","system_id":"levelo_inurba_marseille","lat":43.309712,"lon":5.390001,"is_reserved":false,"is_disabled":false,"rental_uris":{"android":"levelo://app?vid=149b150d-ae59-4188-90a9-6003407eb793","ios":"levelo://app?vid=149b150d-ae59-4188-90a9-6003407eb793"},"vehicle_type_id":"4","last_reported":1725736038,"current_range_meters":31200,"station_id":"ce4bgup2rcd13ifvqco0","pricing_plan_id":"cebpf4jnsgd1na2vs0mg"},{"bike_id":"3e3c43fe-6b72-4f56-b2aa-12a083ce28db","system_id":"levelo_inurba_marseille","lat":43.299028,"lon":5.381509,"is_reserved":false,"is_disabled":false,"rental_uris":{"android":"levelo://app?vid=3e3c43fe-6b72-4f56-b2aa-12a083ce28db","ios":"levelo://app?vid=3e3c43fe-6b72-4f56-b2aa-12a083ce28db"},"vehicle_type_id":"4","last_reported":1725736038,"current_range_meters":11200,"station_id":"ce4bgj12rcd13ifvqbc0","pricing_plan_id":"cebpf4jnsgd1na2vs0mg"},{"bike_id":"6b80620e-22bb-4619-8794-89d5f82a9176","system_id":"levelo_inurba_marseille","lat":43.30952,"lon":5.39021,"is_reserved":false,"is_disabled":false,"rental_uris":{"android":"levelo://app?vid=6b80620e-22bb-4619-8794-89d5f82a9176","ios":"levelo://app?vid=6b80620e-22bb-4619-8794-89d5f82a9176"},"vehicle_type_id":"4","last_reported":1725736038,"current_range_meters":4400,"station_id":"ce4bgup2rcd13ifvqco0","pricing_plan_id":"cebpf4jnsgd1na2vs0mg"},{"bike_id":"b8144e01-24c3-47b3-8698-30eb26569f14","system_id":"levelo_inurba_marseille","lat":43.309589,"lon":5.390258,"is_reserved":false,"is_disabled":false,"rental_uris":{"android":"levelo://app?vid=b8144e01-24c3-47b3-8698-30eb26569f14","ios":"levelo://app?vid=b8144e01-24c3-47b3-8698-30eb26569f14"},"vehicle_type_id":"4","last_reported":1725736038,"current_range_meters":11600,"station_id":"ce4bgup2rcd13ifvqco0","pricing_plan_id":"cebpf4jnsgd1na2vs0mg"},{"bike_id":"6ef775eb-176b-4fcc-8250-46055d071140","system_id":"levelo_inurba_marseille","lat":43.309589,"lon":5.390258,"is_reserved":false,"is_disabled":false,"rental_uris":{"android":"levelo://app?vid=6ef775eb-176b-4fcc-8250-46055d071140","ios":"levelo://app?vid=6ef775eb-176b-4fcc-8250-46055d071140"},"vehicle_type_id":"4","last_reported":1725736038,"current_range_meters":31200,"station_id":"ce4bgup2rcd13ifvqco0","pricing_plan_id":"cebpf4jnsgd1na2vs0mg"},{"bike_id":"5db3f96e-9e49-43ed-bbfb-15381e90e22d","system_id":"levelo_inurba_marseille","lat":43.309589,"lon":5.390258,"is_reserved":false,"is_disabled":false,"rental_uris":{"android":"levelo://app?vid=5db3f96e-9e49-43ed-bbfb-15381e90e22d","ios":"levelo://app?vid=5db3f96e-9e49-43ed-bbfb-15381e90e22d"},"vehicle_type_id":"4","last_reported":1725736038,"current_range_meters":28800,"station_id":"ce4bgup2rcd13ifvqco0","pricing_plan_id":"cebpf4jnsgd1na2vs0mg"},{"bike_id":"142e77fc-7c18-4b65-934e-66e121f732df","system_id":"levelo_inurba_marseille","lat":43.30952,"lon":5.39028,"is_reserved":false,"is_disabled":false,"rental_uris":{"android":"levelo://app?vid=142e77fc-7c18-4b65-934e-66e121f732df","ios":"levelo://app?vid=142e77fc-7c18-4b65-934e-66e121f732df"},"vehicle_type_id":"4","last_reported":1725736038,"current_range_meters":4000,"station_id":"ce4bgup2rcd13ifvqco0","pricing_plan_id":"cebpf4jnsgd1na2vs0mg"},{"bike_id":"34b00f58-9c9b-4428-8d86-4260e945e233","system_id":"levelo_inurba_marseille","lat":43.309495,"lon":5.390274,"is_reserved":false,"is_disabled":false,"rental_uris":{"android":"levelo://app?vid=34b00f58-9c9b-4428-8d86-4260e945e233","ios":"levelo://app?vid=34b00f58-9c9b-4428-8d86-4260e945e233"},"vehicle_type_id":"4","last_reported":1725736038,"current_range_meters":4000,"station_id":"ce4bgup2rcd13ifvqco0","pricing_plan_id":"cebpf4jnsgd1na2vs0mg"},{"bike_id":"be0c2c4c-230a-494e-b8cb-d074b9e44573","system_id":"levelo_inurba_marseille","lat":43.309589,"lon":5.390258,"is_reserved":false,"is_disabled":false,"rental_uris":{"android":"levelo://app?vid=be0c2c4c-230a-494e-b8cb-d074b9e44573","ios":"levelo://app?vid=be0c2c4c-230a-494e-b8cb-d074b9e44573"},"vehicle_type_id":"4","last_reported":1725736038,"current_range_meters":31200,"station_id":"ce4bgup2rcd13ifvqco0","pricing_plan_id":"cebpf4jnsgd1na2vs0mg"},{"bike_id":"7675c869-ad2b-45a0-8d51-1dd58786e9cd","system_id":"levelo_inurba_marseille","lat":43.309481,"lon":5.390274,"is_reserved":false,"is_disabled":false,"rental_uris":{"android":"levelo://app?vid=7675c869-ad2b-45a0-8d51-1dd58786e9cd","ios":"levelo://app?vid=7675c869-ad2b-45a0-8d51-1dd58786e9cd"},"vehicle_type_id":"4","last_reported":1725736038,"current_range_meters":30400,"station_id":"ce4bgup2rcd13ifvqco0","pricing_plan_id":"cebpf4jnsgd1na2vs0mg"},{"bike_id":"36e0df35-dfca-4a4b-99b3-615f9b48616d","system_id":"levelo_inurba_marseille","lat":43.296935,"lon":5.376544,"is_reserved":false,"is_disabled":false,"rental_uris":{"android":"levelo://app?vid=36e0df35-dfca-4a4b-99b3-615f9b48616d","ios":"levelo://app?vid=36e0df35-dfca-4a4b-99b3-615f9b48616d"},"vehicle_type_id":"4","last_reported":1725736038,"current_range_meters":12800,"station_id":"ce4bgkh2rcd13ifvqbl0","pricing_plan_id":"cebpf4jnsgd1na2vs0mg"},{"bike_id":"27ca9409-944f-45d5-8b3b-60fa21a6bac5","system_id":"levelo_inurba_marseille","lat":43.309589,"lon":5.390258,"is_reserved":false,"is_disabled":false,"rental_uris":{"android":"levelo://app?vid=27ca9409-944f-45d5-8b3b-60fa21a6bac5","ios":"levelo://app?vid=27ca9409-944f-45d5-8b3b-60fa21a6bac5"},"vehicle_type_id":"4","last_reported":1725736038,"current_range_meters":4400,"station_id":"ce4bgup2rcd13ifvqco0","pricing_plan_id":"cebpf4jnsgd1na2vs0mg"},{"bike_id":"e4a14820-de56-485a-94c2-4c32e38c91bc","system_id":"levelo_inurba_marseille","lat":43.309453,"lon":5.390289,"is_reserved":false,"is_disabled":false,"rental_uris":{"android":"levelo://app?vid=e4a14820-de56-485a-94c2-4c32e38c91bc","ios":"levelo://app?vid=e4a14820-de56-485a-94c2-4c32e38c91bc"},"vehicle_type_id":"4","last_reported":1725736038,"current_range_meters":31200,"station_id":"ce4bgup2rcd13ifvqco0","pricing_plan_id":"cebpf4jnsgd1na2vs0mg"},{"bike_id":"c9e8f6d6-3fa6-4221-ba6d-fbc5f41574ca","system_id":"levelo_inurba_marseille","lat":43.309589,"lon":5.390258,"is_reserved":false,"is_disabled":false,"rental_uris":{"android":"levelo://app?vid=c9e8f6d6-3fa6-4221-ba6d-fbc5f41574ca","ios":"levelo://app?vid=c9e8f6d6-3fa6-4221-ba6d-fbc5f41574ca"},"vehicle_type_id":"4","last_reported":1725736038,"current_range_meters":32000,"station_id":"ce4bgup2rcd13ifvqco0","pricing_plan_id":"cebpf4jnsgd1na2vs0mg"},{"bike_id":"f908f365-d9dc-49ff-b737-124eaba7f0c6","system_id":"levelo_inurba_marseille","lat":43.309589,"lon":5.390258,"is_reserved":false,"is_disabled":false,"rental_uris":{"android":"levelo://app?vid=f908f365-d9dc-49ff-b737-124eaba7f0c6","ios":"levelo://app?vid=f908f365-d9dc-49ff-b737-124eaba7f0c6"},"vehicle_type_id":"4","last_reported":1725736038,"current_range_meters":31200,"station_id":"ce4bgup2rcd13ifvqco0","pricing_plan_id":"cebpf4jnsgd1na2vs0mg"},{"bike_id":"d5f72bab-5a21-443c-9b67-70323fe2bdf8","system_id":"levelo_inurba_marseille","lat":43.309589,"lon":5.390258,"is_reserved":false,"is_disabled":false,"rental_uris":{"android":"levelo://app?vid=d5f72bab-5a21-443c-9b67-70323fe2bdf8","ios":"levelo://app?vid=d5f72bab-5a21-443c-9b67-70323fe2bdf8"},"vehicle_type_id":"4","last_reported":1725736038,"current_range_meters":18400,"station_id":"ce4bgup2rcd13ifvqco0","pricing_plan_id":"cebpf4jnsgd1na2vs0mg"},{"bike_id":"7494f416-fd77-4d1c-9692-978278933b79","system_id":"levelo_inurba_marseille","lat":43.309455,"lon":5.390314,"is_reserved":false,"is_disabled":false,"rental_uris":{"android":"levelo://app?vid=7494f416-fd77-4d1c-9692-978278933b79","ios":"levelo://app?vid=7494f416-fd77-4d1c-9692-978278933b79"},"vehicle_type_id":"4","last_reported":1725736038,"current_range_meters":30800,"station_id":"ce4bgup2rcd13ifvqco0","pricing_plan_id":"cebpf4jnsgd1na2vs0mg"},{"bike_id":"00b29cb5-c5db-4379-94ef-2cc14e07ac66","system_id":"levelo_inurba_marseille","lat":43.30947,"lon":5.39032,"is_reserved":false,"is_disabled":false,"rental_uris":{"android":"levelo://app?vid=00b29cb5-c5db-4379-94ef-2cc14e07ac66","ios":"levelo://app?vid=00b29cb5-c5db-4379-94ef-2cc14e07ac66"},"vehicle_type_id":"4","last_reported":1725736038,"current_range_meters":31200,"station_id":"ce4bgup2rcd13ifvqco0","pricing_plan_id":"cebpf4jnsgd1na2vs0mg"},{"bike_id":"4488902a-0b5c-47b6-90d3-94e192089deb","system_id":"levelo_inurba_marseille","lat":43.30949,"lon":5.39033,"is_reserved":false,"is_disabled":false,"rental_uris":{"android":"levelo://app?vid=4488902a-0b5c-47b6-90d3-94e192089deb","ios":"levelo://app?vid=4488902a-0b5c-47b6-90d3-94e192089deb"},"vehicle_type_id":"4","last_reported":1725736038,"current_range_meters":21200,"station_id":"ce4bgup2rcd13ifvqco0","pricing_plan_id":"cebpf4jnsgd1na2vs0mg"},{"bike_id":"b3c65415-148b-4811-9970-21b19332a0c6","system_id":"levelo_inurba_marseille","lat":43.299028,"lon":5.381509,"is_reserved":false,"is_disabled":false,"rental_uris":{"android":"levelo://app?vid=b3c65415-148b-4811-9970-21b19332a0c6","ios":"levelo://app?vid=b3c65415-148b-4811-9970-21b19332a0c6"},"vehicle_type_id":"4","last_reported":1725736038,"current_range_meters":28000,"station_id":"ce4bgj12rcd13ifvqbc0","pricing_plan_id":"cebpf4jnsgd1na2vs0mg"},{"bike_id":"21f25048-84c4-485c-b336-f257bea36cf8","system_id":"levelo_inurba_marseille","lat":43.309589,"lon":5.390258,"is_reserved":false,"is_disabled":false,"rental_uris":{"android":"levelo://app?vid=21f25048-84c4-485c-b336-f257bea36cf8","ios":"levelo://app?vid=21f25048-84c4-485c-b336-f257bea36cf8"},"vehicle_type_id":"4","last_reported":1725736038,"current_range_meters":16800,"station_id":"ce4bgup2rcd13ifvqco0","pricing_plan_id":"cebpf4jnsgd1na2vs0mg"},{"bike_id":"4c500a60-4229-4c00-91dc-6959b6241db7","system_id":"levelo_inurba_marseille","lat":43.30949,"lon":5.39034,"is_reserved":false,"is_disabled":false,"rental_uris":{"android":"levelo://app?vid=4c500a60-4229-4c00-91dc-6959b6241db7","ios":"levelo://app?vid=4c500a60-4229-4c00-91dc-6959b6241db7"},"vehicle_type_id":"4","last_reported":1725736038,"current_range_meters":31200,"station_id":"ce4bgup2rcd13ifvqco0","pricing_plan_id":"cebpf4jnsgd1na2vs0mg"},{"bike_id":"e9f5f4ce-9fc1-410f-9b65-d236843f9724","system_id":"levelo_inurba_marseille","lat":43.30955,"lon":5.39036,"is_reserved":false,"is_disabled":false,"rental_uris":{"android":"levelo://app?vid=e9f5f4ce-9fc1-410f-9b65-d236843f9724","ios":"levelo://app?vid=e9f5f4ce-9fc1-410f-9b65-d236843f9724"},"vehicle_type_id":"4","last_reported":1725736038,"current_range_meters":7200,"station_id":"ce4bgup2rcd13ifvqco0","pricing_plan_id":"cebpf4jnsgd1na2vs0mg"},{"bike_id":"bd11ef52-b5d3-4c81-9941-82ebda8fdf26","system_id":"levelo_inurba_marseille","lat":43.309589,"lon":5.390258,"is_reserved":false,"is_disabled":false,"rental_uris":{"android":"levelo://app?vid=bd11ef52-b5d3-4c81-9941-82ebda8fdf26","ios":"levelo://app?vid=bd11ef52-b5d3-4c81-9941-82ebda8fdf26"},"vehicle_type_id":"4","last_reported":1725736038,"current_range_meters":31200,"station_id":"ce4bgup2rcd13ifvqco0","pricing_plan_id":"cebpf4jnsgd1na2vs0mg"},{"bike_id":"10ffe63c-f017-4856-afe9-a14cdad7028f","system_id":"levelo_inurba_marseille","lat":43.309589,"lon":5.390258,"is_reserved":false,"is_disabled":false,"rental_uris":{"android":"levelo://app?vid=10ffe63c-f017-4856-afe9-a14cdad7028f","ios":"levelo://app?vid=10ffe63c-f017-4856-afe9-a14cdad7028f"},"vehicle_type_id":"4","last_reported":1725736038,"current_range_meters":5200,"station_id":"ce4bgup2rcd13ifvqco0","pricing_plan_id":"cebpf4jnsgd1na2vs0mg"},{"bike_id":"290c4869-ef8d-48fe-b70e-93b4b7d7d788","system_id":"levelo_inurba_marseille","lat":43.309589,"lon":5.390258,"is_reserved":false,"is_disabled":false,"rental_uris":{"android":"levelo://app?vid=290c4869-ef8d-48fe-b70e-93b4b7d7d788","ios":"levelo://app?vid=290c4869-ef8d-48fe-b70e-93b4b7d7d788"},"vehicle_type_id":"4","last_reported":1725736038,"current_range_meters":8000,"station_id":"ce4bgup2rcd13ifvqco0","pricing_plan_id":"cebpf4jnsgd1na2vs0mg"},{"bike_id":"499f5d29-53ea-42dd-8220-f541fb12c561","system_id":"levelo_inurba_marseille","lat":43.309509,"lon":5.390366,"is_reserved":false,"is_disabled":false,"rental_uris":{"android":"levelo://app?vid=499f5d29-53ea-42dd-8220-f541fb12c561","ios":"levelo://app?vid=499f5d29-53ea-42dd-8220-f541fb12c561"},"vehicle_type_id":"4","last_reported":1725736038,"current_range_meters":31200,"station_id":"ce4bgup2rcd13ifvqco0","pricing_plan_id":"cebpf4jnsgd1na2vs0mg"},{"bike_id":"e8621f17-fc25-4981-918c-39cdedffed3a","system_id":"levelo_inurba_marseille","lat":43.309589,"lon":5.390258,"is_reserved":false,"is_disabled":false,"rental_uris":{"android":"levelo://app?vid=e8621f17-fc25-4981-918c-39cdedffed3a","ios":"levelo://app?vid=e8621f17-fc25-4981-918c-39cdedffed3a"},"vehicle_type_id":"4","last_reported":1725736038,"current_range_meters":31200,"station_id":"ce4bgup2rcd13ifvqco0","pricing_plan_id":"cebpf4jnsgd1na2vs0mg"},{"bike_id":"a5f54105-983a-4327-ad85-44b6697885df","system_id":"levelo_inurba_marseille","lat":43.309589,"lon":5.390258,"is_reserved":false,"is_disabled":false,"rental_uris":{"android":"levelo://app?vid=a5f54105-983a-4327-ad85-44b6697885df","ios":"levelo://app?vid=a5f54105-983a-4327-ad85-44b6697885df"},"vehicle_type_id":"4","last_reported":1725736038,"current_range_meters":8400,"station_id":"ce4bgup2rcd13ifvqco0","pricing_plan_id":"cebpf4jnsgd1na2vs0mg"},{"bike_id":"607c23fc-8a39-4e27-9edc-8ec2d5384581","system_id":"levelo_inurba_marseille","lat":43.30948,"lon":5.39038,"is_reserved":false,"is_disabled":false,"rental_uris":{"android":"levelo://app?vid=607c23fc-8a39-4e27-9edc-8ec2d5384581","ios":"levelo://app?vid=607c23fc-8a39-4e27-9edc-8ec2d5384581"},"vehicle_type_id":"4","last_reported":1725736038,"current_range_meters":6400,"station_id":"ce4bgup2rcd13ifvqco0","pricing_plan_id":"cebpf4jnsgd1na2vs0mg"},{"bike_id":"0579fb56-6478-4a0d-9d46-428787d68252","system_id":"levelo_inurba_marseille","lat":43.30951,"lon":5.3904,"is_reserved":false,"is_disabled":false,"rental_uris":{"android":"levelo://app?vid=0579fb56-6478-4a0d-9d46-428787d68252","ios":"levelo://app?vid=0579fb56-6478-4a0d-9d46-428787d68252"},"vehicle_type_id":"4","last_reported":1725736038,"current_range_meters":19600,"station_id":"ce4bgup2rcd13ifvqco0","pricing_plan_id":"cebpf4jnsgd1na2vs0mg"},{"bike_id":"f9e73c60-fe21-48c0-90db-017b0c109bc7","system_id":"levelo_inurba_marseille","lat":43.309589,"lon":5.390258,"is_reserved":false,"is_disabled":false,"rental_uris":{"android":"levelo://app?vid=f9e73c60-fe21-48c0-90db-017b0c109bc7","ios":"levelo://app?vid=f9e73c60-fe21-48c0-90db-017b0c109bc7"},"vehicle_type_id":"4","last_reported":1725736038,"current_range_meters":29200,"station_id":"ce4bgup2rcd13ifvqco0","pricing_plan_id":"cebpf4jnsgd1na2vs0mg"},{"bike_id":"1c77c66b-25cf-47c3-b638-9373157e347f","system_id":"levelo_inurba_marseille","lat":43.309589,"lon":5.390258,"is_reserved":false,"is_disabled":false,"rental_uris":{"android":"levelo://app?vid=1c77c66b-25cf-47c3-b638-9373157e347f","ios":"levelo://app?vid=1c77c66b-25cf-47c3-b638-9373157e347f"},"vehicle_type_id":"4","last_reported":1725736038,"current_range_meters":31600,"station_id":"ce4bgup2rcd13ifvqco0","pricing_plan_id":"cebpf4jnsgd1na2vs0mg"},{"bike_id":"0c5ba613-460a-43e4-a073-84af87979dcb","system_id":"levelo_inurba_marseille","lat":43.30954,"lon":5.39051,"is_reserved":false,"is_disabled":false,"rental_uris":{"android":"levelo://app?vid=0c5ba613-460a-43e4-a073-84af87979dcb","ios":"levelo://app?vid=0c5ba613-460a-43e4-a073-84af87979dcb"},"vehicle_type_id":"4","last_reported":1725736038,"current_range_meters":17200,"station_id":"ce4bgup2rcd13ifvqco0","pricing_plan_id":"cebpf4jnsgd1na2vs0mg"},{"bike_id":"be3b48bc-3ba4-4aa0-bdc7-390ba2468ee4","system_id":"levelo_inurba_marseille","lat":43.309589,"lon":5.390258,"is_reserved":false,"is_disabled":false,"rental_uris":{"android":"levelo://app?vid=be3b48bc-3ba4-4aa0-bdc7-390ba2468ee4","ios":"levelo://app?vid=be3b48bc-3ba4-4aa0-bdc7-390ba2468ee4"},"vehicle_type_id":"4","last_reported":1725736038,"current_range_meters":8000,"station_id":"ce4bgup2rcd13ifvqco0","pricing_plan_id":"cebpf4jnsgd1na2vs0mg"},{"bike_id":"50a971b3-d507-4ca6-bdf9-49c64b7e40ca","system_id":"levelo_inurba_marseille","lat":43.309589,"lon":5.390258,"is_reserved":false,"is_disabled":false,"rental_uris":{"android":"levelo://app?vid=50a971b3-d507-4ca6-bdf9-49c64b7e40ca","ios":"levelo://app?vid=50a971b3-d507-4ca6-bdf9-49c64b7e40ca"},"vehicle_type_id":"4","last_reported":1725736038,"current_range_meters":31200,"station_id":"ce4bgup2rcd13ifvqco0","pricing_plan_id":"cebpf4jnsgd1na2vs0mg"},{"bike_id":"d883bad8-578a-431f-b8e6-2483b445c3ab","system_id":"levelo_inurba_marseille","lat":43.309589,"lon":5.390258,"is_reserved":false,"is_disabled":false,"rental_uris":{"android":"levelo://app?vid=d883bad8-578a-431f-b8e6-2483b445c3ab","ios":"levelo://app?vid=d883bad8-578a-431f-b8e6-2483b445c3ab"},"vehicle_type_id":"4","last_reported":1725736038,"current_range_meters":21600,"station_id":"ce4bgup2rcd13ifvqco0","pricing_plan_id":"cebpf4jnsgd1na2vs0mg"},{"bike_id":"10f69fe8-7773-460f-8cbc-84d5043d302b","system_id":"levelo_inurba_marseille","lat":43.32253,"lon":5.387034,"is_reserved":false,"is_disabled":false,"rental_uris":{"android":"levelo://app?vid=10f69fe8-7773-460f-8cbc-84d5043d302b","ios":"levelo://app?vid=10f69fe8-7773-460f-8cbc-84d5043d302b"},"vehicle_type_id":"4","last_reported":1725736038,"current_range_meters":22000,"station_id":"","pricing_plan_id":"cebpf4jnsgd1na2vs0mg"},{"bike_id":"8f3b1f53-1d25-4909-a0d2-a7d47ac2b546","system_id":"levelo_inurba_marseille","lat":43.298037,"lon":5.381066,"is_reserved":false,"is_disabled":false,"rental_uris":{"android":"levelo://app?vid=8f3b1f53-1d25-4909-a0d2-a7d47ac2b546","ios":"levelo://app?vid=8f3b1f53-1d25-4909-a0d2-a7d47ac2b546"},"vehicle_type_id":"4","last_reported":1725736038,"current_range_meters":31200,"station_id":"ce4bgip2rcd13ifvqbb0","pricing_plan_id":"cebpf4jnsgd1na2vs0mg"},{"bike_id":"e7d76528-efe1-4aed-8c9e-306930d88db3","system_id":"levelo_inurba_marseille","lat":43.298037,"lon":5.381066,"is_reserved":false,"is_disabled":false,"rental_uris":{"android":"levelo://app?vid=e7d76528-efe1-4aed-8c9e-306930d88db3","ios":"levelo://app?vid=e7d76528-efe1-4aed-8c9e-306930d88db3"},"vehicle_type_id":"4","last_reported":1725736038,"current_range_meters":13600,"station_id":"ce4bgip2rcd13ifvqbb0","pricing_plan_id":"cebpf4jnsgd1na2vs0mg"},{"bike_id":"ebc02a8c-c6db-443c-9a6e-ce5ecec01cab","system_id":"levelo_inurba_marseille","lat":43.29786,"lon":5.38095,"is_reserved":false,"is_disabled":false,"rental_uris":{"android":"levelo://app?vid=ebc02a8c-c6db-443c-9a6e-ce5ecec01cab","ios":"levelo://app?vid=ebc02a8c-c6db-443c-9a6e-ce5ecec01cab"},"vehicle_type_id":"4","last_reported":1725736038,"current_range_meters":18400,"station_id":"ce4bgip2rcd13ifvqbb0","pricing_plan_id":"cebpf4jnsgd1na2vs0mg"},{"bike_id":"a44ca80a-c22e-4b6e-99a9-aa9ecdc94370","system_id":"levelo_inurba_marseille","lat":43.298037,"lon":5.381066,"is_reserved":false,"is_disabled":false,"rental_uris":{"android":"levelo://app?vid=a44ca80a-c22e-4b6e-99a9-aa9ecdc94370","ios":"levelo://app?vid=a44ca80a-c22e-4b6e-99a9-aa9ecdc94370"},"vehicle_type_id":"4","last_reported":1725736038,"current_range_meters":400,"station_id":"ce4bgip2rcd13ifvqbb0","pricing_plan_id":"cebpf4jnsgd1na2vs0mg"},{"bike_id":"b03956ac-4cf8-4d97-aa4a-a5e2a46d6dfe","system_id":"levelo_inurba_marseille","lat":43.296263,"lon":5.377094,"is_reserved":false,"is_disabled":false,"rental_uris":{"android":"levelo://app?vid=b03956ac-4cf8-4d97-aa4a-a5e2a46d6dfe","ios":"levelo://app?vid=b03956ac-4cf8-4d97-aa4a-a5e2a46d6dfe"},"vehicle_type_id":"4","last_reported":1725736038,"current_range_meters":0,"station_id":"ce4bgi92rcd13ifvqb90","pricing_plan_id":"cebpf4jnsgd1na2vs0mg"},{"bike_id":"45b43fd3-0233-4d01-90f5-bc104a8cb1de","system_id":"levelo_inurba_marseille","lat":43.304278,"lon":5.388868,"is_reserved":false,"is_disabled":false,"rental_uris":{"android":"levelo://app?vid=45b43fd3-0233-4d01-90f5-bc104a8cb1de","ios":"levelo://app?vid=45b43fd3-0233-4d01-90f5-bc104a8cb1de"},"vehicle_type_id":"4","last_reported":1725736038,"current_range_meters":29600,"station_id":"ce4bgk12rcd13ifvqbi0","pricing_plan_id":"cebpf4jnsgd1na2vs0mg"},{"bike_id":"d9513f1b-f94a-4d5d-9b31-b6f7f40f190e","system_id":"levelo_inurba_marseille","lat":43.29784,"lon":5.3811,"is_reserved":false,"is_disabled":false,"rental_uris":{"android":"levelo://app?vid=d9513f1b-f94a-4d5d-9b31-b6f7f40f190e","ios":"levelo://app?vid=d9513f1b-f94a-4d5d-9b31-b6f7f40f190e"},"vehicle_type_id":"4","last_reported":1725736038,"current_range_meters":5600,"station_id":"ce4bgip2rcd13ifvqbb0","pricing_plan_id":"cebpf4jnsgd1na2vs0mg"},{"bike_id":"75b2473b-1e53-42b6-be48-d925c5900747","system_id":"levelo_inurba_marseille","lat":43.296263,"lon":5.377094,"is_reserved":false,"is_disabled":false,"rental_uris":{"android":"levelo://app?vid=75b2473b-1e53-42b6-be48-d925c5900747","ios":"levelo://app?vid=75b2473b-1e53-42b6-be48-d925c5900747"},"vehicle_type_id":"4","last_reported":1725736038,"current_range_meters":4400,"station_id":"ce4bgi92rcd13ifvqb90","pricing_plan_id":"cebpf4jnsgd1na2vs0mg"},{"bike_id":"bc6cde54-63c0-43c0-94ab-a20352c6b1a5","system_id":"levelo_inurba_marseille","lat":43.29581,"lon":5.37585,"is_reserved":false,"is_disabled":false,"rental_uris":{"android":"levelo://app?vid=bc6cde54-63c0-43c0-94ab-a20352c6b1a5","ios":"levelo://app?vid=bc6cde54-63c0-43c0-94ab-a20352c6b1a5"},"vehicle_type_id":"4","last_reported":1725736038,"current_range_meters":1600,"station_id":"","pricing_plan_id":"cebpf4jnsgd1na2vs0mg"},{"bike_id":"7a8672ff-4149-42b9-a28e-b2058b0f04dc","system_id":"levelo_inurba_marseille","lat":43.296263,"lon":5.377094,"is_reserved":false,"is_disabled":false,"rental_uris":{"android":"levelo://app?vid=7a8672ff-4149-42b9-a28e-b2058b0f04dc","ios":"levelo://app?vid=7a8672ff-4149-42b9-a28e-b2058b0f04dc"},"vehicle_type_id":"4","last_reported":1725736038,"current_range_meters":7600,"station_id":"ce4bgi92rcd13ifvqb90","pricing_plan_id":"cebpf4jnsgd1na2vs0mg"},{"bike_id":"ba7c6e04-17d3-430e-8516-e7d94a7d9a8d","system_id":"levelo_inurba_marseille","lat":43.296263,"lon":5.377094,"is_reserved":false,"is_disabled":false,"rental_uris":{"android":"levelo://app?vid=ba7c6e04-17d3-430e-8516-e7d94a7d9a8d","ios":"levelo://app?vid=ba7c6e04-17d3-430e-8516-e7d94a7d9a8d"},"vehicle_type_id":"4","last_reported":1725736038,"current_range_meters":0,"station_id":"ce4bgi92rcd13ifvqb90","pricing_plan_id":"cebpf4jnsgd1na2vs0mg"},{"bike_id":"5cc4189b-0c30-4cc0-b8ed-a5afdfb108fe","system_id":"levelo_inurba_marseille","lat":43.295279,"lon":5.375048,"is_reserved":false,"is_disabled":false,"rental_uris":{"android":"levelo://app?vid=5cc4189b-0c30-4cc0-b8ed-a5afdfb108fe","ios":"levelo://app?vid=5cc4189b-0c30-4cc0-b8ed-a5afdfb108fe"},"vehicle_type_id":"4","last_reported":1725736038,"current_range_meters":21200,"station_id":"ce4bgkp2rcd13ifvqbmg","pricing_plan_id":"cebpf4jnsgd1na2vs0mg"},{"bike_id":"acc767ef-90ac-426a-b1c1-1b5acffd75dd","system_id":"levelo_inurba_marseille","lat":43.299717,"lon":5.384845,"is_reserved":false,"is_disabled":false,"rental_uris":{"android":"levelo://app?vid=acc767ef-90ac-426a-b1c1-1b5acffd75dd","ios":"levelo://app?vid=acc767ef-90ac-426a-b1c1-1b5acffd75dd"},"vehicle_type_id":"4","last_reported":1725736038,"current_range_meters":28400,"station_id":"ce4bgj92rcd13ifvqbd0","pricing_plan_id":"cebpf4jnsgd1na2vs0mg"},{"bike_id":"b684b96e-9d0f-472f-a3de-b732027ec882","system_id":"levelo_inurba_marseille","lat":43.299707,"lon":5.384859,"is_reserved":false,"is_disabled":false,"rental_uris":{"android":"levelo://app?vid=b684b96e-9d0f-472f-a3de-b732027ec882","ios":"levelo://app?vid=b684b96e-9d0f-472f-a3de-b732027ec882"},"vehicle_type_id":"4","last_reported":1725736038,"current_range_meters":800,"station_id":"ce4bgj92rcd13ifvqbd0","pricing_plan_id":"cebpf4jnsgd1na2vs0mg"},{"bike_id":"8e94ab82-8d0c-4fd0-a92e-dab2e437271a","system_id":"levelo_inurba_marseille","lat":43.299717,"lon":5.384845,"is_reserved":false,"is_disabled":false,"rental_uris":{"android":"levelo://app?vid=8e94ab82-8d0c-4fd0-a92e-dab2e437271a","ios":"levelo://app?vid=8e94ab82-8d0c-4fd0-a92e-dab2e437271a"},"vehicle_type_id":"4","last_reported":1725736038,"current_range_meters":800,"station_id":"ce4bgj92rcd13ifvqbd0","pricing_plan_id":"cebpf4jnsgd1na2vs0mg"},{"bike_id":"622d2e2c-ea07-47e4-9a4e-ee86750ae83f","system_id":"levelo_inurba_marseille","lat":43.29975,"lon":5.38493,"is_reserved":false,"is_disabled":false,"rental_uris":{"android":"levelo://app?vid=622d2e2c-ea07-47e4-9a4e-ee86750ae83f","ios":"levelo://app?vid=622d2e2c-ea07-47e4-9a4e-ee86750ae83f"},"vehicle_type_id":"4","last_reported":1725736038,"current_range_meters":3600,"station_id":"ce4bgj92rcd13ifvqbd0","pricing_plan_id":"cebpf4jnsgd1na2vs0mg"},{"bike_id":"d2fb5ccf-4b89-4266-a714-a301c4a9f102","system_id":"levelo_inurba_marseille","lat":43.29976,"lon":5.38495,"is_reserved":false,"is_disabled":false,"rental_uris":{"android":"levelo://app?vid=d2fb5ccf-4b89-4266-a714-a301c4a9f102","ios":"levelo://app?vid=d2fb5ccf-4b89-4266-a714-a301c4a9f102"},"vehicle_type_id":"4","last_reported":1725736038,"current_range_meters":24400,"station_id":"ce4bgj92rcd13ifvqbd0","pricing_plan_id":"cebpf4jnsgd1na2vs0mg"},{"bike_id":"381c0d29-4da1-4687-9220-c82f5e652f95","system_id":"levelo_inurba_marseille","lat":43.29534,"lon":5.37553,"is_reserved":false,"is_disabled":false,"rental_uris":{"android":"levelo://app?vid=381c0d29-4da1-4687-9220-c82f5e652f95","ios":"levelo://app?vid=381c0d29-4da1-4687-9220-c82f5e652f95"},"vehicle_type_id":"4","last_reported":1725736038,"current_range_meters":14000,"station_id":"ce4bgkp2rcd13ifvqbmg","pricing_plan_id":"cebpf4jnsgd1na2vs0mg"},{"bike_id":"c669c703-ca25-4e24-aee6-d4ee336227bd","system_id":"levelo_inurba_marseille","lat":43.299717,"lon":5.384845,"is_reserved":false,"is_disabled":false,"rental_uris":{"android":"levelo://app?vid=c669c703-ca25-4e24-aee6-d4ee336227bd","ios":"levelo://app?vid=c669c703-ca25-4e24-aee6-d4ee336227bd"},"vehicle_type_id":"4","last_reported":1725736038,"current_range_meters":30000,"station_id":"ce4bgj92rcd13ifvqbd0","pricing_plan_id":"cebpf4jnsgd1na2vs0mg"},{"bike_id":"5852d2e3-12d7-4176-89e2-893aa1226e50","system_id":"levelo_inurba_marseille","lat":43.299717,"lon":5.384845,"is_reserved":false,"is_disabled":false,"rental_uris":{"android":"levelo://app?vid=5852d2e3-12d7-4176-89e2-893aa1226e50","ios":"levelo://app?vid=5852d2e3-12d7-4176-89e2-893aa1226e50"},"vehicle_type_id":"4","last_reported":1725736038,"current_range_meters":12800,"station_id":"ce4bgj92rcd13ifvqbd0","pricing_plan_id":"cebpf4jnsgd1na2vs0mg"},{"bike_id":"96f06eed-9e28-4e0f-8b59-95c6e7896a3c","system_id":"levelo_inurba_marseille","lat":43.299724,"lon":5.384848,"is_reserved":false,"is_disabled":false,"rental_uris":{"android":"levelo://app?vid=96f06eed-9e28-4e0f-8b59-95c6e7896a3c","ios":"levelo://app?vid=96f06eed-9e28-4e0f-8b59-95c6e7896a3c"},"vehicle_type_id":"4","last_reported":1725736038,"current_range_meters":0,"station_id":"ce4bgj92rcd13ifvqbd0","pricing_plan_id":"cebpf4jnsgd1na2vs0mg"},{"bike_id":"9433037b-8a29-4a0b-b77a-a1f0416bdd4d","system_id":"levelo_inurba_marseille","lat":43.295279,"lon":5.375048,"is_reserved":false,"is_disabled":false,"rental_uris":{"android":"levelo://app?vid=9433037b-8a29-4a0b-b77a-a1f0416bdd4d","ios":"levelo://app?vid=9433037b-8a29-4a0b-b77a-a1f0416bdd4d"},"vehicle_type_id":"4","last_reported":1725736038,"current_range_meters":24800,"station_id":"ce4bgkp2rcd13ifvqbmg","pricing_plan_id":"cebpf4jnsgd1na2vs0mg"},{"bike_id":"21299b4c-98d3-41d8-993d-f98ae6faebe1","system_id":"levelo_inurba_marseille","lat":43.30133,"lon":5.38776,"is_reserved":false,"is_disabled":false,"rental_uris":{"android":"levelo://app?vid=21299b4c-98d3-41d8-993d-f98ae6faebe1","ios":"levelo://app?vid=21299b4c-98d3-41d8-993d-f98ae6faebe1"},"vehicle_type_id":"4","last_reported":1725736038,"current_range_meters":13200,"station_id":"ce4bghh2rcd13ifvqb60","pricing_plan_id":"cebpf4jnsgd1na2vs0mg"},{"bike_id":"cc1a8d9b-cea4-430f-8404-3dcd47655752","system_id":"levelo_inurba_marseille","lat":43.30135,"lon":5.3878,"is_reserved":false,"is_disabled":false,"rental_uris":{"android":"levelo://app?vid=cc1a8d9b-cea4-430f-8404-3dcd47655752","ios":"levelo://app?vid=cc1a8d9b-cea4-430f-8404-3dcd47655752"},"vehicle_type_id":"4","last_reported":1725736038,"current_range_meters":0,"station_id":"ce4bghh2rcd13ifvqb60","pricing_plan_id":"cebpf4jnsgd1na2vs0mg"},{"bike_id":"e7c2e6fa-2006-40b1-afae-a58f2f091c05","system_id":"levelo_inurba_marseille","lat":43.301396,"lon":5.387812,"is_reserved":false,"is_disabled":false,"rental_uris":{"android":"levelo://app?vid=e7c2e6fa-2006-40b1-afae-a58f2f091c05","ios":"levelo://app?vid=e7c2e6fa-2006-40b1-afae-a58f2f091c05"},"vehicle_type_id":"4","last_reported":1725736038,"current_range_meters":0,"station_id":"ce4bghh2rcd13ifvqb60","pricing_plan_id":"cebpf4jnsgd1na2vs0mg"},{"bike_id":"7dfad6ee-3a0a-4e82-bc25-e7f709db6a07","system_id":"levelo_inurba_marseille","lat":43.29381,"lon":5.362581,"is_reserved":false,"is_disabled":false,"rental_uris":{"android":"levelo://app?vid=7dfad6ee-3a0a-4e82-bc25-e7f709db6a07","ios":"levelo://app?vid=7dfad6ee-3a0a-4e82-bc25-e7f709db6a07"},"vehicle_type_id":"4","last_reported":1725736038,"current_range_meters":13200,"station_id":"","pricing_plan_id":"cebpf4jnsgd1na2vs0mg"},{"bike_id":"cbbd6406-e8ea-4e6c-b10a-3bc83a55748c","system_id":"levelo_inurba_marseille","lat":43.29639,"lon":5.38088,"is_reserved":false,"is_disabled":false,"rental_uris":{"android":"levelo://app?vid=cbbd6406-e8ea-4e6c-b10a-3bc83a55748c","ios":"levelo://app?vid=cbbd6406-e8ea-4e6c-b10a-3bc83a55748c"},"vehicle_type_id":"4","last_reported":1725736038,"current_range_meters":24400,"station_id":"ce4bgl12rcd13ifvqbo0","pricing_plan_id":"cebpf4jnsgd1na2vs0mg"},{"bike_id":"028b5aa3-d9e2-49d3-b742-d2a84b64a134","system_id":"levelo_inurba_marseille","lat":43.29629,"lon":5.380866,"is_reserved":false,"is_disabled":false,"rental_uris":{"android":"levelo://app?vid=028b5aa3-d9e2-49d3-b742-d2a84b64a134","ios":"levelo://app?vid=028b5aa3-d9e2-49d3-b742-d2a84b64a134"},"vehicle_type_id":"4","last_reported":1725736038,"current_range_meters":16000,"station_id":"ce4bgl12rcd13ifvqbo0","pricing_plan_id":"cebpf4jnsgd1na2vs0mg"},{"bike_id":"85501e76-6b4e-444b-be67-8fc23235eb97","system_id":"levelo_inurba_marseille","lat":43.32367,"lon":5.388836,"is_reserved":false,"is_disabled":false,"rental_uris":{"android":"levelo://app?vid=85501e76-6b4e-444b-be67-8fc23235eb97","ios":"levelo://app?vid=85501e76-6b4e-444b-be67-8fc23235eb97"},"vehicle_type_id":"4","last_reported":1725736038,"current_range_meters":8800,"station_id":"ce4bhqp2rcd13ifvqhog","pricing_plan_id":"cebpf4jnsgd1na2vs0mg"},{"bike_id":"1389f4a0-fe8c-45a8-89e1-761602337135","system_id":"levelo_inurba_marseille","lat":43.32367,"lon":5.38925,"is_reserved":false,"is_disabled":false,"rental_uris":{"android":"levelo://app?vid=1389f4a0-fe8c-45a8-89e1-761602337135","ios":"levelo://app?vid=1389f4a0-fe8c-45a8-89e1-761602337135"},"vehicle_type_id":"4","last_reported":1725736038,"current_range_meters":19200,"station_id":"ce4bhqp2rcd13ifvqhog","pricing_plan_id":"cebpf4jnsgd1na2vs0mg"},{"bike_id":"74c59e3d-56c9-4373-9efe-a345696f9a5c","system_id":"levelo_inurba_marseille","lat":43.3237,"lon":5.38926,"is_reserved":false,"is_disabled":false,"rental_uris":{"android":"levelo://app?vid=74c59e3d-56c9-4373-9efe-a345696f9a5c","ios":"levelo://app?vid=74c59e3d-56c9-4373-9efe-a345696f9a5c"},"vehicle_type_id":"4","last_reported":1725736038,"current_range_meters":24400,"station_id":"","pricing_plan_id":"cebpf4jnsgd1na2vs0mg"},{"bike_id":"41704600-e9e6-4869-aefd-a4a12996605b","system_id":"levelo_inurba_marseille","lat":43.3237,"lon":5.38926,"is_reserved":false,"is_disabled":false,"rental_uris":{"android":"levelo://app?vid=41704600-e9e6-4869-aefd-a4a12996605b","ios":"levelo://app?vid=41704600-e9e6-4869-aefd-a4a12996605b"},"vehicle_type_id":"4","last_reported":1725736038,"current_range_meters":12000,"station_id":"ce4bhqp2rcd13ifvqhog","pricing_plan_id":"cebpf4jnsgd1na2vs0mg"},{"bike_id":"8b687874-3ad5-4ad2-8a4b-e20bc096d278","system_id":"levelo_inurba_marseille","lat":43.29596,"lon":5.38094,"is_reserved":false,"is_disabled":false,"rental_uris":{"android":"levelo://app?vid=8b687874-3ad5-4ad2-8a4b-e20bc096d278","ios":"levelo://app?vid=8b687874-3ad5-4ad2-8a4b-e20bc096d278"},"vehicle_type_id":"4","last_reported":1725736038,"current_range_meters":0,"station_id":"ce4bgl12rcd13ifvqbo0","pricing_plan_id":"cebpf4jnsgd1na2vs0mg"},{"bike_id":"717605c5-dc39-4cd1-908a-5f5b8dfd12f1","system_id":"levelo_inurba_marseille","lat":43.29602,"lon":5.381084,"is_reserved":false,"is_disabled":false,"rental_uris":{"android":"levelo://app?vid=717605c5-dc39-4cd1-908a-5f5b8dfd12f1","ios":"levelo://app?vid=717605c5-dc39-4cd1-908a-5f5b8dfd12f1"},"vehicle_type_id":"4","last_reported":1725736038,"current_range_meters":800,"station_id":"ce4bgl12rcd13ifvqbo0","pricing_plan_id":"cebpf4jnsgd1na2vs0mg"},{"bike_id":"3013ab60-2fd5-4bcf-8aa9-60479017c12b","system_id":"levelo_inurba_marseille","lat":43.29309,"lon":5.37176,"is_reserved":false,"is_disabled":false,"rental_uris":{"android":"levelo://app?vid=3013ab60-2fd5-4bcf-8aa9-60479017c12b","ios":"levelo://app?vid=3013ab60-2fd5-4bcf-8aa9-60479017c12b"},"vehicle_type_id":"4","last_reported":1725736038,"current_range_meters":0,"station_id":"ce4bgh92rcd13ifvqb40","pricing_plan_id":"cebpf4jnsgd1na2vs0mg"},{"bike_id":"1bef5fa3-8c5f-47b2-b437-481c95bc689d","system_id":"levelo_inurba_marseille","lat":43.31908,"lon":5.39297,"is_reserved":false,"is_disabled":false,"rental_uris":{"android":"levelo://app?vid=1bef5fa3-8c5f-47b2-b437-481c95bc689d","ios":"levelo://app?vid=1bef5fa3-8c5f-47b2-b437-481c95bc689d"},"vehicle_type_id":"4","last_reported":1725736038,"current_range_meters":25600,"station_id":"","pricing_plan_id":"cebpf4jnsgd1na2vs0mg"},{"bike_id":"56e3c461-a33a-49da-a3f1-00b2131bd024","system_id":"levelo_inurba_marseille","lat":43.292749,"lon":5.368402,"is_reserved":false,"is_disabled":false,"rental_uris":{"android":"levelo://app?vid=56e3c461-a33a-49da-a3f1-00b2131bd024","ios":"levelo://app?vid=56e3c461-a33a-49da-a3f1-00b2131bd024"},"vehicle_type_id":"4","last_reported":1725736038,"current_range_meters":0,"station_id":"ce4bhbp2rcd13ifvqesg","pricing_plan_id":"cebpf4jnsgd1na2vs0mg"},{"bike_id":"409a356d-ec3b-4f44-97f4-1f2ccad20cc9","system_id":"levelo_inurba_marseille","lat":43.292749,"lon":5.368402,"is_reserved":false,"is_disabled":false,"rental_uris":{"android":"levelo://app?vid=409a356d-ec3b-4f44-97f4-1f2ccad20cc9","ios":"levelo://app?vid=409a356d-ec3b-4f44-97f4-1f2ccad20cc9"},"vehicle_type_id":"4","last_reported":1725736038,"current_range_meters":3600,"station_id":"ce4bhbp2rcd13ifvqesg","pricing_plan_id":"cebpf4jnsgd1na2vs0mg"},{"bike_id":"31fd4a7a-0d21-4208-8f6c-163232c329bd","system_id":"levelo_inurba_marseille","lat":43.293249,"lon":5.371578,"is_reserved":false,"is_disabled":false,"rental_uris":{"android":"levelo://app?vid=31fd4a7a-0d21-4208-8f6c-163232c329bd","ios":"levelo://app?vid=31fd4a7a-0d21-4208-8f6c-163232c329bd"},"vehicle_type_id":"4","last_reported":1725736038,"current_range_meters":11600,"station_id":"ce4bgh92rcd13ifvqb40","pricing_plan_id":"cebpf4jnsgd1na2vs0mg"},{"bike_id":"8253aea8-720d-4ec4-aa3a-ee600e88b1db","system_id":"levelo_inurba_marseille","lat":43.292749,"lon":5.368398,"is_reserved":false,"is_disabled":false,"rental_uris":{"android":"levelo://app?vid=8253aea8-720d-4ec4-aa3a-ee600e88b1db","ios":"levelo://app?vid=8253aea8-720d-4ec4-aa3a-ee600e88b1db"},"vehicle_type_id":"4","last_reported":1725736038,"current_range_meters":3600,"station_id":"ce4bhbp2rcd13ifvqesg","pricing_plan_id":"cebpf4jnsgd1na2vs0mg"},{"bike_id":"978da072-8338-4265-aa24-b96dce8fa508","system_id":"levelo_inurba_marseille","lat":43.29272,"lon":5.36851,"is_reserved":false,"is_disabled":false,"rental_uris":{"android":"levelo://app?vid=978da072-8338-4265-aa24-b96dce8fa508","ios":"levelo://app?vid=978da072-8338-4265-aa24-b96dce8fa508"},"vehicle_type_id":"4","last_reported":1725736038,"current_range_meters":0,"station_id":"ce4bhbp2rcd13ifvqesg","pricing_plan_id":"cebpf4jnsgd1na2vs0mg"},{"bike_id":"89d53829-2dbb-4fd8-8416-abd0cfd6cf0d","system_id":"levelo_inurba_marseille","lat":43.292749,"lon":5.368402,"is_reserved":false,"is_disabled":false,"rental_uris":{"android":"levelo://app?vid=89d53829-2dbb-4fd8-8416-abd0cfd6cf0d","ios":"levelo://app?vid=89d53829-2dbb-4fd8-8416-abd0cfd6cf0d"},"vehicle_type_id":"4","last_reported":1725736038,"current_range_meters":0,"station_id":"ce4bhbp2rcd13ifvqesg","pricing_plan_id":"cebpf4jnsgd1na2vs0mg"},{"bike_id":"876831de-5393-4368-94e3-7956b8ba7903","system_id":"levelo_inurba_marseille","lat":43.293009,"lon":5.374584,"is_reserved":false,"is_disabled":false,"rental_uris":{"android":"levelo://app?vid=876831de-5393-4368-94e3-7956b8ba7903","ios":"levelo://app?vid=876831de-5393-4368-94e3-7956b8ba7903"},"vehicle_type_id":"4","last_reported":1725736038,"current_range_meters":1600,"station_id":"ce4bgi12rcd13ifvqb70","pricing_plan_id":"cebpf4jnsgd1na2vs0mg"},{"bike_id":"5276f68f-43eb-4144-8c27-99beea0d76e7","system_id":"levelo_inurba_marseille","lat":43.293009,"lon":5.374584,"is_reserved":false,"is_disabled":false,"rental_uris":{"android":"levelo://app?vid=5276f68f-43eb-4144-8c27-99beea0d76e7","ios":"levelo://app?vid=5276f68f-43eb-4144-8c27-99beea0d76e7"},"vehicle_type_id":"4","last_reported":1725736038,"current_range_meters":0,"station_id":"ce4bgi12rcd13ifvqb70","pricing_plan_id":"cebpf4jnsgd1na2vs0mg"},{"bike_id":"397e5796-3502-420f-b325-4c92b7d12679","system_id":"levelo_inurba_marseille","lat":43.305994,"lon":5.393687,"is_reserved":false,"is_disabled":false,"rental_uris":{"android":"levelo://app?vid=397e5796-3502-420f-b325-4c92b7d12679","ios":"levelo://app?vid=397e5796-3502-420f-b325-4c92b7d12679"},"vehicle_type_id":"4","last_reported":1725736038,"current_range_meters":1200,"station_id":"ce4bh0p2rcd13ifvqd80","pricing_plan_id":"cebpf4jnsgd1na2vs0mg"},{"bike_id":"3944e7c3-b64e-4b67-b4b2-ea7194a1fe9f","system_id":"levelo_inurba_marseille","lat":43.305994,"lon":5.393687,"is_reserved":false,"is_disabled":false,"rental_uris":{"android":"levelo://app?vid=3944e7c3-b64e-4b67-b4b2-ea7194a1fe9f","ios":"levelo://app?vid=3944e7c3-b64e-4b67-b4b2-ea7194a1fe9f"},"vehicle_type_id":"4","last_reported":1725736038,"current_range_meters":0,"station_id":"ce4bh0p2rcd13ifvqd80","pricing_plan_id":"cebpf4jnsgd1na2vs0mg"},{"bike_id":"825c4d31-6d26-44e2-a1e0-672cc52a1a0f","system_id":"levelo_inurba_marseille","lat":43.3031,"lon":5.39202,"is_reserved":false,"is_disabled":false,"rental_uris":{"android":"levelo://app?vid=825c4d31-6d26-44e2-a1e0-672cc52a1a0f","ios":"levelo://app?vid=825c4d31-6d26-44e2-a1e0-672cc52a1a0f"},"vehicle_type_id":"4","last_reported":1725736038,"current_range_meters":0,"station_id":"ce4bgkh2rcd13ifvqbk0","pricing_plan_id":"cebpf4jnsgd1na2vs0mg"},{"bike_id":"556a04f9-dbc1-410e-b67b-43cc748431ff","system_id":"levelo_inurba_marseille","lat":43.30301,"lon":5.3921,"is_reserved":false,"is_disabled":false,"rental_uris":{"android":"levelo://app?vid=556a04f9-dbc1-410e-b67b-43cc748431ff","ios":"levelo://app?vid=556a04f9-dbc1-410e-b67b-43cc748431ff"},"vehicle_type_id":"4","last_reported":1725736038,"current_range_meters":0,"station_id":"ce4bgkh2rcd13ifvqbk0","pricing_plan_id":"cebpf4jnsgd1na2vs0mg"},{"bike_id":"31993083-59bf-4529-ae0f-ea5c623895f0","system_id":"levelo_inurba_marseille","lat":43.3029,"lon":5.39204,"is_reserved":false,"is_disabled":false,"rental_uris":{"android":"levelo://app?vid=31993083-59bf-4529-ae0f-ea5c623895f0","ios":"levelo://app?vid=31993083-59bf-4529-ae0f-ea5c623895f0"},"vehicle_type_id":"4","last_reported":1725736038,"current_range_meters":0,"station_id":"ce4bgkh2rcd13ifvqbk0","pricing_plan_id":"cebpf4jnsgd1na2vs0mg"},{"bike_id":"43ade5a0-8b31-4d34-9c3b-5e6e8c361e1a","system_id":"levelo_inurba_marseille","lat":43.30298,"lon":5.3921,"is_reserved":false,"is_disabled":false,"rental_uris":{"android":"levelo://app?vid=43ade5a0-8b31-4d34-9c3b-5e6e8c361e1a","ios":"levelo://app?vid=43ade5a0-8b31-4d34-9c3b-5e6e8c361e1a"},"vehicle_type_id":"4","last_reported":1725736038,"current_range_meters":30400,"station_id":"ce4bgkh2rcd13ifvqbk0","pricing_plan_id":"cebpf4jnsgd1na2vs0mg"},{"bike_id":"e9b3e6ca-2e65-4831-b8b5-23cf3f5a64ef","system_id":"levelo_inurba_marseille","lat":43.2936,"lon":5.37835,"is_reserved":false,"is_disabled":false,"rental_uris":{"android":"levelo://app?vid=e9b3e6ca-2e65-4831-b8b5-23cf3f5a64ef","ios":"levelo://app?vid=e9b3e6ca-2e65-4831-b8b5-23cf3f5a64ef"},"vehicle_type_id":"4","last_reported":1725736038,"current_range_meters":1600,"station_id":"ce4bgjh2rcd13ifvqbf0","pricing_plan_id":"cebpf4jnsgd1na2vs0mg"},{"bike_id":"a8c2a07b-c91e-4bcb-b10d-a00c80834b76","system_id":"levelo_inurba_marseille","lat":43.2936,"lon":5.37835,"is_reserved":false,"is_disabled":false,"rental_uris":{"android":"levelo://app?vid=a8c2a07b-c91e-4bcb-b10d-a00c80834b76","ios":"levelo://app?vid=a8c2a07b-c91e-4bcb-b10d-a00c80834b76"},"vehicle_type_id":"4","last_reported":1725736038,"current_range_meters":1200,"station_id":"ce4bgjh2rcd13ifvqbf0","pricing_plan_id":"cebpf4jnsgd1na2vs0mg"},{"bike_id":"c465fbbd-1877-4591-872c-ab97b57bbde0","system_id":"levelo_inurba_marseille","lat":43.2936,"lon":5.37835,"is_reserved":false,"is_disabled":false,"rental_uris":{"android":"levelo://app?vid=c465fbbd-1877-4591-872c-ab97b57bbde0","ios":"levelo://app?vid=c465fbbd-1877-4591-872c-ab97b57bbde0"},"vehicle_type_id":"4","last_reported":1725736038,"current_range_meters":30400,"station_id":"ce4bgjh2rcd13ifvqbf0","pricing_plan_id":"cebpf4jnsgd1na2vs0mg"},{"bike_id":"e945c1a6-5a3f-4f3d-8f77-21c4597c92ce","system_id":"levelo_inurba_marseille","lat":43.30297,"lon":5.3922,"is_reserved":false,"is_disabled":false,"rental_uris":{"android":"levelo://app?vid=e945c1a6-5a3f-4f3d-8f77-21c4597c92ce","ios":"levelo://app?vid=e945c1a6-5a3f-4f3d-8f77-21c4597c92ce"},"vehicle_type_id":"4","last_reported":1725736038,"current_range_meters":12800,"station_id":"ce4bgkh2rcd13ifvqbk0","pricing_plan_id":"cebpf4jnsgd1na2vs0mg"},{"bike_id":"f3c0ca30-83e0-461d-b5b1-7e33ebed07fa","system_id":"levelo_inurba_marseille","lat":43.2936,"lon":5.37835,"is_reserved":false,"is_disabled":false,"rental_uris":{"android":"levelo://app?vid=f3c0ca30-83e0-461d-b5b1-7e33ebed07fa","ios":"levelo://app?vid=f3c0ca30-83e0-461d-b5b1-7e33ebed07fa"},"vehicle_type_id":"4","last_reported":1725736038,"current_range_meters":18400,"station_id":"ce4bgjh2rcd13ifvqbf0","pricing_plan_id":"cebpf4jnsgd1na2vs0mg"},{"bike_id":"b0cf38ca-57ec-4e01-97a5-f1cfa66d0349","system_id":"levelo_inurba_marseille","lat":43.292311,"lon":5.360731,"is_reserved":false,"is_disabled":false,"rental_uris":{"android":"levelo://app?vid=b0cf38ca-57ec-4e01-97a5-f1cfa66d0349","ios":"levelo://app?vid=b0cf38ca-57ec-4e01-97a5-f1cfa66d0349"},"vehicle_type_id":"4","last_reported":1725736038,"current_range_meters":29600,"station_id":"ce4bhbh2rcd13ifvqeqg","pricing_plan_id":"cebpf4jnsgd1na2vs0mg"},{"bike_id":"c6e0b8ad-b3bb-4433-a5ef-c83a01551789","system_id":"levelo_inurba_marseille","lat":43.292311,"lon":5.360731,"is_reserved":false,"is_disabled":false,"rental_uris":{"android":"levelo://app?vid=c6e0b8ad-b3bb-4433-a5ef-c83a01551789","ios":"levelo://app?vid=c6e0b8ad-b3bb-4433-a5ef-c83a01551789"},"vehicle_type_id":"4","last_reported":1725736038,"current_range_meters":25200,"station_id":"ce4bhbh2rcd13ifvqeqg","pricing_plan_id":"cebpf4jnsgd1na2vs0mg"},{"bike_id":"0f69de99-ecf9-4e7e-b8fd-fb6d97f74b86","system_id":"levelo_inurba_marseille","lat":43.300852,"lon":5.390859,"is_reserved":false,"is_disabled":false,"rental_uris":{"android":"levelo://app?vid=0f69de99-ecf9-4e7e-b8fd-fb6d97f74b86","ios":"levelo://app?vid=0f69de99-ecf9-4e7e-b8fd-fb6d97f74b86"},"vehicle_type_id":"4","last_reported":1725736038,"current_range_meters":27200,"station_id":"ce4bh192rcd13ifvqdb0","pricing_plan_id":"cebpf4jnsgd1na2vs0mg"},{"bike_id":"fe74d25d-3406-4d48-8fca-224f6aaded96","system_id":"levelo_inurba_marseille","lat":43.293922,"lon":5.38138,"is_reserved":false,"is_disabled":false,"rental_uris":{"android":"levelo://app?vid=fe74d25d-3406-4d48-8fca-224f6aaded96","ios":"levelo://app?vid=fe74d25d-3406-4d48-8fca-224f6aaded96"},"vehicle_type_id":"4","last_reported":1725736038,"current_range_meters":0,"station_id":"","pricing_plan_id":"cebpf4jnsgd1na2vs0mg"},{"bike_id":"5c71a364-be90-47cb-b2ab-ac22c0a2b99f","system_id":"levelo_inurba_marseille","lat":43.29529,"lon":5.385581,"is_reserved":false,"is_disabled":false,"rental_uris":{"android":"levelo://app?vid=5c71a364-be90-47cb-b2ab-ac22c0a2b99f","ios":"levelo://app?vid=5c71a364-be90-47cb-b2ab-ac22c0a2b99f"},"vehicle_type_id":"4","last_reported":1725736038,"current_range_meters":12800,"station_id":"ce4bgih2rcd13ifvqba0","pricing_plan_id":"cebpf4jnsgd1na2vs0mg"},{"bike_id":"81075b96-4a00-47c9-9219-8b32af74f7f0","system_id":"levelo_inurba_marseille","lat":43.29529,"lon":5.385581,"is_reserved":false,"is_disabled":false,"rental_uris":{"android":"levelo://app?vid=81075b96-4a00-47c9-9219-8b32af74f7f0","ios":"levelo://app?vid=81075b96-4a00-47c9-9219-8b32af74f7f0"},"vehicle_type_id":"4","last_reported":1725736038,"current_range_meters":20400,"station_id":"ce4bgih2rcd13ifvqba0","pricing_plan_id":"cebpf4jnsgd1na2vs0mg"},{"bike_id":"4610112d-6a9b-43fa-b040-7e4a8c32618f","system_id":"levelo_inurba_marseille","lat":43.29532,"lon":5.3855,"is_reserved":false,"is_disabled":false,"rental_uris":{"android":"levelo://app?vid=4610112d-6a9b-43fa-b040-7e4a8c32618f","ios":"levelo://app?vid=4610112d-6a9b-43fa-b040-7e4a8c32618f"},"vehicle_type_id":"4","last_reported":1725736038,"current_range_meters":0,"station_id":"ce4bgih2rcd13ifvqba0","pricing_plan_id":"cebpf4jnsgd1na2vs0mg"},{"bike_id":"758a81fe-60ba-4808-8c91-fde15434408c","system_id":"levelo_inurba_marseille","lat":43.29529,"lon":5.385581,"is_reserved":false,"is_disabled":false,"rental_uris":{"android":"levelo://app?vid=758a81fe-60ba-4808-8c91-fde15434408c","ios":"levelo://app?vid=758a81fe-60ba-4808-8c91-fde15434408c"},"vehicle_type_id":"4","last_reported":1725736038,"current_range_meters":5200,"station_id":"ce4bgih2rcd13ifvqba0","pricing_plan_id":"cebpf4jnsgd1na2vs0mg"},{"bike_id":"74f4f0a8-f8a4-4111-9de2-1a6ae80e20b1","system_id":"levelo_inurba_marseille","lat":43.29529,"lon":5.385581,"is_reserved":false,"is_disabled":false,"rental_uris":{"android":"levelo://app?vid=74f4f0a8-f8a4-4111-9de2-1a6ae80e20b1","ios":"levelo://app?vid=74f4f0a8-f8a4-4111-9de2-1a6ae80e20b1"},"vehicle_type_id":"4","last_reported":1725736038,"current_range_meters":11600,"station_id":"ce4bgih2rcd13ifvqba0","pricing_plan_id":"cebpf4jnsgd1na2vs0mg"},{"bike_id":"6e47848b-9d6d-43fb-bab7-4d2d6fcd3200","system_id":"levelo_inurba_marseille","lat":43.290779,"lon":5.371482,"is_reserved":false,"is_disabled":false,"rental_uris":{"android":"levelo://app?vid=6e47848b-9d6d-43fb-bab7-4d2d6fcd3200","ios":"levelo://app?vid=6e47848b-9d6d-43fb-bab7-4d2d6fcd3200"},"vehicle_type_id":"4","last_reported":1725736038,"current_range_meters":27600,"station_id":"ce4bh5p2rcd13ifvqe4g","pricing_plan_id":"cebpf4jnsgd1na2vs0mg"},{"bike_id":"5edaaf83-8661-443a-adfa-4bc69166fdd7","system_id":"levelo_inurba_marseille","lat":43.290779,"lon":5.371482,"is_reserved":false,"is_disabled":false,"rental_uris":{"android":"levelo://app?vid=5edaaf83-8661-443a-adfa-4bc69166fdd7","ios":"levelo://app?vid=5edaaf83-8661-443a-adfa-4bc69166fdd7"},"vehicle_type_id":"4","last_reported":1725736038,"current_range_meters":30400,"station_id":"ce4bh5p2rcd13ifvqe4g","pricing_plan_id":"cebpf4jnsgd1na2vs0mg"},{"bike_id":"5681f7e6-3a6b-488c-ac73-c346564b21a6","system_id":"levelo_inurba_marseille","lat":43.30212,"lon":5.39459,"is_reserved":false,"is_disabled":false,"rental_uris":{"android":"levelo://app?vid=5681f7e6-3a6b-488c-ac73-c346564b21a6","ios":"levelo://app?vid=5681f7e6-3a6b-488c-ac73-c346564b21a6"},"vehicle_type_id":"4","last_reported":1725736038,"current_range_meters":27600,"station_id":"ce4bh0p2rcd13ifvqd70","pricing_plan_id":"cebpf4jnsgd1na2vs0mg"},{"bike_id":"ac9aa153-863d-4384-85e3-90b96a18a444","system_id":"levelo_inurba_marseille","lat":43.302008,"lon":5.394694,"is_reserved":false,"is_disabled":false,"rental_uris":{"android":"levelo://app?vid=ac9aa153-863d-4384-85e3-90b96a18a444","ios":"levelo://app?vid=ac9aa153-863d-4384-85e3-90b96a18a444"},"vehicle_type_id":"4","last_reported":1725736038,"current_range_meters":0,"station_id":"ce4bh0p2rcd13ifvqd70","pricing_plan_id":"cebpf4jnsgd1na2vs0mg"},{"bike_id":"fb44c05a-050e-4344-83e1-3bb1829f1990","system_id":"levelo_inurba_marseille","lat":43.302008,"lon":5.394694,"is_reserved":false,"is_disabled":false,"rental_uris":{"android":"levelo://app?vid=fb44c05a-050e-4344-83e1-3bb1829f1990","ios":"levelo://app?vid=fb44c05a-050e-4344-83e1-3bb1829f1990"},"vehicle_type_id":"4","last_reported":1725736038,"current_range_meters":29200,"station_id":"ce4bh0p2rcd13ifvqd70","pricing_plan_id":"cebpf4jnsgd1na2vs0mg"},{"bike_id":"0cd15004-b956-4c6c-a9f0-9c8d34052ca0","system_id":"levelo_inurba_marseille","lat":43.30207,"lon":5.39466,"is_reserved":false,"is_disabled":false,"rental_uris":{"android":"levelo://app?vid=0cd15004-b956-4c6c-a9f0-9c8d34052ca0","ios":"levelo://app?vid=0cd15004-b956-4c6c-a9f0-9c8d34052ca0"},"vehicle_type_id":"4","last_reported":1725736038,"current_range_meters":18800,"station_id":"ce4bh0p2rcd13ifvqd70","pricing_plan_id":"cebpf4jnsgd1na2vs0mg"},{"bike_id":"89be04ca-e4b9-4639-b629-2d8fe59e2229","system_id":"levelo_inurba_marseille","lat":43.2904,"lon":5.3756,"is_reserved":false,"is_disabled":false,"rental_uris":{"android":"levelo://app?vid=89be04ca-e4b9-4639-b629-2d8fe59e2229","ios":"levelo://app?vid=89be04ca-e4b9-4639-b629-2d8fe59e2229"},"vehicle_type_id":"4","last_reported":1725736038,"current_range_meters":0,"station_id":"ce4bh692rcd13ifvqe90","pricing_plan_id":"cebpf4jnsgd1na2vs0mg"},{"bike_id":"c43a2da9-585d-4219-9cdd-68f11d35f581","system_id":"levelo_inurba_marseille","lat":43.29422,"lon":5.38618,"is_reserved":false,"is_disabled":false,"rental_uris":{"android":"levelo://app?vid=c43a2da9-585d-4219-9cdd-68f11d35f581","ios":"levelo://app?vid=c43a2da9-585d-4219-9cdd-68f11d35f581"},"vehicle_type_id":"4","last_reported":1725736038,"current_range_meters":3200,"station_id":"ce4bh2h2rcd13ifvqdh0","pricing_plan_id":"cebpf4jnsgd1na2vs0mg"},{"bike_id":"8b3e4030-524d-4609-b365-304b53a57999","system_id":"levelo_inurba_marseille","lat":43.294153,"lon":5.386305,"is_reserved":false,"is_disabled":false,"rental_uris":{"android":"levelo://app?vid=8b3e4030-524d-4609-b365-304b53a57999","ios":"levelo://app?vid=8b3e4030-524d-4609-b365-304b53a57999"},"vehicle_type_id":"4","last_reported":1725736038,"current_range_meters":5600,"station_id":"ce4bh2h2rcd13ifvqdh0","pricing_plan_id":"cebpf4jnsgd1na2vs0mg"},{"bike_id":"1ca2eab7-8cf2-47e8-82b0-01c58a43aa10","system_id":"levelo_inurba_marseille","lat":43.29421,"lon":5.38624,"is_reserved":false,"is_disabled":false,"rental_uris":{"android":"levelo://app?vid=1ca2eab7-8cf2-47e8-82b0-01c58a43aa10","ios":"levelo://app?vid=1ca2eab7-8cf2-47e8-82b0-01c58a43aa10"},"vehicle_type_id":"4","last_reported":1725736038,"current_range_meters":25200,"station_id":"ce4bh2h2rcd13ifvqdh0","pricing_plan_id":"cebpf4jnsgd1na2vs0mg"},{"bike_id":"00c710a4-bcde-4de2-86bf-d85cfd247193","system_id":"levelo_inurba_marseille","lat":43.294153,"lon":5.386305,"is_reserved":false,"is_disabled":false,"rental_uris":{"android":"levelo://app?vid=00c710a4-bcde-4de2-86bf-d85cfd247193","ios":"levelo://app?vid=00c710a4-bcde-4de2-86bf-d85cfd247193"},"vehicle_type_id":"4","last_reported":1725736038,"current_range_meters":6000,"station_id":"ce4bh2h2rcd13ifvqdh0","pricing_plan_id":"cebpf4jnsgd1na2vs0mg"},{"bike_id":"ae526eeb-e6ec-4c9d-beae-658a495d2c25","system_id":"levelo_inurba_marseille","lat":43.294153,"lon":5.386305,"is_reserved":false,"is_disabled":false,"rental_uris":{"android":"levelo://app?vid=ae526eeb-e6ec-4c9d-beae-658a495d2c25","ios":"levelo://app?vid=ae526eeb-e6ec-4c9d-beae-658a495d2c25"},"vehicle_type_id":"4","last_reported":1725736038,"current_range_meters":6400,"station_id":"ce4bh2h2rcd13ifvqdh0","pricing_plan_id":"cebpf4jnsgd1na2vs0mg"},{"bike_id":"812bd0ae-b1dc-49f0-8464-0eeea0aefe89","system_id":"levelo_inurba_marseille","lat":43.294153,"lon":5.386305,"is_reserved":false,"is_disabled":false,"rental_uris":{"android":"levelo://app?vid=812bd0ae-b1dc-49f0-8464-0eeea0aefe89","ios":"levelo://app?vid=812bd0ae-b1dc-49f0-8464-0eeea0aefe89"},"vehicle_type_id":"4","last_reported":1725736038,"current_range_meters":14000,"station_id":"ce4bh2h2rcd13ifvqdh0","pricing_plan_id":"cebpf4jnsgd1na2vs0mg"},{"bike_id":"e64820a5-2b72-415e-896e-14ed2a24ae99","system_id":"levelo_inurba_marseille","lat":43.294162,"lon":5.386292,"is_reserved":false,"is_disabled":false,"rental_uris":{"android":"levelo://app?vid=e64820a5-2b72-415e-896e-14ed2a24ae99","ios":"levelo://app?vid=e64820a5-2b72-415e-896e-14ed2a24ae99"},"vehicle_type_id":"4","last_reported":1725736038,"current_range_meters":2000,"station_id":"ce4bh2h2rcd13ifvqdh0","pricing_plan_id":"cebpf4jnsgd1na2vs0mg"},{"bike_id":"2b722620-519b-4d5e-b4bf-0d6ae4b7e88f","system_id":"levelo_inurba_marseille","lat":43.29419,"lon":5.38633,"is_reserved":false,"is_disabled":false,"rental_uris":{"android":"levelo://app?vid=2b722620-519b-4d5e-b4bf-0d6ae4b7e88f","ios":"levelo://app?vid=2b722620-519b-4d5e-b4bf-0d6ae4b7e88f"},"vehicle_type_id":"4","last_reported":1725736038,"current_range_meters":0,"station_id":"ce4bh2h2rcd13ifvqdh0","pricing_plan_id":"cebpf4jnsgd1na2vs0mg"},{"bike_id":"ee7599bd-42f1-4c62-ace5-d89acdfec317","system_id":"levelo_inurba_marseille","lat":43.29418,"lon":5.386346,"is_reserved":false,"is_disabled":false,"rental_uris":{"android":"levelo://app?vid=ee7599bd-42f1-4c62-ace5-d89acdfec317","ios":"levelo://app?vid=ee7599bd-42f1-4c62-ace5-d89acdfec317"},"vehicle_type_id":"4","last_reported":1725736038,"current_range_meters":400,"station_id":"ce4bh2h2rcd13ifvqdh0","pricing_plan_id":"cebpf4jnsgd1na2vs0mg"},{"bike_id":"b57bc1bf-b562-4f94-93e2-06936025d68a","system_id":"levelo_inurba_marseille","lat":43.294162,"lon":5.386292,"is_reserved":false,"is_disabled":false,"rental_uris":{"android":"levelo://app?vid=b57bc1bf-b562-4f94-93e2-06936025d68a","ios":"levelo://app?vid=b57bc1bf-b562-4f94-93e2-06936025d68a"},"vehicle_type_id":"4","last_reported":1725736038,"current_range_meters":22800,"station_id":"ce4bh2h2rcd13ifvqdh0","pricing_plan_id":"cebpf4jnsgd1na2vs0mg"},{"bike_id":"b993f553-7d4a-418d-9cd9-ea02410e6be5","system_id":"levelo_inurba_marseille","lat":43.29413,"lon":5.38627,"is_reserved":false,"is_disabled":false,"rental_uris":{"android":"levelo://app?vid=b993f553-7d4a-418d-9cd9-ea02410e6be5","ios":"levelo://app?vid=b993f553-7d4a-418d-9cd9-ea02410e6be5"},"vehicle_type_id":"4","last_reported":1725736038,"current_range_meters":0,"station_id":"ce4bh2h2rcd13ifvqdh0","pricing_plan_id":"cebpf4jnsgd1na2vs0mg"},{"bike_id":"9eae8cd1-53b4-4636-9a23-79f62ed3d7c9","system_id":"levelo_inurba_marseille","lat":43.294162,"lon":5.386292,"is_reserved":false,"is_disabled":false,"rental_uris":{"android":"levelo://app?vid=9eae8cd1-53b4-4636-9a23-79f62ed3d7c9","ios":"levelo://app?vid=9eae8cd1-53b4-4636-9a23-79f62ed3d7c9"},"vehicle_type_id":"4","last_reported":1725736038,"current_range_meters":16000,"station_id":"ce4bh2h2rcd13ifvqdh0","pricing_plan_id":"cebpf4jnsgd1na2vs0mg"},{"bike_id":"bf8b7c26-fd6e-4964-a117-aaa36dbfd992","system_id":"levelo_inurba_marseille","lat":43.28938,"lon":5.36633,"is_reserved":false,"is_disabled":false,"rental_uris":{"android":"levelo://app?vid=bf8b7c26-fd6e-4964-a117-aaa36dbfd992","ios":"levelo://app?vid=bf8b7c26-fd6e-4964-a117-aaa36dbfd992"},"vehicle_type_id":"4","last_reported":1725736038,"current_range_meters":0,"station_id":"ce4bhap2rcd13ifvqek0","pricing_plan_id":"cebpf4jnsgd1na2vs0mg"},{"bike_id":"6f906212-e701-4428-a174-96f865674f64","system_id":"levelo_inurba_marseille","lat":43.294162,"lon":5.386292,"is_reserved":false,"is_disabled":false,"rental_uris":{"android":"levelo://app?vid=6f906212-e701-4428-a174-96f865674f64","ios":"levelo://app?vid=6f906212-e701-4428-a174-96f865674f64"},"vehicle_type_id":"4","last_reported":1725736038,"current_range_meters":19200,"station_id":"ce4bh2h2rcd13ifvqdh0","pricing_plan_id":"cebpf4jnsgd1na2vs0mg"},{"bike_id":"22ff3451-d76a-476b-80b4-cea6515fd2c3","system_id":"levelo_inurba_marseille","lat":43.289402,"lon":5.364086,"is_reserved":false,"is_disabled":false,"rental_uris":{"android":"levelo://app?vid=22ff3451-d76a-476b-80b4-cea6515fd2c3","ios":"levelo://app?vid=22ff3451-d76a-476b-80b4-cea6515fd2c3"},"vehicle_type_id":"4","last_reported":1725736038,"current_range_meters":0,"station_id":"ce4bhc92rcd13ifvqetg","pricing_plan_id":"cebpf4jnsgd1na2vs0mg"},{"bike_id":"07ee239e-c4eb-4b2f-b2bc-7b43cdaea4d7","system_id":"levelo_inurba_marseille","lat":43.29058,"lon":5.377907,"is_reserved":false,"is_disabled":false,"rental_uris":{"android":"levelo://app?vid=07ee239e-c4eb-4b2f-b2bc-7b43cdaea4d7","ios":"levelo://app?vid=07ee239e-c4eb-4b2f-b2bc-7b43cdaea4d7"},"vehicle_type_id":"4","last_reported":1725736038,"current_range_meters":0,"station_id":"","pricing_plan_id":"cebpf4jnsgd1na2vs0mg"},{"bike_id":"882325b8-f13f-40a3-b9e0-12d0587135b8","system_id":"levelo_inurba_marseille","lat":43.29274,"lon":5.38443,"is_reserved":false,"is_disabled":false,"rental_uris":{"android":"levelo://app?vid=882325b8-f13f-40a3-b9e0-12d0587135b8","ios":"levelo://app?vid=882325b8-f13f-40a3-b9e0-12d0587135b8"},"vehicle_type_id":"4","last_reported":1725736038,"current_range_meters":0,"station_id":"ce4bh692rcd13ifvqea0","pricing_plan_id":"cebpf4jnsgd1na2vs0mg"},{"bike_id":"6d296b1f-ccb1-4ea8-8ade-51238f602a87","system_id":"levelo_inurba_marseille","lat":43.29269,"lon":5.38437,"is_reserved":false,"is_disabled":false,"rental_uris":{"android":"levelo://app?vid=6d296b1f-ccb1-4ea8-8ade-51238f602a87","ios":"levelo://app?vid=6d296b1f-ccb1-4ea8-8ade-51238f602a87"},"vehicle_type_id":"4","last_reported":1725736038,"current_range_meters":20000,"station_id":"ce4bh692rcd13ifvqea0","pricing_plan_id":"cebpf4jnsgd1na2vs0mg"},{"bike_id":"d63d88f2-02ea-40c5-82d9-c7e34a7296b6","system_id":"levelo_inurba_marseille","lat":43.29267,"lon":5.38441,"is_reserved":false,"is_disabled":false,"rental_uris":{"android":"levelo://app?vid=d63d88f2-02ea-40c5-82d9-c7e34a7296b6","ios":"levelo://app?vid=d63d88f2-02ea-40c5-82d9-c7e34a7296b6"},"vehicle_type_id":"4","last_reported":1725736038,"current_range_meters":4400,"station_id":"ce4bh692rcd13ifvqea0","pricing_plan_id":"cebpf4jnsgd1na2vs0mg"},{"bike_id":"5305b2e4-d71c-4aca-95a3-7c6a2879ec00","system_id":"levelo_inurba_marseille","lat":43.292642,"lon":5.384254,"is_reserved":false,"is_disabled":false,"rental_uris":{"android":"levelo://app?vid=5305b2e4-d71c-4aca-95a3-7c6a2879ec00","ios":"levelo://app?vid=5305b2e4-d71c-4aca-95a3-7c6a2879ec00"},"vehicle_type_id":"4","last_reported":1725736038,"current_range_meters":31200,"station_id":"ce4bh692rcd13ifvqea0","pricing_plan_id":"cebpf4jnsgd1na2vs0mg"},{"bike_id":"1649a515-1dc7-44a1-8b8c-10d085d8a411","system_id":"levelo_inurba_marseille","lat":43.29265,"lon":5.38442,"is_reserved":false,"is_disabled":false,"rental_uris":{"android":"levelo://app?vid=1649a515-1dc7-44a1-8b8c-10d085d8a411","ios":"levelo://app?vid=1649a515-1dc7-44a1-8b8c-10d085d8a411"},"vehicle_type_id":"4","last_reported":1725736038,"current_range_meters":0,"station_id":"ce4bh692rcd13ifvqea0","pricing_plan_id":"cebpf4jnsgd1na2vs0mg"},