{"last_updated":1743160106,"ttl":60,"version":"2.2","data":{"bikes":[{"bike_id":"bf6d3711-68f5-4721-8ea8-2d0601182f38","system_id":"levelo_inurba_marseille","lat":43.33746,"lon":5.3745,"is_reserved":false,"is_disabled":true,"rental_uris":{"android":"levelo://app?vid=bf6d3711-68f5-4721-8ea8-2d0601182f38","ios":"levelo://app?vid=bf6d3711-68f5-4721-8ea8-2d0601182f38"},"vehicle_type_id":"4","last_reported":1743160106,"current_range_meters":0,"station_id":"","pricing_plan_id":"cebpf4jnsgd1na2vs0mg"},{"bike_id":"fc8e8371-f4e9-4721-bc19-563801e389dc","system_id":"levelo_inurba_marseille","lat":43.337444,"lon":5.374475,"is_reserved":false,"is_disabled":false,"rental_uris":{"android":"levelo://app?vid=fc8e8371-f4e9-4721-bc19-563801e389dc","ios":"levelo://app?vid=fc8e8371-f4e9-4721-bc19-563801e389dc"},"vehicle_type_id":"4","last_reported":1743160106,"current_range_meters":6800,"station_id":"","pricing_plan_id":"cebpf4jnsgd1na2vs0mg"},{"bike_id":"7f9d372a-e6f4-41de-bfd4-626023e27690","system_id":"levelo_inurba_marseille","lat":43.28183,"lon":5.44252,"is_reserved":false,"is_disabled":true,"rental_uris":{"android":"levelo://app?vid=7f9d372a-e6f4-41de-bfd4-626023e27690","ios":"levelo://app?vid=7f9d372a-e6f4-41de-bfd4-626023e27690"},"vehicle_type_id":"4","last_reported":1743160106,"current_range_meters":0,"station_id":"","pricing_plan_id":"cebpf4jnsgd1na2vs0mg"},{"bike_id":"306bbe1b-255e-465f-9c82-619129be6b5a","system_id":"levelo_inurba_marseille","lat":43.26552,"lon":5.39595,"is_reserved":false,"is_disabled":true,"rental_uris":{"android":"levelo://app?vid=306bbe1b-255e-465f-9c82-619129be6b5a","ios":"levelo://app?vid=306bbe1b-255e-465f-9c82-619129be6b5a"},"vehicle_type_id":"4","last_reported":1743160106,"current_range_meters":0,"station_id":"","pricing_plan_id":"cebpf4jnsgd1na2vs0mg"},{"bike_id":"90ca1ee2-57da-464e-a41f-c7dbaf7e93f9","system_id":"levelo_inurba_marseille","lat":43.28109,"lon":5.39856,"is_reserved":false,"is_disabled":true,"rental_uris":{"android":"levelo://app?vid=90ca1ee2-57da-464e-a41f-c7dbaf7e93f9","ios":"levelo://app?vid=90ca1ee2-57da-464e-a41f-c7dbaf7e93f9"},"vehicle_type_id":"4","last_reported":1743160106,"current_range_meters":0,"station_id":"","pricing_plan_id":"cebpf4jnsgd1na2vs0mg"},{"bike_id":"be6725c0-5c09-4663-99b8-0b7371d27e21","system_id":"levelo_inurba_marseille","lat":43.25481,"lon":5.37522,"is_reserved":false,"is_disabled":true,"rental_uris":{"android":"levelo://app?vid=be6725c0-5c09-4663-99b8-0b7371d27e21","ios":"levelo://app?vid=be6725c0-5c09-4663-99b8-0b7371d27e21"},"vehicle_type_id":"4","last_reported":1743160106,"current_range_meters":0,"station_id":"","pricing_plan_id":"cebpf4jnsgd1na2vs0mg"},{"bike_id":"39132323-c731-49ab-98e3-c68cfd77b0de","system_id":"levelo_inurba_marseille","lat":43.26409,"lon":5.40388,"is_reserved":false,"is_disabled":true,"rental_uris":{"android":"levelo://app?vid=39132323-c731-49ab-98e3-c68cfd77b0de","ios":"levelo://app?vid=39132323-c731-49ab-98e3-c68cfd77b0de"},"vehicle_type_id":"4","last_reported":1743160106,"current_range_meters":0,"station_id":"","pricing_plan_id":"cebpf4jnsgd1na2vs0mg"},{"bike_id":"e01b37d2-694f-4478-b219-216c31b79260","system_id":"levelo_inurba_marseille","lat":43.25235,"lon":5.38066,"is_reserved":false,"is_disabled":true,"rental_uris":{"android":"levelo://app?vid=e01b37d2-694f-4478-b219-216c31b79260","ios":"levelo://app?vid=e01b37d2-694f-4478-b219-216c31b79260"},"vehicle_type_id":"4","last_reported":1743160106,"current_range_meters":0,"station_id":"","pricing_plan_id":"cebpf4jnsgd1na2vs0mg"},{"bike_id":"94d314f0-d163-4666-8657-58f5e914796c","system_id":"levelo_inurba_marseille","lat":43.33787,"lon":5.37416,"is_reserved":false,"is_disabled":true,"rental_uris":{"android":"levelo://app?vid=94d314f0-d163-4666-8657-58f5e914796c","ios":"levelo://app?vid=94d314f0-d163-4666-8657-58f5e914796c"},"vehicle_type_id":"4","last_reported":1743160106,"current_range_meters":0,"station_id":"","pricing_plan_id":"cebpf4jnsgd1na2vs0mg"},{"bike_id":"72e5db2b-9562-475e-acb8-d0f54f5a254a","system_id":"levelo_inurba_marseille","lat":43.26067,"lon":5.41554,"is_reserved":false,"is_disabled":true,"rental_uris":{"android":"levelo://app?vid=72e5db2b-9562-475e-acb8-d0f54f5a254a","ios":"levelo://app?vid=72e5db2b-9562-475e-acb8-d0f54f5a254a"},"vehicle_type_id":"4","last_reported":1743160106,"current_range_meters":0,"station_id":"","pricing_plan_id":"cebpf4jnsgd1na2vs0mg"},{"bike_id":"ec7470fc-d51b-44a8-9599-98eca0c1d334","system_id":"levelo_inurba_marseille","lat":43.27118,"lon":5.40033,"is_reserved":false,"is_disabled":true,"rental_uris":{"android":"levelo://app?vid=ec7470fc-d51b-44a8-9599-98eca0c1d334","ios":"levelo://app?vid=ec7470fc-d51b-44a8-9599-98eca0c1d334"},"vehicle_type_id":"4","last_reported":1743160106,"current_range_meters":0,"station_id":"","pricing_plan_id":"cebpf4jnsgd1na2vs0mg"},{"bike_id":"f463e090-133c-43fb-88ee-f6cd5b426541","system_id":"levelo_inurba_marseille","lat":43.30536,"lon":5.3671,"is_reserved":false,"is_disabled":true,"rental_uris":{"android":"levelo://app?vid=f463e090-133c-43fb-88ee-f6cd5b426541","ios":"levelo://app?vid=f463e090-133c-43fb-88ee-f6cd5b426541"},"vehicle_type_id":"4","last_reported":1743160106,"current_range_meters":0,"station_id":"ce4bh512rcd13ifvqe2g","pricing_plan_id":"cebpf4jnsgd1na2vs0mg"},{"bike_id":"feb5e89e-85e2-40ea-8f81-a04467d1b17e","system_id":"levelo_inurba_marseille","lat":43.28858,"lon":5.35847,"is_reserved":false,"is_disabled":true,"rental_uris":{"android":"levelo://app?vid=feb5e89e-85e2-40ea-8f81-a04467d1b17e","ios":"levelo://app?vid=feb5e89e-85e2-40ea-8f81-a04467d1b17e"},"vehicle_type_id":"4","last_reported":1743160106,"current_range_meters":0,"station_id":"ce4bhb12rcd13ifvqem0","pricing_plan_id":"cebpf4jnsgd1na2vs0mg"},{"bike_id":"1fd97445-1569-47b2-a9ef-fcd016d5bb82","system_id":"levelo_inurba_marseille","lat":43.28266,"lon":5.35061,"is_reserved":false,"is_disabled":true,"rental_uris":{"android":"levelo://app?vid=1fd97445-1569-47b2-a9ef-fcd016d5bb82","ios":"levelo://app?vid=1fd97445-1569-47b2-a9ef-fcd016d5bb82"},"vehicle_type_id":"4","last_reported":1743160106,"current_range_meters":0,"station_id":"ce4bhbp2rcd13ifvqerg","pricing_plan_id":"cebpf4jnsgd1na2vs0mg"},{"bike_id":"4dfcaaa1-8753-4f83-8b93-0636560b5cff","system_id":"levelo_inurba_marseille","lat":43.2656,"lon":5.38984,"is_reserved":false,"is_disabled":true,"rental_uris":{"android":"levelo://app?vid=4dfcaaa1-8753-4f83-8b93-0636560b5cff","ios":"levelo://app?vid=4dfcaaa1-8753-4f83-8b93-0636560b5cff"},"vehicle_type_id":"4","last_reported":1743160106,"current_range_meters":0,"station_id":"ce4bhe12rcd13ifvqf30","pricing_plan_id":"cebpf4jnsgd1na2vs0mg"},{"bike_id":"8c7b7a52-13f6-4692-9d8d-1de79d71995a","system_id":"levelo_inurba_marseille","lat":43.27914,"lon":5.39585,"is_reserved":false,"is_disabled":true,"rental_uris":{"android":"levelo://app?vid=8c7b7a52-13f6-4692-9d8d-1de79d71995a","ios":"levelo://app?vid=8c7b7a52-13f6-4692-9d8d-1de79d71995a"},"vehicle_type_id":"4","last_reported":1743160106,"current_range_meters":0,"station_id":"ce4bhf92rcd13ifvqf40","pricing_plan_id":"cebpf4jnsgd1na2vs0mg"},{"bike_id":"455b3daf-8fd1-41ba-ad0a-ec0b4ea2dda8","system_id":"levelo_inurba_marseille","lat":43.26955,"lon":5.38634,"is_reserved":false,"is_disabled":true,"rental_uris":{"android":"levelo://app?vid=455b3daf-8fd1-41ba-ad0a-ec0b4ea2dda8","ios":"levelo://app?vid=455b3daf-8fd1-41ba-ad0a-ec0b4ea2dda8"},"vehicle_type_id":"4","last_reported":1743160106,"current_range_meters":0,"station_id":"ce4bhh92rcd13ifvqfh0","pricing_plan_id":"cebpf4jnsgd1na2vs0mg"},{"bike_id":"18c0e685-97d1-4998-8cce-e8732faa8322","system_id":"levelo_inurba_marseille","lat":43.2396,"lon":5.36631,"is_reserved":false,"is_disabled":true,"rental_uris":{"android":"levelo://app?vid=18c0e685-97d1-4998-8cce-e8732faa8322","ios":"levelo://app?vid=18c0e685-97d1-4998-8cce-e8732faa8322"},"vehicle_type_id":"4","last_reported":1743160106,"current_range_meters":0,"station_id":"ce4bhi12rcd13ifvqfp0","pricing_plan_id":"cebpf4jnsgd1na2vs0mg"},{"bike_id":"e8a1701d-988c-4f0d-bfd0-da824da1c553","system_id":"levelo_inurba_marseille","lat":43.229297,"lon":5.353729,"is_reserved":false,"is_disabled":true,"rental_uris":{"android":"levelo://app?vid=e8a1701d-988c-4f0d-bfd0-da824da1c553","ios":"levelo://app?vid=e8a1701d-988c-4f0d-bfd0-da824da1c553"},"vehicle_type_id":"4","last_reported":1743160106,"current_range_meters":0,"station_id":"cpo3532slgdg3j2ikp40","pricing_plan_id":"cebpf4jnsgd1na2vs0mg"},{"bike_id":"dc108e1b-e281-40c5-838a-ca34dfbb0b83","system_id":"levelo_inurba_marseille","lat":43.29254,"lon":5.37621,"is_reserved":false,"is_disabled":true,"rental_uris":{"android":"levelo://app?vid=dc108e1b-e281-40c5-838a-ca34dfbb0b83","ios":"levelo://app?vid=dc108e1b-e281-40c5-838a-ca34dfbb0b83"},"vehicle_type_id":"4","last_reported":1743160106,"current_range_meters":400,"station_id":"ce4bgi12rcd13ifvqb80","pricing_plan_id":"cebpf4jnsgd1na2vs0mg"},{"bike_id":"7b8f7a8a-dfcc-4fdc-8856-4aec0b02d06b","system_id":"levelo_inurba_marseille","lat":43.31247,"lon":5.36916,"is_reserved":false,"is_disabled":true,"rental_uris":{"android":"levelo://app?vid=7b8f7a8a-dfcc-4fdc-8856-4aec0b02d06b","ios":"levelo://app?vid=7b8f7a8a-dfcc-4fdc-8856-4aec0b02d06b"},"vehicle_type_id":"4","last_reported":1743160106,"current_range_meters":400,"station_id":"ce4bgl92rcd13ifvqbq0","pricing_plan_id":"cebpf4jnsgd1na2vs0mg"},{"bike_id":"1f0f3ba5-776a-48dc-a897-7f7c182226e3","system_id":"levelo_inurba_marseille","lat":43.28446,"lon":5.39203,"is_reserved":false,"is_disabled":true,"rental_uris":{"android":"levelo://app?vid=1f0f3ba5-776a-48dc-a897-7f7c182226e3","ios":"levelo://app?vid=1f0f3ba5-776a-48dc-a897-7f7c182226e3"},"vehicle_type_id":"4","last_reported":1743160106,"current_range_meters":800,"station_id":"ce4bhoh2rcd13ifvqh5g","pricing_plan_id":"cebpf4jnsgd1na2vs0mg"},{"bike_id":"ad62863a-40aa-47e0-8c22-a591e5b0dafa","system_id":"levelo_inurba_marseille","lat":43.28614,"lon":5.35101,"is_reserved":false,"is_disabled":true,"rental_uris":{"android":"levelo://app?vid=ad62863a-40aa-47e0-8c22-a591e5b0dafa","ios":"levelo://app?vid=ad62863a-40aa-47e0-8c22-a591e5b0dafa"},"vehicle_type_id":"4","last_reported":1743160106,"current_range_meters":1200,"station_id":"ce4bhch2rcd13ifvqeug","pricing_plan_id":"cebpf4jnsgd1na2vs0mg"},{"bike_id":"09985d0e-5e64-4f0a-9bd4-3891f518b24a","system_id":"levelo_inurba_marseille","lat":43.269587,"lon":5.38618,"is_reserved":false,"is_disabled":true,"rental_uris":{"android":"levelo://app?vid=09985d0e-5e64-4f0a-9bd4-3891f518b24a","ios":"levelo://app?vid=09985d0e-5e64-4f0a-9bd4-3891f518b24a"},"vehicle_type_id":"4","last_reported":1743160106,"current_range_meters":1200,"station_id":"ce4bhh92rcd13ifvqfh0","pricing_plan_id":"cebpf4jnsgd1na2vs0mg"},{"bike_id":"7d6a8a7b-2459-41ac-912e-bc4251c121ed","system_id":"levelo_inurba_marseille","lat":43.27506,"lon":5.42443,"is_reserved":false,"is_disabled":true,"rental_uris":{"android":"levelo://app?vid=7d6a8a7b-2459-41ac-912e-bc4251c121ed","ios":"levelo://app?vid=7d6a8a7b-2459-41ac-912e-bc4251c121ed"},"vehicle_type_id":"4","last_reported":1743160106,"current_range_meters":1200,"station_id":"ce4bhn92rcd13ifvqgrg","pricing_plan_id":"cebpf4jnsgd1na2vs0mg"},{"bike_id":"f52d54ce-a9c2-49a4-b1c1-c68f8a9c828d","system_id":"levelo_inurba_marseille","lat":43.27999,"lon":5.41657,"is_reserved":false,"is_disabled":true,"rental_uris":{"android":"levelo://app?vid=f52d54ce-a9c2-49a4-b1c1-c68f8a9c828d","ios":"levelo://app?vid=f52d54ce-a9c2-49a4-b1c1-c68f8a9c828d"},"vehicle_type_id":"4","last_reported":1743160106,"current_range_meters":1200,"station_id":"ce4bho12rcd13ifvqh1g","pricing_plan_id":"cebpf4jnsgd1na2vs0mg"},{"bike_id":"efb462a8-0c6c-4b02-8e1c-515bf9a5d7f5","system_id":"levelo_inurba_marseille","lat":43.341,"lon":5.35128,"is_reserved":false,"is_disabled":true,"rental_uris":{"android":"levelo://app?vid=efb462a8-0c6c-4b02-8e1c-515bf9a5d7f5","ios":"levelo://app?vid=efb462a8-0c6c-4b02-8e1c-515bf9a5d7f5"},"vehicle_type_id":"4","last_reported":1743160106,"current_range_meters":1600,"station_id":"","pricing_plan_id":"cebpf4jnsgd1na2vs0mg"},{"bike_id":"486e227b-0f1b-4856-980d-311f93d4c665","system_id":"levelo_inurba_marseille","lat":43.29576,"lon":5.37516,"is_reserved":false,"is_disabled":true,"rental_uris":{"android":"levelo://app?vid=486e227b-0f1b-4856-980d-311f93d4c665","ios":"levelo://app?vid=486e227b-0f1b-4856-980d-311f93d4c665"},"vehicle_type_id":"4","last_reported":1743160106,"current_range_meters":2000,"station_id":"ce4bgh92rcd13ifvqb50","pricing_plan_id":"cebpf4jnsgd1na2vs0mg"},{"bike_id":"1fc61642-a44d-4334-a8cd-370d0836fd0f","system_id":"levelo_inurba_marseille","lat":43.29914,"lon":5.37477,"is_reserved":false,"is_disabled":true,"rental_uris":{"android":"levelo://app?vid=1fc61642-a44d-4334-a8cd-370d0836fd0f","ios":"levelo://app?vid=1fc61642-a44d-4334-a8cd-370d0836fd0f"},"vehicle_type_id":"4","last_reported":1743160106,"current_range_meters":2000,"station_id":"ce4bgjh2rcd13ifvqbg0","pricing_plan_id":"cebpf4jnsgd1na2vs0mg"},{"bike_id":"c30b4351-a752-4c84-8bf9-e20988da7341","system_id":"levelo_inurba_marseille","lat":43.31493,"lon":5.3733,"is_reserved":false,"is_disabled":true,"rental_uris":{"android":"levelo://app?vid=c30b4351-a752-4c84-8bf9-e20988da7341","ios":"levelo://app?vid=c30b4351-a752-4c84-8bf9-e20988da7341"},"vehicle_type_id":"4","last_reported":1743160106,"current_range_meters":2000,"station_id":"ce4bgt12rcd13ifvqcd0","pricing_plan_id":"cebpf4jnsgd1na2vs0mg"},{"bike_id":"c55d3df9-6bd2-406e-93cc-6963ce11d8a1","system_id":"levelo_inurba_marseille","lat":43.322997,"lon":5.412975,"is_reserved":false,"is_disabled":true,"rental_uris":{"android":"levelo://app?vid=c55d3df9-6bd2-406e-93cc-6963ce11d8a1","ios":"levelo://app?vid=c55d3df9-6bd2-406e-93cc-6963ce11d8a1"},"vehicle_type_id":"4","last_reported":1743160106,"current_range_meters":2000,"station_id":"ce4bhqh2rcd13ifvqhmg","pricing_plan_id":"cebpf4jnsgd1na2vs0mg"},{"bike_id":"c9b2c00c-c382-4db2-8582-a86a0684c224","system_id":"levelo_inurba_marseille","lat":43.31506,"lon":5.37307,"is_reserved":false,"is_disabled":true,"rental_uris":{"android":"levelo://app?vid=c9b2c00c-c382-4db2-8582-a86a0684c224","ios":"levelo://app?vid=c9b2c00c-c382-4db2-8582-a86a0684c224"},"vehicle_type_id":"4","last_reported":1743160106,"current_range_meters":2800,"station_id":"ce4bgt12rcd13ifvqcd0","pricing_plan_id":"cebpf4jnsgd1na2vs0mg"},{"bike_id":"56e5aeba-7f85-4410-bb9f-96f0e8cf4e7c","system_id":"levelo_inurba_marseille","lat":43.29268,"lon":5.38444,"is_reserved":false,"is_disabled":false,"rental_uris":{"android":"levelo://app?vid=56e5aeba-7f85-4410-bb9f-96f0e8cf4e7c","ios":"levelo://app?vid=56e5aeba-7f85-4410-bb9f-96f0e8cf4e7c"},"vehicle_type_id":"4","last_reported":1743160106,"current_range_meters":2800,"station_id":"ce4bh692rcd13ifvqea0","pricing_plan_id":"cebpf4jnsgd1na2vs0mg"},{"bike_id":"2f360292-85e7-4e91-8642-be503046fb8f","system_id":"levelo_inurba_marseille","lat":43.25499,"lon":5.37648,"is_reserved":false,"is_disabled":true,"rental_uris":{"android":"levelo://app?vid=2f360292-85e7-4e91-8642-be503046fb8f","ios":"levelo://app?vid=2f360292-85e7-4e91-8642-be503046fb8f"},"vehicle_type_id":"4","last_reported":1743160106,"current_range_meters":2800,"station_id":"ce4bhh12rcd13ifvqff0","pricing_plan_id":"cebpf4jnsgd1na2vs0mg"},{"bike_id":"6cf972dc-cb1d-4dfc-9b05-f90bd8dda2f9","system_id":"levelo_inurba_marseille","lat":43.30464,"lon":5.3791,"is_reserved":false,"is_disabled":false,"rental_uris":{"android":"levelo://app?vid=6cf972dc-cb1d-4dfc-9b05-f90bd8dda2f9","ios":"levelo://app?vid=6cf972dc-cb1d-4dfc-9b05-f90bd8dda2f9"},"vehicle_type_id":"4","last_reported":1743160106,"current_range_meters":3600,"station_id":"ce4bgup2rcd13ifvqcn0","pricing_plan_id":"cebpf4jnsgd1na2vs0mg"},{"bike_id":"c752cc87-456e-4134-9a44-62eff5dadbd0","system_id":"levelo_inurba_marseille","lat":43.27835,"lon":5.40733,"is_reserved":false,"is_disabled":false,"rental_uris":{"android":"levelo://app?vid=c752cc87-456e-4134-9a44-62eff5dadbd0","ios":"levelo://app?vid=c752cc87-456e-4134-9a44-62eff5dadbd0"},"vehicle_type_id":"4","last_reported":1743160106,"current_range_meters":3600,"station_id":"ce4bhnh2rcd13ifvqgtg","pricing_plan_id":"cebpf4jnsgd1na2vs0mg"},{"bike_id":"84a7a785-5392-42bc-8088-fb903bcc7f5c","system_id":"levelo_inurba_marseille","lat":43.23069,"lon":5.35494,"is_reserved":false,"is_disabled":false,"rental_uris":{"android":"levelo://app?vid=84a7a785-5392-42bc-8088-fb903bcc7f5c","ios":"levelo://app?vid=84a7a785-5392-42bc-8088-fb903bcc7f5c"},"vehicle_type_id":"4","last_reported":1743160106,"current_range_meters":3600,"station_id":"cpo3342slgdg3j2ifvpg","pricing_plan_id":"cebpf4jnsgd1na2vs0mg"},{"bike_id":"5410f484-c367-46b0-8898-f7d85165a482","system_id":"levelo_inurba_marseille","lat":43.2293,"lon":5.353719,"is_reserved":false,"is_disabled":false,"rental_uris":{"android":"levelo://app?vid=5410f484-c367-46b0-8898-f7d85165a482","ios":"levelo://app?vid=5410f484-c367-46b0-8898-f7d85165a482"},"vehicle_type_id":"4","last_reported":1743160106,"current_range_meters":3600,"station_id":"cpo3532slgdg3j2ikp40","pricing_plan_id":"cebpf4jnsgd1na2vs0mg"},{"bike_id":"988d9295-9f60-4cf9-abb3-001d64c07e4b","system_id":"levelo_inurba_marseille","lat":43.27053,"lon":5.40257,"is_reserved":false,"is_disabled":false,"rental_uris":{"android":"levelo://app?vid=988d9295-9f60-4cf9-abb3-001d64c07e4b","ios":"levelo://app?vid=988d9295-9f60-4cf9-abb3-001d64c07e4b"},"vehicle_type_id":"4","last_reported":1743160106,"current_range_meters":4000,"station_id":"ce4bhk92rcd13ifvqgc0","pricing_plan_id":"cebpf4jnsgd1na2vs0mg"},{"bike_id":"0acd526e-d7bf-446f-8abc-688b22a02cf0","system_id":"levelo_inurba_marseille","lat":43.27372,"lon":5.36252,"is_reserved":false,"is_disabled":false,"rental_uris":{"android":"levelo://app?vid=0acd526e-d7bf-446f-8abc-688b22a02cf0","ios":"levelo://app?vid=0acd526e-d7bf-446f-8abc-688b22a02cf0"},"vehicle_type_id":"4","last_reported":1743160106,"current_range_meters":4400,"station_id":"ce4bhbh2rcd13ifvqeo0","pricing_plan_id":"cebpf4jnsgd1na2vs0mg"},{"bike_id":"19a0874a-ee88-4b99-ad2d-0974f055242e","system_id":"levelo_inurba_marseille","lat":43.28265,"lon":5.35078,"is_reserved":false,"is_disabled":false,"rental_uris":{"android":"levelo://app?vid=19a0874a-ee88-4b99-ad2d-0974f055242e","ios":"levelo://app?vid=19a0874a-ee88-4b99-ad2d-0974f055242e"},"vehicle_type_id":"4","last_reported":1743160106,"current_range_meters":4400,"station_id":"ce4bhbp2rcd13ifvqerg","pricing_plan_id":"cebpf4jnsgd1na2vs0mg"},{"bike_id":"d2efa84f-3e0b-4f90-9340-340730e51757","system_id":"levelo_inurba_marseille","lat":43.28256,"lon":5.35037,"is_reserved":false,"is_disabled":false,"rental_uris":{"android":"levelo://app?vid=d2efa84f-3e0b-4f90-9340-340730e51757","ios":"levelo://app?vid=d2efa84f-3e0b-4f90-9340-340730e51757"},"vehicle_type_id":"4","last_reported":1743160106,"current_range_meters":4400,"station_id":"ce4bhbp2rcd13ifvqerg","pricing_plan_id":"cebpf4jnsgd1na2vs0mg"},{"bike_id":"72407b9c-71b7-4feb-83e9-97e5f2a36163","system_id":"levelo_inurba_marseille","lat":43.24155,"lon":5.36399,"is_reserved":false,"is_disabled":false,"rental_uris":{"android":"levelo://app?vid=72407b9c-71b7-4feb-83e9-97e5f2a36163","ios":"levelo://app?vid=72407b9c-71b7-4feb-83e9-97e5f2a36163"},"vehicle_type_id":"4","last_reported":1743160106,"current_range_meters":4400,"station_id":"cpo36qri1sfpv3e86is0","pricing_plan_id":"cebpf4jnsgd1na2vs0mg"},{"bike_id":"c756d32d-efcb-4a9e-8494-37e13de07e39","system_id":"levelo_inurba_marseille","lat":43.26962,"lon":5.38614,"is_reserved":false,"is_disabled":false,"rental_uris":{"android":"levelo://app?vid=c756d32d-efcb-4a9e-8494-37e13de07e39","ios":"levelo://app?vid=c756d32d-efcb-4a9e-8494-37e13de07e39"},"vehicle_type_id":"4","last_reported":1743160106,"current_range_meters":4800,"station_id":"ce4bhh92rcd13ifvqfh0","pricing_plan_id":"cebpf4jnsgd1na2vs0mg"},{"bike_id":"4bdc0f7b-b254-4e01-86dd-5b48c27f95af","system_id":"levelo_inurba_marseille","lat":43.27211,"lon":5.39178,"is_reserved":false,"is_disabled":false,"rental_uris":{"android":"levelo://app?vid=4bdc0f7b-b254-4e01-86dd-5b48c27f95af","ios":"levelo://app?vid=4bdc0f7b-b254-4e01-86dd-5b48c27f95af"},"vehicle_type_id":"4","last_reported":1743160106,"current_range_meters":4800,"station_id":"ce4bhhp2rcd13ifvqfm0","pricing_plan_id":"cebpf4jnsgd1na2vs0mg"},{"bike_id":"5e7d515b-946e-40cf-99c1-3c51f2270c80","system_id":"levelo_inurba_marseille","lat":43.27374,"lon":5.36257,"is_reserved":false,"is_disabled":false,"rental_uris":{"android":"levelo://app?vid=5e7d515b-946e-40cf-99c1-3c51f2270c80","ios":"levelo://app?vid=5e7d515b-946e-40cf-99c1-3c51f2270c80"},"vehicle_type_id":"4","last_reported":1743160106,"current_range_meters":5600,"station_id":"ce4bhbh2rcd13ifvqeo0","pricing_plan_id":"cebpf4jnsgd1na2vs0mg"},{"bike_id":"3e31430f-7ea4-44c6-9fc1-3ce71b892105","system_id":"levelo_inurba_marseille","lat":43.2455,"lon":5.39525,"is_reserved":false,"is_disabled":false,"rental_uris":{"android":"levelo://app?vid=3e31430f-7ea4-44c6-9fc1-3ce71b892105","ios":"levelo://app?vid=3e31430f-7ea4-44c6-9fc1-3ce71b892105"},"vehicle_type_id":"4","last_reported":1743160106,"current_range_meters":5600,"station_id":"ce4bhlp2rcd13ifvqgjg","pricing_plan_id":"cebpf4jnsgd1na2vs0mg"},{"bike_id":"0e173472-5a4b-4021-b0c5-dd55f1f57390","system_id":"levelo_inurba_marseille","lat":43.25107,"lon":5.39517,"is_reserved":false,"is_disabled":false,"rental_uris":{"android":"levelo://app?vid=0e173472-5a4b-4021-b0c5-dd55f1f57390","ios":"levelo://app?vid=0e173472-5a4b-4021-b0c5-dd55f1f57390"},"vehicle_type_id":"4","last_reported":1743160106,"current_range_meters":5600,"station_id":"ce4bhm12rcd13ifvqgkg","pricing_plan_id":"cebpf4jnsgd1na2vs0mg"},{"bike_id":"ca1a6c50-0178-49a6-87ee-c0bb57eebc7b","system_id":"levelo_inurba_marseille","lat":43.29253,"lon":5.37615,"is_reserved":false,"is_disabled":false,"rental_uris":{"android":"levelo://app?vid=ca1a6c50-0178-49a6-87ee-c0bb57eebc7b","ios":"levelo://app?vid=ca1a6c50-0178-49a6-87ee-c0bb57eebc7b"},"vehicle_type_id":"4","last_reported":1743160106,"current_range_meters":6000,"station_id":"ce4bgi12rcd13ifvqb80","pricing_plan_id":"cebpf4jnsgd1na2vs0mg"},{"bike_id":"b718af25-2947-4d4a-a557-bae14ad75132","system_id":"levelo_inurba_marseille","lat":43.29797,"lon":5.38084,"is_reserved":false,"is_disabled":false,"rental_uris":{"android":"levelo://app?vid=b718af25-2947-4d4a-a557-bae14ad75132","ios":"levelo://app?vid=b718af25-2947-4d4a-a557-bae14ad75132"},"vehicle_type_id":"4","last_reported":1743160106,"current_range_meters":6000,"station_id":"ce4bgip2rcd13ifvqbb0","pricing_plan_id":"cebpf4jnsgd1na2vs0mg"},{"bike_id":"b1d038cf-8f8e-4f0a-a753-84ebf9de9c82","system_id":"levelo_inurba_marseille","lat":43.26209,"lon":5.37924,"is_reserved":false,"is_disabled":false,"rental_uris":{"android":"levelo://app?vid=b1d038cf-8f8e-4f0a-a753-84ebf9de9c82","ios":"levelo://app?vid=b1d038cf-8f8e-4f0a-a753-84ebf9de9c82"},"vehicle_type_id":"4","last_reported":1743160106,"current_range_meters":6000,"station_id":"ce4bhjp2rcd13ifvqg90","pricing_plan_id":"cebpf4jnsgd1na2vs0mg"},{"bike_id":"c18155db-65c7-4d5a-8c5b-923eb75c675d","system_id":"levelo_inurba_marseille","lat":43.32115,"lon":5.36777,"is_reserved":false,"is_disabled":false,"rental_uris":{"android":"levelo://app?vid=c18155db-65c7-4d5a-8c5b-923eb75c675d","ios":"levelo://app?vid=c18155db-65c7-4d5a-8c5b-923eb75c675d"},"vehicle_type_id":"4","last_reported":1743160106,"current_range_meters":6000,"station_id":"ce4bhrh2rcd13ifvqhug","pricing_plan_id":"cebpf4jnsgd1na2vs0mg"},{"bike_id":"99ba283f-adaa-4f97-a965-4d928786afc7","system_id":"levelo_inurba_marseille","lat":43.26926,"lon":5.40251,"is_reserved":false,"is_disabled":false,"rental_uris":{"android":"levelo://app?vid=99ba283f-adaa-4f97-a965-4d928786afc7","ios":"levelo://app?vid=99ba283f-adaa-4f97-a965-4d928786afc7"},"vehicle_type_id":"4","last_reported":1743160106,"current_range_meters":6000,"station_id":"cjm6bp8fraef2m0cb0m0","pricing_plan_id":"cebpf4jnsgd1na2vs0mg"},{"bike_id":"e17800f8-db31-4696-b7f7-47eb7fedad91","system_id":"levelo_inurba_marseille","lat":43.22928,"lon":5.35378,"is_reserved":false,"is_disabled":false,"rental_uris":{"android":"levelo://app?vid=e17800f8-db31-4696-b7f7-47eb7fedad91","ios":"levelo://app?vid=e17800f8-db31-4696-b7f7-47eb7fedad91"},"vehicle_type_id":"4","last_reported":1743160106,"current_range_meters":6000,"station_id":"cpo3532slgdg3j2ikp40","pricing_plan_id":"cebpf4jnsgd1na2vs0mg"},{"bike_id":"d15e32cb-1754-44a5-befb-e75caebd888f","system_id":"levelo_inurba_marseille","lat":43.2967,"lon":5.37922,"is_reserved":false,"is_disabled":false,"rental_uris":{"android":"levelo://app?vid=d15e32cb-1754-44a5-befb-e75caebd888f","ios":"levelo://app?vid=d15e32cb-1754-44a5-befb-e75caebd888f"},"vehicle_type_id":"4","last_reported":1743160106,"current_range_meters":6400,"station_id":"","pricing_plan_id":"cebpf4jnsgd1na2vs0mg"},{"bike_id":"377bfdf5-bc1c-4c55-962d-8040e4043b10","system_id":"levelo_inurba_marseille","lat":43.295197,"lon":5.374945,"is_reserved":false,"is_disabled":false,"rental_uris":{"android":"levelo://app?vid=377bfdf5-bc1c-4c55-962d-8040e4043b10","ios":"levelo://app?vid=377bfdf5-bc1c-4c55-962d-8040e4043b10"},"vehicle_type_id":"4","last_reported":1743160106,"current_range_meters":6400,"station_id":"ce4bgkp2rcd13ifvqbmg","pricing_plan_id":"cebpf4jnsgd1na2vs0mg"},{"bike_id":"5b3dfa7a-0613-41e7-b947-7756314617c2","system_id":"levelo_inurba_marseille","lat":43.29527,"lon":5.39037,"is_reserved":false,"is_disabled":false,"rental_uris":{"android":"levelo://app?vid=5b3dfa7a-0613-41e7-b947-7756314617c2","ios":"levelo://app?vid=5b3dfa7a-0613-41e7-b947-7756314617c2"},"vehicle_type_id":"4","last_reported":1743160106,"current_range_meters":6400,"station_id":"ce4bh3p2rcd13ifvqdp0","pricing_plan_id":"cebpf4jnsgd1na2vs0mg"},{"bike_id":"46066b18-564d-4f18-b71c-0abd1e09ec82","system_id":"levelo_inurba_marseille","lat":43.26512,"lon":5.3954,"is_reserved":false,"is_disabled":false,"rental_uris":{"android":"levelo://app?vid=46066b18-564d-4f18-b71c-0abd1e09ec82","ios":"levelo://app?vid=46066b18-564d-4f18-b71c-0abd1e09ec82"},"vehicle_type_id":"4","last_reported":1743160106,"current_range_meters":6400,"station_id":"ce4bhi12rcd13ifvqfq0","pricing_plan_id":"cebpf4jnsgd1na2vs0mg"},{"bike_id":"da76ef48-2f92-41cb-b7ea-11e6bb0bc372","system_id":"levelo_inurba_marseille","lat":43.25923,"lon":5.40894,"is_reserved":false,"is_disabled":false,"rental_uris":{"android":"levelo://app?vid=da76ef48-2f92-41cb-b7ea-11e6bb0bc372","ios":"levelo://app?vid=da76ef48-2f92-41cb-b7ea-11e6bb0bc372"},"vehicle_type_id":"4","last_reported":1743160106,"current_range_meters":6400,"station_id":"ce4bhm92rcd13ifvqglg","pricing_plan_id":"cebpf4jnsgd1na2vs0mg"},{"bike_id":"ad68bb84-3d68-4128-8805-42c8860dcca1","system_id":"levelo_inurba_marseille","lat":43.29259,"lon":5.37614,"is_reserved":false,"is_disabled":false,"rental_uris":{"android":"levelo://app?vid=ad68bb84-3d68-4128-8805-42c8860dcca1","ios":"levelo://app?vid=ad68bb84-3d68-4128-8805-42c8860dcca1"},"vehicle_type_id":"4","last_reported":1743160106,"current_range_meters":6800,"station_id":"ce4bgi12rcd13ifvqb80","pricing_plan_id":"cebpf4jnsgd1na2vs0mg"},{"bike_id":"f7af7278-4dd4-4ae0-b1f9-972ee37c2718","system_id":"levelo_inurba_marseille","lat":43.27993,"lon":5.38735,"is_reserved":false,"is_disabled":false,"rental_uris":{"android":"levelo://app?vid=f7af7278-4dd4-4ae0-b1f9-972ee37c2718","ios":"levelo://app?vid=f7af7278-4dd4-4ae0-b1f9-972ee37c2718"},"vehicle_type_id":"4","last_reported":1743160106,"current_range_meters":6800,"station_id":"ce4bhg12rcd13ifvqf80","pricing_plan_id":"cebpf4jnsgd1na2vs0mg"},{"bike_id":"441b431e-09c9-4001-83aa-5cb2001d429d","system_id":"levelo_inurba_marseille","lat":43.275613,"lon":5.384275,"is_reserved":false,"is_disabled":false,"rental_uris":{"android":"levelo://app?vid=441b431e-09c9-4001-83aa-5cb2001d429d","ios":"levelo://app?vid=441b431e-09c9-4001-83aa-5cb2001d429d"},"vehicle_type_id":"4","last_reported":1743160106,"current_range_meters":6800,"station_id":"ce4bhh92rcd13ifvqfi0","pricing_plan_id":"cebpf4jnsgd1na2vs0mg"},{"bike_id":"2079e143-15fb-4fca-b428-1dcdbd2da2aa","system_id":"levelo_inurba_marseille","lat":43.27811,"lon":5.40719,"is_reserved":false,"is_disabled":false,"rental_uris":{"android":"levelo://app?vid=2079e143-15fb-4fca-b428-1dcdbd2da2aa","ios":"levelo://app?vid=2079e143-15fb-4fca-b428-1dcdbd2da2aa"},"vehicle_type_id":"4","last_reported":1743160106,"current_range_meters":6800,"station_id":"ce4bhnh2rcd13ifvqgtg","pricing_plan_id":"cebpf4jnsgd1na2vs0mg"},{"bike_id":"927d97d0-5333-41e1-a0d5-a065da165aa1","system_id":"levelo_inurba_marseille","lat":43.27816,"lon":5.40712,"is_reserved":false,"is_disabled":false,"rental_uris":{"android":"levelo://app?vid=927d97d0-5333-41e1-a0d5-a065da165aa1","ios":"levelo://app?vid=927d97d0-5333-41e1-a0d5-a065da165aa1"},"vehicle_type_id":"4","last_reported":1743160106,"current_range_meters":6800,"station_id":"ce4bhnh2rcd13ifvqgtg","pricing_plan_id":"cebpf4jnsgd1na2vs0mg"},{"bike_id":"a3da10bc-b067-4a00-b60a-7be6ff45323e","system_id":"levelo_inurba_marseille","lat":43.32105,"lon":5.36768,"is_reserved":false,"is_disabled":false,"rental_uris":{"android":"levelo://app?vid=a3da10bc-b067-4a00-b60a-7be6ff45323e","ios":"levelo://app?vid=a3da10bc-b067-4a00-b60a-7be6ff45323e"},"vehicle_type_id":"4","last_reported":1743160106,"current_range_meters":6800,"station_id":"ce4bhrh2rcd13ifvqhug","pricing_plan_id":"cebpf4jnsgd1na2vs0mg"},{"bike_id":"597c4159-84ca-4ec5-b4f4-125fbc1c07ee","system_id":"levelo_inurba_marseille","lat":43.32026,"lon":5.38126,"is_reserved":false,"is_disabled":false,"rental_uris":{"android":"levelo://app?vid=597c4159-84ca-4ec5-b4f4-125fbc1c07ee","ios":"levelo://app?vid=597c4159-84ca-4ec5-b4f4-125fbc1c07ee"},"vehicle_type_id":"4","last_reported":1743160106,"current_range_meters":7200,"station_id":"","pricing_plan_id":"cebpf4jnsgd1na2vs0mg"},{"bike_id":"c5d17eb8-cde1-49a3-9672-ac8d8cf34632","system_id":"levelo_inurba_marseille","lat":43.33424,"lon":5.39977,"is_reserved":false,"is_disabled":false,"rental_uris":{"android":"levelo://app?vid=c5d17eb8-cde1-49a3-9672-ac8d8cf34632","ios":"levelo://app?vid=c5d17eb8-cde1-49a3-9672-ac8d8cf34632"},"vehicle_type_id":"4","last_reported":1743160106,"current_range_meters":7200,"station_id":"","pricing_plan_id":"cebpf4jnsgd1na2vs0mg"},{"bike_id":"abe7712c-a122-4a7b-8c31-875904ed8afd","system_id":"levelo_inurba_marseille","lat":43.29529,"lon":5.37494,"is_reserved":false,"is_disabled":false,"rental_uris":{"android":"levelo://app?vid=abe7712c-a122-4a7b-8c31-875904ed8afd","ios":"levelo://app?vid=abe7712c-a122-4a7b-8c31-875904ed8afd"},"vehicle_type_id":"4","last_reported":1743160106,"current_range_meters":7200,"station_id":"ce4bgkp2rcd13ifvqbmg","pricing_plan_id":"cebpf4jnsgd1na2vs0mg"},{"bike_id":"c28cbd31-f129-49b7-82c9-e71b449b6888","system_id":"levelo_inurba_marseille","lat":43.25492,"lon":5.37649,"is_reserved":false,"is_disabled":false,"rental_uris":{"android":"levelo://app?vid=c28cbd31-f129-49b7-82c9-e71b449b6888","ios":"levelo://app?vid=c28cbd31-f129-49b7-82c9-e71b449b6888"},"vehicle_type_id":"4","last_reported":1743160106,"current_range_meters":7200,"station_id":"ce4bhh12rcd13ifvqff0","pricing_plan_id":"cebpf4jnsgd1na2vs0mg"},{"bike_id":"661ef678-0240-477c-9626-53c6a37d1376","system_id":"levelo_inurba_marseille","lat":43.27565,"lon":5.38423,"is_reserved":false,"is_disabled":false,"rental_uris":{"android":"levelo://app?vid=661ef678-0240-477c-9626-53c6a37d1376","ios":"levelo://app?vid=661ef678-0240-477c-9626-53c6a37d1376"},"vehicle_type_id":"4","last_reported":1743160106,"current_range_meters":7200,"station_id":"ce4bhh92rcd13ifvqfi0","pricing_plan_id":"cebpf4jnsgd1na2vs0mg"},{"bike_id":"cda3078a-2d37-41a5-946f-aad062afbf12","system_id":"levelo_inurba_marseille","lat":43.24546,"lon":5.39522,"is_reserved":false,"is_disabled":false,"rental_uris":{"android":"levelo://app?vid=cda3078a-2d37-41a5-946f-aad062afbf12","ios":"levelo://app?vid=cda3078a-2d37-41a5-946f-aad062afbf12"},"vehicle_type_id":"4","last_reported":1743160106,"current_range_meters":7200,"station_id":"ce4bhlp2rcd13ifvqgjg","pricing_plan_id":"cebpf4jnsgd1na2vs0mg"},{"bike_id":"aa34ab5b-69d8-4cbe-a70f-dc0a0c19d148","system_id":"levelo_inurba_marseille","lat":43.24173,"lon":5.39723,"is_reserved":false,"is_disabled":false,"rental_uris":{"android":"levelo://app?vid=aa34ab5b-69d8-4cbe-a70f-dc0a0c19d148","ios":"levelo://app?vid=aa34ab5b-69d8-4cbe-a70f-dc0a0c19d148"},"vehicle_type_id":"4","last_reported":1743160106,"current_range_meters":7200,"station_id":"ce4bhn12rcd13ifvqgpg","pricing_plan_id":"cebpf4jnsgd1na2vs0mg"},{"bike_id":"02cdb849-4afc-4cb7-85b8-c3e0111ed612","system_id":"levelo_inurba_marseille","lat":43.30146,"lon":5.38078,"is_reserved":false,"is_disabled":false,"rental_uris":{"android":"levelo://app?vid=02cdb849-4afc-4cb7-85b8-c3e0111ed612","ios":"levelo://app?vid=02cdb849-4afc-4cb7-85b8-c3e0111ed612"},"vehicle_type_id":"4","last_reported":1743160106,"current_range_meters":8000,"station_id":"ce4bgjp2rcd13ifvqbh0","pricing_plan_id":"cebpf4jnsgd1na2vs0mg"},{"bike_id":"ec940620-2a09-4eae-aace-1a0a72b62180","system_id":"levelo_inurba_marseille","lat":43.30304,"lon":5.40074,"is_reserved":false,"is_disabled":false,"rental_uris":{"android":"levelo://app?vid=ec940620-2a09-4eae-aace-1a0a72b62180","ios":"levelo://app?vid=ec940620-2a09-4eae-aace-1a0a72b62180"},"vehicle_type_id":"4","last_reported":1743160106,"current_range_meters":8000,"station_id":"ce4bgvh2rcd13ifvqcs0","pricing_plan_id":"cebpf4jnsgd1na2vs0mg"},{"bike_id":"2f1ac36f-24af-4993-bf5d-e3d024f172ea","system_id":"levelo_inurba_marseille","lat":43.28936,"lon":5.39642,"is_reserved":false,"is_disabled":false,"rental_uris":{"android":"levelo://app?vid=2f1ac36f-24af-4993-bf5d-e3d024f172ea","ios":"levelo://app?vid=2f1ac36f-24af-4993-bf5d-e3d024f172ea"},"vehicle_type_id":"4","last_reported":1743160106,"current_range_meters":8000,"station_id":"ce4bh3h2rcd13ifvqdn0","pricing_plan_id":"cebpf4jnsgd1na2vs0mg"},{"bike_id":"3bb3f478-8198-43bb-8c0b-9e060386ea5e","system_id":"levelo_inurba_marseille","lat":43.28499,"lon":5.38397,"is_reserved":false,"is_disabled":false,"rental_uris":{"android":"levelo://app?vid=3bb3f478-8198-43bb-8c0b-9e060386ea5e","ios":"levelo://app?vid=3bb3f478-8198-43bb-8c0b-9e060386ea5e"},"vehicle_type_id":"4","last_reported":1743160106,"current_range_meters":8000,"station_id":"ce4bh512rcd13ifvqe3g","pricing_plan_id":"cebpf4jnsgd1na2vs0mg"},{"bike_id":"8291cfa3-0250-4045-a504-a64ed738929e","system_id":"levelo_inurba_marseille","lat":43.29167,"lon":5.37159,"is_reserved":false,"is_disabled":false,"rental_uris":{"android":"levelo://app?vid=8291cfa3-0250-4045-a504-a64ed738929e","ios":"levelo://app?vid=8291cfa3-0250-4045-a504-a64ed738929e"},"vehicle_type_id":"4","last_reported":1743160106,"current_range_meters":8000,"station_id":"ce4bha92rcd13ifvqeh0","pricing_plan_id":"cebpf4jnsgd1na2vs0mg"},{"bike_id":"6d0044b1-5921-44af-ac52-913922323909","system_id":"levelo_inurba_marseille","lat":43.26677,"lon":5.38271,"is_reserved":false,"is_disabled":false,"rental_uris":{"android":"levelo://app?vid=6d0044b1-5921-44af-ac52-913922323909","ios":"levelo://app?vid=6d0044b1-5921-44af-ac52-913922323909"},"vehicle_type_id":"4","last_reported":1743160106,"current_range_meters":8000,"station_id":"ce4bhg92rcd13ifvqf90","pricing_plan_id":"cebpf4jnsgd1na2vs0mg"},{"bike_id":"14047aa8-f0ab-4e97-9be1-0de655be94b5","system_id":"levelo_inurba_marseille","lat":43.25952,"lon":5.40942,"is_reserved":false,"is_disabled":false,"rental_uris":{"android":"levelo://app?vid=14047aa8-f0ab-4e97-9be1-0de655be94b5","ios":"levelo://app?vid=14047aa8-f0ab-4e97-9be1-0de655be94b5"},"vehicle_type_id":"4","last_reported":1743160106,"current_range_meters":8000,"station_id":"ce4bhm92rcd13ifvqglg","pricing_plan_id":"cebpf4jnsgd1na2vs0mg"},{"bike_id":"19221227-42ec-4f4b-8f04-42a0818e22f5","system_id":"levelo_inurba_marseille","lat":43.32102,"lon":5.36764,"is_reserved":false,"is_disabled":false,"rental_uris":{"android":"levelo://app?vid=19221227-42ec-4f4b-8f04-42a0818e22f5","ios":"levelo://app?vid=19221227-42ec-4f4b-8f04-42a0818e22f5"},"vehicle_type_id":"4","last_reported":1743160106,"current_range_meters":8000,"station_id":"ce4bhrh2rcd13ifvqhug","pricing_plan_id":"cebpf4jnsgd1na2vs0mg"},{"bike_id":"0ac88cdf-dd3a-494f-aaa5-2b24d1ce393f","system_id":"levelo_inurba_marseille","lat":43.23207,"lon":5.35572,"is_reserved":false,"is_disabled":false,"rental_uris":{"android":"levelo://app?vid=0ac88cdf-dd3a-494f-aaa5-2b24d1ce393f","ios":"levelo://app?vid=0ac88cdf-dd3a-494f-aaa5-2b24d1ce393f"},"vehicle_type_id":"4","last_reported":1743160106,"current_range_meters":8000,"station_id":"ce4bhu92rcd13ifvqi70","pricing_plan_id":"cebpf4jnsgd1na2vs0mg"},{"bike_id":"949a6983-040f-4b6d-9d66-15c3c3fc786b","system_id":"levelo_inurba_marseille","lat":43.2678,"lon":5.39415,"is_reserved":false,"is_disabled":false,"rental_uris":{"android":"levelo://app?vid=949a6983-040f-4b6d-9d66-15c3c3fc786b","ios":"levelo://app?vid=949a6983-040f-4b6d-9d66-15c3c3fc786b"},"vehicle_type_id":"4","last_reported":1743160106,"current_range_meters":8400,"station_id":"ce4bgvp2rcd13ifvqcu0","pricing_plan_id":"cebpf4jnsgd1na2vs0mg"},{"bike_id":"1596d172-c556-409c-a1f9-7bd5ade51aee","system_id":"levelo_inurba_marseille","lat":43.29161,"lon":5.37145,"is_reserved":false,"is_disabled":false,"rental_uris":{"android":"levelo://app?vid=1596d172-c556-409c-a1f9-7bd5ade51aee","ios":"levelo://app?vid=1596d172-c556-409c-a1f9-7bd5ade51aee"},"vehicle_type_id":"4","last_reported":1743160106,"current_range_meters":8400,"station_id":"ce4bha92rcd13ifvqeh0","pricing_plan_id":"cebpf4jnsgd1na2vs0mg"},{"bike_id":"33252521-acee-4dd2-90bf-db8d27abb04c","system_id":"levelo_inurba_marseille","lat":43.28274,"lon":5.35079,"is_reserved":false,"is_disabled":false,"rental_uris":{"android":"levelo://app?vid=33252521-acee-4dd2-90bf-db8d27abb04c","ios":"levelo://app?vid=33252521-acee-4dd2-90bf-db8d27abb04c"},"vehicle_type_id":"4","last_reported":1743160106,"current_range_meters":8400,"station_id":"ce4bhbp2rcd13ifvqerg","pricing_plan_id":"cebpf4jnsgd1na2vs0mg"},{"bike_id":"605e146e-7d12-431d-bfff-48a740fc799a","system_id":"levelo_inurba_marseille","lat":43.32366,"lon":5.38886,"is_reserved":false,"is_disabled":false,"rental_uris":{"android":"levelo://app?vid=605e146e-7d12-431d-bfff-48a740fc799a","ios":"levelo://app?vid=605e146e-7d12-431d-bfff-48a740fc799a"},"vehicle_type_id":"4","last_reported":1743160106,"current_range_meters":8400,"station_id":"ce4bhqp2rcd13ifvqhog","pricing_plan_id":"cebpf4jnsgd1na2vs0mg"},{"bike_id":"25c93242-72e6-4525-aea7-7d96e2cd1825","system_id":"levelo_inurba_marseille","lat":43.33074,"lon":5.40812,"is_reserved":false,"is_disabled":false,"rental_uris":{"android":"levelo://app?vid=25c93242-72e6-4525-aea7-7d96e2cd1825","ios":"levelo://app?vid=25c93242-72e6-4525-aea7-7d96e2cd1825"},"vehicle_type_id":"4","last_reported":1743160106,"current_range_meters":8800,"station_id":"","pricing_plan_id":"cebpf4jnsgd1na2vs0mg"},{"bike_id":"2a2e96e2-fe21-4d08-a3ea-122e7ca7c3e9","system_id":"levelo_inurba_marseille","lat":43.30269,"lon":5.37712,"is_reserved":false,"is_disabled":false,"rental_uris":{"android":"levelo://app?vid=2a2e96e2-fe21-4d08-a3ea-122e7ca7c3e9","ios":"levelo://app?vid=2a2e96e2-fe21-4d08-a3ea-122e7ca7c3e9"},"vehicle_type_id":"4","last_reported":1743160106,"current_range_meters":8800,"station_id":"ce4bguh2rcd13ifvqcj0","pricing_plan_id":"cebpf4jnsgd1na2vs0mg"},{"bike_id":"18dfe645-bc4c-4f69-9d78-4f4a746160dd","system_id":"levelo_inurba_marseille","lat":43.295294,"lon":5.390428,"is_reserved":false,"is_disabled":false,"rental_uris":{"android":"levelo://app?vid=18dfe645-bc4c-4f69-9d78-4f4a746160dd","ios":"levelo://app?vid=18dfe645-bc4c-4f69-9d78-4f4a746160dd"},"vehicle_type_id":"4","last_reported":1743160106,"current_range_meters":8800,"station_id":"ce4bh3p2rcd13ifvqdp0","pricing_plan_id":"cebpf4jnsgd1na2vs0mg"},{"bike_id":"37703b88-0681-4fe0-a352-8323ebd0e7ba","system_id":"levelo_inurba_marseille","lat":43.28603,"lon":5.37063,"is_reserved":false,"is_disabled":false,"rental_uris":{"android":"levelo://app?vid=37703b88-0681-4fe0-a352-8323ebd0e7ba","ios":"levelo://app?vid=37703b88-0681-4fe0-a352-8323ebd0e7ba"},"vehicle_type_id":"4","last_reported":1743160106,"current_range_meters":8800,"station_id":"ce4bht12rcd13ifvqi60","pricing_plan_id":"cebpf4jnsgd1na2vs0mg"},{"bike_id":"961245ca-8d90-4d71-b735-61afea929100","system_id":"levelo_inurba_marseille","lat":43.24172,"lon":5.36401,"is_reserved":false,"is_disabled":false,"rental_uris":{"android":"levelo://app?vid=961245ca-8d90-4d71-b735-61afea929100","ios":"levelo://app?vid=961245ca-8d90-4d71-b735-61afea929100"},"vehicle_type_id":"4","last_reported":1743160106,"current_range_meters":8800,"station_id":"cpo36qri1sfpv3e86is0","pricing_plan_id":"cebpf4jnsgd1na2vs0mg"},{"bike_id":"bc77c38e-7ac8-4135-8642-96b1dae3bdef","system_id":"levelo_inurba_marseille","lat":43.27997,"lon":5.38662,"is_reserved":false,"is_disabled":false,"rental_uris":{"android":"levelo://app?vid=bc77c38e-7ac8-4135-8642-96b1dae3bdef","ios":"levelo://app?vid=bc77c38e-7ac8-4135-8642-96b1dae3bdef"},"vehicle_type_id":"4","last_reported":1743160106,"current_range_meters":9200,"station_id":"","pricing_plan_id":"cebpf4jnsgd1na2vs0mg"},{"bike_id":"fcf5f158-cfc8-43cf-a683-a9cd5c3b7365","system_id":"levelo_inurba_marseille","lat":43.3014,"lon":5.37414,"is_reserved":false,"is_disabled":false,"rental_uris":{"android":"levelo://app?vid=fcf5f158-cfc8-43cf-a683-a9cd5c3b7365","ios":"levelo://app?vid=fcf5f158-cfc8-43cf-a683-a9cd5c3b7365"},"vehicle_type_id":"4","last_reported":1743160106,"current_range_meters":9200,"station_id":"ce4bgs92rcd13ifvqcc0","pricing_plan_id":"cebpf4jnsgd1na2vs0mg"},{"bike_id":"61c597b3-3f0b-4648-8c0f-27dd22a0a919","system_id":"levelo_inurba_marseille","lat":43.28474,"lon":5.38418,"is_reserved":false,"is_disabled":false,"rental_uris":{"android":"levelo://app?vid=61c597b3-3f0b-4648-8c0f-27dd22a0a919","ios":"levelo://app?vid=61c597b3-3f0b-4648-8c0f-27dd22a0a919"},"vehicle_type_id":"4","last_reported":1743160106,"current_range_meters":9200,"station_id":"ce4bh512rcd13ifvqe3g","pricing_plan_id":"cebpf4jnsgd1na2vs0mg"},{"bike_id":"74360686-d570-45c3-9b4c-fe8144a56c72","system_id":"levelo_inurba_marseille","lat":43.2782,"lon":5.40707,"is_reserved":false,"is_disabled":false,"rental_uris":{"android":"levelo://app?vid=74360686-d570-45c3-9b4c-fe8144a56c72","ios":"levelo://app?vid=74360686-d570-45c3-9b4c-fe8144a56c72"},"vehicle_type_id":"4","last_reported":1743160106,"current_range_meters":9200,"station_id":"ce4bhnh2rcd13ifvqgtg","pricing_plan_id":"cebpf4jnsgd1na2vs0mg"},{"bike_id":"813634ed-e21d-4b9e-88e8-aa8b87581eb3","system_id":"levelo_inurba_marseille","lat":43.32113,"lon":5.36773,"is_reserved":false,"is_disabled":false,"rental_uris":{"android":"levelo://app?vid=813634ed-e21d-4b9e-88e8-aa8b87581eb3","ios":"levelo://app?vid=813634ed-e21d-4b9e-88e8-aa8b87581eb3"},"vehicle_type_id":"4","last_reported":1743160106,"current_range_meters":9200,"station_id":"ce4bhrh2rcd13ifvqhug","pricing_plan_id":"cebpf4jnsgd1na2vs0mg"},{"bike_id":"58bbe779-0bb3-4285-9a89-5310df6eee00","system_id":"levelo_inurba_marseille","lat":43.29854,"lon":5.36252,"is_reserved":false,"is_disabled":false,"rental_uris":{"android":"levelo://app?vid=58bbe779-0bb3-4285-9a89-5310df6eee00","ios":"levelo://app?vid=58bbe779-0bb3-4285-9a89-5310df6eee00"},"vehicle_type_id":"4","last_reported":1743160106,"current_range_meters":9600,"station_id":"ce4bgpp2rcd13ifvqc3g","pricing_plan_id":"cebpf4jnsgd1na2vs0mg"},{"bike_id":"a4529ac5-9627-461a-be88-c1ed6710f25f","system_id":"levelo_inurba_marseille","lat":43.287,"lon":5.37388,"is_reserved":false,"is_disabled":false,"rental_uris":{"android":"levelo://app?vid=a4529ac5-9627-461a-be88-c1ed6710f25f","ios":"levelo://app?vid=a4529ac5-9627-461a-be88-c1ed6710f25f"},"vehicle_type_id":"4","last_reported":1743160106,"current_range_meters":9600,"station_id":"ce4bh3p2rcd13ifvqdq0","pricing_plan_id":"cebpf4jnsgd1na2vs0mg"},{"bike_id":"c5887b5d-7662-4633-9b7e-c1f693b96552","system_id":"levelo_inurba_marseille","lat":43.27373,"lon":5.36255,"is_reserved":false,"is_disabled":false,"rental_uris":{"android":"levelo://app?vid=c5887b5d-7662-4633-9b7e-c1f693b96552","ios":"levelo://app?vid=c5887b5d-7662-4633-9b7e-c1f693b96552"},"vehicle_type_id":"4","last_reported":1743160106,"current_range_meters":9600,"station_id":"ce4bhbh2rcd13ifvqeo0","pricing_plan_id":"cebpf4jnsgd1na2vs0mg"},{"bike_id":"34f95f6e-d278-4704-a824-eae065e1bcdb","system_id":"levelo_inurba_marseille","lat":43.26678,"lon":5.38263,"is_reserved":false,"is_disabled":false,"rental_uris":{"android":"levelo://app?vid=34f95f6e-d278-4704-a824-eae065e1bcdb","ios":"levelo://app?vid=34f95f6e-d278-4704-a824-eae065e1bcdb"},"vehicle_type_id":"4","last_reported":1743160106,"current_range_meters":9600,"station_id":"ce4bhg92rcd13ifvqf90","pricing_plan_id":"cebpf4jnsgd1na2vs0mg"},{"bike_id":"d014835a-8cc8-4190-ab3e-21e6db6ab38d","system_id":"levelo_inurba_marseille","lat":43.24811,"lon":5.37418,"is_reserved":false,"is_disabled":false,"rental_uris":{"android":"levelo://app?vid=d014835a-8cc8-4190-ab3e-21e6db6ab38d","ios":"levelo://app?vid=d014835a-8cc8-4190-ab3e-21e6db6ab38d"},"vehicle_type_id":"4","last_reported":1743160106,"current_range_meters":9600,"station_id":"ce4bhgh2rcd13ifvqfb0","pricing_plan_id":"cebpf4jnsgd1na2vs0mg"},{"bike_id":"f1cceebd-4ff5-46d8-9af2-5bfb384af3fa","system_id":"levelo_inurba_marseille","lat":43.256908,"lon":5.410555,"is_reserved":false,"is_disabled":false,"rental_uris":{"android":"levelo://app?vid=f1cceebd-4ff5-46d8-9af2-5bfb384af3fa","ios":"levelo://app?vid=f1cceebd-4ff5-46d8-9af2-5bfb384af3fa"},"vehicle_type_id":"4","last_reported":1743160106,"current_range_meters":9600,"station_id":"ce4bhkp2rcd13ifvqgd0","pricing_plan_id":"cebpf4jnsgd1na2vs0mg"},{"bike_id":"85bdcdcd-3b24-4266-96f9-09a378c1efa4","system_id":"levelo_inurba_marseille","lat":43.25948,"lon":5.40898,"is_reserved":false,"is_disabled":false,"rental_uris":{"android":"levelo://app?vid=85bdcdcd-3b24-4266-96f9-09a378c1efa4","ios":"levelo://app?vid=85bdcdcd-3b24-4266-96f9-09a378c1efa4"},"vehicle_type_id":"4","last_reported":1743160106,"current_range_meters":9600,"station_id":"ce4bhm92rcd13ifvqglg","pricing_plan_id":"cebpf4jnsgd1na2vs0mg"},{"bike_id":"e13b96b8-8e79-4c3c-8534-5ad35b5ada23","system_id":"levelo_inurba_marseille","lat":43.29895,"lon":5.43671,"is_reserved":false,"is_disabled":false,"rental_uris":{"android":"levelo://app?vid=e13b96b8-8e79-4c3c-8534-5ad35b5ada23","ios":"levelo://app?vid=e13b96b8-8e79-4c3c-8534-5ad35b5ada23"},"vehicle_type_id":"4","last_reported":1743160106,"current_range_meters":9600,"station_id":"ce4bhpp2rcd13ifvqhfg","pricing_plan_id":"cebpf4jnsgd1na2vs0mg"},{"bike_id":"7f265207-f87f-40b2-9f9f-6f05d9455d54","system_id":"levelo_inurba_marseille","lat":43.33601,"lon":5.41042,"is_reserved":false,"is_disabled":false,"rental_uris":{"android":"levelo://app?vid=7f265207-f87f-40b2-9f9f-6f05d9455d54","ios":"levelo://app?vid=7f265207-f87f-40b2-9f9f-6f05d9455d54"},"vehicle_type_id":"4","last_reported":1743160106,"current_range_meters":9600,"station_id":"ce4bhqh2rcd13ifvqhmg","pricing_plan_id":"cebpf4jnsgd1na2vs0mg"},{"bike_id":"2e919ca5-ce98-4c47-a9d7-66e6ab7584e4","system_id":"levelo_inurba_marseille","lat":43.321088,"lon":5.367742,"is_reserved":false,"is_disabled":false,"rental_uris":{"android":"levelo://app?vid=2e919ca5-ce98-4c47-a9d7-66e6ab7584e4","ios":"levelo://app?vid=2e919ca5-ce98-4c47-a9d7-66e6ab7584e4"},"vehicle_type_id":"4","last_reported":1743160106,"current_range_meters":9600,"station_id":"ce4bhrh2rcd13ifvqhug","pricing_plan_id":"cebpf4jnsgd1na2vs0mg"},{"bike_id":"861ae205-c318-4688-ac53-947993e1b65f","system_id":"levelo_inurba_marseille","lat":43.24159,"lon":5.36392,"is_reserved":false,"is_disabled":false,"rental_uris":{"android":"levelo://app?vid=861ae205-c318-4688-ac53-947993e1b65f","ios":"levelo://app?vid=861ae205-c318-4688-ac53-947993e1b65f"},"vehicle_type_id":"4","last_reported":1743160106,"current_range_meters":9600,"station_id":"cpo36qri1sfpv3e86is0","pricing_plan_id":"cebpf4jnsgd1na2vs0mg"},{"bike_id":"14e00f19-48fc-4b76-bb6e-3eee4c46cff1","system_id":"levelo_inurba_marseille","lat":43.313293,"lon":5.367474,"is_reserved":false,"is_disabled":false,"rental_uris":{"android":"levelo://app?vid=14e00f19-48fc-4b76-bb6e-3eee4c46cff1","ios":"levelo://app?vid=14e00f19-48fc-4b76-bb6e-3eee4c46cff1"},"vehicle_type_id":"4","last_reported":1743160106,"current_range_meters":10000,"station_id":"ce4bgr92rcd13ifvqc6g","pricing_plan_id":"cebpf4jnsgd1na2vs0mg"},{"bike_id":"a32dfed9-fff9-4956-8d3a-cbc08255ae84","system_id":"levelo_inurba_marseille","lat":43.30137,"lon":5.37388,"is_reserved":false,"is_disabled":false,"rental_uris":{"android":"levelo://app?vid=a32dfed9-fff9-4956-8d3a-cbc08255ae84","ios":"levelo://app?vid=a32dfed9-fff9-4956-8d3a-cbc08255ae84"},"vehicle_type_id":"4","last_reported":1743160106,"current_range_meters":10000,"station_id":"ce4bgs92rcd13ifvqcc0","pricing_plan_id":"cebpf4jnsgd1na2vs0mg"},{"bike_id":"3e8b097f-0663-4a03-9467-4e6edef4cf72","system_id":"levelo_inurba_marseille","lat":43.28926,"lon":5.38413,"is_reserved":false,"is_disabled":false,"rental_uris":{"android":"levelo://app?vid=3e8b097f-0663-4a03-9467-4e6edef4cf72","ios":"levelo://app?vid=3e8b097f-0663-4a03-9467-4e6edef4cf72"},"vehicle_type_id":"4","last_reported":1743160106,"current_range_meters":10000,"station_id":"ce4bh612rcd13ifvqe6g","pricing_plan_id":"cebpf4jnsgd1na2vs0mg"},{"bike_id":"897c5ac3-57de-4861-915f-d8c3e3e79b59","system_id":"levelo_inurba_marseille","lat":43.28271,"lon":5.35068,"is_reserved":false,"is_disabled":false,"rental_uris":{"android":"levelo://app?vid=897c5ac3-57de-4861-915f-d8c3e3e79b59","ios":"levelo://app?vid=897c5ac3-57de-4861-915f-d8c3e3e79b59"},"vehicle_type_id":"4","last_reported":1743160106,"current_range_meters":10000,"station_id":"ce4bhbp2rcd13ifvqerg","pricing_plan_id":"cebpf4jnsgd1na2vs0mg"},{"bike_id":"7178f61c-e056-464c-ad41-75c02d91eac8","system_id":"levelo_inurba_marseille","lat":43.29275,"lon":5.36844,"is_reserved":false,"is_disabled":false,"rental_uris":{"android":"levelo://app?vid=7178f61c-e056-464c-ad41-75c02d91eac8","ios":"levelo://app?vid=7178f61c-e056-464c-ad41-75c02d91eac8"},"vehicle_type_id":"4","last_reported":1743160106,"current_range_meters":10000,"station_id":"ce4bhbp2rcd13ifvqesg","pricing_plan_id":"cebpf4jnsgd1na2vs0mg"},{"bike_id":"fa847661-b485-46b4-9026-bbf7d7813924","system_id":"levelo_inurba_marseille","lat":43.28079,"lon":5.3966,"is_reserved":false,"is_disabled":false,"rental_uris":{"android":"levelo://app?vid=fa847661-b485-46b4-9026-bbf7d7813924","ios":"levelo://app?vid=fa847661-b485-46b4-9026-bbf7d7813924"},"vehicle_type_id":"4","last_reported":1743160106,"current_range_meters":10000,"station_id":"ce4bho12rcd13ifvqh2g","pricing_plan_id":"cebpf4jnsgd1na2vs0mg"},{"bike_id":"1c14bf9c-ada4-4a36-8853-740a1a2c000a","system_id":"levelo_inurba_marseille","lat":43.23177,"lon":5.35565,"is_reserved":false,"is_disabled":false,"rental_uris":{"android":"levelo://app?vid=1c14bf9c-ada4-4a36-8853-740a1a2c000a","ios":"levelo://app?vid=1c14bf9c-ada4-4a36-8853-740a1a2c000a"},"vehicle_type_id":"4","last_reported":1743160106,"current_range_meters":10000,"station_id":"ce4bhu92rcd13ifvqi70","pricing_plan_id":"cebpf4jnsgd1na2vs0mg"},{"bike_id":"0c7c8c97-c432-41cd-96f5-01a03f56e852","system_id":"levelo_inurba_marseille","lat":43.24165,"lon":5.36398,"is_reserved":false,"is_disabled":false,"rental_uris":{"android":"levelo://app?vid=0c7c8c97-c432-41cd-96f5-01a03f56e852","ios":"levelo://app?vid=0c7c8c97-c432-41cd-96f5-01a03f56e852"},"vehicle_type_id":"4","last_reported":1743160106,"current_range_meters":10000,"station_id":"cpo36qri1sfpv3e86is0","pricing_plan_id":"cebpf4jnsgd1na2vs0mg"},{"bike_id":"b30f95ac-b828-44d6-b742-4883a6572fc6","system_id":"levelo_inurba_marseille","lat":43.27081,"lon":5.42746,"is_reserved":false,"is_disabled":false,"rental_uris":{"android":"levelo://app?vid=b30f95ac-b828-44d6-b742-4883a6572fc6","ios":"levelo://app?vid=b30f95ac-b828-44d6-b742-4883a6572fc6"},"vehicle_type_id":"4","last_reported":1743160106,"current_range_meters":10800,"station_id":"","pricing_plan_id":"cebpf4jnsgd1na2vs0mg"},{"bike_id":"b3e7a910-d0a2-4ee6-bf1d-61008af6cd7b","system_id":"levelo_inurba_marseille","lat":43.31241,"lon":5.36881,"is_reserved":false,"is_disabled":false,"rental_uris":{"android":"levelo://app?vid=b3e7a910-d0a2-4ee6-bf1d-61008af6cd7b","ios":"levelo://app?vid=b3e7a910-d0a2-4ee6-bf1d-61008af6cd7b"},"vehicle_type_id":"4","last_reported":1743160106,"current_range_meters":10800,"station_id":"ce4bgl92rcd13ifvqbq0","pricing_plan_id":"cebpf4jnsgd1na2vs0mg"},{"bike_id":"2562fd30-2017-4006-8376-64771967de5b","system_id":"levelo_inurba_marseille","lat":43.30315,"lon":5.36901,"is_reserved":false,"is_disabled":false,"rental_uris":{"android":"levelo://app?vid=2562fd30-2017-4006-8376-64771967de5b","ios":"levelo://app?vid=2562fd30-2017-4006-8376-64771967de5b"},"vehicle_type_id":"4","last_reported":1743160106,"current_range_meters":10800,"station_id":"ce4bgqh2rcd13ifvqc5g","pricing_plan_id":"cebpf4jnsgd1na2vs0mg"},{"bike_id":"2487664b-6ca6-4300-b86d-a9ce75c31f9e","system_id":"levelo_inurba_marseille","lat":43.30538,"lon":5.3653,"is_reserved":false,"is_disabled":false,"rental_uris":{"android":"levelo://app?vid=2487664b-6ca6-4300-b86d-a9ce75c31f9e","ios":"levelo://app?vid=2487664b-6ca6-4300-b86d-a9ce75c31f9e"},"vehicle_type_id":"4","last_reported":1743160106,"current_range_meters":10800,"station_id":"ce4bgs12rcd13ifvqcag","pricing_plan_id":"cebpf4jnsgd1na2vs0mg"},{"bike_id":"8098bbc3-a65f-453c-8767-2e3df5232689","system_id":"levelo_inurba_marseille","lat":43.24164,"lon":5.36391,"is_reserved":false,"is_disabled":false,"rental_uris":{"android":"levelo://app?vid=8098bbc3-a65f-453c-8767-2e3df5232689","ios":"levelo://app?vid=8098bbc3-a65f-453c-8767-2e3df5232689"},"vehicle_type_id":"4","last_reported":1743160106,"current_range_meters":10800,"station_id":"cpo36qri1sfpv3e86is0","pricing_plan_id":"cebpf4jnsgd1na2vs0mg"},{"bike_id":"7a8acbf9-cf40-4e87-857d-c80ad27fbb9a","system_id":"levelo_inurba_marseille","lat":43.30277,"lon":5.37711,"is_reserved":false,"is_disabled":false,"rental_uris":{"android":"levelo://app?vid=7a8acbf9-cf40-4e87-857d-c80ad27fbb9a","ios":"levelo://app?vid=7a8acbf9-cf40-4e87-857d-c80ad27fbb9a"},"vehicle_type_id":"4","last_reported":1743160106,"current_range_meters":11200,"station_id":"ce4bguh2rcd13ifvqcj0","pricing_plan_id":"cebpf4jnsgd1na2vs0mg"},{"bike_id":"aa502f0b-f96e-437a-b421-fbd7d886b568","system_id":"levelo_inurba_marseille","lat":43.304657,"lon":5.379126,"is_reserved":false,"is_disabled":false,"rental_uris":{"android":"levelo://app?vid=aa502f0b-f96e-437a-b421-fbd7d886b568","ios":"levelo://app?vid=aa502f0b-f96e-437a-b421-fbd7d886b568"},"vehicle_type_id":"4","last_reported":1743160106,"current_range_meters":11200,"station_id":"ce4bgup2rcd13ifvqcn0","pricing_plan_id":"cebpf4jnsgd1na2vs0mg"},{"bike_id":"4f52466c-29c3-4eab-bb2d-2e4d5b61dbce","system_id":"levelo_inurba_marseille","lat":43.28267,"lon":5.35074,"is_reserved":false,"is_disabled":false,"rental_uris":{"android":"levelo://app?vid=4f52466c-29c3-4eab-bb2d-2e4d5b61dbce","ios":"levelo://app?vid=4f52466c-29c3-4eab-bb2d-2e4d5b61dbce"},"vehicle_type_id":"4","last_reported":1743160106,"current_range_meters":11200,"station_id":"ce4bhbp2rcd13ifvqerg","pricing_plan_id":"cebpf4jnsgd1na2vs0mg"},{"bike_id":"aeee719e-56c9-4414-9561-e5b2a78b28a9","system_id":"levelo_inurba_marseille","lat":43.25073,"lon":5.39487,"is_reserved":false,"is_disabled":false,"rental_uris":{"android":"levelo://app?vid=aeee719e-56c9-4414-9561-e5b2a78b28a9","ios":"levelo://app?vid=aeee719e-56c9-4414-9561-e5b2a78b28a9"},"vehicle_type_id":"4","last_reported":1743160106,"current_range_meters":11200,"station_id":"ce4bhm12rcd13ifvqgkg","pricing_plan_id":"cebpf4jnsgd1na2vs0mg"},{"bike_id":"7705f35f-cb14-4292-affe-24493cddbc2d","system_id":"levelo_inurba_marseille","lat":43.291124,"lon":5.355807,"is_reserved":false,"is_disabled":false,"rental_uris":{"android":"levelo://app?vid=7705f35f-cb14-4292-affe-24493cddbc2d","ios":"levelo://app?vid=7705f35f-cb14-4292-affe-24493cddbc2d"},"vehicle_type_id":"4","last_reported":1743160106,"current_range_meters":11600,"station_id":"ce4bhb92rcd13ifvqen0","pricing_plan_id":"cebpf4jnsgd1na2vs0mg"},{"bike_id":"39ea9b72-b36d-4fca-9b38-2d6234508e2b","system_id":"levelo_inurba_marseille","lat":43.27374,"lon":5.36252,"is_reserved":false,"is_disabled":false,"rental_uris":{"android":"levelo://app?vid=39ea9b72-b36d-4fca-9b38-2d6234508e2b","ios":"levelo://app?vid=39ea9b72-b36d-4fca-9b38-2d6234508e2b"},"vehicle_type_id":"4","last_reported":1743160106,"current_range_meters":11600,"station_id":"ce4bhbh2rcd13ifvqeo0","pricing_plan_id":"cebpf4jnsgd1na2vs0mg"},{"bike_id":"5c38a619-3f59-4653-88f5-1815c1cfe88a","system_id":"levelo_inurba_marseille","lat":43.266323,"lon":5.395197,"is_reserved":false,"is_disabled":false,"rental_uris":{"android":"levelo://app?vid=5c38a619-3f59-4653-88f5-1815c1cfe88a","ios":"levelo://app?vid=5c38a619-3f59-4653-88f5-1815c1cfe88a"},"vehicle_type_id":"4","last_reported":1743160106,"current_range_meters":11600,"station_id":"ce4bhh12rcd13ifvqfg0","pricing_plan_id":"cebpf4jnsgd1na2vs0mg"},{"bike_id":"64f5f101-b622-4bb9-a866-9c8317b34488","system_id":"levelo_inurba_marseille","lat":43.2707,"lon":5.40278,"is_reserved":false,"is_disabled":false,"rental_uris":{"android":"levelo://app?vid=64f5f101-b622-4bb9-a866-9c8317b34488","ios":"levelo://app?vid=64f5f101-b622-4bb9-a866-9c8317b34488"},"vehicle_type_id":"4","last_reported":1743160106,"current_range_meters":11600,"station_id":"ce4bhk92rcd13ifvqgc0","pricing_plan_id":"cebpf4jnsgd1na2vs0mg"},{"bike_id":"3fbcdfd8-5176-471d-aa84-e8e20bb4418e","system_id":"levelo_inurba_marseille","lat":43.32109,"lon":5.36794,"is_reserved":false,"is_disabled":false,"rental_uris":{"android":"levelo://app?vid=3fbcdfd8-5176-471d-aa84-e8e20bb4418e","ios":"levelo://app?vid=3fbcdfd8-5176-471d-aa84-e8e20bb4418e"},"vehicle_type_id":"4","last_reported":1743160106,"current_range_meters":11600,"station_id":"ce4bhrh2rcd13ifvqhug","pricing_plan_id":"cebpf4jnsgd1na2vs0mg"},{"bike_id":"68e9fc26-8998-4bf7-8da8-af47209f9b7c","system_id":"levelo_inurba_marseille","lat":43.3211,"lon":5.3677,"is_reserved":false,"is_disabled":false,"rental_uris":{"android":"levelo://app?vid=68e9fc26-8998-4bf7-8da8-af47209f9b7c","ios":"levelo://app?vid=68e9fc26-8998-4bf7-8da8-af47209f9b7c"},"vehicle_type_id":"4","last_reported":1743160106,"current_range_meters":11600,"station_id":"ce4bhrh2rcd13ifvqhug","pricing_plan_id":"cebpf4jnsgd1na2vs0mg"},{"bike_id":"666754fe-4743-4afe-abb2-10e0bfd88001","system_id":"levelo_inurba_marseille","lat":43.2991,"lon":5.37469,"is_reserved":false,"is_disabled":false,"rental_uris":{"android":"levelo://app?vid=666754fe-4743-4afe-abb2-10e0bfd88001","ios":"levelo://app?vid=666754fe-4743-4afe-abb2-10e0bfd88001"},"vehicle_type_id":"4","last_reported":1743160106,"current_range_meters":12000,"station_id":"ce4bgjh2rcd13ifvqbg0","pricing_plan_id":"cebpf4jnsgd1na2vs0mg"},{"bike_id":"8835044a-99dc-4a56-8143-58ba6080e224","system_id":"levelo_inurba_marseille","lat":43.30554,"lon":5.36539,"is_reserved":false,"is_disabled":false,"rental_uris":{"android":"levelo://app?vid=8835044a-99dc-4a56-8143-58ba6080e224","ios":"levelo://app?vid=8835044a-99dc-4a56-8143-58ba6080e224"},"vehicle_type_id":"4","last_reported":1743160106,"current_range_meters":12000,"station_id":"ce4bgs12rcd13ifvqcag","pricing_plan_id":"cebpf4jnsgd1na2vs0mg"},{"bike_id":"d844ab2d-c075-4158-bf4f-052f7881809a","system_id":"levelo_inurba_marseille","lat":43.28261,"lon":5.35074,"is_reserved":false,"is_disabled":false,"rental_uris":{"android":"levelo://app?vid=d844ab2d-c075-4158-bf4f-052f7881809a","ios":"levelo://app?vid=d844ab2d-c075-4158-bf4f-052f7881809a"},"vehicle_type_id":"4","last_reported":1743160106,"current_range_meters":12000,"station_id":"ce4bhbp2rcd13ifvqerg","pricing_plan_id":"cebpf4jnsgd1na2vs0mg"},{"bike_id":"d2be6ce3-8e79-4804-b0d3-008c875e7b9d","system_id":"levelo_inurba_marseille","lat":43.26196,"lon":5.37924,"is_reserved":false,"is_disabled":false,"rental_uris":{"android":"levelo://app?vid=d2be6ce3-8e79-4804-b0d3-008c875e7b9d","ios":"levelo://app?vid=d2be6ce3-8e79-4804-b0d3-008c875e7b9d"},"vehicle_type_id":"4","last_reported":1743160106,"current_range_meters":12000,"station_id":"ce4bhjp2rcd13ifvqg90","pricing_plan_id":"cebpf4jnsgd1na2vs0mg"},{"bike_id":"8c740aa7-c288-4bee-bba3-bfa8560b37ac","system_id":"levelo_inurba_marseille","lat":43.26198,"lon":5.37937,"is_reserved":false,"is_disabled":false,"rental_uris":{"android":"levelo://app?vid=8c740aa7-c288-4bee-bba3-bfa8560b37ac","ios":"levelo://app?vid=8c740aa7-c288-4bee-bba3-bfa8560b37ac"},"vehicle_type_id":"4","last_reported":1743160106,"current_range_meters":12000,"station_id":"ce4bhjp2rcd13ifvqg90","pricing_plan_id":"cebpf4jnsgd1na2vs0mg"},{"bike_id":"ed5b343e-8271-4d1b-9996-58c77ddfc219","system_id":"levelo_inurba_marseille","lat":43.25941,"lon":5.40894,"is_reserved":false,"is_disabled":false,"rental_uris":{"android":"levelo://app?vid=ed5b343e-8271-4d1b-9996-58c77ddfc219","ios":"levelo://app?vid=ed5b343e-8271-4d1b-9996-58c77ddfc219"},"vehicle_type_id":"4","last_reported":1743160106,"current_range_meters":12000,"station_id":"ce4bhm92rcd13ifvqglg","pricing_plan_id":"cebpf4jnsgd1na2vs0mg"},{"bike_id":"67fed4e3-1acb-48c1-9e11-11d9c5d5413b","system_id":"levelo_inurba_marseille","lat":43.23154,"lon":5.43702,"is_reserved":false,"is_disabled":false,"rental_uris":{"android":"levelo://app?vid=67fed4e3-1acb-48c1-9e11-11d9c5d5413b","ios":"levelo://app?vid=67fed4e3-1acb-48c1-9e11-11d9c5d5413b"},"vehicle_type_id":"4","last_reported":1743160106,"current_range_meters":12000,"station_id":"ce4bhmp2rcd13ifvqgog","pricing_plan_id":"cebpf4jnsgd1na2vs0mg"},{"bike_id":"6cbddcc1-9609-4503-9874-4b78c26df24e","system_id":"levelo_inurba_marseille","lat":43.32109,"lon":5.36775,"is_reserved":false,"is_disabled":false,"rental_uris":{"android":"levelo://app?vid=6cbddcc1-9609-4503-9874-4b78c26df24e","ios":"levelo://app?vid=6cbddcc1-9609-4503-9874-4b78c26df24e"},"vehicle_type_id":"4","last_reported":1743160106,"current_range_meters":12000,"station_id":"ce4bhrh2rcd13ifvqhug","pricing_plan_id":"cebpf4jnsgd1na2vs0mg"},{"bike_id":"65c86302-8ef0-46f4-ab6e-bac7149a2865","system_id":"levelo_inurba_marseille","lat":43.3209,"lon":5.36771,"is_reserved":false,"is_disabled":false,"rental_uris":{"android":"levelo://app?vid=65c86302-8ef0-46f4-ab6e-bac7149a2865","ios":"levelo://app?vid=65c86302-8ef0-46f4-ab6e-bac7149a2865"},"vehicle_type_id":"4","last_reported":1743160106,"current_range_meters":12000,"station_id":"ce4bhrh2rcd13ifvqhug","pricing_plan_id":"cebpf4jnsgd1na2vs0mg"},{"bike_id":"73035fb5-ca83-4287-8a39-387c9a8b8df0","system_id":"levelo_inurba_marseille","lat":43.24991,"lon":5.38919,"is_reserved":false,"is_disabled":false,"rental_uris":{"android":"levelo://app?vid=73035fb5-ca83-4287-8a39-387c9a8b8df0","ios":"levelo://app?vid=73035fb5-ca83-4287-8a39-387c9a8b8df0"},"vehicle_type_id":"4","last_reported":1743160106,"current_range_meters":12400,"station_id":"ce4bhgp2rcd13ifvqfd0","pricing_plan_id":"cebpf4jnsgd1na2vs0mg"},{"bike_id":"aed2caaf-e63e-4d9f-9fab-effd4b56045d","system_id":"levelo_inurba_marseille","lat":43.26218,"lon":5.40457,"is_reserved":false,"is_disabled":false,"rental_uris":{"android":"levelo://app?vid=aed2caaf-e63e-4d9f-9fab-effd4b56045d","ios":"levelo://app?vid=aed2caaf-e63e-4d9f-9fab-effd4b56045d"},"vehicle_type_id":"4","last_reported":1743160106,"current_range_meters":12400,"station_id":"ce4bhmh2rcd13ifvqgmg","pricing_plan_id":"cebpf4jnsgd1na2vs0mg"},{"bike_id":"79e046c0-58e9-452a-b4f5-b6120b5a50ab","system_id":"levelo_inurba_marseille","lat":43.33019,"lon":5.39033,"is_reserved":false,"is_disabled":false,"rental_uris":{"android":"levelo://app?vid=79e046c0-58e9-452a-b4f5-b6120b5a50ab","ios":"levelo://app?vid=79e046c0-58e9-452a-b4f5-b6120b5a50ab"},"vehicle_type_id":"4","last_reported":1743160106,"current_range_meters":12400,"station_id":"ce4bhr92rcd13ifvqhrg","pricing_plan_id":"cebpf4jnsgd1na2vs0mg"},{"bike_id":"fb348b09-6abb-47a4-a266-91f2eeaee291","system_id":"levelo_inurba_marseille","lat":43.3212,"lon":5.36786,"is_reserved":false,"is_disabled":false,"rental_uris":{"android":"levelo://app?vid=fb348b09-6abb-47a4-a266-91f2eeaee291","ios":"levelo://app?vid=fb348b09-6abb-47a4-a266-91f2eeaee291"},"vehicle_type_id":"4","last_reported":1743160106,"current_range_meters":12400,"station_id":"ce4bhrh2rcd13ifvqhug","pricing_plan_id":"cebpf4jnsgd1na2vs0mg"},{"bike_id":"9f2583cf-461d-4d57-8c37-99ef1e89cade","system_id":"levelo_inurba_marseille","lat":43.23193,"lon":5.35538,"is_reserved":false,"is_disabled":false,"rental_uris":{"android":"levelo://app?vid=9f2583cf-461d-4d57-8c37-99ef1e89cade","ios":"levelo://app?vid=9f2583cf-461d-4d57-8c37-99ef1e89cade"},"vehicle_type_id":"4","last_reported":1743160106,"current_range_meters":12400,"station_id":"ce4bhu92rcd13ifvqi70","pricing_plan_id":"cebpf4jnsgd1na2vs0mg"},{"bike_id":"e292ccc6-c8e0-41e5-a88f-cbc53184cb32","system_id":"levelo_inurba_marseille","lat":43.26192,"lon":5.37899,"is_reserved":false,"is_disabled":false,"rental_uris":{"android":"levelo://app?vid=e292ccc6-c8e0-41e5-a88f-cbc53184cb32","ios":"levelo://app?vid=e292ccc6-c8e0-41e5-a88f-cbc53184cb32"},"vehicle_type_id":"4","last_reported":1743160106,"current_range_meters":12800,"station_id":"ce4bhjp2rcd13ifvqg90","pricing_plan_id":"cebpf4jnsgd1na2vs0mg"},{"bike_id":"c6c8fb31-86de-4758-859b-e74b70125ab7","system_id":"levelo_inurba_marseille","lat":43.32091,"lon":5.36775,"is_reserved":false,"is_disabled":false,"rental_uris":{"android":"levelo://app?vid=c6c8fb31-86de-4758-859b-e74b70125ab7","ios":"levelo://app?vid=c6c8fb31-86de-4758-859b-e74b70125ab7"},"vehicle_type_id":"4","last_reported":1743160106,"current_range_meters":12800,"station_id":"ce4bhrh2rcd13ifvqhug","pricing_plan_id":"cebpf4jnsgd1na2vs0mg"},{"bike_id":"7ef673ac-14c4-4d61-9f85-ecf1d9b913ea","system_id":"levelo_inurba_marseille","lat":43.268775,"lon":5.393681,"is_reserved":false,"is_disabled":false,"rental_uris":{"android":"levelo://app?vid=7ef673ac-14c4-4d61-9f85-ecf1d9b913ea","ios":"levelo://app?vid=7ef673ac-14c4-4d61-9f85-ecf1d9b913ea"},"vehicle_type_id":"4","last_reported":1743160106,"current_range_meters":13600,"station_id":"ce4bh4p2rcd13ifvqe1g","pricing_plan_id":"cebpf4jnsgd1na2vs0mg"},{"bike_id":"9f4a7ed6-290f-4ac1-b05e-471b2f21c37d","system_id":"levelo_inurba_marseille","lat":43.27368,"lon":5.36258,"is_reserved":false,"is_disabled":false,"rental_uris":{"android":"levelo://app?vid=9f4a7ed6-290f-4ac1-b05e-471b2f21c37d","ios":"levelo://app?vid=9f4a7ed6-290f-4ac1-b05e-471b2f21c37d"},"vehicle_type_id":"4","last_reported":1743160106,"current_range_meters":13600,"station_id":"ce4bhbh2rcd13ifvqeo0","pricing_plan_id":"cebpf4jnsgd1na2vs0mg"},{"bike_id":"2f707d4c-15ca-4d29-a359-be16c0f94923","system_id":"levelo_inurba_marseille","lat":43.29227,"lon":5.3607,"is_reserved":false,"is_disabled":false,"rental_uris":{"android":"levelo://app?vid=2f707d4c-15ca-4d29-a359-be16c0f94923","ios":"levelo://app?vid=2f707d4c-15ca-4d29-a359-be16c0f94923"},"vehicle_type_id":"4","last_reported":1743160106,"current_range_meters":13600,"station_id":"ce4bhbh2rcd13ifvqeqg","pricing_plan_id":"cebpf4jnsgd1na2vs0mg"},{"bike_id":"d6ffeee4-04b8-479f-8491-78eeffd13e6b","system_id":"levelo_inurba_marseille","lat":43.25502,"lon":5.37655,"is_reserved":false,"is_disabled":false,"rental_uris":{"android":"levelo://app?vid=d6ffeee4-04b8-479f-8491-78eeffd13e6b","ios":"levelo://app?vid=d6ffeee4-04b8-479f-8491-78eeffd13e6b"},"vehicle_type_id":"4","last_reported":1743160106,"current_range_meters":13600,"station_id":"ce4bhh12rcd13ifvqff0","pricing_plan_id":"cebpf4jnsgd1na2vs0mg"},{"bike_id":"8111f39f-d077-4179-af0a-0cee03a3a69c","system_id":"levelo_inurba_marseille","lat":43.29921,"lon":5.37466,"is_reserved":false,"is_disabled":false,"rental_uris":{"android":"levelo://app?vid=8111f39f-d077-4179-af0a-0cee03a3a69c","ios":"levelo://app?vid=8111f39f-d077-4179-af0a-0cee03a3a69c"},"vehicle_type_id":"4","last_reported":1743160106,"current_range_meters":14000,"station_id":"ce4bgjh2rcd13ifvqbg0","pricing_plan_id":"cebpf4jnsgd1na2vs0mg"},{"bike_id":"bb032d41-f8f4-4589-adfd-2ec26ea48751","system_id":"levelo_inurba_marseille","lat":43.30328,"lon":5.36885,"is_reserved":false,"is_disabled":false,"rental_uris":{"android":"levelo://app?vid=bb032d41-f8f4-4589-adfd-2ec26ea48751","ios":"levelo://app?vid=bb032d41-f8f4-4589-adfd-2ec26ea48751"},"vehicle_type_id":"4","last_reported":1743160106,"current_range_meters":14000,"station_id":"ce4bgqh2rcd13ifvqc5g","pricing_plan_id":"cebpf4jnsgd1na2vs0mg"},{"bike_id":"745a7421-2967-47d1-be3f-28700442013c","system_id":"levelo_inurba_marseille","lat":43.3136,"lon":5.36699,"is_reserved":false,"is_disabled":false,"rental_uris":{"android":"levelo://app?vid=745a7421-2967-47d1-be3f-28700442013c","ios":"levelo://app?vid=745a7421-2967-47d1-be3f-28700442013c"},"vehicle_type_id":"4","last_reported":1743160106,"current_range_meters":14000,"station_id":"ce4bgr92rcd13ifvqc6g","pricing_plan_id":"cebpf4jnsgd1na2vs0mg"},{"bike_id":"eb05348b-a94a-445f-a5dc-25d7e3b15011","system_id":"levelo_inurba_marseille","lat":43.30138,"lon":5.37395,"is_reserved":false,"is_disabled":false,"rental_uris":{"android":"levelo://app?vid=eb05348b-a94a-445f-a5dc-25d7e3b15011","ios":"levelo://app?vid=eb05348b-a94a-445f-a5dc-25d7e3b15011"},"vehicle_type_id":"4","last_reported":1743160106,"current_range_meters":14000,"station_id":"ce4bgs92rcd13ifvqcc0","pricing_plan_id":"cebpf4jnsgd1na2vs0mg"},{"bike_id":"539bedf4-27b8-41ba-b456-eb9243363512","system_id":"levelo_inurba_marseille","lat":43.28422,"lon":5.34986,"is_reserved":false,"is_disabled":false,"rental_uris":{"android":"levelo://app?vid=539bedf4-27b8-41ba-b456-eb9243363512","ios":"levelo://app?vid=539bedf4-27b8-41ba-b456-eb9243363512"},"vehicle_type_id":"4","last_reported":1743160106,"current_range_meters":14000,"station_id":"ce4bhbh2rcd13ifvqepg","pricing_plan_id":"cebpf4jnsgd1na2vs0mg"},{"bike_id":"a28dbed2-099e-445a-b9d8-3f52cbd93cb9","system_id":"levelo_inurba_marseille","lat":43.275744,"lon":5.38418,"is_reserved":false,"is_disabled":false,"rental_uris":{"android":"levelo://app?vid=a28dbed2-099e-445a-b9d8-3f52cbd93cb9","ios":"levelo://app?vid=a28dbed2-099e-445a-b9d8-3f52cbd93cb9"},"vehicle_type_id":"4","last_reported":1743160106,"current_range_meters":14000,"station_id":"ce4bhh92rcd13ifvqfi0","pricing_plan_id":"cebpf4jnsgd1na2vs0mg"},{"bike_id":"aceadaa2-db7b-4a54-8776-2e3d27bd71ec","system_id":"levelo_inurba_marseille","lat":43.25906,"lon":5.40896,"is_reserved":false,"is_disabled":false,"rental_uris":{"android":"levelo://app?vid=aceadaa2-db7b-4a54-8776-2e3d27bd71ec","ios":"levelo://app?vid=aceadaa2-db7b-4a54-8776-2e3d27bd71ec"},"vehicle_type_id":"4","last_reported":1743160106,"current_range_meters":14000,"station_id":"ce4bhm92rcd13ifvqglg","pricing_plan_id":"cebpf4jnsgd1na2vs0mg"},{"bike_id":"c14b619a-d8da-4bbf-846f-02b7c7eb6274","system_id":"levelo_inurba_marseille","lat":43.32132,"lon":5.36791,"is_reserved":false,"is_disabled":false,"rental_uris":{"android":"levelo://app?vid=c14b619a-d8da-4bbf-846f-02b7c7eb6274","ios":"levelo://app?vid=c14b619a-d8da-4bbf-846f-02b7c7eb6274"},"vehicle_type_id":"4","last_reported":1743160106,"current_range_meters":14000,"station_id":"ce4bhrh2rcd13ifvqhug","pricing_plan_id":"cebpf4jnsgd1na2vs0mg"},{"bike_id":"641adfb4-7dbd-41ea-af74-3b8a1e5fd438","system_id":"levelo_inurba_marseille","lat":43.29001,"lon":5.35611,"is_reserved":false,"is_disabled":false,"rental_uris":{"android":"levelo://app?vid=641adfb4-7dbd-41ea-af74-3b8a1e5fd438","ios":"levelo://app?vid=641adfb4-7dbd-41ea-af74-3b8a1e5fd438"},"vehicle_type_id":"4","last_reported":1743160106,"current_range_meters":14400,"station_id":"ce4bhb92rcd13ifvqen0","pricing_plan_id":"cebpf4jnsgd1na2vs0mg"},{"bike_id":"212c8e98-dbd0-430f-965c-a5211ae16902","system_id":"levelo_inurba_marseille","lat":43.25084,"lon":5.39504,"is_reserved":false,"is_disabled":false,"rental_uris":{"android":"levelo://app?vid=212c8e98-dbd0-430f-965c-a5211ae16902","ios":"levelo://app?vid=212c8e98-dbd0-430f-965c-a5211ae16902"},"vehicle_type_id":"4","last_reported":1743160106,"current_range_meters":14400,"station_id":"ce4bhm12rcd13ifvqgkg","pricing_plan_id":"cebpf4jnsgd1na2vs0mg"},{"bike_id":"a5e58861-fe45-4871-8b8e-3d30e7aad627","system_id":"levelo_inurba_marseille","lat":43.25091,"lon":5.39523,"is_reserved":false,"is_disabled":false,"rental_uris":{"android":"levelo://app?vid=a5e58861-fe45-4871-8b8e-3d30e7aad627","ios":"levelo://app?vid=a5e58861-fe45-4871-8b8e-3d30e7aad627"},"vehicle_type_id":"4","last_reported":1743160106,"current_range_meters":14400,"station_id":"ce4bhm12rcd13ifvqgkg","pricing_plan_id":"cebpf4jnsgd1na2vs0mg"},{"bike_id":"d67d8652-0f04-45a0-b34d-bbd8839b9d56","system_id":"levelo_inurba_marseille","lat":43.26277,"lon":5.38828,"is_reserved":false,"is_disabled":false,"rental_uris":{"android":"levelo://app?vid=d67d8652-0f04-45a0-b34d-bbd8839b9d56","ios":"levelo://app?vid=d67d8652-0f04-45a0-b34d-bbd8839b9d56"},"vehicle_type_id":"4","last_reported":1743160106,"current_range_meters":14800,"station_id":"","pricing_plan_id":"cebpf4jnsgd1na2vs0mg"},{"bike_id":"ca43f70e-8ed5-42aa-9e44-e34e88a5c91d","system_id":"levelo_inurba_marseille","lat":43.29934,"lon":5.36537,"is_reserved":false,"is_disabled":false,"rental_uris":{"android":"levelo://app?vid=ca43f70e-8ed5-42aa-9e44-e34e88a5c91d","ios":"levelo://app?vid=ca43f70e-8ed5-42aa-9e44-e34e88a5c91d"},"vehicle_type_id":"4","last_reported":1743160106,"current_range_meters":14800,"station_id":"ce4bgm92rcd13ifvqbr0","pricing_plan_id":"cebpf4jnsgd1na2vs0mg"},{"bike_id":"1ee86d82-7672-41b2-8221-fde658f47b61","system_id":"levelo_inurba_marseille","lat":43.30281,"lon":5.37694,"is_reserved":false,"is_disabled":false,"rental_uris":{"android":"levelo://app?vid=1ee86d82-7672-41b2-8221-fde658f47b61","ios":"levelo://app?vid=1ee86d82-7672-41b2-8221-fde658f47b61"},"vehicle_type_id":"4","last_reported":1743160106,"current_range_meters":14800,"station_id":"ce4bguh2rcd13ifvqcj0","pricing_plan_id":"cebpf4jnsgd1na2vs0mg"},{"bike_id":"8ac9d3fc-b5b4-478d-9fa0-5fa8c9fadaae","system_id":"levelo_inurba_marseille","lat":43.28852,"lon":5.39315,"is_reserved":false,"is_disabled":false,"rental_uris":{"android":"levelo://app?vid=8ac9d3fc-b5b4-478d-9fa0-5fa8c9fadaae","ios":"levelo://app?vid=8ac9d3fc-b5b4-478d-9fa0-5fa8c9fadaae"},"vehicle_type_id":"4","last_reported":1743160106,"current_range_meters":14800,"station_id":"ce4bh2p2rcd13ifvqdi0","pricing_plan_id":"cebpf4jnsgd1na2vs0mg"},{"bike_id":"a36b55e8-0236-459e-88fd-bd4ae675dc37","system_id":"levelo_inurba_marseille","lat":43.26678,"lon":5.38268,"is_reserved":false,"is_disabled":false,"rental_uris":{"android":"levelo://app?vid=a36b55e8-0236-459e-88fd-bd4ae675dc37","ios":"levelo://app?vid=a36b55e8-0236-459e-88fd-bd4ae675dc37"},"vehicle_type_id":"4","last_reported":1743160106,"current_range_meters":14800,"station_id":"ce4bhg92rcd13ifvqf90","pricing_plan_id":"cebpf4jnsgd1na2vs0mg"},{"bike_id":"78e15e74-3315-4ccd-afab-ef4e34b4ae70","system_id":"levelo_inurba_marseille","lat":43.33602,"lon":5.41025,"is_reserved":false,"is_disabled":false,"rental_uris":{"android":"levelo://app?vid=78e15e74-3315-4ccd-afab-ef4e34b4ae70","ios":"levelo://app?vid=78e15e74-3315-4ccd-afab-ef4e34b4ae70"},"vehicle_type_id":"4","last_reported":1743160106,"current_range_meters":14800,"station_id":"ce4bhqh2rcd13ifvqhmg","pricing_plan_id":"cebpf4jnsgd1na2vs0mg"},{"bike_id":"983c4c9f-ee1a-4d13-8ce7-bfd36c479f46","system_id":"levelo_inurba_marseille","lat":43.24163,"lon":5.36349,"is_reserved":false,"is_disabled":false,"rental_uris":{"android":"levelo://app?vid=983c4c9f-ee1a-4d13-8ce7-bfd36c479f46","ios":"levelo://app?vid=983c4c9f-ee1a-4d13-8ce7-bfd36c479f46"},"vehicle_type_id":"4","last_reported":1743160106,"current_range_meters":14800,"station_id":"cpo36qri1sfpv3e86is0","pricing_plan_id":"cebpf4jnsgd1na2vs0mg"},{"bike_id":"e6adea30-f9ce-4940-867e-b2cea26bf200","system_id":"levelo_inurba_marseille","lat":43.31494,"lon":5.3731,"is_reserved":false,"is_disabled":false,"rental_uris":{"android":"levelo://app?vid=e6adea30-f9ce-4940-867e-b2cea26bf200","ios":"levelo://app?vid=e6adea30-f9ce-4940-867e-b2cea26bf200"},"vehicle_type_id":"4","last_reported":1743160106,"current_range_meters":15200,"station_id":"ce4bgt12rcd13ifvqcd0","pricing_plan_id":"cebpf4jnsgd1na2vs0mg"},{"bike_id":"46a1cc2e-84c3-4ae1-b2f5-5979114d1e82","system_id":"levelo_inurba_marseille","lat":43.29014,"lon":5.38129,"is_reserved":false,"is_disabled":false,"rental_uris":{"android":"levelo://app?vid=46a1cc2e-84c3-4ae1-b2f5-5979114d1e82","ios":"levelo://app?vid=46a1cc2e-84c3-4ae1-b2f5-5979114d1e82"},"vehicle_type_id":"4","last_reported":1743160106,"current_range_meters":15200,"station_id":"ce4bh4p2rcd13ifvqe1g","pricing_plan_id":"cebpf4jnsgd1na2vs0mg"},{"bike_id":"b70f080a-4a2b-4cf7-8754-c10d7972e2dc","system_id":"levelo_inurba_marseille","lat":43.26705,"lon":5.38272,"is_reserved":false,"is_disabled":false,"rental_uris":{"android":"levelo://app?vid=b70f080a-4a2b-4cf7-8754-c10d7972e2dc","ios":"levelo://app?vid=b70f080a-4a2b-4cf7-8754-c10d7972e2dc"},"vehicle_type_id":"4","last_reported":1743160106,"current_range_meters":15200,"station_id":"ce4bhg92rcd13ifvqf90","pricing_plan_id":"cebpf4jnsgd1na2vs0mg"},{"bike_id":"e53cf5c5-da21-4b78-8255-bd634deb9652","system_id":"levelo_inurba_marseille","lat":43.31993,"lon":5.38151,"is_reserved":false,"is_disabled":false,"rental_uris":{"android":"levelo://app?vid=e53cf5c5-da21-4b78-8255-bd634deb9652","ios":"levelo://app?vid=e53cf5c5-da21-4b78-8255-bd634deb9652"},"vehicle_type_id":"4","last_reported":1743160106,"current_range_meters":15200,"station_id":"ce4bhr12rcd13ifvqhpg","pricing_plan_id":"cebpf4jnsgd1na2vs0mg"},{"bike_id":"a04e32b1-5355-4818-8555-c02ab6996f38","system_id":"levelo_inurba_marseille","lat":43.232526,"lon":5.356202,"is_reserved":false,"is_disabled":false,"rental_uris":{"android":"levelo://app?vid=a04e32b1-5355-4818-8555-c02ab6996f38","ios":"levelo://app?vid=a04e32b1-5355-4818-8555-c02ab6996f38"},"vehicle_type_id":"4","last_reported":1743160106,"current_range_meters":16000,"station_id":"","pricing_plan_id":"cebpf4jnsgd1na2vs0mg"},{"bike_id":"36afd4fb-5c3d-4b59-be68-f05d3d00a6ac","system_id":"levelo_inurba_marseille","lat":43.29929,"lon":5.36537,"is_reserved":false,"is_disabled":false,"rental_uris":{"android":"levelo://app?vid=36afd4fb-5c3d-4b59-be68-f05d3d00a6ac","ios":"levelo://app?vid=36afd4fb-5c3d-4b59-be68-f05d3d00a6ac"},"vehicle_type_id":"4","last_reported":1743160106,"current_range_meters":16000,"station_id":"ce4bgm92rcd13ifvqbr0","pricing_plan_id":"cebpf4jnsgd1na2vs0mg"},{"bike_id":"9753ecf8-adb9-41b7-8043-4aff343df727","system_id":"levelo_inurba_marseille","lat":43.29779,"lon":5.37102,"is_reserved":false,"is_disabled":false,"rental_uris":{"android":"levelo://app?vid=9753ecf8-adb9-41b7-8043-4aff343df727","ios":"levelo://app?vid=9753ecf8-adb9-41b7-8043-4aff343df727"},"vehicle_type_id":"4","last_reported":1743160106,"current_range_meters":16000,"station_id":"ce4bgop2rcd13ifvqc1g","pricing_plan_id":"cebpf4jnsgd1na2vs0mg"},{"bike_id":"79457043-edb4-431c-9879-70c05cdfcecf","system_id":"levelo_inurba_marseille","lat":43.311168,"lon":5.377564,"is_reserved":false,"is_disabled":false,"rental_uris":{"android":"levelo://app?vid=79457043-edb4-431c-9879-70c05cdfcecf","ios":"levelo://app?vid=79457043-edb4-431c-9879-70c05cdfcecf"},"vehicle_type_id":"4","last_reported":1743160106,"current_range_meters":16000,"station_id":"ce4bgt92rcd13ifvqcg0","pricing_plan_id":"cebpf4jnsgd1na2vs0mg"},{"bike_id":"5843f25e-8687-403b-b200-a0279bdb33a9","system_id":"levelo_inurba_marseille","lat":43.30461,"lon":5.379,"is_reserved":false,"is_disabled":false,"rental_uris":{"android":"levelo://app?vid=5843f25e-8687-403b-b200-a0279bdb33a9","ios":"levelo://app?vid=5843f25e-8687-403b-b200-a0279bdb33a9"},"vehicle_type_id":"4","last_reported":1743160106,"current_range_meters":16000,"station_id":"ce4bgup2rcd13ifvqcn0","pricing_plan_id":"cebpf4jnsgd1na2vs0mg"},{"bike_id":"32ce4fae-4873-49dc-8820-dde5305b3a27","system_id":"levelo_inurba_marseille","lat":43.26949,"lon":5.38635,"is_reserved":false,"is_disabled":false,"rental_uris":{"android":"levelo://app?vid=32ce4fae-4873-49dc-8820-dde5305b3a27","ios":"levelo://app?vid=32ce4fae-4873-49dc-8820-dde5305b3a27"},"vehicle_type_id":"4","last_reported":1743160106,"current_range_meters":16000,"station_id":"ce4bhh92rcd13ifvqfh0","pricing_plan_id":"cebpf4jnsgd1na2vs0mg"},{"bike_id":"7fdcd55f-1c78-4ded-99ed-725169c92149","system_id":"levelo_inurba_marseille","lat":43.27373,"lon":5.38276,"is_reserved":false,"is_disabled":false,"rental_uris":{"android":"levelo://app?vid=7fdcd55f-1c78-4ded-99ed-725169c92149","ios":"levelo://app?vid=7fdcd55f-1c78-4ded-99ed-725169c92149"},"vehicle_type_id":"4","last_reported":1743160106,"current_range_meters":16400,"station_id":"","pricing_plan_id":"cebpf4jnsgd1na2vs0mg"},{"bike_id":"7a08e355-8a94-4c6d-be9a-321f4659618f","system_id":"levelo_inurba_marseille","lat":43.30801,"lon":5.38153,"is_reserved":false,"is_disabled":false,"rental_uris":{"android":"levelo://app?vid=7a08e355-8a94-4c6d-be9a-321f4659618f","ios":"levelo://app?vid=7a08e355-8a94-4c6d-be9a-321f4659618f"},"vehicle_type_id":"4","last_reported":1743160106,"current_range_meters":16400,"station_id":"ce4bgt12rcd13ifvqce0","pricing_plan_id":"cebpf4jnsgd1na2vs0mg"},{"bike_id":"1834a2f1-b992-40bb-a77a-c088bba2975f","system_id":"levelo_inurba_marseille","lat":43.29265,"lon":5.38445,"is_reserved":false,"is_disabled":false,"rental_uris":{"android":"levelo://app?vid=1834a2f1-b992-40bb-a77a-c088bba2975f","ios":"levelo://app?vid=1834a2f1-b992-40bb-a77a-c088bba2975f"},"vehicle_type_id":"4","last_reported":1743160106,"current_range_meters":16400,"station_id":"ce4bh692rcd13ifvqea0","pricing_plan_id":"cebpf4jnsgd1na2vs0mg"},{"bike_id":"cc2feb73-2143-4a27-844c-53e99e42e37f","system_id":"levelo_inurba_marseille","lat":43.26954,"lon":5.38626,"is_reserved":false,"is_disabled":false,"rental_uris":{"android":"levelo://app?vid=cc2feb73-2143-4a27-844c-53e99e42e37f","ios":"levelo://app?vid=cc2feb73-2143-4a27-844c-53e99e42e37f"},"vehicle_type_id":"4","last_reported":1743160106,"current_range_meters":16400,"station_id":"ce4bhh92rcd13ifvqfh0","pricing_plan_id":"cebpf4jnsgd1na2vs0mg"},{"bike_id":"147140e3-4a0b-49e4-a9bb-a323f85a932b","system_id":"levelo_inurba_marseille","lat":43.23184,"lon":5.39996,"is_reserved":false,"is_disabled":false,"rental_uris":{"android":"levelo://app?vid=147140e3-4a0b-49e4-a9bb-a323f85a932b","ios":"levelo://app?vid=147140e3-4a0b-49e4-a9bb-a323f85a932b"},"vehicle_type_id":"4","last_reported":1743160106,"current_range_meters":16400,"station_id":"ce4bhn12rcd13ifvqgqg","pricing_plan_id":"cebpf4jnsgd1na2vs0mg"},{"bike_id":"36a49bbf-172b-4fe2-a9d0-a2e62ab94281","system_id":"levelo_inurba_marseille","lat":43.3235,"lon":5.36786,"is_reserved":false,"is_disabled":false,"rental_uris":{"android":"levelo://app?vid=36a49bbf-172b-4fe2-a9d0-a2e62ab94281","ios":"levelo://app?vid=36a49bbf-172b-4fe2-a9d0-a2e62ab94281"},"vehicle_type_id":"4","last_reported":1743160106,"current_range_meters":16400,"station_id":"ce4bhsh2rcd13ifvqi2g","pricing_plan_id":"cebpf4jnsgd1na2vs0mg"},{"bike_id":"4586e23a-2d77-446c-8e8c-a15b6ae5de02","system_id":"levelo_inurba_marseille","lat":43.28598,"lon":5.38126,"is_reserved":false,"is_disabled":false,"rental_uris":{"android":"levelo://app?vid=4586e23a-2d77-446c-8e8c-a15b6ae5de02","ios":"levelo://app?vid=4586e23a-2d77-446c-8e8c-a15b6ae5de02"},"vehicle_type_id":"4","last_reported":1743160106,"current_range_meters":16800,"station_id":"","pricing_plan_id":"cebpf4jnsgd1na2vs0mg"},{"bike_id":"dc5d1c45-8011-4558-a33b-63f4edc8f3ab","system_id":"levelo_inurba_marseille","lat":43.29935,"lon":5.36537,"is_reserved":false,"is_disabled":false,"rental_uris":{"android":"levelo://app?vid=dc5d1c45-8011-4558-a33b-63f4edc8f3ab","ios":"levelo://app?vid=dc5d1c45-8011-4558-a33b-63f4edc8f3ab"},"vehicle_type_id":"4","last_reported":1743160106,"current_range_meters":16800,"station_id":"ce4bgm92rcd13ifvqbr0","pricing_plan_id":"cebpf4jnsgd1na2vs0mg"},{"bike_id":"5cc69310-b08d-4c1a-b2ef-10334bc998c9","system_id":"levelo_inurba_marseille","lat":43.30905,"lon":5.36846,"is_reserved":false,"is_disabled":false,"rental_uris":{"android":"levelo://app?vid=5cc69310-b08d-4c1a-b2ef-10334bc998c9","ios":"levelo://app?vid=5cc69310-b08d-4c1a-b2ef-10334bc998c9"},"vehicle_type_id":"4","last_reported":1743160106,"current_range_meters":16800,"station_id":"ce4bgn92rcd13ifvqbvg","pricing_plan_id":"cebpf4jnsgd1na2vs0mg"},{"bike_id":"0a42498a-b286-4411-8d5d-28cd201e0b61","system_id":"levelo_inurba_marseille","lat":43.28943,"lon":5.39632,"is_reserved":false,"is_disabled":false,"rental_uris":{"android":"levelo://app?vid=0a42498a-b286-4411-8d5d-28cd201e0b61","ios":"levelo://app?vid=0a42498a-b286-4411-8d5d-28cd201e0b61"},"vehicle_type_id":"4","last_reported":1743160106,"current_range_meters":16800,"station_id":"ce4bh3h2rcd13ifvqdn0","pricing_plan_id":"cebpf4jnsgd1na2vs0mg"},{"bike_id":"06793522-d467-4bdd-903e-f02ecdbfe130","system_id":"levelo_inurba_marseille","lat":43.28272,"lon":5.35079,"is_reserved":false,"is_disabled":false,"rental_uris":{"android":"levelo://app?vid=06793522-d467-4bdd-903e-f02ecdbfe130","ios":"levelo://app?vid=06793522-d467-4bdd-903e-f02ecdbfe130"},"vehicle_type_id":"4","last_reported":1743160106,"current_range_meters":16800,"station_id":"ce4bhbp2rcd13ifvqerg","pricing_plan_id":"cebpf4jnsgd1na2vs0mg"},{"bike_id":"4dd124d4-787a-42ca-a545-e3d6e8d698ea","system_id":"levelo_inurba_marseille","lat":43.28153,"lon":5.42626,"is_reserved":false,"is_disabled":false,"rental_uris":{"android":"levelo://app?vid=4dd124d4-787a-42ca-a545-e3d6e8d698ea","ios":"levelo://app?vid=4dd124d4-787a-42ca-a545-e3d6e8d698ea"},"vehicle_type_id":"4","last_reported":1743160106,"current_range_meters":16800,"station_id":"ce4bhnh2rcd13ifvqgug","pricing_plan_id":"cebpf4jnsgd1na2vs0mg"},{"bike_id":"e58b5a02-1c15-4f07-8299-9041237f1d4a","system_id":"levelo_inurba_marseille","lat":43.32355,"lon":5.36758,"is_reserved":false,"is_disabled":false,"rental_uris":{"android":"levelo://app?vid=e58b5a02-1c15-4f07-8299-9041237f1d4a","ios":"levelo://app?vid=e58b5a02-1c15-4f07-8299-9041237f1d4a"},"vehicle_type_id":"4","last_reported":1743160106,"current_range_meters":16800,"station_id":"ce4bhsh2rcd13ifvqi2g","pricing_plan_id":"cebpf4jnsgd1na2vs0mg"},{"bike_id":"52552158-590d-4884-82bb-31a389b7474b","system_id":"levelo_inurba_marseille","lat":43.26802,"lon":5.40263,"is_reserved":false,"is_disabled":false,"rental_uris":{"android":"levelo://app?vid=52552158-590d-4884-82bb-31a389b7474b","ios":"levelo://app?vid=52552158-590d-4884-82bb-31a389b7474b"},"vehicle_type_id":"4","last_reported":1743160106,"current_range_meters":16800,"station_id":"ce501612rcd8frsf0b60","pricing_plan_id":"cebpf4jnsgd1na2vs0mg"},{"bike_id":"79efe6b4-75a8-44c6-b721-45cac2f4c9b8","system_id":"levelo_inurba_marseille","lat":43.29416,"lon":5.42437,"is_reserved":false,"is_disabled":false,"rental_uris":{"android":"levelo://app?vid=79efe6b4-75a8-44c6-b721-45cac2f4c9b8","ios":"levelo://app?vid=79efe6b4-75a8-44c6-b721-45cac2f4c9b8"},"vehicle_type_id":"4","last_reported":1743160106,"current_range_meters":17200,"station_id":"","pricing_plan_id":"cebpf4jnsgd1na2vs0mg"},{"bike_id":"4aa0ea87-0dfc-4309-b3c4-2bf0f7a93693","system_id":"levelo_inurba_marseille","lat":43.29934,"lon":5.36526,"is_reserved":false,"is_disabled":false,"rental_uris":{"android":"levelo://app?vid=4aa0ea87-0dfc-4309-b3c4-2bf0f7a93693","ios":"levelo://app?vid=4aa0ea87-0dfc-4309-b3c4-2bf0f7a93693"},"vehicle_type_id":"4","last_reported":1743160106,"current_range_meters":17200,"station_id":"ce4bgm92rcd13ifvqbr0","pricing_plan_id":"cebpf4jnsgd1na2vs0mg"},{"bike_id":"12943731-3a84-43d0-a6d5-71ed3fc9891e","system_id":"levelo_inurba_marseille","lat":43.30536,"lon":5.36695,"is_reserved":false,"is_disabled":false,"rental_uris":{"android":"levelo://app?vid=12943731-3a84-43d0-a6d5-71ed3fc9891e","ios":"levelo://app?vid=12943731-3a84-43d0-a6d5-71ed3fc9891e"},"vehicle_type_id":"4","last_reported":1743160106,"current_range_meters":17200,"station_id":"ce4bgrp2rcd13ifvqc9g","pricing_plan_id":"cebpf4jnsgd1na2vs0mg"},{"bike_id":"6387c7e2-b356-4ed9-a010-261115dc73f5","system_id":"levelo_inurba_marseille","lat":43.28269,"lon":5.35069,"is_reserved":false,"is_disabled":false,"rental_uris":{"android":"levelo://app?vid=6387c7e2-b356-4ed9-a010-261115dc73f5","ios":"levelo://app?vid=6387c7e2-b356-4ed9-a010-261115dc73f5"},"vehicle_type_id":"4","last_reported":1743160106,"current_range_meters":17200,"station_id":"ce4bhbp2rcd13ifvqerg","pricing_plan_id":"cebpf4jnsgd1na2vs0mg"},{"bike_id":"85774592-ea1c-41b9-b792-344070b8e649","system_id":"levelo_inurba_marseille","lat":43.26194,"lon":5.37926,"is_reserved":false,"is_disabled":false,"rental_uris":{"android":"levelo://app?vid=85774592-ea1c-41b9-b792-344070b8e649","ios":"levelo://app?vid=85774592-ea1c-41b9-b792-344070b8e649"},"vehicle_type_id":"4","last_reported":1743160106,"current_range_meters":17200,"station_id":"ce4bhjp2rcd13ifvqg90","pricing_plan_id":"cebpf4jnsgd1na2vs0mg"},{"bike_id":"b75654f6-0356-4515-bc6b-f9c13aa3c11a","system_id":"levelo_inurba_marseille","lat":43.27833,"lon":5.39219,"is_reserved":false,"is_disabled":false,"rental_uris":{"android":"levelo://app?vid=b75654f6-0356-4515-bc6b-f9c13aa3c11a","ios":"levelo://app?vid=b75654f6-0356-4515-bc6b-f9c13aa3c11a"},"vehicle_type_id":"4","last_reported":1743160106,"current_range_meters":17200,"station_id":"ce4bhjp2rcd13ifvqga0","pricing_plan_id":"cebpf4jnsgd1na2vs0mg"},{"bike_id":"03893c81-c9e8-4438-b9b0-37e927cfc09a","system_id":"levelo_inurba_marseille","lat":43.299327,"lon":5.36494,"is_reserved":false,"is_disabled":false,"rental_uris":{"android":"levelo://app?vid=03893c81-c9e8-4438-b9b0-37e927cfc09a","ios":"levelo://app?vid=03893c81-c9e8-4438-b9b0-37e927cfc09a"},"vehicle_type_id":"4","last_reported":1743160106,"current_range_meters":17600,"station_id":"ce4bgm92rcd13ifvqbr0","pricing_plan_id":"cebpf4jnsgd1na2vs0mg"},{"bike_id":"02a83274-0ab8-4c98-9719-d4735a846575","system_id":"levelo_inurba_marseille","lat":43.29838,"lon":5.36266,"is_reserved":false,"is_disabled":false,"rental_uris":{"android":"levelo://app?vid=02a83274-0ab8-4c98-9719-d4735a846575","ios":"levelo://app?vid=02a83274-0ab8-4c98-9719-d4735a846575"},"vehicle_type_id":"4","last_reported":1743160106,"current_range_meters":17600,"station_id":"ce4bgpp2rcd13ifvqc3g","pricing_plan_id":"cebpf4jnsgd1na2vs0mg"},{"bike_id":"79bfdb9e-6a1e-455a-8b1f-0e9b623f96a3","system_id":"levelo_inurba_marseille","lat":43.31708,"lon":5.40461,"is_reserved":false,"is_disabled":false,"rental_uris":{"android":"levelo://app?vid=79bfdb9e-6a1e-455a-8b1f-0e9b623f96a3","ios":"levelo://app?vid=79bfdb9e-6a1e-455a-8b1f-0e9b623f96a3"},"vehicle_type_id":"4","last_reported":1743160106,"current_range_meters":17600,"station_id":"ce4bgup2rcd13ifvqcn0","pricing_plan_id":"cebpf4jnsgd1na2vs0mg"},{"bike_id":"0b3078b7-74c3-4e4f-a070-1da1c2c25058","system_id":"levelo_inurba_marseille","lat":43.30463,"lon":5.37915,"is_reserved":false,"is_disabled":false,"rental_uris":{"android":"levelo://app?vid=0b3078b7-74c3-4e4f-a070-1da1c2c25058","ios":"levelo://app?vid=0b3078b7-74c3-4e4f-a070-1da1c2c25058"},"vehicle_type_id":"4","last_reported":1743160106,"current_range_meters":17600,"station_id":"ce4bgup2rcd13ifvqcn0","pricing_plan_id":"cebpf4jnsgd1na2vs0mg"},{"bike_id":"e0c7a8fa-b141-41f8-b89e-528b1365f29e","system_id":"levelo_inurba_marseille","lat":43.28274,"lon":5.35074,"is_reserved":false,"is_disabled":false,"rental_uris":{"android":"levelo://app?vid=e0c7a8fa-b141-41f8-b89e-528b1365f29e","ios":"levelo://app?vid=e0c7a8fa-b141-41f8-b89e-528b1365f29e"},"vehicle_type_id":"4","last_reported":1743160106,"current_range_meters":17600,"station_id":"ce4bhbp2rcd13ifvqerg","pricing_plan_id":"cebpf4jnsgd1na2vs0mg"},{"bike_id":"f42fb1fc-76fd-4c86-8279-f71ef6fff974","system_id":"levelo_inurba_marseille","lat":43.272089,"lon":5.391808,"is_reserved":false,"is_disabled":false,"rental_uris":{"android":"levelo://app?vid=f42fb1fc-76fd-4c86-8279-f71ef6fff974","ios":"levelo://app?vid=f42fb1fc-76fd-4c86-8279-f71ef6fff974"},"vehicle_type_id":"4","last_reported":1743160106,"current_range_meters":17600,"station_id":"ce4bhhp2rcd13ifvqfm0","pricing_plan_id":"cebpf4jnsgd1na2vs0mg"},{"bike_id":"d2f6da51-2124-4b73-b616-1debd4068b25","system_id":"levelo_inurba_marseille","lat":43.24539,"lon":5.39541,"is_reserved":false,"is_disabled":false,"rental_uris":{"android":"levelo://app?vid=d2f6da51-2124-4b73-b616-1debd4068b25","ios":"levelo://app?vid=d2f6da51-2124-4b73-b616-1debd4068b25"},"vehicle_type_id":"4","last_reported":1743160106,"current_range_meters":17600,"station_id":"ce4bhlp2rcd13ifvqgjg","pricing_plan_id":"cebpf4jnsgd1na2vs0mg"},{"bike_id":"d9bfc0c9-0c8f-45e8-b8ad-1fe9111ac287","system_id":"levelo_inurba_marseille","lat":43.25097,"lon":5.39535,"is_reserved":false,"is_disabled":false,"rental_uris":{"android":"levelo://app?vid=d9bfc0c9-0c8f-45e8-b8ad-1fe9111ac287","ios":"levelo://app?vid=d9bfc0c9-0c8f-45e8-b8ad-1fe9111ac287"},"vehicle_type_id":"4","last_reported":1743160106,"current_range_meters":17600,"station_id":"ce4bhm12rcd13ifvqgkg","pricing_plan_id":"cebpf4jnsgd1na2vs0mg"},{"bike_id":"3b74755b-67fa-4d85-ba8d-ce0e34eeb6ca","system_id":"levelo_inurba_marseille","lat":43.2621,"lon":5.40449,"is_reserved":false,"is_disabled":false,"rental_uris":{"android":"levelo://app?vid=3b74755b-67fa-4d85-ba8d-ce0e34eeb6ca","ios":"levelo://app?vid=3b74755b-67fa-4d85-ba8d-ce0e34eeb6ca"},"vehicle_type_id":"4","last_reported":1743160106,"current_range_meters":17600,"station_id":"ce4bhmh2rcd13ifvqgmg","pricing_plan_id":"cebpf4jnsgd1na2vs0mg"},{"bike_id":"95209250-34af-4335-9df8-64fe36c5e1eb","system_id":"levelo_inurba_marseille","lat":43.29304,"lon":5.37461,"is_reserved":false,"is_disabled":false,"rental_uris":{"android":"levelo://app?vid=95209250-34af-4335-9df8-64fe36c5e1eb","ios":"levelo://app?vid=95209250-34af-4335-9df8-64fe36c5e1eb"},"vehicle_type_id":"4","last_reported":1743160106,"current_range_meters":18000,"station_id":"ce4bgi12rcd13ifvqb70","pricing_plan_id":"cebpf4jnsgd1na2vs0mg"},{"bike_id":"273e2baf-cb57-4ee9-952f-7323c8bd7eb5","system_id":"levelo_inurba_marseille","lat":43.29531,"lon":5.37506,"is_reserved":false,"is_disabled":false,"rental_uris":{"android":"levelo://app?vid=273e2baf-cb57-4ee9-952f-7323c8bd7eb5","ios":"levelo://app?vid=273e2baf-cb57-4ee9-952f-7323c8bd7eb5"},"vehicle_type_id":"4","last_reported":1743160106,"current_range_meters":18000,"station_id":"ce4bgkp2rcd13ifvqbmg","pricing_plan_id":"cebpf4jnsgd1na2vs0mg"},{"bike_id":"5db1101b-83e7-4ce8-af6d-06cd23dd5a6c","system_id":"levelo_inurba_marseille","lat":43.29842,"lon":5.36277,"is_reserved":false,"is_disabled":false,"rental_uris":{"android":"levelo://app?vid=5db1101b-83e7-4ce8-af6d-06cd23dd5a6c","ios":"levelo://app?vid=5db1101b-83e7-4ce8-af6d-06cd23dd5a6c"},"vehicle_type_id":"4","last_reported":1743160106,"current_range_meters":18000,"station_id":"ce4bgpp2rcd13ifvqc3g","pricing_plan_id":"cebpf4jnsgd1na2vs0mg"},{"bike_id":"c00ea022-1956-41cc-ac70-0999bdf6e2db","system_id":"levelo_inurba_marseille","lat":43.29984,"lon":5.37168,"is_reserved":false,"is_disabled":false,"rental_uris":{"android":"levelo://app?vid=c00ea022-1956-41cc-ac70-0999bdf6e2db","ios":"levelo://app?vid=c00ea022-1956-41cc-ac70-0999bdf6e2db"},"vehicle_type_id":"4","last_reported":1743160106,"current_range_meters":18000,"station_id":"ce4bgr92rcd13ifvqc7g","pricing_plan_id":"cebpf4jnsgd1na2vs0mg"},{"bike_id":"da8f350b-a8fd-4314-a814-da9f41f82ede","system_id":"levelo_inurba_marseille","lat":43.29052,"lon":5.39958,"is_reserved":false,"is_disabled":false,"rental_uris":{"android":"levelo://app?vid=da8f350b-a8fd-4314-a814-da9f41f82ede","ios":"levelo://app?vid=da8f350b-a8fd-4314-a814-da9f41f82ede"},"vehicle_type_id":"4","last_reported":1743160106,"current_range_meters":18000,"station_id":"ce4bh392rcd13ifvqdm0","pricing_plan_id":"cebpf4jnsgd1na2vs0mg"},{"bike_id":"01f24c50-4512-4e23-bf03-6c8d07e83012","system_id":"levelo_inurba_marseille","lat":43.28418,"lon":5.3499,"is_reserved":false,"is_disabled":false,"rental_uris":{"android":"levelo://app?vid=01f24c50-4512-4e23-bf03-6c8d07e83012","ios":"levelo://app?vid=01f24c50-4512-4e23-bf03-6c8d07e83012"},"vehicle_type_id":"4","last_reported":1743160106,"current_range_meters":18000,"station_id":"ce4bhbh2rcd13ifvqepg","pricing_plan_id":"cebpf4jnsgd1na2vs0mg"},{"bike_id":"d3f7be41-6f68-474d-8af9-a851af5ea78a","system_id":"levelo_inurba_marseille","lat":43.28259,"lon":5.35065,"is_reserved":false,"is_disabled":false,"rental_uris":{"android":"levelo://app?vid=d3f7be41-6f68-474d-8af9-a851af5ea78a","ios":"levelo://app?vid=d3f7be41-6f68-474d-8af9-a851af5ea78a"},"vehicle_type_id":"4","last_reported":1743160106,"current_range_meters":18000,"station_id":"ce4bhbp2rcd13ifvqerg","pricing_plan_id":"cebpf4jnsgd1na2vs0mg"},{"bike_id":"b0e58752-d151-4446-9b1b-4d8b4235b96c","system_id":"levelo_inurba_marseille","lat":43.26947,"lon":5.3865,"is_reserved":false,"is_disabled":false,"rental_uris":{"android":"levelo://app?vid=b0e58752-d151-4446-9b1b-4d8b4235b96c","ios":"levelo://app?vid=b0e58752-d151-4446-9b1b-4d8b4235b96c"},"vehicle_type_id":"4","last_reported":1743160106,"current_range_meters":18000,"station_id":"ce4bhh92rcd13ifvqfh0","pricing_plan_id":"cebpf4jnsgd1na2vs0mg"},{"bike_id":"30b6587c-4105-48c1-aa9c-d7160dd49ea6","system_id":"levelo_inurba_marseille","lat":43.32488,"lon":5.36565,"is_reserved":false,"is_disabled":false,"rental_uris":{"android":"levelo://app?vid=30b6587c-4105-48c1-aa9c-d7160dd49ea6","ios":"levelo://app?vid=30b6587c-4105-48c1-aa9c-d7160dd49ea6"},"vehicle_type_id":"4","last_reported":1743160106,"current_range_meters":18000,"station_id":"ce4bhs12rcd13ifvqhvg","pricing_plan_id":"cebpf4jnsgd1na2vs0mg"},{"bike_id":"bf827922-8ac1-4830-9149-e0a0c4405091","system_id":"levelo_inurba_marseille","lat":43.33118,"lon":5.38651,"is_reserved":false,"is_disabled":false,"rental_uris":{"android":"levelo://app?vid=bf827922-8ac1-4830-9149-e0a0c4405091","ios":"levelo://app?vid=bf827922-8ac1-4830-9149-e0a0c4405091"},"vehicle_type_id":"4","last_reported":1743160106,"current_range_meters":18800,"station_id":"","pricing_plan_id":"cebpf4jnsgd1na2vs0mg"},{"bike_id":"9ad19391-1103-4ef9-8ee2-22d4fadb7bed","system_id":"levelo_inurba_marseille","lat":43.29267,"lon":5.37633,"is_reserved":false,"is_disabled":false,"rental_uris":{"android":"levelo://app?vid=9ad19391-1103-4ef9-8ee2-22d4fadb7bed","ios":"levelo://app?vid=9ad19391-1103-4ef9-8ee2-22d4fadb7bed"},"vehicle_type_id":"4","last_reported":1743160106,"current_range_meters":18800,"station_id":"ce4bgi12rcd13ifvqb80","pricing_plan_id":"cebpf4jnsgd1na2vs0mg"},{"bike_id":"77573a97-cdb5-4182-9a30-f5054dbd9d02","system_id":"levelo_inurba_marseille","lat":43.29618,"lon":5.37715,"is_reserved":false,"is_disabled":false,"rental_uris":{"android":"levelo://app?vid=77573a97-cdb5-4182-9a30-f5054dbd9d02","ios":"levelo://app?vid=77573a97-cdb5-4182-9a30-f5054dbd9d02"},"vehicle_type_id":"4","last_reported":1743160106,"current_range_meters":18800,"station_id":"ce4bgi92rcd13ifvqb90","pricing_plan_id":"cebpf4jnsgd1na2vs0mg"},{"bike_id":"abacce1b-37d1-4fd5-962e-29e56f367ba3","system_id":"levelo_inurba_marseille","lat":43.30881,"lon":5.37199,"is_reserved":false,"is_disabled":false,"rental_uris":{"android":"levelo://app?vid=abacce1b-37d1-4fd5-962e-29e56f367ba3","ios":"levelo://app?vid=abacce1b-37d1-4fd5-962e-29e56f367ba3"},"vehicle_type_id":"4","last_reported":1743160106,"current_range_meters":18800,"station_id":"ce4bguh2rcd13ifvqckg","pricing_plan_id":"cebpf4jnsgd1na2vs0mg"},{"bike_id":"e16eff50-b58f-4d13-a626-eb50ab2392f7","system_id":"levelo_inurba_marseille","lat":43.30457,"lon":5.37912,"is_reserved":false,"is_disabled":false,"rental_uris":{"android":"levelo://app?vid=e16eff50-b58f-4d13-a626-eb50ab2392f7","ios":"levelo://app?vid=e16eff50-b58f-4d13-a626-eb50ab2392f7"},"vehicle_type_id":"4","last_reported":1743160106,"current_range_meters":18800,"station_id":"ce4bgup2rcd13ifvqcn0","pricing_plan_id":"cebpf4jnsgd1na2vs0mg"},