{"last_updated":1686616915,"ttl":30,"version":"2.2","data":{"bikes":[{"bike_id":"a142fcc1-dd44-4e45-a4d3-f750f9811ffe","system_id":"levelo_inurba_marseille","lat":43.31221,"lon":5.36806,"is_reserved":false,"is_disabled":false,"rental_uris":{"android":"levelo://app?vid=a142fcc1-dd44-4e45-a4d3-f750f9811ffe","ios":"levelo://app?vid=a142fcc1-dd44-4e45-a4d3-f750f9811ffe"},"vehicle_type_id":"4","last_reported":1686616916,"current_range_meters":14800,"station_id":"","pricing_plan_id":"free"},{"bike_id":"fe192283-2a24-46ac-bcd4-891495d3178f","system_id":"levelo_inurba_marseille","lat":43.312239,"lon":5.368562,"is_reserved":false,"is_disabled":false,"rental_uris":{"android":"levelo://app?vid=fe192283-2a24-46ac-bcd4-891495d3178f","ios":"levelo://app?vid=fe192283-2a24-46ac-bcd4-891495d3178f"},"vehicle_type_id":"4","last_reported":1686616916,"current_range_meters":16000,"station_id":"ce4bgl92rcd13ifvqbq0","pricing_plan_id":"free"},{"bike_id":"2236174f-9b48-4e77-bc47-17f9275c2cb6","system_id":"levelo_inurba_marseille","lat":43.309076,"lon":5.368465,"is_reserved":false,"is_disabled":false,"rental_uris":{"android":"levelo://app?vid=2236174f-9b48-4e77-bc47-17f9275c2cb6","ios":"levelo://app?vid=2236174f-9b48-4e77-bc47-17f9275c2cb6"},"vehicle_type_id":"4","last_reported":1686616916,"current_range_meters":4000,"station_id":"ce4bgn92rcd13ifvqbvg","pricing_plan_id":"free"},{"bike_id":"a0528450-49d1-4056-81d4-d088a691b6df","system_id":"levelo_inurba_marseille","lat":43.309076,"lon":5.368465,"is_reserved":false,"is_disabled":false,"rental_uris":{"android":"levelo://app?vid=a0528450-49d1-4056-81d4-d088a691b6df","ios":"levelo://app?vid=a0528450-49d1-4056-81d4-d088a691b6df"},"vehicle_type_id":"4","last_reported":1686616916,"current_range_meters":27600,"station_id":"ce4bgn92rcd13ifvqbvg","pricing_plan_id":"free"},{"bike_id":"e97173c8-2e4b-466e-ad53-3e22453baabe","system_id":"levelo_inurba_marseille","lat":43.314811,"lon":5.373104,"is_reserved":false,"is_disabled":false,"rental_uris":{"android":"levelo://app?vid=e97173c8-2e4b-466e-ad53-3e22453baabe","ios":"levelo://app?vid=e97173c8-2e4b-466e-ad53-3e22453baabe"},"vehicle_type_id":"4","last_reported":1686616916,"current_range_meters":29600,"station_id":"ce4bgt12rcd13ifvqcd0","pricing_plan_id":"free"},{"bike_id":"8964714b-f9e4-449c-8774-b185bb4d3892","system_id":"levelo_inurba_marseille","lat":43.314811,"lon":5.373103,"is_reserved":false,"is_disabled":false,"rental_uris":{"android":"levelo://app?vid=8964714b-f9e4-449c-8774-b185bb4d3892","ios":"levelo://app?vid=8964714b-f9e4-449c-8774-b185bb4d3892"},"vehicle_type_id":"4","last_reported":1686616916,"current_range_meters":20000,"station_id":"ce4bgt12rcd13ifvqcd0","pricing_plan_id":"free"},{"bike_id":"11af9f51-4f3f-4e93-8aef-86d0a2dc5435","system_id":"levelo_inurba_marseille","lat":43.314811,"lon":5.373103,"is_reserved":false,"is_disabled":false,"rental_uris":{"android":"levelo://app?vid=11af9f51-4f3f-4e93-8aef-86d0a2dc5435","ios":"levelo://app?vid=11af9f51-4f3f-4e93-8aef-86d0a2dc5435"},"vehicle_type_id":"4","last_reported":1686616916,"current_range_meters":31200,"station_id":"ce4bgt12rcd13ifvqcd0","pricing_plan_id":"free"},{"bike_id":"67f60df5-8d32-41c0-bd29-3e1220d2f1cc","system_id":"levelo_inurba_marseille","lat":43.314811,"lon":5.373103,"is_reserved":false,"is_disabled":false,"rental_uris":{"android":"levelo://app?vid=67f60df5-8d32-41c0-bd29-3e1220d2f1cc","ios":"levelo://app?vid=67f60df5-8d32-41c0-bd29-3e1220d2f1cc"},"vehicle_type_id":"4","last_reported":1686616916,"current_range_meters":31200,"station_id":"ce4bgt12rcd13ifvqcd0","pricing_plan_id":"free"},{"bike_id":"a3f9ecbe-c88c-4af9-af0c-2c2bc3f47b96","system_id":"levelo_inurba_marseille","lat":43.314811,"lon":5.373103,"is_reserved":false,"is_disabled":false,"rental_uris":{"android":"levelo://app?vid=a3f9ecbe-c88c-4af9-af0c-2c2bc3f47b96","ios":"levelo://app?vid=a3f9ecbe-c88c-4af9-af0c-2c2bc3f47b96"},"vehicle_type_id":"4","last_reported":1686616916,"current_range_meters":31200,"station_id":"ce4bgt12rcd13ifvqcd0","pricing_plan_id":"free"},{"bike_id":"e94b5a11-31ef-4e8d-99c8-005532119ff4","system_id":"levelo_inurba_marseille","lat":43.314811,"lon":5.373104,"is_reserved":false,"is_disabled":false,"rental_uris":{"android":"levelo://app?vid=e94b5a11-31ef-4e8d-99c8-005532119ff4","ios":"levelo://app?vid=e94b5a11-31ef-4e8d-99c8-005532119ff4"},"vehicle_type_id":"4","last_reported":1686616916,"current_range_meters":30800,"station_id":"ce4bgt12rcd13ifvqcd0","pricing_plan_id":"free"},{"bike_id":"8e2e7e47-cf31-41b4-ae0c-fe6634e13e82","system_id":"levelo_inurba_marseille","lat":43.314811,"lon":5.373103,"is_reserved":false,"is_disabled":false,"rental_uris":{"android":"levelo://app?vid=8e2e7e47-cf31-41b4-ae0c-fe6634e13e82","ios":"levelo://app?vid=8e2e7e47-cf31-41b4-ae0c-fe6634e13e82"},"vehicle_type_id":"4","last_reported":1686616916,"current_range_meters":31200,"station_id":"ce4bgt12rcd13ifvqcd0","pricing_plan_id":"free"},{"bike_id":"f8b8c0d1-cfb6-4495-a880-8d3f5fa4cd5d","system_id":"levelo_inurba_marseille","lat":43.314811,"lon":5.373104,"is_reserved":false,"is_disabled":false,"rental_uris":{"android":"levelo://app?vid=f8b8c0d1-cfb6-4495-a880-8d3f5fa4cd5d","ios":"levelo://app?vid=f8b8c0d1-cfb6-4495-a880-8d3f5fa4cd5d"},"vehicle_type_id":"4","last_reported":1686616916,"current_range_meters":18800,"station_id":"ce4bgt12rcd13ifvqcd0","pricing_plan_id":"free"},{"bike_id":"5611f110-de22-4ce7-9bbf-e07dc4dfc8af","system_id":"levelo_inurba_marseille","lat":43.314811,"lon":5.373103,"is_reserved":false,"is_disabled":false,"rental_uris":{"android":"levelo://app?vid=5611f110-de22-4ce7-9bbf-e07dc4dfc8af","ios":"levelo://app?vid=5611f110-de22-4ce7-9bbf-e07dc4dfc8af"},"vehicle_type_id":"4","last_reported":1686616916,"current_range_meters":23600,"station_id":"ce4bgt12rcd13ifvqcd0","pricing_plan_id":"free"},{"bike_id":"01613d7a-7b81-4c69-833b-21dcf87dfcd8","system_id":"levelo_inurba_marseille","lat":43.30898,"lon":5.37191,"is_reserved":false,"is_disabled":false,"rental_uris":{"android":"levelo://app?vid=01613d7a-7b81-4c69-833b-21dcf87dfcd8","ios":"levelo://app?vid=01613d7a-7b81-4c69-833b-21dcf87dfcd8"},"vehicle_type_id":"4","last_reported":1686616916,"current_range_meters":31600,"station_id":"ce4bguh2rcd13ifvqckg","pricing_plan_id":"free"},{"bike_id":"01a90b33-9a3b-4ac2-a1e3-31e11ec78eef","system_id":"levelo_inurba_marseille","lat":43.308606,"lon":5.372099,"is_reserved":false,"is_disabled":false,"rental_uris":{"android":"levelo://app?vid=01a90b33-9a3b-4ac2-a1e3-31e11ec78eef","ios":"levelo://app?vid=01a90b33-9a3b-4ac2-a1e3-31e11ec78eef"},"vehicle_type_id":"4","last_reported":1686616916,"current_range_meters":20000,"station_id":"ce4bguh2rcd13ifvqckg","pricing_plan_id":"free"},{"bike_id":"1ed72478-da7f-4ce6-ae5f-e3076b4729cf","system_id":"levelo_inurba_marseille","lat":43.308606,"lon":5.372099,"is_reserved":false,"is_disabled":false,"rental_uris":{"android":"levelo://app?vid=1ed72478-da7f-4ce6-ae5f-e3076b4729cf","ios":"levelo://app?vid=1ed72478-da7f-4ce6-ae5f-e3076b4729cf"},"vehicle_type_id":"4","last_reported":1686616916,"current_range_meters":29200,"station_id":"ce4bguh2rcd13ifvqckg","pricing_plan_id":"free"},{"bike_id":"0b95a684-8b59-4896-8e98-986d22a51fdd","system_id":"levelo_inurba_marseille","lat":43.31566,"lon":5.3731,"is_reserved":false,"is_disabled":false,"rental_uris":{"android":"levelo://app?vid=0b95a684-8b59-4896-8e98-986d22a51fdd","ios":"levelo://app?vid=0b95a684-8b59-4896-8e98-986d22a51fdd"},"vehicle_type_id":"4","last_reported":1686616916,"current_range_meters":31200,"station_id":"","pricing_plan_id":"free"},{"bike_id":"b9655435-dbcb-4551-a012-29bead6f0b19","system_id":"levelo_inurba_marseille","lat":43.308606,"lon":5.372099,"is_reserved":false,"is_disabled":false,"rental_uris":{"android":"levelo://app?vid=b9655435-dbcb-4551-a012-29bead6f0b19","ios":"levelo://app?vid=b9655435-dbcb-4551-a012-29bead6f0b19"},"vehicle_type_id":"4","last_reported":1686616916,"current_range_meters":29200,"station_id":"ce4bguh2rcd13ifvqckg","pricing_plan_id":"free"},{"bike_id":"6ca192a1-6c82-49d2-83f8-90c94c504a17","system_id":"levelo_inurba_marseille","lat":43.305706,"lon":5.365654,"is_reserved":false,"is_disabled":false,"rental_uris":{"android":"levelo://app?vid=6ca192a1-6c82-49d2-83f8-90c94c504a17","ios":"levelo://app?vid=6ca192a1-6c82-49d2-83f8-90c94c504a17"},"vehicle_type_id":"4","last_reported":1686616916,"current_range_meters":30400,"station_id":"ce4bgs12rcd13ifvqcag","pricing_plan_id":"free"},{"bike_id":"58c89153-f26f-46af-9459-8907686b3aa5","system_id":"levelo_inurba_marseille","lat":43.305714,"lon":5.365633,"is_reserved":false,"is_disabled":false,"rental_uris":{"android":"levelo://app?vid=58c89153-f26f-46af-9459-8907686b3aa5","ios":"levelo://app?vid=58c89153-f26f-46af-9459-8907686b3aa5"},"vehicle_type_id":"4","last_reported":1686616916,"current_range_meters":27200,"station_id":"ce4bgs12rcd13ifvqcag","pricing_plan_id":"free"},{"bike_id":"59be84ac-0a9b-47a4-9b85-f412d2eedf8a","system_id":"levelo_inurba_marseille","lat":43.30602,"lon":5.37225,"is_reserved":false,"is_disabled":false,"rental_uris":{"android":"levelo://app?vid=59be84ac-0a9b-47a4-9b85-f412d2eedf8a","ios":"levelo://app?vid=59be84ac-0a9b-47a4-9b85-f412d2eedf8a"},"vehicle_type_id":"4","last_reported":1686616916,"current_range_meters":26800,"station_id":"ce4bgqh2rcd13ifvqc4g","pricing_plan_id":"free"},{"bike_id":"a905a992-ad3f-4a7f-a7f5-f77a27153810","system_id":"levelo_inurba_marseille","lat":43.311131,"lon":5.377651,"is_reserved":false,"is_disabled":false,"rental_uris":{"android":"levelo://app?vid=a905a992-ad3f-4a7f-a7f5-f77a27153810","ios":"levelo://app?vid=a905a992-ad3f-4a7f-a7f5-f77a27153810"},"vehicle_type_id":"4","last_reported":1686616916,"current_range_meters":31200,"station_id":"ce4bgt92rcd13ifvqcg0","pricing_plan_id":"free"},{"bike_id":"e7749677-c131-4bbf-9123-f9f5a30ab373","system_id":"levelo_inurba_marseille","lat":43.311131,"lon":5.377651,"is_reserved":false,"is_disabled":false,"rental_uris":{"android":"levelo://app?vid=e7749677-c131-4bbf-9123-f9f5a30ab373","ios":"levelo://app?vid=e7749677-c131-4bbf-9123-f9f5a30ab373"},"vehicle_type_id":"4","last_reported":1686616916,"current_range_meters":31200,"station_id":"ce4bgt92rcd13ifvqcg0","pricing_plan_id":"free"},{"bike_id":"34d8dbb2-f8ca-4539-8b65-734d1d7a9041","system_id":"levelo_inurba_marseille","lat":43.311131,"lon":5.377651,"is_reserved":false,"is_disabled":false,"rental_uris":{"android":"levelo://app?vid=34d8dbb2-f8ca-4539-8b65-734d1d7a9041","ios":"levelo://app?vid=34d8dbb2-f8ca-4539-8b65-734d1d7a9041"},"vehicle_type_id":"4","last_reported":1686616916,"current_range_meters":27200,"station_id":"ce4bgt92rcd13ifvqcg0","pricing_plan_id":"free"},{"bike_id":"7644dde3-e0ac-4967-807d-17d7c7710fb2","system_id":"levelo_inurba_marseille","lat":43.311125,"lon":5.377624,"is_reserved":false,"is_disabled":false,"rental_uris":{"android":"levelo://app?vid=7644dde3-e0ac-4967-807d-17d7c7710fb2","ios":"levelo://app?vid=7644dde3-e0ac-4967-807d-17d7c7710fb2"},"vehicle_type_id":"4","last_reported":1686616916,"current_range_meters":20400,"station_id":"ce4bgt92rcd13ifvqcg0","pricing_plan_id":"free"},{"bike_id":"d7b3f85f-67f9-4c87-b8b7-b1a8daf5ebcb","system_id":"levelo_inurba_marseille","lat":43.31118,"lon":5.37768,"is_reserved":false,"is_disabled":false,"rental_uris":{"android":"levelo://app?vid=d7b3f85f-67f9-4c87-b8b7-b1a8daf5ebcb","ios":"levelo://app?vid=d7b3f85f-67f9-4c87-b8b7-b1a8daf5ebcb"},"vehicle_type_id":"4","last_reported":1686616916,"current_range_meters":12400,"station_id":"ce4bgt92rcd13ifvqcg0","pricing_plan_id":"free"},{"bike_id":"dff1b0e2-7c5c-414a-846b-2ef60e70ea3e","system_id":"levelo_inurba_marseille","lat":43.31646,"lon":5.37663,"is_reserved":false,"is_disabled":false,"rental_uris":{"android":"levelo://app?vid=dff1b0e2-7c5c-414a-846b-2ef60e70ea3e","ios":"levelo://app?vid=dff1b0e2-7c5c-414a-846b-2ef60e70ea3e"},"vehicle_type_id":"4","last_reported":1686616916,"current_range_meters":22400,"station_id":"","pricing_plan_id":"free"},{"bike_id":"b2307c51-0646-4ae1-ba6b-e144a937beb5","system_id":"levelo_inurba_marseille","lat":43.31116,"lon":5.37773,"is_reserved":false,"is_disabled":false,"rental_uris":{"android":"levelo://app?vid=b2307c51-0646-4ae1-ba6b-e144a937beb5","ios":"levelo://app?vid=b2307c51-0646-4ae1-ba6b-e144a937beb5"},"vehicle_type_id":"4","last_reported":1686616916,"current_range_meters":7600,"station_id":"ce4bgt92rcd13ifvqcg0","pricing_plan_id":"free"},{"bike_id":"58ebf723-9bd5-4961-89a8-ecfd6f15bf92","system_id":"levelo_inurba_marseille","lat":43.303046,"lon":5.368981,"is_reserved":false,"is_disabled":false,"rental_uris":{"android":"levelo://app?vid=58ebf723-9bd5-4961-89a8-ecfd6f15bf92","ios":"levelo://app?vid=58ebf723-9bd5-4961-89a8-ecfd6f15bf92"},"vehicle_type_id":"4","last_reported":1686616916,"current_range_meters":14800,"station_id":"ce4bgqh2rcd13ifvqc5g","pricing_plan_id":"free"},{"bike_id":"ed01efdd-d8c0-4498-98da-c5267a39d2f0","system_id":"levelo_inurba_marseille","lat":43.303046,"lon":5.368981,"is_reserved":false,"is_disabled":false,"rental_uris":{"android":"levelo://app?vid=ed01efdd-d8c0-4498-98da-c5267a39d2f0","ios":"levelo://app?vid=ed01efdd-d8c0-4498-98da-c5267a39d2f0"},"vehicle_type_id":"4","last_reported":1686616916,"current_range_meters":31200,"station_id":"ce4bgqh2rcd13ifvqc5g","pricing_plan_id":"free"},{"bike_id":"dca51342-8bf4-41e0-9791-952f3e247ea5","system_id":"levelo_inurba_marseille","lat":43.315293,"lon":5.380349,"is_reserved":false,"is_disabled":false,"rental_uris":{"android":"levelo://app?vid=dca51342-8bf4-41e0-9791-952f3e247ea5","ios":"levelo://app?vid=dca51342-8bf4-41e0-9791-952f3e247ea5"},"vehicle_type_id":"4","last_reported":1686616916,"current_range_meters":21200,"station_id":"ce4bhsp2rcd13ifvqi50","pricing_plan_id":"free"},{"bike_id":"6569413d-633a-4f88-83bc-21912c25e6c1","system_id":"levelo_inurba_marseille","lat":43.315289,"lon":5.380349,"is_reserved":false,"is_disabled":false,"rental_uris":{"android":"levelo://app?vid=6569413d-633a-4f88-83bc-21912c25e6c1","ios":"levelo://app?vid=6569413d-633a-4f88-83bc-21912c25e6c1"},"vehicle_type_id":"4","last_reported":1686616916,"current_range_meters":2800,"station_id":"ce4bhsp2rcd13ifvqi50","pricing_plan_id":"free"},{"bike_id":"12d71afa-8a20-4eaf-be5b-0500d7dc0dd7","system_id":"levelo_inurba_marseille","lat":43.315289,"lon":5.380349,"is_reserved":false,"is_disabled":false,"rental_uris":{"android":"levelo://app?vid=12d71afa-8a20-4eaf-be5b-0500d7dc0dd7","ios":"levelo://app?vid=12d71afa-8a20-4eaf-be5b-0500d7dc0dd7"},"vehicle_type_id":"4","last_reported":1686616916,"current_range_meters":400,"station_id":"ce4bhsp2rcd13ifvqi50","pricing_plan_id":"free"},{"bike_id":"67f53162-9837-407d-81cf-fc3c4b765ca1","system_id":"levelo_inurba_marseille","lat":43.315289,"lon":5.380349,"is_reserved":false,"is_disabled":false,"rental_uris":{"android":"levelo://app?vid=67f53162-9837-407d-81cf-fc3c4b765ca1","ios":"levelo://app?vid=67f53162-9837-407d-81cf-fc3c4b765ca1"},"vehicle_type_id":"4","last_reported":1686616916,"current_range_meters":4400,"station_id":"ce4bhsp2rcd13ifvqi50","pricing_plan_id":"free"},{"bike_id":"ce27853c-3346-473e-99fb-e121615e6d3f","system_id":"levelo_inurba_marseille","lat":43.315293,"lon":5.380349,"is_reserved":false,"is_disabled":false,"rental_uris":{"android":"levelo://app?vid=ce27853c-3346-473e-99fb-e121615e6d3f","ios":"levelo://app?vid=ce27853c-3346-473e-99fb-e121615e6d3f"},"vehicle_type_id":"4","last_reported":1686616916,"current_range_meters":4400,"station_id":"ce4bhsp2rcd13ifvqi50","pricing_plan_id":"free"},{"bike_id":"078628ed-6d60-4525-a842-336742df7748","system_id":"levelo_inurba_marseille","lat":43.301939,"lon":5.366286,"is_reserved":false,"is_disabled":false,"rental_uris":{"android":"levelo://app?vid=078628ed-6d60-4525-a842-336742df7748","ios":"levelo://app?vid=078628ed-6d60-4525-a842-336742df7748"},"vehicle_type_id":"4","last_reported":1686616916,"current_range_meters":29600,"station_id":"ce4bgrh2rcd13ifvqc8g","pricing_plan_id":"free"},{"bike_id":"1e36a622-e626-4115-9d40-af0a5bfc0af1","system_id":"levelo_inurba_marseille","lat":43.30796,"lon":5.38141,"is_reserved":false,"is_disabled":false,"rental_uris":{"android":"levelo://app?vid=1e36a622-e626-4115-9d40-af0a5bfc0af1","ios":"levelo://app?vid=1e36a622-e626-4115-9d40-af0a5bfc0af1"},"vehicle_type_id":"4","last_reported":1686616916,"current_range_meters":11200,"station_id":"","pricing_plan_id":"free"},{"bike_id":"180adcf1-5ca4-4465-8525-2d0f746755f3","system_id":"levelo_inurba_marseille","lat":43.308012,"lon":5.381511,"is_reserved":false,"is_disabled":false,"rental_uris":{"android":"levelo://app?vid=180adcf1-5ca4-4465-8525-2d0f746755f3","ios":"levelo://app?vid=180adcf1-5ca4-4465-8525-2d0f746755f3"},"vehicle_type_id":"4","last_reported":1686616916,"current_range_meters":29200,"station_id":"ce4bgt12rcd13ifvqce0","pricing_plan_id":"free"},{"bike_id":"a0506264-6f91-48be-a35e-62ecb15edbe8","system_id":"levelo_inurba_marseille","lat":43.308012,"lon":5.381511,"is_reserved":false,"is_disabled":false,"rental_uris":{"android":"levelo://app?vid=a0506264-6f91-48be-a35e-62ecb15edbe8","ios":"levelo://app?vid=a0506264-6f91-48be-a35e-62ecb15edbe8"},"vehicle_type_id":"4","last_reported":1686616916,"current_range_meters":31200,"station_id":"ce4bgt12rcd13ifvqce0","pricing_plan_id":"free"},{"bike_id":"e9556d91-6189-4203-8f01-ccae0efe1551","system_id":"levelo_inurba_marseille","lat":43.308012,"lon":5.381511,"is_reserved":false,"is_disabled":false,"rental_uris":{"android":"levelo://app?vid=e9556d91-6189-4203-8f01-ccae0efe1551","ios":"levelo://app?vid=e9556d91-6189-4203-8f01-ccae0efe1551"},"vehicle_type_id":"4","last_reported":1686616916,"current_range_meters":30800,"station_id":"ce4bgt12rcd13ifvqce0","pricing_plan_id":"free"},{"bike_id":"25d805fd-1d61-401c-9657-537d969db265","system_id":"levelo_inurba_marseille","lat":43.308012,"lon":5.381511,"is_reserved":false,"is_disabled":false,"rental_uris":{"android":"levelo://app?vid=25d805fd-1d61-401c-9657-537d969db265","ios":"levelo://app?vid=25d805fd-1d61-401c-9657-537d969db265"},"vehicle_type_id":"4","last_reported":1686616916,"current_range_meters":24000,"station_id":"ce4bgt12rcd13ifvqce0","pricing_plan_id":"free"},{"bike_id":"08e809ea-b5a6-45a2-b808-0c3c51becd58","system_id":"levelo_inurba_marseille","lat":43.308012,"lon":5.381511,"is_reserved":false,"is_disabled":false,"rental_uris":{"android":"levelo://app?vid=08e809ea-b5a6-45a2-b808-0c3c51becd58","ios":"levelo://app?vid=08e809ea-b5a6-45a2-b808-0c3c51becd58"},"vehicle_type_id":"4","last_reported":1686616916,"current_range_meters":24400,"station_id":"ce4bgt12rcd13ifvqce0","pricing_plan_id":"free"},{"bike_id":"1bac387a-baa0-4faf-b9c8-002be9ad92b7","system_id":"levelo_inurba_marseille","lat":43.308012,"lon":5.381511,"is_reserved":false,"is_disabled":false,"rental_uris":{"android":"levelo://app?vid=1bac387a-baa0-4faf-b9c8-002be9ad92b7","ios":"levelo://app?vid=1bac387a-baa0-4faf-b9c8-002be9ad92b7"},"vehicle_type_id":"4","last_reported":1686616916,"current_range_meters":30000,"station_id":"ce4bgt12rcd13ifvqce0","pricing_plan_id":"free"},{"bike_id":"54091f13-ad77-4e04-b2cb-d4cf5d5f6ac2","system_id":"levelo_inurba_marseille","lat":43.308012,"lon":5.381511,"is_reserved":false,"is_disabled":false,"rental_uris":{"android":"levelo://app?vid=54091f13-ad77-4e04-b2cb-d4cf5d5f6ac2","ios":"levelo://app?vid=54091f13-ad77-4e04-b2cb-d4cf5d5f6ac2"},"vehicle_type_id":"4","last_reported":1686616916,"current_range_meters":17200,"station_id":"ce4bgt12rcd13ifvqce0","pricing_plan_id":"free"},{"bike_id":"e4eb563a-2d01-4fac-972d-7f62e590ead0","system_id":"levelo_inurba_marseille","lat":43.308012,"lon":5.381511,"is_reserved":false,"is_disabled":false,"rental_uris":{"android":"levelo://app?vid=e4eb563a-2d01-4fac-972d-7f62e590ead0","ios":"levelo://app?vid=e4eb563a-2d01-4fac-972d-7f62e590ead0"},"vehicle_type_id":"4","last_reported":1686616916,"current_range_meters":31200,"station_id":"ce4bgt12rcd13ifvqce0","pricing_plan_id":"free"},{"bike_id":"228cc724-7f72-4245-8a16-e3e7a29c6e20","system_id":"levelo_inurba_marseille","lat":43.30798,"lon":5.38159,"is_reserved":false,"is_disabled":false,"rental_uris":{"android":"levelo://app?vid=228cc724-7f72-4245-8a16-e3e7a29c6e20","ios":"levelo://app?vid=228cc724-7f72-4245-8a16-e3e7a29c6e20"},"vehicle_type_id":"4","last_reported":1686616916,"current_range_meters":17600,"station_id":"","pricing_plan_id":"free"},{"bike_id":"f07de445-9260-4b0e-ad41-3caeda06d319","system_id":"levelo_inurba_marseille","lat":43.308012,"lon":5.381511,"is_reserved":false,"is_disabled":false,"rental_uris":{"android":"levelo://app?vid=f07de445-9260-4b0e-ad41-3caeda06d319","ios":"levelo://app?vid=f07de445-9260-4b0e-ad41-3caeda06d319"},"vehicle_type_id":"4","last_reported":1686616916,"current_range_meters":31200,"station_id":"ce4bgt12rcd13ifvqce0","pricing_plan_id":"free"},{"bike_id":"a3b963d7-f9da-47f6-8a41-b2f71fb1ea0d","system_id":"levelo_inurba_marseille","lat":43.304606,"lon":5.379026,"is_reserved":false,"is_disabled":false,"rental_uris":{"android":"levelo://app?vid=a3b963d7-f9da-47f6-8a41-b2f71fb1ea0d","ios":"levelo://app?vid=a3b963d7-f9da-47f6-8a41-b2f71fb1ea0d"},"vehicle_type_id":"4","last_reported":1686616916,"current_range_meters":28400,"station_id":"ce4bgup2rcd13ifvqcn0","pricing_plan_id":"free"},{"bike_id":"8eabf04c-f168-462c-be9e-906f3c6b9f70","system_id":"levelo_inurba_marseille","lat":43.304606,"lon":5.379026,"is_reserved":false,"is_disabled":false,"rental_uris":{"android":"levelo://app?vid=8eabf04c-f168-462c-be9e-906f3c6b9f70","ios":"levelo://app?vid=8eabf04c-f168-462c-be9e-906f3c6b9f70"},"vehicle_type_id":"4","last_reported":1686616916,"current_range_meters":28400,"station_id":"ce4bgup2rcd13ifvqcn0","pricing_plan_id":"free"},{"bike_id":"052cfb4c-4e78-4556-8ee0-4a4e40282fd8","system_id":"levelo_inurba_marseille","lat":43.30146,"lon":5.3741,"is_reserved":false,"is_disabled":false,"rental_uris":{"android":"levelo://app?vid=052cfb4c-4e78-4556-8ee0-4a4e40282fd8","ios":"levelo://app?vid=052cfb4c-4e78-4556-8ee0-4a4e40282fd8"},"vehicle_type_id":"4","last_reported":1686616916,"current_range_meters":21600,"station_id":"ce4bgs92rcd13ifvqcc0","pricing_plan_id":"free"},{"bike_id":"2d5679d1-779c-4c4e-afe1-5d38890a4d3b","system_id":"levelo_inurba_marseille","lat":43.32,"lon":5.38148,"is_reserved":false,"is_disabled":false,"rental_uris":{"android":"levelo://app?vid=2d5679d1-779c-4c4e-afe1-5d38890a4d3b","ios":"levelo://app?vid=2d5679d1-779c-4c4e-afe1-5d38890a4d3b"},"vehicle_type_id":"4","last_reported":1686616916,"current_range_meters":31200,"station_id":"ce4bhr12rcd13ifvqhpg","pricing_plan_id":"free"},{"bike_id":"53be99d0-4300-4f33-aa2a-8622745e539e","system_id":"levelo_inurba_marseille","lat":43.319935,"lon":5.381623,"is_reserved":false,"is_disabled":false,"rental_uris":{"android":"levelo://app?vid=53be99d0-4300-4f33-aa2a-8622745e539e","ios":"levelo://app?vid=53be99d0-4300-4f33-aa2a-8622745e539e"},"vehicle_type_id":"4","last_reported":1686616916,"current_range_meters":25200,"station_id":"ce4bhr12rcd13ifvqhpg","pricing_plan_id":"free"},{"bike_id":"31a3da9b-f536-496b-af9a-79b9d3d919c9","system_id":"levelo_inurba_marseille","lat":43.32,"lon":5.38157,"is_reserved":false,"is_disabled":false,"rental_uris":{"android":"levelo://app?vid=31a3da9b-f536-496b-af9a-79b9d3d919c9","ios":"levelo://app?vid=31a3da9b-f536-496b-af9a-79b9d3d919c9"},"vehicle_type_id":"4","last_reported":1686616916,"current_range_meters":31200,"station_id":"ce4bhr12rcd13ifvqhpg","pricing_plan_id":"free"},{"bike_id":"241479bc-85d3-4b05-8f6f-1c276f5686ac","system_id":"levelo_inurba_marseille","lat":43.31992,"lon":5.38168,"is_reserved":false,"is_disabled":false,"rental_uris":{"android":"levelo://app?vid=241479bc-85d3-4b05-8f6f-1c276f5686ac","ios":"levelo://app?vid=241479bc-85d3-4b05-8f6f-1c276f5686ac"},"vehicle_type_id":"4","last_reported":1686616916,"current_range_meters":29600,"station_id":"ce4bhr12rcd13ifvqhpg","pricing_plan_id":"free"},{"bike_id":"cb649b85-9306-4656-8ece-b7a47a24b371","system_id":"levelo_inurba_marseille","lat":43.313571,"lon":5.384829,"is_reserved":false,"is_disabled":false,"rental_uris":{"android":"levelo://app?vid=cb649b85-9306-4656-8ece-b7a47a24b371","ios":"levelo://app?vid=cb649b85-9306-4656-8ece-b7a47a24b371"},"vehicle_type_id":"4","last_reported":1686616916,"current_range_meters":12400,"station_id":"ce4bgt92rcd13ifvqcf0","pricing_plan_id":"free"},{"bike_id":"7ebb3b84-8461-4a02-a883-e30c4e7a95ab","system_id":"levelo_inurba_marseille","lat":43.313571,"lon":5.384829,"is_reserved":false,"is_disabled":false,"rental_uris":{"android":"levelo://app?vid=7ebb3b84-8461-4a02-a883-e30c4e7a95ab","ios":"levelo://app?vid=7ebb3b84-8461-4a02-a883-e30c4e7a95ab"},"vehicle_type_id":"4","last_reported":1686616916,"current_range_meters":30800,"station_id":"ce4bgt92rcd13ifvqcf0","pricing_plan_id":"free"},{"bike_id":"3f470675-5b24-4339-bf9f-faba94c5d3b8","system_id":"levelo_inurba_marseille","lat":43.313571,"lon":5.384829,"is_reserved":false,"is_disabled":false,"rental_uris":{"android":"levelo://app?vid=3f470675-5b24-4339-bf9f-faba94c5d3b8","ios":"levelo://app?vid=3f470675-5b24-4339-bf9f-faba94c5d3b8"},"vehicle_type_id":"4","last_reported":1686616916,"current_range_meters":26000,"station_id":"ce4bgt92rcd13ifvqcf0","pricing_plan_id":"free"},{"bike_id":"490e6fdf-9942-430a-9b24-fbe525b281fd","system_id":"levelo_inurba_marseille","lat":43.313571,"lon":5.384829,"is_reserved":false,"is_disabled":false,"rental_uris":{"android":"levelo://app?vid=490e6fdf-9942-430a-9b24-fbe525b281fd","ios":"levelo://app?vid=490e6fdf-9942-430a-9b24-fbe525b281fd"},"vehicle_type_id":"4","last_reported":1686616916,"current_range_meters":27200,"station_id":"ce4bgt92rcd13ifvqcf0","pricing_plan_id":"free"},{"bike_id":"223e2019-fce8-432d-b885-7860cc9c1b88","system_id":"levelo_inurba_marseille","lat":43.313571,"lon":5.384829,"is_reserved":false,"is_disabled":false,"rental_uris":{"android":"levelo://app?vid=223e2019-fce8-432d-b885-7860cc9c1b88","ios":"levelo://app?vid=223e2019-fce8-432d-b885-7860cc9c1b88"},"vehicle_type_id":"4","last_reported":1686616916,"current_range_meters":19200,"station_id":"ce4bgt92rcd13ifvqcf0","pricing_plan_id":"free"},{"bike_id":"a4d105a5-3c82-4659-b281-f56532fcafe7","system_id":"levelo_inurba_marseille","lat":43.31366,"lon":5.38501,"is_reserved":false,"is_disabled":false,"rental_uris":{"android":"levelo://app?vid=a4d105a5-3c82-4659-b281-f56532fcafe7","ios":"levelo://app?vid=a4d105a5-3c82-4659-b281-f56532fcafe7"},"vehicle_type_id":"4","last_reported":1686616916,"current_range_meters":5200,"station_id":"ce4bgt92rcd13ifvqcf0","pricing_plan_id":"free"},{"bike_id":"8571fd52-3e35-447a-896f-95d7d61c2eb1","system_id":"levelo_inurba_marseille","lat":43.29932,"lon":5.36533,"is_reserved":false,"is_disabled":false,"rental_uris":{"android":"levelo://app?vid=8571fd52-3e35-447a-896f-95d7d61c2eb1","ios":"levelo://app?vid=8571fd52-3e35-447a-896f-95d7d61c2eb1"},"vehicle_type_id":"4","last_reported":1686616916,"current_range_meters":7600,"station_id":"ce4bgm92rcd13ifvqbr0","pricing_plan_id":"free"},{"bike_id":"fce121e6-4cfd-4d04-a5f7-b3c122fcbce5","system_id":"levelo_inurba_marseille","lat":43.299222,"lon":5.365554,"is_reserved":false,"is_disabled":false,"rental_uris":{"android":"levelo://app?vid=fce121e6-4cfd-4d04-a5f7-b3c122fcbce5","ios":"levelo://app?vid=fce121e6-4cfd-4d04-a5f7-b3c122fcbce5"},"vehicle_type_id":"4","last_reported":1686616916,"current_range_meters":26800,"station_id":"ce4bgm92rcd13ifvqbr0","pricing_plan_id":"free"},{"bike_id":"e00f80a6-10a5-4342-9918-189d9827d2fa","system_id":"levelo_inurba_marseille","lat":43.299222,"lon":5.365554,"is_reserved":false,"is_disabled":false,"rental_uris":{"android":"levelo://app?vid=e00f80a6-10a5-4342-9918-189d9827d2fa","ios":"levelo://app?vid=e00f80a6-10a5-4342-9918-189d9827d2fa"},"vehicle_type_id":"4","last_reported":1686616916,"current_range_meters":31200,"station_id":"ce4bgm92rcd13ifvqbr0","pricing_plan_id":"free"},{"bike_id":"bc02f6ad-8898-4750-9aa5-77aaaf4d7501","system_id":"levelo_inurba_marseille","lat":43.3054,"lon":5.38424,"is_reserved":false,"is_disabled":false,"rental_uris":{"android":"levelo://app?vid=bc02f6ad-8898-4750-9aa5-77aaaf4d7501","ios":"levelo://app?vid=bc02f6ad-8898-4750-9aa5-77aaaf4d7501"},"vehicle_type_id":"4","last_reported":1686616916,"current_range_meters":14000,"station_id":"ce4bgg92rcd13ifvqb30","pricing_plan_id":"free"},{"bike_id":"487f7a82-4fc4-481c-b0ea-f122c0254040","system_id":"levelo_inurba_marseille","lat":43.311722,"lon":5.387247,"is_reserved":false,"is_disabled":false,"rental_uris":{"android":"levelo://app?vid=487f7a82-4fc4-481c-b0ea-f122c0254040","ios":"levelo://app?vid=487f7a82-4fc4-481c-b0ea-f122c0254040"},"vehicle_type_id":"4","last_reported":1686616916,"current_range_meters":31200,"station_id":"ce4bgv12rcd13ifvqcp0","pricing_plan_id":"free"},{"bike_id":"e7cf2b77-783e-4ab5-a8bc-113bf5670edd","system_id":"levelo_inurba_marseille","lat":43.3117,"lon":5.38713,"is_reserved":false,"is_disabled":false,"rental_uris":{"android":"levelo://app?vid=e7cf2b77-783e-4ab5-a8bc-113bf5670edd","ios":"levelo://app?vid=e7cf2b77-783e-4ab5-a8bc-113bf5670edd"},"vehicle_type_id":"4","last_reported":1686616916,"current_range_meters":11200,"station_id":"ce4bgv12rcd13ifvqcp0","pricing_plan_id":"free"},{"bike_id":"5cbb820f-f31e-4097-8ea7-d2f05e07c3ef","system_id":"levelo_inurba_marseille","lat":43.311722,"lon":5.387247,"is_reserved":false,"is_disabled":false,"rental_uris":{"android":"levelo://app?vid=5cbb820f-f31e-4097-8ea7-d2f05e07c3ef","ios":"levelo://app?vid=5cbb820f-f31e-4097-8ea7-d2f05e07c3ef"},"vehicle_type_id":"4","last_reported":1686616916,"current_range_meters":28400,"station_id":"ce4bgv12rcd13ifvqcp0","pricing_plan_id":"free"},{"bike_id":"d92d17b5-bfb9-4650-a262-f0ecc0db524c","system_id":"levelo_inurba_marseille","lat":43.311722,"lon":5.387247,"is_reserved":false,"is_disabled":false,"rental_uris":{"android":"levelo://app?vid=d92d17b5-bfb9-4650-a262-f0ecc0db524c","ios":"levelo://app?vid=d92d17b5-bfb9-4650-a262-f0ecc0db524c"},"vehicle_type_id":"4","last_reported":1686616916,"current_range_meters":30000,"station_id":"ce4bgv12rcd13ifvqcp0","pricing_plan_id":"free"},{"bike_id":"7a6d8643-790d-43a5-acbb-b829fcfe6bf3","system_id":"levelo_inurba_marseille","lat":43.31172,"lon":5.38716,"is_reserved":false,"is_disabled":false,"rental_uris":{"android":"levelo://app?vid=7a6d8643-790d-43a5-acbb-b829fcfe6bf3","ios":"levelo://app?vid=7a6d8643-790d-43a5-acbb-b829fcfe6bf3"},"vehicle_type_id":"4","last_reported":1686616916,"current_range_meters":9200,"station_id":"ce4bgv12rcd13ifvqcp0","pricing_plan_id":"free"},{"bike_id":"227202f2-7650-4c0c-b36b-010170ad8250","system_id":"levelo_inurba_marseille","lat":43.311722,"lon":5.387247,"is_reserved":false,"is_disabled":false,"rental_uris":{"android":"levelo://app?vid=227202f2-7650-4c0c-b36b-010170ad8250","ios":"levelo://app?vid=227202f2-7650-4c0c-b36b-010170ad8250"},"vehicle_type_id":"4","last_reported":1686616916,"current_range_meters":26800,"station_id":"ce4bgv12rcd13ifvqcp0","pricing_plan_id":"free"},{"bike_id":"10373a1f-7395-484b-9bf4-f643d1dc0ec7","system_id":"levelo_inurba_marseille","lat":43.32213,"lon":5.38284,"is_reserved":false,"is_disabled":false,"rental_uris":{"android":"levelo://app?vid=10373a1f-7395-484b-9bf4-f643d1dc0ec7","ios":"levelo://app?vid=10373a1f-7395-484b-9bf4-f643d1dc0ec7"},"vehicle_type_id":"4","last_reported":1686616916,"current_range_meters":23600,"station_id":"","pricing_plan_id":"free"},{"bike_id":"e63ab30a-c3da-4dff-9adc-d899ea37f38d","system_id":"levelo_inurba_marseille","lat":43.2972,"lon":5.36615,"is_reserved":false,"is_disabled":false,"rental_uris":{"android":"levelo://app?vid=e63ab30a-c3da-4dff-9adc-d899ea37f38d","ios":"levelo://app?vid=e63ab30a-c3da-4dff-9adc-d899ea37f38d"},"vehicle_type_id":"4","last_reported":1686616916,"current_range_meters":11600,"station_id":"","pricing_plan_id":"free"},{"bike_id":"88d0330c-5bb0-4a19-9b65-d4683b42e015","system_id":"levelo_inurba_marseille","lat":43.29683,"lon":5.36046,"is_reserved":false,"is_disabled":false,"rental_uris":{"android":"levelo://app?vid=88d0330c-5bb0-4a19-9b65-d4683b42e015","ios":"levelo://app?vid=88d0330c-5bb0-4a19-9b65-d4683b42e015"},"vehicle_type_id":"4","last_reported":1686616916,"current_range_meters":24000,"station_id":"ce4bgpp2rcd13ifvqc3g","pricing_plan_id":"free"},{"bike_id":"39eb588e-a8e6-4baf-8d39-bf56cc3eb436","system_id":"levelo_inurba_marseille","lat":43.309589,"lon":5.390258,"is_reserved":false,"is_disabled":false,"rental_uris":{"android":"levelo://app?vid=39eb588e-a8e6-4baf-8d39-bf56cc3eb436","ios":"levelo://app?vid=39eb588e-a8e6-4baf-8d39-bf56cc3eb436"},"vehicle_type_id":"4","last_reported":1686616916,"current_range_meters":29200,"station_id":"ce4bgup2rcd13ifvqco0","pricing_plan_id":"free"},{"bike_id":"d5697ef2-403f-41e4-a767-aca6744428ff","system_id":"levelo_inurba_marseille","lat":43.309589,"lon":5.390258,"is_reserved":false,"is_disabled":false,"rental_uris":{"android":"levelo://app?vid=d5697ef2-403f-41e4-a767-aca6744428ff","ios":"levelo://app?vid=d5697ef2-403f-41e4-a767-aca6744428ff"},"vehicle_type_id":"4","last_reported":1686616916,"current_range_meters":24400,"station_id":"ce4bgup2rcd13ifvqco0","pricing_plan_id":"free"},{"bike_id":"138d48b0-96a6-470c-be27-71a89d883193","system_id":"levelo_inurba_marseille","lat":43.309589,"lon":5.390258,"is_reserved":false,"is_disabled":false,"rental_uris":{"android":"levelo://app?vid=138d48b0-96a6-470c-be27-71a89d883193","ios":"levelo://app?vid=138d48b0-96a6-470c-be27-71a89d883193"},"vehicle_type_id":"4","last_reported":1686616916,"current_range_meters":28800,"station_id":"ce4bgup2rcd13ifvqco0","pricing_plan_id":"free"},{"bike_id":"225c7872-eaa4-4089-b361-77c4400a5087","system_id":"levelo_inurba_marseille","lat":43.317557,"lon":5.390173,"is_reserved":false,"is_disabled":false,"rental_uris":{"android":"levelo://app?vid=225c7872-eaa4-4089-b361-77c4400a5087","ios":"levelo://app?vid=225c7872-eaa4-4089-b361-77c4400a5087"},"vehicle_type_id":"4","last_reported":1686616916,"current_range_meters":31200,"station_id":"ce4bhqp2rcd13ifvqhng","pricing_plan_id":"free"},{"bike_id":"a14f2b33-da3d-47cd-8554-f9f4dd9a5489","system_id":"levelo_inurba_marseille","lat":43.31764,"lon":5.39017,"is_reserved":false,"is_disabled":false,"rental_uris":{"android":"levelo://app?vid=a14f2b33-da3d-47cd-8554-f9f4dd9a5489","ios":"levelo://app?vid=a14f2b33-da3d-47cd-8554-f9f4dd9a5489"},"vehicle_type_id":"4","last_reported":1686616916,"current_range_meters":28800,"station_id":"ce4bhqp2rcd13ifvqhng","pricing_plan_id":"free"},{"bike_id":"b909ed30-4755-4370-9370-327f2b4559b8","system_id":"levelo_inurba_marseille","lat":43.317557,"lon":5.390173,"is_reserved":false,"is_disabled":false,"rental_uris":{"android":"levelo://app?vid=b909ed30-4755-4370-9370-327f2b4559b8","ios":"levelo://app?vid=b909ed30-4755-4370-9370-327f2b4559b8"},"vehicle_type_id":"4","last_reported":1686616916,"current_range_meters":29600,"station_id":"ce4bhqp2rcd13ifvqhng","pricing_plan_id":"free"},{"bike_id":"0ce8ecc1-b4b9-45e8-8cfb-87a86f59a93b","system_id":"levelo_inurba_marseille","lat":43.304278,"lon":5.388868,"is_reserved":false,"is_disabled":false,"rental_uris":{"android":"levelo://app?vid=0ce8ecc1-b4b9-45e8-8cfb-87a86f59a93b","ios":"levelo://app?vid=0ce8ecc1-b4b9-45e8-8cfb-87a86f59a93b"},"vehicle_type_id":"4","last_reported":1686616916,"current_range_meters":31200,"station_id":"ce4bgk12rcd13ifvqbi0","pricing_plan_id":"free"},{"bike_id":"3c21fd11-4826-4592-ab73-e0380ae70908","system_id":"levelo_inurba_marseille","lat":43.304278,"lon":5.388868,"is_reserved":false,"is_disabled":false,"rental_uris":{"android":"levelo://app?vid=3c21fd11-4826-4592-ab73-e0380ae70908","ios":"levelo://app?vid=3c21fd11-4826-4592-ab73-e0380ae70908"},"vehicle_type_id":"4","last_reported":1686616916,"current_range_meters":29200,"station_id":"ce4bgk12rcd13ifvqbi0","pricing_plan_id":"free"},{"bike_id":"8fe1e687-83ef-452a-8f0a-921fdedf753b","system_id":"levelo_inurba_marseille","lat":43.304278,"lon":5.388868,"is_reserved":false,"is_disabled":false,"rental_uris":{"android":"levelo://app?vid=8fe1e687-83ef-452a-8f0a-921fdedf753b","ios":"levelo://app?vid=8fe1e687-83ef-452a-8f0a-921fdedf753b"},"vehicle_type_id":"4","last_reported":1686616916,"current_range_meters":14800,"station_id":"ce4bgk12rcd13ifvqbi0","pricing_plan_id":"free"},{"bike_id":"d74be59a-c28e-4f5e-946a-5551e76e8f93","system_id":"levelo_inurba_marseille","lat":43.299724,"lon":5.384848,"is_reserved":false,"is_disabled":false,"rental_uris":{"android":"levelo://app?vid=d74be59a-c28e-4f5e-946a-5551e76e8f93","ios":"levelo://app?vid=d74be59a-c28e-4f5e-946a-5551e76e8f93"},"vehicle_type_id":"4","last_reported":1686616916,"current_range_meters":2800,"station_id":"ce4bgj92rcd13ifvqbd0","pricing_plan_id":"free"},{"bike_id":"9e6cb235-fe65-45fb-85e0-c410fab4b87f","system_id":"levelo_inurba_marseille","lat":43.32367,"lon":5.388836,"is_reserved":false,"is_disabled":false,"rental_uris":{"android":"levelo://app?vid=9e6cb235-fe65-45fb-85e0-c410fab4b87f","ios":"levelo://app?vid=9e6cb235-fe65-45fb-85e0-c410fab4b87f"},"vehicle_type_id":"4","last_reported":1686616916,"current_range_meters":28000,"station_id":"ce4bhqp2rcd13ifvqhog","pricing_plan_id":"free"},{"bike_id":"2c9ad911-25e0-4222-8751-d809dfadd582","system_id":"levelo_inurba_marseille","lat":43.32367,"lon":5.388836,"is_reserved":false,"is_disabled":false,"rental_uris":{"android":"levelo://app?vid=2c9ad911-25e0-4222-8751-d809dfadd582","ios":"levelo://app?vid=2c9ad911-25e0-4222-8751-d809dfadd582"},"vehicle_type_id":"4","last_reported":1686616916,"current_range_meters":22800,"station_id":"ce4bhqp2rcd13ifvqhog","pricing_plan_id":"free"},{"bike_id":"ba3e56cc-ad3c-4319-8b1a-a576bc98d850","system_id":"levelo_inurba_marseille","lat":43.32367,"lon":5.388836,"is_reserved":false,"is_disabled":false,"rental_uris":{"android":"levelo://app?vid=ba3e56cc-ad3c-4319-8b1a-a576bc98d850","ios":"levelo://app?vid=ba3e56cc-ad3c-4319-8b1a-a576bc98d850"},"vehicle_type_id":"4","last_reported":1686616916,"current_range_meters":26000,"station_id":"ce4bhqp2rcd13ifvqhog","pricing_plan_id":"free"},{"bike_id":"ea6cfea9-3ee5-4e73-9098-b16615a56cd9","system_id":"levelo_inurba_marseille","lat":43.32367,"lon":5.388836,"is_reserved":false,"is_disabled":false,"rental_uris":{"android":"levelo://app?vid=ea6cfea9-3ee5-4e73-9098-b16615a56cd9","ios":"levelo://app?vid=ea6cfea9-3ee5-4e73-9098-b16615a56cd9"},"vehicle_type_id":"4","last_reported":1686616916,"current_range_meters":22400,"station_id":"ce4bhqp2rcd13ifvqhog","pricing_plan_id":"free"},{"bike_id":"c78bfe50-28c8-47b8-9d61-53b0e44412a3","system_id":"levelo_inurba_marseille","lat":43.32367,"lon":5.388836,"is_reserved":false,"is_disabled":false,"rental_uris":{"android":"levelo://app?vid=c78bfe50-28c8-47b8-9d61-53b0e44412a3","ios":"levelo://app?vid=c78bfe50-28c8-47b8-9d61-53b0e44412a3"},"vehicle_type_id":"4","last_reported":1686616916,"current_range_meters":31200,"station_id":"ce4bhqp2rcd13ifvqhog","pricing_plan_id":"free"},{"bike_id":"46855f82-9c64-4051-920e-312c6a202b8d","system_id":"levelo_inurba_marseille","lat":43.32367,"lon":5.388836,"is_reserved":false,"is_disabled":false,"rental_uris":{"android":"levelo://app?vid=46855f82-9c64-4051-920e-312c6a202b8d","ios":"levelo://app?vid=46855f82-9c64-4051-920e-312c6a202b8d"},"vehicle_type_id":"4","last_reported":1686616916,"current_range_meters":31200,"station_id":"ce4bhqp2rcd13ifvqhog","pricing_plan_id":"free"},{"bike_id":"e6a3dac9-7f09-471f-865b-75685d05e4ff","system_id":"levelo_inurba_marseille","lat":43.32367,"lon":5.388836,"is_reserved":false,"is_disabled":false,"rental_uris":{"android":"levelo://app?vid=e6a3dac9-7f09-471f-865b-75685d05e4ff","ios":"levelo://app?vid=e6a3dac9-7f09-471f-865b-75685d05e4ff"},"vehicle_type_id":"4","last_reported":1686616916,"current_range_meters":31200,"station_id":"ce4bhqp2rcd13ifvqhog","pricing_plan_id":"free"},{"bike_id":"91e70a52-1e7d-4517-a1af-205b2fb62940","system_id":"levelo_inurba_marseille","lat":43.32367,"lon":5.388836,"is_reserved":false,"is_disabled":false,"rental_uris":{"android":"levelo://app?vid=91e70a52-1e7d-4517-a1af-205b2fb62940","ios":"levelo://app?vid=91e70a52-1e7d-4517-a1af-205b2fb62940"},"vehicle_type_id":"4","last_reported":1686616916,"current_range_meters":22400,"station_id":"ce4bhqp2rcd13ifvqhog","pricing_plan_id":"free"},{"bike_id":"4e3d0354-a361-481e-9d1a-bf62aa1d1f98","system_id":"levelo_inurba_marseille","lat":43.29601,"lon":5.381084,"is_reserved":false,"is_disabled":false,"rental_uris":{"android":"levelo://app?vid=4e3d0354-a361-481e-9d1a-bf62aa1d1f98","ios":"levelo://app?vid=4e3d0354-a361-481e-9d1a-bf62aa1d1f98"},"vehicle_type_id":"4","last_reported":1686616916,"current_range_meters":24400,"station_id":"ce4bgl12rcd13ifvqbo0","pricing_plan_id":"free"},{"bike_id":"99c94968-8ad2-4f51-a854-5afa43642c6b","system_id":"levelo_inurba_marseille","lat":43.292749,"lon":5.368402,"is_reserved":false,"is_disabled":false,"rental_uris":{"android":"levelo://app?vid=99c94968-8ad2-4f51-a854-5afa43642c6b","ios":"levelo://app?vid=99c94968-8ad2-4f51-a854-5afa43642c6b"},"vehicle_type_id":"4","last_reported":1686616916,"current_range_meters":18000,"station_id":"ce4bhbp2rcd13ifvqesg","pricing_plan_id":"free"},{"bike_id":"81bc6c14-1edd-464f-b536-92fb3b35200a","system_id":"levelo_inurba_marseille","lat":43.305994,"lon":5.393687,"is_reserved":false,"is_disabled":false,"rental_uris":{"android":"levelo://app?vid=81bc6c14-1edd-464f-b536-92fb3b35200a","ios":"levelo://app?vid=81bc6c14-1edd-464f-b536-92fb3b35200a"},"vehicle_type_id":"4","last_reported":1686616916,"current_range_meters":8800,"station_id":"ce4bh0p2rcd13ifvqd80","pricing_plan_id":"free"},{"bike_id":"2cfe4556-9783-47b7-97f3-3ff1eb23ab2f","system_id":"levelo_inurba_marseille","lat":43.292311,"lon":5.360731,"is_reserved":false,"is_disabled":false,"rental_uris":{"android":"levelo://app?vid=2cfe4556-9783-47b7-97f3-3ff1eb23ab2f","ios":"levelo://app?vid=2cfe4556-9783-47b7-97f3-3ff1eb23ab2f"},"vehicle_type_id":"4","last_reported":1686616916,"current_range_meters":31600,"station_id":"ce4bhbh2rcd13ifvqeqg","pricing_plan_id":"free"},{"bike_id":"d1790a86-2fff-4824-b93c-b41629dfced3","system_id":"levelo_inurba_marseille","lat":43.3321,"lon":5.37912,"is_reserved":false,"is_disabled":false,"rental_uris":{"android":"levelo://app?vid=d1790a86-2fff-4824-b93c-b41629dfced3","ios":"levelo://app?vid=d1790a86-2fff-4824-b93c-b41629dfced3"},"vehicle_type_id":"4","last_reported":1686616916,"current_range_meters":20800,"station_id":"","pricing_plan_id":"free"},{"bike_id":"167b5fa7-fd62-4d48-b4c4-a2e898186f60","system_id":"levelo_inurba_marseille","lat":43.291675,"lon":5.371583,"is_reserved":false,"is_disabled":false,"rental_uris":{"android":"levelo://app?vid=167b5fa7-fd62-4d48-b4c4-a2e898186f60","ios":"levelo://app?vid=167b5fa7-fd62-4d48-b4c4-a2e898186f60"},"vehicle_type_id":"4","last_reported":1686616916,"current_range_meters":30000,"station_id":"ce4bha92rcd13ifvqeh0","pricing_plan_id":"free"},{"bike_id":"c3540223-e236-45f0-8b7a-ccb3cab366ee","system_id":"levelo_inurba_marseille","lat":43.298764,"lon":5.388973,"is_reserved":false,"is_disabled":false,"rental_uris":{"android":"levelo://app?vid=c3540223-e236-45f0-8b7a-ccb3cab366ee","ios":"levelo://app?vid=c3540223-e236-45f0-8b7a-ccb3cab366ee"},"vehicle_type_id":"4","last_reported":1686616916,"current_range_meters":20400,"station_id":"ce4bh392rcd13ifvqdl0","pricing_plan_id":"free"},{"bike_id":"3cb5d608-4ca6-41a4-b687-86aad8b89ec8","system_id":"levelo_inurba_marseille","lat":43.309038,"lon":5.396546,"is_reserved":false,"is_disabled":false,"rental_uris":{"android":"levelo://app?vid=3cb5d608-4ca6-41a4-b687-86aad8b89ec8","ios":"levelo://app?vid=3cb5d608-4ca6-41a4-b687-86aad8b89ec8"},"vehicle_type_id":"4","last_reported":1686616916,"current_range_meters":18400,"station_id":"ce4bh012rcd13ifvqcv0","pricing_plan_id":"free"},{"bike_id":"302b4c6f-20a2-488f-9606-77baf8366192","system_id":"levelo_inurba_marseille","lat":43.309038,"lon":5.396546,"is_reserved":false,"is_disabled":false,"rental_uris":{"android":"levelo://app?vid=302b4c6f-20a2-488f-9606-77baf8366192","ios":"levelo://app?vid=302b4c6f-20a2-488f-9606-77baf8366192"},"vehicle_type_id":"4","last_reported":1686616916,"current_range_meters":28400,"station_id":"ce4bh012rcd13ifvqcv0","pricing_plan_id":"free"},{"bike_id":"dad6d30e-66cc-4762-9d6c-98a79a4cfa97","system_id":"levelo_inurba_marseille","lat":43.309038,"lon":5.396546,"is_reserved":false,"is_disabled":false,"rental_uris":{"android":"levelo://app?vid=dad6d30e-66cc-4762-9d6c-98a79a4cfa97","ios":"levelo://app?vid=dad6d30e-66cc-4762-9d6c-98a79a4cfa97"},"vehicle_type_id":"4","last_reported":1686616916,"current_range_meters":13600,"station_id":"ce4bh012rcd13ifvqcv0","pricing_plan_id":"free"},{"bike_id":"c72d399b-ce65-4e71-bb4e-5e55b53aff3e","system_id":"levelo_inurba_marseille","lat":43.313291,"lon":5.396838,"is_reserved":false,"is_disabled":false,"rental_uris":{"android":"levelo://app?vid=c72d399b-ce65-4e71-bb4e-5e55b53aff3e","ios":"levelo://app?vid=c72d399b-ce65-4e71-bb4e-5e55b53aff3e"},"vehicle_type_id":"4","last_reported":1686616916,"current_range_meters":29200,"station_id":"ce4bgvp2rcd13ifvqcu0","pricing_plan_id":"free"},{"bike_id":"13d90531-4643-471a-b61f-38d25bfdf8e8","system_id":"levelo_inurba_marseille","lat":43.309038,"lon":5.396546,"is_reserved":false,"is_disabled":false,"rental_uris":{"android":"levelo://app?vid=13d90531-4643-471a-b61f-38d25bfdf8e8","ios":"levelo://app?vid=13d90531-4643-471a-b61f-38d25bfdf8e8"},"vehicle_type_id":"4","last_reported":1686616916,"current_range_meters":800,"station_id":"ce4bh012rcd13ifvqcv0","pricing_plan_id":"free"},{"bike_id":"c01a2918-1515-4c03-9626-314f30caa7f8","system_id":"levelo_inurba_marseille","lat":43.313291,"lon":5.396838,"is_reserved":false,"is_disabled":false,"rental_uris":{"android":"levelo://app?vid=c01a2918-1515-4c03-9626-314f30caa7f8","ios":"levelo://app?vid=c01a2918-1515-4c03-9626-314f30caa7f8"},"vehicle_type_id":"4","last_reported":1686616916,"current_range_meters":30000,"station_id":"ce4bgvp2rcd13ifvqcu0","pricing_plan_id":"free"},{"bike_id":"72475053-be63-4034-9945-5238c7431aee","system_id":"levelo_inurba_marseille","lat":43.309038,"lon":5.396546,"is_reserved":false,"is_disabled":false,"rental_uris":{"android":"levelo://app?vid=72475053-be63-4034-9945-5238c7431aee","ios":"levelo://app?vid=72475053-be63-4034-9945-5238c7431aee"},"vehicle_type_id":"4","last_reported":1686616916,"current_range_meters":31200,"station_id":"ce4bh012rcd13ifvqcv0","pricing_plan_id":"free"},{"bike_id":"6dd2cc0c-3b2b-458c-bf09-26335dc63dec","system_id":"levelo_inurba_marseille","lat":43.309038,"lon":5.396546,"is_reserved":false,"is_disabled":false,"rental_uris":{"android":"levelo://app?vid=6dd2cc0c-3b2b-458c-bf09-26335dc63dec","ios":"levelo://app?vid=6dd2cc0c-3b2b-458c-bf09-26335dc63dec"},"vehicle_type_id":"4","last_reported":1686616916,"current_range_meters":9600,"station_id":"ce4bh012rcd13ifvqcv0","pricing_plan_id":"free"},{"bike_id":"f229df0d-2729-4e8d-b6c9-8b9c5f38205c","system_id":"levelo_inurba_marseille","lat":43.309038,"lon":5.396546,"is_reserved":false,"is_disabled":false,"rental_uris":{"android":"levelo://app?vid=f229df0d-2729-4e8d-b6c9-8b9c5f38205c","ios":"levelo://app?vid=f229df0d-2729-4e8d-b6c9-8b9c5f38205c"},"vehicle_type_id":"4","last_reported":1686616916,"current_range_meters":30400,"station_id":"ce4bh012rcd13ifvqcv0","pricing_plan_id":"free"},{"bike_id":"cda0442e-64f4-4c8b-a697-13deaa53c9e8","system_id":"levelo_inurba_marseille","lat":43.313291,"lon":5.396838,"is_reserved":false,"is_disabled":false,"rental_uris":{"android":"levelo://app?vid=cda0442e-64f4-4c8b-a697-13deaa53c9e8","ios":"levelo://app?vid=cda0442e-64f4-4c8b-a697-13deaa53c9e8"},"vehicle_type_id":"4","last_reported":1686616916,"current_range_meters":16400,"station_id":"ce4bgvp2rcd13ifvqcu0","pricing_plan_id":"free"},{"bike_id":"7aa887fd-9509-4e3e-ae7f-76836a1f5c93","system_id":"levelo_inurba_marseille","lat":43.313291,"lon":5.396838,"is_reserved":false,"is_disabled":false,"rental_uris":{"android":"levelo://app?vid=7aa887fd-9509-4e3e-ae7f-76836a1f5c93","ios":"levelo://app?vid=7aa887fd-9509-4e3e-ae7f-76836a1f5c93"},"vehicle_type_id":"4","last_reported":1686616916,"current_range_meters":19200,"station_id":"ce4bgvp2rcd13ifvqcu0","pricing_plan_id":"free"},{"bike_id":"df36824a-dcd9-445a-83a9-b8cc6eb3d6bd","system_id":"levelo_inurba_marseille","lat":43.309038,"lon":5.396546,"is_reserved":false,"is_disabled":false,"rental_uris":{"android":"levelo://app?vid=df36824a-dcd9-445a-83a9-b8cc6eb3d6bd","ios":"levelo://app?vid=df36824a-dcd9-445a-83a9-b8cc6eb3d6bd"},"vehicle_type_id":"4","last_reported":1686616916,"current_range_meters":28800,"station_id":"ce4bh012rcd13ifvqcv0","pricing_plan_id":"free"},{"bike_id":"affd90ed-07aa-404e-bbe7-000e196c9f5c","system_id":"levelo_inurba_marseille","lat":43.308935,"lon":5.396453,"is_reserved":false,"is_disabled":false,"rental_uris":{"android":"levelo://app?vid=affd90ed-07aa-404e-bbe7-000e196c9f5c","ios":"levelo://app?vid=affd90ed-07aa-404e-bbe7-000e196c9f5c"},"vehicle_type_id":"4","last_reported":1686616916,"current_range_meters":23600,"station_id":"","pricing_plan_id":"free"},{"bike_id":"14066299-bed7-4c02-a922-34eae844b8b1","system_id":"levelo_inurba_marseille","lat":43.309038,"lon":5.396546,"is_reserved":false,"is_disabled":false,"rental_uris":{"android":"levelo://app?vid=14066299-bed7-4c02-a922-34eae844b8b1","ios":"levelo://app?vid=14066299-bed7-4c02-a922-34eae844b8b1"},"vehicle_type_id":"4","last_reported":1686616916,"current_range_meters":26400,"station_id":"ce4bh012rcd13ifvqcv0","pricing_plan_id":"free"},{"bike_id":"5fb96060-9ab4-4a4a-86d6-8a2df976c11a","system_id":"levelo_inurba_marseille","lat":43.309038,"lon":5.396546,"is_reserved":false,"is_disabled":false,"rental_uris":{"android":"levelo://app?vid=5fb96060-9ab4-4a4a-86d6-8a2df976c11a","ios":"levelo://app?vid=5fb96060-9ab4-4a4a-86d6-8a2df976c11a"},"vehicle_type_id":"4","last_reported":1686616916,"current_range_meters":31200,"station_id":"ce4bh012rcd13ifvqcv0","pricing_plan_id":"free"},{"bike_id":"2135837d-4fda-45b0-a0c3-27be307cb340","system_id":"levelo_inurba_marseille","lat":43.309038,"lon":5.396546,"is_reserved":false,"is_disabled":false,"rental_uris":{"android":"levelo://app?vid=2135837d-4fda-45b0-a0c3-27be307cb340","ios":"levelo://app?vid=2135837d-4fda-45b0-a0c3-27be307cb340"},"vehicle_type_id":"4","last_reported":1686616916,"current_range_meters":23200,"station_id":"ce4bh012rcd13ifvqcv0","pricing_plan_id":"free"},{"bike_id":"37431231-1437-41ba-aede-a60c625cb93b","system_id":"levelo_inurba_marseille","lat":43.313291,"lon":5.396838,"is_reserved":false,"is_disabled":false,"rental_uris":{"android":"levelo://app?vid=37431231-1437-41ba-aede-a60c625cb93b","ios":"levelo://app?vid=37431231-1437-41ba-aede-a60c625cb93b"},"vehicle_type_id":"4","last_reported":1686616916,"current_range_meters":12400,"station_id":"ce4bgvp2rcd13ifvqcu0","pricing_plan_id":"free"},{"bike_id":"427ddd4e-3469-48b9-9338-8592dce62526","system_id":"levelo_inurba_marseille","lat":43.309038,"lon":5.396546,"is_reserved":false,"is_disabled":false,"rental_uris":{"android":"levelo://app?vid=427ddd4e-3469-48b9-9338-8592dce62526","ios":"levelo://app?vid=427ddd4e-3469-48b9-9338-8592dce62526"},"vehicle_type_id":"4","last_reported":1686616916,"current_range_meters":5600,"station_id":"ce4bh012rcd13ifvqcv0","pricing_plan_id":"free"},{"bike_id":"7f3131e1-f81e-4225-9a0c-130153a2a8a1","system_id":"levelo_inurba_marseille","lat":43.313291,"lon":5.396838,"is_reserved":false,"is_disabled":false,"rental_uris":{"android":"levelo://app?vid=7f3131e1-f81e-4225-9a0c-130153a2a8a1","ios":"levelo://app?vid=7f3131e1-f81e-4225-9a0c-130153a2a8a1"},"vehicle_type_id":"4","last_reported":1686616916,"current_range_meters":6800,"station_id":"ce4bgvp2rcd13ifvqcu0","pricing_plan_id":"free"},{"bike_id":"2f1be7c7-b312-4957-946c-605052015bc2","system_id":"levelo_inurba_marseille","lat":43.313291,"lon":5.396838,"is_reserved":false,"is_disabled":false,"rental_uris":{"android":"levelo://app?vid=2f1be7c7-b312-4957-946c-605052015bc2","ios":"levelo://app?vid=2f1be7c7-b312-4957-946c-605052015bc2"},"vehicle_type_id":"4","last_reported":1686616916,"current_range_meters":3200,"station_id":"ce4bgvp2rcd13ifvqcu0","pricing_plan_id":"free"},{"bike_id":"0bef4b14-1fee-4703-82ce-5c570120e986","system_id":"levelo_inurba_marseille","lat":43.309038,"lon":5.396546,"is_reserved":false,"is_disabled":false,"rental_uris":{"android":"levelo://app?vid=0bef4b14-1fee-4703-82ce-5c570120e986","ios":"levelo://app?vid=0bef4b14-1fee-4703-82ce-5c570120e986"},"vehicle_type_id":"4","last_reported":1686616916,"current_range_meters":30400,"station_id":"ce4bh012rcd13ifvqcv0","pricing_plan_id":"free"},{"bike_id":"3f4e0ca1-7de0-4f21-a89b-6fbfc9b4a43a","system_id":"levelo_inurba_marseille","lat":43.290631,"lon":5.359244,"is_reserved":false,"is_disabled":false,"rental_uris":{"android":"levelo://app?vid=3f4e0ca1-7de0-4f21-a89b-6fbfc9b4a43a","ios":"levelo://app?vid=3f4e0ca1-7de0-4f21-a89b-6fbfc9b4a43a"},"vehicle_type_id":"4","last_reported":1686616916,"current_range_meters":31200,"station_id":"ce4bha92rcd13ifvqeg0","pricing_plan_id":"free"},{"bike_id":"c6c9a4a9-c19d-4793-bb4c-546d7b5de601","system_id":"levelo_inurba_marseille","lat":43.290631,"lon":5.359244,"is_reserved":false,"is_disabled":false,"rental_uris":{"android":"levelo://app?vid=c6c9a4a9-c19d-4793-bb4c-546d7b5de601","ios":"levelo://app?vid=c6c9a4a9-c19d-4793-bb4c-546d7b5de601"},"vehicle_type_id":"4","last_reported":1686616916,"current_range_meters":29600,"station_id":"ce4bha92rcd13ifvqeg0","pricing_plan_id":"free"},{"bike_id":"6fab9e1c-b92e-492e-99e2-2a0d029c44a7","system_id":"levelo_inurba_marseille","lat":43.290631,"lon":5.359244,"is_reserved":false,"is_disabled":false,"rental_uris":{"android":"levelo://app?vid=6fab9e1c-b92e-492e-99e2-2a0d029c44a7","ios":"levelo://app?vid=6fab9e1c-b92e-492e-99e2-2a0d029c44a7"},"vehicle_type_id":"4","last_reported":1686616916,"current_range_meters":30800,"station_id":"ce4bha92rcd13ifvqeg0","pricing_plan_id":"free"},{"bike_id":"8d456b9e-aac3-4409-a7cc-d85961e73ef1","system_id":"levelo_inurba_marseille","lat":43.290631,"lon":5.359244,"is_reserved":false,"is_disabled":false,"rental_uris":{"android":"levelo://app?vid=8d456b9e-aac3-4409-a7cc-d85961e73ef1","ios":"levelo://app?vid=8d456b9e-aac3-4409-a7cc-d85961e73ef1"},"vehicle_type_id":"4","last_reported":1686616916,"current_range_meters":20400,"station_id":"ce4bha92rcd13ifvqeg0","pricing_plan_id":"free"},{"bike_id":"464a32f9-60a6-46e2-99cf-726cc637f86e","system_id":"levelo_inurba_marseille","lat":43.289184,"lon":5.366408,"is_reserved":false,"is_disabled":false,"rental_uris":{"android":"levelo://app?vid=464a32f9-60a6-46e2-99cf-726cc637f86e","ios":"levelo://app?vid=464a32f9-60a6-46e2-99cf-726cc637f86e"},"vehicle_type_id":"4","last_reported":1686616916,"current_range_meters":28800,"station_id":"ce4bhap2rcd13ifvqek0","pricing_plan_id":"free"},{"bike_id":"44ae5560-d43e-4b6b-ae3d-7ee245469fc4","system_id":"levelo_inurba_marseille","lat":43.289184,"lon":5.366408,"is_reserved":false,"is_disabled":false,"rental_uris":{"android":"levelo://app?vid=44ae5560-d43e-4b6b-ae3d-7ee245469fc4","ios":"levelo://app?vid=44ae5560-d43e-4b6b-ae3d-7ee245469fc4"},"vehicle_type_id":"4","last_reported":1686616916,"current_range_meters":29600,"station_id":"ce4bhap2rcd13ifvqek0","pricing_plan_id":"free"},{"bike_id":"86afddd2-c5dd-4418-9ee9-ae97d47dfe90","system_id":"levelo_inurba_marseille","lat":43.289468,"lon":5.363719,"is_reserved":false,"is_disabled":false,"rental_uris":{"android":"levelo://app?vid=86afddd2-c5dd-4418-9ee9-ae97d47dfe90","ios":"levelo://app?vid=86afddd2-c5dd-4418-9ee9-ae97d47dfe90"},"vehicle_type_id":"4","last_reported":1686616916,"current_range_meters":12400,"station_id":"ce4bhc92rcd13ifvqetg","pricing_plan_id":"free"},{"bike_id":"0a4beee8-1d0b-40b6-a628-dd56857f4693","system_id":"levelo_inurba_marseille","lat":43.294032,"lon":5.386342,"is_reserved":false,"is_disabled":false,"rental_uris":{"android":"levelo://app?vid=0a4beee8-1d0b-40b6-a628-dd56857f4693","ios":"levelo://app?vid=0a4beee8-1d0b-40b6-a628-dd56857f4693"},"vehicle_type_id":"4","last_reported":1686616916,"current_range_meters":14000,"station_id":"","pricing_plan_id":"free"},{"bike_id":"ff87d75a-e069-4392-92a4-cab34378b065","system_id":"levelo_inurba_marseille","lat":43.289468,"lon":5.363719,"is_reserved":false,"is_disabled":false,"rental_uris":{"android":"levelo://app?vid=ff87d75a-e069-4392-92a4-cab34378b065","ios":"levelo://app?vid=ff87d75a-e069-4392-92a4-cab34378b065"},"vehicle_type_id":"4","last_reported":1686616916,"current_range_meters":29200,"station_id":"ce4bhc92rcd13ifvqetg","pricing_plan_id":"free"},{"bike_id":"e2d53f80-0e95-41cf-803d-71aa5f41384e","system_id":"levelo_inurba_marseille","lat":43.304296,"lon":5.397513,"is_reserved":false,"is_disabled":false,"rental_uris":{"android":"levelo://app?vid=e2d53f80-0e95-41cf-803d-71aa5f41384e","ios":"levelo://app?vid=e2d53f80-0e95-41cf-803d-71aa5f41384e"},"vehicle_type_id":"4","last_reported":1686616916,"current_range_meters":30800,"station_id":"ce4bh092rcd13ifvqd20","pricing_plan_id":"free"},{"bike_id":"1c096b92-d73b-48f3-b43c-8265fd1feca0","system_id":"levelo_inurba_marseille","lat":43.330442,"lon":5.389148,"is_reserved":false,"is_disabled":false,"rental_uris":{"android":"levelo://app?vid=1c096b92-d73b-48f3-b43c-8265fd1feca0","ios":"levelo://app?vid=1c096b92-d73b-48f3-b43c-8265fd1feca0"},"vehicle_type_id":"4","last_reported":1686616916,"current_range_meters":30000,"station_id":"ce4bhr92rcd13ifvqhrg","pricing_plan_id":"free"},{"bike_id":"120db851-e9ef-4590-a985-3b99c7af3653","system_id":"levelo_inurba_marseille","lat":43.33045,"lon":5.38912,"is_reserved":false,"is_disabled":false,"rental_uris":{"android":"levelo://app?vid=120db851-e9ef-4590-a985-3b99c7af3653","ios":"levelo://app?vid=120db851-e9ef-4590-a985-3b99c7af3653"},"vehicle_type_id":"4","last_reported":1686616916,"current_range_meters":31200,"station_id":"ce4bhr92rcd13ifvqhrg","pricing_plan_id":"free"},{"bike_id":"0682686c-4550-4840-b6bd-646418c1927b","system_id":"levelo_inurba_marseille","lat":43.33043,"lon":5.38917,"is_reserved":false,"is_disabled":false,"rental_uris":{"android":"levelo://app?vid=0682686c-4550-4840-b6bd-646418c1927b","ios":"levelo://app?vid=0682686c-4550-4840-b6bd-646418c1927b"},"vehicle_type_id":"4","last_reported":1686616916,"current_range_meters":17600,"station_id":"ce4bhr92rcd13ifvqhrg","pricing_plan_id":"free"},{"bike_id":"d411c1be-10b4-4838-a93f-35add8fed384","system_id":"levelo_inurba_marseille","lat":43.330442,"lon":5.389148,"is_reserved":false,"is_disabled":false,"rental_uris":{"android":"levelo://app?vid=d411c1be-10b4-4838-a93f-35add8fed384","ios":"levelo://app?vid=d411c1be-10b4-4838-a93f-35add8fed384"},"vehicle_type_id":"4","last_reported":1686616916,"current_range_meters":21200,"station_id":"ce4bhr92rcd13ifvqhrg","pricing_plan_id":"free"},{"bike_id":"3f1bd78a-f1dd-4e51-b7e6-2d86b6a5ac61","system_id":"levelo_inurba_marseille","lat":43.33045,"lon":5.38917,"is_reserved":false,"is_disabled":false,"rental_uris":{"android":"levelo://app?vid=3f1bd78a-f1dd-4e51-b7e6-2d86b6a5ac61","ios":"levelo://app?vid=3f1bd78a-f1dd-4e51-b7e6-2d86b6a5ac61"},"vehicle_type_id":"4","last_reported":1686616916,"current_range_meters":24400,"station_id":"ce4bhr92rcd13ifvqhrg","pricing_plan_id":"free"},{"bike_id":"4e632f99-a7ad-4f2e-9dd7-c255ca77bfd2","system_id":"levelo_inurba_marseille","lat":43.33047,"lon":5.38916,"is_reserved":false,"is_disabled":false,"rental_uris":{"android":"levelo://app?vid=4e632f99-a7ad-4f2e-9dd7-c255ca77bfd2","ios":"levelo://app?vid=4e632f99-a7ad-4f2e-9dd7-c255ca77bfd2"},"vehicle_type_id":"4","last_reported":1686616916,"current_range_meters":31200,"station_id":"ce4bhr92rcd13ifvqhrg","pricing_plan_id":"free"},{"bike_id":"47e48fe1-2121-418f-8170-14d4fdc060a7","system_id":"levelo_inurba_marseille","lat":43.290104,"lon":5.356111,"is_reserved":false,"is_disabled":false,"rental_uris":{"android":"levelo://app?vid=47e48fe1-2121-418f-8170-14d4fdc060a7","ios":"levelo://app?vid=47e48fe1-2121-418f-8170-14d4fdc060a7"},"vehicle_type_id":"4","last_reported":1686616916,"current_range_meters":18800,"station_id":"ce4bhb92rcd13ifvqen0","pricing_plan_id":"free"},{"bike_id":"5cf79873-1b46-4e42-9a22-c76c5013ed98","system_id":"levelo_inurba_marseille","lat":43.295169,"lon":5.390426,"is_reserved":false,"is_disabled":false,"rental_uris":{"android":"levelo://app?vid=5cf79873-1b46-4e42-9a22-c76c5013ed98","ios":"levelo://app?vid=5cf79873-1b46-4e42-9a22-c76c5013ed98"},"vehicle_type_id":"4","last_reported":1686616916,"current_range_meters":16000,"station_id":"ce4bh3p2rcd13ifvqdp0","pricing_plan_id":"free"},{"bike_id":"a79959ec-0e97-465f-b895-8844e9b311f3","system_id":"levelo_inurba_marseille","lat":43.297814,"lon":5.393513,"is_reserved":false,"is_disabled":false,"rental_uris":{"android":"levelo://app?vid=a79959ec-0e97-465f-b895-8844e9b311f3","ios":"levelo://app?vid=a79959ec-0e97-465f-b895-8844e9b311f3"},"vehicle_type_id":"4","last_reported":1686616916,"current_range_meters":400,"station_id":"chh1huq6cuj3fo74tm60","pricing_plan_id":"free"},{"bike_id":"896391c9-e482-450b-880a-d2cc3b8e2502","system_id":"levelo_inurba_marseille","lat":43.28856,"lon":5.358371,"is_reserved":false,"is_disabled":false,"rental_uris":{"android":"levelo://app?vid=896391c9-e482-450b-880a-d2cc3b8e2502","ios":"levelo://app?vid=896391c9-e482-450b-880a-d2cc3b8e2502"},"vehicle_type_id":"4","last_reported":1686616916,"current_range_meters":28400,"station_id":"ce4bhb12rcd13ifvqem0","pricing_plan_id":"free"},{"bike_id":"7db606fa-1f23-4e47-96d3-2ee752540834","system_id":"levelo_inurba_marseille","lat":43.2902,"lon":5.38137,"is_reserved":false,"is_disabled":false,"rental_uris":{"android":"levelo://app?vid=7db606fa-1f23-4e47-96d3-2ee752540834","ios":"levelo://app?vid=7db606fa-1f23-4e47-96d3-2ee752540834"},"vehicle_type_id":"4","last_reported":1686616916,"current_range_meters":2800,"station_id":"ce4bh4p2rcd13ifvqe1g","pricing_plan_id":"free"},{"bike_id":"c0fb8083-e02d-4dec-b1b9-fa095e6c5b75","system_id":"levelo_inurba_marseille","lat":43.337396,"lon":5.374526,"is_reserved":false,"is_disabled":false,"rental_uris":{"android":"levelo://app?vid=c0fb8083-e02d-4dec-b1b9-fa095e6c5b75","ios":"levelo://app?vid=c0fb8083-e02d-4dec-b1b9-fa095e6c5b75"},"vehicle_type_id":"4","last_reported":1686616916,"current_range_meters":14800,"station_id":"ce4bhp92rcd13ifvqhag","pricing_plan_id":"free"},{"bike_id":"9515db1f-7189-4b41-aafc-7ec7a5d887e3","system_id":"levelo_inurba_marseille","lat":43.30936,"lon":5.4014,"is_reserved":false,"is_disabled":false,"rental_uris":{"android":"levelo://app?vid=9515db1f-7189-4b41-aafc-7ec7a5d887e3","ios":"levelo://app?vid=9515db1f-7189-4b41-aafc-7ec7a5d887e3"},"vehicle_type_id":"4","last_reported":1686616916,"current_range_meters":26400,"station_id":"ce4bgvp2rcd13ifvqct0","pricing_plan_id":"free"},{"bike_id":"e900097d-98df-44c9-84b3-7479563e711d","system_id":"levelo_inurba_marseille","lat":43.309371,"lon":5.401449,"is_reserved":false,"is_disabled":false,"rental_uris":{"android":"levelo://app?vid=e900097d-98df-44c9-84b3-7479563e711d","ios":"levelo://app?vid=e900097d-98df-44c9-84b3-7479563e711d"},"vehicle_type_id":"4","last_reported":1686616916,"current_range_meters":26400,"station_id":"ce4bgvp2rcd13ifvqct0","pricing_plan_id":"free"},{"bike_id":"4d5c9a9b-f985-4961-9b95-e6710ab15b55","system_id":"levelo_inurba_marseille","lat":43.309371,"lon":5.401449,"is_reserved":false,"is_disabled":false,"rental_uris":{"android":"levelo://app?vid=4d5c9a9b-f985-4961-9b95-e6710ab15b55","ios":"levelo://app?vid=4d5c9a9b-f985-4961-9b95-e6710ab15b55"},"vehicle_type_id":"4","last_reported":1686616916,"current_range_meters":17600,"station_id":"ce4bgvp2rcd13ifvqct0","pricing_plan_id":"free"},{"bike_id":"006d7dd6-3fac-4b09-8a63-0649611b1f98","system_id":"levelo_inurba_marseille","lat":43.309371,"lon":5.401449,"is_reserved":false,"is_disabled":false,"rental_uris":{"android":"levelo://app?vid=006d7dd6-3fac-4b09-8a63-0649611b1f98","ios":"levelo://app?vid=006d7dd6-3fac-4b09-8a63-0649611b1f98"},"vehicle_type_id":"4","last_reported":1686616916,"current_range_meters":22800,"station_id":"ce4bgvp2rcd13ifvqct0","pricing_plan_id":"free"},{"bike_id":"a1433cb2-96bc-4ac4-93e8-7a261de1e6e7","system_id":"levelo_inurba_marseille","lat":43.30932,"lon":5.40148,"is_reserved":false,"is_disabled":false,"rental_uris":{"android":"levelo://app?vid=a1433cb2-96bc-4ac4-93e8-7a261de1e6e7","ios":"levelo://app?vid=a1433cb2-96bc-4ac4-93e8-7a261de1e6e7"},"vehicle_type_id":"4","last_reported":1686616916,"current_range_meters":29600,"station_id":"ce4bgvp2rcd13ifvqct0","pricing_plan_id":"free"},{"bike_id":"b9355282-1b19-4560-8893-c8d31e0e19e8","system_id":"levelo_inurba_marseille","lat":43.306412,"lon":5.401035,"is_reserved":false,"is_disabled":false,"rental_uris":{"android":"levelo://app?vid=b9355282-1b19-4560-8893-c8d31e0e19e8","ios":"levelo://app?vid=b9355282-1b19-4560-8893-c8d31e0e19e8"},"vehicle_type_id":"4","last_reported":1686616916,"current_range_meters":8000,"station_id":"ce4bh112rcd13ifvqda0","pricing_plan_id":"free"},{"bike_id":"1a1f8da4-88b0-4044-a437-5610219fa53c","system_id":"levelo_inurba_marseille","lat":43.30642,"lon":5.401031,"is_reserved":false,"is_disabled":false,"rental_uris":{"android":"levelo://app?vid=1a1f8da4-88b0-4044-a437-5610219fa53c","ios":"levelo://app?vid=1a1f8da4-88b0-4044-a437-5610219fa53c"},"vehicle_type_id":"4","last_reported":1686616916,"current_range_meters":26800,"station_id":"ce4bh112rcd13ifvqda0","pricing_plan_id":"free"},{"bike_id":"e1080713-e3e4-40c3-a6a0-f0479965244b","system_id":"levelo_inurba_marseille","lat":43.306412,"lon":5.401035,"is_reserved":false,"is_disabled":false,"rental_uris":{"android":"levelo://app?vid=e1080713-e3e4-40c3-a6a0-f0479965244b","ios":"levelo://app?vid=e1080713-e3e4-40c3-a6a0-f0479965244b"},"vehicle_type_id":"4","last_reported":1686616916,"current_range_meters":20800,"station_id":"ce4bh112rcd13ifvqda0","pricing_plan_id":"free"},{"bike_id":"2a9bcae9-589b-4ca2-8f1c-28fbe468ead7","system_id":"levelo_inurba_marseille","lat":43.306412,"lon":5.401035,"is_reserved":false,"is_disabled":false,"rental_uris":{"android":"levelo://app?vid=2a9bcae9-589b-4ca2-8f1c-28fbe468ead7","ios":"levelo://app?vid=2a9bcae9-589b-4ca2-8f1c-28fbe468ead7"},"vehicle_type_id":"4","last_reported":1686616916,"current_range_meters":30400,"station_id":"ce4bh112rcd13ifvqda0","pricing_plan_id":"free"},{"bike_id":"5014e0e8-1091-4582-865b-ed616505b7c5","system_id":"levelo_inurba_marseille","lat":43.30633,"lon":5.40082,"is_reserved":false,"is_disabled":false,"rental_uris":{"android":"levelo://app?vid=5014e0e8-1091-4582-865b-ed616505b7c5","ios":"levelo://app?vid=5014e0e8-1091-4582-865b-ed616505b7c5"},"vehicle_type_id":"4","last_reported":1686616916,"current_range_meters":24000,"station_id":"ce4bh112rcd13ifvqda0","pricing_plan_id":"free"},{"bike_id":"999221cd-cfcd-468e-ac95-a381b876fef4","system_id":"levelo_inurba_marseille","lat":43.306412,"lon":5.401035,"is_reserved":false,"is_disabled":false,"rental_uris":{"android":"levelo://app?vid=999221cd-cfcd-468e-ac95-a381b876fef4","ios":"levelo://app?vid=999221cd-cfcd-468e-ac95-a381b876fef4"},"vehicle_type_id":"4","last_reported":1686616916,"current_range_meters":31200,"station_id":"ce4bh112rcd13ifvqda0","pricing_plan_id":"free"},{"bike_id":"9e8a0039-6974-4493-86ab-c762273116e4","system_id":"levelo_inurba_marseille","lat":43.306412,"lon":5.401035,"is_reserved":false,"is_disabled":false,"rental_uris":{"android":"levelo://app?vid=9e8a0039-6974-4493-86ab-c762273116e4","ios":"levelo://app?vid=9e8a0039-6974-4493-86ab-c762273116e4"},"vehicle_type_id":"4","last_reported":1686616916,"current_range_meters":16800,"station_id":"ce4bh112rcd13ifvqda0","pricing_plan_id":"free"},{"bike_id":"4b760633-cb7e-4d64-9aa1-4817e31c6a9e","system_id":"levelo_inurba_marseille","lat":43.306412,"lon":5.401035,"is_reserved":false,"is_disabled":false,"rental_uris":{"android":"levelo://app?vid=4b760633-cb7e-4d64-9aa1-4817e31c6a9e","ios":"levelo://app?vid=4b760633-cb7e-4d64-9aa1-4817e31c6a9e"},"vehicle_type_id":"4","last_reported":1686616916,"current_range_meters":25600,"station_id":"ce4bh112rcd13ifvqda0","pricing_plan_id":"free"},{"bike_id":"16da788a-0d5b-40fe-9e75-796419818da2","system_id":"levelo_inurba_marseille","lat":43.301117,"lon":5.398795,"is_reserved":false,"is_disabled":false,"rental_uris":{"android":"levelo://app?vid=16da788a-0d5b-40fe-9e75-796419818da2","ios":"levelo://app?vid=16da788a-0d5b-40fe-9e75-796419818da2"},"vehicle_type_id":"4","last_reported":1686616916,"current_range_meters":28000,"station_id":"ce4bh0h2rcd13ifvqd40","pricing_plan_id":"free"},{"bike_id":"3d7364d7-b716-49a8-a214-7273b554a851","system_id":"levelo_inurba_marseille","lat":43.30139,"lon":5.39877,"is_reserved":false,"is_disabled":false,"rental_uris":{"android":"levelo://app?vid=3d7364d7-b716-49a8-a214-7273b554a851","ios":"levelo://app?vid=3d7364d7-b716-49a8-a214-7273b554a851"},"vehicle_type_id":"4","last_reported":1686616916,"current_range_meters":20800,"station_id":"","pricing_plan_id":"free"},{"bike_id":"8bffc96a-ce82-4b93-90aa-a7beb255ac54","system_id":"levelo_inurba_marseille","lat":43.301117,"lon":5.398795,"is_reserved":false,"is_disabled":false,"rental_uris":{"android":"levelo://app?vid=8bffc96a-ce82-4b93-90aa-a7beb255ac54","ios":"levelo://app?vid=8bffc96a-ce82-4b93-90aa-a7beb255ac54"},"vehicle_type_id":"4","last_reported":1686616916,"current_range_meters":20400,"station_id":"ce4bh0h2rcd13ifvqd40","pricing_plan_id":"free"},{"bike_id":"acc9a16d-31a1-4915-802a-d90cd6285f4e","system_id":"levelo_inurba_marseille","lat":43.298681,"lon":5.397225,"is_reserved":false,"is_disabled":false,"rental_uris":{"android":"levelo://app?vid=acc9a16d-31a1-4915-802a-d90cd6285f4e","ios":"levelo://app?vid=acc9a16d-31a1-4915-802a-d90cd6285f4e"},"vehicle_type_id":"4","last_reported":1686616916,"current_range_meters":29200,"station_id":"ce4bh0h2rcd13ifvqd50","pricing_plan_id":"free"},{"bike_id":"ccb3a525-b300-4273-8631-4956ae5b0ec7","system_id":"levelo_inurba_marseille","lat":43.2871,"lon":5.37377,"is_reserved":false,"is_disabled":false,"rental_uris":{"android":"levelo://app?vid=ccb3a525-b300-4273-8631-4956ae5b0ec7","ios":"levelo://app?vid=ccb3a525-b300-4273-8631-4956ae5b0ec7"},"vehicle_type_id":"4","last_reported":1686616916,"current_range_meters":21600,"station_id":"","pricing_plan_id":"free"},{"bike_id":"80bc739a-9b6a-41cc-83b7-6ba44a310f21","system_id":"levelo_inurba_marseille","lat":43.28671,"lon":5.36338,"is_reserved":false,"is_disabled":false,"rental_uris":{"android":"levelo://app?vid=80bc739a-9b6a-41cc-83b7-6ba44a310f21","ios":"levelo://app?vid=80bc739a-9b6a-41cc-83b7-6ba44a310f21"},"vehicle_type_id":"4","last_reported":1686616916,"current_range_meters":27600,"station_id":"ce4bhah2rcd13ifvqej0","pricing_plan_id":"free"},{"bike_id":"d02baf04-0cec-4f1f-9bf8-77fd369ec519","system_id":"levelo_inurba_marseille","lat":43.298681,"lon":5.397225,"is_reserved":false,"is_disabled":false,"rental_uris":{"android":"levelo://app?vid=d02baf04-0cec-4f1f-9bf8-77fd369ec519","ios":"levelo://app?vid=d02baf04-0cec-4f1f-9bf8-77fd369ec519"},"vehicle_type_id":"4","last_reported":1686616916,"current_range_meters":25200,"station_id":"ce4bh0h2rcd13ifvqd50","pricing_plan_id":"free"},{"bike_id":"af17827f-99ef-430a-aa42-4028060c2630","system_id":"levelo_inurba_marseille","lat":43.28707,"lon":5.374,"is_reserved":false,"is_disabled":false,"rental_uris":{"android":"levelo://app?vid=af17827f-99ef-430a-aa42-4028060c2630","ios":"levelo://app?vid=af17827f-99ef-430a-aa42-4028060c2630"},"vehicle_type_id":"4","last_reported":1686616916,"current_range_meters":9200,"station_id":"","pricing_plan_id":"free"},{"bike_id":"e1b1afcc-fcc1-46d9-bfc5-c604bb685840","system_id":"levelo_inurba_marseille","lat":43.298681,"lon":5.397225,"is_reserved":false,"is_disabled":false,"rental_uris":{"android":"levelo://app?vid=e1b1afcc-fcc1-46d9-bfc5-c604bb685840","ios":"levelo://app?vid=e1b1afcc-fcc1-46d9-bfc5-c604bb685840"},"vehicle_type_id":"4","last_reported":1686616916,"current_range_meters":30000,"station_id":"ce4bh0h2rcd13ifvqd50","pricing_plan_id":"free"},{"bike_id":"e308896f-13f0-4de1-8039-0cfd14ded282","system_id":"levelo_inurba_marseille","lat":43.286591,"lon":5.363346,"is_reserved":false,"is_disabled":false,"rental_uris":{"android":"levelo://app?vid=e308896f-13f0-4de1-8039-0cfd14ded282","ios":"levelo://app?vid=e308896f-13f0-4de1-8039-0cfd14ded282"},"vehicle_type_id":"4","last_reported":1686616916,"current_range_meters":31600,"station_id":"ce4bhah2rcd13ifvqej0","pricing_plan_id":"free"},{"bike_id":"3b6187a6-68cb-46a2-8142-73bbd23e0808","system_id":"levelo_inurba_marseille","lat":43.286593,"lon":5.363346,"is_reserved":false,"is_disabled":false,"rental_uris":{"android":"levelo://app?vid=3b6187a6-68cb-46a2-8142-73bbd23e0808","ios":"levelo://app?vid=3b6187a6-68cb-46a2-8142-73bbd23e0808"},"vehicle_type_id":"4","last_reported":1686616916,"current_range_meters":11200,"station_id":"ce4bhah2rcd13ifvqej0","pricing_plan_id":"free"},{"bike_id":"8d88e11d-3425-417e-ae78-4786dbeced9a","system_id":"levelo_inurba_marseille","lat":43.286591,"lon":5.363346,"is_reserved":false,"is_disabled":false,"rental_uris":{"android":"levelo://app?vid=8d88e11d-3425-417e-ae78-4786dbeced9a","ios":"levelo://app?vid=8d88e11d-3425-417e-ae78-4786dbeced9a"},"vehicle_type_id":"4","last_reported":1686616916,"current_range_meters":31200,"station_id":"ce4bhah2rcd13ifvqej0","pricing_plan_id":"free"},{"bike_id":"b964de44-be59-4650-8aa6-29ea0b023e95","system_id":"levelo_inurba_marseille","lat":43.28703,"lon":5.37389,"is_reserved":false,"is_disabled":false,"rental_uris":{"android":"levelo://app?vid=b964de44-be59-4650-8aa6-29ea0b023e95","ios":"levelo://app?vid=b964de44-be59-4650-8aa6-29ea0b023e95"},"vehicle_type_id":"4","last_reported":1686616916,"current_range_meters":8800,"station_id":"","pricing_plan_id":"free"},{"bike_id":"9ec89c63-2643-4a78-93fc-96f3bcf44694","system_id":"levelo_inurba_marseille","lat":43.287013,"lon":5.373812,"is_reserved":false,"is_disabled":false,"rental_uris":{"android":"levelo://app?vid=9ec89c63-2643-4a78-93fc-96f3bcf44694","ios":"levelo://app?vid=9ec89c63-2643-4a78-93fc-96f3bcf44694"},"vehicle_type_id":"4","last_reported":1686616916,"current_range_meters":27200,"station_id":"","pricing_plan_id":"free"},{"bike_id":"f6f7f520-1291-4960-ba9e-219b19631321","system_id":"levelo_inurba_marseille","lat":43.28702,"lon":5.37392,"is_reserved":false,"is_disabled":false,"rental_uris":{"android":"levelo://app?vid=f6f7f520-1291-4960-ba9e-219b19631321","ios":"levelo://app?vid=f6f7f520-1291-4960-ba9e-219b19631321"},"vehicle_type_id":"4","last_reported":1686616916,"current_range_meters":21200,"station_id":"","pricing_plan_id":"free"},{"bike_id":"cd5d29bd-a255-425c-9a12-6f6ca1903fa3","system_id":"levelo_inurba_marseille","lat":43.286593,"lon":5.363346,"is_reserved":false,"is_disabled":false,"rental_uris":{"android":"levelo://app?vid=cd5d29bd-a255-425c-9a12-6f6ca1903fa3","ios":"levelo://app?vid=cd5d29bd-a255-425c-9a12-6f6ca1903fa3"},"vehicle_type_id":"4","last_reported":1686616916,"current_range_meters":27600,"station_id":"ce4bhah2rcd13ifvqej0","pricing_plan_id":"free"},{"bike_id":"76a6be4b-0deb-4622-a947-3c511fe763e5","system_id":"levelo_inurba_marseille","lat":43.298681,"lon":5.397225,"is_reserved":false,"is_disabled":false,"rental_uris":{"android":"levelo://app?vid=76a6be4b-0deb-4622-a947-3c511fe763e5","ios":"levelo://app?vid=76a6be4b-0deb-4622-a947-3c511fe763e5"},"vehicle_type_id":"4","last_reported":1686616916,"current_range_meters":28800,"station_id":"ce4bh0h2rcd13ifvqd50","pricing_plan_id":"free"},{"bike_id":"6eadf27f-a6bc-42f1-83bf-78a707a40d3f","system_id":"levelo_inurba_marseille","lat":43.298681,"lon":5.397225,"is_reserved":false,"is_disabled":false,"rental_uris":{"android":"levelo://app?vid=6eadf27f-a6bc-42f1-83bf-78a707a40d3f","ios":"levelo://app?vid=6eadf27f-a6bc-42f1-83bf-78a707a40d3f"},"vehicle_type_id":"4","last_reported":1686616916,"current_range_meters":29600,"station_id":"ce4bh0h2rcd13ifvqd50","pricing_plan_id":"free"},{"bike_id":"353e4895-dd28-41ab-ad55-d8da5a359441","system_id":"levelo_inurba_marseille","lat":43.286593,"lon":5.363346,"is_reserved":false,"is_disabled":false,"rental_uris":{"android":"levelo://app?vid=353e4895-dd28-41ab-ad55-d8da5a359441","ios":"levelo://app?vid=353e4895-dd28-41ab-ad55-d8da5a359441"},"vehicle_type_id":"4","last_reported":1686616916,"current_range_meters":19200,"station_id":"ce4bhah2rcd13ifvqej0","pricing_plan_id":"free"},{"bike_id":"4b7ed19c-6a82-45c2-9287-42699ae97d72","system_id":"levelo_inurba_marseille","lat":43.286591,"lon":5.363346,"is_reserved":false,"is_disabled":false,"rental_uris":{"android":"levelo://app?vid=4b7ed19c-6a82-45c2-9287-42699ae97d72","ios":"levelo://app?vid=4b7ed19c-6a82-45c2-9287-42699ae97d72"},"vehicle_type_id":"4","last_reported":1686616916,"current_range_meters":26800,"station_id":"ce4bhah2rcd13ifvqej0","pricing_plan_id":"free"},{"bike_id":"49574b42-0728-45ed-aa6b-3f1ad11d7632","system_id":"levelo_inurba_marseille","lat":43.286591,"lon":5.363346,"is_reserved":false,"is_disabled":false,"rental_uris":{"android":"levelo://app?vid=49574b42-0728-45ed-aa6b-3f1ad11d7632","ios":"levelo://app?vid=49574b42-0728-45ed-aa6b-3f1ad11d7632"},"vehicle_type_id":"4","last_reported":1686616916,"current_range_meters":26400,"station_id":"ce4bhah2rcd13ifvqej0","pricing_plan_id":"free"},{"bike_id":"ca3f33cb-eef3-46ad-ab42-0b4c12758ab1","system_id":"levelo_inurba_marseille","lat":43.298681,"lon":5.397225,"is_reserved":false,"is_disabled":false,"rental_uris":{"android":"levelo://app?vid=ca3f33cb-eef3-46ad-ab42-0b4c12758ab1","ios":"levelo://app?vid=ca3f33cb-eef3-46ad-ab42-0b4c12758ab1"},"vehicle_type_id":"4","last_reported":1686616916,"current_range_meters":15600,"station_id":"ce4bh0h2rcd13ifvqd50","pricing_plan_id":"free"},{"bike_id":"56958d85-50df-486d-a009-88f3986a7f2d","system_id":"levelo_inurba_marseille","lat":43.286591,"lon":5.363346,"is_reserved":false,"is_disabled":false,"rental_uris":{"android":"levelo://app?vid=56958d85-50df-486d-a009-88f3986a7f2d","ios":"levelo://app?vid=56958d85-50df-486d-a009-88f3986a7f2d"},"vehicle_type_id":"4","last_reported":1686616916,"current_range_meters":28800,"station_id":"ce4bhah2rcd13ifvqej0","pricing_plan_id":"free"},{"bike_id":"3c3db61b-a2c6-4d5b-90aa-9f028989d56a","system_id":"levelo_inurba_marseille","lat":43.30261,"lon":5.40054,"is_reserved":false,"is_disabled":false,"rental_uris":{"android":"levelo://app?vid=3c3db61b-a2c6-4d5b-90aa-9f028989d56a","ios":"levelo://app?vid=3c3db61b-a2c6-4d5b-90aa-9f028989d56a"},"vehicle_type_id":"4","last_reported":1686616916,"current_range_meters":5200,"station_id":"ce4bgvh2rcd13ifvqcs0","pricing_plan_id":"free"},{"bike_id":"4c7b46bc-3c6b-465c-92a4-ddd258c874df","system_id":"levelo_inurba_marseille","lat":43.30255,"lon":5.40064,"is_reserved":false,"is_disabled":false,"rental_uris":{"android":"levelo://app?vid=4c7b46bc-3c6b-465c-92a4-ddd258c874df","ios":"levelo://app?vid=4c7b46bc-3c6b-465c-92a4-ddd258c874df"},"vehicle_type_id":"4","last_reported":1686616916,"current_range_meters":0,"station_id":"ce4bgvh2rcd13ifvqcs0","pricing_plan_id":"free"},{"bike_id":"ba469bb5-b7b1-47bb-be63-bfde72adb4d7","system_id":"levelo_inurba_marseille","lat":43.30259,"lon":5.40067,"is_reserved":false,"is_disabled":false,"rental_uris":{"android":"levelo://app?vid=ba469bb5-b7b1-47bb-be63-bfde72adb4d7","ios":"levelo://app?vid=ba469bb5-b7b1-47bb-be63-bfde72adb4d7"},"vehicle_type_id":"4","last_reported":1686616916,"current_range_meters":6400,"station_id":"ce4bgvh2rcd13ifvqcs0","pricing_plan_id":"free"},{"bike_id":"19e5aced-2d36-40ee-91d4-59b7726a7b00","system_id":"levelo_inurba_marseille","lat":43.302759,"lon":5.400793,"is_reserved":false,"is_disabled":false,"rental_uris":{"android":"levelo://app?vid=19e5aced-2d36-40ee-91d4-59b7726a7b00","ios":"levelo://app?vid=19e5aced-2d36-40ee-91d4-59b7726a7b00"},"vehicle_type_id":"4","last_reported":1686616916,"current_range_meters":24800,"station_id":"ce4bgvh2rcd13ifvqcs0","pricing_plan_id":"free"},{"bike_id":"dd92ac87-b88f-4ed7-abf5-c8449c595ce9","system_id":"levelo_inurba_marseille","lat":43.30244,"lon":5.40067,"is_reserved":false,"is_disabled":false,"rental_uris":{"android":"levelo://app?vid=dd92ac87-b88f-4ed7-abf5-c8449c595ce9","ios":"levelo://app?vid=dd92ac87-b88f-4ed7-abf5-c8449c595ce9"},"vehicle_type_id":"4","last_reported":1686616916,"current_range_meters":24400,"station_id":"","pricing_plan_id":"free"},{"bike_id":"a86dc164-dab2-4995-ba04-dfa847fca731","system_id":"levelo_inurba_marseille","lat":43.30256,"lon":5.40074,"is_reserved":false,"is_disabled":false,"rental_uris":{"android":"levelo://app?vid=a86dc164-dab2-4995-ba04-dfa847fca731","ios":"levelo://app?vid=a86dc164-dab2-4995-ba04-dfa847fca731"},"vehicle_type_id":"4","last_reported":1686616916,"current_range_meters":21200,"station_id":"ce4bgvh2rcd13ifvqcs0","pricing_plan_id":"free"},{"bike_id":"c5a17550-5496-4650-a3f8-28a2c0113004","system_id":"levelo_inurba_marseille","lat":43.30252,"lon":5.40073,"is_reserved":false,"is_disabled":false,"rental_uris":{"android":"levelo://app?vid=c5a17550-5496-4650-a3f8-28a2c0113004","ios":"levelo://app?vid=c5a17550-5496-4650-a3f8-28a2c0113004"},"vehicle_type_id":"4","last_reported":1686616916,"current_range_meters":14800,"station_id":"ce4bgvh2rcd13ifvqcs0","pricing_plan_id":"free"},{"bike_id":"f5070c10-f821-4465-bf92-5bcef403af2f","system_id":"levelo_inurba_marseille","lat":43.302759,"lon":5.400793,"is_reserved":false,"is_disabled":false,"rental_uris":{"android":"levelo://app?vid=f5070c10-f821-4465-bf92-5bcef403af2f","ios":"levelo://app?vid=f5070c10-f821-4465-bf92-5bcef403af2f"},"vehicle_type_id":"4","last_reported":1686616916,"current_range_meters":31200,"station_id":"ce4bgvh2rcd13ifvqcs0","pricing_plan_id":"free"},{"bike_id":"a5214fd9-df76-42ec-98de-9a6fdc3561d3","system_id":"levelo_inurba_marseille","lat":43.30255,"lon":5.40076,"is_reserved":false,"is_disabled":false,"rental_uris":{"android":"levelo://app?vid=a5214fd9-df76-42ec-98de-9a6fdc3561d3","ios":"levelo://app?vid=a5214fd9-df76-42ec-98de-9a6fdc3561d3"},"vehicle_type_id":"4","last_reported":1686616916,"current_range_meters":8400,"station_id":"ce4bgvh2rcd13ifvqcs0","pricing_plan_id":"free"},{"bike_id":"533b80b0-641c-47be-b145-5f04821afae8","system_id":"levelo_inurba_marseille","lat":43.302759,"lon":5.400793,"is_reserved":false,"is_disabled":false,"rental_uris":{"android":"levelo://app?vid=533b80b0-641c-47be-b145-5f04821afae8","ios":"levelo://app?vid=533b80b0-641c-47be-b145-5f04821afae8"},"vehicle_type_id":"4","last_reported":1686616916,"current_range_meters":30000,"station_id":"ce4bgvh2rcd13ifvqcs0","pricing_plan_id":"free"},{"bike_id":"c908bf0b-32c4-4bbd-a60b-e83b74bc931d","system_id":"levelo_inurba_marseille","lat":43.30249,"lon":5.40078,"is_reserved":false,"is_disabled":false,"rental_uris":{"android":"levelo://app?vid=c908bf0b-32c4-4bbd-a60b-e83b74bc931d","ios":"levelo://app?vid=c908bf0b-32c4-4bbd-a60b-e83b74bc931d"},"vehicle_type_id":"4","last_reported":1686616916,"current_range_meters":21600,"station_id":"","pricing_plan_id":"free"},{"bike_id":"a6237bf4-9bce-48c2-9ec7-37da523a0fb3","system_id":"levelo_inurba_marseille","lat":43.302759,"lon":5.400793,"is_reserved":false,"is_disabled":false,"rental_uris":{"android":"levelo://app?vid=a6237bf4-9bce-48c2-9ec7-37da523a0fb3","ios":"levelo://app?vid=a6237bf4-9bce-48c2-9ec7-37da523a0fb3"},"vehicle_type_id":"4","last_reported":1686616916,"current_range_meters":11200,"station_id":"ce4bgvh2rcd13ifvqcs0","pricing_plan_id":"free"},{"bike_id":"0c2d8ec6-0a81-42b1-9f74-6c58ce544873","system_id":"levelo_inurba_marseille","lat":43.28717,"lon":5.37939,"is_reserved":false,"is_disabled":false,"rental_uris":{"android":"levelo://app?vid=0c2d8ec6-0a81-42b1-9f74-6c58ce544873","ios":"levelo://app?vid=0c2d8ec6-0a81-42b1-9f74-6c58ce544873"},"vehicle_type_id":"4","last_reported":1686616916,"current_range_meters":31200,"station_id":"ce4bh9p2rcd13ifvqec0","pricing_plan_id":"free"},{"bike_id":"abb14ea0-f271-4bf2-b250-bef8ee4685e3","system_id":"levelo_inurba_marseille","lat":43.28717,"lon":5.37945,"is_reserved":false,"is_disabled":false,"rental_uris":{"android":"levelo://app?vid=abb14ea0-f271-4bf2-b250-bef8ee4685e3","ios":"levelo://app?vid=abb14ea0-f271-4bf2-b250-bef8ee4685e3"},"vehicle_type_id":"4","last_reported":1686616916,"current_range_meters":31200,"station_id":"ce4bh9p2rcd13ifvqec0","pricing_plan_id":"free"},{"bike_id":"f1619b46-4086-469a-a31a-72bc64344099","system_id":"levelo_inurba_marseille","lat":43.316517,"lon":5.404375,"is_reserved":false,"is_disabled":false,"rental_uris":{"android":"levelo://app?vid=f1619b46-4086-469a-a31a-72bc64344099","ios":"levelo://app?vid=f1619b46-4086-469a-a31a-72bc64344099"},"vehicle_type_id":"4","last_reported":1686616916,"current_range_meters":12800,"station_id":"ce4bh012rcd13ifvqd00","pricing_plan_id":"free"},{"bike_id":"dbda670d-faa9-4402-a657-c4a5ac7496c0","system_id":"levelo_inurba_marseille","lat":43.316517,"lon":5.404375,"is_reserved":false,"is_disabled":false,"rental_uris":{"android":"levelo://app?vid=dbda670d-faa9-4402-a657-c4a5ac7496c0","ios":"levelo://app?vid=dbda670d-faa9-4402-a657-c4a5ac7496c0"},"vehicle_type_id":"4","last_reported":1686616916,"current_range_meters":22800,"station_id":"ce4bh012rcd13ifvqd00","pricing_plan_id":"free"},{"bike_id":"8aa756c6-9276-49d9-8990-f305516f7c3a","system_id":"levelo_inurba_marseille","lat":43.291994,"lon":5.392907,"is_reserved":false,"is_disabled":false,"rental_uris":{"android":"levelo://app?vid=8aa756c6-9276-49d9-8990-f305516f7c3a","ios":"levelo://app?vid=8aa756c6-9276-49d9-8990-f305516f7c3a"},"vehicle_type_id":"4","last_reported":1686616916,"current_range_meters":12400,"station_id":"ce4bh192rcd13ifvqdd0","pricing_plan_id":"free"},{"bike_id":"a2e6042e-18c8-417d-bae2-d522f84f24ef","system_id":"levelo_inurba_marseille","lat":43.29198,"lon":5.39317,"is_reserved":false,"is_disabled":false,"rental_uris":{"android":"levelo://app?vid=a2e6042e-18c8-417d-bae2-d522f84f24ef","ios":"levelo://app?vid=a2e6042e-18c8-417d-bae2-d522f84f24ef"},"vehicle_type_id":"4","last_reported":1686616916,"current_range_meters":14400,"station_id":"ce4bh192rcd13ifvqdd0","pricing_plan_id":"free"},{"bike_id":"481b2f65-b85b-4158-b681-9837277398f1","system_id":"levelo_inurba_marseille","lat":43.284534,"lon":5.358662,"is_reserved":false,"is_disabled":false,"rental_uris":{"android":"levelo://app?vid=481b2f65-b85b-4158-b681-9837277398f1","ios":"levelo://app?vid=481b2f65-b85b-4158-b681-9837277398f1"},"vehicle_type_id":"4","last_reported":1686616916,"current_range_meters":1200,"station_id":"ce4bhah2rcd13ifvqei0","pricing_plan_id":"free"},{"bike_id":"44e99649-6eb2-4d51-be7e-d3538df68132","system_id":"levelo_inurba_marseille","lat":43.284534,"lon":5.358662,"is_reserved":false,"is_disabled":false,"rental_uris":{"android":"levelo://app?vid=44e99649-6eb2-4d51-be7e-d3538df68132","ios":"levelo://app?vid=44e99649-6eb2-4d51-be7e-d3538df68132"},"vehicle_type_id":"4","last_reported":1686616916,"current_range_meters":18000,"station_id":"ce4bhah2rcd13ifvqei0","pricing_plan_id":"free"},{"bike_id":"1ca7f874-383c-405f-9152-c13f797922ae","system_id":"levelo_inurba_marseille","lat":43.284534,"lon":5.358662,"is_reserved":false,"is_disabled":false,"rental_uris":{"android":"levelo://app?vid=1ca7f874-383c-405f-9152-c13f797922ae","ios":"levelo://app?vid=1ca7f874-383c-405f-9152-c13f797922ae"},"vehicle_type_id":"4","last_reported":1686616916,"current_range_meters":5200,"station_id":"ce4bhah2rcd13ifvqei0","pricing_plan_id":"free"},{"bike_id":"0e63bcbe-0f9d-4ea0-98a7-a2dc067bee36","system_id":"levelo_inurba_marseille","lat":43.284534,"lon":5.358662,"is_reserved":false,"is_disabled":false,"rental_uris":{"android":"levelo://app?vid=0e63bcbe-0f9d-4ea0-98a7-a2dc067bee36","ios":"levelo://app?vid=0e63bcbe-0f9d-4ea0-98a7-a2dc067bee36"},"vehicle_type_id":"4","last_reported":1686616916,"current_range_meters":12400,"station_id":"ce4bhah2rcd13ifvqei0","pricing_plan_id":"free"},{"bike_id":"cd6105e5-4675-465d-91ee-8e5b097df60a","system_id":"levelo_inurba_marseille","lat":43.284534,"lon":5.358662,"is_reserved":false,"is_disabled":false,"rental_uris":{"android":"levelo://app?vid=cd6105e5-4675-465d-91ee-8e5b097df60a","ios":"levelo://app?vid=cd6105e5-4675-465d-91ee-8e5b097df60a"},"vehicle_type_id":"4","last_reported":1686616916,"current_range_meters":2000,"station_id":"ce4bhah2rcd13ifvqei0","pricing_plan_id":"free"},{"bike_id":"93c4b6bb-e827-458c-89f5-8587dc30ac67","system_id":"levelo_inurba_marseille","lat":43.285856,"lon":5.350771,"is_reserved":false,"is_disabled":false,"rental_uris":{"android":"levelo://app?vid=93c4b6bb-e827-458c-89f5-8587dc30ac67","ios":"levelo://app?vid=93c4b6bb-e827-458c-89f5-8587dc30ac67"},"vehicle_type_id":"4","last_reported":1686616916,"current_range_meters":23200,"station_id":"ce4bhch2rcd13ifvqeug","pricing_plan_id":"free"},{"bike_id":"c1f05937-f1ce-4bb7-8171-0c4bb6a3e32f","system_id":"levelo_inurba_marseille","lat":43.28409,"lon":5.37517,"is_reserved":false,"is_disabled":false,"rental_uris":{"android":"levelo://app?vid=c1f05937-f1ce-4bb7-8171-0c4bb6a3e32f","ios":"levelo://app?vid=c1f05937-f1ce-4bb7-8171-0c4bb6a3e32f"},"vehicle_type_id":"4","last_reported":1686616916,"current_range_meters":9200,"station_id":"","pricing_plan_id":"free"},{"bike_id":"c2d17567-a1d2-46db-8082-b89e56e67b7a","system_id":"levelo_inurba_marseille","lat":43.299,"lon":5.40281,"is_reserved":false,"is_disabled":false,"rental_uris":{"android":"levelo://app?vid=c2d17567-a1d2-46db-8082-b89e56e67b7a","ios":"levelo://app?vid=c2d17567-a1d2-46db-8082-b89e56e67b7a"},"vehicle_type_id":"4","last_reported":1686616916,"current_range_meters":18400,"station_id":"","pricing_plan_id":"free"},{"bike_id":"19bb0c32-bde3-47e9-8453-930feb6ad389","system_id":"levelo_inurba_marseille","lat":43.28675,"lon":5.3866,"is_reserved":false,"is_disabled":false,"rental_uris":{"android":"levelo://app?vid=19bb0c32-bde3-47e9-8453-930feb6ad389","ios":"levelo://app?vid=19bb0c32-bde3-47e9-8453-930feb6ad389"},"vehicle_type_id":"4","last_reported":1686616916,"current_range_meters":800,"station_id":"ce4bh492rcd13ifvqdug","pricing_plan_id":"free"},{"bike_id":"c94e786e-64bf-4086-bd5f-dc89f7159837","system_id":"levelo_inurba_marseille","lat":43.323464,"lon":5.406297,"is_reserved":false,"is_disabled":false,"rental_uris":{"android":"levelo://app?vid=c94e786e-64bf-4086-bd5f-dc89f7159837","ios":"levelo://app?vid=c94e786e-64bf-4086-bd5f-dc89f7159837"},"vehicle_type_id":"4","last_reported":1686616916,"current_range_meters":30400,"station_id":"ce4bhq92rcd13ifvqhjg","pricing_plan_id":"free"},{"bike_id":"891e330d-9ba6-4dc1-aaa9-b9a093e22a23","system_id":"levelo_inurba_marseille","lat":43.323464,"lon":5.406297,"is_reserved":false,"is_disabled":false,"rental_uris":{"android":"levelo://app?vid=891e330d-9ba6-4dc1-aaa9-b9a093e22a23","ios":"levelo://app?vid=891e330d-9ba6-4dc1-aaa9-b9a093e22a23"},"vehicle_type_id":"4","last_reported":1686616916,"current_range_meters":24800,"station_id":"ce4bhq92rcd13ifvqhjg","pricing_plan_id":"free"},{"bike_id":"de8e53ac-c9d9-4e77-9c77-6adccfaaedc6","system_id":"levelo_inurba_marseille","lat":43.323464,"lon":5.406297,"is_reserved":false,"is_disabled":false,"rental_uris":{"android":"levelo://app?vid=de8e53ac-c9d9-4e77-9c77-6adccfaaedc6","ios":"levelo://app?vid=de8e53ac-c9d9-4e77-9c77-6adccfaaedc6"},"vehicle_type_id":"4","last_reported":1686616916,"current_range_meters":29200,"station_id":"ce4bhq92rcd13ifvqhjg","pricing_plan_id":"free"},{"bike_id":"16e5fedd-6e86-436a-a0a2-72c7cd60a6ea","system_id":"levelo_inurba_marseille","lat":43.323464,"lon":5.406297,"is_reserved":false,"is_disabled":false,"rental_uris":{"android":"levelo://app?vid=16e5fedd-6e86-436a-a0a2-72c7cd60a6ea","ios":"levelo://app?vid=16e5fedd-6e86-436a-a0a2-72c7cd60a6ea"},"vehicle_type_id":"4","last_reported":1686616916,"current_range_meters":29600,"station_id":"ce4bhq92rcd13ifvqhjg","pricing_plan_id":"free"},{"bike_id":"84fd9639-748a-4956-8d93-5891088ed35a","system_id":"levelo_inurba_marseille","lat":43.284793,"lon":5.384113,"is_reserved":false,"is_disabled":false,"rental_uris":{"android":"levelo://app?vid=84fd9639-748a-4956-8d93-5891088ed35a","ios":"levelo://app?vid=84fd9639-748a-4956-8d93-5891088ed35a"},"vehicle_type_id":"4","last_reported":1686616916,"current_range_meters":31200,"station_id":"ce4bh512rcd13ifvqe3g","pricing_plan_id":"free"},{"bike_id":"b5763813-42cc-46db-99ec-f91306c66df3","system_id":"levelo_inurba_marseille","lat":43.284793,"lon":5.384113,"is_reserved":false,"is_disabled":false,"rental_uris":{"android":"levelo://app?vid=b5763813-42cc-46db-99ec-f91306c66df3","ios":"levelo://app?vid=b5763813-42cc-46db-99ec-f91306c66df3"},"vehicle_type_id":"4","last_reported":1686616916,"current_range_meters":30000,"station_id":"ce4bh512rcd13ifvqe3g","pricing_plan_id":"free"},{"bike_id":"832ae8b6-4234-43fe-a487-6b09cdbd9dd0","system_id":"levelo_inurba_marseille","lat":43.284787,"lon":5.384116,"is_reserved":false,"is_disabled":false,"rental_uris":{"android":"levelo://app?vid=832ae8b6-4234-43fe-a487-6b09cdbd9dd0","ios":"levelo://app?vid=832ae8b6-4234-43fe-a487-6b09cdbd9dd0"},"vehicle_type_id":"4","last_reported":1686616916,"current_range_meters":28800,"station_id":"ce4bh512rcd13ifvqe3g","pricing_plan_id":"free"},{"bike_id":"cd4b941f-8867-4362-bf28-940fa8ea0b06","system_id":"levelo_inurba_marseille","lat":43.284787,"lon":5.384116,"is_reserved":false,"is_disabled":false,"rental_uris":{"android":"levelo://app?vid=cd4b941f-8867-4362-bf28-940fa8ea0b06","ios":"levelo://app?vid=cd4b941f-8867-4362-bf28-940fa8ea0b06"},"vehicle_type_id":"4","last_reported":1686616916,"current_range_meters":19200,"station_id":"ce4bh512rcd13ifvqe3g","pricing_plan_id":"free"},{"bike_id":"a681e295-cd2c-4a07-9d85-ed26c90c6d44","system_id":"levelo_inurba_marseille","lat":43.284793,"lon":5.384113,"is_reserved":false,"is_disabled":false,"rental_uris":{"android":"levelo://app?vid=a681e295-cd2c-4a07-9d85-ed26c90c6d44","ios":"levelo://app?vid=a681e295-cd2c-4a07-9d85-ed26c90c6d44"},"vehicle_type_id":"4","last_reported":1686616916,"current_range_meters":26800,"station_id":"ce4bh512rcd13ifvqe3g","pricing_plan_id":"free"},{"bike_id":"1310edae-4aff-4468-aa40-936b79d278e3","system_id":"levelo_inurba_marseille","lat":43.284793,"lon":5.384119,"is_reserved":false,"is_disabled":false,"rental_uris":{"android":"levelo://app?vid=1310edae-4aff-4468-aa40-936b79d278e3","ios":"levelo://app?vid=1310edae-4aff-4468-aa40-936b79d278e3"},"vehicle_type_id":"4","last_reported":1686616916,"current_range_meters":11200,"station_id":"ce4bh512rcd13ifvqe3g","pricing_plan_id":"free"},{"bike_id":"694d6c30-06e0-4674-bf2b-5f14f62f2b2a","system_id":"levelo_inurba_marseille","lat":43.284793,"lon":5.384113,"is_reserved":false,"is_disabled":false,"rental_uris":{"android":"levelo://app?vid=694d6c30-06e0-4674-bf2b-5f14f62f2b2a","ios":"levelo://app?vid=694d6c30-06e0-4674-bf2b-5f14f62f2b2a"},"vehicle_type_id":"4","last_reported":1686616916,"current_range_meters":22000,"station_id":"ce4bh512rcd13ifvqe3g","pricing_plan_id":"free"},{"bike_id":"02234781-d514-42db-b87b-cf034d87ed5e","system_id":"levelo_inurba_marseille","lat":43.284787,"lon":5.384116,"is_reserved":false,"is_disabled":false,"rental_uris":{"android":"levelo://app?vid=02234781-d514-42db-b87b-cf034d87ed5e","ios":"levelo://app?vid=02234781-d514-42db-b87b-cf034d87ed5e"},"vehicle_type_id":"4","last_reported":1686616916,"current_range_meters":29200,"station_id":"ce4bh512rcd13ifvqe3g","pricing_plan_id":"free"},{"bike_id":"c3ad9b61-228d-4295-a175-fe90c1a58ac8","system_id":"levelo_inurba_marseille","lat":43.283494,"lon":5.380945,"is_reserved":false,"is_disabled":false,"rental_uris":{"android":"levelo://app?vid=c3ad9b61-228d-4295-a175-fe90c1a58ac8","ios":"levelo://app?vid=c3ad9b61-228d-4295-a175-fe90c1a58ac8"},"vehicle_type_id":"4","last_reported":1686616916,"current_range_meters":28000,"station_id":"ce4bh412rcd13ifvqdr0","pricing_plan_id":"free"},{"bike_id":"c6146ae8-6a85-4744-96b6-4bdf65beae4e","system_id":"levelo_inurba_marseille","lat":43.28352,"lon":5.38107,"is_reserved":false,"is_disabled":false,"rental_uris":{"android":"levelo://app?vid=c6146ae8-6a85-4744-96b6-4bdf65beae4e","ios":"levelo://app?vid=c6146ae8-6a85-4744-96b6-4bdf65beae4e"},"vehicle_type_id":"4","last_reported":1686616916,"current_range_meters":3600,"station_id":"ce4bh412rcd13ifvqdr0","pricing_plan_id":"free"},{"bike_id":"08e4208a-059b-4a6b-a393-0c37448bb970","system_id":"levelo_inurba_marseille","lat":43.283494,"lon":5.380945,"is_reserved":false,"is_disabled":false,"rental_uris":{"android":"levelo://app?vid=08e4208a-059b-4a6b-a393-0c37448bb970","ios":"levelo://app?vid=08e4208a-059b-4a6b-a393-0c37448bb970"},"vehicle_type_id":"4","last_reported":1686616916,"current_range_meters":1600,"station_id":"ce4bh412rcd13ifvqdr0","pricing_plan_id":"free"},{"bike_id":"b0bb9774-2622-40c1-90f0-2ad535054ebe","system_id":"levelo_inurba_marseille","lat":43.283494,"lon":5.380945,"is_reserved":false,"is_disabled":false,"rental_uris":{"android":"levelo://app?vid=b0bb9774-2622-40c1-90f0-2ad535054ebe","ios":"levelo://app?vid=b0bb9774-2622-40c1-90f0-2ad535054ebe"},"vehicle_type_id":"4","last_reported":1686616916,"current_range_meters":27600,"station_id":"ce4bh412rcd13ifvqdr0","pricing_plan_id":"free"},{"bike_id":"0d5d992f-3c61-4a72-b527-71bb8f8e49d2","system_id":"levelo_inurba_marseille","lat":43.292724,"lon":5.401131,"is_reserved":false,"is_disabled":false,"rental_uris":{"android":"levelo://app?vid=0d5d992f-3c61-4a72-b527-71bb8f8e49d2","ios":"levelo://app?vid=0d5d992f-3c61-4a72-b527-71bb8f8e49d2"},"vehicle_type_id":"4","last_reported":1686616916,"current_range_meters":23200,"station_id":"ce4bh312rcd13ifvqdk0","pricing_plan_id":"free"},{"bike_id":"17d6f1fd-137f-454d-83b0-1a34bc199714","system_id":"levelo_inurba_marseille","lat":43.292724,"lon":5.401131,"is_reserved":false,"is_disabled":false,"rental_uris":{"android":"levelo://app?vid=17d6f1fd-137f-454d-83b0-1a34bc199714","ios":"levelo://app?vid=17d6f1fd-137f-454d-83b0-1a34bc199714"},"vehicle_type_id":"4","last_reported":1686616916,"current_range_meters":31600,"station_id":"ce4bh312rcd13ifvqdk0","pricing_plan_id":"free"},{"bike_id":"32e8cb40-ff4e-4d91-b104-f620e6196523","system_id":"levelo_inurba_marseille","lat":43.29653,"lon":5.4048,"is_reserved":false,"is_disabled":false,"rental_uris":{"android":"levelo://app?vid=32e8cb40-ff4e-4d91-b104-f620e6196523","ios":"levelo://app?vid=32e8cb40-ff4e-4d91-b104-f620e6196523"},"vehicle_type_id":"4","last_reported":1686616916,"current_range_meters":23200,"station_id":"","pricing_plan_id":"free"},{"bike_id":"4e8ff71d-9f21-412b-8f54-3e613789ef08","system_id":"levelo_inurba_marseille","lat":43.292724,"lon":5.401131,"is_reserved":false,"is_disabled":false,"rental_uris":{"android":"levelo://app?vid=4e8ff71d-9f21-412b-8f54-3e613789ef08","ios":"levelo://app?vid=4e8ff71d-9f21-412b-8f54-3e613789ef08"},"vehicle_type_id":"4","last_reported":1686616916,"current_range_meters":30000,"station_id":"ce4bh312rcd13ifvqdk0","pricing_plan_id":"free"},{"bike_id":"33b08433-cc38-44bc-a36f-ee317b4e800d","system_id":"levelo_inurba_marseille","lat":43.292724,"lon":5.401131,"is_reserved":false,"is_disabled":false,"rental_uris":{"android":"levelo://app?vid=33b08433-cc38-44bc-a36f-ee317b4e800d","ios":"levelo://app?vid=33b08433-cc38-44bc-a36f-ee317b4e800d"},"vehicle_type_id":"4","last_reported":1686616916,"current_range_meters":10400,"station_id":"ce4bh312rcd13ifvqdk0","pricing_plan_id":"free"},{"bike_id":"4292fa6e-8236-4bca-8302-d3da7f3c6e76","system_id":"levelo_inurba_marseille","lat":43.283502,"lon":5.386471,"is_reserved":false,"is_disabled":false,"rental_uris":{"android":"levelo://app?vid=4292fa6e-8236-4bca-8302-d3da7f3c6e76","ios":"levelo://app?vid=4292fa6e-8236-4bca-8302-d3da7f3c6e76"},"vehicle_type_id":"4","last_reported":1686616916,"current_range_meters":4800,"station_id":"ce4bh492rcd13ifvqdvg","pricing_plan_id":"free"},{"bike_id":"828ac77b-6e35-4666-af58-3b11616a94bb","system_id":"levelo_inurba_marseille","lat":43.283502,"lon":5.386471,"is_reserved":false,"is_disabled":false,"rental_uris":{"android":"levelo://app?vid=828ac77b-6e35-4666-af58-3b11616a94bb","ios":"levelo://app?vid=828ac77b-6e35-4666-af58-3b11616a94bb"},