{"last_updated":1766768962,"ttl":60,"version":"2.2","data":{"bikes":[{"bike_id":"859398a7-87e4-4849-90e8-07b63ea1f274","system_id":"levelo_inurba_marseille","lat":43.26202,"lon":5.374507,"is_reserved":false,"is_disabled":false,"rental_uris":{"android":"levelo://app?vid=859398a7-87e4-4849-90e8-07b63ea1f274","ios":"levelo://app?vid=859398a7-87e4-4849-90e8-07b63ea1f274"},"vehicle_type_id":"4","last_reported":1766768963,"current_range_meters":2800,"station_id":"ce4bhgp2rcd13ifvqfc0","pricing_plan_id":"cebpf4jnsgd1na2vs0mg"},{"bike_id":"8b81e83e-bff8-4a15-ade7-c6325432d953","system_id":"levelo_inurba_marseille","lat":43.32378,"lon":5.38876,"is_reserved":false,"is_disabled":false,"rental_uris":{"android":"levelo://app?vid=8b81e83e-bff8-4a15-ade7-c6325432d953","ios":"levelo://app?vid=8b81e83e-bff8-4a15-ade7-c6325432d953"},"vehicle_type_id":"4","last_reported":1766768963,"current_range_meters":2800,"station_id":"ce4bhqp2rcd13ifvqhog","pricing_plan_id":"cebpf4jnsgd1na2vs0mg"},{"bike_id":"3a1f6a74-4d87-4f11-9b94-2460fc457f8d","system_id":"levelo_inurba_marseille","lat":43.241789,"lon":5.397335,"is_reserved":false,"is_disabled":false,"rental_uris":{"android":"levelo://app?vid=3a1f6a74-4d87-4f11-9b94-2460fc457f8d","ios":"levelo://app?vid=3a1f6a74-4d87-4f11-9b94-2460fc457f8d"},"vehicle_type_id":"4","last_reported":1766768963,"current_range_meters":3200,"station_id":"ce4bhn12rcd13ifvqgpg","pricing_plan_id":"cebpf4jnsgd1na2vs0mg"},{"bike_id":"04e6a0ca-3fac-40c2-86eb-67963c64e89e","system_id":"levelo_inurba_marseille","lat":43.23603,"lon":5.37931,"is_reserved":false,"is_disabled":false,"rental_uris":{"android":"levelo://app?vid=04e6a0ca-3fac-40c2-86eb-67963c64e89e","ios":"levelo://app?vid=04e6a0ca-3fac-40c2-86eb-67963c64e89e"},"vehicle_type_id":"4","last_reported":1766768963,"current_range_meters":3200,"station_id":"","pricing_plan_id":"cebpf4jnsgd1na2vs0mg"},{"bike_id":"246f8d00-3cb5-45d2-8b0c-53bf44823927","system_id":"levelo_inurba_marseille","lat":43.33757,"lon":5.37424,"is_reserved":false,"is_disabled":false,"rental_uris":{"android":"levelo://app?vid=246f8d00-3cb5-45d2-8b0c-53bf44823927","ios":"levelo://app?vid=246f8d00-3cb5-45d2-8b0c-53bf44823927"},"vehicle_type_id":"4","last_reported":1766768963,"current_range_meters":3200,"station_id":"","pricing_plan_id":"cebpf4jnsgd1na2vs0mg"},{"bike_id":"a760b4f4-0842-4f39-915b-44358ef1eea8","system_id":"levelo_inurba_marseille","lat":43.24652,"lon":5.38893,"is_reserved":false,"is_disabled":false,"rental_uris":{"android":"levelo://app?vid=a760b4f4-0842-4f39-915b-44358ef1eea8","ios":"levelo://app?vid=a760b4f4-0842-4f39-915b-44358ef1eea8"},"vehicle_type_id":"4","last_reported":1766768963,"current_range_meters":3200,"station_id":"ce4bhg12rcd13ifvqf60","pricing_plan_id":"cebpf4jnsgd1na2vs0mg"},{"bike_id":"bd1d8840-1a41-4b95-bdcb-6d7441d691cf","system_id":"levelo_inurba_marseille","lat":43.28659,"lon":5.36338,"is_reserved":false,"is_disabled":false,"rental_uris":{"android":"levelo://app?vid=bd1d8840-1a41-4b95-bdcb-6d7441d691cf","ios":"levelo://app?vid=bd1d8840-1a41-4b95-bdcb-6d7441d691cf"},"vehicle_type_id":"4","last_reported":1766768963,"current_range_meters":3600,"station_id":"ce4bhah2rcd13ifvqej0","pricing_plan_id":"cebpf4jnsgd1na2vs0mg"},{"bike_id":"603d8639-d5e5-48f3-a4f7-43da3503a819","system_id":"levelo_inurba_marseille","lat":43.26548,"lon":5.37301,"is_reserved":false,"is_disabled":false,"rental_uris":{"android":"levelo://app?vid=603d8639-d5e5-48f3-a4f7-43da3503a819","ios":"levelo://app?vid=603d8639-d5e5-48f3-a4f7-43da3503a819"},"vehicle_type_id":"4","last_reported":1766768963,"current_range_meters":3600,"station_id":"ce4bhg12rcd13ifvqf70","pricing_plan_id":"cebpf4jnsgd1na2vs0mg"},{"bike_id":"8ffae2b4-62d2-4a01-9ebe-8a3092c2bd43","system_id":"levelo_inurba_marseille","lat":43.274696,"lon":5.389776,"is_reserved":false,"is_disabled":false,"rental_uris":{"android":"levelo://app?vid=8ffae2b4-62d2-4a01-9ebe-8a3092c2bd43","ios":"levelo://app?vid=8ffae2b4-62d2-4a01-9ebe-8a3092c2bd43"},"vehicle_type_id":"4","last_reported":1766768963,"current_range_meters":3600,"station_id":"ce4bhg12rcd13ifvqf80","pricing_plan_id":"cebpf4jnsgd1na2vs0mg"},{"bike_id":"0129a104-be5c-45e8-b62a-a380a7bc332c","system_id":"levelo_inurba_marseille","lat":43.27668,"lon":5.38945,"is_reserved":false,"is_disabled":false,"rental_uris":{"android":"levelo://app?vid=0129a104-be5c-45e8-b62a-a380a7bc332c","ios":"levelo://app?vid=0129a104-be5c-45e8-b62a-a380a7bc332c"},"vehicle_type_id":"4","last_reported":1766768963,"current_range_meters":3600,"station_id":"","pricing_plan_id":"cebpf4jnsgd1na2vs0mg"},{"bike_id":"ff1ff454-6737-4273-8295-6ab92ec91f04","system_id":"levelo_inurba_marseille","lat":43.31881,"lon":5.38867,"is_reserved":false,"is_disabled":false,"rental_uris":{"android":"levelo://app?vid=ff1ff454-6737-4273-8295-6ab92ec91f04","ios":"levelo://app?vid=ff1ff454-6737-4273-8295-6ab92ec91f04"},"vehicle_type_id":"4","last_reported":1766768963,"current_range_meters":3600,"station_id":"","pricing_plan_id":"cebpf4jnsgd1na2vs0mg"},{"bike_id":"b25d030b-cb14-4532-a7c0-246eecb7588b","system_id":"levelo_inurba_marseille","lat":43.26847,"lon":5.38528,"is_reserved":false,"is_disabled":false,"rental_uris":{"android":"levelo://app?vid=b25d030b-cb14-4532-a7c0-246eecb7588b","ios":"levelo://app?vid=b25d030b-cb14-4532-a7c0-246eecb7588b"},"vehicle_type_id":"4","last_reported":1766768963,"current_range_meters":4400,"station_id":"","pricing_plan_id":"cebpf4jnsgd1na2vs0mg"},{"bike_id":"0caa1d98-320c-47b6-a6fa-10a7a06a1bb0","system_id":"levelo_inurba_marseille","lat":43.21189,"lon":5.3507,"is_reserved":false,"is_disabled":false,"rental_uris":{"android":"levelo://app?vid=0caa1d98-320c-47b6-a6fa-10a7a06a1bb0","ios":"levelo://app?vid=0caa1d98-320c-47b6-a6fa-10a7a06a1bb0"},"vehicle_type_id":"4","last_reported":1766768963,"current_range_meters":4400,"station_id":"st_cvj6sg6p6f1abm77japg","pricing_plan_id":"cebpf4jnsgd1na2vs0mg"},{"bike_id":"996f0d37-c843-42c5-a038-02ba442b1da7","system_id":"levelo_inurba_marseille","lat":43.28261,"lon":5.35083,"is_reserved":false,"is_disabled":true,"rental_uris":{"android":"levelo://app?vid=996f0d37-c843-42c5-a038-02ba442b1da7","ios":"levelo://app?vid=996f0d37-c843-42c5-a038-02ba442b1da7"},"vehicle_type_id":"4","last_reported":1766768963,"current_range_meters":4400,"station_id":"ce4bhbp2rcd13ifvqerg","pricing_plan_id":"cebpf4jnsgd1na2vs0mg"},{"bike_id":"83e716d4-e088-4dff-8b26-08133e71f23c","system_id":"levelo_inurba_marseille","lat":43.320007,"lon":5.414208,"is_reserved":false,"is_disabled":false,"rental_uris":{"android":"levelo://app?vid=83e716d4-e088-4dff-8b26-08133e71f23c","ios":"levelo://app?vid=83e716d4-e088-4dff-8b26-08133e71f23c"},"vehicle_type_id":"4","last_reported":1766768963,"current_range_meters":5600,"station_id":"ce4bhq92rcd13ifvqhkg","pricing_plan_id":"cebpf4jnsgd1na2vs0mg"},{"bike_id":"529b5433-c288-4ac1-9383-5e21a24be179","system_id":"levelo_inurba_marseille","lat":43.32489,"lon":5.36617,"is_reserved":false,"is_disabled":false,"rental_uris":{"android":"levelo://app?vid=529b5433-c288-4ac1-9383-5e21a24be179","ios":"levelo://app?vid=529b5433-c288-4ac1-9383-5e21a24be179"},"vehicle_type_id":"4","last_reported":1766768963,"current_range_meters":5600,"station_id":"","pricing_plan_id":"cebpf4jnsgd1na2vs0mg"},{"bike_id":"16972b46-16f7-4636-ba99-c8cf896c9f73","system_id":"levelo_inurba_marseille","lat":43.34697,"lon":5.34551,"is_reserved":false,"is_disabled":false,"rental_uris":{"android":"levelo://app?vid=16972b46-16f7-4636-ba99-c8cf896c9f73","ios":"levelo://app?vid=16972b46-16f7-4636-ba99-c8cf896c9f73"},"vehicle_type_id":"4","last_reported":1766768963,"current_range_meters":5600,"station_id":"","pricing_plan_id":"cebpf4jnsgd1na2vs0mg"},{"bike_id":"19cee5a5-c427-4873-9764-bfe3bef0fc94","system_id":"levelo_inurba_marseille","lat":43.23147,"lon":5.43713,"is_reserved":false,"is_disabled":false,"rental_uris":{"android":"levelo://app?vid=19cee5a5-c427-4873-9764-bfe3bef0fc94","ios":"levelo://app?vid=19cee5a5-c427-4873-9764-bfe3bef0fc94"},"vehicle_type_id":"4","last_reported":1766768963,"current_range_meters":6000,"station_id":"ce4bhmp2rcd13ifvqgog","pricing_plan_id":"cebpf4jnsgd1na2vs0mg"},{"bike_id":"8230d4a5-ab45-4312-bfe0-82ac7dc113e7","system_id":"levelo_inurba_marseille","lat":43.25718,"lon":5.38419,"is_reserved":false,"is_disabled":false,"rental_uris":{"android":"levelo://app?vid=8230d4a5-ab45-4312-bfe0-82ac7dc113e7","ios":"levelo://app?vid=8230d4a5-ab45-4312-bfe0-82ac7dc113e7"},"vehicle_type_id":"4","last_reported":1766768963,"current_range_meters":6000,"station_id":"","pricing_plan_id":"cebpf4jnsgd1na2vs0mg"},{"bike_id":"69b325de-dafe-4e22-8c04-6d58cc3c7fbb","system_id":"levelo_inurba_marseille","lat":43.310845,"lon":5.424257,"is_reserved":false,"is_disabled":true,"rental_uris":{"android":"levelo://app?vid=69b325de-dafe-4e22-8c04-6d58cc3c7fbb","ios":"levelo://app?vid=69b325de-dafe-4e22-8c04-6d58cc3c7fbb"},"vehicle_type_id":"4","last_reported":1766768963,"current_range_meters":6000,"station_id":"ce4bhp92rcd13ifvqhag","pricing_plan_id":"cebpf4jnsgd1na2vs0mg"},{"bike_id":"d687cff1-b05f-413c-899e-7dcc2404a58d","system_id":"levelo_inurba_marseille","lat":43.29806,"lon":5.4405,"is_reserved":false,"is_disabled":false,"rental_uris":{"android":"levelo://app?vid=d687cff1-b05f-413c-899e-7dcc2404a58d","ios":"levelo://app?vid=d687cff1-b05f-413c-899e-7dcc2404a58d"},"vehicle_type_id":"4","last_reported":1766768963,"current_range_meters":6000,"station_id":"st_d3jp68qikq2c7381ktn0","pricing_plan_id":"cebpf4jnsgd1na2vs0mg"},{"bike_id":"c5243835-d7ae-42c4-b3cb-cae7711524df","system_id":"levelo_inurba_marseille","lat":43.30883,"lon":5.37192,"is_reserved":false,"is_disabled":false,"rental_uris":{"android":"levelo://app?vid=c5243835-d7ae-42c4-b3cb-cae7711524df","ios":"levelo://app?vid=c5243835-d7ae-42c4-b3cb-cae7711524df"},"vehicle_type_id":"4","last_reported":1766768963,"current_range_meters":6000,"station_id":"ce4bguh2rcd13ifvqckg","pricing_plan_id":"cebpf4jnsgd1na2vs0mg"},{"bike_id":"bed00df6-d661-4640-b4e5-5c4df1e0ced4","system_id":"levelo_inurba_marseille","lat":43.302483,"lon":5.400857,"is_reserved":false,"is_disabled":false,"rental_uris":{"android":"levelo://app?vid=bed00df6-d661-4640-b4e5-5c4df1e0ced4","ios":"levelo://app?vid=bed00df6-d661-4640-b4e5-5c4df1e0ced4"},"vehicle_type_id":"4","last_reported":1766768963,"current_range_meters":6400,"station_id":"","pricing_plan_id":"cebpf4jnsgd1na2vs0mg"},{"bike_id":"8db86c4e-9a6a-4dae-8d74-b15612dbd2c6","system_id":"levelo_inurba_marseille","lat":43.2732,"lon":5.39085,"is_reserved":false,"is_disabled":false,"rental_uris":{"android":"levelo://app?vid=8db86c4e-9a6a-4dae-8d74-b15612dbd2c6","ios":"levelo://app?vid=8db86c4e-9a6a-4dae-8d74-b15612dbd2c6"},"vehicle_type_id":"4","last_reported":1766768963,"current_range_meters":6400,"station_id":"ce4bhgp2rcd13ifvqfe0","pricing_plan_id":"cebpf4jnsgd1na2vs0mg"},{"bike_id":"21576aa7-0530-4369-a771-9e1f61adae68","system_id":"levelo_inurba_marseille","lat":43.27618,"lon":5.36103,"is_reserved":false,"is_disabled":false,"rental_uris":{"android":"levelo://app?vid=21576aa7-0530-4369-a771-9e1f61adae68","ios":"levelo://app?vid=21576aa7-0530-4369-a771-9e1f61adae68"},"vehicle_type_id":"4","last_reported":1766768963,"current_range_meters":6400,"station_id":"ce4bgj92rcd13ifvqbe0","pricing_plan_id":"cebpf4jnsgd1na2vs0mg"},{"bike_id":"56b6ff0e-7174-419a-929e-60987a772c25","system_id":"levelo_inurba_marseille","lat":43.2621,"lon":5.3744,"is_reserved":false,"is_disabled":false,"rental_uris":{"android":"levelo://app?vid=56b6ff0e-7174-419a-929e-60987a772c25","ios":"levelo://app?vid=56b6ff0e-7174-419a-929e-60987a772c25"},"vehicle_type_id":"4","last_reported":1766768963,"current_range_meters":6400,"station_id":"ce4bhgp2rcd13ifvqfc0","pricing_plan_id":"cebpf4jnsgd1na2vs0mg"},{"bike_id":"25692b7d-0611-4ec6-920b-3dacb7acc75b","system_id":"levelo_inurba_marseille","lat":43.307354,"lon":5.424347,"is_reserved":false,"is_disabled":true,"rental_uris":{"android":"levelo://app?vid=25692b7d-0611-4ec6-920b-3dacb7acc75b","ios":"levelo://app?vid=25692b7d-0611-4ec6-920b-3dacb7acc75b"},"vehicle_type_id":"4","last_reported":1766768963,"current_range_meters":6800,"station_id":"st_cvj6ca6bvosntc0bfgr0","pricing_plan_id":"cebpf4jnsgd1na2vs0mg"},{"bike_id":"75d17fae-0d88-40fb-8827-d2bf4774761d","system_id":"levelo_inurba_marseille","lat":43.21743,"lon":5.34602,"is_reserved":false,"is_disabled":false,"rental_uris":{"android":"levelo://app?vid=75d17fae-0d88-40fb-8827-d2bf4774761d","ios":"levelo://app?vid=75d17fae-0d88-40fb-8827-d2bf4774761d"},"vehicle_type_id":"4","last_reported":1766768963,"current_range_meters":6800,"station_id":"st_cvj6r9ubvosntc0bgbag","pricing_plan_id":"cebpf4jnsgd1na2vs0mg"},{"bike_id":"41dc2477-7b23-413b-8ee6-ec79c378cb3a","system_id":"levelo_inurba_marseille","lat":43.33664,"lon":5.3748,"is_reserved":false,"is_disabled":false,"rental_uris":{"android":"levelo://app?vid=41dc2477-7b23-413b-8ee6-ec79c378cb3a","ios":"levelo://app?vid=41dc2477-7b23-413b-8ee6-ec79c378cb3a"},"vehicle_type_id":"4","last_reported":1766768963,"current_range_meters":6800,"station_id":"","pricing_plan_id":"cebpf4jnsgd1na2vs0mg"},{"bike_id":"be7a9432-6e0b-4312-8b03-b1b0268b17ca","system_id":"levelo_inurba_marseille","lat":43.29655,"lon":5.36797,"is_reserved":false,"is_disabled":false,"rental_uris":{"android":"levelo://app?vid=be7a9432-6e0b-4312-8b03-b1b0268b17ca","ios":"levelo://app?vid=be7a9432-6e0b-4312-8b03-b1b0268b17ca"},"vehicle_type_id":"4","last_reported":1766768963,"current_range_meters":6800,"station_id":"","pricing_plan_id":"cebpf4jnsgd1na2vs0mg"},{"bike_id":"e0effb5a-e8c9-4234-ae32-e89cc890b254","system_id":"levelo_inurba_marseille","lat":43.28864,"lon":5.42526,"is_reserved":false,"is_disabled":false,"rental_uris":{"android":"levelo://app?vid=e0effb5a-e8c9-4234-ae32-e89cc890b254","ios":"levelo://app?vid=e0effb5a-e8c9-4234-ae32-e89cc890b254"},"vehicle_type_id":"4","last_reported":1766768963,"current_range_meters":6800,"station_id":"st_d3b462108ojc7389ooeg","pricing_plan_id":"cebpf4jnsgd1na2vs0mg"},{"bike_id":"2cc5be0e-e730-4bf9-aeb0-b19b74f6fb1b","system_id":"levelo_inurba_marseille","lat":43.243897,"lon":5.370621,"is_reserved":false,"is_disabled":false,"rental_uris":{"android":"levelo://app?vid=2cc5be0e-e730-4bf9-aeb0-b19b74f6fb1b","ios":"levelo://app?vid=2cc5be0e-e730-4bf9-aeb0-b19b74f6fb1b"},"vehicle_type_id":"4","last_reported":1766768963,"current_range_meters":6800,"station_id":"ce4bhhh2rcd13ifvqfk0","pricing_plan_id":"cebpf4jnsgd1na2vs0mg"},{"bike_id":"6b1bb24c-5465-40a7-a190-cf7862deee8c","system_id":"levelo_inurba_marseille","lat":43.3166,"lon":5.39445,"is_reserved":false,"is_disabled":false,"rental_uris":{"android":"levelo://app?vid=6b1bb24c-5465-40a7-a190-cf7862deee8c","ios":"levelo://app?vid=6b1bb24c-5465-40a7-a190-cf7862deee8c"},"vehicle_type_id":"4","last_reported":1766768963,"current_range_meters":6800,"station_id":"","pricing_plan_id":"cebpf4jnsgd1na2vs0mg"},{"bike_id":"e5b39205-4067-49f4-8f1a-d86149e53662","system_id":"levelo_inurba_marseille","lat":43.31162,"lon":5.3872,"is_reserved":false,"is_disabled":false,"rental_uris":{"android":"levelo://app?vid=e5b39205-4067-49f4-8f1a-d86149e53662","ios":"levelo://app?vid=e5b39205-4067-49f4-8f1a-d86149e53662"},"vehicle_type_id":"4","last_reported":1766768963,"current_range_meters":6800,"station_id":"ce4bgv12rcd13ifvqcp0","pricing_plan_id":"cebpf4jnsgd1na2vs0mg"},{"bike_id":"e0706769-8d39-44ec-816a-ad5b1e1b67c4","system_id":"levelo_inurba_marseille","lat":43.31763,"lon":5.39873,"is_reserved":false,"is_disabled":false,"rental_uris":{"android":"levelo://app?vid=e0706769-8d39-44ec-816a-ad5b1e1b67c4","ios":"levelo://app?vid=e0706769-8d39-44ec-816a-ad5b1e1b67c4"},"vehicle_type_id":"4","last_reported":1766768963,"current_range_meters":6800,"station_id":"","pricing_plan_id":"cebpf4jnsgd1na2vs0mg"},{"bike_id":"e2b40d65-2a6b-4dd3-9c5a-9958e1c32504","system_id":"levelo_inurba_marseille","lat":43.2848,"lon":5.38423,"is_reserved":false,"is_disabled":false,"rental_uris":{"android":"levelo://app?vid=e2b40d65-2a6b-4dd3-9c5a-9958e1c32504","ios":"levelo://app?vid=e2b40d65-2a6b-4dd3-9c5a-9958e1c32504"},"vehicle_type_id":"4","last_reported":1766768963,"current_range_meters":6800,"station_id":"ce4bh512rcd13ifvqe3g","pricing_plan_id":"cebpf4jnsgd1na2vs0mg"},{"bike_id":"8fcf17e9-6f12-40c5-b477-90499f0bb83c","system_id":"levelo_inurba_marseille","lat":43.337563,"lon":5.374336,"is_reserved":false,"is_disabled":false,"rental_uris":{"android":"levelo://app?vid=8fcf17e9-6f12-40c5-b477-90499f0bb83c","ios":"levelo://app?vid=8fcf17e9-6f12-40c5-b477-90499f0bb83c"},"vehicle_type_id":"4","last_reported":1766768963,"current_range_meters":7200,"station_id":"","pricing_plan_id":"cebpf4jnsgd1na2vs0mg"},{"bike_id":"2b7d16da-f035-4c02-bb90-d235d35a3d08","system_id":"levelo_inurba_marseille","lat":43.26138,"lon":5.40098,"is_reserved":false,"is_disabled":false,"rental_uris":{"android":"levelo://app?vid=2b7d16da-f035-4c02-bb90-d235d35a3d08","ios":"levelo://app?vid=2b7d16da-f035-4c02-bb90-d235d35a3d08"},"vehicle_type_id":"4","last_reported":1766768963,"current_range_meters":7200,"station_id":"","pricing_plan_id":"cebpf4jnsgd1na2vs0mg"},{"bike_id":"e63d9a65-4cde-4906-9735-3200b2d7a155","system_id":"levelo_inurba_marseille","lat":43.29649,"lon":5.38007,"is_reserved":false,"is_disabled":false,"rental_uris":{"android":"levelo://app?vid=e63d9a65-4cde-4906-9735-3200b2d7a155","ios":"levelo://app?vid=e63d9a65-4cde-4906-9735-3200b2d7a155"},"vehicle_type_id":"4","last_reported":1766768963,"current_range_meters":7200,"station_id":"","pricing_plan_id":"cebpf4jnsgd1na2vs0mg"},{"bike_id":"7cd99ebc-6828-489f-9590-a70d57a917aa","system_id":"levelo_inurba_marseille","lat":43.280803,"lon":5.396529,"is_reserved":false,"is_disabled":false,"rental_uris":{"android":"levelo://app?vid=7cd99ebc-6828-489f-9590-a70d57a917aa","ios":"levelo://app?vid=7cd99ebc-6828-489f-9590-a70d57a917aa"},"vehicle_type_id":"4","last_reported":1766768963,"current_range_meters":7200,"station_id":"ce4bho12rcd13ifvqh2g","pricing_plan_id":"cebpf4jnsgd1na2vs0mg"},{"bike_id":"9fd79016-67c5-4abf-ab06-d6e5f920a205","system_id":"levelo_inurba_marseille","lat":43.26563,"lon":5.38999,"is_reserved":false,"is_disabled":true,"rental_uris":{"android":"levelo://app?vid=9fd79016-67c5-4abf-ab06-d6e5f920a205","ios":"levelo://app?vid=9fd79016-67c5-4abf-ab06-d6e5f920a205"},"vehicle_type_id":"4","last_reported":1766768963,"current_range_meters":7200,"station_id":"ce4bhe12rcd13ifvqf30","pricing_plan_id":"cebpf4jnsgd1na2vs0mg"},{"bike_id":"4339a51a-1b07-4ebb-a315-320d4067b8da","system_id":"levelo_inurba_marseille","lat":43.28099,"lon":5.37851,"is_reserved":false,"is_disabled":false,"rental_uris":{"android":"levelo://app?vid=4339a51a-1b07-4ebb-a315-320d4067b8da","ios":"levelo://app?vid=4339a51a-1b07-4ebb-a315-320d4067b8da"},"vehicle_type_id":"4","last_reported":1766768963,"current_range_meters":7200,"station_id":"ce4bha12rcd13ifvqee0","pricing_plan_id":"cebpf4jnsgd1na2vs0mg"},{"bike_id":"3fd024b1-0c99-4ef4-bceb-f5eab46d20e1","system_id":"levelo_inurba_marseille","lat":43.28561,"lon":5.44092,"is_reserved":false,"is_disabled":false,"rental_uris":{"android":"levelo://app?vid=3fd024b1-0c99-4ef4-bceb-f5eab46d20e1","ios":"levelo://app?vid=3fd024b1-0c99-4ef4-bceb-f5eab46d20e1"},"vehicle_type_id":"4","last_reported":1766768963,"current_range_meters":7200,"station_id":"st_d3j3df2ikq2c7380ej80","pricing_plan_id":"cebpf4jnsgd1na2vs0mg"},{"bike_id":"f35c671e-c635-488e-9b45-fe8829d52557","system_id":"levelo_inurba_marseille","lat":43.24994,"lon":5.38939,"is_reserved":false,"is_disabled":false,"rental_uris":{"android":"levelo://app?vid=f35c671e-c635-488e-9b45-fe8829d52557","ios":"levelo://app?vid=f35c671e-c635-488e-9b45-fe8829d52557"},"vehicle_type_id":"4","last_reported":1766768963,"current_range_meters":7200,"station_id":"ce4bhgp2rcd13ifvqfd0","pricing_plan_id":"cebpf4jnsgd1na2vs0mg"},{"bike_id":"5adb93f4-5835-4880-ac04-efe4431c38ed","system_id":"levelo_inurba_marseille","lat":43.25423,"lon":5.42431,"is_reserved":false,"is_disabled":false,"rental_uris":{"android":"levelo://app?vid=5adb93f4-5835-4880-ac04-efe4431c38ed","ios":"levelo://app?vid=5adb93f4-5835-4880-ac04-efe4431c38ed"},"vehicle_type_id":"4","last_reported":1766768963,"current_range_meters":7200,"station_id":"","pricing_plan_id":"cebpf4jnsgd1na2vs0mg"},{"bike_id":"83a5edcb-0806-419a-8bb9-90a4cc1f094d","system_id":"levelo_inurba_marseille","lat":43.33714,"lon":5.40926,"is_reserved":false,"is_disabled":false,"rental_uris":{"android":"levelo://app?vid=83a5edcb-0806-419a-8bb9-90a4cc1f094d","ios":"levelo://app?vid=83a5edcb-0806-419a-8bb9-90a4cc1f094d"},"vehicle_type_id":"4","last_reported":1766768963,"current_range_meters":8000,"station_id":"","pricing_plan_id":"cebpf4jnsgd1na2vs0mg"},{"bike_id":"3e346a2c-c4f8-4d56-8dfe-41e7954cb434","system_id":"levelo_inurba_marseille","lat":43.28879,"lon":5.44989,"is_reserved":false,"is_disabled":false,"rental_uris":{"android":"levelo://app?vid=3e346a2c-c4f8-4d56-8dfe-41e7954cb434","ios":"levelo://app?vid=3e346a2c-c4f8-4d56-8dfe-41e7954cb434"},"vehicle_type_id":"4","last_reported":1766768963,"current_range_meters":8000,"station_id":"","pricing_plan_id":"cebpf4jnsgd1na2vs0mg"},{"bike_id":"6d373430-813a-4ac6-a484-9f4402e994cc","system_id":"levelo_inurba_marseille","lat":43.217445,"lon":5.346039,"is_reserved":false,"is_disabled":false,"rental_uris":{"android":"levelo://app?vid=6d373430-813a-4ac6-a484-9f4402e994cc","ios":"levelo://app?vid=6d373430-813a-4ac6-a484-9f4402e994cc"},"vehicle_type_id":"4","last_reported":1766768963,"current_range_meters":8000,"station_id":"st_cvj6r9ubvosntc0bgbag","pricing_plan_id":"cebpf4jnsgd1na2vs0mg"},{"bike_id":"7f01de1e-82c5-4abd-a8a0-bd31c8a992fa","system_id":"levelo_inurba_marseille","lat":43.29969,"lon":5.41323,"is_reserved":false,"is_disabled":true,"rental_uris":{"android":"levelo://app?vid=7f01de1e-82c5-4abd-a8a0-bd31c8a992fa","ios":"levelo://app?vid=7f01de1e-82c5-4abd-a8a0-bd31c8a992fa"},"vehicle_type_id":"4","last_reported":1766768963,"current_range_meters":8000,"station_id":"ce4bhp12rcd13ifvqh9g","pricing_plan_id":"cebpf4jnsgd1na2vs0mg"},{"bike_id":"4b291cff-3f7b-4ba1-9aac-699438d510de","system_id":"levelo_inurba_marseille","lat":43.24968,"lon":5.39001,"is_reserved":false,"is_disabled":false,"rental_uris":{"android":"levelo://app?vid=4b291cff-3f7b-4ba1-9aac-699438d510de","ios":"levelo://app?vid=4b291cff-3f7b-4ba1-9aac-699438d510de"},"vehicle_type_id":"4","last_reported":1766768963,"current_range_meters":8400,"station_id":"","pricing_plan_id":"cebpf4jnsgd1na2vs0mg"},{"bike_id":"eda303c8-59d8-41f9-ae2a-33d0d85e451f","system_id":"levelo_inurba_marseille","lat":43.297914,"lon":5.404026,"is_reserved":false,"is_disabled":false,"rental_uris":{"android":"levelo://app?vid=eda303c8-59d8-41f9-ae2a-33d0d85e451f","ios":"levelo://app?vid=eda303c8-59d8-41f9-ae2a-33d0d85e451f"},"vehicle_type_id":"4","last_reported":1766768963,"current_range_meters":8400,"station_id":"ce4bh112rcd13ifvqd90","pricing_plan_id":"cebpf4jnsgd1na2vs0mg"},{"bike_id":"c77523a1-9d61-47d4-bde2-33be502221c0","system_id":"levelo_inurba_marseille","lat":43.32465,"lon":5.36579,"is_reserved":false,"is_disabled":true,"rental_uris":{"android":"levelo://app?vid=c77523a1-9d61-47d4-bde2-33be502221c0","ios":"levelo://app?vid=c77523a1-9d61-47d4-bde2-33be502221c0"},"vehicle_type_id":"4","last_reported":1766768963,"current_range_meters":8400,"station_id":"ce4bhs12rcd13ifvqhvg","pricing_plan_id":"cebpf4jnsgd1na2vs0mg"},{"bike_id":"f3f4ed69-c32b-4719-bee6-3c15c727009b","system_id":"levelo_inurba_marseille","lat":43.21191,"lon":5.35074,"is_reserved":false,"is_disabled":false,"rental_uris":{"android":"levelo://app?vid=f3f4ed69-c32b-4719-bee6-3c15c727009b","ios":"levelo://app?vid=f3f4ed69-c32b-4719-bee6-3c15c727009b"},"vehicle_type_id":"4","last_reported":1766768963,"current_range_meters":8400,"station_id":"st_cvj6sg6p6f1abm77japg","pricing_plan_id":"cebpf4jnsgd1na2vs0mg"},{"bike_id":"99d83292-bf4b-48bb-ae23-f91691099dca","system_id":"levelo_inurba_marseille","lat":43.30301,"lon":5.37407,"is_reserved":false,"is_disabled":false,"rental_uris":{"android":"levelo://app?vid=99d83292-bf4b-48bb-ae23-f91691099dca","ios":"levelo://app?vid=99d83292-bf4b-48bb-ae23-f91691099dca"},"vehicle_type_id":"4","last_reported":1766768963,"current_range_meters":8400,"station_id":"","pricing_plan_id":"cebpf4jnsgd1na2vs0mg"},{"bike_id":"7eb03969-e53f-4e68-89ed-76164189db73","system_id":"levelo_inurba_marseille","lat":43.28512,"lon":5.441,"is_reserved":false,"is_disabled":false,"rental_uris":{"android":"levelo://app?vid=7eb03969-e53f-4e68-89ed-76164189db73","ios":"levelo://app?vid=7eb03969-e53f-4e68-89ed-76164189db73"},"vehicle_type_id":"4","last_reported":1766768963,"current_range_meters":8400,"station_id":"st_d3j3df2ikq2c7380ej80","pricing_plan_id":"cebpf4jnsgd1na2vs0mg"},{"bike_id":"4f01cf0a-1270-4646-b82d-53f63a9eaf4e","system_id":"levelo_inurba_marseille","lat":43.302559,"lon":5.400606,"is_reserved":false,"is_disabled":false,"rental_uris":{"android":"levelo://app?vid=4f01cf0a-1270-4646-b82d-53f63a9eaf4e","ios":"levelo://app?vid=4f01cf0a-1270-4646-b82d-53f63a9eaf4e"},"vehicle_type_id":"4","last_reported":1766768963,"current_range_meters":8400,"station_id":"ce4bgvh2rcd13ifvqcs0","pricing_plan_id":"cebpf4jnsgd1na2vs0mg"},{"bike_id":"0a74135e-6d89-4a51-9a0d-4554c6c5090e","system_id":"levelo_inurba_marseille","lat":43.29848,"lon":5.36283,"is_reserved":false,"is_disabled":false,"rental_uris":{"android":"levelo://app?vid=0a74135e-6d89-4a51-9a0d-4554c6c5090e","ios":"levelo://app?vid=0a74135e-6d89-4a51-9a0d-4554c6c5090e"},"vehicle_type_id":"4","last_reported":1766768963,"current_range_meters":8400,"station_id":"ce4bgpp2rcd13ifvqc3g","pricing_plan_id":"cebpf4jnsgd1na2vs0mg"},{"bike_id":"2fad9db5-aa59-4d67-acc6-8a420e8c641e","system_id":"levelo_inurba_marseille","lat":43.28679,"lon":5.39916,"is_reserved":false,"is_disabled":false,"rental_uris":{"android":"levelo://app?vid=2fad9db5-aa59-4d67-acc6-8a420e8c641e","ios":"levelo://app?vid=2fad9db5-aa59-4d67-acc6-8a420e8c641e"},"vehicle_type_id":"4","last_reported":1766768963,"current_range_meters":8400,"station_id":"","pricing_plan_id":"cebpf4jnsgd1na2vs0mg"},{"bike_id":"3e765c7e-a034-4468-bfa7-970b4189b2cc","system_id":"levelo_inurba_marseille","lat":43.29821,"lon":5.44067,"is_reserved":false,"is_disabled":false,"rental_uris":{"android":"levelo://app?vid=3e765c7e-a034-4468-bfa7-970b4189b2cc","ios":"levelo://app?vid=3e765c7e-a034-4468-bfa7-970b4189b2cc"},"vehicle_type_id":"4","last_reported":1766768963,"current_range_meters":8800,"station_id":"st_d3jp68qikq2c7381ktn0","pricing_plan_id":"cebpf4jnsgd1na2vs0mg"},{"bike_id":"115b2f8e-404e-4661-b1a9-5ff904791dd7","system_id":"levelo_inurba_marseille","lat":43.29794,"lon":5.38197,"is_reserved":false,"is_disabled":false,"rental_uris":{"android":"levelo://app?vid=115b2f8e-404e-4661-b1a9-5ff904791dd7","ios":"levelo://app?vid=115b2f8e-404e-4661-b1a9-5ff904791dd7"},"vehicle_type_id":"4","last_reported":1766768963,"current_range_meters":8800,"station_id":"","pricing_plan_id":"cebpf4jnsgd1na2vs0mg"},{"bike_id":"45cb4a88-56d0-4ea5-b85d-33b8d4d652ea","system_id":"levelo_inurba_marseille","lat":43.29609,"lon":5.38334,"is_reserved":false,"is_disabled":false,"rental_uris":{"android":"levelo://app?vid=45cb4a88-56d0-4ea5-b85d-33b8d4d652ea","ios":"levelo://app?vid=45cb4a88-56d0-4ea5-b85d-33b8d4d652ea"},"vehicle_type_id":"4","last_reported":1766768963,"current_range_meters":8800,"station_id":"","pricing_plan_id":"cebpf4jnsgd1na2vs0mg"},{"bike_id":"930566d2-2f61-46bf-9bf8-db6b000638fd","system_id":"levelo_inurba_marseille","lat":43.31401,"lon":5.39825,"is_reserved":false,"is_disabled":false,"rental_uris":{"android":"levelo://app?vid=930566d2-2f61-46bf-9bf8-db6b000638fd","ios":"levelo://app?vid=930566d2-2f61-46bf-9bf8-db6b000638fd"},"vehicle_type_id":"4","last_reported":1766768963,"current_range_meters":8800,"station_id":"","pricing_plan_id":"cebpf4jnsgd1na2vs0mg"},{"bike_id":"9c1b57e1-addf-4919-93ed-023a6be78e08","system_id":"levelo_inurba_marseille","lat":43.269806,"lon":5.386776,"is_reserved":false,"is_disabled":false,"rental_uris":{"android":"levelo://app?vid=9c1b57e1-addf-4919-93ed-023a6be78e08","ios":"levelo://app?vid=9c1b57e1-addf-4919-93ed-023a6be78e08"},"vehicle_type_id":"4","last_reported":1766768963,"current_range_meters":8800,"station_id":"ce4bhh92rcd13ifvqfh0","pricing_plan_id":"cebpf4jnsgd1na2vs0mg"},{"bike_id":"a3be4a7c-7544-49a9-8048-28fcde31ea3d","system_id":"levelo_inurba_marseille","lat":43.292923,"lon":5.373525,"is_reserved":false,"is_disabled":false,"rental_uris":{"android":"levelo://app?vid=a3be4a7c-7544-49a9-8048-28fcde31ea3d","ios":"levelo://app?vid=a3be4a7c-7544-49a9-8048-28fcde31ea3d"},"vehicle_type_id":"4","last_reported":1766768963,"current_range_meters":8800,"station_id":"ce4bgi12rcd13ifvqb70","pricing_plan_id":"cebpf4jnsgd1na2vs0mg"},{"bike_id":"ceb020ce-da71-4e09-9d6b-51afe10645f0","system_id":"levelo_inurba_marseille","lat":43.32005,"lon":5.38145,"is_reserved":false,"is_disabled":false,"rental_uris":{"android":"levelo://app?vid=ceb020ce-da71-4e09-9d6b-51afe10645f0","ios":"levelo://app?vid=ceb020ce-da71-4e09-9d6b-51afe10645f0"},"vehicle_type_id":"4","last_reported":1766768963,"current_range_meters":8800,"station_id":"ce4bhr12rcd13ifvqhpg","pricing_plan_id":"cebpf4jnsgd1na2vs0mg"},{"bike_id":"2386d8db-394f-48a4-96d2-1760b4e5c0c3","system_id":"levelo_inurba_marseille","lat":43.30136,"lon":5.38774,"is_reserved":false,"is_disabled":false,"rental_uris":{"android":"levelo://app?vid=2386d8db-394f-48a4-96d2-1760b4e5c0c3","ios":"levelo://app?vid=2386d8db-394f-48a4-96d2-1760b4e5c0c3"},"vehicle_type_id":"4","last_reported":1766768963,"current_range_meters":8800,"station_id":"ce4bghh2rcd13ifvqb60","pricing_plan_id":"cebpf4jnsgd1na2vs0mg"},{"bike_id":"64721fec-77b8-4807-9667-cec3c8c1fbd0","system_id":"levelo_inurba_marseille","lat":43.24314,"lon":5.39469,"is_reserved":false,"is_disabled":false,"rental_uris":{"android":"levelo://app?vid=64721fec-77b8-4807-9667-cec3c8c1fbd0","ios":"levelo://app?vid=64721fec-77b8-4807-9667-cec3c8c1fbd0"},"vehicle_type_id":"4","last_reported":1766768963,"current_range_meters":9200,"station_id":"","pricing_plan_id":"cebpf4jnsgd1na2vs0mg"},{"bike_id":"b550d3d6-c7b8-434a-a022-ae4ae5bd88ff","system_id":"levelo_inurba_marseille","lat":43.27318,"lon":5.39078,"is_reserved":false,"is_disabled":false,"rental_uris":{"android":"levelo://app?vid=b550d3d6-c7b8-434a-a022-ae4ae5bd88ff","ios":"levelo://app?vid=b550d3d6-c7b8-434a-a022-ae4ae5bd88ff"},"vehicle_type_id":"4","last_reported":1766768963,"current_range_meters":9200,"station_id":"ce4bhgp2rcd13ifvqfe0","pricing_plan_id":"cebpf4jnsgd1na2vs0mg"},{"bike_id":"5a9fc56a-1c04-452f-8e76-12ed21aa5973","system_id":"levelo_inurba_marseille","lat":43.26583,"lon":5.40306,"is_reserved":false,"is_disabled":false,"rental_uris":{"android":"levelo://app?vid=5a9fc56a-1c04-452f-8e76-12ed21aa5973","ios":"levelo://app?vid=5a9fc56a-1c04-452f-8e76-12ed21aa5973"},"vehicle_type_id":"4","last_reported":1766768963,"current_range_meters":9200,"station_id":"ce4bhmp2rcd13ifvqgng","pricing_plan_id":"cebpf4jnsgd1na2vs0mg"},{"bike_id":"ff4e46f7-adc1-4649-aa1f-012ca177c8d4","system_id":"levelo_inurba_marseille","lat":43.28545,"lon":5.44101,"is_reserved":false,"is_disabled":false,"rental_uris":{"android":"levelo://app?vid=ff4e46f7-adc1-4649-aa1f-012ca177c8d4","ios":"levelo://app?vid=ff4e46f7-adc1-4649-aa1f-012ca177c8d4"},"vehicle_type_id":"4","last_reported":1766768963,"current_range_meters":9200,"station_id":"st_d3j3df2ikq2c7380ej80","pricing_plan_id":"cebpf4jnsgd1na2vs0mg"},{"bike_id":"119a66d3-59c1-4eaa-b656-c62237c2eeae","system_id":"levelo_inurba_marseille","lat":43.308509,"lon":5.382591,"is_reserved":false,"is_disabled":false,"rental_uris":{"android":"levelo://app?vid=119a66d3-59c1-4eaa-b656-c62237c2eeae","ios":"levelo://app?vid=119a66d3-59c1-4eaa-b656-c62237c2eeae"},"vehicle_type_id":"4","last_reported":1766768963,"current_range_meters":9200,"station_id":"","pricing_plan_id":"cebpf4jnsgd1na2vs0mg"},{"bike_id":"d9a84f43-9c4e-4447-98e3-35fa11345d19","system_id":"levelo_inurba_marseille","lat":43.25379,"lon":5.39418,"is_reserved":false,"is_disabled":false,"rental_uris":{"android":"levelo://app?vid=d9a84f43-9c4e-4447-98e3-35fa11345d19","ios":"levelo://app?vid=d9a84f43-9c4e-4447-98e3-35fa11345d19"},"vehicle_type_id":"4","last_reported":1766768963,"current_range_meters":9600,"station_id":"","pricing_plan_id":"cebpf4jnsgd1na2vs0mg"},{"bike_id":"14de6e00-2e2a-4431-a82a-20fad4757763","system_id":"levelo_inurba_marseille","lat":43.3013,"lon":5.4312,"is_reserved":false,"is_disabled":false,"rental_uris":{"android":"levelo://app?vid=14de6e00-2e2a-4431-a82a-20fad4757763","ios":"levelo://app?vid=14de6e00-2e2a-4431-a82a-20fad4757763"},"vehicle_type_id":"4","last_reported":1766768963,"current_range_meters":9600,"station_id":"st_d3js3co5814s73ftftug","pricing_plan_id":"cebpf4jnsgd1na2vs0mg"},{"bike_id":"311d19b3-9a08-44c8-99c5-1bdd0ec61ae4","system_id":"levelo_inurba_marseille","lat":43.24955,"lon":5.40485,"is_reserved":false,"is_disabled":false,"rental_uris":{"android":"levelo://app?vid=311d19b3-9a08-44c8-99c5-1bdd0ec61ae4","ios":"levelo://app?vid=311d19b3-9a08-44c8-99c5-1bdd0ec61ae4"},"vehicle_type_id":"4","last_reported":1766768963,"current_range_meters":9600,"station_id":"st_d2ngiaodas8pm72gd1h0","pricing_plan_id":"cebpf4jnsgd1na2vs0mg"},{"bike_id":"ebfbe269-7e97-4baf-8f7b-9c6df5a015af","system_id":"levelo_inurba_marseille","lat":43.24066,"lon":5.37771,"is_reserved":false,"is_disabled":false,"rental_uris":{"android":"levelo://app?vid=ebfbe269-7e97-4baf-8f7b-9c6df5a015af","ios":"levelo://app?vid=ebfbe269-7e97-4baf-8f7b-9c6df5a015af"},"vehicle_type_id":"4","last_reported":1766768963,"current_range_meters":9600,"station_id":"ce4bhnp2rcd13ifvqgvg","pricing_plan_id":"cebpf4jnsgd1na2vs0mg"},{"bike_id":"848e2f36-acd4-4368-8666-d7e4dd447171","system_id":"levelo_inurba_marseille","lat":43.2922,"lon":5.36066,"is_reserved":false,"is_disabled":false,"rental_uris":{"android":"levelo://app?vid=848e2f36-acd4-4368-8666-d7e4dd447171","ios":"levelo://app?vid=848e2f36-acd4-4368-8666-d7e4dd447171"},"vehicle_type_id":"4","last_reported":1766768963,"current_range_meters":9600,"station_id":"ce4bhbh2rcd13ifvqeqg","pricing_plan_id":"cebpf4jnsgd1na2vs0mg"},{"bike_id":"87e0eab3-2b64-49f8-95ec-ad91fbb7b57d","system_id":"levelo_inurba_marseille","lat":43.2981,"lon":5.44072,"is_reserved":false,"is_disabled":false,"rental_uris":{"android":"levelo://app?vid=87e0eab3-2b64-49f8-95ec-ad91fbb7b57d","ios":"levelo://app?vid=87e0eab3-2b64-49f8-95ec-ad91fbb7b57d"},"vehicle_type_id":"4","last_reported":1766768963,"current_range_meters":9600,"station_id":"st_d3jp68qikq2c7381ktn0","pricing_plan_id":"cebpf4jnsgd1na2vs0mg"},{"bike_id":"c20fae26-1970-44b4-b66a-6ffb0cf0ac97","system_id":"levelo_inurba_marseille","lat":43.31587,"lon":5.404,"is_reserved":false,"is_disabled":false,"rental_uris":{"android":"levelo://app?vid=c20fae26-1970-44b4-b66a-6ffb0cf0ac97","ios":"levelo://app?vid=c20fae26-1970-44b4-b66a-6ffb0cf0ac97"},"vehicle_type_id":"4","last_reported":1766768963,"current_range_meters":9600,"station_id":"","pricing_plan_id":"cebpf4jnsgd1na2vs0mg"},{"bike_id":"0f25c1aa-e40e-414f-b07d-51888ed8f81e","system_id":"levelo_inurba_marseille","lat":43.25512,"lon":5.37644,"is_reserved":false,"is_disabled":false,"rental_uris":{"android":"levelo://app?vid=0f25c1aa-e40e-414f-b07d-51888ed8f81e","ios":"levelo://app?vid=0f25c1aa-e40e-414f-b07d-51888ed8f81e"},"vehicle_type_id":"4","last_reported":1766768963,"current_range_meters":10000,"station_id":"ce4bhh12rcd13ifvqff0","pricing_plan_id":"cebpf4jnsgd1na2vs0mg"},{"bike_id":"29da013e-f676-4033-a45f-8d005e13e759","system_id":"levelo_inurba_marseille","lat":43.21194,"lon":5.35076,"is_reserved":false,"is_disabled":false,"rental_uris":{"android":"levelo://app?vid=29da013e-f676-4033-a45f-8d005e13e759","ios":"levelo://app?vid=29da013e-f676-4033-a45f-8d005e13e759"},"vehicle_type_id":"4","last_reported":1766768963,"current_range_meters":10000,"station_id":"st_cvj6sg6p6f1abm77japg","pricing_plan_id":"cebpf4jnsgd1na2vs0mg"},{"bike_id":"979b5e26-f8b6-49b3-9477-dcf91fe18c0b","system_id":"levelo_inurba_marseille","lat":43.29935,"lon":5.41347,"is_reserved":false,"is_disabled":false,"rental_uris":{"android":"levelo://app?vid=979b5e26-f8b6-49b3-9477-dcf91fe18c0b","ios":"levelo://app?vid=979b5e26-f8b6-49b3-9477-dcf91fe18c0b"},"vehicle_type_id":"4","last_reported":1766768963,"current_range_meters":10000,"station_id":"ce4bhp12rcd13ifvqh9g","pricing_plan_id":"cebpf4jnsgd1na2vs0mg"},{"bike_id":"18a2b9bc-9e8f-4eff-a3c6-418d184074ca","system_id":"levelo_inurba_marseille","lat":43.29816,"lon":5.44049,"is_reserved":false,"is_disabled":false,"rental_uris":{"android":"levelo://app?vid=18a2b9bc-9e8f-4eff-a3c6-418d184074ca","ios":"levelo://app?vid=18a2b9bc-9e8f-4eff-a3c6-418d184074ca"},"vehicle_type_id":"4","last_reported":1766768963,"current_range_meters":10000,"station_id":"st_d3jp68qikq2c7381ktn0","pricing_plan_id":"cebpf4jnsgd1na2vs0mg"},{"bike_id":"40d30a4d-0dbf-4b68-a0cc-d55df255d6fa","system_id":"levelo_inurba_marseille","lat":43.25642,"lon":5.41812,"is_reserved":false,"is_disabled":false,"rental_uris":{"android":"levelo://app?vid=40d30a4d-0dbf-4b68-a0cc-d55df255d6fa","ios":"levelo://app?vid=40d30a4d-0dbf-4b68-a0cc-d55df255d6fa"},"vehicle_type_id":"4","last_reported":1766768963,"current_range_meters":10000,"station_id":"","pricing_plan_id":"cebpf4jnsgd1na2vs0mg"},{"bike_id":"7ee1c09d-a306-4e72-a256-6549ce7578c9","system_id":"levelo_inurba_marseille","lat":43.291706,"lon":5.372947,"is_reserved":false,"is_disabled":false,"rental_uris":{"android":"levelo://app?vid=7ee1c09d-a306-4e72-a256-6549ce7578c9","ios":"levelo://app?vid=7ee1c09d-a306-4e72-a256-6549ce7578c9"},"vehicle_type_id":"4","last_reported":1766768963,"current_range_meters":10000,"station_id":"","pricing_plan_id":"cebpf4jnsgd1na2vs0mg"},{"bike_id":"f19865c5-a947-4888-ba03-5ff76ba57faf","system_id":"levelo_inurba_marseille","lat":43.28489,"lon":5.48384,"is_reserved":false,"is_disabled":false,"rental_uris":{"android":"levelo://app?vid=f19865c5-a947-4888-ba03-5ff76ba57faf","ios":"levelo://app?vid=f19865c5-a947-4888-ba03-5ff76ba57faf"},"vehicle_type_id":"4","last_reported":1766768963,"current_range_meters":10000,"station_id":"","pricing_plan_id":"cebpf4jnsgd1na2vs0mg"},{"bike_id":"d98a1114-db86-4658-b8a7-ee10c0382806","system_id":"levelo_inurba_marseille","lat":43.26577,"lon":5.39022,"is_reserved":false,"is_disabled":false,"rental_uris":{"android":"levelo://app?vid=d98a1114-db86-4658-b8a7-ee10c0382806","ios":"levelo://app?vid=d98a1114-db86-4658-b8a7-ee10c0382806"},"vehicle_type_id":"4","last_reported":1766768963,"current_range_meters":10000,"station_id":"ce4bhe12rcd13ifvqf30","pricing_plan_id":"cebpf4jnsgd1na2vs0mg"},{"bike_id":"a71a8038-fb4e-4a1a-afb7-be657ee835b2","system_id":"levelo_inurba_marseille","lat":43.276215,"lon":5.361091,"is_reserved":false,"is_disabled":false,"rental_uris":{"android":"levelo://app?vid=a71a8038-fb4e-4a1a-afb7-be657ee835b2","ios":"levelo://app?vid=a71a8038-fb4e-4a1a-afb7-be657ee835b2"},"vehicle_type_id":"4","last_reported":1766768963,"current_range_meters":10000,"station_id":"","pricing_plan_id":"cebpf4jnsgd1na2vs0mg"},{"bike_id":"c025d64d-a0e6-447b-adf7-fc8bb4547a1c","system_id":"levelo_inurba_marseille","lat":43.29361,"lon":5.37617,"is_reserved":false,"is_disabled":false,"rental_uris":{"android":"levelo://app?vid=c025d64d-a0e6-447b-adf7-fc8bb4547a1c","ios":"levelo://app?vid=c025d64d-a0e6-447b-adf7-fc8bb4547a1c"},"vehicle_type_id":"4","last_reported":1766768963,"current_range_meters":10000,"station_id":"","pricing_plan_id":"cebpf4jnsgd1na2vs0mg"},{"bike_id":"6af309a2-8f26-4463-a2f8-b68c7d811285","system_id":"levelo_inurba_marseille","lat":43.30905,"lon":5.3745,"is_reserved":false,"is_disabled":false,"rental_uris":{"android":"levelo://app?vid=6af309a2-8f26-4463-a2f8-b68c7d811285","ios":"levelo://app?vid=6af309a2-8f26-4463-a2f8-b68c7d811285"},"vehicle_type_id":"4","last_reported":1766768963,"current_range_meters":10800,"station_id":"","pricing_plan_id":"cebpf4jnsgd1na2vs0mg"},{"bike_id":"0d93cac9-2fdd-4dbf-b1ad-1c0d8c9236c4","system_id":"levelo_inurba_marseille","lat":43.2662,"lon":5.39369,"is_reserved":false,"is_disabled":false,"rental_uris":{"android":"levelo://app?vid=0d93cac9-2fdd-4dbf-b1ad-1c0d8c9236c4","ios":"levelo://app?vid=0d93cac9-2fdd-4dbf-b1ad-1c0d8c9236c4"},"vehicle_type_id":"4","last_reported":1766768963,"current_range_meters":10800,"station_id":"","pricing_plan_id":"cebpf4jnsgd1na2vs0mg"},{"bike_id":"bd9763d0-165b-4579-81d7-891eb5f41112","system_id":"levelo_inurba_marseille","lat":43.25496,"lon":5.37635,"is_reserved":false,"is_disabled":false,"rental_uris":{"android":"levelo://app?vid=bd9763d0-165b-4579-81d7-891eb5f41112","ios":"levelo://app?vid=bd9763d0-165b-4579-81d7-891eb5f41112"},"vehicle_type_id":"4","last_reported":1766768963,"current_range_meters":10800,"station_id":"ce4bhh12rcd13ifvqff0","pricing_plan_id":"cebpf4jnsgd1na2vs0mg"},{"bike_id":"7949dd14-7af0-4592-9cce-8e34ef65c2a8","system_id":"levelo_inurba_marseille","lat":43.29737,"lon":5.42747,"is_reserved":false,"is_disabled":false,"rental_uris":{"android":"levelo://app?vid=7949dd14-7af0-4592-9cce-8e34ef65c2a8","ios":"levelo://app?vid=7949dd14-7af0-4592-9cce-8e34ef65c2a8"},"vehicle_type_id":"4","last_reported":1766768963,"current_range_meters":10800,"station_id":"st_d3md5207bmas73dh9klg","pricing_plan_id":"cebpf4jnsgd1na2vs0mg"},{"bike_id":"e280cdc1-d94f-41da-8c4d-62913f566082","system_id":"levelo_inurba_marseille","lat":43.28083,"lon":5.39631,"is_reserved":false,"is_disabled":false,"rental_uris":{"android":"levelo://app?vid=e280cdc1-d94f-41da-8c4d-62913f566082","ios":"levelo://app?vid=e280cdc1-d94f-41da-8c4d-62913f566082"},"vehicle_type_id":"4","last_reported":1766768963,"current_range_meters":10800,"station_id":"ce4bho12rcd13ifvqh2g","pricing_plan_id":"cebpf4jnsgd1na2vs0mg"},{"bike_id":"a2a1337d-ec9d-4b6b-9079-4ec62e407cf1","system_id":"levelo_inurba_marseille","lat":43.29908,"lon":5.37452,"is_reserved":false,"is_disabled":true,"rental_uris":{"android":"levelo://app?vid=a2a1337d-ec9d-4b6b-9079-4ec62e407cf1","ios":"levelo://app?vid=a2a1337d-ec9d-4b6b-9079-4ec62e407cf1"},"vehicle_type_id":"4","last_reported":1766768963,"current_range_meters":10800,"station_id":"","pricing_plan_id":"cebpf4jnsgd1na2vs0mg"},{"bike_id":"7f2c7147-704a-4c2a-8d1d-b9b95038a8ea","system_id":"levelo_inurba_marseille","lat":43.32122,"lon":5.36761,"is_reserved":false,"is_disabled":false,"rental_uris":{"android":"levelo://app?vid=7f2c7147-704a-4c2a-8d1d-b9b95038a8ea","ios":"levelo://app?vid=7f2c7147-704a-4c2a-8d1d-b9b95038a8ea"},"vehicle_type_id":"4","last_reported":1766768963,"current_range_meters":10800,"station_id":"ce4bhrh2rcd13ifvqhug","pricing_plan_id":"cebpf4jnsgd1na2vs0mg"},{"bike_id":"1f45b2b1-d2e0-4187-926d-9979c716f8a5","system_id":"levelo_inurba_marseille","lat":43.25064,"lon":5.40459,"is_reserved":false,"is_disabled":false,"rental_uris":{"android":"levelo://app?vid=1f45b2b1-d2e0-4187-926d-9979c716f8a5","ios":"levelo://app?vid=1f45b2b1-d2e0-4187-926d-9979c716f8a5"},"vehicle_type_id":"4","last_reported":1766768963,"current_range_meters":10800,"station_id":"","pricing_plan_id":"cebpf4jnsgd1na2vs0mg"},{"bike_id":"47387edc-0331-4df7-abd6-89f3e312f384","system_id":"levelo_inurba_marseille","lat":43.28718,"lon":5.37946,"is_reserved":false,"is_disabled":false,"rental_uris":{"android":"levelo://app?vid=47387edc-0331-4df7-abd6-89f3e312f384","ios":"levelo://app?vid=47387edc-0331-4df7-abd6-89f3e312f384"},"vehicle_type_id":"4","last_reported":1766768963,"current_range_meters":10800,"station_id":"ce4bh9p2rcd13ifvqec0","pricing_plan_id":"cebpf4jnsgd1na2vs0mg"},{"bike_id":"5bd98b9f-31dd-4bcd-8083-4901f3ead05e","system_id":"levelo_inurba_marseille","lat":43.29481,"lon":5.43276,"is_reserved":false,"is_disabled":false,"rental_uris":{"android":"levelo://app?vid=5bd98b9f-31dd-4bcd-8083-4901f3ead05e","ios":"levelo://app?vid=5bd98b9f-31dd-4bcd-8083-4901f3ead05e"},"vehicle_type_id":"4","last_reported":1766768963,"current_range_meters":11200,"station_id":"st_d3j5ugp08ojc73fj9d10","pricing_plan_id":"cebpf4jnsgd1na2vs0mg"},{"bike_id":"ea8d437e-b5b6-4e37-9ba0-67cc47271d85","system_id":"levelo_inurba_marseille","lat":43.29046,"lon":5.37145,"is_reserved":false,"is_disabled":false,"rental_uris":{"android":"levelo://app?vid=ea8d437e-b5b6-4e37-9ba0-67cc47271d85","ios":"levelo://app?vid=ea8d437e-b5b6-4e37-9ba0-67cc47271d85"},"vehicle_type_id":"4","last_reported":1766768963,"current_range_meters":11200,"station_id":"ce4bh5p2rcd13ifvqe4g","pricing_plan_id":"cebpf4jnsgd1na2vs0mg"},{"bike_id":"2d860b81-0081-47f0-80fb-7e4c62824916","system_id":"levelo_inurba_marseille","lat":43.3011,"lon":5.43123,"is_reserved":false,"is_disabled":false,"rental_uris":{"android":"levelo://app?vid=2d860b81-0081-47f0-80fb-7e4c62824916","ios":"levelo://app?vid=2d860b81-0081-47f0-80fb-7e4c62824916"},"vehicle_type_id":"4","last_reported":1766768963,"current_range_meters":11200,"station_id":"st_d3js3co5814s73ftftug","pricing_plan_id":"cebpf4jnsgd1na2vs0mg"},{"bike_id":"0662cc7a-e4fa-4b63-b315-0cf9f8f38d19","system_id":"levelo_inurba_marseille","lat":43.268572,"lon":5.388678,"is_reserved":false,"is_disabled":false,"rental_uris":{"android":"levelo://app?vid=0662cc7a-e4fa-4b63-b315-0cf9f8f38d19","ios":"levelo://app?vid=0662cc7a-e4fa-4b63-b315-0cf9f8f38d19"},"vehicle_type_id":"4","last_reported":1766768963,"current_range_meters":11200,"station_id":"ce4bhh12rcd13ifvqfg0","pricing_plan_id":"cebpf4jnsgd1na2vs0mg"},{"bike_id":"23b5bd2f-d9ba-411d-a76a-062a00fd6555","system_id":"levelo_inurba_marseille","lat":43.26559,"lon":5.40339,"is_reserved":false,"is_disabled":false,"rental_uris":{"android":"levelo://app?vid=23b5bd2f-d9ba-411d-a76a-062a00fd6555","ios":"levelo://app?vid=23b5bd2f-d9ba-411d-a76a-062a00fd6555"},"vehicle_type_id":"4","last_reported":1766768963,"current_range_meters":11200,"station_id":"ce4bhmp2rcd13ifvqgng","pricing_plan_id":"cebpf4jnsgd1na2vs0mg"},{"bike_id":"e3d32b5a-ba62-4be2-9752-ef74e3c64ca7","system_id":"levelo_inurba_marseille","lat":43.28517,"lon":5.48361,"is_reserved":false,"is_disabled":false,"rental_uris":{"android":"levelo://app?vid=e3d32b5a-ba62-4be2-9752-ef74e3c64ca7","ios":"levelo://app?vid=e3d32b5a-ba62-4be2-9752-ef74e3c64ca7"},"vehicle_type_id":"4","last_reported":1766768963,"current_range_meters":11200,"station_id":"st_d3svhcjqgbts73a3dn0g","pricing_plan_id":"cebpf4jnsgd1na2vs0mg"},{"bike_id":"5fa756bb-1bdb-4a8b-9603-1cfdc9e444ad","system_id":"levelo_inurba_marseille","lat":43.23173,"lon":5.40007,"is_reserved":false,"is_disabled":false,"rental_uris":{"android":"levelo://app?vid=5fa756bb-1bdb-4a8b-9603-1cfdc9e444ad","ios":"levelo://app?vid=5fa756bb-1bdb-4a8b-9603-1cfdc9e444ad"},"vehicle_type_id":"4","last_reported":1766768963,"current_range_meters":11200,"station_id":"ce4bhn12rcd13ifvqgqg","pricing_plan_id":"cebpf4jnsgd1na2vs0mg"},{"bike_id":"467517c8-ed87-4e02-bef8-4ed63963538d","system_id":"levelo_inurba_marseille","lat":43.27187,"lon":5.41006,"is_reserved":false,"is_disabled":false,"rental_uris":{"android":"levelo://app?vid=467517c8-ed87-4e02-bef8-4ed63963538d","ios":"levelo://app?vid=467517c8-ed87-4e02-bef8-4ed63963538d"},"vehicle_type_id":"4","last_reported":1766768963,"current_range_meters":11600,"station_id":"ce4bhl12rcd13ifvqgf0","pricing_plan_id":"cebpf4jnsgd1na2vs0mg"},{"bike_id":"c4c0a12d-8010-4096-83ea-eb8e103cad23","system_id":"levelo_inurba_marseille","lat":43.27323,"lon":5.39112,"is_reserved":false,"is_disabled":false,"rental_uris":{"android":"levelo://app?vid=c4c0a12d-8010-4096-83ea-eb8e103cad23","ios":"levelo://app?vid=c4c0a12d-8010-4096-83ea-eb8e103cad23"},"vehicle_type_id":"4","last_reported":1766768963,"current_range_meters":11600,"station_id":"ce4bhgp2rcd13ifvqfe0","pricing_plan_id":"cebpf4jnsgd1na2vs0mg"},{"bike_id":"178fcda9-a2da-4c8b-a3bd-0cb77c427b5a","system_id":"levelo_inurba_marseille","lat":43.29907,"lon":5.37475,"is_reserved":false,"is_disabled":false,"rental_uris":{"android":"levelo://app?vid=178fcda9-a2da-4c8b-a3bd-0cb77c427b5a","ios":"levelo://app?vid=178fcda9-a2da-4c8b-a3bd-0cb77c427b5a"},"vehicle_type_id":"4","last_reported":1766768963,"current_range_meters":11600,"station_id":"ce4bgjh2rcd13ifvqbg0","pricing_plan_id":"cebpf4jnsgd1na2vs0mg"},{"bike_id":"1263eb4c-f5f4-4837-9084-c88a60549b0e","system_id":"levelo_inurba_marseille","lat":43.296316,"lon":5.406021,"is_reserved":false,"is_disabled":false,"rental_uris":{"android":"levelo://app?vid=1263eb4c-f5f4-4837-9084-c88a60549b0e","ios":"levelo://app?vid=1263eb4c-f5f4-4837-9084-c88a60549b0e"},"vehicle_type_id":"4","last_reported":1766768963,"current_range_meters":11600,"station_id":"ce4bh0h2rcd13ifvqd60","pricing_plan_id":"cebpf4jnsgd1na2vs0mg"},{"bike_id":"bdf61926-de40-4a9b-b98a-a989792c537a","system_id":"levelo_inurba_marseille","lat":43.28482,"lon":5.48403,"is_reserved":false,"is_disabled":false,"rental_uris":{"android":"levelo://app?vid=bdf61926-de40-4a9b-b98a-a989792c537a","ios":"levelo://app?vid=bdf61926-de40-4a9b-b98a-a989792c537a"},"vehicle_type_id":"4","last_reported":1766768963,"current_range_meters":11600,"station_id":"st_d3svhcjqgbts73a3dn0g","pricing_plan_id":"cebpf4jnsgd1na2vs0mg"},{"bike_id":"3258100c-327e-4f63-8566-2f80528cd217","system_id":"levelo_inurba_marseille","lat":43.24073,"lon":5.37764,"is_reserved":false,"is_disabled":false,"rental_uris":{"android":"levelo://app?vid=3258100c-327e-4f63-8566-2f80528cd217","ios":"levelo://app?vid=3258100c-327e-4f63-8566-2f80528cd217"},"vehicle_type_id":"4","last_reported":1766768963,"current_range_meters":11600,"station_id":"ce4bhnp2rcd13ifvqgvg","pricing_plan_id":"cebpf4jnsgd1na2vs0mg"},{"bike_id":"9a08168c-1df4-4159-8da8-fcae5b721280","system_id":"levelo_inurba_marseille","lat":43.27369,"lon":5.36237,"is_reserved":false,"is_disabled":false,"rental_uris":{"android":"levelo://app?vid=9a08168c-1df4-4159-8da8-fcae5b721280","ios":"levelo://app?vid=9a08168c-1df4-4159-8da8-fcae5b721280"},"vehicle_type_id":"4","last_reported":1766768963,"current_range_meters":11600,"station_id":"ce4bhbh2rcd13ifvqeo0","pricing_plan_id":"cebpf4jnsgd1na2vs0mg"},{"bike_id":"b98c4bb3-e84f-4703-8006-455cb12ed450","system_id":"levelo_inurba_marseille","lat":43.28843,"lon":5.4263,"is_reserved":false,"is_disabled":false,"rental_uris":{"android":"levelo://app?vid=b98c4bb3-e84f-4703-8006-455cb12ed450","ios":"levelo://app?vid=b98c4bb3-e84f-4703-8006-455cb12ed450"},"vehicle_type_id":"4","last_reported":1766768963,"current_range_meters":11600,"station_id":"","pricing_plan_id":"cebpf4jnsgd1na2vs0mg"},{"bike_id":"1f8985bb-771f-47f2-8a22-198eab5159d6","system_id":"levelo_inurba_marseille","lat":43.27309,"lon":5.39118,"is_reserved":false,"is_disabled":false,"rental_uris":{"android":"levelo://app?vid=1f8985bb-771f-47f2-8a22-198eab5159d6","ios":"levelo://app?vid=1f8985bb-771f-47f2-8a22-198eab5159d6"},"vehicle_type_id":"4","last_reported":1766768963,"current_range_meters":11600,"station_id":"ce4bhgp2rcd13ifvqfe0","pricing_plan_id":"cebpf4jnsgd1na2vs0mg"},{"bike_id":"d031320b-e967-449d-99d4-420c8de16ac8","system_id":"levelo_inurba_marseille","lat":43.28947,"lon":5.39626,"is_reserved":false,"is_disabled":false,"rental_uris":{"android":"levelo://app?vid=d031320b-e967-449d-99d4-420c8de16ac8","ios":"levelo://app?vid=d031320b-e967-449d-99d4-420c8de16ac8"},"vehicle_type_id":"4","last_reported":1766768963,"current_range_meters":12000,"station_id":"ce4bh3h2rcd13ifvqdn0","pricing_plan_id":"cebpf4jnsgd1na2vs0mg"},{"bike_id":"0e064ea3-f861-4034-89c2-506f4bcaf660","system_id":"levelo_inurba_marseille","lat":43.29805,"lon":5.38085,"is_reserved":false,"is_disabled":false,"rental_uris":{"android":"levelo://app?vid=0e064ea3-f861-4034-89c2-506f4bcaf660","ios":"levelo://app?vid=0e064ea3-f861-4034-89c2-506f4bcaf660"},"vehicle_type_id":"4","last_reported":1766768963,"current_range_meters":12000,"station_id":"ce4bgip2rcd13ifvqbb0","pricing_plan_id":"cebpf4jnsgd1na2vs0mg"},{"bike_id":"30b4de5e-52da-4654-9315-d4149e8dde1e","system_id":"levelo_inurba_marseille","lat":43.262133,"lon":5.379196,"is_reserved":false,"is_disabled":false,"rental_uris":{"android":"levelo://app?vid=30b4de5e-52da-4654-9315-d4149e8dde1e","ios":"levelo://app?vid=30b4de5e-52da-4654-9315-d4149e8dde1e"},"vehicle_type_id":"4","last_reported":1766768963,"current_range_meters":12000,"station_id":"ce4bhjp2rcd13ifvqg90","pricing_plan_id":"cebpf4jnsgd1na2vs0mg"},{"bike_id":"1f2b55f6-a8e6-45b9-aa40-fe19fa08bde1","system_id":"levelo_inurba_marseille","lat":43.32106,"lon":5.36763,"is_reserved":false,"is_disabled":false,"rental_uris":{"android":"levelo://app?vid=1f2b55f6-a8e6-45b9-aa40-fe19fa08bde1","ios":"levelo://app?vid=1f2b55f6-a8e6-45b9-aa40-fe19fa08bde1"},"vehicle_type_id":"4","last_reported":1766768963,"current_range_meters":12000,"station_id":"ce4bhrh2rcd13ifvqhug","pricing_plan_id":"cebpf4jnsgd1na2vs0mg"},{"bike_id":"308a402c-68ff-4b09-8a05-94eff5885a98","system_id":"levelo_inurba_marseille","lat":43.29886,"lon":5.39728,"is_reserved":false,"is_disabled":false,"rental_uris":{"android":"levelo://app?vid=308a402c-68ff-4b09-8a05-94eff5885a98","ios":"levelo://app?vid=308a402c-68ff-4b09-8a05-94eff5885a98"},"vehicle_type_id":"4","last_reported":1766768963,"current_range_meters":12000,"station_id":"ce4bh0h2rcd13ifvqd50","pricing_plan_id":"cebpf4jnsgd1na2vs0mg"},{"bike_id":"62a3c90b-6cbc-488b-acb5-68c8eaa204f0","system_id":"levelo_inurba_marseille","lat":43.21205,"lon":5.35062,"is_reserved":false,"is_disabled":false,"rental_uris":{"android":"levelo://app?vid=62a3c90b-6cbc-488b-acb5-68c8eaa204f0","ios":"levelo://app?vid=62a3c90b-6cbc-488b-acb5-68c8eaa204f0"},"vehicle_type_id":"4","last_reported":1766768963,"current_range_meters":12000,"station_id":"st_cvj6sg6p6f1abm77japg","pricing_plan_id":"cebpf4jnsgd1na2vs0mg"},{"bike_id":"57e3d9ce-46d5-4f07-9918-84c3ea21a43f","system_id":"levelo_inurba_marseille","lat":43.333286,"lon":5.411238,"is_reserved":false,"is_disabled":false,"rental_uris":{"android":"levelo://app?vid=57e3d9ce-46d5-4f07-9918-84c3ea21a43f","ios":"levelo://app?vid=57e3d9ce-46d5-4f07-9918-84c3ea21a43f"},"vehicle_type_id":"4","last_reported":1766768963,"current_range_meters":12000,"station_id":"","pricing_plan_id":"cebpf4jnsgd1na2vs0mg"},{"bike_id":"a7b0ffca-bd19-4593-b42d-f026e5905164","system_id":"levelo_inurba_marseille","lat":43.292963,"lon":5.369472,"is_reserved":false,"is_disabled":false,"rental_uris":{"android":"levelo://app?vid=a7b0ffca-bd19-4593-b42d-f026e5905164","ios":"levelo://app?vid=a7b0ffca-bd19-4593-b42d-f026e5905164"},"vehicle_type_id":"4","last_reported":1766768963,"current_range_meters":12000,"station_id":"","pricing_plan_id":"cebpf4jnsgd1na2vs0mg"},{"bike_id":"c6c751ca-f0d9-4d7d-924c-b26f574b394e","system_id":"levelo_inurba_marseille","lat":43.26737,"lon":5.38458,"is_reserved":false,"is_disabled":false,"rental_uris":{"android":"levelo://app?vid=c6c751ca-f0d9-4d7d-924c-b26f574b394e","ios":"levelo://app?vid=c6c751ca-f0d9-4d7d-924c-b26f574b394e"},"vehicle_type_id":"4","last_reported":1766768963,"current_range_meters":12000,"station_id":"","pricing_plan_id":"cebpf4jnsgd1na2vs0mg"},{"bike_id":"469cd19d-aecc-46ca-85d9-e7eda176c174","system_id":"levelo_inurba_marseille","lat":43.29264,"lon":5.38441,"is_reserved":false,"is_disabled":false,"rental_uris":{"android":"levelo://app?vid=469cd19d-aecc-46ca-85d9-e7eda176c174","ios":"levelo://app?vid=469cd19d-aecc-46ca-85d9-e7eda176c174"},"vehicle_type_id":"4","last_reported":1766768963,"current_range_meters":12400,"station_id":"ce4bh692rcd13ifvqea0","pricing_plan_id":"cebpf4jnsgd1na2vs0mg"},{"bike_id":"038f5aa1-10f7-4526-9f10-d41344e16fd3","system_id":"levelo_inurba_marseille","lat":43.279892,"lon":5.416604,"is_reserved":false,"is_disabled":false,"rental_uris":{"android":"levelo://app?vid=038f5aa1-10f7-4526-9f10-d41344e16fd3","ios":"levelo://app?vid=038f5aa1-10f7-4526-9f10-d41344e16fd3"},"vehicle_type_id":"4","last_reported":1766768963,"current_range_meters":12400,"station_id":"ce4bho12rcd13ifvqh1g","pricing_plan_id":"cebpf4jnsgd1na2vs0mg"},{"bike_id":"645729d9-d8d0-4c53-ab8e-ac1cf2890b1b","system_id":"levelo_inurba_marseille","lat":43.26203,"lon":5.3744,"is_reserved":false,"is_disabled":false,"rental_uris":{"android":"levelo://app?vid=645729d9-d8d0-4c53-ab8e-ac1cf2890b1b","ios":"levelo://app?vid=645729d9-d8d0-4c53-ab8e-ac1cf2890b1b"},"vehicle_type_id":"4","last_reported":1766768963,"current_range_meters":12400,"station_id":"ce4bhgp2rcd13ifvqfc0","pricing_plan_id":"cebpf4jnsgd1na2vs0mg"},{"bike_id":"9ab94bd4-911e-4ae8-a279-365da064d715","system_id":"levelo_inurba_marseille","lat":43.276152,"lon":5.361008,"is_reserved":false,"is_disabled":false,"rental_uris":{"android":"levelo://app?vid=9ab94bd4-911e-4ae8-a279-365da064d715","ios":"levelo://app?vid=9ab94bd4-911e-4ae8-a279-365da064d715"},"vehicle_type_id":"4","last_reported":1766768963,"current_range_meters":12400,"station_id":"ce4bgj92rcd13ifvqbe0","pricing_plan_id":"cebpf4jnsgd1na2vs0mg"},{"bike_id":"bfbac5d5-ee1d-4485-851b-815726cd1e57","system_id":"levelo_inurba_marseille","lat":43.32046,"lon":5.41512,"is_reserved":false,"is_disabled":false,"rental_uris":{"android":"levelo://app?vid=bfbac5d5-ee1d-4485-851b-815726cd1e57","ios":"levelo://app?vid=bfbac5d5-ee1d-4485-851b-815726cd1e57"},"vehicle_type_id":"4","last_reported":1766768963,"current_range_meters":12400,"station_id":"ce4bhq92rcd13ifvqhkg","pricing_plan_id":"cebpf4jnsgd1na2vs0mg"},{"bike_id":"66de7b9e-1a4f-4d86-98ae-eb4a418a2023","system_id":"levelo_inurba_marseille","lat":43.29916,"lon":5.37468,"is_reserved":false,"is_disabled":false,"rental_uris":{"android":"levelo://app?vid=66de7b9e-1a4f-4d86-98ae-eb4a418a2023","ios":"levelo://app?vid=66de7b9e-1a4f-4d86-98ae-eb4a418a2023"},"vehicle_type_id":"4","last_reported":1766768963,"current_range_meters":12400,"station_id":"ce4bgjh2rcd13ifvqbg0","pricing_plan_id":"cebpf4jnsgd1na2vs0mg"},{"bike_id":"65591961-92f4-4f5f-b0bf-bf37af87d297","system_id":"levelo_inurba_marseille","lat":43.32484,"lon":5.38282,"is_reserved":false,"is_disabled":false,"rental_uris":{"android":"levelo://app?vid=65591961-92f4-4f5f-b0bf-bf37af87d297","ios":"levelo://app?vid=65591961-92f4-4f5f-b0bf-bf37af87d297"},"vehicle_type_id":"4","last_reported":1766768963,"current_range_meters":12400,"station_id":"st_d4asgbiv49dc73anf9m0","pricing_plan_id":"cebpf4jnsgd1na2vs0mg"},{"bike_id":"0702f50b-d926-4eb8-8eba-cd424d872514","system_id":"levelo_inurba_marseille","lat":43.296332,"lon":5.40599,"is_reserved":false,"is_disabled":false,"rental_uris":{"android":"levelo://app?vid=0702f50b-d926-4eb8-8eba-cd424d872514","ios":"levelo://app?vid=0702f50b-d926-4eb8-8eba-cd424d872514"},"vehicle_type_id":"4","last_reported":1766768963,"current_range_meters":12400,"station_id":"ce4bh0h2rcd13ifvqd60","pricing_plan_id":"cebpf4jnsgd1na2vs0mg"},{"bike_id":"516ea7a1-c95b-410f-b876-ed8e6f6fafa0","system_id":"levelo_inurba_marseille","lat":43.25717,"lon":5.41113,"is_reserved":false,"is_disabled":false,"rental_uris":{"android":"levelo://app?vid=516ea7a1-c95b-410f-b876-ed8e6f6fafa0","ios":"levelo://app?vid=516ea7a1-c95b-410f-b876-ed8e6f6fafa0"},"vehicle_type_id":"4","last_reported":1766768963,"current_range_meters":12400,"station_id":"ce4bhkp2rcd13ifvqgd0","pricing_plan_id":"cebpf4jnsgd1na2vs0mg"},{"bike_id":"0d4effb5-b7b9-4b22-b0ef-fcc99085e415","system_id":"levelo_inurba_marseille","lat":43.29494,"lon":5.43303,"is_reserved":false,"is_disabled":false,"rental_uris":{"android":"levelo://app?vid=0d4effb5-b7b9-4b22-b0ef-fcc99085e415","ios":"levelo://app?vid=0d4effb5-b7b9-4b22-b0ef-fcc99085e415"},"vehicle_type_id":"4","last_reported":1766768963,"current_range_meters":12400,"station_id":"st_d3j5ugp08ojc73fj9d10","pricing_plan_id":"cebpf4jnsgd1na2vs0mg"},{"bike_id":"8cd75e92-16b5-4be6-999f-bc10a6b738f3","system_id":"levelo_inurba_marseille","lat":43.23171,"lon":5.40006,"is_reserved":false,"is_disabled":false,"rental_uris":{"android":"levelo://app?vid=8cd75e92-16b5-4be6-999f-bc10a6b738f3","ios":"levelo://app?vid=8cd75e92-16b5-4be6-999f-bc10a6b738f3"},"vehicle_type_id":"4","last_reported":1766768963,"current_range_meters":12400,"station_id":"ce4bhn12rcd13ifvqgqg","pricing_plan_id":"cebpf4jnsgd1na2vs0mg"},{"bike_id":"0b858e59-9e8c-44bf-a07e-cc94ae761019","system_id":"levelo_inurba_marseille","lat":43.2737,"lon":5.36261,"is_reserved":false,"is_disabled":false,"rental_uris":{"android":"levelo://app?vid=0b858e59-9e8c-44bf-a07e-cc94ae761019","ios":"levelo://app?vid=0b858e59-9e8c-44bf-a07e-cc94ae761019"},"vehicle_type_id":"4","last_reported":1766768963,"current_range_meters":12400,"station_id":"ce4bhbh2rcd13ifvqeo0","pricing_plan_id":"cebpf4jnsgd1na2vs0mg"},{"bike_id":"66584438-8e8d-4b88-af1a-ad83cbf0cc72","system_id":"levelo_inurba_marseille","lat":43.28418,"lon":5.35,"is_reserved":false,"is_disabled":false,"rental_uris":{"android":"levelo://app?vid=66584438-8e8d-4b88-af1a-ad83cbf0cc72","ios":"levelo://app?vid=66584438-8e8d-4b88-af1a-ad83cbf0cc72"},"vehicle_type_id":"4","last_reported":1766768963,"current_range_meters":12400,"station_id":"ce4bhbh2rcd13ifvqepg","pricing_plan_id":"cebpf4jnsgd1na2vs0mg"},{"bike_id":"0309e218-00e7-4919-97bb-7c3a0cf0377b","system_id":"levelo_inurba_marseille","lat":43.33599,"lon":5.41032,"is_reserved":false,"is_disabled":false,"rental_uris":{"android":"levelo://app?vid=0309e218-00e7-4919-97bb-7c3a0cf0377b","ios":"levelo://app?vid=0309e218-00e7-4919-97bb-7c3a0cf0377b"},"vehicle_type_id":"4","last_reported":1766768963,"current_range_meters":12400,"station_id":"ce4bhqh2rcd13ifvqhmg","pricing_plan_id":"cebpf4jnsgd1na2vs0mg"},{"bike_id":"1c86e37a-8481-4da4-bf05-647d86eb8b04","system_id":"levelo_inurba_marseille","lat":43.309103,"lon":5.416336,"is_reserved":false,"is_disabled":false,"rental_uris":{"android":"levelo://app?vid=1c86e37a-8481-4da4-bf05-647d86eb8b04","ios":"levelo://app?vid=1c86e37a-8481-4da4-bf05-647d86eb8b04"},"vehicle_type_id":"4","last_reported":1766768963,"current_range_meters":12400,"station_id":"","pricing_plan_id":"cebpf4jnsgd1na2vs0mg"},{"bike_id":"3df8ba78-e51b-416d-9253-03d76dfb9415","system_id":"levelo_inurba_marseille","lat":43.29756,"lon":5.42792,"is_reserved":false,"is_disabled":false,"rental_uris":{"android":"levelo://app?vid=3df8ba78-e51b-416d-9253-03d76dfb9415","ios":"levelo://app?vid=3df8ba78-e51b-416d-9253-03d76dfb9415"},"vehicle_type_id":"4","last_reported":1766768963,"current_range_meters":12400,"station_id":"st_d3md5207bmas73dh9klg","pricing_plan_id":"cebpf4jnsgd1na2vs0mg"},{"bike_id":"c9346feb-2020-4380-a5a9-7be746a8f756","system_id":"levelo_inurba_marseille","lat":43.29706,"lon":5.37329,"is_reserved":false,"is_disabled":false,"rental_uris":{"android":"levelo://app?vid=c9346feb-2020-4380-a5a9-7be746a8f756","ios":"levelo://app?vid=c9346feb-2020-4380-a5a9-7be746a8f756"},"vehicle_type_id":"4","last_reported":1766768963,"current_range_meters":12800,"station_id":"ce4bgk12rcd13ifvqbj0","pricing_plan_id":"cebpf4jnsgd1na2vs0mg"},{"bike_id":"92d80675-044b-48fa-9aa3-77b4da84f73c","system_id":"levelo_inurba_marseille","lat":43.29208,"lon":5.40406,"is_reserved":false,"is_disabled":false,"rental_uris":{"android":"levelo://app?vid=92d80675-044b-48fa-9aa3-77b4da84f73c","ios":"levelo://app?vid=92d80675-044b-48fa-9aa3-77b4da84f73c"},"vehicle_type_id":"4","last_reported":1766768963,"current_range_meters":12800,"station_id":"","pricing_plan_id":"cebpf4jnsgd1na2vs0mg"},{"bike_id":"9a28fd2f-33dc-47c9-84f8-2e8b1adbfeca","system_id":"levelo_inurba_marseille","lat":43.29756,"lon":5.42773,"is_reserved":false,"is_disabled":false,"rental_uris":{"android":"levelo://app?vid=9a28fd2f-33dc-47c9-84f8-2e8b1adbfeca","ios":"levelo://app?vid=9a28fd2f-33dc-47c9-84f8-2e8b1adbfeca"},"vehicle_type_id":"4","last_reported":1766768963,"current_range_meters":12800,"station_id":"st_d3md5207bmas73dh9klg","pricing_plan_id":"cebpf4jnsgd1na2vs0mg"},{"bike_id":"1b152ae5-9ff7-4d57-b381-b6d23a851225","system_id":"levelo_inurba_marseille","lat":43.33544,"lon":5.37469,"is_reserved":false,"is_disabled":false,"rental_uris":{"android":"levelo://app?vid=1b152ae5-9ff7-4d57-b381-b6d23a851225","ios":"levelo://app?vid=1b152ae5-9ff7-4d57-b381-b6d23a851225"},"vehicle_type_id":"4","last_reported":1766768963,"current_range_meters":12800,"station_id":"st_d46tts09ee8s73dlu43g","pricing_plan_id":"cebpf4jnsgd1na2vs0mg"},{"bike_id":"859c4010-ce5a-48c9-99b8-6d3111511fce","system_id":"levelo_inurba_marseille","lat":43.29264,"lon":5.38444,"is_reserved":false,"is_disabled":false,"rental_uris":{"android":"levelo://app?vid=859c4010-ce5a-48c9-99b8-6d3111511fce","ios":"levelo://app?vid=859c4010-ce5a-48c9-99b8-6d3111511fce"},"vehicle_type_id":"4","last_reported":1766768963,"current_range_meters":12800,"station_id":"ce4bh692rcd13ifvqea0","pricing_plan_id":"cebpf4jnsgd1na2vs0mg"},{"bike_id":"d67904e3-d432-4bb6-9c59-13ac7cead46a","system_id":"levelo_inurba_marseille","lat":43.3235,"lon":5.36742,"is_reserved":false,"is_disabled":false,"rental_uris":{"android":"levelo://app?vid=d67904e3-d432-4bb6-9c59-13ac7cead46a","ios":"levelo://app?vid=d67904e3-d432-4bb6-9c59-13ac7cead46a"},"vehicle_type_id":"4","last_reported":1766768963,"current_range_meters":12800,"station_id":"ce4bhsh2rcd13ifvqi2g","pricing_plan_id":"cebpf4jnsgd1na2vs0mg"},{"bike_id":"4b6ce922-19da-436f-b61e-6f50c9091835","system_id":"levelo_inurba_marseille","lat":43.29197,"lon":5.39314,"is_reserved":false,"is_disabled":false,"rental_uris":{"android":"levelo://app?vid=4b6ce922-19da-436f-b61e-6f50c9091835","ios":"levelo://app?vid=4b6ce922-19da-436f-b61e-6f50c9091835"},"vehicle_type_id":"4","last_reported":1766768963,"current_range_meters":12800,"station_id":"ce4bh192rcd13ifvqdd0","pricing_plan_id":"cebpf4jnsgd1na2vs0mg"},{"bike_id":"39583dda-81ed-4feb-8b65-75d0bfc56571","system_id":"levelo_inurba_marseille","lat":43.25001,"lon":5.38935,"is_reserved":false,"is_disabled":false,"rental_uris":{"android":"levelo://app?vid=39583dda-81ed-4feb-8b65-75d0bfc56571","ios":"levelo://app?vid=39583dda-81ed-4feb-8b65-75d0bfc56571"},"vehicle_type_id":"4","last_reported":1766768963,"current_range_meters":12800,"station_id":"ce4bhgp2rcd13ifvqfd0","pricing_plan_id":"cebpf4jnsgd1na2vs0mg"},{"bike_id":"40e021b7-a86c-40c6-88a2-a020cb4b0db0","system_id":"levelo_inurba_marseille","lat":43.33025,"lon":5.39036,"is_reserved":false,"is_disabled":false,"rental_uris":{"android":"levelo://app?vid=40e021b7-a86c-40c6-88a2-a020cb4b0db0","ios":"levelo://app?vid=40e021b7-a86c-40c6-88a2-a020cb4b0db0"},"vehicle_type_id":"4","last_reported":1766768963,"current_range_meters":12800,"station_id":"ce4bhr92rcd13ifvqhrg","pricing_plan_id":"cebpf4jnsgd1na2vs0mg"},{"bike_id":"bee8cb55-0b96-4022-a72f-4a26e73728cb","system_id":"levelo_inurba_marseille","lat":43.293194,"lon":5.371805,"is_reserved":false,"is_disabled":false,"rental_uris":{"android":"levelo://app?vid=bee8cb55-0b96-4022-a72f-4a26e73728cb","ios":"levelo://app?vid=bee8cb55-0b96-4022-a72f-4a26e73728cb"},"vehicle_type_id":"4","last_reported":1766768963,"current_range_meters":12800,"station_id":"ce4bgh92rcd13ifvqb40","pricing_plan_id":"cebpf4jnsgd1na2vs0mg"},{"bike_id":"9e1cb312-28c0-4fd0-8afc-7945c66fa276","system_id":"levelo_inurba_marseille","lat":43.33165,"lon":5.37686,"is_reserved":false,"is_disabled":false,"rental_uris":{"android":"levelo://app?vid=9e1cb312-28c0-4fd0-8afc-7945c66fa276","ios":"levelo://app?vid=9e1cb312-28c0-4fd0-8afc-7945c66fa276"},"vehicle_type_id":"4","last_reported":1766768963,"current_range_meters":12800,"station_id":"st_d46cu089ee8s73dldbu0","pricing_plan_id":"cebpf4jnsgd1na2vs0mg"},{"bike_id":"bc568f99-2d83-4e5a-8b80-4c8ab7d8ad1f","system_id":"levelo_inurba_marseille","lat":43.24155,"lon":5.37647,"is_reserved":false,"is_disabled":false,"rental_uris":{"android":"levelo://app?vid=bc568f99-2d83-4e5a-8b80-4c8ab7d8ad1f","ios":"levelo://app?vid=bc568f99-2d83-4e5a-8b80-4c8ab7d8ad1f"},"vehicle_type_id":"4","last_reported":1766768963,"current_range_meters":12800,"station_id":"","pricing_plan_id":"cebpf4jnsgd1na2vs0mg"},{"bike_id":"649334de-4c95-4658-8e7d-e81851856940","system_id":"levelo_inurba_marseille","lat":43.27485,"lon":5.42436,"is_reserved":false,"is_disabled":false,"rental_uris":{"android":"levelo://app?vid=649334de-4c95-4658-8e7d-e81851856940","ios":"levelo://app?vid=649334de-4c95-4658-8e7d-e81851856940"},"vehicle_type_id":"4","last_reported":1766768963,"current_range_meters":12800,"station_id":"ce4bhn92rcd13ifvqgrg","pricing_plan_id":"cebpf4jnsgd1na2vs0mg"},{"bike_id":"d3bb99a6-6aec-4f71-b300-0b4a2d086db4","system_id":"levelo_inurba_marseille","lat":43.27322,"lon":5.39097,"is_reserved":false,"is_disabled":false,"rental_uris":{"android":"levelo://app?vid=d3bb99a6-6aec-4f71-b300-0b4a2d086db4","ios":"levelo://app?vid=d3bb99a6-6aec-4f71-b300-0b4a2d086db4"},"vehicle_type_id":"4","last_reported":1766768963,"current_range_meters":12800,"station_id":"ce4bhgp2rcd13ifvqfe0","pricing_plan_id":"cebpf4jnsgd1na2vs0mg"},{"bike_id":"859e49a6-fc42-445b-b1db-54603ecb439d","system_id":"levelo_inurba_marseille","lat":43.303193,"lon":5.368967,"is_reserved":false,"is_disabled":false,"rental_uris":{"android":"levelo://app?vid=859e49a6-fc42-445b-b1db-54603ecb439d","ios":"levelo://app?vid=859e49a6-fc42-445b-b1db-54603ecb439d"},"vehicle_type_id":"4","last_reported":1766768963,"current_range_meters":13600,"station_id":"ce4bgqh2rcd13ifvqc5g","pricing_plan_id":"cebpf4jnsgd1na2vs0mg"},{"bike_id":"c20e3468-7ee0-441d-a8fd-cedaa65a5b80","system_id":"levelo_inurba_marseille","lat":43.28273,"lon":5.35085,"is_reserved":false,"is_disabled":false,"rental_uris":{"android":"levelo://app?vid=c20e3468-7ee0-441d-a8fd-cedaa65a5b80","ios":"levelo://app?vid=c20e3468-7ee0-441d-a8fd-cedaa65a5b80"},"vehicle_type_id":"4","last_reported":1766768963,"current_range_meters":13600,"station_id":"ce4bhbp2rcd13ifvqerg","pricing_plan_id":"cebpf4jnsgd1na2vs0mg"},{"bike_id":"31e66d60-a566-49ea-84de-75787b444119","system_id":"levelo_inurba_marseille","lat":43.31269,"lon":5.40171,"is_reserved":false,"is_disabled":false,"rental_uris":{"android":"levelo://app?vid=31e66d60-a566-49ea-84de-75787b444119","ios":"levelo://app?vid=31e66d60-a566-49ea-84de-75787b444119"},"vehicle_type_id":"4","last_reported":1766768963,"current_range_meters":13600,"station_id":"ce4bh092rcd13ifvqd30","pricing_plan_id":"cebpf4jnsgd1na2vs0mg"},{"bike_id":"53b0c323-1f2c-4890-898b-18ae97706c5b","system_id":"levelo_inurba_marseille","lat":43.29535,"lon":5.37499,"is_reserved":false,"is_disabled":true,"rental_uris":{"android":"levelo://app?vid=53b0c323-1f2c-4890-898b-18ae97706c5b","ios":"levelo://app?vid=53b0c323-1f2c-4890-898b-18ae97706c5b"},"vehicle_type_id":"4","last_reported":1766768963,"current_range_meters":13600,"station_id":"ce4bgkp2rcd13ifvqbmg","pricing_plan_id":"cebpf4jnsgd1na2vs0mg"},{"bike_id":"d4baa944-a92f-4d31-90da-8416303191f4","system_id":"levelo_inurba_marseille","lat":43.32124,"lon":5.36784,"is_reserved":false,"is_disabled":false,"rental_uris":{"android":"levelo://app?vid=d4baa944-a92f-4d31-90da-8416303191f4","ios":"levelo://app?vid=d4baa944-a92f-4d31-90da-8416303191f4"},"vehicle_type_id":"4","last_reported":1766768963,"current_range_meters":13600,"station_id":"ce4bhrh2rcd13ifvqhug","pricing_plan_id":"cebpf4jnsgd1na2vs0mg"},{"bike_id":"194f73ad-0b5e-4455-9f8a-be6c7348a771","system_id":"levelo_inurba_marseille","lat":43.331561,"lon":5.376854,"is_reserved":false,"is_disabled":false,"rental_uris":{"android":"levelo://app?vid=194f73ad-0b5e-4455-9f8a-be6c7348a771","ios":"levelo://app?vid=194f73ad-0b5e-4455-9f8a-be6c7348a771"},"vehicle_type_id":"4","last_reported":1766768963,"current_range_meters":13600,"station_id":"st_d46cu089ee8s73dldbu0","pricing_plan_id":"cebpf4jnsgd1na2vs0mg"},{"bike_id":"0dea2e8a-6059-4d97-ad92-35ab7ce0b843","system_id":"levelo_inurba_marseille","lat":43.29616,"lon":5.37724,"is_reserved":false,"is_disabled":false,"rental_uris":{"android":"levelo://app?vid=0dea2e8a-6059-4d97-ad92-35ab7ce0b843","ios":"levelo://app?vid=0dea2e8a-6059-4d97-ad92-35ab7ce0b843"},"vehicle_type_id":"4","last_reported":1766768963,"current_range_meters":13600,"station_id":"ce4bgi92rcd13ifvqb90","pricing_plan_id":"cebpf4jnsgd1na2vs0mg"},{"bike_id":"5f28fd39-60b7-400e-8355-9be34e6c13d0","system_id":"levelo_inurba_marseille","lat":43.30588,"lon":5.36514,"is_reserved":false,"is_disabled":false,"rental_uris":{"android":"levelo://app?vid=5f28fd39-60b7-400e-8355-9be34e6c13d0","ios":"levelo://app?vid=5f28fd39-60b7-400e-8355-9be34e6c13d0"},"vehicle_type_id":"4","last_reported":1766768963,"current_range_meters":13600,"station_id":"ce4bgs12rcd13ifvqcag","pricing_plan_id":"cebpf4jnsgd1na2vs0mg"},{"bike_id":"0c95dd9f-c660-4b76-b09f-1fe6a5fcdd5e","system_id":"levelo_inurba_marseille","lat":43.32336,"lon":5.36762,"is_reserved":false,"is_disabled":false,"rental_uris":{"android":"levelo://app?vid=0c95dd9f-c660-4b76-b09f-1fe6a5fcdd5e","ios":"levelo://app?vid=0c95dd9f-c660-4b76-b09f-1fe6a5fcdd5e"},"vehicle_type_id":"4","last_reported":1766768963,"current_range_meters":13600,"station_id":"ce4bhsh2rcd13ifvqi2g","pricing_plan_id":"cebpf4jnsgd1na2vs0mg"},{"bike_id":"0125cf6e-1378-412b-a7dd-03753ddd54e6","system_id":"levelo_inurba_marseille","lat":43.29938,"lon":5.36523,"is_reserved":false,"is_disabled":false,"rental_uris":{"android":"levelo://app?vid=0125cf6e-1378-412b-a7dd-03753ddd54e6","ios":"levelo://app?vid=0125cf6e-1378-412b-a7dd-03753ddd54e6"},"vehicle_type_id":"4","last_reported":1766768963,"current_range_meters":13600,"station_id":"ce4bgm92rcd13ifvqbr0","pricing_plan_id":"cebpf4jnsgd1na2vs0mg"},{"bike_id":"93339257-c64b-41cd-8bbd-6b896e41f365","system_id":"levelo_inurba_marseille","lat":43.32111,"lon":5.36769,"is_reserved":false,"is_disabled":false,"rental_uris":{"android":"levelo://app?vid=93339257-c64b-41cd-8bbd-6b896e41f365","ios":"levelo://app?vid=93339257-c64b-41cd-8bbd-6b896e41f365"},"vehicle_type_id":"4","last_reported":1766768963,"current_range_meters":13600,"station_id":"ce4bhrh2rcd13ifvqhug","pricing_plan_id":"cebpf4jnsgd1na2vs0mg"},{"bike_id":"5b0e730c-da97-4939-8816-81125587fcb1","system_id":"levelo_inurba_marseille","lat":43.231988,"lon":5.355488,"is_reserved":false,"is_disabled":false,"rental_uris":{"android":"levelo://app?vid=5b0e730c-da97-4939-8816-81125587fcb1","ios":"levelo://app?vid=5b0e730c-da97-4939-8816-81125587fcb1"},"vehicle_type_id":"4","last_reported":1766768963,"current_range_meters":13600,"station_id":"ce4bhu92rcd13ifvqi70","pricing_plan_id":"cebpf4jnsgd1na2vs0mg"},{"bike_id":"9a5c4a08-f238-4923-a485-79f2fc260aba","system_id":"levelo_inurba_marseille","lat":43.21744,"lon":5.34597,"is_reserved":false,"is_disabled":false,"rental_uris":{"android":"levelo://app?vid=9a5c4a08-f238-4923-a485-79f2fc260aba","ios":"levelo://app?vid=9a5c4a08-f238-4923-a485-79f2fc260aba"},"vehicle_type_id":"4","last_reported":1766768963,"current_range_meters":13600,"station_id":"st_cvj6r9ubvosntc0bgbag","pricing_plan_id":"cebpf4jnsgd1na2vs0mg"},{"bike_id":"ffd01dbf-4e75-4a7f-a0ee-4191a3cc86de","system_id":"levelo_inurba_marseille","lat":43.2922,"lon":5.36912,"is_reserved":false,"is_disabled":false,"rental_uris":{"android":"levelo://app?vid=ffd01dbf-4e75-4a7f-a0ee-4191a3cc86de","ios":"levelo://app?vid=ffd01dbf-4e75-4a7f-a0ee-4191a3cc86de"},"vehicle_type_id":"4","last_reported":1766768963,"current_range_meters":13600,"station_id":"","pricing_plan_id":"cebpf4jnsgd1na2vs0mg"},{"bike_id":"f556403d-4b5f-4e1b-98bd-5f8a3846c56a","system_id":"levelo_inurba_marseille","lat":43.27618,"lon":5.36096,"is_reserved":false,"is_disabled":false,"rental_uris":{"android":"levelo://app?vid=f556403d-4b5f-4e1b-98bd-5f8a3846c56a","ios":"levelo://app?vid=f556403d-4b5f-4e1b-98bd-5f8a3846c56a"},"vehicle_type_id":"4","last_reported":1766768963,"current_range_meters":13600,"station_id":"ce4bgj92rcd13ifvqbe0","pricing_plan_id":"cebpf4jnsgd1na2vs0mg"},{"bike_id":"596f9f2e-754a-4bff-95d7-fb2758b09a2e","system_id":"levelo_inurba_marseille","lat":43.3242,"lon":5.36728,"is_reserved":false,"is_disabled":false,"rental_uris":{"android":"levelo://app?vid=596f9f2e-754a-4bff-95d7-fb2758b09a2e","ios":"levelo://app?vid=596f9f2e-754a-4bff-95d7-fb2758b09a2e"},"vehicle_type_id":"4","last_reported":1766768963,"current_range_meters":13600,"station_id":"","pricing_plan_id":"cebpf4jnsgd1na2vs0mg"},{"bike_id":"689e1e25-96b9-418c-bbe1-0e8f9558c52f","system_id":"levelo_inurba_marseille","lat":43.31387,"lon":5.37584,"is_reserved":false,"is_disabled":false,"rental_uris":{"android":"levelo://app?vid=689e1e25-96b9-418c-bbe1-0e8f9558c52f","ios":"levelo://app?vid=689e1e25-96b9-418c-bbe1-0e8f9558c52f"},"vehicle_type_id":"4","last_reported":1766768963,"current_range_meters":13600,"station_id":"","pricing_plan_id":"cebpf4jnsgd1na2vs0mg"},{"bike_id":"09ef977e-e5ff-4353-aac1-76579b7ceb73","system_id":"levelo_inurba_marseille","lat":43.286139,"lon":5.383672,"is_reserved":false,"is_disabled":false,"rental_uris":{"android":"levelo://app?vid=09ef977e-e5ff-4353-aac1-76579b7ceb73","ios":"levelo://app?vid=09ef977e-e5ff-4353-aac1-76579b7ceb73"},"vehicle_type_id":"4","last_reported":1766768963,"current_range_meters":13600,"station_id":"","pricing_plan_id":"cebpf4jnsgd1na2vs0mg"},{"bike_id":"e2b557d8-4bf3-4274-9cd1-1e965e3faec4","system_id":"levelo_inurba_marseille","lat":43.31344,"lon":5.36754,"is_reserved":false,"is_disabled":false,"rental_uris":{"android":"levelo://app?vid=e2b557d8-4bf3-4274-9cd1-1e965e3faec4","ios":"levelo://app?vid=e2b557d8-4bf3-4274-9cd1-1e965e3faec4"},"vehicle_type_id":"4","last_reported":1766768963,"current_range_meters":13600,"station_id":"ce4bgr92rcd13ifvqc6g","pricing_plan_id":"cebpf4jnsgd1na2vs0mg"},{"bike_id":"bc3607d3-375f-4bb8-b687-1c141a27acd0","system_id":"levelo_inurba_marseille","lat":43.2841,"lon":5.39203,"is_reserved":false,"is_disabled":false,"rental_uris":{"android":"levelo://app?vid=bc3607d3-375f-4bb8-b687-1c141a27acd0","ios":"levelo://app?vid=bc3607d3-375f-4bb8-b687-1c141a27acd0"},"vehicle_type_id":"4","last_reported":1766768963,"current_range_meters":14000,"station_id":"ce4bhoh2rcd13ifvqh5g","pricing_plan_id":"cebpf4jnsgd1na2vs0mg"},{"bike_id":"bac2109d-15df-4d0e-bae2-d33bd1ac452e","system_id":"levelo_inurba_marseille","lat":43.299845,"lon":5.371892,"is_reserved":false,"is_disabled":false,"rental_uris":{"android":"levelo://app?vid=bac2109d-15df-4d0e-bae2-d33bd1ac452e","ios":"levelo://app?vid=bac2109d-15df-4d0e-bae2-d33bd1ac452e"},"vehicle_type_id":"4","last_reported":1766768963,"current_range_meters":14000,"station_id":"ce4bgr92rcd13ifvqc7g","pricing_plan_id":"cebpf4jnsgd1na2vs0mg"},{"bike_id":"8526cb13-c70f-4134-9aed-80c4c9d31e4e","system_id":"levelo_inurba_marseille","lat":43.27923,"lon":5.39196,"is_reserved":false,"is_disabled":false,"rental_uris":{"android":"levelo://app?vid=8526cb13-c70f-4134-9aed-80c4c9d31e4e","ios":"levelo://app?vid=8526cb13-c70f-4134-9aed-80c4c9d31e4e"},"vehicle_type_id":"4","last_reported":1766768963,"current_range_meters":14000,"station_id":"","pricing_plan_id":"cebpf4jnsgd1na2vs0mg"},{"bike_id":"9c1ff02c-df35-4545-98b6-54b455499ca0","system_id":"levelo_inurba_marseille","lat":43.27206,"lon":5.40973,"is_reserved":false,"is_disabled":true,"rental_uris":{"android":"levelo://app?vid=9c1ff02c-df35-4545-98b6-54b455499ca0","ios":"levelo://app?vid=9c1ff02c-df35-4545-98b6-54b455499ca0"},"vehicle_type_id":"4","last_reported":1766768963,"current_range_meters":14000,"station_id":"ce4bhl12rcd13ifvqgf0","pricing_plan_id":"cebpf4jnsgd1na2vs0mg"},{"bike_id":"9ae2a8cd-4b9d-4a82-9ee3-dac503ee0b2e","system_id":"levelo_inurba_marseille","lat":43.300854,"lon":5.376791,"is_reserved":false,"is_disabled":false,"rental_uris":{"android":"levelo://app?vid=9ae2a8cd-4b9d-4a82-9ee3-dac503ee0b2e","ios":"levelo://app?vid=9ae2a8cd-4b9d-4a82-9ee3-dac503ee0b2e"},"vehicle_type_id":"4","last_reported":1766768963,"current_range_meters":14000,"station_id":"","pricing_plan_id":"cebpf4jnsgd1na2vs0mg"},{"bike_id":"dac24c5c-9a42-4fdf-bf17-c0729a4a9a2a","system_id":"levelo_inurba_marseille","lat":43.32511,"lon":5.41219,"is_reserved":false,"is_disabled":false,"rental_uris":{"android":"levelo://app?vid=dac24c5c-9a42-4fdf-bf17-c0729a4a9a2a","ios":"levelo://app?vid=dac24c5c-9a42-4fdf-bf17-c0729a4a9a2a"},"vehicle_type_id":"4","last_reported":1766768963,"current_range_meters":14000,"station_id":"","pricing_plan_id":"cebpf4jnsgd1na2vs0mg"},{"bike_id":"e06e16f6-596f-4677-9ce6-0164b6eff11e","system_id":"levelo_inurba_marseille","lat":43.29291,"lon":5.37695,"is_reserved":false,"is_disabled":false,"rental_uris":{"android":"levelo://app?vid=e06e16f6-596f-4677-9ce6-0164b6eff11e","ios":"levelo://app?vid=e06e16f6-596f-4677-9ce6-0164b6eff11e"},"vehicle_type_id":"4","last_reported":1766768963,"current_range_meters":14000,"station_id":"","pricing_plan_id":"cebpf4jnsgd1na2vs0mg"},{"bike_id":"7daf8e03-7bb6-460c-9e70-e8717364d09b","system_id":"levelo_inurba_marseille","lat":43.335379,"lon":5.374647,"is_reserved":false,"is_disabled":false,"rental_uris":{"android":"levelo://app?vid=7daf8e03-7bb6-460c-9e70-e8717364d09b","ios":"levelo://app?vid=7daf8e03-7bb6-460c-9e70-e8717364d09b"},"vehicle_type_id":"4","last_reported":1766768963,"current_range_meters":14000,"station_id":"st_d46tts09ee8s73dlu43g","pricing_plan_id":"cebpf4jnsgd1na2vs0mg"},{"bike_id":"339a0c71-2a9a-4cfb-a54e-2a5557b4296a","system_id":"levelo_inurba_marseille","lat":43.24169,"lon":5.36399,"is_reserved":false,"is_disabled":false,"rental_uris":{"android":"levelo://app?vid=339a0c71-2a9a-4cfb-a54e-2a5557b4296a","ios":"levelo://app?vid=339a0c71-2a9a-4cfb-a54e-2a5557b4296a"},"vehicle_type_id":"4","last_reported":1766768963,"current_range_meters":14000,"station_id":"cpo36qri1sfpv3e86is0","pricing_plan_id":"cebpf4jnsgd1na2vs0mg"},{"bike_id":"8c38ad49-3dc9-4df2-ad55-281c65b01b8d","system_id":"levelo_inurba_marseille","lat":43.33162,"lon":5.376817,"is_reserved":false,"is_disabled":false,"rental_uris":{"android":"levelo://app?vid=8c38ad49-3dc9-4df2-ad55-281c65b01b8d","ios":"levelo://app?vid=8c38ad49-3dc9-4df2-ad55-281c65b01b8d"},"vehicle_type_id":"4","last_reported":1766768963,"current_range_meters":14000,"station_id":"st_d46cu089ee8s73dldbu0","pricing_plan_id":"cebpf4jnsgd1na2vs0mg"},{"bike_id":"4bb5f6b4-9f89-412d-b467-d32169ae36d4","system_id":"levelo_inurba_marseille","lat":43.24169,"lon":5.36395,"is_reserved":false,"is_disabled":false,"rental_uris":{"android":"levelo://app?vid=4bb5f6b4-9f89-412d-b467-d32169ae36d4","ios":"levelo://app?vid=4bb5f6b4-9f89-412d-b467-d32169ae36d4"},"vehicle_type_id":"4","last_reported":1766768963,"current_range_meters":14000,"station_id":"cpo36qri1sfpv3e86is0","pricing_plan_id":"cebpf4jnsgd1na2vs0mg"},{"bike_id":"a5478b0c-1f7b-4d18-89db-a0aad831a058","system_id":"levelo_inurba_marseille","lat":43.30312,"lon":5.36895,"is_reserved":false,"is_disabled":false,"rental_uris":{"android":"levelo://app?vid=a5478b0c-1f7b-4d18-89db-a0aad831a058","ios":"levelo://app?vid=a5478b0c-1f7b-4d18-89db-a0aad831a058"},"vehicle_type_id":"4","last_reported":1766768963,"current_range_meters":14000,"station_id":"ce4bgqh2rcd13ifvqc5g","pricing_plan_id":"cebpf4jnsgd1na2vs0mg"},{"bike_id":"ee9a3815-8508-4264-9944-ffc32a00cbc7","system_id":"levelo_inurba_marseille","lat":43.217706,"lon":5.34604,"is_reserved":false,"is_disabled":false,"rental_uris":{"android":"levelo://app?vid=ee9a3815-8508-4264-9944-ffc32a00cbc7","ios":"levelo://app?vid=ee9a3815-8508-4264-9944-ffc32a00cbc7"},"vehicle_type_id":"4","last_reported":1766768963,"current_range_meters":14000,"station_id":"st_cvj6r9ubvosntc0bgbag","pricing_plan_id":"cebpf4jnsgd1na2vs0mg"},{"bike_id":"d3d3222c-acc3-4047-b4eb-5050d8944582","system_id":"levelo_inurba_marseille","lat":43.29572,"lon":5.37499,"is_reserved":false,"is_disabled":false,"rental_uris":{"android":"levelo://app?vid=d3d3222c-acc3-4047-b4eb-5050d8944582","ios":"levelo://app?vid=d3d3222c-acc3-4047-b4eb-5050d8944582"},"vehicle_type_id":"4","last_reported":1766768963,"current_range_meters":14000,"station_id":"ce4bgh92rcd13ifvqb50","pricing_plan_id":"cebpf4jnsgd1na2vs0mg"},{"bike_id":"424bc263-7a48-435c-8c85-b10009c8ee56","system_id":"levelo_inurba_marseille","lat":43.32361,"lon":5.36761,"is_reserved":false,"is_disabled":false,"rental_uris":{"android":"levelo://app?vid=424bc263-7a48-435c-8c85-b10009c8ee56","ios":"levelo://app?vid=424bc263-7a48-435c-8c85-b10009c8ee56"},"vehicle_type_id":"4","last_reported":1766768963,"current_range_meters":14000,"station_id":"ce4bhsh2rcd13ifvqi2g","pricing_plan_id":"cebpf4jnsgd1na2vs0mg"},{"bike_id":"02cb24cc-e062-4b73-80fd-141f91a697f7","system_id":"levelo_inurba_marseille","lat":43.31567,"lon":5.37655,"is_reserved":false,"is_disabled":false,"rental_uris":{"android":"levelo://app?vid=02cb24cc-e062-4b73-80fd-141f91a697f7","ios":"levelo://app?vid=02cb24cc-e062-4b73-80fd-141f91a697f7"},"vehicle_type_id":"4","last_reported":1766768963,"current_range_meters":14000,"station_id":"","pricing_plan_id":"cebpf4jnsgd1na2vs0mg"},{"bike_id":"5faf4f38-f673-4618-b874-abda9b7a57ce","system_id":"levelo_inurba_marseille","lat":43.29956,"lon":5.38508,"is_reserved":false,"is_disabled":false,"rental_uris":{"android":"levelo://app?vid=5faf4f38-f673-4618-b874-abda9b7a57ce","ios":"levelo://app?vid=5faf4f38-f673-4618-b874-abda9b7a57ce"},"vehicle_type_id":"4","last_reported":1766768963,"current_range_meters":14000,"station_id":"ce4bgj92rcd13ifvqbd0","pricing_plan_id":"cebpf4jnsgd1na2vs0mg"},{"bike_id":"acb6b83a-16cf-41a8-a62c-c0772f6c2ac2","system_id":"levelo_inurba_marseille","lat":43.295617,"lon":5.385506,"is_reserved":false,"is_disabled":false,"rental_uris":{"android":"levelo://app?vid=acb6b83a-16cf-41a8-a62c-c0772f6c2ac2","ios":"levelo://app?vid=acb6b83a-16cf-41a8-a62c-c0772f6c2ac2"},"vehicle_type_id":"4","last_reported":1766768963,"current_range_meters":14000,"station_id":"ce4bgih2rcd13ifvqba0","pricing_plan_id":"cebpf4jnsgd1na2vs0mg"},{"bike_id":"a60aab28-e45f-4ade-bf06-05ea36f216c0","system_id":"levelo_inurba_marseille","lat":43.30313,"lon":5.36896,"is_reserved":false,"is_disabled":false,"rental_uris":{"android":"levelo://app?vid=a60aab28-e45f-4ade-bf06-05ea36f216c0","ios":"levelo://app?vid=a60aab28-e45f-4ade-bf06-05ea36f216c0"},"vehicle_type_id":"4","last_reported":1766768963,"current_range_meters":14400,"station_id":"ce4bgqh2rcd13ifvqc5g","pricing_plan_id":"cebpf4jnsgd1na2vs0mg"},{"bike_id":"07b22faa-f00c-4d7b-8fd0-8f103e849cda","system_id":"levelo_inurba_marseille","lat":43.2799,"lon":5.41643,"is_reserved":false,"is_disabled":false,"rental_uris":{"android":"levelo://app?vid=07b22faa-f00c-4d7b-8fd0-8f103e849cda","ios":"levelo://app?vid=07b22faa-f00c-4d7b-8fd0-8f103e849cda"},"vehicle_type_id":"4","last_reported":1766768963,"current_range_meters":14400,"station_id":"ce4bho12rcd13ifvqh1g","pricing_plan_id":"cebpf4jnsgd1na2vs0mg"},{"bike_id":"c7681331-a0cc-44df-9249-d35b3e73fd92","system_id":"levelo_inurba_marseille","lat":43.301268,"lon":5.39861,"is_reserved":false,"is_disabled":false,"rental_uris":{"android":"levelo://app?vid=c7681331-a0cc-44df-9249-d35b3e73fd92","ios":"levelo://app?vid=c7681331-a0cc-44df-9249-d35b3e73fd92"},"vehicle_type_id":"4","last_reported":1766768963,"current_range_meters":14400,"station_id":"ce4bh0h2rcd13ifvqd40","pricing_plan_id":"cebpf4jnsgd1na2vs0mg"},{"bike_id":"d82042c6-2b6a-49fb-9b35-25ce44be0d80","system_id":"levelo_inurba_marseille","lat":43.25095,"lon":5.40329,"is_reserved":false,"is_disabled":false,"rental_uris":{"android":"levelo://app?vid=d82042c6-2b6a-49fb-9b35-25ce44be0d80","ios":"levelo://app?vid=d82042c6-2b6a-49fb-9b35-25ce44be0d80"},"vehicle_type_id":"4","last_reported":1766768963,"current_range_meters":14400,"station_id":"ce4bhlh2rcd13ifvqgig","pricing_plan_id":"cebpf4jnsgd1na2vs0mg"},{"bike_id":"56691a51-3f80-4391-9c85-001b7f8f94cd","system_id":"levelo_inurba_marseille","lat":43.29355,"lon":5.39004,"is_reserved":false,"is_disabled":false,"rental_uris":{"android":"levelo://app?vid=56691a51-3f80-4391-9c85-001b7f8f94cd","ios":"levelo://app?vid=56691a51-3f80-4391-9c85-001b7f8f94cd"},"vehicle_type_id":"4","last_reported":1766768963,"current_range_meters":14400,"station_id":"","pricing_plan_id":"cebpf4jnsgd1na2vs0mg"},{"bike_id":"d0fd51c5-0139-4a31-b911-aa96edb4687f","system_id":"levelo_inurba_marseille","lat":43.30596,"lon":5.39356,"is_reserved":false,"is_disabled":false,"rental_uris":{"android":"levelo://app?vid=d0fd51c5-0139-4a31-b911-aa96edb4687f","ios":"levelo://app?vid=d0fd51c5-0139-4a31-b911-aa96edb4687f"},"vehicle_type_id":"4","last_reported":1766768963,"current_range_meters":14400,"station_id":"ce4bh0p2rcd13ifvqd80","pricing_plan_id":"cebpf4jnsgd1na2vs0mg"},{"bike_id":"156e61f2-3d75-4260-9924-a8b3ec92c21b","system_id":"levelo_inurba_marseille","lat":43.22559,"lon":5.41626,"is_reserved":false,"is_disabled":true,"rental_uris":{"android":"levelo://app?vid=156e61f2-3d75-4260-9924-a8b3ec92c21b","ios":"levelo://app?vid=156e61f2-3d75-4260-9924-a8b3ec92c21b"},"vehicle_type_id":"4","last_reported":1766768963,"current_range_meters":14400,"station_id":"st_d2o4gvlbi1j2169b742g","pricing_plan_id":"cebpf4jnsgd1na2vs0mg"},{"bike_id":"c9217ff8-2f2b-4d28-9a61-75fb3b1332e8","system_id":"levelo_inurba_marseille","lat":43.30116,"lon":5.43116,"is_reserved":false,"is_disabled":false,"rental_uris":{"android":"levelo://app?vid=c9217ff8-2f2b-4d28-9a61-75fb3b1332e8","ios":"levelo://app?vid=c9217ff8-2f2b-4d28-9a61-75fb3b1332e8"},"vehicle_type_id":"4","last_reported":1766768963,"current_range_meters":14400,"station_id":"st_d3js3co5814s73ftftug","pricing_plan_id":"cebpf4jnsgd1na2vs0mg"},{"bike_id":"38037a8b-e273-42d2-a455-4b2107ee1743","system_id":"levelo_inurba_marseille","lat":43.30111,"lon":5.43077,"is_reserved":false,"is_disabled":false,"rental_uris":{"android":"levelo://app?vid=38037a8b-e273-42d2-a455-4b2107ee1743","ios":"levelo://app?vid=38037a8b-e273-42d2-a455-4b2107ee1743"},"vehicle_type_id":"4","last_reported":1766768963,"current_range_meters":14400,"station_id":"st_d3js3co5814s73ftftug","pricing_plan_id":"cebpf4jnsgd1na2vs0mg"},{"bike_id":"47bf94fe-fc4b-4bbe-8abd-112be00775fd","system_id":"levelo_inurba_marseille","lat":43.2958,"lon":5.37509,"is_reserved":false,"is_disabled":false,"rental_uris":{"android":"levelo://app?vid=47bf94fe-fc4b-4bbe-8abd-112be00775fd","ios":"levelo://app?vid=47bf94fe-fc4b-4bbe-8abd-112be00775fd"},"vehicle_type_id":"4","last_reported":1766768963,"current_range_meters":14400,"station_id":"ce4bgh92rcd13ifvqb50","pricing_plan_id":"cebpf4jnsgd1na2vs0mg"},{"bike_id":"86512598-83f0-4c4a-a58d-92aa9acac71e","system_id":"levelo_inurba_marseille","lat":43.2799,"lon":5.40005,"is_reserved":false,"is_disabled":true,"rental_uris":{"android":"levelo://app?vid=86512598-83f0-4c4a-a58d-92aa9acac71e","ios":"levelo://app?vid=86512598-83f0-4c4a-a58d-92aa9acac71e"},"vehicle_type_id":"4","last_reported":1766768963,"current_range_meters":14400,"station_id":"ce4bho92rcd13ifvqh4g","pricing_plan_id":"cebpf4jnsgd1na2vs0mg"},{"bike_id":"349c2bc2-c0e1-4eda-9ca8-daeb9036885a","system_id":"levelo_inurba_marseille","lat":43.28149,"lon":5.42642,"is_reserved":false,"is_disabled":false,"rental_uris":{"android":"levelo://app?vid=349c2bc2-c0e1-4eda-9ca8-daeb9036885a","ios":"levelo://app?vid=349c2bc2-c0e1-4eda-9ca8-daeb9036885a"},"vehicle_type_id":"4","last_reported":1766768963,"current_range_meters":14400,"station_id":"ce4bhnh2rcd13ifvqgug","pricing_plan_id":"cebpf4jnsgd1na2vs0mg"},{"bike_id":"3f314ebe-8eec-4e17-849f-789c8508a631","system_id":"levelo_inurba_marseille","lat":43.28,"lon":5.40008,"is_reserved":false,"is_disabled":false,"rental_uris":{"android":"levelo://app?vid=3f314ebe-8eec-4e17-849f-789c8508a631","ios":"levelo://app?vid=3f314ebe-8eec-4e17-849f-789c8508a631"},"vehicle_type_id":"4","last_reported":1766768963,"current_range_meters":14400,"station_id":"ce4bho92rcd13ifvqh4g","pricing_plan_id":"cebpf4jnsgd1na2vs0mg"},{"bike_id":"6c48a90e-9851-4828-a1a8-5dedaf0dcafe","system_id":"levelo_inurba_marseille","lat":43.24621,"lon":5.43145,"is_reserved":false,"is_disabled":false,"rental_uris":{"android":"levelo://app?vid=6c48a90e-9851-4828-a1a8-5dedaf0dcafe","ios":"levelo://app?vid=6c48a90e-9851-4828-a1a8-5dedaf0dcafe"},"vehicle_type_id":"4","last_reported":1766768963,"current_range_meters":14800,"station_id":"st_d2m6c4gdas8pm72e190g","pricing_plan_id":"cebpf4jnsgd1na2vs0mg"},{"bike_id":"b97b9366-c081-4745-90ed-0e833c3a2f7c","system_id":"levelo_inurba_marseille","lat":43.33148,"lon":5.3817,"is_reserved":false,"is_disabled":false,"rental_uris":{"android":"levelo://app?vid=b97b9366-c081-4745-90ed-0e833c3a2f7c","ios":"levelo://app?vid=b97b9366-c081-4745-90ed-0e833c3a2f7c"},"vehicle_type_id":"4","last_reported":1766768963,"current_range_meters":14800,"station_id":"","pricing_plan_id":"cebpf4jnsgd1na2vs0mg"},{"bike_id":"31f89d3f-2e88-4a4a-8b6e-204d5d9c1e1b","system_id":"levelo_inurba_marseille","lat":43.279453,"lon":5.410473,"is_reserved":false,"is_disabled":false,"rental_uris":{"android":"levelo://app?vid=31f89d3f-2e88-4a4a-8b6e-204d5d9c1e1b","ios":"levelo://app?vid=31f89d3f-2e88-4a4a-8b6e-204d5d9c1e1b"},"vehicle_type_id":"4","last_reported":1766768963,"current_range_meters":14800,"station_id":"ce4bhnp2rcd13ifvqh0g","pricing_plan_id":"cebpf4jnsgd1na2vs0mg"},{"bike_id":"4a869b22-f0d3-4e7d-864a-c02b27eaa56b","system_id":"levelo_inurba_marseille","lat":43.30418,"lon":5.39753,"is_reserved":false,"is_disabled":false,"rental_uris":{"android":"levelo://app?vid=4a869b22-f0d3-4e7d-864a-c02b27eaa56b","ios":"levelo://app?vid=4a869b22-f0d3-4e7d-864a-c02b27eaa56b"},"vehicle_type_id":"4","last_reported":1766768963,"current_range_meters":14800,"station_id":"ce4bh092rcd13ifvqd20","pricing_plan_id":"cebpf4jnsgd1na2vs0mg"},{"bike_id":"cd907910-4436-42ae-95ae-248ec2852b93","system_id":"levelo_inurba_marseille","lat":43.26683,"lon":5.38245,"is_reserved":false,"is_disabled":false,"rental_uris":{"android":"levelo://app?vid=cd907910-4436-42ae-95ae-248ec2852b93","ios":"levelo://app?vid=cd907910-4436-42ae-95ae-248ec2852b93"},"vehicle_type_id":"4","last_reported":1766768963,"current_range_meters":14800,"station_id":"ce4bhg92rcd13ifvqf90","pricing_plan_id":"cebpf4jnsgd1na2vs0mg"},{"bike_id":"60a2dc58-693e-42dd-a72f-b3478fe2ee29","system_id":"levelo_inurba_marseille","lat":43.22936,"lon":5.35369,"is_reserved":false,"is_disabled":false,"rental_uris":{"android":"levelo://app?vid=60a2dc58-693e-42dd-a72f-b3478fe2ee29","ios":"levelo://app?vid=60a2dc58-693e-42dd-a72f-b3478fe2ee29"},"vehicle_type_id":"4","last_reported":1766768963,"current_range_meters":14800,"station_id":"cpo3532slgdg3j2ikp40","pricing_plan_id":"cebpf4jnsgd1na2vs0mg"},{"bike_id":"f9e8d59c-cf5f-4182-8bed-78508331ca21","system_id":"levelo_inurba_marseille","lat":43.27989,"lon":5.41656,"is_reserved":false,"is_disabled":true,"rental_uris":{"android":"levelo://app?vid=f9e8d59c-cf5f-4182-8bed-78508331ca21","ios":"levelo://app?vid=f9e8d59c-cf5f-4182-8bed-78508331ca21"},"vehicle_type_id":"4","last_reported":1766768963,"current_range_meters":14800,"station_id":"ce4bho12rcd13ifvqh1g","pricing_plan_id":"cebpf4jnsgd1na2vs0mg"},{"bike_id":"ced1419c-54e0-4684-8fb9-5b1030e80e20","system_id":"levelo_inurba_marseille","lat":43.284779,"lon":5.483925,"is_reserved":false,"is_disabled":false,"rental_uris":{"android":"levelo://app?vid=ced1419c-54e0-4684-8fb9-5b1030e80e20","ios":"levelo://app?vid=ced1419c-54e0-4684-8fb9-5b1030e80e20"},"vehicle_type_id":"4","last_reported":1766768963,"current_range_meters":14800,"station_id":"st_d3svhcjqgbts73a3dn0g","pricing_plan_id":"cebpf4jnsgd1na2vs0mg"},{"bike_id":"8919de20-b487-423c-81ed-f5cabe5bd1c0","system_id":"levelo_inurba_marseille","lat":43.24801,"lon":5.37465,"is_reserved":false,"is_disabled":false,"rental_uris":{"android":"levelo://app?vid=8919de20-b487-423c-81ed-f5cabe5bd1c0","ios":"levelo://app?vid=8919de20-b487-423c-81ed-f5cabe5bd1c0"},"vehicle_type_id":"4","last_reported":1766768963,"current_range_meters":15200,"station_id":"ce4bhgh2rcd13ifvqfb0","pricing_plan_id":"cebpf4jnsgd1na2vs0mg"},{"bike_id":"b8e901ee-4c84-47f0-be0f-c317004d0bfa","system_id":"levelo_inurba_marseille","lat":43.2965,"lon":5.373918,"is_reserved":false,"is_disabled":false,"rental_uris":{"android":"levelo://app?vid=b8e901ee-4c84-47f0-be0f-c317004d0bfa","ios":"levelo://app?vid=b8e901ee-4c84-47f0-be0f-c317004d0bfa"},"vehicle_type_id":"4","last_reported":1766768963,"current_range_meters":15200,"station_id":"","pricing_plan_id":"cebpf4jnsgd1na2vs0mg"},{"bike_id":"feacf3f4-70c5-4ed2-815c-880ed439d963","system_id":"levelo_inurba_marseille","lat":43.29868,"lon":5.36297,"is_reserved":false,"is_disabled":false,"rental_uris":{"android":"levelo://app?vid=feacf3f4-70c5-4ed2-815c-880ed439d963","ios":"levelo://app?vid=feacf3f4-70c5-4ed2-815c-880ed439d963"},"vehicle_type_id":"4","last_reported":1766768963,"current_range_meters":15200,"station_id":"ce4bgpp2rcd13ifvqc3g","pricing_plan_id":"cebpf4jnsgd1na2vs0mg"},{"bike_id":"4bd296b5-703d-4818-b2da-6619a71c4ade","system_id":"levelo_inurba_marseille","lat":43.29265,"lon":5.38438,"is_reserved":false,"is_disabled":false,"rental_uris":{"android":"levelo://app?vid=4bd296b5-703d-4818-b2da-6619a71c4ade","ios":"levelo://app?vid=4bd296b5-703d-4818-b2da-6619a71c4ade"},"vehicle_type_id":"4","last_reported":1766768963,"current_range_meters":15200,"station_id":"ce4bh692rcd13ifvqea0","pricing_plan_id":"cebpf4jnsgd1na2vs0mg"},{"bike_id":"663e255d-5f5e-4d65-a6b3-3ad9f08a8e90","system_id":"levelo_inurba_marseille","lat":43.284739,"lon":5.38421,"is_reserved":false,"is_disabled":false,"rental_uris":{"android":"levelo://app?vid=663e255d-5f5e-4d65-a6b3-3ad9f08a8e90","ios":"levelo://app?vid=663e255d-5f5e-4d65-a6b3-3ad9f08a8e90"},"vehicle_type_id":"4","last_reported":1766768963,"current_range_meters":15200,"station_id":"ce4bh512rcd13ifvqe3g","pricing_plan_id":"cebpf4jnsgd1na2vs0mg"},{"bike_id":"424df8a2-e637-48c8-8e92-94799f259dd4","system_id":"levelo_inurba_marseille","lat":43.30647,"lon":5.36673,"is_reserved":false,"is_disabled":false,"rental_uris":{"android":"levelo://app?vid=424df8a2-e637-48c8-8e92-94799f259dd4","ios":"levelo://app?vid=424df8a2-e637-48c8-8e92-94799f259dd4"},"vehicle_type_id":"4","last_reported":1766768963,"current_range_meters":15200,"station_id":"","pricing_plan_id":"cebpf4jnsgd1na2vs0mg"},{"bike_id":"08368f9d-912f-4404-b6c0-c6267e11e352","system_id":"levelo_inurba_marseille","lat":43.263658,"lon":5.410784,"is_reserved":false,"is_disabled":false,"rental_uris":{"android":"levelo://app?vid=08368f9d-912f-4404-b6c0-c6267e11e352","ios":"levelo://app?vid=08368f9d-912f-4404-b6c0-c6267e11e352"},"vehicle_type_id":"4","last_reported":1766768963,"current_range_meters":15200,"station_id":"st_d4e5ca6na9uc73bfl5fg","pricing_plan_id":"cebpf4jnsgd1na2vs0mg"},{"bike_id":"4ba66c5b-cfae-43f9-853c-c6b7c58080e5","system_id":"levelo_inurba_marseille","lat":43.2949,"lon":5.43301,"is_reserved":false,"is_disabled":false,"rental_uris":{"android":"levelo://app?vid=4ba66c5b-cfae-43f9-853c-c6b7c58080e5","ios":"levelo://app?vid=4ba66c5b-cfae-43f9-853c-c6b7c58080e5"},"vehicle_type_id":"4","last_reported":1766768963,"current_range_meters":15200,"station_id":"st_d3j5ugp08ojc73fj9d10","pricing_plan_id":"cebpf4jnsgd1na2vs0mg"},{"bike_id":"96003500-0f12-4eee-a5dc-23e46fdd7f89","system_id":"levelo_inurba_marseille","lat":43.217422,"lon":5.346197,"is_reserved":false,"is_disabled":false,"rental_uris":{"android":"levelo://app?vid=96003500-0f12-4eee-a5dc-23e46fdd7f89","ios":"levelo://app?vid=96003500-0f12-4eee-a5dc-23e46fdd7f89"},"vehicle_type_id":"4","last_reported":1766768963,"current_range_meters":15200,"station_id":"st_cvj6r9ubvosntc0bgbag","pricing_plan_id":"cebpf4jnsgd1na2vs0mg"},{"bike_id":"f51ce5e6-24df-4de6-b01e-3d027efd5b41","system_id":"levelo_inurba_marseille","lat":43.22921,"lon":5.3538,"is_reserved":false,"is_disabled":true,"rental_uris":{"android":"levelo://app?vid=f51ce5e6-24df-4de6-b01e-3d027efd5b41","ios":"levelo://app?vid=f51ce5e6-24df-4de6-b01e-3d027efd5b41"},"vehicle_type_id":"4","last_reported":1766768963,"current_range_meters":15200,"station_id":"cpo3532slgdg3j2ikp40","pricing_plan_id":"cebpf4jnsgd1na2vs0mg"},{"bike_id":"cf42684c-2f83-4795-ab87-4214da43d1fe","system_id":"levelo_inurba_marseille","lat":43.273316,"lon":5.390742,"is_reserved":false,"is_disabled":false,"rental_uris":{"android":"levelo://app?vid=cf42684c-2f83-4795-ab87-4214da43d1fe","ios":"levelo://app?vid=cf42684c-2f83-4795-ab87-4214da43d1fe"},"vehicle_type_id":"4","last_reported":1766768963,"current_range_meters":15200,"station_id":"ce4bhgp2rcd13ifvqfe0","pricing_plan_id":"cebpf4jnsgd1na2vs0mg"},