{"last_updated":1702123917,"ttl":30,"version":"2.2","data":{"bikes":[{"bike_id":"d83fabb5-b3a5-42a1-8df9-1f40affb7eb0","system_id":"levelo_inurba_marseille","lat":43.312239,"lon":5.368562,"is_reserved":false,"is_disabled":false,"rental_uris":{"android":"levelo://app?vid=d83fabb5-b3a5-42a1-8df9-1f40affb7eb0","ios":"levelo://app?vid=d83fabb5-b3a5-42a1-8df9-1f40affb7eb0"},"vehicle_type_id":"4","last_reported":1702123918,"current_range_meters":30400,"station_id":"ce4bgl92rcd13ifvqbq0","pricing_plan_id":"free"},{"bike_id":"27a87876-664f-4fc9-b3b9-17809f9cf1e0","system_id":"levelo_inurba_marseille","lat":43.31234,"lon":5.36876,"is_reserved":false,"is_disabled":false,"rental_uris":{"android":"levelo://app?vid=27a87876-664f-4fc9-b3b9-17809f9cf1e0","ios":"levelo://app?vid=27a87876-664f-4fc9-b3b9-17809f9cf1e0"},"vehicle_type_id":"4","last_reported":1702123918,"current_range_meters":12800,"station_id":"","pricing_plan_id":"free"},{"bike_id":"350522dc-755b-4c6b-8054-8a5d7ed1ac27","system_id":"levelo_inurba_marseille","lat":43.309076,"lon":5.368465,"is_reserved":false,"is_disabled":false,"rental_uris":{"android":"levelo://app?vid=350522dc-755b-4c6b-8054-8a5d7ed1ac27","ios":"levelo://app?vid=350522dc-755b-4c6b-8054-8a5d7ed1ac27"},"vehicle_type_id":"4","last_reported":1702123918,"current_range_meters":24800,"station_id":"ce4bgn92rcd13ifvqbvg","pricing_plan_id":"free"},{"bike_id":"721fe539-b9ae-412a-a378-f51e92597095","system_id":"levelo_inurba_marseille","lat":43.314811,"lon":5.373103,"is_reserved":false,"is_disabled":false,"rental_uris":{"android":"levelo://app?vid=721fe539-b9ae-412a-a378-f51e92597095","ios":"levelo://app?vid=721fe539-b9ae-412a-a378-f51e92597095"},"vehicle_type_id":"4","last_reported":1702123918,"current_range_meters":28800,"station_id":"ce4bgt12rcd13ifvqcd0","pricing_plan_id":"free"},{"bike_id":"9760dbf2-a3d0-420d-89a5-c966cf56bd31","system_id":"levelo_inurba_marseille","lat":43.314811,"lon":5.373104,"is_reserved":false,"is_disabled":false,"rental_uris":{"android":"levelo://app?vid=9760dbf2-a3d0-420d-89a5-c966cf56bd31","ios":"levelo://app?vid=9760dbf2-a3d0-420d-89a5-c966cf56bd31"},"vehicle_type_id":"4","last_reported":1702123918,"current_range_meters":23200,"station_id":"ce4bgt12rcd13ifvqcd0","pricing_plan_id":"free"},{"bike_id":"195e7463-92e1-469e-8112-0d0a19e9d904","system_id":"levelo_inurba_marseille","lat":43.305368,"lon":5.367343,"is_reserved":false,"is_disabled":false,"rental_uris":{"android":"levelo://app?vid=195e7463-92e1-469e-8112-0d0a19e9d904","ios":"levelo://app?vid=195e7463-92e1-469e-8112-0d0a19e9d904"},"vehicle_type_id":"4","last_reported":1702123918,"current_range_meters":22000,"station_id":"ce4bgrp2rcd13ifvqc9g","pricing_plan_id":"free"},{"bike_id":"fadf2080-d774-457a-8315-6723a2b49fab","system_id":"levelo_inurba_marseille","lat":43.305451,"lon":5.365264,"is_reserved":false,"is_disabled":false,"rental_uris":{"android":"levelo://app?vid=fadf2080-d774-457a-8315-6723a2b49fab","ios":"levelo://app?vid=fadf2080-d774-457a-8315-6723a2b49fab"},"vehicle_type_id":"4","last_reported":1702123918,"current_range_meters":28000,"station_id":"","pricing_plan_id":"free"},{"bike_id":"feffbe4c-dc75-4e3a-baed-915f40131a90","system_id":"levelo_inurba_marseille","lat":43.305706,"lon":5.365654,"is_reserved":false,"is_disabled":false,"rental_uris":{"android":"levelo://app?vid=feffbe4c-dc75-4e3a-baed-915f40131a90","ios":"levelo://app?vid=feffbe4c-dc75-4e3a-baed-915f40131a90"},"vehicle_type_id":"4","last_reported":1702123918,"current_range_meters":18400,"station_id":"ce4bgs12rcd13ifvqcag","pricing_plan_id":"free"},{"bike_id":"86f04ba9-5bc9-4c46-8df8-c130c7e8f83d","system_id":"levelo_inurba_marseille","lat":43.305989,"lon":5.37225,"is_reserved":false,"is_disabled":false,"rental_uris":{"android":"levelo://app?vid=86f04ba9-5bc9-4c46-8df8-c130c7e8f83d","ios":"levelo://app?vid=86f04ba9-5bc9-4c46-8df8-c130c7e8f83d"},"vehicle_type_id":"4","last_reported":1702123918,"current_range_meters":14800,"station_id":"ce4bgqh2rcd13ifvqc4g","pricing_plan_id":"free"},{"bike_id":"e50a0d9c-af0a-4e60-b6b7-2f9fc9cf5c58","system_id":"levelo_inurba_marseille","lat":43.31703,"lon":5.377204,"is_reserved":false,"is_disabled":false,"rental_uris":{"android":"levelo://app?vid=e50a0d9c-af0a-4e60-b6b7-2f9fc9cf5c58","ios":"levelo://app?vid=e50a0d9c-af0a-4e60-b6b7-2f9fc9cf5c58"},"vehicle_type_id":"4","last_reported":1702123918,"current_range_meters":23200,"station_id":"ce4bgth2rcd13ifvqch0","pricing_plan_id":"free"},{"bike_id":"3adb8cab-457c-4cfc-a176-4380451ccb74","system_id":"levelo_inurba_marseille","lat":43.317075,"lon":5.377367,"is_reserved":false,"is_disabled":false,"rental_uris":{"android":"levelo://app?vid=3adb8cab-457c-4cfc-a176-4380451ccb74","ios":"levelo://app?vid=3adb8cab-457c-4cfc-a176-4380451ccb74"},"vehicle_type_id":"4","last_reported":1702123918,"current_range_meters":8800,"station_id":"ce4bgth2rcd13ifvqch0","pricing_plan_id":"free"},{"bike_id":"5b019d99-1597-40dd-8863-1c6db6108547","system_id":"levelo_inurba_marseille","lat":43.317075,"lon":5.377367,"is_reserved":false,"is_disabled":false,"rental_uris":{"android":"levelo://app?vid=5b019d99-1597-40dd-8863-1c6db6108547","ios":"levelo://app?vid=5b019d99-1597-40dd-8863-1c6db6108547"},"vehicle_type_id":"4","last_reported":1702123918,"current_range_meters":30000,"station_id":"ce4bgth2rcd13ifvqch0","pricing_plan_id":"free"},{"bike_id":"855dad51-954c-4721-bf8f-92bc7eb25e9f","system_id":"levelo_inurba_marseille","lat":43.30799,"lon":5.38152,"is_reserved":false,"is_disabled":false,"rental_uris":{"android":"levelo://app?vid=855dad51-954c-4721-bf8f-92bc7eb25e9f","ios":"levelo://app?vid=855dad51-954c-4721-bf8f-92bc7eb25e9f"},"vehicle_type_id":"4","last_reported":1702123918,"current_range_meters":26400,"station_id":"ce4bgt12rcd13ifvqce0","pricing_plan_id":"free"},{"bike_id":"c8964c5c-af98-4e87-9528-9caf4d117cd7","system_id":"levelo_inurba_marseille","lat":43.304606,"lon":5.379026,"is_reserved":false,"is_disabled":false,"rental_uris":{"android":"levelo://app?vid=c8964c5c-af98-4e87-9528-9caf4d117cd7","ios":"levelo://app?vid=c8964c5c-af98-4e87-9528-9caf4d117cd7"},"vehicle_type_id":"4","last_reported":1702123918,"current_range_meters":4800,"station_id":"ce4bgup2rcd13ifvqcn0","pricing_plan_id":"free"},{"bike_id":"f5ad15ac-33e8-4928-a676-8376e2f60f47","system_id":"levelo_inurba_marseille","lat":43.304606,"lon":5.379026,"is_reserved":false,"is_disabled":false,"rental_uris":{"android":"levelo://app?vid=f5ad15ac-33e8-4928-a676-8376e2f60f47","ios":"levelo://app?vid=f5ad15ac-33e8-4928-a676-8376e2f60f47"},"vehicle_type_id":"4","last_reported":1702123918,"current_range_meters":8000,"station_id":"ce4bgup2rcd13ifvqcn0","pricing_plan_id":"free"},{"bike_id":"f0ace676-01f6-4165-90f5-72899600b9a8","system_id":"levelo_inurba_marseille","lat":43.30143,"lon":5.37413,"is_reserved":false,"is_disabled":false,"rental_uris":{"android":"levelo://app?vid=f0ace676-01f6-4165-90f5-72899600b9a8","ios":"levelo://app?vid=f0ace676-01f6-4165-90f5-72899600b9a8"},"vehicle_type_id":"4","last_reported":1702123918,"current_range_meters":10800,"station_id":"ce4bgs92rcd13ifvqcc0","pricing_plan_id":"free"},{"bike_id":"31e8ab99-8547-4479-a26e-e85f1d8e556e","system_id":"levelo_inurba_marseille","lat":43.302784,"lon":5.377158,"is_reserved":false,"is_disabled":false,"rental_uris":{"android":"levelo://app?vid=31e8ab99-8547-4479-a26e-e85f1d8e556e","ios":"levelo://app?vid=31e8ab99-8547-4479-a26e-e85f1d8e556e"},"vehicle_type_id":"4","last_reported":1702123918,"current_range_meters":21600,"station_id":"ce4bguh2rcd13ifvqcj0","pricing_plan_id":"free"},{"bike_id":"9940ad85-63e9-4e9d-89da-e0336420f4d6","system_id":"levelo_inurba_marseille","lat":43.301429,"lon":5.37413,"is_reserved":false,"is_disabled":false,"rental_uris":{"android":"levelo://app?vid=9940ad85-63e9-4e9d-89da-e0336420f4d6","ios":"levelo://app?vid=9940ad85-63e9-4e9d-89da-e0336420f4d6"},"vehicle_type_id":"4","last_reported":1702123918,"current_range_meters":24800,"station_id":"ce4bgs92rcd13ifvqcc0","pricing_plan_id":"free"},{"bike_id":"bc5fbb97-360a-4591-ac4b-df0879d1eab4","system_id":"levelo_inurba_marseille","lat":43.31356,"lon":5.38493,"is_reserved":false,"is_disabled":false,"rental_uris":{"android":"levelo://app?vid=bc5fbb97-360a-4591-ac4b-df0879d1eab4","ios":"levelo://app?vid=bc5fbb97-360a-4591-ac4b-df0879d1eab4"},"vehicle_type_id":"4","last_reported":1702123918,"current_range_meters":24400,"station_id":"ce4bgt92rcd13ifvqcf0","pricing_plan_id":"free"},{"bike_id":"ae1036a4-48ad-4b36-9786-f0f69447bc23","system_id":"levelo_inurba_marseille","lat":43.311725,"lon":5.387035,"is_reserved":false,"is_disabled":false,"rental_uris":{"android":"levelo://app?vid=ae1036a4-48ad-4b36-9786-f0f69447bc23","ios":"levelo://app?vid=ae1036a4-48ad-4b36-9786-f0f69447bc23"},"vehicle_type_id":"4","last_reported":1702123918,"current_range_meters":17600,"station_id":"ce4bgv12rcd13ifvqcp0","pricing_plan_id":"free"},{"bike_id":"c7434962-efe8-4461-8be2-21b47b98f22c","system_id":"levelo_inurba_marseille","lat":43.322872,"lon":5.382756,"is_reserved":false,"is_disabled":false,"rental_uris":{"android":"levelo://app?vid=c7434962-efe8-4461-8be2-21b47b98f22c","ios":"levelo://app?vid=c7434962-efe8-4461-8be2-21b47b98f22c"},"vehicle_type_id":"4","last_reported":1702123918,"current_range_meters":16000,"station_id":"ce4bhr12rcd13ifvqhqg","pricing_plan_id":"free"},{"bike_id":"358df3c2-8cbe-4d31-bd47-bad192091104","system_id":"levelo_inurba_marseille","lat":43.29779,"lon":5.37112,"is_reserved":false,"is_disabled":false,"rental_uris":{"android":"levelo://app?vid=358df3c2-8cbe-4d31-bd47-bad192091104","ios":"levelo://app?vid=358df3c2-8cbe-4d31-bd47-bad192091104"},"vehicle_type_id":"4","last_reported":1702123918,"current_range_meters":25600,"station_id":"ce4bgop2rcd13ifvqc1g","pricing_plan_id":"free"},{"bike_id":"38f1223e-a214-4eb0-9b54-a70de861d11b","system_id":"levelo_inurba_marseille","lat":43.32292,"lon":5.38262,"is_reserved":false,"is_disabled":false,"rental_uris":{"android":"levelo://app?vid=38f1223e-a214-4eb0-9b54-a70de861d11b","ios":"levelo://app?vid=38f1223e-a214-4eb0-9b54-a70de861d11b"},"vehicle_type_id":"4","last_reported":1702123918,"current_range_meters":22800,"station_id":"ce4bhr12rcd13ifvqhqg","pricing_plan_id":"free"},{"bike_id":"eb21e681-20b5-4530-9f84-73751d3233bb","system_id":"levelo_inurba_marseille","lat":43.297774,"lon":5.370875,"is_reserved":false,"is_disabled":false,"rental_uris":{"android":"levelo://app?vid=eb21e681-20b5-4530-9f84-73751d3233bb","ios":"levelo://app?vid=eb21e681-20b5-4530-9f84-73751d3233bb"},"vehicle_type_id":"4","last_reported":1702123918,"current_range_meters":25200,"station_id":"ce4bgop2rcd13ifvqc1g","pricing_plan_id":"free"},{"bike_id":"d04bedf3-fa0d-476a-afc0-f8735ca347d1","system_id":"levelo_inurba_marseille","lat":43.322872,"lon":5.382756,"is_reserved":false,"is_disabled":false,"rental_uris":{"android":"levelo://app?vid=d04bedf3-fa0d-476a-afc0-f8735ca347d1","ios":"levelo://app?vid=d04bedf3-fa0d-476a-afc0-f8735ca347d1"},"vehicle_type_id":"4","last_reported":1702123918,"current_range_meters":19600,"station_id":"ce4bhr12rcd13ifvqhqg","pricing_plan_id":"free"},{"bike_id":"6ac675f1-e0be-498c-ad2f-b742a949d4b0","system_id":"levelo_inurba_marseille","lat":43.298218,"lon":5.374416,"is_reserved":false,"is_disabled":false,"rental_uris":{"android":"levelo://app?vid=6ac675f1-e0be-498c-ad2f-b742a949d4b0","ios":"levelo://app?vid=6ac675f1-e0be-498c-ad2f-b742a949d4b0"},"vehicle_type_id":"4","last_reported":1702123918,"current_range_meters":2400,"station_id":"","pricing_plan_id":"free"},{"bike_id":"8152aa9f-d323-476d-b021-9abe496e2dfd","system_id":"levelo_inurba_marseille","lat":43.328371,"lon":5.366912,"is_reserved":false,"is_disabled":false,"rental_uris":{"android":"levelo://app?vid=8152aa9f-d323-476d-b021-9abe496e2dfd","ios":"levelo://app?vid=8152aa9f-d323-476d-b021-9abe496e2dfd"},"vehicle_type_id":"4","last_reported":1702123918,"current_range_meters":18800,"station_id":"ce4bhs92rcd13ifvqi0g","pricing_plan_id":"free"},{"bike_id":"e0a4a2dd-db29-4701-ac54-494d34da2cf6","system_id":"levelo_inurba_marseille","lat":43.2968,"lon":5.37291,"is_reserved":false,"is_disabled":false,"rental_uris":{"android":"levelo://app?vid=e0a4a2dd-db29-4701-ac54-494d34da2cf6","ios":"levelo://app?vid=e0a4a2dd-db29-4701-ac54-494d34da2cf6"},"vehicle_type_id":"4","last_reported":1702123918,"current_range_meters":27200,"station_id":"ce4bgk12rcd13ifvqbj0","pricing_plan_id":"free"},{"bike_id":"92dc65d6-6823-4de3-93d4-056f738f090c","system_id":"levelo_inurba_marseille","lat":43.316538,"lon":5.38954,"is_reserved":false,"is_disabled":false,"rental_uris":{"android":"levelo://app?vid=92dc65d6-6823-4de3-93d4-056f738f090c","ios":"levelo://app?vid=92dc65d6-6823-4de3-93d4-056f738f090c"},"vehicle_type_id":"4","last_reported":1702123918,"current_range_meters":0,"station_id":"","pricing_plan_id":"free"},{"bike_id":"e2bf195a-e138-4649-99c8-e6e00f9bc90a","system_id":"levelo_inurba_marseille","lat":43.296935,"lon":5.376544,"is_reserved":false,"is_disabled":false,"rental_uris":{"android":"levelo://app?vid=e2bf195a-e138-4649-99c8-e6e00f9bc90a","ios":"levelo://app?vid=e2bf195a-e138-4649-99c8-e6e00f9bc90a"},"vehicle_type_id":"4","last_reported":1702123918,"current_range_meters":16800,"station_id":"ce4bgkh2rcd13ifvqbl0","pricing_plan_id":"free"},{"bike_id":"404ef4ac-5b0a-4d14-9d51-c4f9ed20413c","system_id":"levelo_inurba_marseille","lat":43.298037,"lon":5.381066,"is_reserved":false,"is_disabled":false,"rental_uris":{"android":"levelo://app?vid=404ef4ac-5b0a-4d14-9d51-c4f9ed20413c","ios":"levelo://app?vid=404ef4ac-5b0a-4d14-9d51-c4f9ed20413c"},"vehicle_type_id":"4","last_reported":1702123918,"current_range_meters":20800,"station_id":"ce4bgip2rcd13ifvqbb0","pricing_plan_id":"free"},{"bike_id":"6ce562b8-1fbd-4822-9c4e-849f03fcf456","system_id":"levelo_inurba_marseille","lat":43.304274,"lon":5.388873,"is_reserved":false,"is_disabled":false,"rental_uris":{"android":"levelo://app?vid=6ce562b8-1fbd-4822-9c4e-849f03fcf456","ios":"levelo://app?vid=6ce562b8-1fbd-4822-9c4e-849f03fcf456"},"vehicle_type_id":"4","last_reported":1702123918,"current_range_meters":4000,"station_id":"ce4bgk12rcd13ifvqbi0","pricing_plan_id":"free"},{"bike_id":"40de1f15-bb2b-4d2b-a1c9-3bec6b11f38b","system_id":"levelo_inurba_marseille","lat":43.29552,"lon":5.37517,"is_reserved":false,"is_disabled":false,"rental_uris":{"android":"levelo://app?vid=40de1f15-bb2b-4d2b-a1c9-3bec6b11f38b","ios":"levelo://app?vid=40de1f15-bb2b-4d2b-a1c9-3bec6b11f38b"},"vehicle_type_id":"4","last_reported":1702123918,"current_range_meters":400,"station_id":"","pricing_plan_id":"free"},{"bike_id":"a8ae1ce6-fab7-4af7-b9ff-6db4227cf3b7","system_id":"levelo_inurba_marseille","lat":43.299707,"lon":5.384859,"is_reserved":false,"is_disabled":false,"rental_uris":{"android":"levelo://app?vid=a8ae1ce6-fab7-4af7-b9ff-6db4227cf3b7","ios":"levelo://app?vid=a8ae1ce6-fab7-4af7-b9ff-6db4227cf3b7"},"vehicle_type_id":"4","last_reported":1702123918,"current_range_meters":23600,"station_id":"ce4bgj92rcd13ifvqbd0","pricing_plan_id":"free"},{"bike_id":"e870dbe3-1885-4895-bec7-8e1f72c692b5","system_id":"levelo_inurba_marseille","lat":43.299717,"lon":5.384845,"is_reserved":false,"is_disabled":false,"rental_uris":{"android":"levelo://app?vid=e870dbe3-1885-4895-bec7-8e1f72c692b5","ios":"levelo://app?vid=e870dbe3-1885-4895-bec7-8e1f72c692b5"},"vehicle_type_id":"4","last_reported":1702123918,"current_range_meters":24800,"station_id":"ce4bgj92rcd13ifvqbd0","pricing_plan_id":"free"},{"bike_id":"1f79d329-b63a-420f-bb88-589d0332bf40","system_id":"levelo_inurba_marseille","lat":43.2936,"lon":5.37835,"is_reserved":false,"is_disabled":false,"rental_uris":{"android":"levelo://app?vid=1f79d329-b63a-420f-bb88-589d0332bf40","ios":"levelo://app?vid=1f79d329-b63a-420f-bb88-589d0332bf40"},"vehicle_type_id":"4","last_reported":1702123918,"current_range_meters":15600,"station_id":"ce4bgjh2rcd13ifvqbf0","pricing_plan_id":"free"},{"bike_id":"baa695cd-49d5-4995-8635-c3de87d7d3d7","system_id":"levelo_inurba_marseille","lat":43.2936,"lon":5.37835,"is_reserved":false,"is_disabled":false,"rental_uris":{"android":"levelo://app?vid=baa695cd-49d5-4995-8635-c3de87d7d3d7","ios":"levelo://app?vid=baa695cd-49d5-4995-8635-c3de87d7d3d7"},"vehicle_type_id":"4","last_reported":1702123918,"current_range_meters":25600,"station_id":"ce4bgjh2rcd13ifvqbf0","pricing_plan_id":"free"},{"bike_id":"6ea9c62f-b563-41d7-8bf0-007dbd598423","system_id":"levelo_inurba_marseille","lat":43.292311,"lon":5.360731,"is_reserved":false,"is_disabled":false,"rental_uris":{"android":"levelo://app?vid=6ea9c62f-b563-41d7-8bf0-007dbd598423","ios":"levelo://app?vid=6ea9c62f-b563-41d7-8bf0-007dbd598423"},"vehicle_type_id":"4","last_reported":1702123918,"current_range_meters":25600,"station_id":"ce4bhbh2rcd13ifvqeqg","pricing_plan_id":"free"},{"bike_id":"ffe8e861-9583-46be-9da3-462d5c1037ee","system_id":"levelo_inurba_marseille","lat":43.29267,"lon":5.37622,"is_reserved":false,"is_disabled":false,"rental_uris":{"android":"levelo://app?vid=ffe8e861-9583-46be-9da3-462d5c1037ee","ios":"levelo://app?vid=ffe8e861-9583-46be-9da3-462d5c1037ee"},"vehicle_type_id":"4","last_reported":1702123918,"current_range_meters":11600,"station_id":"ce4bgi12rcd13ifvqb80","pricing_plan_id":"free"},{"bike_id":"6e2edc46-9914-423e-b560-7b047240ce5d","system_id":"levelo_inurba_marseille","lat":43.291675,"lon":5.371583,"is_reserved":false,"is_disabled":false,"rental_uris":{"android":"levelo://app?vid=6e2edc46-9914-423e-b560-7b047240ce5d","ios":"levelo://app?vid=6e2edc46-9914-423e-b560-7b047240ce5d"},"vehicle_type_id":"4","last_reported":1702123918,"current_range_meters":24800,"station_id":"ce4bha92rcd13ifvqeh0","pricing_plan_id":"free"},{"bike_id":"8393f41e-62c4-4e32-bbc4-6026b4380973","system_id":"levelo_inurba_marseille","lat":43.2988,"lon":5.38914,"is_reserved":false,"is_disabled":false,"rental_uris":{"android":"levelo://app?vid=8393f41e-62c4-4e32-bbc4-6026b4380973","ios":"levelo://app?vid=8393f41e-62c4-4e32-bbc4-6026b4380973"},"vehicle_type_id":"4","last_reported":1702123918,"current_range_meters":15600,"station_id":"","pricing_plan_id":"free"},{"bike_id":"9a8a0ce0-cdd5-41e6-bd20-7d0684c9bb3b","system_id":"levelo_inurba_marseille","lat":43.285856,"lon":5.350771,"is_reserved":false,"is_disabled":false,"rental_uris":{"android":"levelo://app?vid=9a8a0ce0-cdd5-41e6-bd20-7d0684c9bb3b","ios":"levelo://app?vid=9a8a0ce0-cdd5-41e6-bd20-7d0684c9bb3b"},"vehicle_type_id":"4","last_reported":1702123918,"current_range_meters":18800,"station_id":"ce4bhch2rcd13ifvqeug","pricing_plan_id":"free"},{"bike_id":"f1907808-434c-4b30-829d-901d1cfb8a2a","system_id":"levelo_inurba_marseille","lat":43.313291,"lon":5.396838,"is_reserved":false,"is_disabled":false,"rental_uris":{"android":"levelo://app?vid=f1907808-434c-4b30-829d-901d1cfb8a2a","ios":"levelo://app?vid=f1907808-434c-4b30-829d-901d1cfb8a2a"},"vehicle_type_id":"4","last_reported":1702123918,"current_range_meters":15600,"station_id":"ce4bgvp2rcd13ifvqcu0","pricing_plan_id":"free"},{"bike_id":"25370a0e-e806-4f5e-a418-6aeaa4287291","system_id":"levelo_inurba_marseille","lat":43.29187,"lon":5.35797,"is_reserved":false,"is_disabled":false,"rental_uris":{"android":"levelo://app?vid=25370a0e-e806-4f5e-a418-6aeaa4287291","ios":"levelo://app?vid=25370a0e-e806-4f5e-a418-6aeaa4287291"},"vehicle_type_id":"4","last_reported":1702123918,"current_range_meters":16800,"station_id":"ce4bhb12rcd13ifvqel0","pricing_plan_id":"free"},{"bike_id":"aef6122c-1026-4d93-8d2a-b7d719996f48","system_id":"levelo_inurba_marseille","lat":43.29529,"lon":5.385581,"is_reserved":false,"is_disabled":false,"rental_uris":{"android":"levelo://app?vid=aef6122c-1026-4d93-8d2a-b7d719996f48","ios":"levelo://app?vid=aef6122c-1026-4d93-8d2a-b7d719996f48"},"vehicle_type_id":"4","last_reported":1702123918,"current_range_meters":7200,"station_id":"ce4bgih2rcd13ifvqba0","pricing_plan_id":"free"},{"bike_id":"31d0c41d-e25d-4358-9b6b-5b0c8c6a3d61","system_id":"levelo_inurba_marseille","lat":43.290327,"lon":5.375711,"is_reserved":false,"is_disabled":false,"rental_uris":{"android":"levelo://app?vid=31d0c41d-e25d-4358-9b6b-5b0c8c6a3d61","ios":"levelo://app?vid=31d0c41d-e25d-4358-9b6b-5b0c8c6a3d61"},"vehicle_type_id":"4","last_reported":1702123918,"current_range_meters":13600,"station_id":"ce4bh692rcd13ifvqe90","pricing_plan_id":"free"},{"bike_id":"5f6f6465-01b7-45df-929f-102e1ea7a085","system_id":"levelo_inurba_marseille","lat":43.289184,"lon":5.366408,"is_reserved":false,"is_disabled":false,"rental_uris":{"android":"levelo://app?vid=5f6f6465-01b7-45df-929f-102e1ea7a085","ios":"levelo://app?vid=5f6f6465-01b7-45df-929f-102e1ea7a085"},"vehicle_type_id":"4","last_reported":1702123918,"current_range_meters":12000,"station_id":"ce4bhap2rcd13ifvqek0","pricing_plan_id":"free"},{"bike_id":"a02a1b20-1fb1-4951-988a-77389649024d","system_id":"levelo_inurba_marseille","lat":43.289259,"lon":5.366364,"is_reserved":false,"is_disabled":false,"rental_uris":{"android":"levelo://app?vid=a02a1b20-1fb1-4951-988a-77389649024d","ios":"levelo://app?vid=a02a1b20-1fb1-4951-988a-77389649024d"},"vehicle_type_id":"4","last_reported":1702123918,"current_range_meters":12400,"station_id":"","pricing_plan_id":"free"},{"bike_id":"2e88e13c-7428-48af-b505-578a0527a393","system_id":"levelo_inurba_marseille","lat":43.33045,"lon":5.38929,"is_reserved":false,"is_disabled":false,"rental_uris":{"android":"levelo://app?vid=2e88e13c-7428-48af-b505-578a0527a393","ios":"levelo://app?vid=2e88e13c-7428-48af-b505-578a0527a393"},"vehicle_type_id":"4","last_reported":1702123918,"current_range_meters":13600,"station_id":"ce4bhr92rcd13ifvqhrg","pricing_plan_id":"free"},{"bike_id":"fa2dc33d-8c75-4451-8027-08174b4ce3f9","system_id":"levelo_inurba_marseille","lat":43.290995,"lon":5.381361,"is_reserved":false,"is_disabled":false,"rental_uris":{"android":"levelo://app?vid=fa2dc33d-8c75-4451-8027-08174b4ce3f9","ios":"levelo://app?vid=fa2dc33d-8c75-4451-8027-08174b4ce3f9"},"vehicle_type_id":"4","last_reported":1702123918,"current_range_meters":26000,"station_id":"ce4bh512rcd13ifvqe2g","pricing_plan_id":"free"},{"bike_id":"2748d7dc-266e-464f-b861-8eab4e9fa461","system_id":"levelo_inurba_marseille","lat":43.295315,"lon":5.390255,"is_reserved":false,"is_disabled":false,"rental_uris":{"android":"levelo://app?vid=2748d7dc-266e-464f-b861-8eab4e9fa461","ios":"levelo://app?vid=2748d7dc-266e-464f-b861-8eab4e9fa461"},"vehicle_type_id":"4","last_reported":1702123918,"current_range_meters":15200,"station_id":"ce4bh3p2rcd13ifvqdp0","pricing_plan_id":"free"},{"bike_id":"dade1e2e-1780-460a-a614-07abae8b55a9","system_id":"levelo_inurba_marseille","lat":43.295196,"lon":5.39397,"is_reserved":false,"is_disabled":false,"rental_uris":{"android":"levelo://app?vid=dade1e2e-1780-460a-a614-07abae8b55a9","ios":"levelo://app?vid=dade1e2e-1780-460a-a614-07abae8b55a9"},"vehicle_type_id":"4","last_reported":1702123918,"current_range_meters":23200,"station_id":"ce4bh292rcd13ifvqdf0","pricing_plan_id":"free"},{"bike_id":"362a4d5c-58ee-4fc6-9566-0d3425284c7e","system_id":"levelo_inurba_marseille","lat":43.28678,"lon":5.37397,"is_reserved":false,"is_disabled":false,"rental_uris":{"android":"levelo://app?vid=362a4d5c-58ee-4fc6-9566-0d3425284c7e","ios":"levelo://app?vid=362a4d5c-58ee-4fc6-9566-0d3425284c7e"},"vehicle_type_id":"4","last_reported":1702123918,"current_range_meters":12400,"station_id":"ce4bha12rcd13ifvqef0","pricing_plan_id":"free"},{"bike_id":"b2140376-dae9-41d9-a991-560315ce5735","system_id":"levelo_inurba_marseille","lat":43.290345,"lon":5.38646,"is_reserved":false,"is_disabled":false,"rental_uris":{"android":"levelo://app?vid=b2140376-dae9-41d9-a991-560315ce5735","ios":"levelo://app?vid=b2140376-dae9-41d9-a991-560315ce5735"},"vehicle_type_id":"4","last_reported":1702123918,"current_range_meters":20000,"station_id":"ce4bh4p2rcd13ifvqe0g","pricing_plan_id":"free"},{"bike_id":"11827d9c-dab2-4e6e-a8a5-19328753934f","system_id":"levelo_inurba_marseille","lat":43.286039,"lon":5.370681,"is_reserved":false,"is_disabled":false,"rental_uris":{"android":"levelo://app?vid=11827d9c-dab2-4e6e-a8a5-19328753934f","ios":"levelo://app?vid=11827d9c-dab2-4e6e-a8a5-19328753934f"},"vehicle_type_id":"4","last_reported":1702123918,"current_range_meters":17600,"station_id":"ce4bht12rcd13ifvqi60","pricing_plan_id":"free"},{"bike_id":"49658399-508d-489c-8ecf-17152ba09692","system_id":"levelo_inurba_marseille","lat":43.286039,"lon":5.370679,"is_reserved":false,"is_disabled":false,"rental_uris":{"android":"levelo://app?vid=49658399-508d-489c-8ecf-17152ba09692","ios":"levelo://app?vid=49658399-508d-489c-8ecf-17152ba09692"},"vehicle_type_id":"4","last_reported":1702123918,"current_range_meters":27200,"station_id":"ce4bht12rcd13ifvqi60","pricing_plan_id":"free"},{"bike_id":"9f75ddf0-be3d-4201-9203-1e80b08d421f","system_id":"levelo_inurba_marseille","lat":43.284538,"lon":5.358657,"is_reserved":false,"is_disabled":false,"rental_uris":{"android":"levelo://app?vid=9f75ddf0-be3d-4201-9203-1e80b08d421f","ios":"levelo://app?vid=9f75ddf0-be3d-4201-9203-1e80b08d421f"},"vehicle_type_id":"4","last_reported":1702123918,"current_range_meters":2400,"station_id":"ce4bhah2rcd13ifvqei0","pricing_plan_id":"free"},{"bike_id":"196756e8-7073-4b70-841d-6d93110de32f","system_id":"levelo_inurba_marseille","lat":43.28458,"lon":5.35897,"is_reserved":false,"is_disabled":false,"rental_uris":{"android":"levelo://app?vid=196756e8-7073-4b70-841d-6d93110de32f","ios":"levelo://app?vid=196756e8-7073-4b70-841d-6d93110de32f"},"vehicle_type_id":"4","last_reported":1702123918,"current_range_meters":10800,"station_id":"ce4bhah2rcd13ifvqei0","pricing_plan_id":"free"},{"bike_id":"a39aa2c9-974d-49ce-a8f1-d73a26326680","system_id":"levelo_inurba_marseille","lat":43.286168,"lon":5.35102,"is_reserved":false,"is_disabled":false,"rental_uris":{"android":"levelo://app?vid=a39aa2c9-974d-49ce-a8f1-d73a26326680","ios":"levelo://app?vid=a39aa2c9-974d-49ce-a8f1-d73a26326680"},"vehicle_type_id":"4","last_reported":1702123918,"current_range_meters":15600,"station_id":"ce4bhch2rcd13ifvqeug","pricing_plan_id":"free"},{"bike_id":"dae5783b-e4e9-4109-9719-0791a63f15c7","system_id":"levelo_inurba_marseille","lat":43.28615,"lon":5.351,"is_reserved":false,"is_disabled":false,"rental_uris":{"android":"levelo://app?vid=dae5783b-e4e9-4109-9719-0791a63f15c7","ios":"levelo://app?vid=dae5783b-e4e9-4109-9719-0791a63f15c7"},"vehicle_type_id":"4","last_reported":1702123918,"current_range_meters":17200,"station_id":"ce4bhch2rcd13ifvqeug","pricing_plan_id":"free"},{"bike_id":"a74a3878-4eea-4074-b70f-591ba450338d","system_id":"levelo_inurba_marseille","lat":43.28612,"lon":5.35101,"is_reserved":false,"is_disabled":false,"rental_uris":{"android":"levelo://app?vid=a74a3878-4eea-4074-b70f-591ba450338d","ios":"levelo://app?vid=a74a3878-4eea-4074-b70f-591ba450338d"},"vehicle_type_id":"4","last_reported":1702123918,"current_range_meters":28800,"station_id":"ce4bhch2rcd13ifvqeug","pricing_plan_id":"free"},{"bike_id":"324d6f9f-42f6-4266-9049-e3939b639ea9","system_id":"levelo_inurba_marseille","lat":43.337168,"lon":5.391825,"is_reserved":false,"is_disabled":false,"rental_uris":{"android":"levelo://app?vid=324d6f9f-42f6-4266-9049-e3939b639ea9","ios":"levelo://app?vid=324d6f9f-42f6-4266-9049-e3939b639ea9"},"vehicle_type_id":"4","last_reported":1702123918,"current_range_meters":27600,"station_id":"ce4bhr92rcd13ifvqhsg","pricing_plan_id":"free"},{"bike_id":"efe9d2cc-d0eb-4e85-b313-6bf62b4d4d4c","system_id":"levelo_inurba_marseille","lat":43.33717,"lon":5.391857,"is_reserved":false,"is_disabled":false,"rental_uris":{"android":"levelo://app?vid=efe9d2cc-d0eb-4e85-b313-6bf62b4d4d4c","ios":"levelo://app?vid=efe9d2cc-d0eb-4e85-b313-6bf62b4d4d4c"},"vehicle_type_id":"4","last_reported":1702123918,"current_range_meters":0,"station_id":"ce4bhr92rcd13ifvqhsg","pricing_plan_id":"free"},{"bike_id":"7e1ee5a2-cf9a-456c-8466-f903576c1d8f","system_id":"levelo_inurba_marseille","lat":43.284793,"lon":5.384113,"is_reserved":false,"is_disabled":false,"rental_uris":{"android":"levelo://app?vid=7e1ee5a2-cf9a-456c-8466-f903576c1d8f","ios":"levelo://app?vid=7e1ee5a2-cf9a-456c-8466-f903576c1d8f"},"vehicle_type_id":"4","last_reported":1702123918,"current_range_meters":24000,"station_id":"ce4bh512rcd13ifvqe3g","pricing_plan_id":"free"},{"bike_id":"394e7ef0-8795-4b05-b68f-3db5b0a2f588","system_id":"levelo_inurba_marseille","lat":43.33717,"lon":5.391857,"is_reserved":false,"is_disabled":false,"rental_uris":{"android":"levelo://app?vid=394e7ef0-8795-4b05-b68f-3db5b0a2f588","ios":"levelo://app?vid=394e7ef0-8795-4b05-b68f-3db5b0a2f588"},"vehicle_type_id":"4","last_reported":1702123918,"current_range_meters":29200,"station_id":"ce4bhr92rcd13ifvqhsg","pricing_plan_id":"free"},{"bike_id":"0fa5697c-5538-4278-83ca-1acf7288d13d","system_id":"levelo_inurba_marseille","lat":43.28847,"lon":5.39318,"is_reserved":false,"is_disabled":false,"rental_uris":{"android":"levelo://app?vid=0fa5697c-5538-4278-83ca-1acf7288d13d","ios":"levelo://app?vid=0fa5697c-5538-4278-83ca-1acf7288d13d"},"vehicle_type_id":"4","last_reported":1702123918,"current_range_meters":18400,"station_id":"ce4bh2p2rcd13ifvqdi0","pricing_plan_id":"free"},{"bike_id":"78f14519-15c1-4db0-85f6-df5a5dcb7342","system_id":"levelo_inurba_marseille","lat":43.288501,"lon":5.393087,"is_reserved":false,"is_disabled":false,"rental_uris":{"android":"levelo://app?vid=78f14519-15c1-4db0-85f6-df5a5dcb7342","ios":"levelo://app?vid=78f14519-15c1-4db0-85f6-df5a5dcb7342"},"vehicle_type_id":"4","last_reported":1702123918,"current_range_meters":22400,"station_id":"ce4bh2p2rcd13ifvqdi0","pricing_plan_id":"free"},{"bike_id":"6f35cf5f-cbf3-4c4a-86ee-f04a3b5f12ff","system_id":"levelo_inurba_marseille","lat":43.284219,"lon":5.3497,"is_reserved":false,"is_disabled":false,"rental_uris":{"android":"levelo://app?vid=6f35cf5f-cbf3-4c4a-86ee-f04a3b5f12ff","ios":"levelo://app?vid=6f35cf5f-cbf3-4c4a-86ee-f04a3b5f12ff"},"vehicle_type_id":"4","last_reported":1702123918,"current_range_meters":31200,"station_id":"ce4bhbh2rcd13ifvqepg","pricing_plan_id":"free"},{"bike_id":"3ae5661b-b50b-4a8f-98b2-17e5fb7e850b","system_id":"levelo_inurba_marseille","lat":43.284219,"lon":5.3497,"is_reserved":false,"is_disabled":false,"rental_uris":{"android":"levelo://app?vid=3ae5661b-b50b-4a8f-98b2-17e5fb7e850b","ios":"levelo://app?vid=3ae5661b-b50b-4a8f-98b2-17e5fb7e850b"},"vehicle_type_id":"4","last_reported":1702123918,"current_range_meters":22400,"station_id":"ce4bhbh2rcd13ifvqepg","pricing_plan_id":"free"},{"bike_id":"31238392-dd0d-49c9-9a68-7f32e73dab2a","system_id":"levelo_inurba_marseille","lat":43.284219,"lon":5.3497,"is_reserved":false,"is_disabled":false,"rental_uris":{"android":"levelo://app?vid=31238392-dd0d-49c9-9a68-7f32e73dab2a","ios":"levelo://app?vid=31238392-dd0d-49c9-9a68-7f32e73dab2a"},"vehicle_type_id":"4","last_reported":1702123918,"current_range_meters":9200,"station_id":"ce4bhbh2rcd13ifvqepg","pricing_plan_id":"free"},{"bike_id":"475e90c6-fa3d-40a0-bb7d-4037e4b23431","system_id":"levelo_inurba_marseille","lat":43.284219,"lon":5.3497,"is_reserved":false,"is_disabled":false,"rental_uris":{"android":"levelo://app?vid=475e90c6-fa3d-40a0-bb7d-4037e4b23431","ios":"levelo://app?vid=475e90c6-fa3d-40a0-bb7d-4037e4b23431"},"vehicle_type_id":"4","last_reported":1702123918,"current_range_meters":19600,"station_id":"ce4bhbh2rcd13ifvqepg","pricing_plan_id":"free"},{"bike_id":"e4574846-a483-4aee-bcf7-f9a017803290","system_id":"levelo_inurba_marseille","lat":43.289363,"lon":5.396322,"is_reserved":false,"is_disabled":false,"rental_uris":{"android":"levelo://app?vid=e4574846-a483-4aee-bcf7-f9a017803290","ios":"levelo://app?vid=e4574846-a483-4aee-bcf7-f9a017803290"},"vehicle_type_id":"4","last_reported":1702123918,"current_range_meters":23600,"station_id":"ce4bh3h2rcd13ifvqdn0","pricing_plan_id":"free"},{"bike_id":"6c4181a1-c6ee-47fe-a469-5840f9435602","system_id":"levelo_inurba_marseille","lat":43.289363,"lon":5.396322,"is_reserved":false,"is_disabled":false,"rental_uris":{"android":"levelo://app?vid=6c4181a1-c6ee-47fe-a469-5840f9435602","ios":"levelo://app?vid=6c4181a1-c6ee-47fe-a469-5840f9435602"},"vehicle_type_id":"4","last_reported":1702123918,"current_range_meters":24800,"station_id":"ce4bh3h2rcd13ifvqdn0","pricing_plan_id":"free"},{"bike_id":"4e0ec372-fdf7-4c73-bffd-eba15a5b4ecd","system_id":"levelo_inurba_marseille","lat":43.282744,"lon":5.350533,"is_reserved":false,"is_disabled":false,"rental_uris":{"android":"levelo://app?vid=4e0ec372-fdf7-4c73-bffd-eba15a5b4ecd","ios":"levelo://app?vid=4e0ec372-fdf7-4c73-bffd-eba15a5b4ecd"},"vehicle_type_id":"4","last_reported":1702123918,"current_range_meters":0,"station_id":"ce4bhbp2rcd13ifvqerg","pricing_plan_id":"free"},{"bike_id":"b247296f-b80f-459a-bbc2-bf2362d8f06a","system_id":"levelo_inurba_marseille","lat":43.282754,"lon":5.350519,"is_reserved":false,"is_disabled":false,"rental_uris":{"android":"levelo://app?vid=b247296f-b80f-459a-bbc2-bf2362d8f06a","ios":"levelo://app?vid=b247296f-b80f-459a-bbc2-bf2362d8f06a"},"vehicle_type_id":"4","last_reported":1702123918,"current_range_meters":23600,"station_id":"ce4bhbp2rcd13ifvqerg","pricing_plan_id":"free"},{"bike_id":"d17b2ebb-d7cf-4039-b14a-93694b89a095","system_id":"levelo_inurba_marseille","lat":43.282744,"lon":5.350533,"is_reserved":false,"is_disabled":false,"rental_uris":{"android":"levelo://app?vid=d17b2ebb-d7cf-4039-b14a-93694b89a095","ios":"levelo://app?vid=d17b2ebb-d7cf-4039-b14a-93694b89a095"},"vehicle_type_id":"4","last_reported":1702123918,"current_range_meters":21200,"station_id":"ce4bhbp2rcd13ifvqerg","pricing_plan_id":"free"},{"bike_id":"54d8098a-43b7-44e5-ad66-538f790e0f29","system_id":"levelo_inurba_marseille","lat":43.282754,"lon":5.350519,"is_reserved":false,"is_disabled":false,"rental_uris":{"android":"levelo://app?vid=54d8098a-43b7-44e5-ad66-538f790e0f29","ios":"levelo://app?vid=54d8098a-43b7-44e5-ad66-538f790e0f29"},"vehicle_type_id":"4","last_reported":1702123918,"current_range_meters":22800,"station_id":"ce4bhbp2rcd13ifvqerg","pricing_plan_id":"free"},{"bike_id":"eaad8e8c-b1f2-445b-aafe-f62d3fb607cb","system_id":"levelo_inurba_marseille","lat":43.282754,"lon":5.350519,"is_reserved":false,"is_disabled":false,"rental_uris":{"android":"levelo://app?vid=eaad8e8c-b1f2-445b-aafe-f62d3fb607cb","ios":"levelo://app?vid=eaad8e8c-b1f2-445b-aafe-f62d3fb607cb"},"vehicle_type_id":"4","last_reported":1702123918,"current_range_meters":18800,"station_id":"ce4bhbp2rcd13ifvqerg","pricing_plan_id":"free"},{"bike_id":"152a8999-7cf8-4d62-80bf-cfba43126857","system_id":"levelo_inurba_marseille","lat":43.282744,"lon":5.350533,"is_reserved":false,"is_disabled":false,"rental_uris":{"android":"levelo://app?vid=152a8999-7cf8-4d62-80bf-cfba43126857","ios":"levelo://app?vid=152a8999-7cf8-4d62-80bf-cfba43126857"},"vehicle_type_id":"4","last_reported":1702123918,"current_range_meters":20000,"station_id":"ce4bhbp2rcd13ifvqerg","pricing_plan_id":"free"},{"bike_id":"231af83a-204f-4852-ac58-d34843dfdd3c","system_id":"levelo_inurba_marseille","lat":43.28044,"lon":5.36952,"is_reserved":false,"is_disabled":false,"rental_uris":{"android":"levelo://app?vid=231af83a-204f-4852-ac58-d34843dfdd3c","ios":"levelo://app?vid=231af83a-204f-4852-ac58-d34843dfdd3c"},"vehicle_type_id":"4","last_reported":1702123918,"current_range_meters":7200,"station_id":"ce4bha12rcd13ifvqef0","pricing_plan_id":"free"},{"bike_id":"ee42fdcf-1324-4777-b30c-877c652ed259","system_id":"levelo_inurba_marseille","lat":43.29042,"lon":5.39948,"is_reserved":false,"is_disabled":false,"rental_uris":{"android":"levelo://app?vid=ee42fdcf-1324-4777-b30c-877c652ed259","ios":"levelo://app?vid=ee42fdcf-1324-4777-b30c-877c652ed259"},"vehicle_type_id":"4","last_reported":1702123918,"current_range_meters":23600,"station_id":"ce4bh392rcd13ifvqdm0","pricing_plan_id":"free"},{"bike_id":"0b6c72e8-d874-41ce-92de-caa9f97cf950","system_id":"levelo_inurba_marseille","lat":43.29036,"lon":5.39959,"is_reserved":false,"is_disabled":false,"rental_uris":{"android":"levelo://app?vid=0b6c72e8-d874-41ce-92de-caa9f97cf950","ios":"levelo://app?vid=0b6c72e8-d874-41ce-92de-caa9f97cf950"},"vehicle_type_id":"4","last_reported":1702123918,"current_range_meters":26000,"station_id":"ce4bh392rcd13ifvqdm0","pricing_plan_id":"free"},{"bike_id":"6b1046e2-76d8-4a41-8719-814bbab9c3c9","system_id":"levelo_inurba_marseille","lat":43.29031,"lon":5.39966,"is_reserved":false,"is_disabled":false,"rental_uris":{"android":"levelo://app?vid=6b1046e2-76d8-4a41-8719-814bbab9c3c9","ios":"levelo://app?vid=6b1046e2-76d8-4a41-8719-814bbab9c3c9"},"vehicle_type_id":"4","last_reported":1702123918,"current_range_meters":21200,"station_id":"ce4bh392rcd13ifvqdm0","pricing_plan_id":"free"},{"bike_id":"842ca9e0-e79a-43dc-9f92-42a6f0b03c8c","system_id":"levelo_inurba_marseille","lat":43.296263,"lon":5.40601,"is_reserved":false,"is_disabled":false,"rental_uris":{"android":"levelo://app?vid=842ca9e0-e79a-43dc-9f92-42a6f0b03c8c","ios":"levelo://app?vid=842ca9e0-e79a-43dc-9f92-42a6f0b03c8c"},"vehicle_type_id":"4","last_reported":1702123918,"current_range_meters":25200,"station_id":"ce4bh0h2rcd13ifvqd60","pricing_plan_id":"free"},{"bike_id":"e52ddfd6-0ddd-4c7b-ab34-3c7fe5c2aaef","system_id":"levelo_inurba_marseille","lat":43.32657,"lon":5.40992,"is_reserved":false,"is_disabled":false,"rental_uris":{"android":"levelo://app?vid=e52ddfd6-0ddd-4c7b-ab34-3c7fe5c2aaef","ios":"levelo://app?vid=e52ddfd6-0ddd-4c7b-ab34-3c7fe5c2aaef"},"vehicle_type_id":"4","last_reported":1702123918,"current_range_meters":31200,"station_id":"ce4bhpp2rcd13ifvqhgg","pricing_plan_id":"free"},{"bike_id":"5e578afd-3e4d-4841-96fa-cf1bf643d8d9","system_id":"levelo_inurba_marseille","lat":43.326605,"lon":5.409903,"is_reserved":false,"is_disabled":false,"rental_uris":{"android":"levelo://app?vid=5e578afd-3e4d-4841-96fa-cf1bf643d8d9","ios":"levelo://app?vid=5e578afd-3e4d-4841-96fa-cf1bf643d8d9"},"vehicle_type_id":"4","last_reported":1702123918,"current_range_meters":20400,"station_id":"ce4bhpp2rcd13ifvqhgg","pricing_plan_id":"free"},{"bike_id":"c0763524-47cd-4818-80fc-1b29f8280dc8","system_id":"levelo_inurba_marseille","lat":43.326605,"lon":5.409903,"is_reserved":false,"is_disabled":false,"rental_uris":{"android":"levelo://app?vid=c0763524-47cd-4818-80fc-1b29f8280dc8","ios":"levelo://app?vid=c0763524-47cd-4818-80fc-1b29f8280dc8"},"vehicle_type_id":"4","last_reported":1702123918,"current_range_meters":30400,"station_id":"ce4bhpp2rcd13ifvqhgg","pricing_plan_id":"free"},{"bike_id":"7a9fb01b-b016-466f-aef9-6c1b020d151b","system_id":"levelo_inurba_marseille","lat":43.304188,"lon":5.412904,"is_reserved":false,"is_disabled":false,"rental_uris":{"android":"levelo://app?vid=7a9fb01b-b016-466f-aef9-6c1b020d151b","ios":"levelo://app?vid=7a9fb01b-b016-466f-aef9-6c1b020d151b"},"vehicle_type_id":"4","last_reported":1702123918,"current_range_meters":24000,"station_id":"ce4bhop2rcd13ifvqh8g","pricing_plan_id":"free"},{"bike_id":"74b50d08-1687-4d16-a3b3-f8fc09add96f","system_id":"levelo_inurba_marseille","lat":43.304188,"lon":5.412904,"is_reserved":false,"is_disabled":false,"rental_uris":{"android":"levelo://app?vid=74b50d08-1687-4d16-a3b3-f8fc09add96f","ios":"levelo://app?vid=74b50d08-1687-4d16-a3b3-f8fc09add96f"},"vehicle_type_id":"4","last_reported":1702123918,"current_range_meters":20400,"station_id":"ce4bhop2rcd13ifvqh8g","pricing_plan_id":"free"},{"bike_id":"c2cc1118-eabf-450b-ae66-e8174cf65ba7","system_id":"levelo_inurba_marseille","lat":43.304188,"lon":5.412904,"is_reserved":false,"is_disabled":false,"rental_uris":{"android":"levelo://app?vid=c2cc1118-eabf-450b-ae66-e8174cf65ba7","ios":"levelo://app?vid=c2cc1118-eabf-450b-ae66-e8174cf65ba7"},"vehicle_type_id":"4","last_reported":1702123918,"current_range_meters":31200,"station_id":"ce4bhop2rcd13ifvqh8g","pricing_plan_id":"free"},{"bike_id":"738cd730-feab-4ea0-a05c-c3b863b85e61","system_id":"levelo_inurba_marseille","lat":43.299579,"lon":5.413255,"is_reserved":false,"is_disabled":false,"rental_uris":{"android":"levelo://app?vid=738cd730-feab-4ea0-a05c-c3b863b85e61","ios":"levelo://app?vid=738cd730-feab-4ea0-a05c-c3b863b85e61"},"vehicle_type_id":"4","last_reported":1702123918,"current_range_meters":28800,"station_id":"ce4bhp12rcd13ifvqh9g","pricing_plan_id":"free"},{"bike_id":"a0a0b529-70cf-4224-a14b-5aa20a88796e","system_id":"levelo_inurba_marseille","lat":43.299577,"lon":5.413277,"is_reserved":false,"is_disabled":false,"rental_uris":{"android":"levelo://app?vid=a0a0b529-70cf-4224-a14b-5aa20a88796e","ios":"levelo://app?vid=a0a0b529-70cf-4224-a14b-5aa20a88796e"},"vehicle_type_id":"4","last_reported":1702123918,"current_range_meters":0,"station_id":"ce4bhp12rcd13ifvqh9g","pricing_plan_id":"free"},{"bike_id":"55ae2e29-85d1-4f8a-b75b-bcf006a6e214","system_id":"levelo_inurba_marseille","lat":43.32065,"lon":5.41544,"is_reserved":false,"is_disabled":false,"rental_uris":{"android":"levelo://app?vid=55ae2e29-85d1-4f8a-b75b-bcf006a6e214","ios":"levelo://app?vid=55ae2e29-85d1-4f8a-b75b-bcf006a6e214"},"vehicle_type_id":"4","last_reported":1702123918,"current_range_meters":12800,"station_id":"ce4bhq92rcd13ifvqhkg","pricing_plan_id":"free"},{"bike_id":"67959bc8-1a84-4c2b-ad7c-24c3428b7e81","system_id":"levelo_inurba_marseille","lat":43.320045,"lon":5.415046,"is_reserved":false,"is_disabled":false,"rental_uris":{"android":"levelo://app?vid=67959bc8-1a84-4c2b-ad7c-24c3428b7e81","ios":"levelo://app?vid=67959bc8-1a84-4c2b-ad7c-24c3428b7e81"},"vehicle_type_id":"4","last_reported":1702123918,"current_range_meters":26400,"station_id":"ce4bhq92rcd13ifvqhkg","pricing_plan_id":"free"},{"bike_id":"a2d28845-0785-400e-80da-978d1a191048","system_id":"levelo_inurba_marseille","lat":43.299577,"lon":5.413277,"is_reserved":false,"is_disabled":false,"rental_uris":{"android":"levelo://app?vid=a2d28845-0785-400e-80da-978d1a191048","ios":"levelo://app?vid=a2d28845-0785-400e-80da-978d1a191048"},"vehicle_type_id":"4","last_reported":1702123918,"current_range_meters":31200,"station_id":"ce4bhp12rcd13ifvqh9g","pricing_plan_id":"free"},{"bike_id":"9e5b7f34-b370-48d0-90cb-50133a1f9365","system_id":"levelo_inurba_marseille","lat":43.292569,"lon":5.409107,"is_reserved":false,"is_disabled":false,"rental_uris":{"android":"levelo://app?vid=9e5b7f34-b370-48d0-90cb-50133a1f9365","ios":"levelo://app?vid=9e5b7f34-b370-48d0-90cb-50133a1f9365"},"vehicle_type_id":"4","last_reported":1702123918,"current_range_meters":28400,"station_id":"ce4bh192rcd13ifvqdc0","pricing_plan_id":"free"},{"bike_id":"5294db22-f1e0-48a4-94fd-f8160edc7bb7","system_id":"levelo_inurba_marseille","lat":43.280784,"lon":5.396622,"is_reserved":false,"is_disabled":false,"rental_uris":{"android":"levelo://app?vid=5294db22-f1e0-48a4-94fd-f8160edc7bb7","ios":"levelo://app?vid=5294db22-f1e0-48a4-94fd-f8160edc7bb7"},"vehicle_type_id":"4","last_reported":1702123918,"current_range_meters":22000,"station_id":"ce4bho12rcd13ifvqh2g","pricing_plan_id":"free"},{"bike_id":"c36ae27f-e0f3-456e-ba05-65e3af21b179","system_id":"levelo_inurba_marseille","lat":43.33612,"lon":5.410321,"is_reserved":false,"is_disabled":false,"rental_uris":{"android":"levelo://app?vid=c36ae27f-e0f3-456e-ba05-65e3af21b179","ios":"levelo://app?vid=c36ae27f-e0f3-456e-ba05-65e3af21b179"},"vehicle_type_id":"4","last_reported":1702123918,"current_range_meters":2400,"station_id":"ce4bhqh2rcd13ifvqhmg","pricing_plan_id":"free"},{"bike_id":"d2c307a7-9f69-440f-8ea7-5ab0ef9cad64","system_id":"levelo_inurba_marseille","lat":43.278401,"lon":5.392152,"is_reserved":false,"is_disabled":false,"rental_uris":{"android":"levelo://app?vid=d2c307a7-9f69-440f-8ea7-5ab0ef9cad64","ios":"levelo://app?vid=d2c307a7-9f69-440f-8ea7-5ab0ef9cad64"},"vehicle_type_id":"4","last_reported":1702123918,"current_range_meters":28400,"station_id":"ce4bhjp2rcd13ifvqga0","pricing_plan_id":"free"},{"bike_id":"f4d5a688-45ac-4204-afe1-656663bad127","system_id":"levelo_inurba_marseille","lat":43.27383,"lon":5.36253,"is_reserved":false,"is_disabled":false,"rental_uris":{"android":"levelo://app?vid=f4d5a688-45ac-4204-afe1-656663bad127","ios":"levelo://app?vid=f4d5a688-45ac-4204-afe1-656663bad127"},"vehicle_type_id":"4","last_reported":1702123918,"current_range_meters":0,"station_id":"ce4bhbh2rcd13ifvqeo0","pricing_plan_id":"free"},{"bike_id":"00aefffc-0b3f-4f37-b088-c293e94bb941","system_id":"levelo_inurba_marseille","lat":43.27383,"lon":5.36252,"is_reserved":false,"is_disabled":false,"rental_uris":{"android":"levelo://app?vid=00aefffc-0b3f-4f37-b088-c293e94bb941","ios":"levelo://app?vid=00aefffc-0b3f-4f37-b088-c293e94bb941"},"vehicle_type_id":"4","last_reported":1702123918,"current_range_meters":22000,"station_id":"ce4bhbh2rcd13ifvqeo0","pricing_plan_id":"free"},{"bike_id":"44766dff-3ccb-4883-b441-fb7fb627ce4a","system_id":"levelo_inurba_marseille","lat":43.276769,"lon":5.388787,"is_reserved":false,"is_disabled":false,"rental_uris":{"android":"levelo://app?vid=44766dff-3ccb-4883-b441-fb7fb627ce4a","ios":"levelo://app?vid=44766dff-3ccb-4883-b441-fb7fb627ce4a"},"vehicle_type_id":"4","last_reported":1702123918,"current_range_meters":8800,"station_id":"ce4bhi12rcd13ifvqfo0","pricing_plan_id":"free"},{"bike_id":"b5e520e0-8911-4af3-a2d4-7d3ed4e4e33e","system_id":"levelo_inurba_marseille","lat":43.31712,"lon":5.424,"is_reserved":false,"is_disabled":false,"rental_uris":{"android":"levelo://app?vid=b5e520e0-8911-4af3-a2d4-7d3ed4e4e33e","ios":"levelo://app?vid=b5e520e0-8911-4af3-a2d4-7d3ed4e4e33e"},"vehicle_type_id":"4","last_reported":1702123918,"current_range_meters":10400,"station_id":"ce4bhp92rcd13ifvqhbg","pricing_plan_id":"free"},{"bike_id":"02791883-a925-42a0-9dd3-b7193f6a574b","system_id":"levelo_inurba_marseille","lat":43.31712,"lon":5.424,"is_reserved":false,"is_disabled":false,"rental_uris":{"android":"levelo://app?vid=02791883-a925-42a0-9dd3-b7193f6a574b","ios":"levelo://app?vid=02791883-a925-42a0-9dd3-b7193f6a574b"},"vehicle_type_id":"4","last_reported":1702123918,"current_range_meters":4400,"station_id":"ce4bhp92rcd13ifvqhbg","pricing_plan_id":"free"},{"bike_id":"fc4bcc5b-5f4e-42a1-8cca-78d5c651475f","system_id":"levelo_inurba_marseille","lat":43.317121,"lon":5.423936,"is_reserved":false,"is_disabled":false,"rental_uris":{"android":"levelo://app?vid=fc4bcc5b-5f4e-42a1-8cca-78d5c651475f","ios":"levelo://app?vid=fc4bcc5b-5f4e-42a1-8cca-78d5c651475f"},"vehicle_type_id":"4","last_reported":1702123918,"current_range_meters":26800,"station_id":"ce4bhp92rcd13ifvqhbg","pricing_plan_id":"free"},{"bike_id":"3382fddf-23bf-43e2-9be0-1a0233fdea3a","system_id":"levelo_inurba_marseille","lat":43.31085,"lon":5.42428,"is_reserved":false,"is_disabled":false,"rental_uris":{"android":"levelo://app?vid=3382fddf-23bf-43e2-9be0-1a0233fdea3a","ios":"levelo://app?vid=3382fddf-23bf-43e2-9be0-1a0233fdea3a"},"vehicle_type_id":"4","last_reported":1702123918,"current_range_meters":28400,"station_id":"ce4bhp92rcd13ifvqhag","pricing_plan_id":"free"},{"bike_id":"88e59060-d458-48a8-8abe-8a1913097d92","system_id":"levelo_inurba_marseille","lat":43.31716,"lon":5.42402,"is_reserved":false,"is_disabled":false,"rental_uris":{"android":"levelo://app?vid=88e59060-d458-48a8-8abe-8a1913097d92","ios":"levelo://app?vid=88e59060-d458-48a8-8abe-8a1913097d92"},"vehicle_type_id":"4","last_reported":1702123918,"current_range_meters":25200,"station_id":"ce4bhp92rcd13ifvqhbg","pricing_plan_id":"free"},{"bike_id":"80038031-3601-4c51-b66a-c6c9131d41d1","system_id":"levelo_inurba_marseille","lat":43.310785,"lon":5.424305,"is_reserved":false,"is_disabled":false,"rental_uris":{"android":"levelo://app?vid=80038031-3601-4c51-b66a-c6c9131d41d1","ios":"levelo://app?vid=80038031-3601-4c51-b66a-c6c9131d41d1"},"vehicle_type_id":"4","last_reported":1702123918,"current_range_meters":30400,"station_id":"ce4bhp92rcd13ifvqhag","pricing_plan_id":"free"},{"bike_id":"e6ff414d-6f05-44d2-b7c6-4a89a6fc64e2","system_id":"levelo_inurba_marseille","lat":43.31079,"lon":5.42429,"is_reserved":false,"is_disabled":false,"rental_uris":{"android":"levelo://app?vid=e6ff414d-6f05-44d2-b7c6-4a89a6fc64e2","ios":"levelo://app?vid=e6ff414d-6f05-44d2-b7c6-4a89a6fc64e2"},"vehicle_type_id":"4","last_reported":1702123918,"current_range_meters":5200,"station_id":"ce4bhp92rcd13ifvqhag","pricing_plan_id":"free"},{"bike_id":"e7bd1e73-4f86-473d-905c-a7b0f3d6ad8a","system_id":"levelo_inurba_marseille","lat":43.31723,"lon":5.42405,"is_reserved":false,"is_disabled":false,"rental_uris":{"android":"levelo://app?vid=e7bd1e73-4f86-473d-905c-a7b0f3d6ad8a","ios":"levelo://app?vid=e7bd1e73-4f86-473d-905c-a7b0f3d6ad8a"},"vehicle_type_id":"4","last_reported":1702123918,"current_range_meters":17200,"station_id":"ce4bhp92rcd13ifvqhbg","pricing_plan_id":"free"},{"bike_id":"48e3df08-57dc-434d-a06c-f6f751cd351f","system_id":"levelo_inurba_marseille","lat":43.310785,"lon":5.424305,"is_reserved":false,"is_disabled":false,"rental_uris":{"android":"levelo://app?vid=48e3df08-57dc-434d-a06c-f6f751cd351f","ios":"levelo://app?vid=48e3df08-57dc-434d-a06c-f6f751cd351f"},"vehicle_type_id":"4","last_reported":1702123918,"current_range_meters":20400,"station_id":"ce4bhp92rcd13ifvqhag","pricing_plan_id":"free"},{"bike_id":"28c358cd-65b8-428a-bf47-330ba1df4c05","system_id":"levelo_inurba_marseille","lat":43.340804,"lon":5.410219,"is_reserved":false,"is_disabled":false,"rental_uris":{"android":"levelo://app?vid=28c358cd-65b8-428a-bf47-330ba1df4c05","ios":"levelo://app?vid=28c358cd-65b8-428a-bf47-330ba1df4c05"},"vehicle_type_id":"4","last_reported":1702123918,"current_range_meters":4000,"station_id":"ce4bhqh2rcd13ifvqhlg","pricing_plan_id":"free"},{"bike_id":"63133364-316e-458e-b234-bbd4926c63fc","system_id":"levelo_inurba_marseille","lat":43.27583,"lon":5.39474,"is_reserved":false,"is_disabled":false,"rental_uris":{"android":"levelo://app?vid=63133364-316e-458e-b234-bbd4926c63fc","ios":"levelo://app?vid=63133364-316e-458e-b234-bbd4926c63fc"},"vehicle_type_id":"4","last_reported":1702123918,"current_range_meters":8000,"station_id":"","pricing_plan_id":"free"},{"bike_id":"580fc612-54a2-41f2-b43b-e77c9c6b96b7","system_id":"levelo_inurba_marseille","lat":43.273125,"lon":5.390731,"is_reserved":false,"is_disabled":false,"rental_uris":{"android":"levelo://app?vid=580fc612-54a2-41f2-b43b-e77c9c6b96b7","ios":"levelo://app?vid=580fc612-54a2-41f2-b43b-e77c9c6b96b7"},"vehicle_type_id":"4","last_reported":1702123918,"current_range_meters":16400,"station_id":"ce4bhgp2rcd13ifvqfe0","pricing_plan_id":"free"},{"bike_id":"6e368dc2-c621-4d41-a98b-608bcdd93b18","system_id":"levelo_inurba_marseille","lat":43.304096,"lon":5.425385,"is_reserved":false,"is_disabled":false,"rental_uris":{"android":"levelo://app?vid=6e368dc2-c621-4d41-a98b-608bcdd93b18","ios":"levelo://app?vid=6e368dc2-c621-4d41-a98b-608bcdd93b18"},"vehicle_type_id":"4","last_reported":1702123918,"current_range_meters":29600,"station_id":"ce4bhoh2rcd13ifvqh6g","pricing_plan_id":"free"},{"bike_id":"fc6794cf-495d-453d-b822-fc2923d07b21","system_id":"levelo_inurba_marseille","lat":43.30413,"lon":5.42544,"is_reserved":false,"is_disabled":false,"rental_uris":{"android":"levelo://app?vid=fc6794cf-495d-453d-b822-fc2923d07b21","ios":"levelo://app?vid=fc6794cf-495d-453d-b822-fc2923d07b21"},"vehicle_type_id":"4","last_reported":1702123918,"current_range_meters":11200,"station_id":"ce4bhoh2rcd13ifvqh6g","pricing_plan_id":"free"},{"bike_id":"19d0bff2-9420-4cc7-a5d7-5c2a381f7d06","system_id":"levelo_inurba_marseille","lat":43.30414,"lon":5.42549,"is_reserved":false,"is_disabled":false,"rental_uris":{"android":"levelo://app?vid=19d0bff2-9420-4cc7-a5d7-5c2a381f7d06","ios":"levelo://app?vid=19d0bff2-9420-4cc7-a5d7-5c2a381f7d06"},"vehicle_type_id":"4","last_reported":1702123918,"current_range_meters":24800,"station_id":"ce4bhoh2rcd13ifvqh6g","pricing_plan_id":"free"},{"bike_id":"b0f86606-8154-47d8-bdba-2e76713781d4","system_id":"levelo_inurba_marseille","lat":43.30416,"lon":5.4255,"is_reserved":false,"is_disabled":false,"rental_uris":{"android":"levelo://app?vid=b0f86606-8154-47d8-bdba-2e76713781d4","ios":"levelo://app?vid=b0f86606-8154-47d8-bdba-2e76713781d4"},"vehicle_type_id":"4","last_reported":1702123918,"current_range_meters":4400,"station_id":"ce4bhoh2rcd13ifvqh6g","pricing_plan_id":"free"},{"bike_id":"4f9e48a0-eacd-4e63-bd3c-330b19e5c041","system_id":"levelo_inurba_marseille","lat":43.295511,"lon":5.422926,"is_reserved":false,"is_disabled":false,"rental_uris":{"android":"levelo://app?vid=4f9e48a0-eacd-4e63-bd3c-330b19e5c041","ios":"levelo://app?vid=4f9e48a0-eacd-4e63-bd3c-330b19e5c041"},"vehicle_type_id":"4","last_reported":1702123918,"current_range_meters":31200,"station_id":"ce4bhph2rcd13ifvqhdg","pricing_plan_id":"free"},{"bike_id":"85fbd9aa-ffbc-4d35-ae34-4f6af8b034f5","system_id":"levelo_inurba_marseille","lat":43.305821,"lon":5.427107,"is_reserved":false,"is_disabled":false,"rental_uris":{"android":"levelo://app?vid=85fbd9aa-ffbc-4d35-ae34-4f6af8b034f5","ios":"levelo://app?vid=85fbd9aa-ffbc-4d35-ae34-4f6af8b034f5"},"vehicle_type_id":"4","last_reported":1702123918,"current_range_meters":21200,"station_id":"","pricing_plan_id":"free"},{"bike_id":"8f021145-48f8-459b-aef0-f8921e18b0a0","system_id":"levelo_inurba_marseille","lat":43.27214,"lon":5.3925,"is_reserved":false,"is_disabled":false,"rental_uris":{"android":"levelo://app?vid=8f021145-48f8-459b-aef0-f8921e18b0a0","ios":"levelo://app?vid=8f021145-48f8-459b-aef0-f8921e18b0a0"},"vehicle_type_id":"4","last_reported":1702123918,"current_range_meters":1600,"station_id":"","pricing_plan_id":"free"},{"bike_id":"a298972b-0b5a-4397-ad88-26002a39541a","system_id":"levelo_inurba_marseille","lat":43.278128,"lon":5.407195,"is_reserved":false,"is_disabled":false,"rental_uris":{"android":"levelo://app?vid=a298972b-0b5a-4397-ad88-26002a39541a","ios":"levelo://app?vid=a298972b-0b5a-4397-ad88-26002a39541a"},"vehicle_type_id":"4","last_reported":1702123918,"current_range_meters":23200,"station_id":"ce4bhnh2rcd13ifvqgtg","pricing_plan_id":"free"},{"bike_id":"7e9212bb-2c17-401a-b163-c02d9b570c83","system_id":"levelo_inurba_marseille","lat":43.278128,"lon":5.407195,"is_reserved":false,"is_disabled":false,"rental_uris":{"android":"levelo://app?vid=7e9212bb-2c17-401a-b163-c02d9b570c83","ios":"levelo://app?vid=7e9212bb-2c17-401a-b163-c02d9b570c83"},"vehicle_type_id":"4","last_reported":1702123918,"current_range_meters":18000,"station_id":"ce4bhnh2rcd13ifvqgtg","pricing_plan_id":"free"},{"bike_id":"84a1bae0-ff3c-49fa-8238-95766ffedb9c","system_id":"levelo_inurba_marseille","lat":43.269319,"lon":5.389397,"is_reserved":false,"is_disabled":false,"rental_uris":{"android":"levelo://app?vid=84a1bae0-ff3c-49fa-8238-95766ffedb9c","ios":"levelo://app?vid=84a1bae0-ff3c-49fa-8238-95766ffedb9c"},"vehicle_type_id":"4","last_reported":1702123918,"current_range_meters":22000,"station_id":"ce4bhhh2rcd13ifvqfl0","pricing_plan_id":"free"},{"bike_id":"1ffd565c-b6db-402a-9074-73ae5aef5cc3","system_id":"levelo_inurba_marseille","lat":43.269319,"lon":5.389397,"is_reserved":false,"is_disabled":false,"rental_uris":{"android":"levelo://app?vid=1ffd565c-b6db-402a-9074-73ae5aef5cc3","ios":"levelo://app?vid=1ffd565c-b6db-402a-9074-73ae5aef5cc3"},"vehicle_type_id":"4","last_reported":1702123918,"current_range_meters":20800,"station_id":"ce4bhhh2rcd13ifvqfl0","pricing_plan_id":"free"},{"bike_id":"19cc942f-ece9-40d3-8083-cccfba7fe5b1","system_id":"levelo_inurba_marseille","lat":43.279881,"lon":5.416579,"is_reserved":false,"is_disabled":false,"rental_uris":{"android":"levelo://app?vid=19cc942f-ece9-40d3-8083-cccfba7fe5b1","ios":"levelo://app?vid=19cc942f-ece9-40d3-8083-cccfba7fe5b1"},"vehicle_type_id":"4","last_reported":1702123918,"current_range_meters":3200,"station_id":"ce4bho12rcd13ifvqh1g","pricing_plan_id":"free"},{"bike_id":"05a1290d-f258-4d06-ad3a-1b8914a61d45","system_id":"levelo_inurba_marseille","lat":43.265714,"lon":5.372891,"is_reserved":false,"is_disabled":false,"rental_uris":{"android":"levelo://app?vid=05a1290d-f258-4d06-ad3a-1b8914a61d45","ios":"levelo://app?vid=05a1290d-f258-4d06-ad3a-1b8914a61d45"},"vehicle_type_id":"4","last_reported":1702123918,"current_range_meters":22400,"station_id":"ce4bhg12rcd13ifvqf70","pricing_plan_id":"free"},{"bike_id":"953e4af0-c270-490b-8a35-21adbad82a34","system_id":"levelo_inurba_marseille","lat":43.308051,"lon":5.43527,"is_reserved":false,"is_disabled":false,"rental_uris":{"android":"levelo://app?vid=953e4af0-c270-490b-8a35-21adbad82a34","ios":"levelo://app?vid=953e4af0-c270-490b-8a35-21adbad82a34"},"vehicle_type_id":"4","last_reported":1702123918,"current_range_meters":22000,"station_id":"ce4bhph2rcd13ifvqheg","pricing_plan_id":"free"},{"bike_id":"2d0dff6e-116f-437d-a5b5-a8cb42c057ac","system_id":"levelo_inurba_marseille","lat":43.26949,"lon":5.40262,"is_reserved":false,"is_disabled":false,"rental_uris":{"android":"levelo://app?vid=2d0dff6e-116f-437d-a5b5-a8cb42c057ac","ios":"levelo://app?vid=2d0dff6e-116f-437d-a5b5-a8cb42c057ac"},"vehicle_type_id":"4","last_reported":1702123918,"current_range_meters":6800,"station_id":"cjm6bp8fraef2m0cb0m0","pricing_plan_id":"free"},{"bike_id":"2ed859a4-0b62-4f8d-bc75-1a55b7c9aa70","system_id":"levelo_inurba_marseille","lat":43.2694,"lon":5.40249,"is_reserved":false,"is_disabled":false,"rental_uris":{"android":"levelo://app?vid=2ed859a4-0b62-4f8d-bc75-1a55b7c9aa70","ios":"levelo://app?vid=2ed859a4-0b62-4f8d-bc75-1a55b7c9aa70"},"vehicle_type_id":"4","last_reported":1702123918,"current_range_meters":16000,"station_id":"cjm6bp8fraef2m0cb0m0","pricing_plan_id":"free"},{"bike_id":"10bd98e0-d0a2-4a25-a407-cc97034aa68c","system_id":"levelo_inurba_marseille","lat":43.31713,"lon":5.43702,"is_reserved":false,"is_disabled":false,"rental_uris":{"android":"levelo://app?vid=10bd98e0-d0a2-4a25-a407-cc97034aa68c","ios":"levelo://app?vid=10bd98e0-d0a2-4a25-a407-cc97034aa68c"},"vehicle_type_id":"4","last_reported":1702123918,"current_range_meters":7200,"station_id":"ce4bhp92rcd13ifvqhcg","pricing_plan_id":"free"},{"bike_id":"88ac35d4-bb4e-4f40-80f3-a4c68493a323","system_id":"levelo_inurba_marseille","lat":43.27187,"lon":5.40989,"is_reserved":false,"is_disabled":false,"rental_uris":{"android":"levelo://app?vid=88ac35d4-bb4e-4f40-80f3-a4c68493a323","ios":"levelo://app?vid=88ac35d4-bb4e-4f40-80f3-a4c68493a323"},"vehicle_type_id":"4","last_reported":1702123918,"current_range_meters":30000,"station_id":"ce4bhl12rcd13ifvqgf0","pricing_plan_id":"free"},{"bike_id":"3b2d4f90-1617-43d7-8846-712b04edc48a","system_id":"levelo_inurba_marseille","lat":43.271368,"lon":5.40928,"is_reserved":false,"is_disabled":false,"rental_uris":{"android":"levelo://app?vid=3b2d4f90-1617-43d7-8846-712b04edc48a","ios":"levelo://app?vid=3b2d4f90-1617-43d7-8846-712b04edc48a"},"vehicle_type_id":"4","last_reported":1702123918,"current_range_meters":24000,"station_id":"ce4bhl12rcd13ifvqgf0","pricing_plan_id":"free"},{"bike_id":"5a17aa54-625e-476c-b187-8ee6a4f3548c","system_id":"levelo_inurba_marseille","lat":43.267959,"lon":5.402687,"is_reserved":false,"is_disabled":false,"rental_uris":{"android":"levelo://app?vid=5a17aa54-625e-476c-b187-8ee6a4f3548c","ios":"levelo://app?vid=5a17aa54-625e-476c-b187-8ee6a4f3548c"},"vehicle_type_id":"4","last_reported":1702123918,"current_range_meters":13200,"station_id":"ce501612rcd8frsf0b60","pricing_plan_id":"free"},{"bike_id":"2cd90db9-b508-45af-afd0-5b4b8fae22ee","system_id":"levelo_inurba_marseille","lat":43.298768,"lon":5.43643,"is_reserved":false,"is_disabled":false,"rental_uris":{"android":"levelo://app?vid=2cd90db9-b508-45af-afd0-5b4b8fae22ee","ios":"levelo://app?vid=2cd90db9-b508-45af-afd0-5b4b8fae22ee"},"vehicle_type_id":"4","last_reported":1702123918,"current_range_meters":28800,"station_id":"ce4bhpp2rcd13ifvqhfg","pricing_plan_id":"free"},{"bike_id":"5215ad78-0811-4492-88ee-04afc35bf3a5","system_id":"levelo_inurba_marseille","lat":43.298768,"lon":5.43643,"is_reserved":false,"is_disabled":false,"rental_uris":{"android":"levelo://app?vid=5215ad78-0811-4492-88ee-04afc35bf3a5","ios":"levelo://app?vid=5215ad78-0811-4492-88ee-04afc35bf3a5"},"vehicle_type_id":"4","last_reported":1702123918,"current_range_meters":31200,"station_id":"ce4bhpp2rcd13ifvqhfg","pricing_plan_id":"free"},{"bike_id":"9f325604-7097-43d9-8e58-831174294b2f","system_id":"levelo_inurba_marseille","lat":43.29906,"lon":5.43664,"is_reserved":false,"is_disabled":false,"rental_uris":{"android":"levelo://app?vid=9f325604-7097-43d9-8e58-831174294b2f","ios":"levelo://app?vid=9f325604-7097-43d9-8e58-831174294b2f"},"vehicle_type_id":"4","last_reported":1702123918,"current_range_meters":31200,"station_id":"ce4bhpp2rcd13ifvqhfg","pricing_plan_id":"free"},{"bike_id":"70c52fa1-91be-4fbd-9217-7a0c668f9310","system_id":"levelo_inurba_marseille","lat":43.298988,"lon":5.436643,"is_reserved":false,"is_disabled":false,"rental_uris":{"android":"levelo://app?vid=70c52fa1-91be-4fbd-9217-7a0c668f9310","ios":"levelo://app?vid=70c52fa1-91be-4fbd-9217-7a0c668f9310"},"vehicle_type_id":"4","last_reported":1702123918,"current_range_meters":25600,"station_id":"ce4bhpp2rcd13ifvqhfg","pricing_plan_id":"free"},{"bike_id":"6b17b896-99f2-456b-929e-df3811eeb274","system_id":"levelo_inurba_marseille","lat":43.298768,"lon":5.43643,"is_reserved":false,"is_disabled":false,"rental_uris":{"android":"levelo://app?vid=6b17b896-99f2-456b-929e-df3811eeb274","ios":"levelo://app?vid=6b17b896-99f2-456b-929e-df3811eeb274"},"vehicle_type_id":"4","last_reported":1702123918,"current_range_meters":28800,"station_id":"ce4bhpp2rcd13ifvqhfg","pricing_plan_id":"free"},{"bike_id":"4f68f183-a711-4386-a731-e8ea8e2f115e","system_id":"levelo_inurba_marseille","lat":43.298768,"lon":5.43643,"is_reserved":false,"is_disabled":false,"rental_uris":{"android":"levelo://app?vid=4f68f183-a711-4386-a731-e8ea8e2f115e","ios":"levelo://app?vid=4f68f183-a711-4386-a731-e8ea8e2f115e"},"vehicle_type_id":"4","last_reported":1702123918,"current_range_meters":26000,"station_id":"ce4bhpp2rcd13ifvqhfg","pricing_plan_id":"free"},{"bike_id":"c16ba598-e268-423a-ba8d-6002d2a98117","system_id":"levelo_inurba_marseille","lat":43.298768,"lon":5.43643,"is_reserved":false,"is_disabled":false,"rental_uris":{"android":"levelo://app?vid=c16ba598-e268-423a-ba8d-6002d2a98117","ios":"levelo://app?vid=c16ba598-e268-423a-ba8d-6002d2a98117"},"vehicle_type_id":"4","last_reported":1702123918,"current_range_meters":31200,"station_id":"ce4bhpp2rcd13ifvqhfg","pricing_plan_id":"free"},{"bike_id":"ca4db8a8-5b98-4b78-bc3d-514f38028a3d","system_id":"levelo_inurba_marseille","lat":43.298768,"lon":5.43643,"is_reserved":false,"is_disabled":false,"rental_uris":{"android":"levelo://app?vid=ca4db8a8-5b98-4b78-bc3d-514f38028a3d","ios":"levelo://app?vid=ca4db8a8-5b98-4b78-bc3d-514f38028a3d"},"vehicle_type_id":"4","last_reported":1702123918,"current_range_meters":31200,"station_id":"ce4bhpp2rcd13ifvqhfg","pricing_plan_id":"free"},{"bike_id":"83e2018e-7127-4415-8bbf-2e347a9c6750","system_id":"levelo_inurba_marseille","lat":43.29896,"lon":5.43673,"is_reserved":false,"is_disabled":false,"rental_uris":{"android":"levelo://app?vid=83e2018e-7127-4415-8bbf-2e347a9c6750","ios":"levelo://app?vid=83e2018e-7127-4415-8bbf-2e347a9c6750"},"vehicle_type_id":"4","last_reported":1702123918,"current_range_meters":0,"station_id":"ce4bhpp2rcd13ifvqhfg","pricing_plan_id":"free"},{"bike_id":"bbb1bbdb-1f39-4fc1-a995-064ebbeacecb","system_id":"levelo_inurba_marseille","lat":43.281548,"lon":5.42643,"is_reserved":false,"is_disabled":false,"rental_uris":{"android":"levelo://app?vid=bbb1bbdb-1f39-4fc1-a995-064ebbeacecb","ios":"levelo://app?vid=bbb1bbdb-1f39-4fc1-a995-064ebbeacecb"},"vehicle_type_id":"4","last_reported":1702123918,"current_range_meters":31200,"station_id":"ce4bhnh2rcd13ifvqgug","pricing_plan_id":"free"},{"bike_id":"2d70b9fc-8d42-4ce5-98c1-cdfca249cc2c","system_id":"levelo_inurba_marseille","lat":43.2815,"lon":5.4264,"is_reserved":false,"is_disabled":false,"rental_uris":{"android":"levelo://app?vid=2d70b9fc-8d42-4ce5-98c1-cdfca249cc2c","ios":"levelo://app?vid=2d70b9fc-8d42-4ce5-98c1-cdfca249cc2c"},"vehicle_type_id":"4","last_reported":1702123918,"current_range_meters":28000,"station_id":"ce4bhnh2rcd13ifvqgug","pricing_plan_id":"free"},{"bike_id":"f56607a5-8c0d-4214-a86e-b954d1fd309d","system_id":"levelo_inurba_marseille","lat":43.28153,"lon":5.42643,"is_reserved":false,"is_disabled":false,"rental_uris":{"android":"levelo://app?vid=f56607a5-8c0d-4214-a86e-b954d1fd309d","ios":"levelo://app?vid=f56607a5-8c0d-4214-a86e-b954d1fd309d"},"vehicle_type_id":"4","last_reported":1702123918,"current_range_meters":0,"station_id":"ce4bhnh2rcd13ifvqgug","pricing_plan_id":"free"},{"bike_id":"cc061701-acdc-445a-8647-0f986cfa3766","system_id":"levelo_inurba_marseille","lat":43.281548,"lon":5.42643,"is_reserved":false,"is_disabled":false,"rental_uris":{"android":"levelo://app?vid=cc061701-acdc-445a-8647-0f986cfa3766","ios":"levelo://app?vid=cc061701-acdc-445a-8647-0f986cfa3766"},"vehicle_type_id":"4","last_reported":1702123918,"current_range_meters":24400,"station_id":"ce4bhnh2rcd13ifvqgug","pricing_plan_id":"free"},{"bike_id":"aa7eabec-ba21-4bd7-b085-1a3cc7a8cf6e","system_id":"levelo_inurba_marseille","lat":43.281548,"lon":5.42643,"is_reserved":false,"is_disabled":false,"rental_uris":{"android":"levelo://app?vid=aa7eabec-ba21-4bd7-b085-1a3cc7a8cf6e","ios":"levelo://app?vid=aa7eabec-ba21-4bd7-b085-1a3cc7a8cf6e"},"vehicle_type_id":"4","last_reported":1702123918,"current_range_meters":26000,"station_id":"ce4bhnh2rcd13ifvqgug","pricing_plan_id":"free"},{"bike_id":"2adb88a4-74d0-46b2-ae77-8c0e33681861","system_id":"levelo_inurba_marseille","lat":43.275028,"lon":5.424534,"is_reserved":false,"is_disabled":false,"rental_uris":{"android":"levelo://app?vid=2adb88a4-74d0-46b2-ae77-8c0e33681861","ios":"levelo://app?vid=2adb88a4-74d0-46b2-ae77-8c0e33681861"},"vehicle_type_id":"4","last_reported":1702123918,"current_range_meters":18400,"station_id":"ce4bhn92rcd13ifvqgrg","pricing_plan_id":"free"},{"bike_id":"4aa76394-7284-4cc4-96c9-225980a844df","system_id":"levelo_inurba_marseille","lat":43.25589,"lon":5.38232,"is_reserved":false,"is_disabled":false,"rental_uris":{"android":"levelo://app?vid=4aa76394-7284-4cc4-96c9-225980a844df","ios":"levelo://app?vid=4aa76394-7284-4cc4-96c9-225980a844df"},"vehicle_type_id":"4","last_reported":1702123918,"current_range_meters":23200,"station_id":"ce4bhih2rcd13ifvqfs0","pricing_plan_id":"free"},{"bike_id":"45fdfa0c-66cf-4f61-a27c-ebf59871901a","system_id":"levelo_inurba_marseille","lat":43.25582,"lon":5.3823,"is_reserved":false,"is_disabled":false,"rental_uris":{"android":"levelo://app?vid=45fdfa0c-66cf-4f61-a27c-ebf59871901a","ios":"levelo://app?vid=45fdfa0c-66cf-4f61-a27c-ebf59871901a"},"vehicle_type_id":"4","last_reported":1702123918,"current_range_meters":22000,"station_id":"ce4bhih2rcd13ifvqfs0","pricing_plan_id":"free"},{"bike_id":"9f41e9ce-7aeb-4d47-8e89-65c8fd05b80a","system_id":"levelo_inurba_marseille","lat":43.255756,"lon":5.382303,"is_reserved":false,"is_disabled":false,"rental_uris":{"android":"levelo://app?vid=9f41e9ce-7aeb-4d47-8e89-65c8fd05b80a","ios":"levelo://app?vid=9f41e9ce-7aeb-4d47-8e89-65c8fd05b80a"},"vehicle_type_id":"4","last_reported":1702123918,"current_range_meters":8400,"station_id":"ce4bhih2rcd13ifvqfs0","pricing_plan_id":"free"},{"bike_id":"feb6d24e-5f92-47af-ac4c-03725a4e8662","system_id":"levelo_inurba_marseille","lat":43.254947,"lon":5.376454,"is_reserved":false,"is_disabled":false,"rental_uris":{"android":"levelo://app?vid=feb6d24e-5f92-47af-ac4c-03725a4e8662","ios":"levelo://app?vid=feb6d24e-5f92-47af-ac4c-03725a4e8662"},"vehicle_type_id":"4","last_reported":1702123918,"current_range_meters":23600,"station_id":"ce4bhh12rcd13ifvqff0","pricing_plan_id":"free"},{"bike_id":"6d45314c-2e9b-418a-8e6d-53cbec88880b","system_id":"levelo_inurba_marseille","lat":43.257079,"lon":5.411051,"is_reserved":false,"is_disabled":false,"rental_uris":{"android":"levelo://app?vid=6d45314c-2e9b-418a-8e6d-53cbec88880b","ios":"levelo://app?vid=6d45314c-2e9b-418a-8e6d-53cbec88880b"},"vehicle_type_id":"4","last_reported":1702123918,"current_range_meters":24000,"station_id":"ce4bhkp2rcd13ifvqgd0","pricing_plan_id":"free"},{"bike_id":"0dc6bb76-c9e2-41b8-8b88-1df44a692ab1","system_id":"levelo_inurba_marseille","lat":43.257079,"lon":5.411051,"is_reserved":false,"is_disabled":false,"rental_uris":{"android":"levelo://app?vid=0dc6bb76-c9e2-41b8-8b88-1df44a692ab1","ios":"levelo://app?vid=0dc6bb76-c9e2-41b8-8b88-1df44a692ab1"},"vehicle_type_id":"4","last_reported":1702123918,"current_range_meters":12800,"station_id":"ce4bhkp2rcd13ifvqgd0","pricing_plan_id":"free"},{"bike_id":"cd8678d3-64fd-4295-bac6-f012f0612a10","system_id":"levelo_inurba_marseille","lat":43.250009,"lon":5.389195,"is_reserved":false,"is_disabled":false,"rental_uris":{"android":"levelo://app?vid=cd8678d3-64fd-4295-bac6-f012f0612a10","ios":"levelo://app?vid=cd8678d3-64fd-4295-bac6-f012f0612a10"},"vehicle_type_id":"4","last_reported":1702123918,"current_range_meters":30800,"station_id":"ce4bhgp2rcd13ifvqfd0","pricing_plan_id":"free"},{"bike_id":"a284a7b9-963d-4f35-8ee8-4c7c3dc16ca9","system_id":"levelo_inurba_marseille","lat":43.2479,"lon":5.374457,"is_reserved":false,"is_disabled":false,"rental_uris":{"android":"levelo://app?vid=a284a7b9-963d-4f35-8ee8-4c7c3dc16ca9","ios":"levelo://app?vid=a284a7b9-963d-4f35-8ee8-4c7c3dc16ca9"},"vehicle_type_id":"4","last_reported":1702123918,"current_range_meters":22000,"station_id":"ce4bhgh2rcd13ifvqfb0","pricing_plan_id":"free"},{"bike_id":"44e45d0a-c862-422a-8d2a-b5c62b645595","system_id":"levelo_inurba_marseille","lat":43.2479,"lon":5.374457,"is_reserved":false,"is_disabled":false,"rental_uris":{"android":"levelo://app?vid=44e45d0a-c862-422a-8d2a-b5c62b645595","ios":"levelo://app?vid=44e45d0a-c862-422a-8d2a-b5c62b645595"},"vehicle_type_id":"4","last_reported":1702123918,"current_range_meters":0,"station_id":"ce4bhgh2rcd13ifvqfb0","pricing_plan_id":"free"},{"bike_id":"b9bd7da5-d36b-43df-8452-6a74bc8cbc4a","system_id":"levelo_inurba_marseille","lat":43.2479,"lon":5.374457,"is_reserved":false,"is_disabled":false,"rental_uris":{"android":"levelo://app?vid=b9bd7da5-d36b-43df-8452-6a74bc8cbc4a","ios":"levelo://app?vid=b9bd7da5-d36b-43df-8452-6a74bc8cbc4a"},"vehicle_type_id":"4","last_reported":1702123918,"current_range_meters":28000,"station_id":"ce4bhgh2rcd13ifvqfb0","pricing_plan_id":"free"},{"bike_id":"0291de40-2207-4dfe-b4cf-ca13bd9a6e2e","system_id":"levelo_inurba_marseille","lat":43.24693,"lon":5.382096,"is_reserved":false,"is_disabled":false,"rental_uris":{"android":"levelo://app?vid=0291de40-2207-4dfe-b4cf-ca13bd9a6e2e","ios":"levelo://app?vid=0291de40-2207-4dfe-b4cf-ca13bd9a6e2e"},"vehicle_type_id":"4","last_reported":1702123918,"current_range_meters":26800,"station_id":"ce4bhih2rcd13ifvqfr0","pricing_plan_id":"free"},{"bike_id":"9af390f3-7880-4e03-9cbd-f6352325ab91","system_id":"levelo_inurba_marseille","lat":43.243884,"lon":5.370737,"is_reserved":false,"is_disabled":false,"rental_uris":{"android":"levelo://app?vid=9af390f3-7880-4e03-9cbd-f6352325ab91","ios":"levelo://app?vid=9af390f3-7880-4e03-9cbd-f6352325ab91"},"vehicle_type_id":"4","last_reported":1702123918,"current_range_meters":22400,"station_id":"ce4bhhh2rcd13ifvqfk0","pricing_plan_id":"free"},{"bike_id":"8640e6d3-0baa-43c0-b79e-bcdf555fbaee","system_id":"levelo_inurba_marseille","lat":43.24393,"lon":5.3706,"is_reserved":false,"is_disabled":false,"rental_uris":{"android":"levelo://app?vid=8640e6d3-0baa-43c0-b79e-bcdf555fbaee","ios":"levelo://app?vid=8640e6d3-0baa-43c0-b79e-bcdf555fbaee"},"vehicle_type_id":"4","last_reported":1702123918,"current_range_meters":17600,"station_id":"ce4bhhh2rcd13ifvqfk0","pricing_plan_id":"free"},{"bike_id":"04d57d73-8e0d-489d-9d5e-ae5cece2cc67","system_id":"levelo_inurba_marseille","lat":43.243884,"lon":5.370736,"is_reserved":false,"is_disabled":false,"rental_uris":{"android":"levelo://app?vid=04d57d73-8e0d-489d-9d5e-ae5cece2cc67","ios":"levelo://app?vid=04d57d73-8e0d-489d-9d5e-ae5cece2cc67"},"vehicle_type_id":"4","last_reported":1702123918,"current_range_meters":31200,"station_id":"ce4bhhh2rcd13ifvqfk0","pricing_plan_id":"free"},{"bike_id":"098bd4db-40aa-4319-89b5-cb8dda945159","system_id":"levelo_inurba_marseille","lat":43.243884,"lon":5.370737,"is_reserved":false,"is_disabled":false,"rental_uris":{"android":"levelo://app?vid=098bd4db-40aa-4319-89b5-cb8dda945159","ios":"levelo://app?vid=098bd4db-40aa-4319-89b5-cb8dda945159"},"vehicle_type_id":"4","last_reported":1702123918,"current_range_meters":18800,"station_id":"ce4bhhh2rcd13ifvqfk0","pricing_plan_id":"free"},{"bike_id":"8d373f6e-76b4-42e4-8b95-647136288427","system_id":"levelo_inurba_marseille","lat":43.243884,"lon":5.370736,"is_reserved":false,"is_disabled":false,"rental_uris":{"android":"levelo://app?vid=8d373f6e-76b4-42e4-8b95-647136288427","ios":"levelo://app?vid=8d373f6e-76b4-42e4-8b95-647136288427"},"vehicle_type_id":"4","last_reported":1702123918,"current_range_meters":14400,"station_id":"ce4bhhh2rcd13ifvqfk0","pricing_plan_id":"free"},{"bike_id":"55a5ae15-12cc-4022-803c-86fe1b483f36","system_id":"levelo_inurba_marseille","lat":43.24543,"lon":5.39523,"is_reserved":false,"is_disabled":false,"rental_uris":{"android":"levelo://app?vid=55a5ae15-12cc-4022-803c-86fe1b483f36","ios":"levelo://app?vid=55a5ae15-12cc-4022-803c-86fe1b483f36"},"vehicle_type_id":"4","last_reported":1702123918,"current_range_meters":12000,"station_id":"ce4bhlp2rcd13ifvqgjg","pricing_plan_id":"free"},{"bike_id":"589ec893-735f-452b-a5bb-60186a5dfc56","system_id":"levelo_inurba_marseille","lat":43.239588,"lon":5.366238,"is_reserved":false,"is_disabled":false,"rental_uris":{"android":"levelo://app?vid=589ec893-735f-452b-a5bb-60186a5dfc56","ios":"levelo://app?vid=589ec893-735f-452b-a5bb-60186a5dfc56"},"vehicle_type_id":"4","last_reported":1702123918,"current_range_meters":28800,"station_id":"ce4bhi12rcd13ifvqfp0","pricing_plan_id":"free"},{"bike_id":"f3af0f29-c6b3-45f1-8540-3a752563e91b","system_id":"levelo_inurba_marseille","lat":43.23969,"lon":5.36623,"is_reserved":false,"is_disabled":false,"rental_uris":{"android":"levelo://app?vid=f3af0f29-c6b3-45f1-8540-3a752563e91b","ios":"levelo://app?vid=f3af0f29-c6b3-45f1-8540-3a752563e91b"},"vehicle_type_id":"4","last_reported":1702123918,"current_range_meters":10400,"station_id":"ce4bhi12rcd13ifvqfp0","pricing_plan_id":"free"},{"bike_id":"ee7d9f3a-4947-4ac7-867e-bdca862e5b32","system_id":"levelo_inurba_marseille","lat":43.23966,"lon":5.36632,"is_reserved":false,"is_disabled":false,"rental_uris":{"android":"levelo://app?vid=ee7d9f3a-4947-4ac7-867e-bdca862e5b32","ios":"levelo://app?vid=ee7d9f3a-4947-4ac7-867e-bdca862e5b32"},"vehicle_type_id":"4","last_reported":1702123918,"current_range_meters":8800,"station_id":"ce4bhi12rcd13ifvqfp0","pricing_plan_id":"free"},{"bike_id":"5556d4b5-d5a4-4e4e-ac5d-8d166c4bc703","system_id":"levelo_inurba_marseille","lat":43.239588,"lon":5.366238,"is_reserved":false,"is_disabled":false,"rental_uris":{"android":"levelo://app?vid=5556d4b5-d5a4-4e4e-ac5d-8d166c4bc703","ios":"levelo://app?vid=5556d4b5-d5a4-4e4e-ac5d-8d166c4bc703"},"vehicle_type_id":"4","last_reported":1702123918,"current_range_meters":25600,"station_id":"ce4bhi12rcd13ifvqfp0","pricing_plan_id":"free"},{"bike_id":"208cb776-a405-4cfc-b37c-62a9f5f271db","system_id":"levelo_inurba_marseille","lat":43.239588,"lon":5.366238,"is_reserved":false,"is_disabled":false,"rental_uris":{"android":"levelo://app?vid=208cb776-a405-4cfc-b37c-62a9f5f271db","ios":"levelo://app?vid=208cb776-a405-4cfc-b37c-62a9f5f271db"},"vehicle_type_id":"4","last_reported":1702123918,"current_range_meters":24000,"station_id":"ce4bhi12rcd13ifvqfp0","pricing_plan_id":"free"},{"bike_id":"20e60c2a-236d-462b-b89f-10cb02e0e201","system_id":"levelo_inurba_marseille","lat":43.239588,"lon":5.366238,"is_reserved":false,"is_disabled":false,"rental_uris":{"android":"levelo://app?vid=20e60c2a-236d-462b-b89f-10cb02e0e201","ios":"levelo://app?vid=20e60c2a-236d-462b-b89f-10cb02e0e201"},"vehicle_type_id":"4","last_reported":1702123918,"current_range_meters":21600,"station_id":"ce4bhi12rcd13ifvqfp0","pricing_plan_id":"free"},{"bike_id":"93954539-37ab-42cb-8148-c6cd6174d0ce","system_id":"levelo_inurba_marseille","lat":43.23957,"lon":5.3663,"is_reserved":false,"is_disabled":false,"rental_uris":{"android":"levelo://app?vid=93954539-37ab-42cb-8148-c6cd6174d0ce","ios":"levelo://app?vid=93954539-37ab-42cb-8148-c6cd6174d0ce"},"vehicle_type_id":"4","last_reported":1702123918,"current_range_meters":29600,"station_id":"ce4bhi12rcd13ifvqfp0","pricing_plan_id":"free"},{"bike_id":"672c6cd8-9645-4cc4-aa67-0c93b12465a8","system_id":"levelo_inurba_marseille","lat":43.239588,"lon":5.366238,"is_reserved":false,"is_disabled":false,"rental_uris":{"android":"levelo://app?vid=672c6cd8-9645-4cc4-aa67-0c93b12465a8","ios":"levelo://app?vid=672c6cd8-9645-4cc4-aa67-0c93b12465a8"},"vehicle_type_id":"4","last_reported":1702123918,"current_range_meters":31600,"station_id":"ce4bhi12rcd13ifvqfp0","pricing_plan_id":"free"},{"bike_id":"75aadd81-f2b3-486b-8b13-ef85fe43ff80","system_id":"levelo_inurba_marseille","lat":43.241782,"lon":5.397261,"is_reserved":false,"is_disabled":false,"rental_uris":{"android":"levelo://app?vid=75aadd81-f2b3-486b-8b13-ef85fe43ff80","ios":"levelo://app?vid=75aadd81-f2b3-486b-8b13-ef85fe43ff80"},"vehicle_type_id":"4","last_reported":1702123918,"current_range_meters":2000,"station_id":"ce4bhn12rcd13ifvqgpg","pricing_plan_id":"free"}]}}