{"last_updated":1745143732,"ttl":60,"version":"2.2","data":{"bikes":[{"bike_id":"8d015a2b-4362-4be4-a9f6-efc44718a61d","system_id":"levelo_inurba_marseille","lat":43.27373,"lon":5.36254,"is_reserved":false,"is_disabled":false,"rental_uris":{"android":"levelo://app?vid=8d015a2b-4362-4be4-a9f6-efc44718a61d","ios":"levelo://app?vid=8d015a2b-4362-4be4-a9f6-efc44718a61d"},"vehicle_type_id":"4","last_reported":1745143732,"current_range_meters":2800,"station_id":"ce4bhbh2rcd13ifvqeo0","pricing_plan_id":"cebpf4jnsgd1na2vs0mg"},{"bike_id":"e655092c-8219-4721-afde-ee2e1db9e51c","system_id":"levelo_inurba_marseille","lat":43.2884,"lon":5.39299,"is_reserved":false,"is_disabled":false,"rental_uris":{"android":"levelo://app?vid=e655092c-8219-4721-afde-ee2e1db9e51c","ios":"levelo://app?vid=e655092c-8219-4721-afde-ee2e1db9e51c"},"vehicle_type_id":"4","last_reported":1745143732,"current_range_meters":2800,"station_id":"ce4bh2p2rcd13ifvqdi0","pricing_plan_id":"cebpf4jnsgd1na2vs0mg"},{"bike_id":"25ecca6c-6c28-492e-adf2-fb31b4629ad6","system_id":"levelo_inurba_marseille","lat":43.269276,"lon":5.402687,"is_reserved":false,"is_disabled":true,"rental_uris":{"android":"levelo://app?vid=25ecca6c-6c28-492e-adf2-fb31b4629ad6","ios":"levelo://app?vid=25ecca6c-6c28-492e-adf2-fb31b4629ad6"},"vehicle_type_id":"4","last_reported":1745143732,"current_range_meters":2800,"station_id":"cjm6bp8fraef2m0cb0m0","pricing_plan_id":"cebpf4jnsgd1na2vs0mg"},{"bike_id":"cd91cec6-ee9c-4b56-8738-0a5d20ae36e8","system_id":"levelo_inurba_marseille","lat":43.243893,"lon":5.370597,"is_reserved":false,"is_disabled":false,"rental_uris":{"android":"levelo://app?vid=cd91cec6-ee9c-4b56-8738-0a5d20ae36e8","ios":"levelo://app?vid=cd91cec6-ee9c-4b56-8738-0a5d20ae36e8"},"vehicle_type_id":"4","last_reported":1745143732,"current_range_meters":2000,"station_id":"ce4bhhh2rcd13ifvqfk0","pricing_plan_id":"cebpf4jnsgd1na2vs0mg"},{"bike_id":"df982341-d3f1-47bb-bcdf-1054fc116c62","system_id":"levelo_inurba_marseille","lat":43.297828,"lon":5.381103,"is_reserved":false,"is_disabled":true,"rental_uris":{"android":"levelo://app?vid=df982341-d3f1-47bb-bcdf-1054fc116c62","ios":"levelo://app?vid=df982341-d3f1-47bb-bcdf-1054fc116c62"},"vehicle_type_id":"4","last_reported":1745143732,"current_range_meters":3200,"station_id":"ce4bgip2rcd13ifvqbb0","pricing_plan_id":"cebpf4jnsgd1na2vs0mg"},{"bike_id":"276d94a9-b91a-47b5-b4e8-19ed1fdcca68","system_id":"levelo_inurba_marseille","lat":43.29563,"lon":5.42022,"is_reserved":false,"is_disabled":true,"rental_uris":{"android":"levelo://app?vid=276d94a9-b91a-47b5-b4e8-19ed1fdcca68","ios":"levelo://app?vid=276d94a9-b91a-47b5-b4e8-19ed1fdcca68"},"vehicle_type_id":"4","last_reported":1745143732,"current_range_meters":3600,"station_id":"ce4bhph2rcd13ifvqhdg","pricing_plan_id":"cebpf4jnsgd1na2vs0mg"},{"bike_id":"c42c97dc-851b-476d-ba23-67d0582febc0","system_id":"levelo_inurba_marseille","lat":43.30319,"lon":5.40435,"is_reserved":false,"is_disabled":true,"rental_uris":{"android":"levelo://app?vid=c42c97dc-851b-476d-ba23-67d0582febc0","ios":"levelo://app?vid=c42c97dc-851b-476d-ba23-67d0582febc0"},"vehicle_type_id":"4","last_reported":1745143732,"current_range_meters":3600,"station_id":"ce4bh012rcd13ifvqd10","pricing_plan_id":"cebpf4jnsgd1na2vs0mg"},{"bike_id":"4a86d0f8-ff65-4446-9521-1002867a3da0","system_id":"levelo_inurba_marseille","lat":43.24545,"lon":5.39518,"is_reserved":false,"is_disabled":true,"rental_uris":{"android":"levelo://app?vid=4a86d0f8-ff65-4446-9521-1002867a3da0","ios":"levelo://app?vid=4a86d0f8-ff65-4446-9521-1002867a3da0"},"vehicle_type_id":"4","last_reported":1745143732,"current_range_meters":3600,"station_id":"ce4bhlp2rcd13ifvqgjg","pricing_plan_id":"cebpf4jnsgd1na2vs0mg"},{"bike_id":"a6a59253-9318-4945-93ec-91c6177478ea","system_id":"levelo_inurba_marseille","lat":43.2119,"lon":5.35072,"is_reserved":false,"is_disabled":false,"rental_uris":{"android":"levelo://app?vid=a6a59253-9318-4945-93ec-91c6177478ea","ios":"levelo://app?vid=a6a59253-9318-4945-93ec-91c6177478ea"},"vehicle_type_id":"4","last_reported":1745143732,"current_range_meters":3600,"station_id":"st_cvj6sg6p6f1abm77japg","pricing_plan_id":"cebpf4jnsgd1na2vs0mg"},{"bike_id":"19ada103-4cbd-4062-a809-34f5987a7a6d","system_id":"levelo_inurba_marseille","lat":43.26806,"lon":5.38905,"is_reserved":false,"is_disabled":false,"rental_uris":{"android":"levelo://app?vid=19ada103-4cbd-4062-a809-34f5987a7a6d","ios":"levelo://app?vid=19ada103-4cbd-4062-a809-34f5987a7a6d"},"vehicle_type_id":"4","last_reported":1745143732,"current_range_meters":4000,"station_id":"","pricing_plan_id":"cebpf4jnsgd1na2vs0mg"},{"bike_id":"f4f4a03f-7783-40e4-909c-377be37aa79a","system_id":"levelo_inurba_marseille","lat":43.30605,"lon":5.39353,"is_reserved":false,"is_disabled":false,"rental_uris":{"android":"levelo://app?vid=f4f4a03f-7783-40e4-909c-377be37aa79a","ios":"levelo://app?vid=f4f4a03f-7783-40e4-909c-377be37aa79a"},"vehicle_type_id":"4","last_reported":1745143732,"current_range_meters":4000,"station_id":"ce4bh0p2rcd13ifvqd80","pricing_plan_id":"cebpf4jnsgd1na2vs0mg"},{"bike_id":"45bf5733-342f-4ac4-80a4-ad2640aded4c","system_id":"levelo_inurba_marseille","lat":43.21757,"lon":5.34588,"is_reserved":false,"is_disabled":false,"rental_uris":{"android":"levelo://app?vid=45bf5733-342f-4ac4-80a4-ad2640aded4c","ios":"levelo://app?vid=45bf5733-342f-4ac4-80a4-ad2640aded4c"},"vehicle_type_id":"4","last_reported":1745143732,"current_range_meters":4400,"station_id":"st_cvj6r9ubvosntc0bgbag","pricing_plan_id":"cebpf4jnsgd1na2vs0mg"},{"bike_id":"98133c5f-1713-4ff0-94e5-8b169d954486","system_id":"levelo_inurba_marseille","lat":43.29796,"lon":5.38113,"is_reserved":false,"is_disabled":true,"rental_uris":{"android":"levelo://app?vid=98133c5f-1713-4ff0-94e5-8b169d954486","ios":"levelo://app?vid=98133c5f-1713-4ff0-94e5-8b169d954486"},"vehicle_type_id":"4","last_reported":1745143732,"current_range_meters":4400,"station_id":"ce4bgip2rcd13ifvqbb0","pricing_plan_id":"cebpf4jnsgd1na2vs0mg"},{"bike_id":"4cdb0a0f-6366-43af-85c7-3c43d75a4386","system_id":"levelo_inurba_marseille","lat":43.31784,"lon":5.36834,"is_reserved":false,"is_disabled":false,"rental_uris":{"android":"levelo://app?vid=4cdb0a0f-6366-43af-85c7-3c43d75a4386","ios":"levelo://app?vid=4cdb0a0f-6366-43af-85c7-3c43d75a4386"},"vehicle_type_id":"4","last_reported":1745143732,"current_range_meters":4400,"station_id":"","pricing_plan_id":"cebpf4jnsgd1na2vs0mg"},{"bike_id":"a0ddb0a5-f7f0-4281-aa27-9e82747cc573","system_id":"levelo_inurba_marseille","lat":43.33754,"lon":5.37491,"is_reserved":false,"is_disabled":false,"rental_uris":{"android":"levelo://app?vid=a0ddb0a5-f7f0-4281-aa27-9e82747cc573","ios":"levelo://app?vid=a0ddb0a5-f7f0-4281-aa27-9e82747cc573"},"vehicle_type_id":"4","last_reported":1745143732,"current_range_meters":4400,"station_id":"","pricing_plan_id":"cebpf4jnsgd1na2vs0mg"},{"bike_id":"9fe8c14c-2d24-41b2-9662-956cdf9f075c","system_id":"levelo_inurba_marseille","lat":43.24458,"lon":5.36924,"is_reserved":false,"is_disabled":false,"rental_uris":{"android":"levelo://app?vid=9fe8c14c-2d24-41b2-9662-956cdf9f075c","ios":"levelo://app?vid=9fe8c14c-2d24-41b2-9662-956cdf9f075c"},"vehicle_type_id":"4","last_reported":1745143732,"current_range_meters":4800,"station_id":"","pricing_plan_id":"cebpf4jnsgd1na2vs0mg"},{"bike_id":"066f1a3f-2f55-42ac-aa57-b561bb82f13e","system_id":"levelo_inurba_marseille","lat":43.3086,"lon":5.37321,"is_reserved":false,"is_disabled":false,"rental_uris":{"android":"levelo://app?vid=066f1a3f-2f55-42ac-aa57-b561bb82f13e","ios":"levelo://app?vid=066f1a3f-2f55-42ac-aa57-b561bb82f13e"},"vehicle_type_id":"4","last_reported":1745143732,"current_range_meters":4800,"station_id":"","pricing_plan_id":"cebpf4jnsgd1na2vs0mg"},{"bike_id":"6de72d97-5e83-4221-aca1-0289322a6720","system_id":"levelo_inurba_marseille","lat":43.2175,"lon":5.34603,"is_reserved":false,"is_disabled":false,"rental_uris":{"android":"levelo://app?vid=6de72d97-5e83-4221-aca1-0289322a6720","ios":"levelo://app?vid=6de72d97-5e83-4221-aca1-0289322a6720"},"vehicle_type_id":"4","last_reported":1745143732,"current_range_meters":5600,"station_id":"st_cvj6r9ubvosntc0bgbag","pricing_plan_id":"cebpf4jnsgd1na2vs0mg"},{"bike_id":"e36eee3f-e899-4919-a402-21704daa28c5","system_id":"levelo_inurba_marseille","lat":43.2118,"lon":5.35068,"is_reserved":false,"is_disabled":false,"rental_uris":{"android":"levelo://app?vid=e36eee3f-e899-4919-a402-21704daa28c5","ios":"levelo://app?vid=e36eee3f-e899-4919-a402-21704daa28c5"},"vehicle_type_id":"4","last_reported":1745143732,"current_range_meters":4800,"station_id":"st_cvj6sg6p6f1abm77japg","pricing_plan_id":"cebpf4jnsgd1na2vs0mg"},{"bike_id":"f6ba2129-4c99-433a-9ce5-8a3893340f52","system_id":"levelo_inurba_marseille","lat":43.2417,"lon":5.363991,"is_reserved":false,"is_disabled":false,"rental_uris":{"android":"levelo://app?vid=f6ba2129-4c99-433a-9ce5-8a3893340f52","ios":"levelo://app?vid=f6ba2129-4c99-433a-9ce5-8a3893340f52"},"vehicle_type_id":"4","last_reported":1745143732,"current_range_meters":5600,"station_id":"cpo36qri1sfpv3e86is0","pricing_plan_id":"cebpf4jnsgd1na2vs0mg"},{"bike_id":"ba6a80cb-9442-4a84-952a-d568407491c9","system_id":"levelo_inurba_marseille","lat":43.32356,"lon":5.3676,"is_reserved":false,"is_disabled":false,"rental_uris":{"android":"levelo://app?vid=ba6a80cb-9442-4a84-952a-d568407491c9","ios":"levelo://app?vid=ba6a80cb-9442-4a84-952a-d568407491c9"},"vehicle_type_id":"4","last_reported":1745143732,"current_range_meters":5600,"station_id":"ce4bhsh2rcd13ifvqi2g","pricing_plan_id":"cebpf4jnsgd1na2vs0mg"},{"bike_id":"35f0a6e1-f9a9-47ee-bab6-2641cdd8ae57","system_id":"levelo_inurba_marseille","lat":43.27335,"lon":5.39092,"is_reserved":false,"is_disabled":true,"rental_uris":{"android":"levelo://app?vid=35f0a6e1-f9a9-47ee-bab6-2641cdd8ae57","ios":"levelo://app?vid=35f0a6e1-f9a9-47ee-bab6-2641cdd8ae57"},"vehicle_type_id":"4","last_reported":1745143732,"current_range_meters":6000,"station_id":"ce4bhgp2rcd13ifvqfe0","pricing_plan_id":"cebpf4jnsgd1na2vs0mg"},{"bike_id":"728b8bc4-278e-4503-80a4-43cd2f67d86d","system_id":"levelo_inurba_marseille","lat":43.24165,"lon":5.39722,"is_reserved":false,"is_disabled":false,"rental_uris":{"android":"levelo://app?vid=728b8bc4-278e-4503-80a4-43cd2f67d86d","ios":"levelo://app?vid=728b8bc4-278e-4503-80a4-43cd2f67d86d"},"vehicle_type_id":"4","last_reported":1745143732,"current_range_meters":6000,"station_id":"ce4bhn12rcd13ifvqgpg","pricing_plan_id":"cebpf4jnsgd1na2vs0mg"},{"bike_id":"a2a6f098-8d58-42f2-80ae-d26a0e0f3ac1","system_id":"levelo_inurba_marseille","lat":43.30537,"lon":5.40172,"is_reserved":false,"is_disabled":false,"rental_uris":{"android":"levelo://app?vid=a2a6f098-8d58-42f2-80ae-d26a0e0f3ac1","ios":"levelo://app?vid=a2a6f098-8d58-42f2-80ae-d26a0e0f3ac1"},"vehicle_type_id":"4","last_reported":1745143732,"current_range_meters":6000,"station_id":"","pricing_plan_id":"cebpf4jnsgd1na2vs0mg"},{"bike_id":"82cf97f6-2d10-439b-a6f0-f962bacaaf34","system_id":"levelo_inurba_marseille","lat":43.3236,"lon":5.38883,"is_reserved":false,"is_disabled":false,"rental_uris":{"android":"levelo://app?vid=82cf97f6-2d10-439b-a6f0-f962bacaaf34","ios":"levelo://app?vid=82cf97f6-2d10-439b-a6f0-f962bacaaf34"},"vehicle_type_id":"4","last_reported":1745143732,"current_range_meters":6400,"station_id":"ce4bhqp2rcd13ifvqhog","pricing_plan_id":"cebpf4jnsgd1na2vs0mg"},{"bike_id":"b52a1751-28c1-4412-9819-bb1cff38059d","system_id":"levelo_inurba_marseille","lat":43.25455,"lon":5.40638,"is_reserved":false,"is_disabled":false,"rental_uris":{"android":"levelo://app?vid=b52a1751-28c1-4412-9819-bb1cff38059d","ios":"levelo://app?vid=b52a1751-28c1-4412-9819-bb1cff38059d"},"vehicle_type_id":"4","last_reported":1745143732,"current_range_meters":6400,"station_id":"","pricing_plan_id":"cebpf4jnsgd1na2vs0mg"},{"bike_id":"0b40943d-b526-41fb-810d-35e7e3139bd0","system_id":"levelo_inurba_marseille","lat":43.30671,"lon":5.39261,"is_reserved":false,"is_disabled":false,"rental_uris":{"android":"levelo://app?vid=0b40943d-b526-41fb-810d-35e7e3139bd0","ios":"levelo://app?vid=0b40943d-b526-41fb-810d-35e7e3139bd0"},"vehicle_type_id":"4","last_reported":1745143732,"current_range_meters":6400,"station_id":"","pricing_plan_id":"cebpf4jnsgd1na2vs0mg"},{"bike_id":"225e3526-8097-487c-8166-39f04b762f21","system_id":"levelo_inurba_marseille","lat":43.23943,"lon":5.36652,"is_reserved":false,"is_disabled":false,"rental_uris":{"android":"levelo://app?vid=225e3526-8097-487c-8166-39f04b762f21","ios":"levelo://app?vid=225e3526-8097-487c-8166-39f04b762f21"},"vehicle_type_id":"4","last_reported":1745143732,"current_range_meters":6800,"station_id":"ce4bhi12rcd13ifvqfp0","pricing_plan_id":"cebpf4jnsgd1na2vs0mg"},{"bike_id":"506029f3-934b-4b14-bf28-b9c4802540f9","system_id":"levelo_inurba_marseille","lat":43.23194,"lon":5.35567,"is_reserved":false,"is_disabled":false,"rental_uris":{"android":"levelo://app?vid=506029f3-934b-4b14-bf28-b9c4802540f9","ios":"levelo://app?vid=506029f3-934b-4b14-bf28-b9c4802540f9"},"vehicle_type_id":"4","last_reported":1745143732,"current_range_meters":6800,"station_id":"ce4bhu92rcd13ifvqi70","pricing_plan_id":"cebpf4jnsgd1na2vs0mg"},{"bike_id":"7e565660-1257-4192-ac3c-e2354c24fa2d","system_id":"levelo_inurba_marseille","lat":43.23142,"lon":5.43711,"is_reserved":false,"is_disabled":false,"rental_uris":{"android":"levelo://app?vid=7e565660-1257-4192-ac3c-e2354c24fa2d","ios":"levelo://app?vid=7e565660-1257-4192-ac3c-e2354c24fa2d"},"vehicle_type_id":"4","last_reported":1745143732,"current_range_meters":6800,"station_id":"ce4bhmp2rcd13ifvqgog","pricing_plan_id":"cebpf4jnsgd1na2vs0mg"},{"bike_id":"d670f322-c36b-42e2-af90-5389682beb17","system_id":"levelo_inurba_marseille","lat":43.21175,"lon":5.35082,"is_reserved":false,"is_disabled":false,"rental_uris":{"android":"levelo://app?vid=d670f322-c36b-42e2-af90-5389682beb17","ios":"levelo://app?vid=d670f322-c36b-42e2-af90-5389682beb17"},"vehicle_type_id":"4","last_reported":1745143732,"current_range_meters":6800,"station_id":"st_cvj6sg6p6f1abm77japg","pricing_plan_id":"cebpf4jnsgd1na2vs0mg"},{"bike_id":"613a352f-e21e-411f-bca1-4a1d61d7df7a","system_id":"levelo_inurba_marseille","lat":43.32358,"lon":5.38885,"is_reserved":false,"is_disabled":false,"rental_uris":{"android":"levelo://app?vid=613a352f-e21e-411f-bca1-4a1d61d7df7a","ios":"levelo://app?vid=613a352f-e21e-411f-bca1-4a1d61d7df7a"},"vehicle_type_id":"4","last_reported":1745143732,"current_range_meters":7200,"station_id":"ce4bhqp2rcd13ifvqhog","pricing_plan_id":"cebpf4jnsgd1na2vs0mg"},{"bike_id":"1eaca8f5-0017-418a-9bfc-52185bf67513","system_id":"levelo_inurba_marseille","lat":43.3363,"lon":5.39186,"is_reserved":false,"is_disabled":false,"rental_uris":{"android":"levelo://app?vid=1eaca8f5-0017-418a-9bfc-52185bf67513","ios":"levelo://app?vid=1eaca8f5-0017-418a-9bfc-52185bf67513"},"vehicle_type_id":"4","last_reported":1745143732,"current_range_meters":7200,"station_id":"ce4bhr92rcd13ifvqhsg","pricing_plan_id":"cebpf4jnsgd1na2vs0mg"},{"bike_id":"186380b9-3dab-457b-b648-71d123fa0368","system_id":"levelo_inurba_marseille","lat":43.25129,"lon":5.40294,"is_reserved":false,"is_disabled":true,"rental_uris":{"android":"levelo://app?vid=186380b9-3dab-457b-b648-71d123fa0368","ios":"levelo://app?vid=186380b9-3dab-457b-b648-71d123fa0368"},"vehicle_type_id":"4","last_reported":1745143732,"current_range_meters":7200,"station_id":"ce4bhlh2rcd13ifvqgig","pricing_plan_id":"cebpf4jnsgd1na2vs0mg"},{"bike_id":"d2ba4413-c35f-41b1-8baf-f83e6001a359","system_id":"levelo_inurba_marseille","lat":43.29023,"lon":5.38642,"is_reserved":false,"is_disabled":true,"rental_uris":{"android":"levelo://app?vid=d2ba4413-c35f-41b1-8baf-f83e6001a359","ios":"levelo://app?vid=d2ba4413-c35f-41b1-8baf-f83e6001a359"},"vehicle_type_id":"4","last_reported":1745143732,"current_range_meters":7200,"station_id":"ce4bh4p2rcd13ifvqe0g","pricing_plan_id":"cebpf4jnsgd1na2vs0mg"},{"bike_id":"4f7d7a48-9ed4-49ae-98c3-6d5ae3d0a41a","system_id":"levelo_inurba_marseille","lat":43.229259,"lon":5.353984,"is_reserved":false,"is_disabled":false,"rental_uris":{"android":"levelo://app?vid=4f7d7a48-9ed4-49ae-98c3-6d5ae3d0a41a","ios":"levelo://app?vid=4f7d7a48-9ed4-49ae-98c3-6d5ae3d0a41a"},"vehicle_type_id":"4","last_reported":1745143732,"current_range_meters":7200,"station_id":"cpo3532slgdg3j2ikp40","pricing_plan_id":"cebpf4jnsgd1na2vs0mg"},{"bike_id":"6c30e091-3528-44fd-8a69-703e2e6ecfc4","system_id":"levelo_inurba_marseille","lat":43.23962,"lon":5.36631,"is_reserved":false,"is_disabled":false,"rental_uris":{"android":"levelo://app?vid=6c30e091-3528-44fd-8a69-703e2e6ecfc4","ios":"levelo://app?vid=6c30e091-3528-44fd-8a69-703e2e6ecfc4"},"vehicle_type_id":"4","last_reported":1745143732,"current_range_meters":8000,"station_id":"ce4bhi12rcd13ifvqfp0","pricing_plan_id":"cebpf4jnsgd1na2vs0mg"},{"bike_id":"29de76c4-afbd-4722-aedb-650b333ae9d8","system_id":"levelo_inurba_marseille","lat":43.27943,"lon":5.41038,"is_reserved":false,"is_disabled":false,"rental_uris":{"android":"levelo://app?vid=29de76c4-afbd-4722-aedb-650b333ae9d8","ios":"levelo://app?vid=29de76c4-afbd-4722-aedb-650b333ae9d8"},"vehicle_type_id":"4","last_reported":1745143732,"current_range_meters":8000,"station_id":"ce4bhnp2rcd13ifvqh0g","pricing_plan_id":"cebpf4jnsgd1na2vs0mg"},{"bike_id":"7af3ef84-f624-4ae1-9b9e-06f5cb7511a7","system_id":"levelo_inurba_marseille","lat":43.27371,"lon":5.36257,"is_reserved":false,"is_disabled":false,"rental_uris":{"android":"levelo://app?vid=7af3ef84-f624-4ae1-9b9e-06f5cb7511a7","ios":"levelo://app?vid=7af3ef84-f624-4ae1-9b9e-06f5cb7511a7"},"vehicle_type_id":"4","last_reported":1745143732,"current_range_meters":8000,"station_id":"ce4bhbh2rcd13ifvqeo0","pricing_plan_id":"cebpf4jnsgd1na2vs0mg"},{"bike_id":"3ea386b7-c4da-4644-8d36-8fabfa2d7c9f","system_id":"levelo_inurba_marseille","lat":43.21202,"lon":5.35047,"is_reserved":false,"is_disabled":false,"rental_uris":{"android":"levelo://app?vid=3ea386b7-c4da-4644-8d36-8fabfa2d7c9f","ios":"levelo://app?vid=3ea386b7-c4da-4644-8d36-8fabfa2d7c9f"},"vehicle_type_id":"4","last_reported":1745143732,"current_range_meters":8000,"station_id":"st_cvj6sg6p6f1abm77japg","pricing_plan_id":"cebpf4jnsgd1na2vs0mg"},{"bike_id":"39123702-dec4-4474-a883-ae94add34ecf","system_id":"levelo_inurba_marseille","lat":43.24542,"lon":5.39567,"is_reserved":false,"is_disabled":false,"rental_uris":{"android":"levelo://app?vid=39123702-dec4-4474-a883-ae94add34ecf","ios":"levelo://app?vid=39123702-dec4-4474-a883-ae94add34ecf"},"vehicle_type_id":"4","last_reported":1745143732,"current_range_meters":8000,"station_id":"","pricing_plan_id":"cebpf4jnsgd1na2vs0mg"},{"bike_id":"1965f819-3778-4654-96e5-aaaf9c36cc08","system_id":"levelo_inurba_marseille","lat":43.30404,"lon":5.42483,"is_reserved":false,"is_disabled":false,"rental_uris":{"android":"levelo://app?vid=1965f819-3778-4654-96e5-aaaf9c36cc08","ios":"levelo://app?vid=1965f819-3778-4654-96e5-aaaf9c36cc08"},"vehicle_type_id":"4","last_reported":1745143732,"current_range_meters":8000,"station_id":"ce4bghh2rcd13ifvqb60","pricing_plan_id":"cebpf4jnsgd1na2vs0mg"},{"bike_id":"8a45211d-408b-43cb-ae76-f907d90fcf58","system_id":"levelo_inurba_marseille","lat":43.33729,"lon":5.39177,"is_reserved":false,"is_disabled":false,"rental_uris":{"android":"levelo://app?vid=8a45211d-408b-43cb-ae76-f907d90fcf58","ios":"levelo://app?vid=8a45211d-408b-43cb-ae76-f907d90fcf58"},"vehicle_type_id":"4","last_reported":1745143732,"current_range_meters":8000,"station_id":"ce4bhr92rcd13ifvqhsg","pricing_plan_id":"cebpf4jnsgd1na2vs0mg"},{"bike_id":"92b73c29-217e-4ac2-a594-a632baebf962","system_id":"levelo_inurba_marseille","lat":43.260586,"lon":5.393981,"is_reserved":false,"is_disabled":false,"rental_uris":{"android":"levelo://app?vid=92b73c29-217e-4ac2-a594-a632baebf962","ios":"levelo://app?vid=92b73c29-217e-4ac2-a594-a632baebf962"},"vehicle_type_id":"4","last_reported":1745143732,"current_range_meters":8000,"station_id":"ce4bhh92rcd13ifvqfj0","pricing_plan_id":"cebpf4jnsgd1na2vs0mg"},{"bike_id":"931800f0-f5ae-42dc-9401-5ef75e1edc12","system_id":"levelo_inurba_marseille","lat":43.27374,"lon":5.4138,"is_reserved":false,"is_disabled":false,"rental_uris":{"android":"levelo://app?vid=931800f0-f5ae-42dc-9401-5ef75e1edc12","ios":"levelo://app?vid=931800f0-f5ae-42dc-9401-5ef75e1edc12"},"vehicle_type_id":"4","last_reported":1745143732,"current_range_meters":8000,"station_id":"","pricing_plan_id":"cebpf4jnsgd1na2vs0mg"},{"bike_id":"e970a77c-97b4-4b75-8155-7044bacc8b02","system_id":"levelo_inurba_marseille","lat":43.25116,"lon":5.40324,"is_reserved":false,"is_disabled":false,"rental_uris":{"android":"levelo://app?vid=e970a77c-97b4-4b75-8155-7044bacc8b02","ios":"levelo://app?vid=e970a77c-97b4-4b75-8155-7044bacc8b02"},"vehicle_type_id":"4","last_reported":1745143732,"current_range_meters":8400,"station_id":"ce4bhlh2rcd13ifvqgig","pricing_plan_id":"cebpf4jnsgd1na2vs0mg"},{"bike_id":"60c589e9-bda5-4065-bda6-9b95d6b63cbc","system_id":"levelo_inurba_marseille","lat":43.28603,"lon":5.37072,"is_reserved":false,"is_disabled":false,"rental_uris":{"android":"levelo://app?vid=60c589e9-bda5-4065-bda6-9b95d6b63cbc","ios":"levelo://app?vid=60c589e9-bda5-4065-bda6-9b95d6b63cbc"},"vehicle_type_id":"4","last_reported":1745143732,"current_range_meters":8400,"station_id":"ce4bht12rcd13ifvqi60","pricing_plan_id":"cebpf4jnsgd1na2vs0mg"},{"bike_id":"6b2a2f68-fd74-4a24-a495-23dd8d3467f4","system_id":"levelo_inurba_marseille","lat":43.21187,"lon":5.35067,"is_reserved":false,"is_disabled":false,"rental_uris":{"android":"levelo://app?vid=6b2a2f68-fd74-4a24-a495-23dd8d3467f4","ios":"levelo://app?vid=6b2a2f68-fd74-4a24-a495-23dd8d3467f4"},"vehicle_type_id":"4","last_reported":1745143732,"current_range_meters":8400,"station_id":"st_cvj6sg6p6f1abm77japg","pricing_plan_id":"cebpf4jnsgd1na2vs0mg"},{"bike_id":"06d20799-fe4e-4e2c-aa01-a6a09b9e4c30","system_id":"levelo_inurba_marseille","lat":43.25111,"lon":5.4033,"is_reserved":false,"is_disabled":false,"rental_uris":{"android":"levelo://app?vid=06d20799-fe4e-4e2c-aa01-a6a09b9e4c30","ios":"levelo://app?vid=06d20799-fe4e-4e2c-aa01-a6a09b9e4c30"},"vehicle_type_id":"4","last_reported":1745143732,"current_range_meters":8400,"station_id":"ce4bhlh2rcd13ifvqgig","pricing_plan_id":"cebpf4jnsgd1na2vs0mg"},{"bike_id":"6d30118c-ea75-47dc-a129-b5f2fb418e80","system_id":"levelo_inurba_marseille","lat":43.30467,"lon":5.37915,"is_reserved":false,"is_disabled":false,"rental_uris":{"android":"levelo://app?vid=6d30118c-ea75-47dc-a129-b5f2fb418e80","ios":"levelo://app?vid=6d30118c-ea75-47dc-a129-b5f2fb418e80"},"vehicle_type_id":"4","last_reported":1745143732,"current_range_meters":8400,"station_id":"ce4bgup2rcd13ifvqcn0","pricing_plan_id":"cebpf4jnsgd1na2vs0mg"},{"bike_id":"bceca376-b320-4023-9d3c-27333a171d6e","system_id":"levelo_inurba_marseille","lat":43.31599,"lon":5.37749,"is_reserved":false,"is_disabled":false,"rental_uris":{"android":"levelo://app?vid=bceca376-b320-4023-9d3c-27333a171d6e","ios":"levelo://app?vid=bceca376-b320-4023-9d3c-27333a171d6e"},"vehicle_type_id":"4","last_reported":1745143732,"current_range_meters":8400,"station_id":"","pricing_plan_id":"cebpf4jnsgd1na2vs0mg"},{"bike_id":"22583896-a653-48d4-8b37-6cfca0e7be93","system_id":"levelo_inurba_marseille","lat":43.2119,"lon":5.3507,"is_reserved":false,"is_disabled":false,"rental_uris":{"android":"levelo://app?vid=22583896-a653-48d4-8b37-6cfca0e7be93","ios":"levelo://app?vid=22583896-a653-48d4-8b37-6cfca0e7be93"},"vehicle_type_id":"4","last_reported":1745143732,"current_range_meters":8400,"station_id":"st_cvj6sg6p6f1abm77japg","pricing_plan_id":"cebpf4jnsgd1na2vs0mg"},{"bike_id":"20aab713-b807-4cab-a272-9ffba5cba397","system_id":"levelo_inurba_marseille","lat":43.30226,"lon":5.38911,"is_reserved":false,"is_disabled":false,"rental_uris":{"android":"levelo://app?vid=20aab713-b807-4cab-a272-9ffba5cba397","ios":"levelo://app?vid=20aab713-b807-4cab-a272-9ffba5cba397"},"vehicle_type_id":"4","last_reported":1745143732,"current_range_meters":8800,"station_id":"","pricing_plan_id":"cebpf4jnsgd1na2vs0mg"},{"bike_id":"ab9be9a2-b412-4e12-b774-0ac14e1c75f2","system_id":"levelo_inurba_marseille","lat":43.232,"lon":5.35553,"is_reserved":false,"is_disabled":false,"rental_uris":{"android":"levelo://app?vid=ab9be9a2-b412-4e12-b774-0ac14e1c75f2","ios":"levelo://app?vid=ab9be9a2-b412-4e12-b774-0ac14e1c75f2"},"vehicle_type_id":"4","last_reported":1745143732,"current_range_meters":8800,"station_id":"ce4bhu92rcd13ifvqi70","pricing_plan_id":"cebpf4jnsgd1na2vs0mg"},{"bike_id":"e55ad993-0663-45fd-a780-6dd36ba6de5b","system_id":"levelo_inurba_marseille","lat":43.28445,"lon":5.39209,"is_reserved":false,"is_disabled":false,"rental_uris":{"android":"levelo://app?vid=e55ad993-0663-45fd-a780-6dd36ba6de5b","ios":"levelo://app?vid=e55ad993-0663-45fd-a780-6dd36ba6de5b"},"vehicle_type_id":"4","last_reported":1745143732,"current_range_meters":8800,"station_id":"ce4bhoh2rcd13ifvqh5g","pricing_plan_id":"cebpf4jnsgd1na2vs0mg"},{"bike_id":"58a86d93-d682-412a-acc9-83b24b69b362","system_id":"levelo_inurba_marseille","lat":43.30969,"lon":5.38252,"is_reserved":false,"is_disabled":false,"rental_uris":{"android":"levelo://app?vid=58a86d93-d682-412a-acc9-83b24b69b362","ios":"levelo://app?vid=58a86d93-d682-412a-acc9-83b24b69b362"},"vehicle_type_id":"4","last_reported":1745143732,"current_range_meters":8800,"station_id":"","pricing_plan_id":"cebpf4jnsgd1na2vs0mg"},{"bike_id":"256354f4-922d-44fd-8aad-f03377c8b06c","system_id":"levelo_inurba_marseille","lat":43.21192,"lon":5.35062,"is_reserved":false,"is_disabled":false,"rental_uris":{"android":"levelo://app?vid=256354f4-922d-44fd-8aad-f03377c8b06c","ios":"levelo://app?vid=256354f4-922d-44fd-8aad-f03377c8b06c"},"vehicle_type_id":"4","last_reported":1745143732,"current_range_meters":8800,"station_id":"st_cvj6sg6p6f1abm77japg","pricing_plan_id":"cebpf4jnsgd1na2vs0mg"},{"bike_id":"94df762c-96d4-44eb-b837-209930b36b6f","system_id":"levelo_inurba_marseille","lat":43.217438,"lon":5.345977,"is_reserved":false,"is_disabled":false,"rental_uris":{"android":"levelo://app?vid=94df762c-96d4-44eb-b837-209930b36b6f","ios":"levelo://app?vid=94df762c-96d4-44eb-b837-209930b36b6f"},"vehicle_type_id":"4","last_reported":1745143732,"current_range_meters":8800,"station_id":"st_cvj6r9ubvosntc0bgbag","pricing_plan_id":"cebpf4jnsgd1na2vs0mg"},{"bike_id":"97e50bb0-9a70-481b-b370-e509345e710a","system_id":"levelo_inurba_marseille","lat":43.28027,"lon":5.36935,"is_reserved":false,"is_disabled":true,"rental_uris":{"android":"levelo://app?vid=97e50bb0-9a70-481b-b370-e509345e710a","ios":"levelo://app?vid=97e50bb0-9a70-481b-b370-e509345e710a"},"vehicle_type_id":"4","last_reported":1745143732,"current_range_meters":9200,"station_id":"ce4bha12rcd13ifvqef0","pricing_plan_id":"cebpf4jnsgd1na2vs0mg"},{"bike_id":"482ec9d6-0168-4a2e-a855-0c1793f050d0","system_id":"levelo_inurba_marseille","lat":43.29906,"lon":5.37463,"is_reserved":false,"is_disabled":false,"rental_uris":{"android":"levelo://app?vid=482ec9d6-0168-4a2e-a855-0c1793f050d0","ios":"levelo://app?vid=482ec9d6-0168-4a2e-a855-0c1793f050d0"},"vehicle_type_id":"4","last_reported":1745143732,"current_range_meters":9200,"station_id":"ce4bgjh2rcd13ifvqbg0","pricing_plan_id":"cebpf4jnsgd1na2vs0mg"},{"bike_id":"f0b6af0d-1cbf-47a3-af07-dab09fabbbf0","system_id":"levelo_inurba_marseille","lat":43.23192,"lon":5.35568,"is_reserved":false,"is_disabled":false,"rental_uris":{"android":"levelo://app?vid=f0b6af0d-1cbf-47a3-af07-dab09fabbbf0","ios":"levelo://app?vid=f0b6af0d-1cbf-47a3-af07-dab09fabbbf0"},"vehicle_type_id":"4","last_reported":1745143732,"current_range_meters":9200,"station_id":"ce4bhu92rcd13ifvqi70","pricing_plan_id":"cebpf4jnsgd1na2vs0mg"},{"bike_id":"6565ca44-2e63-4f42-a847-09fa2bdb37f3","system_id":"levelo_inurba_marseille","lat":43.31992,"lon":5.38146,"is_reserved":false,"is_disabled":true,"rental_uris":{"android":"levelo://app?vid=6565ca44-2e63-4f42-a847-09fa2bdb37f3","ios":"levelo://app?vid=6565ca44-2e63-4f42-a847-09fa2bdb37f3"},"vehicle_type_id":"4","last_reported":1745143732,"current_range_meters":9200,"station_id":"ce4bhr12rcd13ifvqhpg","pricing_plan_id":"cebpf4jnsgd1na2vs0mg"},{"bike_id":"44fed244-f31b-45be-84ce-748891659821","system_id":"levelo_inurba_marseille","lat":43.21192,"lon":5.35074,"is_reserved":false,"is_disabled":false,"rental_uris":{"android":"levelo://app?vid=44fed244-f31b-45be-84ce-748891659821","ios":"levelo://app?vid=44fed244-f31b-45be-84ce-748891659821"},"vehicle_type_id":"4","last_reported":1745143732,"current_range_meters":9200,"station_id":"st_cvj6sg6p6f1abm77japg","pricing_plan_id":"cebpf4jnsgd1na2vs0mg"},{"bike_id":"138d6608-886e-4863-a664-7df6e5cc9a47","system_id":"levelo_inurba_marseille","lat":43.32568,"lon":5.42094,"is_reserved":false,"is_disabled":false,"rental_uris":{"android":"levelo://app?vid=138d6608-886e-4863-a664-7df6e5cc9a47","ios":"levelo://app?vid=138d6608-886e-4863-a664-7df6e5cc9a47"},"vehicle_type_id":"4","last_reported":1745143732,"current_range_meters":9200,"station_id":"","pricing_plan_id":"cebpf4jnsgd1na2vs0mg"},{"bike_id":"63ba8a6e-e947-47bd-960d-8e95a600c26e","system_id":"levelo_inurba_marseille","lat":43.211936,"lon":5.350681,"is_reserved":false,"is_disabled":false,"rental_uris":{"android":"levelo://app?vid=63ba8a6e-e947-47bd-960d-8e95a600c26e","ios":"levelo://app?vid=63ba8a6e-e947-47bd-960d-8e95a600c26e"},"vehicle_type_id":"4","last_reported":1745143732,"current_range_meters":9200,"station_id":"st_cvj6sg6p6f1abm77japg","pricing_plan_id":"cebpf4jnsgd1na2vs0mg"},{"bike_id":"a22db09a-240e-40e4-acbb-1c68666bfc1f","system_id":"levelo_inurba_marseille","lat":43.25119,"lon":5.40315,"is_reserved":false,"is_disabled":false,"rental_uris":{"android":"levelo://app?vid=a22db09a-240e-40e4-acbb-1c68666bfc1f","ios":"levelo://app?vid=a22db09a-240e-40e4-acbb-1c68666bfc1f"},"vehicle_type_id":"4","last_reported":1745143732,"current_range_meters":9200,"station_id":"ce4bhlh2rcd13ifvqgig","pricing_plan_id":"cebpf4jnsgd1na2vs0mg"},{"bike_id":"7f545bbc-a0a7-4368-8a07-6a6863048111","system_id":"levelo_inurba_marseille","lat":43.22934,"lon":5.35371,"is_reserved":false,"is_disabled":false,"rental_uris":{"android":"levelo://app?vid=7f545bbc-a0a7-4368-8a07-6a6863048111","ios":"levelo://app?vid=7f545bbc-a0a7-4368-8a07-6a6863048111"},"vehicle_type_id":"4","last_reported":1745143732,"current_range_meters":9600,"station_id":"cpo3532slgdg3j2ikp40","pricing_plan_id":"cebpf4jnsgd1na2vs0mg"},{"bike_id":"24213b37-b766-4d9c-a174-f6bf34920497","system_id":"levelo_inurba_marseille","lat":43.28469,"lon":5.384178,"is_reserved":false,"is_disabled":false,"rental_uris":{"android":"levelo://app?vid=24213b37-b766-4d9c-a174-f6bf34920497","ios":"levelo://app?vid=24213b37-b766-4d9c-a174-f6bf34920497"},"vehicle_type_id":"4","last_reported":1745143732,"current_range_meters":9600,"station_id":"ce4bh512rcd13ifvqe3g","pricing_plan_id":"cebpf4jnsgd1na2vs0mg"},{"bike_id":"ee77508c-6f9d-400c-9442-6494c8451c48","system_id":"levelo_inurba_marseille","lat":43.25113,"lon":5.40327,"is_reserved":false,"is_disabled":false,"rental_uris":{"android":"levelo://app?vid=ee77508c-6f9d-400c-9442-6494c8451c48","ios":"levelo://app?vid=ee77508c-6f9d-400c-9442-6494c8451c48"},"vehicle_type_id":"4","last_reported":1745143732,"current_range_meters":9600,"station_id":"ce4bhlh2rcd13ifvqgig","pricing_plan_id":"cebpf4jnsgd1na2vs0mg"},{"bike_id":"b2a595fc-5379-4d89-87b7-218a08b1c100","system_id":"levelo_inurba_marseille","lat":43.21182,"lon":5.35072,"is_reserved":false,"is_disabled":false,"rental_uris":{"android":"levelo://app?vid=b2a595fc-5379-4d89-87b7-218a08b1c100","ios":"levelo://app?vid=b2a595fc-5379-4d89-87b7-218a08b1c100"},"vehicle_type_id":"4","last_reported":1745143732,"current_range_meters":9600,"station_id":"st_cvj6sg6p6f1abm77japg","pricing_plan_id":"cebpf4jnsgd1na2vs0mg"},{"bike_id":"6e807cb3-272c-4e2d-8363-49b4284553e2","system_id":"levelo_inurba_marseille","lat":43.34229,"lon":5.40803,"is_reserved":false,"is_disabled":false,"rental_uris":{"android":"levelo://app?vid=6e807cb3-272c-4e2d-8363-49b4284553e2","ios":"levelo://app?vid=6e807cb3-272c-4e2d-8363-49b4284553e2"},"vehicle_type_id":"4","last_reported":1745143732,"current_range_meters":9600,"station_id":"ce4bhqh2rcd13ifvqhlg","pricing_plan_id":"cebpf4jnsgd1na2vs0mg"},{"bike_id":"894a75af-d93a-48dc-b132-82e0e43348d2","system_id":"levelo_inurba_marseille","lat":43.23141,"lon":5.43725,"is_reserved":false,"is_disabled":false,"rental_uris":{"android":"levelo://app?vid=894a75af-d93a-48dc-b132-82e0e43348d2","ios":"levelo://app?vid=894a75af-d93a-48dc-b132-82e0e43348d2"},"vehicle_type_id":"4","last_reported":1745143732,"current_range_meters":9600,"station_id":"ce4bhmp2rcd13ifvqgog","pricing_plan_id":"cebpf4jnsgd1na2vs0mg"},{"bike_id":"a1712860-c09d-4987-9503-ebbedc91af19","system_id":"levelo_inurba_marseille","lat":43.28397,"lon":5.35009,"is_reserved":false,"is_disabled":false,"rental_uris":{"android":"levelo://app?vid=a1712860-c09d-4987-9503-ebbedc91af19","ios":"levelo://app?vid=a1712860-c09d-4987-9503-ebbedc91af19"},"vehicle_type_id":"4","last_reported":1745143732,"current_range_meters":9600,"station_id":"ce4bhbh2rcd13ifvqepg","pricing_plan_id":"cebpf4jnsgd1na2vs0mg"},{"bike_id":"199d80f1-a40d-45d1-9b10-5051bed5830b","system_id":"levelo_inurba_marseille","lat":43.28602,"lon":5.37063,"is_reserved":false,"is_disabled":false,"rental_uris":{"android":"levelo://app?vid=199d80f1-a40d-45d1-9b10-5051bed5830b","ios":"levelo://app?vid=199d80f1-a40d-45d1-9b10-5051bed5830b"},"vehicle_type_id":"4","last_reported":1745143732,"current_range_meters":9600,"station_id":"ce4bht12rcd13ifvqi60","pricing_plan_id":"cebpf4jnsgd1na2vs0mg"},{"bike_id":"b1152bdd-9488-4dae-9240-f91fe8655feb","system_id":"levelo_inurba_marseille","lat":43.254498,"lon":5.377038,"is_reserved":false,"is_disabled":false,"rental_uris":{"android":"levelo://app?vid=b1152bdd-9488-4dae-9240-f91fe8655feb","ios":"levelo://app?vid=b1152bdd-9488-4dae-9240-f91fe8655feb"},"vehicle_type_id":"4","last_reported":1745143732,"current_range_meters":9600,"station_id":"","pricing_plan_id":"cebpf4jnsgd1na2vs0mg"},{"bike_id":"00879c1d-a962-4133-ba5d-8de0f524e6f5","system_id":"levelo_inurba_marseille","lat":43.27506,"lon":5.42461,"is_reserved":false,"is_disabled":false,"rental_uris":{"android":"levelo://app?vid=00879c1d-a962-4133-ba5d-8de0f524e6f5","ios":"levelo://app?vid=00879c1d-a962-4133-ba5d-8de0f524e6f5"},"vehicle_type_id":"4","last_reported":1745143732,"current_range_meters":9600,"station_id":"ce4bhn92rcd13ifvqgrg","pricing_plan_id":"cebpf4jnsgd1na2vs0mg"},{"bike_id":"d0395819-ea40-46d3-acfe-3a01d6c396c0","system_id":"levelo_inurba_marseille","lat":43.23187,"lon":5.39994,"is_reserved":false,"is_disabled":true,"rental_uris":{"android":"levelo://app?vid=d0395819-ea40-46d3-acfe-3a01d6c396c0","ios":"levelo://app?vid=d0395819-ea40-46d3-acfe-3a01d6c396c0"},"vehicle_type_id":"4","last_reported":1745143732,"current_range_meters":9600,"station_id":"ce4bhn12rcd13ifvqgqg","pricing_plan_id":"cebpf4jnsgd1na2vs0mg"},{"bike_id":"13f3fb34-9413-413f-89a9-b1ef385d22f2","system_id":"levelo_inurba_marseille","lat":43.23957,"lon":5.36643,"is_reserved":false,"is_disabled":false,"rental_uris":{"android":"levelo://app?vid=13f3fb34-9413-413f-89a9-b1ef385d22f2","ios":"levelo://app?vid=13f3fb34-9413-413f-89a9-b1ef385d22f2"},"vehicle_type_id":"4","last_reported":1745143732,"current_range_meters":9600,"station_id":"ce4bhi12rcd13ifvqfp0","pricing_plan_id":"cebpf4jnsgd1na2vs0mg"},{"bike_id":"bd3afca0-6bff-4714-94e2-33133b2ddb99","system_id":"levelo_inurba_marseille","lat":43.24644,"lon":5.38891,"is_reserved":false,"is_disabled":false,"rental_uris":{"android":"levelo://app?vid=bd3afca0-6bff-4714-94e2-33133b2ddb99","ios":"levelo://app?vid=bd3afca0-6bff-4714-94e2-33133b2ddb99"},"vehicle_type_id":"4","last_reported":1745143732,"current_range_meters":10000,"station_id":"ce4bhg12rcd13ifvqf60","pricing_plan_id":"cebpf4jnsgd1na2vs0mg"},{"bike_id":"4e6892ef-dbe3-43e4-bc69-b2da5d802c90","system_id":"levelo_inurba_marseille","lat":43.27378,"lon":5.36251,"is_reserved":false,"is_disabled":true,"rental_uris":{"android":"levelo://app?vid=4e6892ef-dbe3-43e4-bc69-b2da5d802c90","ios":"levelo://app?vid=4e6892ef-dbe3-43e4-bc69-b2da5d802c90"},"vehicle_type_id":"4","last_reported":1745143732,"current_range_meters":10000,"station_id":"ce4bhbh2rcd13ifvqeo0","pricing_plan_id":"cebpf4jnsgd1na2vs0mg"},{"bike_id":"386c0466-92a0-4b14-84ad-ceae0ada9e40","system_id":"levelo_inurba_marseille","lat":43.30905,"lon":5.36863,"is_reserved":false,"is_disabled":true,"rental_uris":{"android":"levelo://app?vid=386c0466-92a0-4b14-84ad-ceae0ada9e40","ios":"levelo://app?vid=386c0466-92a0-4b14-84ad-ceae0ada9e40"},"vehicle_type_id":"4","last_reported":1745143732,"current_range_meters":10000,"station_id":"ce4bgn92rcd13ifvqbvg","pricing_plan_id":"cebpf4jnsgd1na2vs0mg"},{"bike_id":"59316439-8194-4b86-9192-b298d1869519","system_id":"levelo_inurba_marseille","lat":43.23176,"lon":5.39982,"is_reserved":false,"is_disabled":false,"rental_uris":{"android":"levelo://app?vid=59316439-8194-4b86-9192-b298d1869519","ios":"levelo://app?vid=59316439-8194-4b86-9192-b298d1869519"},"vehicle_type_id":"4","last_reported":1745143732,"current_range_meters":10000,"station_id":"ce4bhn12rcd13ifvqgqg","pricing_plan_id":"cebpf4jnsgd1na2vs0mg"},{"bike_id":"8438ad03-dd91-4a79-a9f9-5082d7310316","system_id":"levelo_inurba_marseille","lat":43.28411,"lon":5.34983,"is_reserved":false,"is_disabled":false,"rental_uris":{"android":"levelo://app?vid=8438ad03-dd91-4a79-a9f9-5082d7310316","ios":"levelo://app?vid=8438ad03-dd91-4a79-a9f9-5082d7310316"},"vehicle_type_id":"4","last_reported":1745143732,"current_range_meters":10000,"station_id":"ce4bhbh2rcd13ifvqepg","pricing_plan_id":"cebpf4jnsgd1na2vs0mg"},{"bike_id":"527fac75-0783-4b2c-bd4e-07f2f2fee902","system_id":"levelo_inurba_marseille","lat":43.31112,"lon":5.37793,"is_reserved":false,"is_disabled":true,"rental_uris":{"android":"levelo://app?vid=527fac75-0783-4b2c-bd4e-07f2f2fee902","ios":"levelo://app?vid=527fac75-0783-4b2c-bd4e-07f2f2fee902"},"vehicle_type_id":"4","last_reported":1745143732,"current_range_meters":10000,"station_id":"ce4bgt92rcd13ifvqcg0","pricing_plan_id":"cebpf4jnsgd1na2vs0mg"},{"bike_id":"ca50755e-1be1-4a9d-b6cf-5da785388c5b","system_id":"levelo_inurba_marseille","lat":43.30609,"lon":5.37219,"is_reserved":false,"is_disabled":false,"rental_uris":{"android":"levelo://app?vid=ca50755e-1be1-4a9d-b6cf-5da785388c5b","ios":"levelo://app?vid=ca50755e-1be1-4a9d-b6cf-5da785388c5b"},"vehicle_type_id":"4","last_reported":1745143732,"current_range_meters":10000,"station_id":"ce4bgqh2rcd13ifvqc4g","pricing_plan_id":"cebpf4jnsgd1na2vs0mg"},{"bike_id":"1b64a06c-8c3f-4044-b435-0c5447524fd5","system_id":"levelo_inurba_marseille","lat":43.28699,"lon":5.37343,"is_reserved":false,"is_disabled":true,"rental_uris":{"android":"levelo://app?vid=1b64a06c-8c3f-4044-b435-0c5447524fd5","ios":"levelo://app?vid=1b64a06c-8c3f-4044-b435-0c5447524fd5"},"vehicle_type_id":"4","last_reported":1745143732,"current_range_meters":10000,"station_id":"ce4bh3p2rcd13ifvqdq0","pricing_plan_id":"cebpf4jnsgd1na2vs0mg"},{"bike_id":"05b3d330-0c2d-464f-925c-8f172d906042","system_id":"levelo_inurba_marseille","lat":43.26218,"lon":5.37432,"is_reserved":false,"is_disabled":false,"rental_uris":{"android":"levelo://app?vid=05b3d330-0c2d-464f-925c-8f172d906042","ios":"levelo://app?vid=05b3d330-0c2d-464f-925c-8f172d906042"},"vehicle_type_id":"4","last_reported":1745143732,"current_range_meters":10000,"station_id":"ce4bhgp2rcd13ifvqfc0","pricing_plan_id":"cebpf4jnsgd1na2vs0mg"},{"bike_id":"dd2d78fc-82c0-4e3f-aabd-8f1e0ed834fd","system_id":"levelo_inurba_marseille","lat":43.21199,"lon":5.35054,"is_reserved":false,"is_disabled":false,"rental_uris":{"android":"levelo://app?vid=dd2d78fc-82c0-4e3f-aabd-8f1e0ed834fd","ios":"levelo://app?vid=dd2d78fc-82c0-4e3f-aabd-8f1e0ed834fd"},"vehicle_type_id":"4","last_reported":1745143732,"current_range_meters":10000,"station_id":"st_cvj6sg6p6f1abm77japg","pricing_plan_id":"cebpf4jnsgd1na2vs0mg"},{"bike_id":"24faed42-179b-4a3b-9e0a-7cb750512a5b","system_id":"levelo_inurba_marseille","lat":43.217463,"lon":5.346005,"is_reserved":false,"is_disabled":false,"rental_uris":{"android":"levelo://app?vid=24faed42-179b-4a3b-9e0a-7cb750512a5b","ios":"levelo://app?vid=24faed42-179b-4a3b-9e0a-7cb750512a5b"},"vehicle_type_id":"4","last_reported":1745143732,"current_range_meters":10800,"station_id":"st_cvj6r9ubvosntc0bgbag","pricing_plan_id":"cebpf4jnsgd1na2vs0mg"},{"bike_id":"c6eb518d-f8e2-4c5c-8098-b5d751548fcd","system_id":"levelo_inurba_marseille","lat":43.25928,"lon":5.40901,"is_reserved":false,"is_disabled":false,"rental_uris":{"android":"levelo://app?vid=c6eb518d-f8e2-4c5c-8098-b5d751548fcd","ios":"levelo://app?vid=c6eb518d-f8e2-4c5c-8098-b5d751548fcd"},"vehicle_type_id":"4","last_reported":1745143732,"current_range_meters":10800,"station_id":"ce4bhm92rcd13ifvqglg","pricing_plan_id":"cebpf4jnsgd1na2vs0mg"},{"bike_id":"011a6efe-fea3-40d1-8a9d-1ae8dfbe3c4e","system_id":"levelo_inurba_marseille","lat":43.323348,"lon":5.406205,"is_reserved":false,"is_disabled":false,"rental_uris":{"android":"levelo://app?vid=011a6efe-fea3-40d1-8a9d-1ae8dfbe3c4e","ios":"levelo://app?vid=011a6efe-fea3-40d1-8a9d-1ae8dfbe3c4e"},"vehicle_type_id":"4","last_reported":1745143732,"current_range_meters":10800,"station_id":"ce4bhq12rcd13ifvqhig","pricing_plan_id":"cebpf4jnsgd1na2vs0mg"},{"bike_id":"f46d59ed-78df-47f2-82b1-9daf990beefb","system_id":"levelo_inurba_marseille","lat":43.21747,"lon":5.34599,"is_reserved":false,"is_disabled":false,"rental_uris":{"android":"levelo://app?vid=f46d59ed-78df-47f2-82b1-9daf990beefb","ios":"levelo://app?vid=f46d59ed-78df-47f2-82b1-9daf990beefb"},"vehicle_type_id":"4","last_reported":1745143732,"current_range_meters":10800,"station_id":"st_cvj6r9ubvosntc0bgbag","pricing_plan_id":"cebpf4jnsgd1na2vs0mg"},{"bike_id":"d227ea9c-7792-4463-9253-d38241da3c72","system_id":"levelo_inurba_marseille","lat":43.21757,"lon":5.3459,"is_reserved":false,"is_disabled":false,"rental_uris":{"android":"levelo://app?vid=d227ea9c-7792-4463-9253-d38241da3c72","ios":"levelo://app?vid=d227ea9c-7792-4463-9253-d38241da3c72"},"vehicle_type_id":"4","last_reported":1745143732,"current_range_meters":10800,"station_id":"st_cvj6r9ubvosntc0bgbag","pricing_plan_id":"cebpf4jnsgd1na2vs0mg"},{"bike_id":"1886fb80-2895-40f7-844d-7933f5d904dc","system_id":"levelo_inurba_marseille","lat":43.27879,"lon":5.39308,"is_reserved":false,"is_disabled":false,"rental_uris":{"android":"levelo://app?vid=1886fb80-2895-40f7-844d-7933f5d904dc","ios":"levelo://app?vid=1886fb80-2895-40f7-844d-7933f5d904dc"},"vehicle_type_id":"4","last_reported":1745143732,"current_range_meters":10800,"station_id":"","pricing_plan_id":"cebpf4jnsgd1na2vs0mg"},{"bike_id":"18eeec2e-5d8a-4729-ae3d-b89aa2a4dd01","system_id":"levelo_inurba_marseille","lat":43.23922,"lon":5.36604,"is_reserved":false,"is_disabled":false,"rental_uris":{"android":"levelo://app?vid=18eeec2e-5d8a-4729-ae3d-b89aa2a4dd01","ios":"levelo://app?vid=18eeec2e-5d8a-4729-ae3d-b89aa2a4dd01"},"vehicle_type_id":"4","last_reported":1745143732,"current_range_meters":10800,"station_id":"ce4bhi12rcd13ifvqfp0","pricing_plan_id":"cebpf4jnsgd1na2vs0mg"},{"bike_id":"f33472f1-b6fb-4a5a-8136-416b32a2682f","system_id":"levelo_inurba_marseille","lat":43.229398,"lon":5.353794,"is_reserved":false,"is_disabled":false,"rental_uris":{"android":"levelo://app?vid=f33472f1-b6fb-4a5a-8136-416b32a2682f","ios":"levelo://app?vid=f33472f1-b6fb-4a5a-8136-416b32a2682f"},"vehicle_type_id":"4","last_reported":1745143732,"current_range_meters":11200,"station_id":"cpo3532slgdg3j2ikp40","pricing_plan_id":"cebpf4jnsgd1na2vs0mg"},{"bike_id":"f9fbea35-3736-45ce-b361-c061e4453ec2","system_id":"levelo_inurba_marseille","lat":43.28814,"lon":5.39189,"is_reserved":false,"is_disabled":false,"rental_uris":{"android":"levelo://app?vid=f9fbea35-3736-45ce-b361-c061e4453ec2","ios":"levelo://app?vid=f9fbea35-3736-45ce-b361-c061e4453ec2"},"vehicle_type_id":"4","last_reported":1745143732,"current_range_meters":11200,"station_id":"ce4bh2p2rcd13ifvqdi0","pricing_plan_id":"cebpf4jnsgd1na2vs0mg"},{"bike_id":"995d8a72-1aa5-4c87-a4d7-1f735ca671c5","system_id":"levelo_inurba_marseille","lat":43.305462,"lon":5.365288,"is_reserved":false,"is_disabled":false,"rental_uris":{"android":"levelo://app?vid=995d8a72-1aa5-4c87-a4d7-1f735ca671c5","ios":"levelo://app?vid=995d8a72-1aa5-4c87-a4d7-1f735ca671c5"},"vehicle_type_id":"4","last_reported":1745143732,"current_range_meters":11600,"station_id":"ce4bgs12rcd13ifvqcag","pricing_plan_id":"cebpf4jnsgd1na2vs0mg"},{"bike_id":"bc5ee520-13ea-46bd-a275-6ad73e5c59d1","system_id":"levelo_inurba_marseille","lat":43.23188,"lon":5.39986,"is_reserved":false,"is_disabled":false,"rental_uris":{"android":"levelo://app?vid=bc5ee520-13ea-46bd-a275-6ad73e5c59d1","ios":"levelo://app?vid=bc5ee520-13ea-46bd-a275-6ad73e5c59d1"},"vehicle_type_id":"4","last_reported":1745143732,"current_range_meters":11600,"station_id":"ce4bhn12rcd13ifvqgqg","pricing_plan_id":"cebpf4jnsgd1na2vs0mg"},{"bike_id":"d177bdcb-ba4d-4c2e-8899-f6b0f9af395c","system_id":"levelo_inurba_marseille","lat":43.25942,"lon":5.409,"is_reserved":false,"is_disabled":false,"rental_uris":{"android":"levelo://app?vid=d177bdcb-ba4d-4c2e-8899-f6b0f9af395c","ios":"levelo://app?vid=d177bdcb-ba4d-4c2e-8899-f6b0f9af395c"},"vehicle_type_id":"4","last_reported":1745143732,"current_range_meters":11600,"station_id":"ce4bhm92rcd13ifvqglg","pricing_plan_id":"cebpf4jnsgd1na2vs0mg"},{"bike_id":"444ebd43-0eb9-45e0-9133-b8afe07c10e9","system_id":"levelo_inurba_marseille","lat":43.29699,"lon":5.36605,"is_reserved":false,"is_disabled":false,"rental_uris":{"android":"levelo://app?vid=444ebd43-0eb9-45e0-9133-b8afe07c10e9","ios":"levelo://app?vid=444ebd43-0eb9-45e0-9133-b8afe07c10e9"},"vehicle_type_id":"4","last_reported":1745143732,"current_range_meters":11200,"station_id":"ce4bgn12rcd13ifvqbt0","pricing_plan_id":"cebpf4jnsgd1na2vs0mg"},{"bike_id":"33399c5a-7b71-4ae2-a964-55b2f2e618d0","system_id":"levelo_inurba_marseille","lat":43.30207,"lon":5.36556,"is_reserved":false,"is_disabled":true,"rental_uris":{"android":"levelo://app?vid=33399c5a-7b71-4ae2-a964-55b2f2e618d0","ios":"levelo://app?vid=33399c5a-7b71-4ae2-a964-55b2f2e618d0"},"vehicle_type_id":"4","last_reported":1745143732,"current_range_meters":11600,"station_id":"","pricing_plan_id":"cebpf4jnsgd1na2vs0mg"},{"bike_id":"3c11bbce-2ba4-4d4f-8fcc-7912e1294623","system_id":"levelo_inurba_marseille","lat":43.30791,"lon":5.37628,"is_reserved":false,"is_disabled":false,"rental_uris":{"android":"levelo://app?vid=3c11bbce-2ba4-4d4f-8fcc-7912e1294623","ios":"levelo://app?vid=3c11bbce-2ba4-4d4f-8fcc-7912e1294623"},"vehicle_type_id":"4","last_reported":1745143732,"current_range_meters":11600,"station_id":"ce4bgv92rcd13ifvqcq0","pricing_plan_id":"cebpf4jnsgd1na2vs0mg"},{"bike_id":"c299dc9e-5a14-4947-ae3f-28b3be5e4f74","system_id":"levelo_inurba_marseille","lat":43.217497,"lon":5.345981,"is_reserved":false,"is_disabled":false,"rental_uris":{"android":"levelo://app?vid=c299dc9e-5a14-4947-ae3f-28b3be5e4f74","ios":"levelo://app?vid=c299dc9e-5a14-4947-ae3f-28b3be5e4f74"},"vehicle_type_id":"4","last_reported":1745143732,"current_range_meters":11600,"station_id":"","pricing_plan_id":"cebpf4jnsgd1na2vs0mg"},{"bike_id":"d089a9ee-0715-46cd-86c6-784d3c2b9de1","system_id":"levelo_inurba_marseille","lat":43.23195,"lon":5.3997,"is_reserved":false,"is_disabled":false,"rental_uris":{"android":"levelo://app?vid=d089a9ee-0715-46cd-86c6-784d3c2b9de1","ios":"levelo://app?vid=d089a9ee-0715-46cd-86c6-784d3c2b9de1"},"vehicle_type_id":"4","last_reported":1745143732,"current_range_meters":11200,"station_id":"ce4bhn12rcd13ifvqgqg","pricing_plan_id":"cebpf4jnsgd1na2vs0mg"},{"bike_id":"5b3b8164-7271-480a-8977-e11557985f70","system_id":"levelo_inurba_marseille","lat":43.23182,"lon":5.39984,"is_reserved":false,"is_disabled":false,"rental_uris":{"android":"levelo://app?vid=5b3b8164-7271-480a-8977-e11557985f70","ios":"levelo://app?vid=5b3b8164-7271-480a-8977-e11557985f70"},"vehicle_type_id":"4","last_reported":1745143732,"current_range_meters":11600,"station_id":"ce4bhn12rcd13ifvqgqg","pricing_plan_id":"cebpf4jnsgd1na2vs0mg"},{"bike_id":"d2ef6fa0-6922-42cb-92e3-fb499ccb9fa6","system_id":"levelo_inurba_marseille","lat":43.3123,"lon":5.36922,"is_reserved":false,"is_disabled":false,"rental_uris":{"android":"levelo://app?vid=d2ef6fa0-6922-42cb-92e3-fb499ccb9fa6","ios":"levelo://app?vid=d2ef6fa0-6922-42cb-92e3-fb499ccb9fa6"},"vehicle_type_id":"4","last_reported":1745143732,"current_range_meters":12000,"station_id":"","pricing_plan_id":"cebpf4jnsgd1na2vs0mg"},{"bike_id":"9a016c57-a7e8-41fe-abb1-a2457652ddce","system_id":"levelo_inurba_marseille","lat":43.27425,"lon":5.3941,"is_reserved":false,"is_disabled":false,"rental_uris":{"android":"levelo://app?vid=9a016c57-a7e8-41fe-abb1-a2457652ddce","ios":"levelo://app?vid=9a016c57-a7e8-41fe-abb1-a2457652ddce"},"vehicle_type_id":"4","last_reported":1745143732,"current_range_meters":12000,"station_id":"ce4bhdp2rcd13ifvqf20","pricing_plan_id":"cebpf4jnsgd1na2vs0mg"},{"bike_id":"c9eb2cd4-f079-4f7f-a635-7c5e83278694","system_id":"levelo_inurba_marseille","lat":43.29219,"lon":5.36067,"is_reserved":false,"is_disabled":false,"rental_uris":{"android":"levelo://app?vid=c9eb2cd4-f079-4f7f-a635-7c5e83278694","ios":"levelo://app?vid=c9eb2cd4-f079-4f7f-a635-7c5e83278694"},"vehicle_type_id":"4","last_reported":1745143732,"current_range_meters":12000,"station_id":"ce4bhbh2rcd13ifvqeqg","pricing_plan_id":"cebpf4jnsgd1na2vs0mg"},{"bike_id":"a6960721-9735-4b2a-8eb8-b529061f4935","system_id":"levelo_inurba_marseille","lat":43.25459,"lon":5.377099,"is_reserved":false,"is_disabled":false,"rental_uris":{"android":"levelo://app?vid=a6960721-9735-4b2a-8eb8-b529061f4935","ios":"levelo://app?vid=a6960721-9735-4b2a-8eb8-b529061f4935"},"vehicle_type_id":"4","last_reported":1745143732,"current_range_meters":12000,"station_id":"","pricing_plan_id":"cebpf4jnsgd1na2vs0mg"},{"bike_id":"d3d6c491-bab0-499b-a517-c3e65780eabe","system_id":"levelo_inurba_marseille","lat":43.299467,"lon":5.413146,"is_reserved":false,"is_disabled":false,"rental_uris":{"android":"levelo://app?vid=d3d6c491-bab0-499b-a517-c3e65780eabe","ios":"levelo://app?vid=d3d6c491-bab0-499b-a517-c3e65780eabe"},"vehicle_type_id":"4","last_reported":1745143732,"current_range_meters":12400,"station_id":"ce4bhp12rcd13ifvqh9g","pricing_plan_id":"cebpf4jnsgd1na2vs0mg"},{"bike_id":"9d74cef7-b4e4-4876-b49d-8137200e264c","system_id":"levelo_inurba_marseille","lat":43.31112,"lon":5.37772,"is_reserved":false,"is_disabled":false,"rental_uris":{"android":"levelo://app?vid=9d74cef7-b4e4-4876-b49d-8137200e264c","ios":"levelo://app?vid=9d74cef7-b4e4-4876-b49d-8137200e264c"},"vehicle_type_id":"4","last_reported":1745143732,"current_range_meters":12400,"station_id":"ce4bgt92rcd13ifvqcg0","pricing_plan_id":"cebpf4jnsgd1na2vs0mg"},{"bike_id":"0ab43221-ca7e-4ff1-818e-b0edf2d35de5","system_id":"levelo_inurba_marseille","lat":43.26504,"lon":5.39534,"is_reserved":false,"is_disabled":false,"rental_uris":{"android":"levelo://app?vid=0ab43221-ca7e-4ff1-818e-b0edf2d35de5","ios":"levelo://app?vid=0ab43221-ca7e-4ff1-818e-b0edf2d35de5"},"vehicle_type_id":"4","last_reported":1745143732,"current_range_meters":12400,"station_id":"ce4bhi12rcd13ifvqfq0","pricing_plan_id":"cebpf4jnsgd1na2vs0mg"},{"bike_id":"eaed227d-97dd-46c9-98a5-531902a6aa61","system_id":"levelo_inurba_marseille","lat":43.30304,"lon":5.3692,"is_reserved":false,"is_disabled":false,"rental_uris":{"android":"levelo://app?vid=eaed227d-97dd-46c9-98a5-531902a6aa61","ios":"levelo://app?vid=eaed227d-97dd-46c9-98a5-531902a6aa61"},"vehicle_type_id":"4","last_reported":1745143732,"current_range_meters":12400,"station_id":"ce4bgqh2rcd13ifvqc5g","pricing_plan_id":"cebpf4jnsgd1na2vs0mg"},{"bike_id":"6a31ae96-a74e-4ad0-8594-f0ac457b26b9","system_id":"levelo_inurba_marseille","lat":43.28261,"lon":5.3506,"is_reserved":false,"is_disabled":false,"rental_uris":{"android":"levelo://app?vid=6a31ae96-a74e-4ad0-8594-f0ac457b26b9","ios":"levelo://app?vid=6a31ae96-a74e-4ad0-8594-f0ac457b26b9"},"vehicle_type_id":"4","last_reported":1745143732,"current_range_meters":12400,"station_id":"ce4bhbp2rcd13ifvqerg","pricing_plan_id":"cebpf4jnsgd1na2vs0mg"},{"bike_id":"4ff7f8cf-2e9c-4563-bbaa-9d75d0f317dd","system_id":"levelo_inurba_marseille","lat":43.31735,"lon":5.40443,"is_reserved":false,"is_disabled":false,"rental_uris":{"android":"levelo://app?vid=4ff7f8cf-2e9c-4563-bbaa-9d75d0f317dd","ios":"levelo://app?vid=4ff7f8cf-2e9c-4563-bbaa-9d75d0f317dd"},"vehicle_type_id":"4","last_reported":1745143732,"current_range_meters":12400,"station_id":"ce4bh012rcd13ifvqd00","pricing_plan_id":"cebpf4jnsgd1na2vs0mg"},{"bike_id":"d5ef647d-00ca-43ce-8de2-a9826ded3f15","system_id":"levelo_inurba_marseille","lat":43.21208,"lon":5.35074,"is_reserved":false,"is_disabled":false,"rental_uris":{"android":"levelo://app?vid=d5ef647d-00ca-43ce-8de2-a9826ded3f15","ios":"levelo://app?vid=d5ef647d-00ca-43ce-8de2-a9826ded3f15"},"vehicle_type_id":"4","last_reported":1745143732,"current_range_meters":12400,"station_id":"st_cvj6sg6p6f1abm77japg","pricing_plan_id":"cebpf4jnsgd1na2vs0mg"},{"bike_id":"a8f1d2a4-2e2a-433a-9253-5966ec8313aa","system_id":"levelo_inurba_marseille","lat":43.28978,"lon":5.37825,"is_reserved":false,"is_disabled":false,"rental_uris":{"android":"levelo://app?vid=a8f1d2a4-2e2a-433a-9253-5966ec8313aa","ios":"levelo://app?vid=a8f1d2a4-2e2a-433a-9253-5966ec8313aa"},"vehicle_type_id":"4","last_reported":1745143732,"current_range_meters":12800,"station_id":"ce4bh9p2rcd13ifvqed0","pricing_plan_id":"cebpf4jnsgd1na2vs0mg"},{"bike_id":"3c68d4af-f244-4d5b-a673-170645748e37","system_id":"levelo_inurba_marseille","lat":43.27681,"lon":5.39793,"is_reserved":false,"is_disabled":false,"rental_uris":{"android":"levelo://app?vid=3c68d4af-f244-4d5b-a673-170645748e37","ios":"levelo://app?vid=3c68d4af-f244-4d5b-a673-170645748e37"},"vehicle_type_id":"4","last_reported":1745143732,"current_range_meters":12800,"station_id":"","pricing_plan_id":"cebpf4jnsgd1na2vs0mg"},{"bike_id":"9119f5e8-5717-4ae5-905f-121f81a193a4","system_id":"levelo_inurba_marseille","lat":43.21743,"lon":5.34603,"is_reserved":false,"is_disabled":false,"rental_uris":{"android":"levelo://app?vid=9119f5e8-5717-4ae5-905f-121f81a193a4","ios":"levelo://app?vid=9119f5e8-5717-4ae5-905f-121f81a193a4"},"vehicle_type_id":"4","last_reported":1745143732,"current_range_meters":12800,"station_id":"st_cvj6r9ubvosntc0bgbag","pricing_plan_id":"cebpf4jnsgd1na2vs0mg"},{"bike_id":"f6b06603-46d7-458b-9dc9-fbc0bce785af","system_id":"levelo_inurba_marseille","lat":43.2511,"lon":5.40328,"is_reserved":false,"is_disabled":false,"rental_uris":{"android":"levelo://app?vid=f6b06603-46d7-458b-9dc9-fbc0bce785af","ios":"levelo://app?vid=f6b06603-46d7-458b-9dc9-fbc0bce785af"},"vehicle_type_id":"4","last_reported":1745143732,"current_range_meters":13600,"station_id":"ce4bhlh2rcd13ifvqgig","pricing_plan_id":"cebpf4jnsgd1na2vs0mg"},{"bike_id":"c5424f49-73e6-467e-8ea1-3389f3c317ab","system_id":"levelo_inurba_marseille","lat":43.23176,"lon":5.39986,"is_reserved":false,"is_disabled":false,"rental_uris":{"android":"levelo://app?vid=c5424f49-73e6-467e-8ea1-3389f3c317ab","ios":"levelo://app?vid=c5424f49-73e6-467e-8ea1-3389f3c317ab"},"vehicle_type_id":"4","last_reported":1745143732,"current_range_meters":12800,"station_id":"ce4bhn12rcd13ifvqgqg","pricing_plan_id":"cebpf4jnsgd1na2vs0mg"},{"bike_id":"1afd8d7b-eed9-4828-a329-463287d30979","system_id":"levelo_inurba_marseille","lat":43.29848,"lon":5.36284,"is_reserved":false,"is_disabled":false,"rental_uris":{"android":"levelo://app?vid=1afd8d7b-eed9-4828-a329-463287d30979","ios":"levelo://app?vid=1afd8d7b-eed9-4828-a329-463287d30979"},"vehicle_type_id":"4","last_reported":1745143732,"current_range_meters":14000,"station_id":"ce4bgpp2rcd13ifvqc3g","pricing_plan_id":"cebpf4jnsgd1na2vs0mg"},{"bike_id":"19127d2f-b41a-4717-b6aa-87544acdafaa","system_id":"levelo_inurba_marseille","lat":43.21745,"lon":5.346,"is_reserved":false,"is_disabled":false,"rental_uris":{"android":"levelo://app?vid=19127d2f-b41a-4717-b6aa-87544acdafaa","ios":"levelo://app?vid=19127d2f-b41a-4717-b6aa-87544acdafaa"},"vehicle_type_id":"4","last_reported":1745143732,"current_range_meters":14000,"station_id":"st_cvj6r9ubvosntc0bgbag","pricing_plan_id":"cebpf4jnsgd1na2vs0mg"},{"bike_id":"055c5f5f-8166-4ebb-9591-6258021b8fd4","system_id":"levelo_inurba_marseille","lat":43.2313,"lon":5.43711,"is_reserved":false,"is_disabled":false,"rental_uris":{"android":"levelo://app?vid=055c5f5f-8166-4ebb-9591-6258021b8fd4","ios":"levelo://app?vid=055c5f5f-8166-4ebb-9591-6258021b8fd4"},"vehicle_type_id":"4","last_reported":1745143732,"current_range_meters":14000,"station_id":"ce4bhmp2rcd13ifvqgog","pricing_plan_id":"cebpf4jnsgd1na2vs0mg"},{"bike_id":"4fd87317-4923-494a-a05e-56c3cadf7c8e","system_id":"levelo_inurba_marseille","lat":43.22495,"lon":5.34786,"is_reserved":false,"is_disabled":false,"rental_uris":{"android":"levelo://app?vid=4fd87317-4923-494a-a05e-56c3cadf7c8e","ios":"levelo://app?vid=4fd87317-4923-494a-a05e-56c3cadf7c8e"},"vehicle_type_id":"4","last_reported":1745143732,"current_range_meters":14400,"station_id":"","pricing_plan_id":"cebpf4jnsgd1na2vs0mg"},{"bike_id":"cab64969-2640-47ee-abb9-f11afb1f3a59","system_id":"levelo_inurba_marseille","lat":43.2861,"lon":5.35155,"is_reserved":false,"is_disabled":true,"rental_uris":{"android":"levelo://app?vid=cab64969-2640-47ee-abb9-f11afb1f3a59","ios":"levelo://app?vid=cab64969-2640-47ee-abb9-f11afb1f3a59"},"vehicle_type_id":"4","last_reported":1745143732,"current_range_meters":14400,"station_id":"ce4bhch2rcd13ifvqeug","pricing_plan_id":"cebpf4jnsgd1na2vs0mg"},{"bike_id":"5801a3ca-80c0-4f04-85da-122046aa79e1","system_id":"levelo_inurba_marseille","lat":43.29,"lon":5.43824,"is_reserved":false,"is_disabled":false,"rental_uris":{"android":"levelo://app?vid=5801a3ca-80c0-4f04-85da-122046aa79e1","ios":"levelo://app?vid=5801a3ca-80c0-4f04-85da-122046aa79e1"},"vehicle_type_id":"4","last_reported":1745143732,"current_range_meters":14400,"station_id":"","pricing_plan_id":"cebpf4jnsgd1na2vs0mg"},{"bike_id":"d5bf3e51-83b4-419b-b784-58ab0f4a9ad2","system_id":"levelo_inurba_marseille","lat":43.212,"lon":5.35055,"is_reserved":false,"is_disabled":false,"rental_uris":{"android":"levelo://app?vid=d5bf3e51-83b4-419b-b784-58ab0f4a9ad2","ios":"levelo://app?vid=d5bf3e51-83b4-419b-b784-58ab0f4a9ad2"},"vehicle_type_id":"4","last_reported":1745143732,"current_range_meters":14400,"station_id":"st_cvj6sg6p6f1abm77japg","pricing_plan_id":"cebpf4jnsgd1na2vs0mg"},{"bike_id":"3252b857-1473-408f-b0df-09d6afb11b53","system_id":"levelo_inurba_marseille","lat":43.27071,"lon":5.42276,"is_reserved":false,"is_disabled":false,"rental_uris":{"android":"levelo://app?vid=3252b857-1473-408f-b0df-09d6afb11b53","ios":"levelo://app?vid=3252b857-1473-408f-b0df-09d6afb11b53"},"vehicle_type_id":"4","last_reported":1745143732,"current_range_meters":14400,"station_id":"ce4bhk92rcd13ifvqgb0","pricing_plan_id":"cebpf4jnsgd1na2vs0mg"},{"bike_id":"cd125413-553e-4361-8506-76e2571cef47","system_id":"levelo_inurba_marseille","lat":43.27912,"lon":5.39581,"is_reserved":false,"is_disabled":false,"rental_uris":{"android":"levelo://app?vid=cd125413-553e-4361-8506-76e2571cef47","ios":"levelo://app?vid=cd125413-553e-4361-8506-76e2571cef47"},"vehicle_type_id":"4","last_reported":1745143732,"current_range_meters":14400,"station_id":"ce4bhf92rcd13ifvqf40","pricing_plan_id":"cebpf4jnsgd1na2vs0mg"},{"bike_id":"ba64ea65-bb65-4892-aef8-f73c53fadbf0","system_id":"levelo_inurba_marseille","lat":43.278604,"lon":5.392322,"is_reserved":false,"is_disabled":false,"rental_uris":{"android":"levelo://app?vid=ba64ea65-bb65-4892-aef8-f73c53fadbf0","ios":"levelo://app?vid=ba64ea65-bb65-4892-aef8-f73c53fadbf0"},"vehicle_type_id":"4","last_reported":1745143732,"current_range_meters":14400,"station_id":"ce4bhjp2rcd13ifvqga0","pricing_plan_id":"cebpf4jnsgd1na2vs0mg"},{"bike_id":"6019390b-7088-4c04-b80b-2acf1cb29041","system_id":"levelo_inurba_marseille","lat":43.2939,"lon":5.41242,"is_reserved":false,"is_disabled":false,"rental_uris":{"android":"levelo://app?vid=6019390b-7088-4c04-b80b-2acf1cb29041","ios":"levelo://app?vid=6019390b-7088-4c04-b80b-2acf1cb29041"},"vehicle_type_id":"4","last_reported":1745143732,"current_range_meters":14800,"station_id":"","pricing_plan_id":"cebpf4jnsgd1na2vs0mg"},{"bike_id":"de9c76e9-5b34-44dc-89d9-de6e318e6be4","system_id":"levelo_inurba_marseille","lat":43.282195,"lon":5.385847,"is_reserved":false,"is_disabled":false,"rental_uris":{"android":"levelo://app?vid=de9c76e9-5b34-44dc-89d9-de6e318e6be4","ios":"levelo://app?vid=de9c76e9-5b34-44dc-89d9-de6e318e6be4"},"vehicle_type_id":"4","last_reported":1745143732,"current_range_meters":14800,"station_id":"ce4bhi12rcd13ifvqfp0","pricing_plan_id":"cebpf4jnsgd1na2vs0mg"},{"bike_id":"635327bc-d280-4676-9818-c1af3e76102c","system_id":"levelo_inurba_marseille","lat":43.21186,"lon":5.35077,"is_reserved":false,"is_disabled":false,"rental_uris":{"android":"levelo://app?vid=635327bc-d280-4676-9818-c1af3e76102c","ios":"levelo://app?vid=635327bc-d280-4676-9818-c1af3e76102c"},"vehicle_type_id":"4","last_reported":1745143732,"current_range_meters":14800,"station_id":"st_cvj6sg6p6f1abm77japg","pricing_plan_id":"cebpf4jnsgd1na2vs0mg"},{"bike_id":"ce034b4a-bb67-4c72-856c-a0c7ed4c8b8f","system_id":"levelo_inurba_marseille","lat":43.23431,"lon":5.35939,"is_reserved":false,"is_disabled":false,"rental_uris":{"android":"levelo://app?vid=ce034b4a-bb67-4c72-856c-a0c7ed4c8b8f","ios":"levelo://app?vid=ce034b4a-bb67-4c72-856c-a0c7ed4c8b8f"},"vehicle_type_id":"4","last_reported":1745143732,"current_range_meters":14800,"station_id":"","pricing_plan_id":"cebpf4jnsgd1na2vs0mg"},{"bike_id":"d6aeb923-d30a-4a42-bf5a-2bc2aa47af51","system_id":"levelo_inurba_marseille","lat":43.21746,"lon":5.34599,"is_reserved":false,"is_disabled":false,"rental_uris":{"android":"levelo://app?vid=d6aeb923-d30a-4a42-bf5a-2bc2aa47af51","ios":"levelo://app?vid=d6aeb923-d30a-4a42-bf5a-2bc2aa47af51"},"vehicle_type_id":"4","last_reported":1745143732,"current_range_meters":14800,"station_id":"st_cvj6r9ubvosntc0bgbag","pricing_plan_id":"cebpf4jnsgd1na2vs0mg"},{"bike_id":"595a82b5-75e8-47e1-acda-d28e6bb2cccf","system_id":"levelo_inurba_marseille","lat":43.217476,"lon":5.346001,"is_reserved":false,"is_disabled":false,"rental_uris":{"android":"levelo://app?vid=595a82b5-75e8-47e1-acda-d28e6bb2cccf","ios":"levelo://app?vid=595a82b5-75e8-47e1-acda-d28e6bb2cccf"},"vehicle_type_id":"4","last_reported":1745143732,"current_range_meters":14800,"station_id":"st_cvj6r9ubvosntc0bgbag","pricing_plan_id":"cebpf4jnsgd1na2vs0mg"},{"bike_id":"f01fc261-033f-49c7-b09e-b9967362bd76","system_id":"levelo_inurba_marseille","lat":43.2886,"lon":5.3582,"is_reserved":false,"is_disabled":true,"rental_uris":{"android":"levelo://app?vid=f01fc261-033f-49c7-b09e-b9967362bd76","ios":"levelo://app?vid=f01fc261-033f-49c7-b09e-b9967362bd76"},"vehicle_type_id":"4","last_reported":1745143732,"current_range_meters":14800,"station_id":"ce4bhb12rcd13ifvqem0","pricing_plan_id":"cebpf4jnsgd1na2vs0mg"},{"bike_id":"5322a775-4708-4e01-b951-bc93907c1fe4","system_id":"levelo_inurba_marseille","lat":43.29907,"lon":5.37465,"is_reserved":false,"is_disabled":false,"rental_uris":{"android":"levelo://app?vid=5322a775-4708-4e01-b951-bc93907c1fe4","ios":"levelo://app?vid=5322a775-4708-4e01-b951-bc93907c1fe4"},"vehicle_type_id":"4","last_reported":1745143732,"current_range_meters":14800,"station_id":"ce4bgjh2rcd13ifvqbg0","pricing_plan_id":"cebpf4jnsgd1na2vs0mg"},{"bike_id":"50720bbe-5512-41d7-86e0-3df313b565c6","system_id":"levelo_inurba_marseille","lat":43.32363,"lon":5.38896,"is_reserved":false,"is_disabled":true,"rental_uris":{"android":"levelo://app?vid=50720bbe-5512-41d7-86e0-3df313b565c6","ios":"levelo://app?vid=50720bbe-5512-41d7-86e0-3df313b565c6"},"vehicle_type_id":"4","last_reported":1745143732,"current_range_meters":15200,"station_id":"ce4bhqp2rcd13ifvqhog","pricing_plan_id":"cebpf4jnsgd1na2vs0mg"},{"bike_id":"4e8722fc-ba95-4f87-97cf-89ff9f27ad16","system_id":"levelo_inurba_marseille","lat":43.30297,"lon":5.39207,"is_reserved":false,"is_disabled":false,"rental_uris":{"android":"levelo://app?vid=4e8722fc-ba95-4f87-97cf-89ff9f27ad16","ios":"levelo://app?vid=4e8722fc-ba95-4f87-97cf-89ff9f27ad16"},"vehicle_type_id":"4","last_reported":1745143732,"current_range_meters":15200,"station_id":"ce4bgkh2rcd13ifvqbk0","pricing_plan_id":"cebpf4jnsgd1na2vs0mg"},{"bike_id":"6ce14797-8863-48ea-8bee-e545907050f9","system_id":"levelo_inurba_marseille","lat":43.26221,"lon":5.40449,"is_reserved":false,"is_disabled":false,"rental_uris":{"android":"levelo://app?vid=6ce14797-8863-48ea-8bee-e545907050f9","ios":"levelo://app?vid=6ce14797-8863-48ea-8bee-e545907050f9"},"vehicle_type_id":"4","last_reported":1745143732,"current_range_meters":16000,"station_id":"ce4bhmh2rcd13ifvqgmg","pricing_plan_id":"cebpf4jnsgd1na2vs0mg"},{"bike_id":"d53e964c-f934-484c-a259-3e8f23cdd819","system_id":"levelo_inurba_marseille","lat":43.3373,"lon":5.39194,"is_reserved":false,"is_disabled":false,"rental_uris":{"android":"levelo://app?vid=d53e964c-f934-484c-a259-3e8f23cdd819","ios":"levelo://app?vid=d53e964c-f934-484c-a259-3e8f23cdd819"},"vehicle_type_id":"4","last_reported":1745143732,"current_range_meters":16000,"station_id":"ce4bhr92rcd13ifvqhsg","pricing_plan_id":"cebpf4jnsgd1na2vs0mg"},{"bike_id":"9c5b2c41-4a73-4d0b-a583-50ed2d2b11ef","system_id":"levelo_inurba_marseille","lat":43.2574,"lon":5.4099,"is_reserved":false,"is_disabled":false,"rental_uris":{"android":"levelo://app?vid=9c5b2c41-4a73-4d0b-a583-50ed2d2b11ef","ios":"levelo://app?vid=9c5b2c41-4a73-4d0b-a583-50ed2d2b11ef"},"vehicle_type_id":"4","last_reported":1745143732,"current_range_meters":16000,"station_id":"ce4bhkp2rcd13ifvqgd0","pricing_plan_id":"cebpf4jnsgd1na2vs0mg"},{"bike_id":"4e0feb4b-9af5-4c5c-a215-eabded87c4f9","system_id":"levelo_inurba_marseille","lat":43.23191,"lon":5.35552,"is_reserved":false,"is_disabled":false,"rental_uris":{"android":"levelo://app?vid=4e0feb4b-9af5-4c5c-a215-eabded87c4f9","ios":"levelo://app?vid=4e0feb4b-9af5-4c5c-a215-eabded87c4f9"},"vehicle_type_id":"4","last_reported":1745143732,"current_range_meters":16000,"station_id":"ce4bhu92rcd13ifvqi70","pricing_plan_id":"cebpf4jnsgd1na2vs0mg"},{"bike_id":"e653e066-2807-4514-8a61-d3a7d53ac289","system_id":"levelo_inurba_marseille","lat":43.225028,"lon":5.347872,"is_reserved":false,"is_disabled":false,"rental_uris":{"android":"levelo://app?vid=e653e066-2807-4514-8a61-d3a7d53ac289","ios":"levelo://app?vid=e653e066-2807-4514-8a61-d3a7d53ac289"},"vehicle_type_id":"4","last_reported":1745143732,"current_range_meters":16000,"station_id":"","pricing_plan_id":"cebpf4jnsgd1na2vs0mg"},{"bike_id":"f7027e6a-48d2-4cae-b50c-97b01f670552","system_id":"levelo_inurba_marseille","lat":43.23954,"lon":5.36616,"is_reserved":false,"is_disabled":false,"rental_uris":{"android":"levelo://app?vid=f7027e6a-48d2-4cae-b50c-97b01f670552","ios":"levelo://app?vid=f7027e6a-48d2-4cae-b50c-97b01f670552"},"vehicle_type_id":"4","last_reported":1745143732,"current_range_meters":16000,"station_id":"ce4bhi12rcd13ifvqfp0","pricing_plan_id":"cebpf4jnsgd1na2vs0mg"},{"bike_id":"4e7af937-e567-4451-a3f9-818ffd6a7d0e","system_id":"levelo_inurba_marseille","lat":43.3079,"lon":5.37673,"is_reserved":false,"is_disabled":false,"rental_uris":{"android":"levelo://app?vid=4e7af937-e567-4451-a3f9-818ffd6a7d0e","ios":"levelo://app?vid=4e7af937-e567-4451-a3f9-818ffd6a7d0e"},"vehicle_type_id":"4","last_reported":1745143732,"current_range_meters":16000,"station_id":"ce4bgv92rcd13ifvqcq0","pricing_plan_id":"cebpf4jnsgd1na2vs0mg"},{"bike_id":"cbb8c20f-0422-4610-a50f-a600497f00b5","system_id":"levelo_inurba_marseille","lat":43.29806,"lon":5.37745,"is_reserved":false,"is_disabled":false,"rental_uris":{"android":"levelo://app?vid=cbb8c20f-0422-4610-a50f-a600497f00b5","ios":"levelo://app?vid=cbb8c20f-0422-4610-a50f-a600497f00b5"},"vehicle_type_id":"4","last_reported":1745143732,"current_range_meters":16000,"station_id":"","pricing_plan_id":"cebpf4jnsgd1na2vs0mg"},{"bike_id":"afd91aff-91d5-404c-ae85-73c879c5c131","system_id":"levelo_inurba_marseille","lat":43.25502,"lon":5.3765,"is_reserved":false,"is_disabled":false,"rental_uris":{"android":"levelo://app?vid=afd91aff-91d5-404c-ae85-73c879c5c131","ios":"levelo://app?vid=afd91aff-91d5-404c-ae85-73c879c5c131"},"vehicle_type_id":"4","last_reported":1745143732,"current_range_meters":16400,"station_id":"ce4bhh12rcd13ifvqff0","pricing_plan_id":"cebpf4jnsgd1na2vs0mg"},{"bike_id":"cb04d036-524e-497d-b1e8-d53251979b05","system_id":"levelo_inurba_marseille","lat":43.29879,"lon":5.39749,"is_reserved":false,"is_disabled":true,"rental_uris":{"android":"levelo://app?vid=cb04d036-524e-497d-b1e8-d53251979b05","ios":"levelo://app?vid=cb04d036-524e-497d-b1e8-d53251979b05"},"vehicle_type_id":"4","last_reported":1745143732,"current_range_meters":16400,"station_id":"ce4bh0h2rcd13ifvqd50","pricing_plan_id":"cebpf4jnsgd1na2vs0mg"},{"bike_id":"6db2ec77-9208-4d7c-85f1-a44f570ede6a","system_id":"levelo_inurba_marseille","lat":43.2418,"lon":5.39724,"is_reserved":false,"is_disabled":false,"rental_uris":{"android":"levelo://app?vid=6db2ec77-9208-4d7c-85f1-a44f570ede6a","ios":"levelo://app?vid=6db2ec77-9208-4d7c-85f1-a44f570ede6a"},"vehicle_type_id":"4","last_reported":1745143732,"current_range_meters":16400,"station_id":"ce4bhn12rcd13ifvqgpg","pricing_plan_id":"cebpf4jnsgd1na2vs0mg"},{"bike_id":"d66f2fbf-84c1-4006-a003-d92ef3aa9479","system_id":"levelo_inurba_marseille","lat":43.23192,"lon":5.35547,"is_reserved":false,"is_disabled":false,"rental_uris":{"android":"levelo://app?vid=d66f2fbf-84c1-4006-a003-d92ef3aa9479","ios":"levelo://app?vid=d66f2fbf-84c1-4006-a003-d92ef3aa9479"},"vehicle_type_id":"4","last_reported":1745143732,"current_range_meters":16400,"station_id":"ce4bhu92rcd13ifvqi70","pricing_plan_id":"cebpf4jnsgd1na2vs0mg"},{"bike_id":"8605282b-b417-44ef-b921-2c93f06b4d14","system_id":"levelo_inurba_marseille","lat":43.25114,"lon":5.40302,"is_reserved":false,"is_disabled":false,"rental_uris":{"android":"levelo://app?vid=8605282b-b417-44ef-b921-2c93f06b4d14","ios":"levelo://app?vid=8605282b-b417-44ef-b921-2c93f06b4d14"},"vehicle_type_id":"4","last_reported":1745143732,"current_range_meters":16400,"station_id":"ce4bhlh2rcd13ifvqgig","pricing_plan_id":"cebpf4jnsgd1na2vs0mg"},{"bike_id":"c6b222ba-b602-4d7a-b7a9-919be61ee069","system_id":"levelo_inurba_marseille","lat":43.255821,"lon":5.376704,"is_reserved":false,"is_disabled":false,"rental_uris":{"android":"levelo://app?vid=c6b222ba-b602-4d7a-b7a9-919be61ee069","ios":"levelo://app?vid=c6b222ba-b602-4d7a-b7a9-919be61ee069"},"vehicle_type_id":"4","last_reported":1745143732,"current_range_meters":16400,"station_id":"","pricing_plan_id":"cebpf4jnsgd1na2vs0mg"},{"bike_id":"1b2623e0-90bf-4d27-a569-ebc27b9384c2","system_id":"levelo_inurba_marseille","lat":43.2417,"lon":5.36386,"is_reserved":false,"is_disabled":false,"rental_uris":{"android":"levelo://app?vid=1b2623e0-90bf-4d27-a569-ebc27b9384c2","ios":"levelo://app?vid=1b2623e0-90bf-4d27-a569-ebc27b9384c2"},"vehicle_type_id":"4","last_reported":1745143732,"current_range_meters":16800,"station_id":"cpo36qri1sfpv3e86is0","pricing_plan_id":"cebpf4jnsgd1na2vs0mg"},{"bike_id":"389a1060-659c-44b9-8c55-a54e904e1545","system_id":"levelo_inurba_marseille","lat":43.23136,"lon":5.43708,"is_reserved":false,"is_disabled":false,"rental_uris":{"android":"levelo://app?vid=389a1060-659c-44b9-8c55-a54e904e1545","ios":"levelo://app?vid=389a1060-659c-44b9-8c55-a54e904e1545"},"vehicle_type_id":"4","last_reported":1745143732,"current_range_meters":16800,"station_id":"ce4bhmp2rcd13ifvqgog","pricing_plan_id":"cebpf4jnsgd1na2vs0mg"},{"bike_id":"7d29063e-cc47-43de-9fe3-33b900004d65","system_id":"levelo_inurba_marseille","lat":43.21186,"lon":5.3508,"is_reserved":false,"is_disabled":false,"rental_uris":{"android":"levelo://app?vid=7d29063e-cc47-43de-9fe3-33b900004d65","ios":"levelo://app?vid=7d29063e-cc47-43de-9fe3-33b900004d65"},"vehicle_type_id":"4","last_reported":1745143732,"current_range_meters":16800,"station_id":"st_cvj6sg6p6f1abm77japg","pricing_plan_id":"cebpf4jnsgd1na2vs0mg"},{"bike_id":"9cd66f20-0974-44a3-a00c-3af08e74ebf2","system_id":"levelo_inurba_marseille","lat":43.26006,"lon":5.41694,"is_reserved":false,"is_disabled":false,"rental_uris":{"android":"levelo://app?vid=9cd66f20-0974-44a3-a00c-3af08e74ebf2","ios":"levelo://app?vid=9cd66f20-0974-44a3-a00c-3af08e74ebf2"},"vehicle_type_id":"4","last_reported":1745143732,"current_range_meters":16800,"station_id":"","pricing_plan_id":"cebpf4jnsgd1na2vs0mg"},{"bike_id":"721f595d-f057-44ac-ac8d-4aec1bc01567","system_id":"levelo_inurba_marseille","lat":43.25116,"lon":5.40322,"is_reserved":false,"is_disabled":false,"rental_uris":{"android":"levelo://app?vid=721f595d-f057-44ac-ac8d-4aec1bc01567","ios":"levelo://app?vid=721f595d-f057-44ac-ac8d-4aec1bc01567"},"vehicle_type_id":"4","last_reported":1745143732,"current_range_meters":17200,"station_id":"ce4bhlh2rcd13ifvqgig","pricing_plan_id":"cebpf4jnsgd1na2vs0mg"},{"bike_id":"442194fd-e2af-4b9a-91fc-0eb9b143abd5","system_id":"levelo_inurba_marseille","lat":43.3053,"lon":5.36721,"is_reserved":false,"is_disabled":false,"rental_uris":{"android":"levelo://app?vid=442194fd-e2af-4b9a-91fc-0eb9b143abd5","ios":"levelo://app?vid=442194fd-e2af-4b9a-91fc-0eb9b143abd5"},"vehicle_type_id":"4","last_reported":1745143732,"current_range_meters":17200,"station_id":"ce4bgrp2rcd13ifvqc9g","pricing_plan_id":"cebpf4jnsgd1na2vs0mg"},{"bike_id":"1a5f2cec-6354-428d-a667-d2081b30c7f2","system_id":"levelo_inurba_marseille","lat":43.27681,"lon":5.39796,"is_reserved":false,"is_disabled":false,"rental_uris":{"android":"levelo://app?vid=1a5f2cec-6354-428d-a667-d2081b30c7f2","ios":"levelo://app?vid=1a5f2cec-6354-428d-a667-d2081b30c7f2"},"vehicle_type_id":"4","last_reported":1745143732,"current_range_meters":17200,"station_id":"","pricing_plan_id":"cebpf4jnsgd1na2vs0mg"},{"bike_id":"a02763bf-00da-47e4-898a-55c5f1109ff8","system_id":"levelo_inurba_marseille","lat":43.23154,"lon":5.43702,"is_reserved":false,"is_disabled":false,"rental_uris":{"android":"levelo://app?vid=a02763bf-00da-47e4-898a-55c5f1109ff8","ios":"levelo://app?vid=a02763bf-00da-47e4-898a-55c5f1109ff8"},"vehicle_type_id":"4","last_reported":1745143732,"current_range_meters":17200,"station_id":"ce4bhmp2rcd13ifvqgog","pricing_plan_id":"cebpf4jnsgd1na2vs0mg"},{"bike_id":"53314648-72ab-4f10-a49f-2cd53dc2be03","system_id":"levelo_inurba_marseille","lat":43.32535,"lon":5.41427,"is_reserved":false,"is_disabled":false,"rental_uris":{"android":"levelo://app?vid=53314648-72ab-4f10-a49f-2cd53dc2be03","ios":"levelo://app?vid=53314648-72ab-4f10-a49f-2cd53dc2be03"},"vehicle_type_id":"4","last_reported":1745143732,"current_range_meters":17600,"station_id":"ce4bhq12rcd13ifvqhhg","pricing_plan_id":"cebpf4jnsgd1na2vs0mg"},{"bike_id":"cbcf2b63-1e60-4b5d-b61b-8baaf7f6ab2f","system_id":"levelo_inurba_marseille","lat":43.26204,"lon":5.37458,"is_reserved":false,"is_disabled":false,"rental_uris":{"android":"levelo://app?vid=cbcf2b63-1e60-4b5d-b61b-8baaf7f6ab2f","ios":"levelo://app?vid=cbcf2b63-1e60-4b5d-b61b-8baaf7f6ab2f"},"vehicle_type_id":"4","last_reported":1745143732,"current_range_meters":17600,"station_id":"ce4bhgp2rcd13ifvqfc0","pricing_plan_id":"cebpf4jnsgd1na2vs0mg"},{"bike_id":"ec88ee05-6365-4e51-a589-531543b91f3b","system_id":"levelo_inurba_marseille","lat":43.29029,"lon":5.35599,"is_reserved":false,"is_disabled":false,"rental_uris":{"android":"levelo://app?vid=ec88ee05-6365-4e51-a589-531543b91f3b","ios":"levelo://app?vid=ec88ee05-6365-4e51-a589-531543b91f3b"},"vehicle_type_id":"4","last_reported":1745143732,"current_range_meters":17600,"station_id":"ce4bhb92rcd13ifvqen0","pricing_plan_id":"cebpf4jnsgd1na2vs0mg"},{"bike_id":"97701dc9-fc24-4b55-8677-e88d959a1ae1","system_id":"levelo_inurba_marseille","lat":43.25077,"lon":5.39527,"is_reserved":false,"is_disabled":false,"rental_uris":{"android":"levelo://app?vid=97701dc9-fc24-4b55-8677-e88d959a1ae1","ios":"levelo://app?vid=97701dc9-fc24-4b55-8677-e88d959a1ae1"},"vehicle_type_id":"4","last_reported":1745143732,"current_range_meters":17600,"station_id":"ce4bhm12rcd13ifvqgkg","pricing_plan_id":"cebpf4jnsgd1na2vs0mg"},{"bike_id":"75c2b308-a6e9-4373-80b8-794dc0a1aba4","system_id":"levelo_inurba_marseille","lat":43.21188,"lon":5.3507,"is_reserved":false,"is_disabled":false,"rental_uris":{"android":"levelo://app?vid=75c2b308-a6e9-4373-80b8-794dc0a1aba4","ios":"levelo://app?vid=75c2b308-a6e9-4373-80b8-794dc0a1aba4"},"vehicle_type_id":"4","last_reported":1745143732,"current_range_meters":17600,"station_id":"st_cvj6sg6p6f1abm77japg","pricing_plan_id":"cebpf4jnsgd1na2vs0mg"},{"bike_id":"bbfd1c7d-9e4c-4288-9919-ff9fa7a14056","system_id":"levelo_inurba_marseille","lat":43.21754,"lon":5.3459,"is_reserved":false,"is_disabled":true,"rental_uris":{"android":"levelo://app?vid=bbfd1c7d-9e4c-4288-9919-ff9fa7a14056","ios":"levelo://app?vid=bbfd1c7d-9e4c-4288-9919-ff9fa7a14056"},"vehicle_type_id":"4","last_reported":1745143732,"current_range_meters":17600,"station_id":"","pricing_plan_id":"cebpf4jnsgd1na2vs0mg"},{"bike_id":"5d4054f0-3166-430a-99b2-4ffa02da4fae","system_id":"levelo_inurba_marseille","lat":43.21749,"lon":5.34592,"is_reserved":false,"is_disabled":false,"rental_uris":{"android":"levelo://app?vid=5d4054f0-3166-430a-99b2-4ffa02da4fae","ios":"levelo://app?vid=5d4054f0-3166-430a-99b2-4ffa02da4fae"},"vehicle_type_id":"4","last_reported":1745143732,"current_range_meters":18000,"station_id":"st_cvj6r9ubvosntc0bgbag","pricing_plan_id":"cebpf4jnsgd1na2vs0mg"},{"bike_id":"2a2d4e04-1a56-4531-a89a-fb0481590528","system_id":"levelo_inurba_marseille","lat":43.32289,"lon":5.38282,"is_reserved":false,"is_disabled":false,"rental_uris":{"android":"levelo://app?vid=2a2d4e04-1a56-4531-a89a-fb0481590528","ios":"levelo://app?vid=2a2d4e04-1a56-4531-a89a-fb0481590528"},"vehicle_type_id":"4","last_reported":1745143732,"current_range_meters":18000,"station_id":"ce4bhr12rcd13ifvqhqg","pricing_plan_id":"cebpf4jnsgd1na2vs0mg"},{"bike_id":"1c6cbb07-7dd3-4e2e-b5db-d11b5b0fb27d","system_id":"levelo_inurba_marseille","lat":43.30579,"lon":5.37219,"is_reserved":false,"is_disabled":false,"rental_uris":{"android":"levelo://app?vid=1c6cbb07-7dd3-4e2e-b5db-d11b5b0fb27d","ios":"levelo://app?vid=1c6cbb07-7dd3-4e2e-b5db-d11b5b0fb27d"},"vehicle_type_id":"4","last_reported":1745143732,"current_range_meters":18000,"station_id":"ce4bgqh2rcd13ifvqc4g","pricing_plan_id":"cebpf4jnsgd1na2vs0mg"},{"bike_id":"a5b9bc36-7f64-4e47-8397-5a77c540ed02","system_id":"levelo_inurba_marseille","lat":43.23177,"lon":5.39984,"is_reserved":false,"is_disabled":false,"rental_uris":{"android":"levelo://app?vid=a5b9bc36-7f64-4e47-8397-5a77c540ed02","ios":"levelo://app?vid=a5b9bc36-7f64-4e47-8397-5a77c540ed02"},"vehicle_type_id":"4","last_reported":1745143732,"current_range_meters":18000,"station_id":"ce4bhn12rcd13ifvqgqg","pricing_plan_id":"cebpf4jnsgd1na2vs0mg"},{"bike_id":"ec3d1de4-b0aa-4a87-996b-5d5e6eeef5ec","system_id":"levelo_inurba_marseille","lat":43.21192,"lon":5.35078,"is_reserved":false,"is_disabled":false,"rental_uris":{"android":"levelo://app?vid=ec3d1de4-b0aa-4a87-996b-5d5e6eeef5ec","ios":"levelo://app?vid=ec3d1de4-b0aa-4a87-996b-5d5e6eeef5ec"},"vehicle_type_id":"4","last_reported":1745143732,"current_range_meters":18000,"station_id":"st_cvj6sg6p6f1abm77japg","pricing_plan_id":"cebpf4jnsgd1na2vs0mg"},{"bike_id":"b63b7a5e-a38c-41b2-b8ca-03dcb2ce1a70","system_id":"levelo_inurba_marseille","lat":43.250833,"lon":5.395196,"is_reserved":false,"is_disabled":true,"rental_uris":{"android":"levelo://app?vid=b63b7a5e-a38c-41b2-b8ca-03dcb2ce1a70","ios":"levelo://app?vid=b63b7a5e-a38c-41b2-b8ca-03dcb2ce1a70"},"vehicle_type_id":"4","last_reported":1745143732,"current_range_meters":18000,"station_id":"ce4bhm12rcd13ifvqgkg","pricing_plan_id":"cebpf4jnsgd1na2vs0mg"},{"bike_id":"f0ac6640-9cc3-4814-b276-abece7e0f2fc","system_id":"levelo_inurba_marseille","lat":43.21188,"lon":5.35072,"is_reserved":false,"is_disabled":false,"rental_uris":{"android":"levelo://app?vid=f0ac6640-9cc3-4814-b276-abece7e0f2fc","ios":"levelo://app?vid=f0ac6640-9cc3-4814-b276-abece7e0f2fc"},"vehicle_type_id":"4","last_reported":1745143732,"current_range_meters":18800,"station_id":"st_cvj6sg6p6f1abm77japg","pricing_plan_id":"cebpf4jnsgd1na2vs0mg"},{"bike_id":"f9179a33-6528-43ac-b9e7-37bf13c563dd","system_id":"levelo_inurba_marseille","lat":43.25091,"lon":5.4034,"is_reserved":false,"is_disabled":false,"rental_uris":{"android":"levelo://app?vid=f9179a33-6528-43ac-b9e7-37bf13c563dd","ios":"levelo://app?vid=f9179a33-6528-43ac-b9e7-37bf13c563dd"},"vehicle_type_id":"4","last_reported":1745143732,"current_range_meters":18800,"station_id":"ce4bhlh2rcd13ifvqgig","pricing_plan_id":"cebpf4jnsgd1na2vs0mg"},{"bike_id":"34b0949f-48ad-413f-8bca-a64962256ba5","system_id":"levelo_inurba_marseille","lat":43.24535,"lon":5.3954,"is_reserved":false,"is_disabled":false,"rental_uris":{"android":"levelo://app?vid=34b0949f-48ad-413f-8bca-a64962256ba5","ios":"levelo://app?vid=34b0949f-48ad-413f-8bca-a64962256ba5"},"vehicle_type_id":"4","last_reported":1745143732,"current_range_meters":18800,"station_id":"ce4bhlp2rcd13ifvqgjg","pricing_plan_id":"cebpf4jnsgd1na2vs0mg"},{"bike_id":"c4fc050b-7c58-4380-8033-ffe242748317","system_id":"levelo_inurba_marseille","lat":43.29566,"lon":5.39973,"is_reserved":false,"is_disabled":true,"rental_uris":{"android":"levelo://app?vid=c4fc050b-7c58-4380-8033-ffe242748317","ios":"levelo://app?vid=c4fc050b-7c58-4380-8033-ffe242748317"},"vehicle_type_id":"4","last_reported":1745143732,"current_range_meters":19200,"station_id":"ce4bh312rcd13ifvqdj0","pricing_plan_id":"cebpf4jnsgd1na2vs0mg"},{"bike_id":"b8b65b83-38a3-4e5f-83f7-bcdcfcb454b1","system_id":"levelo_inurba_marseille","lat":43.21189,"lon":5.35078,"is_reserved":false,"is_disabled":false,"rental_uris":{"android":"levelo://app?vid=b8b65b83-38a3-4e5f-83f7-bcdcfcb454b1","ios":"levelo://app?vid=b8b65b83-38a3-4e5f-83f7-bcdcfcb454b1"},"vehicle_type_id":"4","last_reported":1745143732,"current_range_meters":19200,"station_id":"st_cvj6sg6p6f1abm77japg","pricing_plan_id":"cebpf4jnsgd1na2vs0mg"},{"bike_id":"9a08cd47-401e-4721-ac51-2c7c5eb208eb","system_id":"levelo_inurba_marseille","lat":43.24158,"lon":5.36403,"is_reserved":false,"is_disabled":false,"rental_uris":{"android":"levelo://app?vid=9a08cd47-401e-4721-ac51-2c7c5eb208eb","ios":"levelo://app?vid=9a08cd47-401e-4721-ac51-2c7c5eb208eb"},"vehicle_type_id":"4","last_reported":1745143732,"current_range_meters":19200,"station_id":"cpo36qri1sfpv3e86is0","pricing_plan_id":"cebpf4jnsgd1na2vs0mg"},{"bike_id":"57415266-8f45-44d8-b430-a087b64cd10b","system_id":"levelo_inurba_marseille","lat":43.21197,"lon":5.3507,"is_reserved":false,"is_disabled":false,"rental_uris":{"android":"levelo://app?vid=57415266-8f45-44d8-b430-a087b64cd10b","ios":"levelo://app?vid=57415266-8f45-44d8-b430-a087b64cd10b"},"vehicle_type_id":"4","last_reported":1745143732,"current_range_meters":19200,"station_id":"st_cvj6sg6p6f1abm77japg","pricing_plan_id":"cebpf4jnsgd1na2vs0mg"},{"bike_id":"5421f91f-c5b9-4312-b8b1-ba44221bb5c0","system_id":"levelo_inurba_marseille","lat":43.26202,"lon":5.37923,"is_reserved":false,"is_disabled":true,"rental_uris":{"android":"levelo://app?vid=5421f91f-c5b9-4312-b8b1-ba44221bb5c0","ios":"levelo://app?vid=5421f91f-c5b9-4312-b8b1-ba44221bb5c0"},"vehicle_type_id":"4","last_reported":1745143732,"current_range_meters":19200,"station_id":"ce4bhjp2rcd13ifvqg90","pricing_plan_id":"cebpf4jnsgd1na2vs0mg"},{"bike_id":"16228f24-8f5e-4524-bc4a-37dc1aab86ca","system_id":"levelo_inurba_marseille","lat":43.21194,"lon":5.35071,"is_reserved":false,"is_disabled":false,"rental_uris":{"android":"levelo://app?vid=16228f24-8f5e-4524-bc4a-37dc1aab86ca","ios":"levelo://app?vid=16228f24-8f5e-4524-bc4a-37dc1aab86ca"},"vehicle_type_id":"4","last_reported":1745143732,"current_range_meters":19200,"station_id":"st_cvj6sg6p6f1abm77japg","pricing_plan_id":"cebpf4jnsgd1na2vs0mg"},{"bike_id":"fc97c373-0851-4000-8820-62d43d680c0e","system_id":"levelo_inurba_marseille","lat":43.217505,"lon":5.346032,"is_reserved":false,"is_disabled":false,"rental_uris":{"android":"levelo://app?vid=fc97c373-0851-4000-8820-62d43d680c0e","ios":"levelo://app?vid=fc97c373-0851-4000-8820-62d43d680c0e"},"vehicle_type_id":"4","last_reported":1745143732,"current_range_meters":19200,"station_id":"st_cvj6r9ubvosntc0bgbag","pricing_plan_id":"cebpf4jnsgd1na2vs0mg"},{"bike_id":"77df55a7-ceca-447a-adbe-78316cd68985","system_id":"levelo_inurba_marseille","lat":43.25722,"lon":5.41106,"is_reserved":false,"is_disabled":false,"rental_uris":{"android":"levelo://app?vid=77df55a7-ceca-447a-adbe-78316cd68985","ios":"levelo://app?vid=77df55a7-ceca-447a-adbe-78316cd68985"},"vehicle_type_id":"4","last_reported":1745143732,"current_range_meters":19200,"station_id":"ce4bhkp2rcd13ifvqgd0","pricing_plan_id":"cebpf4jnsgd1na2vs0mg"},{"bike_id":"a7f91fb8-2846-493f-a68f-69867197cfa1","system_id":"levelo_inurba_marseille","lat":43.33648,"lon":5.39757,"is_reserved":false,"is_disabled":false,"rental_uris":{"android":"levelo://app?vid=a7f91fb8-2846-493f-a68f-69867197cfa1","ios":"levelo://app?vid=a7f91fb8-2846-493f-a68f-69867197cfa1"},"vehicle_type_id":"4","last_reported":1745143732,"current_range_meters":19600,"station_id":"","pricing_plan_id":"cebpf4jnsgd1na2vs0mg"},{"bike_id":"7f85cb0c-933e-490b-a0c3-bfacab605268","system_id":"levelo_inurba_marseille","lat":43.28858,"lon":5.35973,"is_reserved":false,"is_disabled":true,"rental_uris":{"android":"levelo://app?vid=7f85cb0c-933e-490b-a0c3-bfacab605268","ios":"levelo://app?vid=7f85cb0c-933e-490b-a0c3-bfacab605268"},"vehicle_type_id":"4","last_reported":1745143732,"current_range_meters":19600,"station_id":"","pricing_plan_id":"cebpf4jnsgd1na2vs0mg"},{"bike_id":"f5082407-ad9f-416d-b3f3-a40cd04bfde3","system_id":"levelo_inurba_marseille","lat":43.22997,"lon":5.35464,"is_reserved":false,"is_disabled":false,"rental_uris":{"android":"levelo://app?vid=f5082407-ad9f-416d-b3f3-a40cd04bfde3","ios":"levelo://app?vid=f5082407-ad9f-416d-b3f3-a40cd04bfde3"},"vehicle_type_id":"4","last_reported":1745143732,"current_range_meters":19600,"station_id":"","pricing_plan_id":"cebpf4jnsgd1na2vs0mg"},{"bike_id":"b27a9d1c-abb4-43c8-8463-09cd46049d42","system_id":"levelo_inurba_marseille","lat":43.26197,"lon":5.37446,"is_reserved":false,"is_disabled":true,"rental_uris":{"android":"levelo://app?vid=b27a9d1c-abb4-43c8-8463-09cd46049d42","ios":"levelo://app?vid=b27a9d1c-abb4-43c8-8463-09cd46049d42"},"vehicle_type_id":"4","last_reported":1745143732,"current_range_meters":19600,"station_id":"ce4bhgp2rcd13ifvqfc0","pricing_plan_id":"cebpf4jnsgd1na2vs0mg"},{"bike_id":"ef8e4bdf-75dd-43b5-921d-bc19ae8f4dbc","system_id":"levelo_inurba_marseille","lat":43.25574,"lon":5.37666,"is_reserved":false,"is_disabled":false,"rental_uris":{"android":"levelo://app?vid=ef8e4bdf-75dd-43b5-921d-bc19ae8f4dbc","ios":"levelo://app?vid=ef8e4bdf-75dd-43b5-921d-bc19ae8f4dbc"},"vehicle_type_id":"4","last_reported":1745143732,"current_range_meters":19600,"station_id":"ce4bhh12rcd13ifvqff0","pricing_plan_id":"cebpf4jnsgd1na2vs0mg"},{"bike_id":"b8cd5422-1e24-48d1-bc5d-5f973732c00b","system_id":"levelo_inurba_marseille","lat":43.23199,"lon":5.35543,"is_reserved":false,"is_disabled":false,"rental_uris":{"android":"levelo://app?vid=b8cd5422-1e24-48d1-bc5d-5f973732c00b","ios":"levelo://app?vid=b8cd5422-1e24-48d1-bc5d-5f973732c00b"},"vehicle_type_id":"4","last_reported":1745143732,"current_range_meters":19600,"station_id":"ce4bhu92rcd13ifvqi70","pricing_plan_id":"cebpf4jnsgd1na2vs0mg"},{"bike_id":"5f9e7da7-ff2e-4b19-93f4-36fa842a98f7","system_id":"levelo_inurba_marseille","lat":43.21749,"lon":5.34599,"is_reserved":false,"is_disabled":false,"rental_uris":{"android":"levelo://app?vid=5f9e7da7-ff2e-4b19-93f4-36fa842a98f7","ios":"levelo://app?vid=5f9e7da7-ff2e-4b19-93f4-36fa842a98f7"},"vehicle_type_id":"4","last_reported":1745143732,"current_range_meters":20000,"station_id":"st_cvj6r9ubvosntc0bgbag","pricing_plan_id":"cebpf4jnsgd1na2vs0mg"},{"bike_id":"2b9dc3a3-9ca1-4379-9bb7-4b8dbd4e17cf","system_id":"levelo_inurba_marseille","lat":43.23964,"lon":5.36629,"is_reserved":false,"is_disabled":true,"rental_uris":{"android":"levelo://app?vid=2b9dc3a3-9ca1-4379-9bb7-4b8dbd4e17cf","ios":"levelo://app?vid=2b9dc3a3-9ca1-4379-9bb7-4b8dbd4e17cf"},"vehicle_type_id":"4","last_reported":1745143732,"current_range_meters":20000,"station_id":"ce4bhi12rcd13ifvqfp0","pricing_plan_id":"cebpf4jnsgd1na2vs0mg"},{"bike_id":"af5ba08c-0730-4dda-a43c-3e08ff505b3c","system_id":"levelo_inurba_marseille","lat":43.23193,"lon":5.3555,"is_reserved":false,"is_disabled":false,"rental_uris":{"android":"levelo://app?vid=af5ba08c-0730-4dda-a43c-3e08ff505b3c","ios":"levelo://app?vid=af5ba08c-0730-4dda-a43c-3e08ff505b3c"},"vehicle_type_id":"4","last_reported":1745143732,"current_range_meters":20000,"station_id":"ce4bhu92rcd13ifvqi70","pricing_plan_id":"cebpf4jnsgd1na2vs0mg"},{"bike_id":"ca065223-d706-4ef6-8503-43f360600b59","system_id":"levelo_inurba_marseille","lat":43.21751,"lon":5.34599,"is_reserved":false,"is_disabled":false,"rental_uris":{"android":"levelo://app?vid=ca065223-d706-4ef6-8503-43f360600b59","ios":"levelo://app?vid=ca065223-d706-4ef6-8503-43f360600b59"},"vehicle_type_id":"4","last_reported":1745143732,"current_range_meters":20000,"station_id":"st_cvj6r9ubvosntc0bgbag","pricing_plan_id":"cebpf4jnsgd1na2vs0mg"},{"bike_id":"68501225-8cea-4f95-ae47-484785f78e68","system_id":"levelo_inurba_marseille","lat":43.3238,"lon":5.38882,"is_reserved":false,"is_disabled":true,"rental_uris":{"android":"levelo://app?vid=68501225-8cea-4f95-ae47-484785f78e68","ios":"levelo://app?vid=68501225-8cea-4f95-ae47-484785f78e68"},"vehicle_type_id":"4","last_reported":1745143732,"current_range_meters":20000,"station_id":"ce4bhqp2rcd13ifvqhog","pricing_plan_id":"cebpf4jnsgd1na2vs0mg"},{"bike_id":"dfb4699d-06f4-437d-911f-ac6f1d5bd40c","system_id":"levelo_inurba_marseille","lat":43.216534,"lon":5.345529,"is_reserved":false,"is_disabled":false,"rental_uris":{"android":"levelo://app?vid=dfb4699d-06f4-437d-911f-ac6f1d5bd40c","ios":"levelo://app?vid=dfb4699d-06f4-437d-911f-ac6f1d5bd40c"},"vehicle_type_id":"4","last_reported":1745143732,"current_range_meters":20000,"station_id":"st_cvj6r9ubvosntc0bgbag","pricing_plan_id":"cebpf4jnsgd1na2vs0mg"},{"bike_id":"8768e679-a05a-40dc-ada1-9f9c8c80958d","system_id":"levelo_inurba_marseille","lat":43.25491,"lon":5.37646,"is_reserved":false,"is_disabled":false,"rental_uris":{"android":"levelo://app?vid=8768e679-a05a-40dc-ada1-9f9c8c80958d","ios":"levelo://app?vid=8768e679-a05a-40dc-ada1-9f9c8c80958d"},"vehicle_type_id":"4","last_reported":1745143732,"current_range_meters":20000,"station_id":"ce4bhh12rcd13ifvqff0","pricing_plan_id":"cebpf4jnsgd1na2vs0mg"},{"bike_id":"5171e384-1812-45e8-a9d5-01c112dd8b34","system_id":"levelo_inurba_marseille","lat":43.25077,"lon":5.40334,"is_reserved":false,"is_disabled":false,"rental_uris":{"android":"levelo://app?vid=5171e384-1812-45e8-a9d5-01c112dd8b34","ios":"levelo://app?vid=5171e384-1812-45e8-a9d5-01c112dd8b34"},"vehicle_type_id":"4","last_reported":1745143732,"current_range_meters":20000,"station_id":"ce4bhlh2rcd13ifvqgig","pricing_plan_id":"cebpf4jnsgd1na2vs0mg"},{"bike_id":"e3eb10e6-7dae-4eb7-9549-ecfbd43cc17c","system_id":"levelo_inurba_marseille","lat":43.2121,"lon":5.35049,"is_reserved":false,"is_disabled":false,"rental_uris":{"android":"levelo://app?vid=e3eb10e6-7dae-4eb7-9549-ecfbd43cc17c","ios":"levelo://app?vid=e3eb10e6-7dae-4eb7-9549-ecfbd43cc17c"},"vehicle_type_id":"4","last_reported":1745143732,"current_range_meters":20000,"station_id":"st_cvj6sg6p6f1abm77japg","pricing_plan_id":"cebpf4jnsgd1na2vs0mg"},{"bike_id":"0df66e0a-9fc8-4b65-8ac4-cdbc9cef329a","system_id":"levelo_inurba_marseille","lat":43.310639,"lon":5.383546,"is_reserved":false,"is_disabled":true,"rental_uris":{"android":"levelo://app?vid=0df66e0a-9fc8-4b65-8ac4-cdbc9cef329a","ios":"levelo://app?vid=0df66e0a-9fc8-4b65-8ac4-cdbc9cef329a"},"vehicle_type_id":"4","last_reported":1745143732,"current_range_meters":20000,"station_id":"ce4bgv92rcd13ifvqcr0","pricing_plan_id":"cebpf4jnsgd1na2vs0mg"},{"bike_id":"88acb390-549d-42cf-831e-6a7f2eca2016","system_id":"levelo_inurba_marseille","lat":43.2119,"lon":5.35079,"is_reserved":false,"is_disabled":false,"rental_uris":{"android":"levelo://app?vid=88acb390-549d-42cf-831e-6a7f2eca2016","ios":"levelo://app?vid=88acb390-549d-42cf-831e-6a7f2eca2016"},"vehicle_type_id":"4","last_reported":1745143732,"current_range_meters":20000,"station_id":"st_cvj6sg6p6f1abm77japg","pricing_plan_id":"cebpf4jnsgd1na2vs0mg"},{"bike_id":"3ff73312-7b75-4623-bee9-a947e9b2951e","system_id":"levelo_inurba_marseille","lat":43.241759,"lon":5.397245,"is_reserved":false,"is_disabled":false,"rental_uris":{"android":"levelo://app?vid=3ff73312-7b75-4623-bee9-a947e9b2951e","ios":"levelo://app?vid=3ff73312-7b75-4623-bee9-a947e9b2951e"},"vehicle_type_id":"4","last_reported":1745143732,"current_range_meters":20000,"station_id":"ce4bhnp2rcd13ifvqh0g","pricing_plan_id":"cebpf4jnsgd1na2vs0mg"},{"bike_id":"9042c3f3-2ba2-4b89-bdb8-1b917a41336e","system_id":"levelo_inurba_marseille","lat":43.29195,"lon":5.3578,"is_reserved":false,"is_disabled":false,"rental_uris":{"android":"levelo://app?vid=9042c3f3-2ba2-4b89-bdb8-1b917a41336e","ios":"levelo://app?vid=9042c3f3-2ba2-4b89-bdb8-1b917a41336e"},"vehicle_type_id":"4","last_reported":1745143732,"current_range_meters":20000,"station_id":"ce4bhb12rcd13ifvqel0","pricing_plan_id":"cebpf4jnsgd1na2vs0mg"},{"bike_id":"cf470fb3-0581-43bf-ac68-380c74cb0ba5","system_id":"levelo_inurba_marseille","lat":43.31741,"lon":5.40435,"is_reserved":false,"is_disabled":false,"rental_uris":{"android":"levelo://app?vid=cf470fb3-0581-43bf-ac68-380c74cb0ba5","ios":"levelo://app?vid=cf470fb3-0581-43bf-ac68-380c74cb0ba5"},"vehicle_type_id":"4","last_reported":1745143732,"current_range_meters":20000,"station_id":"ce4bh012rcd13ifvqd00","pricing_plan_id":"cebpf4jnsgd1na2vs0mg"},{"bike_id":"2b530fc3-1def-41e6-89fd-2bfba4ccb176","system_id":"levelo_inurba_marseille","lat":43.30317,"lon":5.39197,"is_reserved":false,"is_disabled":false,"rental_uris":{"android":"levelo://app?vid=2b530fc3-1def-41e6-89fd-2bfba4ccb176","ios":"levelo://app?vid=2b530fc3-1def-41e6-89fd-2bfba4ccb176"},"vehicle_type_id":"4","last_reported":1745143732,"current_range_meters":20400,"station_id":"ce4bgkh2rcd13ifvqbk0","pricing_plan_id":"cebpf4jnsgd1na2vs0mg"},{"bike_id":"485b15b5-3eae-4b10-8c4b-81d211bba3ad","system_id":"levelo_inurba_marseille","lat":43.28268,"lon":5.35077,"is_reserved":false,"is_disabled":false,"rental_uris":{"android":"levelo://app?vid=485b15b5-3eae-4b10-8c4b-81d211bba3ad","ios":"levelo://app?vid=485b15b5-3eae-4b10-8c4b-81d211bba3ad"},"vehicle_type_id":"4","last_reported":1745143732,"current_range_meters":20400,"station_id":"ce4bhbp2rcd13ifvqerg","pricing_plan_id":"cebpf4jnsgd1na2vs0mg"},{"bike_id":"61ca4e93-f366-4949-b9f0-5d6a53030388","system_id":"levelo_inurba_marseille","lat":43.26211,"lon":5.37438,"is_reserved":false,"is_disabled":false,"rental_uris":{"android":"levelo://app?vid=61ca4e93-f366-4949-b9f0-5d6a53030388","ios":"levelo://app?vid=61ca4e93-f366-4949-b9f0-5d6a53030388"},"vehicle_type_id":"4","last_reported":1745143732,"current_range_meters":20400,"station_id":"ce4bhgp2rcd13ifvqfc0","pricing_plan_id":"cebpf4jnsgd1na2vs0mg"},{"bike_id":"ecb54079-3b26-4fc4-a8e1-2f897fc914b9","system_id":"levelo_inurba_marseille","lat":43.27306,"lon":5.39088,"is_reserved":false,"is_disabled":false,"rental_uris":{"android":"levelo://app?vid=ecb54079-3b26-4fc4-a8e1-2f897fc914b9","ios":"levelo://app?vid=ecb54079-3b26-4fc4-a8e1-2f897fc914b9"},"vehicle_type_id":"4","last_reported":1745143732,"current_range_meters":20400,"station_id":"ce4bhgp2rcd13ifvqfe0","pricing_plan_id":"cebpf4jnsgd1na2vs0mg"},{"bike_id":"4f9239e1-8a7a-4356-be0d-8a523121bc15","system_id":"levelo_inurba_marseille","lat":43.26033,"lon":5.37545,"is_reserved":false,"is_disabled":true,"rental_uris":{"android":"levelo://app?vid=4f9239e1-8a7a-4356-be0d-8a523121bc15","ios":"levelo://app?vid=4f9239e1-8a7a-4356-be0d-8a523121bc15"},"vehicle_type_id":"4","last_reported":1745143732,"current_range_meters":20400,"station_id":"ce4bhgh2rcd13ifvqfa0","pricing_plan_id":"cebpf4jnsgd1na2vs0mg"},{"bike_id":"61f60fb3-ffdf-449a-93a9-e9ce777c6995","system_id":"levelo_inurba_marseille","lat":43.25502,"lon":5.37646,"is_reserved":false,"is_disabled":false,"rental_uris":{"android":"levelo://app?vid=61f60fb3-ffdf-449a-93a9-e9ce777c6995","ios":"levelo://app?vid=61f60fb3-ffdf-449a-93a9-e9ce777c6995"},"vehicle_type_id":"4","last_reported":1745143732,"current_range_meters":20400,"station_id":"ce4bhh12rcd13ifvqff0","pricing_plan_id":"cebpf4jnsgd1na2vs0mg"},{"bike_id":"e21cbee8-d2d5-41a1-b79a-3283135a30c9","system_id":"levelo_inurba_marseille","lat":43.24383,"lon":5.37054,"is_reserved":false,"is_disabled":false,"rental_uris":{"android":"levelo://app?vid=e21cbee8-d2d5-41a1-b79a-3283135a30c9","ios":"levelo://app?vid=e21cbee8-d2d5-41a1-b79a-3283135a30c9"},"vehicle_type_id":"4","last_reported":1745143732,"current_range_meters":20400,"station_id":"ce4bhhh2rcd13ifvqfk0","pricing_plan_id":"cebpf4jnsgd1na2vs0mg"},{"bike_id":"708a791d-3040-4b21-8706-33329d812143","system_id":"levelo_inurba_marseille","lat":43.30694,"lon":5.39252,"is_reserved":false,"is_disabled":true,"rental_uris":{"android":"levelo://app?vid=708a791d-3040-4b21-8706-33329d812143","ios":"levelo://app?vid=708a791d-3040-4b21-8706-33329d812143"},"vehicle_type_id":"4","last_reported":1745143732,"current_range_meters":20400,"station_id":"","pricing_plan_id":"cebpf4jnsgd1na2vs0mg"},{"bike_id":"b166e9c1-edf8-4f23-b83b-6d9f400c3ce6","system_id":"levelo_inurba_marseille","lat":43.301514,"lon":5.380787,"is_reserved":false,"is_disabled":false,"rental_uris":{"android":"levelo://app?vid=b166e9c1-edf8-4f23-b83b-6d9f400c3ce6","ios":"levelo://app?vid=b166e9c1-edf8-4f23-b83b-6d9f400c3ce6"},"vehicle_type_id":"4","last_reported":1745143732,"current_range_meters":20400,"station_id":"ce4bhn12rcd13ifvqgqg","pricing_plan_id":"cebpf4jnsgd1na2vs0mg"},{"bike_id":"c3a3e06c-3bd3-472f-9cae-a0c530d3afac","system_id":"levelo_inurba_marseille","lat":43.30748,"lon":5.42426,"is_reserved":false,"is_disabled":false,"rental_uris":{"android":"levelo://app?vid=c3a3e06c-3bd3-472f-9cae-a0c530d3afac","ios":"levelo://app?vid=c3a3e06c-3bd3-472f-9cae-a0c530d3afac"},"vehicle_type_id":"4","last_reported":1745143732,"current_range_meters":20400,"station_id":"st_cvj6ca6bvosntc0bfgr0","pricing_plan_id":"cebpf4jnsgd1na2vs0mg"},{"bike_id":"02c4ec81-c64e-49f5-93be-727e71bf474b","system_id":"levelo_inurba_marseille","lat":43.25504,"lon":5.37655,"is_reserved":false,"is_disabled":false,"rental_uris":{"android":"levelo://app?vid=02c4ec81-c64e-49f5-93be-727e71bf474b","ios":"levelo://app?vid=02c4ec81-c64e-49f5-93be-727e71bf474b"},"vehicle_type_id":"4","last_reported":1745143732,"current_range_meters":20800,"station_id":"ce4bhh12rcd13ifvqff0","pricing_plan_id":"cebpf4jnsgd1na2vs0mg"},{"bike_id":"9ebb9e31-b181-4120-a985-5579f166c1c4","system_id":"levelo_inurba_marseille","lat":43.27995,"lon":5.40009,"is_reserved":false,"is_disabled":true,"rental_uris":{"android":"levelo://app?vid=9ebb9e31-b181-4120-a985-5579f166c1c4","ios":"levelo://app?vid=9ebb9e31-b181-4120-a985-5579f166c1c4"},"vehicle_type_id":"4","last_reported":1745143732,"current_range_meters":20800,"station_id":"ce4bho92rcd13ifvqh4g","pricing_plan_id":"cebpf4jnsgd1na2vs0mg"},{"bike_id":"6a27fd14-6789-49ba-b189-fb3f45a00a04","system_id":"levelo_inurba_marseille","lat":43.23103,"lon":5.43675,"is_reserved":false,"is_disabled":false,"rental_uris":{"android":"levelo://app?vid=6a27fd14-6789-49ba-b189-fb3f45a00a04","ios":"levelo://app?vid=6a27fd14-6789-49ba-b189-fb3f45a00a04"},"vehicle_type_id":"4","last_reported":1745143732,"current_range_meters":20800,"station_id":"","pricing_plan_id":"cebpf4jnsgd1na2vs0mg"},