{"last_updated":1777397300,"ttl":60,"version":"2.2","data":{"bikes":[{"bike_id":"e8f6c2b4-9d57-4b19-8676-fcb32c8187e1","system_id":"levelo_inurba_marseille","lat":43.27957,"lon":5.38716,"is_reserved":false,"is_disabled":false,"rental_uris":{"android":"levelo://app?vid=e8f6c2b4-9d57-4b19-8676-fcb32c8187e1","ios":"levelo://app?vid=e8f6c2b4-9d57-4b19-8676-fcb32c8187e1"},"vehicle_type_id":"4","last_reported":1777397301,"current_range_meters":2800,"station_id":"ce4bhg12rcd13ifvqf80","pricing_plan_id":"cebpf4jnsgd1na2vs0mg"},{"bike_id":"6c0e44b5-b4c6-4989-a0ec-b3c6d257ac1d","system_id":"levelo_inurba_marseille","lat":43.33186,"lon":5.37828,"is_reserved":false,"is_disabled":false,"rental_uris":{"android":"levelo://app?vid=6c0e44b5-b4c6-4989-a0ec-b3c6d257ac1d","ios":"levelo://app?vid=6c0e44b5-b4c6-4989-a0ec-b3c6d257ac1d"},"vehicle_type_id":"4","last_reported":1777397301,"current_range_meters":2800,"station_id":"","pricing_plan_id":"cebpf4jnsgd1na2vs0mg"},{"bike_id":"10a70f3c-9185-42de-bbf8-2eb9f95b151c","system_id":"levelo_inurba_marseille","lat":43.305855,"lon":5.393637,"is_reserved":false,"is_disabled":false,"rental_uris":{"android":"levelo://app?vid=10a70f3c-9185-42de-bbf8-2eb9f95b151c","ios":"levelo://app?vid=10a70f3c-9185-42de-bbf8-2eb9f95b151c"},"vehicle_type_id":"4","last_reported":1777397301,"current_range_meters":2800,"station_id":"ce4bh0p2rcd13ifvqd80","pricing_plan_id":"cebpf4jnsgd1na2vs0mg"},{"bike_id":"ef8152fa-69a8-4897-80ba-16fd9081cac1","system_id":"levelo_inurba_marseille","lat":43.26187,"lon":5.37451,"is_reserved":false,"is_disabled":true,"rental_uris":{"android":"levelo://app?vid=ef8152fa-69a8-4897-80ba-16fd9081cac1","ios":"levelo://app?vid=ef8152fa-69a8-4897-80ba-16fd9081cac1"},"vehicle_type_id":"4","last_reported":1777397301,"current_range_meters":2800,"station_id":"ce4bhgp2rcd13ifvqfc0","pricing_plan_id":"cebpf4jnsgd1na2vs0mg"},{"bike_id":"5cda92b7-e2ec-4281-b1e2-4d23522edd7a","system_id":"levelo_inurba_marseille","lat":43.27962,"lon":5.41041,"is_reserved":false,"is_disabled":true,"rental_uris":{"android":"levelo://app?vid=5cda92b7-e2ec-4281-b1e2-4d23522edd7a","ios":"levelo://app?vid=5cda92b7-e2ec-4281-b1e2-4d23522edd7a"},"vehicle_type_id":"4","last_reported":1777397301,"current_range_meters":2800,"station_id":"ce4bhnp2rcd13ifvqh0g","pricing_plan_id":"cebpf4jnsgd1na2vs0mg"},{"bike_id":"9d25f597-8302-48cc-badc-1a1d6a37a6d9","system_id":"levelo_inurba_marseille","lat":43.28463,"lon":5.358831,"is_reserved":false,"is_disabled":false,"rental_uris":{"android":"levelo://app?vid=9d25f597-8302-48cc-badc-1a1d6a37a6d9","ios":"levelo://app?vid=9d25f597-8302-48cc-badc-1a1d6a37a6d9"},"vehicle_type_id":"4","last_reported":1777397301,"current_range_meters":2800,"station_id":"ce4bhah2rcd13ifvqei0","pricing_plan_id":"cebpf4jnsgd1na2vs0mg"},{"bike_id":"83a7c89d-e42d-4734-94bf-d3e7dac8252a","system_id":"levelo_inurba_marseille","lat":43.27653,"lon":5.38944,"is_reserved":false,"is_disabled":true,"rental_uris":{"android":"levelo://app?vid=83a7c89d-e42d-4734-94bf-d3e7dac8252a","ios":"levelo://app?vid=83a7c89d-e42d-4734-94bf-d3e7dac8252a"},"vehicle_type_id":"4","last_reported":1777397301,"current_range_meters":2800,"station_id":"ce4bhi12rcd13ifvqfo0","pricing_plan_id":"cebpf4jnsgd1na2vs0mg"},{"bike_id":"9f77f16b-502d-4ac5-8568-c59f78ec076e","system_id":"levelo_inurba_marseille","lat":43.2908,"lon":5.37751,"is_reserved":false,"is_disabled":false,"rental_uris":{"android":"levelo://app?vid=9f77f16b-502d-4ac5-8568-c59f78ec076e","ios":"levelo://app?vid=9f77f16b-502d-4ac5-8568-c59f78ec076e"},"vehicle_type_id":"4","last_reported":1777397301,"current_range_meters":2800,"station_id":"","pricing_plan_id":"cebpf4jnsgd1na2vs0mg"},{"bike_id":"4de2105c-ff7b-4a21-ae6d-35c1aefac30b","system_id":"levelo_inurba_marseille","lat":43.2957,"lon":5.39981,"is_reserved":false,"is_disabled":false,"rental_uris":{"android":"levelo://app?vid=4de2105c-ff7b-4a21-ae6d-35c1aefac30b","ios":"levelo://app?vid=4de2105c-ff7b-4a21-ae6d-35c1aefac30b"},"vehicle_type_id":"4","last_reported":1777397301,"current_range_meters":2800,"station_id":"ce4bh312rcd13ifvqdj0","pricing_plan_id":"cebpf4jnsgd1na2vs0mg"},{"bike_id":"68aa46f7-e6bc-42f7-ae8f-bc530b577548","system_id":"levelo_inurba_marseille","lat":43.25511,"lon":5.37646,"is_reserved":false,"is_disabled":false,"rental_uris":{"android":"levelo://app?vid=68aa46f7-e6bc-42f7-ae8f-bc530b577548","ios":"levelo://app?vid=68aa46f7-e6bc-42f7-ae8f-bc530b577548"},"vehicle_type_id":"4","last_reported":1777397301,"current_range_meters":2800,"station_id":"ce4bhh12rcd13ifvqff0","pricing_plan_id":"cebpf4jnsgd1na2vs0mg"},{"bike_id":"7af45f74-603d-49dd-a49c-21247a0d1202","system_id":"levelo_inurba_marseille","lat":43.305389,"lon":5.367287,"is_reserved":false,"is_disabled":false,"rental_uris":{"android":"levelo://app?vid=7af45f74-603d-49dd-a49c-21247a0d1202","ios":"levelo://app?vid=7af45f74-603d-49dd-a49c-21247a0d1202"},"vehicle_type_id":"4","last_reported":1777397301,"current_range_meters":2800,"station_id":"ce4bgrp2rcd13ifvqc9g","pricing_plan_id":"cebpf4jnsgd1na2vs0mg"},{"bike_id":"6b9ceb44-f98b-4474-bf14-5e53602be7a5","system_id":"levelo_inurba_marseille","lat":43.33545,"lon":5.37469,"is_reserved":false,"is_disabled":false,"rental_uris":{"android":"levelo://app?vid=6b9ceb44-f98b-4474-bf14-5e53602be7a5","ios":"levelo://app?vid=6b9ceb44-f98b-4474-bf14-5e53602be7a5"},"vehicle_type_id":"4","last_reported":1777397301,"current_range_meters":2800,"station_id":"st_d46tts09ee8s73dlu43g","pricing_plan_id":"cebpf4jnsgd1na2vs0mg"},{"bike_id":"169f5068-bf05-43fc-98e9-cbc7cd92a4b3","system_id":"levelo_inurba_marseille","lat":43.29023,"lon":5.38131,"is_reserved":false,"is_disabled":false,"rental_uris":{"android":"levelo://app?vid=169f5068-bf05-43fc-98e9-cbc7cd92a4b3","ios":"levelo://app?vid=169f5068-bf05-43fc-98e9-cbc7cd92a4b3"},"vehicle_type_id":"4","last_reported":1777397301,"current_range_meters":2800,"station_id":"ce4bh4p2rcd13ifvqe1g","pricing_plan_id":"cebpf4jnsgd1na2vs0mg"},{"bike_id":"b0fc715f-4a35-4272-9e2a-b10f7b105dc9","system_id":"levelo_inurba_marseille","lat":43.29382,"lon":5.44517,"is_reserved":false,"is_disabled":false,"rental_uris":{"android":"levelo://app?vid=b0fc715f-4a35-4272-9e2a-b10f7b105dc9","ios":"levelo://app?vid=b0fc715f-4a35-4272-9e2a-b10f7b105dc9"},"vehicle_type_id":"4","last_reported":1777397301,"current_range_meters":2800,"station_id":"","pricing_plan_id":"cebpf4jnsgd1na2vs0mg"},{"bike_id":"4f3b4276-77dd-4a3f-8ac7-36efd2b1ff51","system_id":"levelo_inurba_marseille","lat":43.26223,"lon":5.40449,"is_reserved":false,"is_disabled":false,"rental_uris":{"android":"levelo://app?vid=4f3b4276-77dd-4a3f-8ac7-36efd2b1ff51","ios":"levelo://app?vid=4f3b4276-77dd-4a3f-8ac7-36efd2b1ff51"},"vehicle_type_id":"4","last_reported":1777397301,"current_range_meters":2800,"station_id":"ce4bhmh2rcd13ifvqgmg","pricing_plan_id":"cebpf4jnsgd1na2vs0mg"},{"bike_id":"d11e8364-b972-4f16-af12-1c27f4eae255","system_id":"levelo_inurba_marseille","lat":43.2738,"lon":5.36253,"is_reserved":false,"is_disabled":false,"rental_uris":{"android":"levelo://app?vid=d11e8364-b972-4f16-af12-1c27f4eae255","ios":"levelo://app?vid=d11e8364-b972-4f16-af12-1c27f4eae255"},"vehicle_type_id":"4","last_reported":1777397301,"current_range_meters":3200,"station_id":"ce4bhbh2rcd13ifvqeo0","pricing_plan_id":"cebpf4jnsgd1na2vs0mg"},{"bike_id":"c055fa6e-02ec-45fb-a7c1-470478ee4868","system_id":"levelo_inurba_marseille","lat":43.30205,"lon":5.36582,"is_reserved":false,"is_disabled":false,"rental_uris":{"android":"levelo://app?vid=c055fa6e-02ec-45fb-a7c1-470478ee4868","ios":"levelo://app?vid=c055fa6e-02ec-45fb-a7c1-470478ee4868"},"vehicle_type_id":"4","last_reported":1777397301,"current_range_meters":3200,"station_id":"ce4bgrh2rcd13ifvqc8g","pricing_plan_id":"cebpf4jnsgd1na2vs0mg"},{"bike_id":"77f1be50-d55c-4753-b02a-0b5e7117e7c7","system_id":"levelo_inurba_marseille","lat":43.31305,"lon":5.38194,"is_reserved":false,"is_disabled":false,"rental_uris":{"android":"levelo://app?vid=77f1be50-d55c-4753-b02a-0b5e7117e7c7","ios":"levelo://app?vid=77f1be50-d55c-4753-b02a-0b5e7117e7c7"},"vehicle_type_id":"4","last_reported":1777397301,"current_range_meters":3200,"station_id":"","pricing_plan_id":"cebpf4jnsgd1na2vs0mg"},{"bike_id":"a1995f87-5592-4e2e-b406-70aaa614ce88","system_id":"levelo_inurba_marseille","lat":43.286136,"lon":5.370618,"is_reserved":false,"is_disabled":false,"rental_uris":{"android":"levelo://app?vid=a1995f87-5592-4e2e-b406-70aaa614ce88","ios":"levelo://app?vid=a1995f87-5592-4e2e-b406-70aaa614ce88"},"vehicle_type_id":"4","last_reported":1777397301,"current_range_meters":3200,"station_id":"ce4bht12rcd13ifvqi60","pricing_plan_id":"cebpf4jnsgd1na2vs0mg"},{"bike_id":"c04b2f9c-beeb-4fa7-8e8b-79fde97ca004","system_id":"levelo_inurba_marseille","lat":43.25499,"lon":5.37651,"is_reserved":false,"is_disabled":false,"rental_uris":{"android":"levelo://app?vid=c04b2f9c-beeb-4fa7-8e8b-79fde97ca004","ios":"levelo://app?vid=c04b2f9c-beeb-4fa7-8e8b-79fde97ca004"},"vehicle_type_id":"4","last_reported":1777397301,"current_range_meters":3200,"station_id":"ce4bhh12rcd13ifvqff0","pricing_plan_id":"cebpf4jnsgd1na2vs0mg"},{"bike_id":"e307cac8-8276-4e80-89b8-32d0827be870","system_id":"levelo_inurba_marseille","lat":43.25076,"lon":5.42483,"is_reserved":false,"is_disabled":false,"rental_uris":{"android":"levelo://app?vid=e307cac8-8276-4e80-89b8-32d0827be870","ios":"levelo://app?vid=e307cac8-8276-4e80-89b8-32d0827be870"},"vehicle_type_id":"4","last_reported":1777397301,"current_range_meters":3200,"station_id":"","pricing_plan_id":"cebpf4jnsgd1na2vs0mg"},{"bike_id":"a3858e75-7bc5-42fd-b4a1-bfeb0465940f","system_id":"levelo_inurba_marseille","lat":43.28856,"lon":5.35847,"is_reserved":false,"is_disabled":false,"rental_uris":{"android":"levelo://app?vid=a3858e75-7bc5-42fd-b4a1-bfeb0465940f","ios":"levelo://app?vid=a3858e75-7bc5-42fd-b4a1-bfeb0465940f"},"vehicle_type_id":"4","last_reported":1777397301,"current_range_meters":3200,"station_id":"ce4bhb12rcd13ifvqem0","pricing_plan_id":"cebpf4jnsgd1na2vs0mg"},{"bike_id":"7075f907-53e7-4ff6-9f8e-2b0253a45df3","system_id":"levelo_inurba_marseille","lat":43.30604,"lon":5.37227,"is_reserved":false,"is_disabled":false,"rental_uris":{"android":"levelo://app?vid=7075f907-53e7-4ff6-9f8e-2b0253a45df3","ios":"levelo://app?vid=7075f907-53e7-4ff6-9f8e-2b0253a45df3"},"vehicle_type_id":"4","last_reported":1777397301,"current_range_meters":3200,"station_id":"ce4bgqh2rcd13ifvqc4g","pricing_plan_id":"cebpf4jnsgd1na2vs0mg"},{"bike_id":"5ba04d24-c534-463a-8386-f7288b20a6ac","system_id":"levelo_inurba_marseille","lat":43.29639,"lon":5.40598,"is_reserved":false,"is_disabled":false,"rental_uris":{"android":"levelo://app?vid=5ba04d24-c534-463a-8386-f7288b20a6ac","ios":"levelo://app?vid=5ba04d24-c534-463a-8386-f7288b20a6ac"},"vehicle_type_id":"4","last_reported":1777397301,"current_range_meters":3600,"station_id":"ce4bh0h2rcd13ifvqd60","pricing_plan_id":"cebpf4jnsgd1na2vs0mg"},{"bike_id":"ab6e5095-a74e-48d5-9fa7-7d61fdda751e","system_id":"levelo_inurba_marseille","lat":43.30642,"lon":5.40096,"is_reserved":false,"is_disabled":true,"rental_uris":{"android":"levelo://app?vid=ab6e5095-a74e-48d5-9fa7-7d61fdda751e","ios":"levelo://app?vid=ab6e5095-a74e-48d5-9fa7-7d61fdda751e"},"vehicle_type_id":"4","last_reported":1777397301,"current_range_meters":3600,"station_id":"ce4bh112rcd13ifvqda0","pricing_plan_id":"cebpf4jnsgd1na2vs0mg"},{"bike_id":"83e30e2b-ead5-4b65-8fab-862971138732","system_id":"levelo_inurba_marseille","lat":43.27811,"lon":5.40713,"is_reserved":false,"is_disabled":false,"rental_uris":{"android":"levelo://app?vid=83e30e2b-ead5-4b65-8fab-862971138732","ios":"levelo://app?vid=83e30e2b-ead5-4b65-8fab-862971138732"},"vehicle_type_id":"4","last_reported":1777397301,"current_range_meters":3600,"station_id":"ce4bhnh2rcd13ifvqgtg","pricing_plan_id":"cebpf4jnsgd1na2vs0mg"},{"bike_id":"87cc790b-60cd-436a-82f4-3796eb0e0cc9","system_id":"levelo_inurba_marseille","lat":43.29165,"lon":5.43581,"is_reserved":false,"is_disabled":false,"rental_uris":{"android":"levelo://app?vid=87cc790b-60cd-436a-82f4-3796eb0e0cc9","ios":"levelo://app?vid=87cc790b-60cd-436a-82f4-3796eb0e0cc9"},"vehicle_type_id":"4","last_reported":1777397301,"current_range_meters":3600,"station_id":"","pricing_plan_id":"cebpf4jnsgd1na2vs0mg"},{"bike_id":"8538f12e-257a-4706-87e4-7f1a25eb0745","system_id":"levelo_inurba_marseille","lat":43.28404,"lon":5.35266,"is_reserved":false,"is_disabled":false,"rental_uris":{"android":"levelo://app?vid=8538f12e-257a-4706-87e4-7f1a25eb0745","ios":"levelo://app?vid=8538f12e-257a-4706-87e4-7f1a25eb0745"},"vehicle_type_id":"4","last_reported":1777397301,"current_range_meters":3600,"station_id":"","pricing_plan_id":"cebpf4jnsgd1na2vs0mg"},{"bike_id":"e9caa787-7d67-4d5e-a31e-d9e1c9d0cd1f","system_id":"levelo_inurba_marseille","lat":43.26585,"lon":5.39029,"is_reserved":false,"is_disabled":false,"rental_uris":{"android":"levelo://app?vid=e9caa787-7d67-4d5e-a31e-d9e1c9d0cd1f","ios":"levelo://app?vid=e9caa787-7d67-4d5e-a31e-d9e1c9d0cd1f"},"vehicle_type_id":"4","last_reported":1777397301,"current_range_meters":3600,"station_id":"ce4bhe12rcd13ifvqf30","pricing_plan_id":"cebpf4jnsgd1na2vs0mg"},{"bike_id":"4762e09b-59b8-41ab-9c32-7fa1853bb9b6","system_id":"levelo_inurba_marseille","lat":43.25471,"lon":5.41629,"is_reserved":false,"is_disabled":false,"rental_uris":{"android":"levelo://app?vid=4762e09b-59b8-41ab-9c32-7fa1853bb9b6","ios":"levelo://app?vid=4762e09b-59b8-41ab-9c32-7fa1853bb9b6"},"vehicle_type_id":"4","last_reported":1777397301,"current_range_meters":3600,"station_id":"","pricing_plan_id":"cebpf4jnsgd1na2vs0mg"},{"bike_id":"c04c42cf-36a4-4a3c-b656-dde2fe1bae7e","system_id":"levelo_inurba_marseille","lat":43.31931,"lon":5.368,"is_reserved":false,"is_disabled":false,"rental_uris":{"android":"levelo://app?vid=c04c42cf-36a4-4a3c-b656-dde2fe1bae7e","ios":"levelo://app?vid=c04c42cf-36a4-4a3c-b656-dde2fe1bae7e"},"vehicle_type_id":"4","last_reported":1777397301,"current_range_meters":3600,"station_id":"st_d6o2h0d0559c73evc1b0","pricing_plan_id":"cebpf4jnsgd1na2vs0mg"},{"bike_id":"f7883914-8a35-41a7-8add-6f343728cd33","system_id":"levelo_inurba_marseille","lat":43.2446,"lon":5.42533,"is_reserved":false,"is_disabled":false,"rental_uris":{"android":"levelo://app?vid=f7883914-8a35-41a7-8add-6f343728cd33","ios":"levelo://app?vid=f7883914-8a35-41a7-8add-6f343728cd33"},"vehicle_type_id":"4","last_reported":1777397301,"current_range_meters":4000,"station_id":"st_d4a3vfp97mjs738cd8kg","pricing_plan_id":"cebpf4jnsgd1na2vs0mg"},{"bike_id":"72f8ecb5-431e-44c5-9e32-08ae48887643","system_id":"levelo_inurba_marseille","lat":43.30256,"lon":5.4007,"is_reserved":false,"is_disabled":false,"rental_uris":{"android":"levelo://app?vid=72f8ecb5-431e-44c5-9e32-08ae48887643","ios":"levelo://app?vid=72f8ecb5-431e-44c5-9e32-08ae48887643"},"vehicle_type_id":"4","last_reported":1777397301,"current_range_meters":4000,"station_id":"ce4bgvh2rcd13ifvqcs0","pricing_plan_id":"cebpf4jnsgd1na2vs0mg"},{"bike_id":"8ac0bd5f-2f2a-4833-ada5-2e9beded5ddb","system_id":"levelo_inurba_marseille","lat":43.31503,"lon":5.39136,"is_reserved":false,"is_disabled":false,"rental_uris":{"android":"levelo://app?vid=8ac0bd5f-2f2a-4833-ada5-2e9beded5ddb","ios":"levelo://app?vid=8ac0bd5f-2f2a-4833-ada5-2e9beded5ddb"},"vehicle_type_id":"4","last_reported":1777397301,"current_range_meters":4000,"station_id":"","pricing_plan_id":"cebpf4jnsgd1na2vs0mg"},{"bike_id":"8814f97e-37e6-459a-acb5-05a32a3576b9","system_id":"levelo_inurba_marseille","lat":43.284079,"lon":5.375014,"is_reserved":false,"is_disabled":false,"rental_uris":{"android":"levelo://app?vid=8814f97e-37e6-459a-acb5-05a32a3576b9","ios":"levelo://app?vid=8814f97e-37e6-459a-acb5-05a32a3576b9"},"vehicle_type_id":"4","last_reported":1777397301,"current_range_meters":4000,"station_id":"ce4bh412rcd13ifvqds0","pricing_plan_id":"cebpf4jnsgd1na2vs0mg"},{"bike_id":"16d472fe-eb19-4acc-8aa8-94088ad37de6","system_id":"levelo_inurba_marseille","lat":43.35194,"lon":5.36419,"is_reserved":false,"is_disabled":false,"rental_uris":{"android":"levelo://app?vid=16d472fe-eb19-4acc-8aa8-94088ad37de6","ios":"levelo://app?vid=16d472fe-eb19-4acc-8aa8-94088ad37de6"},"vehicle_type_id":"4","last_reported":1777397301,"current_range_meters":4000,"station_id":"","pricing_plan_id":"cebpf4jnsgd1na2vs0mg"},{"bike_id":"14869599-ab60-4e86-8f2c-d0b35d29b95e","system_id":"levelo_inurba_marseille","lat":43.25604,"lon":5.4202,"is_reserved":false,"is_disabled":false,"rental_uris":{"android":"levelo://app?vid=14869599-ab60-4e86-8f2c-d0b35d29b95e","ios":"levelo://app?vid=14869599-ab60-4e86-8f2c-d0b35d29b95e"},"vehicle_type_id":"4","last_reported":1777397301,"current_range_meters":4000,"station_id":"","pricing_plan_id":"cebpf4jnsgd1na2vs0mg"},{"bike_id":"ac22394e-74ad-49d7-8ce2-7a9e4a1edbca","system_id":"levelo_inurba_marseille","lat":43.30115,"lon":5.43135,"is_reserved":false,"is_disabled":false,"rental_uris":{"android":"levelo://app?vid=ac22394e-74ad-49d7-8ce2-7a9e4a1edbca","ios":"levelo://app?vid=ac22394e-74ad-49d7-8ce2-7a9e4a1edbca"},"vehicle_type_id":"4","last_reported":1777397301,"current_range_meters":4000,"station_id":"st_d3js3co5814s73ftftug","pricing_plan_id":"cebpf4jnsgd1na2vs0mg"},{"bike_id":"a6351446-1335-4800-a7a9-333c06478fc7","system_id":"levelo_inurba_marseille","lat":43.29034,"lon":5.39967,"is_reserved":false,"is_disabled":false,"rental_uris":{"android":"levelo://app?vid=a6351446-1335-4800-a7a9-333c06478fc7","ios":"levelo://app?vid=a6351446-1335-4800-a7a9-333c06478fc7"},"vehicle_type_id":"4","last_reported":1777397301,"current_range_meters":4000,"station_id":"ce4bh392rcd13ifvqdm0","pricing_plan_id":"cebpf4jnsgd1na2vs0mg"},{"bike_id":"c658f009-bae2-4ba4-a0cc-484db7ff8698","system_id":"levelo_inurba_marseille","lat":43.28225,"lon":5.40542,"is_reserved":false,"is_disabled":false,"rental_uris":{"android":"levelo://app?vid=c658f009-bae2-4ba4-a0cc-484db7ff8698","ios":"levelo://app?vid=c658f009-bae2-4ba4-a0cc-484db7ff8698"},"vehicle_type_id":"4","last_reported":1777397301,"current_range_meters":4000,"station_id":"","pricing_plan_id":"cebpf4jnsgd1na2vs0mg"},{"bike_id":"37b1b6c7-b817-4292-94d1-3d46e15369ae","system_id":"levelo_inurba_marseille","lat":43.2857,"lon":5.39489,"is_reserved":false,"is_disabled":false,"rental_uris":{"android":"levelo://app?vid=37b1b6c7-b817-4292-94d1-3d46e15369ae","ios":"levelo://app?vid=37b1b6c7-b817-4292-94d1-3d46e15369ae"},"vehicle_type_id":"4","last_reported":1777397301,"current_range_meters":4400,"station_id":"ce4bh292rcd13ifvqdg0","pricing_plan_id":"cebpf4jnsgd1na2vs0mg"},{"bike_id":"f447fec5-f118-42c2-be2c-8ef32b6d20a2","system_id":"levelo_inurba_marseille","lat":43.25963,"lon":5.41685,"is_reserved":false,"is_disabled":false,"rental_uris":{"android":"levelo://app?vid=f447fec5-f118-42c2-be2c-8ef32b6d20a2","ios":"levelo://app?vid=f447fec5-f118-42c2-be2c-8ef32b6d20a2"},"vehicle_type_id":"4","last_reported":1777397301,"current_range_meters":4400,"station_id":"","pricing_plan_id":"cebpf4jnsgd1na2vs0mg"},{"bike_id":"74929e98-c2e0-43cc-b447-0901251d01cb","system_id":"levelo_inurba_marseille","lat":43.2549,"lon":5.37677,"is_reserved":false,"is_disabled":true,"rental_uris":{"android":"levelo://app?vid=74929e98-c2e0-43cc-b447-0901251d01cb","ios":"levelo://app?vid=74929e98-c2e0-43cc-b447-0901251d01cb"},"vehicle_type_id":"4","last_reported":1777397301,"current_range_meters":4400,"station_id":"ce4bhh12rcd13ifvqff0","pricing_plan_id":"cebpf4jnsgd1na2vs0mg"},{"bike_id":"e5cd69c7-9379-4379-93b8-62cf25a54177","system_id":"levelo_inurba_marseille","lat":43.337497,"lon":5.374492,"is_reserved":false,"is_disabled":false,"rental_uris":{"android":"levelo://app?vid=e5cd69c7-9379-4379-93b8-62cf25a54177","ios":"levelo://app?vid=e5cd69c7-9379-4379-93b8-62cf25a54177"},"vehicle_type_id":"4","last_reported":1777397301,"current_range_meters":4400,"station_id":"","pricing_plan_id":"cebpf4jnsgd1na2vs0mg"},{"bike_id":"5e8b7b5e-bfe7-4ee6-a9ab-8dd6a9b1d15f","system_id":"levelo_inurba_marseille","lat":43.26028,"lon":5.37548,"is_reserved":false,"is_disabled":false,"rental_uris":{"android":"levelo://app?vid=5e8b7b5e-bfe7-4ee6-a9ab-8dd6a9b1d15f","ios":"levelo://app?vid=5e8b7b5e-bfe7-4ee6-a9ab-8dd6a9b1d15f"},"vehicle_type_id":"4","last_reported":1777397301,"current_range_meters":4400,"station_id":"ce4bhgh2rcd13ifvqfa0","pricing_plan_id":"cebpf4jnsgd1na2vs0mg"},{"bike_id":"de3449f8-6264-4f82-8ebf-ca1b1c2aa0b1","system_id":"levelo_inurba_marseille","lat":43.28846,"lon":5.393078,"is_reserved":false,"is_disabled":false,"rental_uris":{"android":"levelo://app?vid=de3449f8-6264-4f82-8ebf-ca1b1c2aa0b1","ios":"levelo://app?vid=de3449f8-6264-4f82-8ebf-ca1b1c2aa0b1"},"vehicle_type_id":"4","last_reported":1777397301,"current_range_meters":4400,"station_id":"ce4bh2p2rcd13ifvqdi0","pricing_plan_id":"cebpf4jnsgd1na2vs0mg"},{"bike_id":"06777ece-e045-45b2-a1cb-0c1c2d7738d9","system_id":"levelo_inurba_marseille","lat":43.27372,"lon":5.3626,"is_reserved":false,"is_disabled":false,"rental_uris":{"android":"levelo://app?vid=06777ece-e045-45b2-a1cb-0c1c2d7738d9","ios":"levelo://app?vid=06777ece-e045-45b2-a1cb-0c1c2d7738d9"},"vehicle_type_id":"4","last_reported":1777397301,"current_range_meters":4400,"station_id":"ce4bhbh2rcd13ifvqeo0","pricing_plan_id":"cebpf4jnsgd1na2vs0mg"},{"bike_id":"ac075d69-1e3a-4479-b490-8ad05dd5c93f","system_id":"levelo_inurba_marseille","lat":43.28153,"lon":5.42651,"is_reserved":false,"is_disabled":false,"rental_uris":{"android":"levelo://app?vid=ac075d69-1e3a-4479-b490-8ad05dd5c93f","ios":"levelo://app?vid=ac075d69-1e3a-4479-b490-8ad05dd5c93f"},"vehicle_type_id":"4","last_reported":1777397301,"current_range_meters":4400,"station_id":"ce4bhnh2rcd13ifvqgug","pricing_plan_id":"cebpf4jnsgd1na2vs0mg"},{"bike_id":"70231ec2-686a-4022-81c8-2da3e77dfd82","system_id":"levelo_inurba_marseille","lat":43.30141,"lon":5.37426,"is_reserved":false,"is_disabled":false,"rental_uris":{"android":"levelo://app?vid=70231ec2-686a-4022-81c8-2da3e77dfd82","ios":"levelo://app?vid=70231ec2-686a-4022-81c8-2da3e77dfd82"},"vehicle_type_id":"4","last_reported":1777397301,"current_range_meters":4400,"station_id":"ce4bgs92rcd13ifvqcc0","pricing_plan_id":"cebpf4jnsgd1na2vs0mg"},{"bike_id":"90074229-8bc9-4f5d-93f0-5cf4c6f02650","system_id":"levelo_inurba_marseille","lat":43.287,"lon":5.3795,"is_reserved":false,"is_disabled":false,"rental_uris":{"android":"levelo://app?vid=90074229-8bc9-4f5d-93f0-5cf4c6f02650","ios":"levelo://app?vid=90074229-8bc9-4f5d-93f0-5cf4c6f02650"},"vehicle_type_id":"4","last_reported":1777397301,"current_range_meters":4400,"station_id":"ce4bh9p2rcd13ifvqec0","pricing_plan_id":"cebpf4jnsgd1na2vs0mg"},{"bike_id":"0ba5c473-448e-4959-962b-1ceda7557f74","system_id":"levelo_inurba_marseille","lat":43.2976,"lon":5.42762,"is_reserved":false,"is_disabled":true,"rental_uris":{"android":"levelo://app?vid=0ba5c473-448e-4959-962b-1ceda7557f74","ios":"levelo://app?vid=0ba5c473-448e-4959-962b-1ceda7557f74"},"vehicle_type_id":"4","last_reported":1777397301,"current_range_meters":4400,"station_id":"st_d3md5207bmas73dh9klg","pricing_plan_id":"cebpf4jnsgd1na2vs0mg"},{"bike_id":"453c06ea-70ab-43bd-9b05-97b22d866670","system_id":"levelo_inurba_marseille","lat":43.30793,"lon":5.37647,"is_reserved":false,"is_disabled":false,"rental_uris":{"android":"levelo://app?vid=453c06ea-70ab-43bd-9b05-97b22d866670","ios":"levelo://app?vid=453c06ea-70ab-43bd-9b05-97b22d866670"},"vehicle_type_id":"4","last_reported":1777397301,"current_range_meters":4800,"station_id":"ce4bgv92rcd13ifvqcq0","pricing_plan_id":"cebpf4jnsgd1na2vs0mg"},{"bike_id":"d4a40da6-3ca9-42d3-8b23-5866063ae8d9","system_id":"levelo_inurba_marseille","lat":43.26952,"lon":5.38637,"is_reserved":false,"is_disabled":false,"rental_uris":{"android":"levelo://app?vid=d4a40da6-3ca9-42d3-8b23-5866063ae8d9","ios":"levelo://app?vid=d4a40da6-3ca9-42d3-8b23-5866063ae8d9"},"vehicle_type_id":"4","last_reported":1777397301,"current_range_meters":4800,"station_id":"ce4bhh92rcd13ifvqfh0","pricing_plan_id":"cebpf4jnsgd1na2vs0mg"},{"bike_id":"7d4d3a95-715c-4e3d-8376-2480c42f29a8","system_id":"levelo_inurba_marseille","lat":43.32358,"lon":5.36763,"is_reserved":false,"is_disabled":false,"rental_uris":{"android":"levelo://app?vid=7d4d3a95-715c-4e3d-8376-2480c42f29a8","ios":"levelo://app?vid=7d4d3a95-715c-4e3d-8376-2480c42f29a8"},"vehicle_type_id":"4","last_reported":1777397301,"current_range_meters":4800,"station_id":"ce4bhsh2rcd13ifvqi2g","pricing_plan_id":"cebpf4jnsgd1na2vs0mg"},{"bike_id":"5e451212-4b27-4f5e-b1c4-d13e6ee3dead","system_id":"levelo_inurba_marseille","lat":43.31117,"lon":5.37771,"is_reserved":false,"is_disabled":false,"rental_uris":{"android":"levelo://app?vid=5e451212-4b27-4f5e-b1c4-d13e6ee3dead","ios":"levelo://app?vid=5e451212-4b27-4f5e-b1c4-d13e6ee3dead"},"vehicle_type_id":"4","last_reported":1777397301,"current_range_meters":4800,"station_id":"ce4bgt92rcd13ifvqcg0","pricing_plan_id":"cebpf4jnsgd1na2vs0mg"},{"bike_id":"b31e806e-5c00-4ba1-a8fd-e2e85168a5db","system_id":"levelo_inurba_marseille","lat":43.21188,"lon":5.35072,"is_reserved":false,"is_disabled":false,"rental_uris":{"android":"levelo://app?vid=b31e806e-5c00-4ba1-a8fd-e2e85168a5db","ios":"levelo://app?vid=b31e806e-5c00-4ba1-a8fd-e2e85168a5db"},"vehicle_type_id":"4","last_reported":1777397301,"current_range_meters":4800,"station_id":"st_cvj6sg6p6f1abm77japg","pricing_plan_id":"cebpf4jnsgd1na2vs0mg"},{"bike_id":"350fa88e-5d6a-490f-b17c-3146de18c9d5","system_id":"levelo_inurba_marseille","lat":43.31721,"lon":5.42395,"is_reserved":false,"is_disabled":false,"rental_uris":{"android":"levelo://app?vid=350fa88e-5d6a-490f-b17c-3146de18c9d5","ios":"levelo://app?vid=350fa88e-5d6a-490f-b17c-3146de18c9d5"},"vehicle_type_id":"4","last_reported":1777397301,"current_range_meters":4800,"station_id":"ce4bhp92rcd13ifvqhbg","pricing_plan_id":"cebpf4jnsgd1na2vs0mg"},{"bike_id":"7d41b291-e6bd-4a0a-a999-07a682baaef3","system_id":"levelo_inurba_marseille","lat":43.28419,"lon":5.34989,"is_reserved":false,"is_disabled":false,"rental_uris":{"android":"levelo://app?vid=7d41b291-e6bd-4a0a-a999-07a682baaef3","ios":"levelo://app?vid=7d41b291-e6bd-4a0a-a999-07a682baaef3"},"vehicle_type_id":"4","last_reported":1777397301,"current_range_meters":4800,"station_id":"ce4bhbh2rcd13ifvqepg","pricing_plan_id":"cebpf4jnsgd1na2vs0mg"},{"bike_id":"6fc456c6-1e08-4c74-a2a0-bdf07c1f848d","system_id":"levelo_inurba_marseille","lat":43.2959,"lon":5.36736,"is_reserved":false,"is_disabled":false,"rental_uris":{"android":"levelo://app?vid=6fc456c6-1e08-4c74-a2a0-bdf07c1f848d","ios":"levelo://app?vid=6fc456c6-1e08-4c74-a2a0-bdf07c1f848d"},"vehicle_type_id":"4","last_reported":1777397301,"current_range_meters":4800,"station_id":"ce4bgph2rcd13ifvqc2g","pricing_plan_id":"cebpf4jnsgd1na2vs0mg"},{"bike_id":"e1fa25ab-2f3d-4f3d-a27f-2e87f159dc52","system_id":"levelo_inurba_marseille","lat":43.28268,"lon":5.35071,"is_reserved":false,"is_disabled":false,"rental_uris":{"android":"levelo://app?vid=e1fa25ab-2f3d-4f3d-a27f-2e87f159dc52","ios":"levelo://app?vid=e1fa25ab-2f3d-4f3d-a27f-2e87f159dc52"},"vehicle_type_id":"4","last_reported":1777397301,"current_range_meters":4800,"station_id":"ce4bhbp2rcd13ifvqerg","pricing_plan_id":"cebpf4jnsgd1na2vs0mg"},{"bike_id":"92df0730-a111-4eb7-9ac5-5b2e60ace000","system_id":"levelo_inurba_marseille","lat":43.28644,"lon":5.38494,"is_reserved":false,"is_disabled":false,"rental_uris":{"android":"levelo://app?vid=92df0730-a111-4eb7-9ac5-5b2e60ace000","ios":"levelo://app?vid=92df0730-a111-4eb7-9ac5-5b2e60ace000"},"vehicle_type_id":"4","last_reported":1777397301,"current_range_meters":5600,"station_id":"","pricing_plan_id":"cebpf4jnsgd1na2vs0mg"},{"bike_id":"ced9ef8f-cc56-494d-a5d6-cc473fa1940f","system_id":"levelo_inurba_marseille","lat":43.23211,"lon":5.39991,"is_reserved":false,"is_disabled":false,"rental_uris":{"android":"levelo://app?vid=ced9ef8f-cc56-494d-a5d6-cc473fa1940f","ios":"levelo://app?vid=ced9ef8f-cc56-494d-a5d6-cc473fa1940f"},"vehicle_type_id":"4","last_reported":1777397301,"current_range_meters":5600,"station_id":"ce4bhn12rcd13ifvqgqg","pricing_plan_id":"cebpf4jnsgd1na2vs0mg"},{"bike_id":"e923b1cb-af4a-4187-b03f-b5938fe73211","system_id":"levelo_inurba_marseille","lat":43.27209,"lon":5.39178,"is_reserved":false,"is_disabled":false,"rental_uris":{"android":"levelo://app?vid=e923b1cb-af4a-4187-b03f-b5938fe73211","ios":"levelo://app?vid=e923b1cb-af4a-4187-b03f-b5938fe73211"},"vehicle_type_id":"4","last_reported":1777397301,"current_range_meters":5600,"station_id":"ce4bhhp2rcd13ifvqfm0","pricing_plan_id":"cebpf4jnsgd1na2vs0mg"},{"bike_id":"a399325d-f2db-4228-9217-0b87d323ec87","system_id":"levelo_inurba_marseille","lat":43.28266,"lon":5.35085,"is_reserved":false,"is_disabled":false,"rental_uris":{"android":"levelo://app?vid=a399325d-f2db-4228-9217-0b87d323ec87","ios":"levelo://app?vid=a399325d-f2db-4228-9217-0b87d323ec87"},"vehicle_type_id":"4","last_reported":1777397301,"current_range_meters":5600,"station_id":"ce4bhbp2rcd13ifvqerg","pricing_plan_id":"cebpf4jnsgd1na2vs0mg"},{"bike_id":"98f70805-4c41-42c5-970a-c3c1f6272f18","system_id":"levelo_inurba_marseille","lat":43.30004,"lon":5.40396,"is_reserved":false,"is_disabled":false,"rental_uris":{"android":"levelo://app?vid=98f70805-4c41-42c5-970a-c3c1f6272f18","ios":"levelo://app?vid=98f70805-4c41-42c5-970a-c3c1f6272f18"},"vehicle_type_id":"4","last_reported":1777397301,"current_range_meters":5600,"station_id":"","pricing_plan_id":"cebpf4jnsgd1na2vs0mg"},{"bike_id":"a6cfd14b-75d2-4f9d-9367-3fa42b7b1d2c","system_id":"levelo_inurba_marseille","lat":43.32106,"lon":5.36785,"is_reserved":false,"is_disabled":false,"rental_uris":{"android":"levelo://app?vid=a6cfd14b-75d2-4f9d-9367-3fa42b7b1d2c","ios":"levelo://app?vid=a6cfd14b-75d2-4f9d-9367-3fa42b7b1d2c"},"vehicle_type_id":"4","last_reported":1777397301,"current_range_meters":5600,"station_id":"ce4bhrh2rcd13ifvqhug","pricing_plan_id":"cebpf4jnsgd1na2vs0mg"},{"bike_id":"d1249892-671b-47a4-95ec-47a779c456e2","system_id":"levelo_inurba_marseille","lat":43.29515,"lon":5.39397,"is_reserved":false,"is_disabled":false,"rental_uris":{"android":"levelo://app?vid=d1249892-671b-47a4-95ec-47a779c456e2","ios":"levelo://app?vid=d1249892-671b-47a4-95ec-47a779c456e2"},"vehicle_type_id":"4","last_reported":1777397301,"current_range_meters":5600,"station_id":"ce4bh292rcd13ifvqdf0","pricing_plan_id":"cebpf4jnsgd1na2vs0mg"},{"bike_id":"57f90bd9-fa9d-42c1-93a4-bc60e7acd42f","system_id":"levelo_inurba_marseille","lat":43.26611,"lon":5.37248,"is_reserved":false,"is_disabled":false,"rental_uris":{"android":"levelo://app?vid=57f90bd9-fa9d-42c1-93a4-bc60e7acd42f","ios":"levelo://app?vid=57f90bd9-fa9d-42c1-93a4-bc60e7acd42f"},"vehicle_type_id":"4","last_reported":1777397301,"current_range_meters":5600,"station_id":"","pricing_plan_id":"cebpf4jnsgd1na2vs0mg"},{"bike_id":"dc4f256b-dad1-4b0e-b0aa-70815278bacb","system_id":"levelo_inurba_marseille","lat":43.28967,"lon":5.39318,"is_reserved":false,"is_disabled":false,"rental_uris":{"android":"levelo://app?vid=dc4f256b-dad1-4b0e-b0aa-70815278bacb","ios":"levelo://app?vid=dc4f256b-dad1-4b0e-b0aa-70815278bacb"},"vehicle_type_id":"4","last_reported":1777397301,"current_range_meters":5600,"station_id":"","pricing_plan_id":"cebpf4jnsgd1na2vs0mg"},{"bike_id":"b7b9a583-86eb-40d9-b9c4-c333feceb670","system_id":"levelo_inurba_marseille","lat":43.30131,"lon":5.38784,"is_reserved":false,"is_disabled":true,"rental_uris":{"android":"levelo://app?vid=b7b9a583-86eb-40d9-b9c4-c333feceb670","ios":"levelo://app?vid=b7b9a583-86eb-40d9-b9c4-c333feceb670"},"vehicle_type_id":"4","last_reported":1777397301,"current_range_meters":5600,"station_id":"ce4bghh2rcd13ifvqb60","pricing_plan_id":"cebpf4jnsgd1na2vs0mg"},{"bike_id":"ae987c10-ec52-4089-8ab4-892c787c36e9","system_id":"levelo_inurba_marseille","lat":43.26218,"lon":5.38767,"is_reserved":false,"is_disabled":true,"rental_uris":{"android":"levelo://app?vid=ae987c10-ec52-4089-8ab4-892c787c36e9","ios":"levelo://app?vid=ae987c10-ec52-4089-8ab4-892c787c36e9"},"vehicle_type_id":"4","last_reported":1777397301,"current_range_meters":5600,"station_id":"","pricing_plan_id":"cebpf4jnsgd1na2vs0mg"},{"bike_id":"0aa77637-d7e3-499b-846d-09967e25c470","system_id":"levelo_inurba_marseille","lat":43.26203,"lon":5.37934,"is_reserved":false,"is_disabled":false,"rental_uris":{"android":"levelo://app?vid=0aa77637-d7e3-499b-846d-09967e25c470","ios":"levelo://app?vid=0aa77637-d7e3-499b-846d-09967e25c470"},"vehicle_type_id":"4","last_reported":1777397301,"current_range_meters":5600,"station_id":"ce4bhjp2rcd13ifvqg90","pricing_plan_id":"cebpf4jnsgd1na2vs0mg"},{"bike_id":"7ba951c5-bbc6-4158-8b98-1b6e44b73a38","system_id":"levelo_inurba_marseille","lat":43.23153,"lon":5.43724,"is_reserved":false,"is_disabled":false,"rental_uris":{"android":"levelo://app?vid=7ba951c5-bbc6-4158-8b98-1b6e44b73a38","ios":"levelo://app?vid=7ba951c5-bbc6-4158-8b98-1b6e44b73a38"},"vehicle_type_id":"4","last_reported":1777397301,"current_range_meters":6000,"station_id":"ce4bhmp2rcd13ifvqgog","pricing_plan_id":"cebpf4jnsgd1na2vs0mg"},{"bike_id":"4b954bc9-67a3-464c-96c7-c6a09ee41920","system_id":"levelo_inurba_marseille","lat":43.29205,"lon":5.35836,"is_reserved":false,"is_disabled":false,"rental_uris":{"android":"levelo://app?vid=4b954bc9-67a3-464c-96c7-c6a09ee41920","ios":"levelo://app?vid=4b954bc9-67a3-464c-96c7-c6a09ee41920"},"vehicle_type_id":"4","last_reported":1777397301,"current_range_meters":6000,"station_id":"ce4bhb12rcd13ifvqel0","pricing_plan_id":"cebpf4jnsgd1na2vs0mg"},{"bike_id":"f995dca3-1807-4f37-99bf-ef8681a92b41","system_id":"levelo_inurba_marseille","lat":43.22537,"lon":5.34832,"is_reserved":false,"is_disabled":false,"rental_uris":{"android":"levelo://app?vid=f995dca3-1807-4f37-99bf-ef8681a92b41","ios":"levelo://app?vid=f995dca3-1807-4f37-99bf-ef8681a92b41"},"vehicle_type_id":"4","last_reported":1777397301,"current_range_meters":6000,"station_id":"st_cvj5dfep6f1abm77gieg","pricing_plan_id":"cebpf4jnsgd1na2vs0mg"},{"bike_id":"2b2662f1-d28b-44f2-b2c8-61c6569e4c3d","system_id":"levelo_inurba_marseille","lat":43.29228,"lon":5.40132,"is_reserved":false,"is_disabled":true,"rental_uris":{"android":"levelo://app?vid=2b2662f1-d28b-44f2-b2c8-61c6569e4c3d","ios":"levelo://app?vid=2b2662f1-d28b-44f2-b2c8-61c6569e4c3d"},"vehicle_type_id":"4","last_reported":1777397301,"current_range_meters":6000,"station_id":"","pricing_plan_id":"cebpf4jnsgd1na2vs0mg"},{"bike_id":"f95252ca-338a-4004-abd4-942d26b348ad","system_id":"levelo_inurba_marseille","lat":43.2953,"lon":5.39399,"is_reserved":false,"is_disabled":false,"rental_uris":{"android":"levelo://app?vid=f95252ca-338a-4004-abd4-942d26b348ad","ios":"levelo://app?vid=f95252ca-338a-4004-abd4-942d26b348ad"},"vehicle_type_id":"4","last_reported":1777397301,"current_range_meters":6000,"station_id":"ce4bh292rcd13ifvqdf0","pricing_plan_id":"cebpf4jnsgd1na2vs0mg"},{"bike_id":"626afedd-d732-4bc8-be6f-6408a29380b2","system_id":"levelo_inurba_marseille","lat":43.21202,"lon":5.35054,"is_reserved":false,"is_disabled":false,"rental_uris":{"android":"levelo://app?vid=626afedd-d732-4bc8-be6f-6408a29380b2","ios":"levelo://app?vid=626afedd-d732-4bc8-be6f-6408a29380b2"},"vehicle_type_id":"4","last_reported":1777397301,"current_range_meters":6000,"station_id":"st_cvj6sg6p6f1abm77japg","pricing_plan_id":"cebpf4jnsgd1na2vs0mg"},{"bike_id":"afde96ac-1493-4085-af72-e5da568a87fd","system_id":"levelo_inurba_marseille","lat":43.28465,"lon":5.48415,"is_reserved":false,"is_disabled":false,"rental_uris":{"android":"levelo://app?vid=afde96ac-1493-4085-af72-e5da568a87fd","ios":"levelo://app?vid=afde96ac-1493-4085-af72-e5da568a87fd"},"vehicle_type_id":"4","last_reported":1777397301,"current_range_meters":6000,"station_id":"st_d3svhcjqgbts73a3dn0g","pricing_plan_id":"cebpf4jnsgd1na2vs0mg"},{"bike_id":"30472d49-146d-434c-a5ae-d2b7af681c06","system_id":"levelo_inurba_marseille","lat":43.2951,"lon":5.39043,"is_reserved":false,"is_disabled":false,"rental_uris":{"android":"levelo://app?vid=30472d49-146d-434c-a5ae-d2b7af681c06","ios":"levelo://app?vid=30472d49-146d-434c-a5ae-d2b7af681c06"},"vehicle_type_id":"4","last_reported":1777397301,"current_range_meters":6000,"station_id":"ce4bh3p2rcd13ifvqdp0","pricing_plan_id":"cebpf4jnsgd1na2vs0mg"},{"bike_id":"eafdde75-6525-43bf-8508-1fd2b19890f7","system_id":"levelo_inurba_marseille","lat":43.25497,"lon":5.37648,"is_reserved":false,"is_disabled":false,"rental_uris":{"android":"levelo://app?vid=eafdde75-6525-43bf-8508-1fd2b19890f7","ios":"levelo://app?vid=eafdde75-6525-43bf-8508-1fd2b19890f7"},"vehicle_type_id":"4","last_reported":1777397301,"current_range_meters":6000,"station_id":"ce4bhh12rcd13ifvqff0","pricing_plan_id":"cebpf4jnsgd1na2vs0mg"},{"bike_id":"5b60bdeb-4f84-42cf-9b37-c5f45c9fa4bb","system_id":"levelo_inurba_marseille","lat":43.29258,"lon":5.40905,"is_reserved":false,"is_disabled":false,"rental_uris":{"android":"levelo://app?vid=5b60bdeb-4f84-42cf-9b37-c5f45c9fa4bb","ios":"levelo://app?vid=5b60bdeb-4f84-42cf-9b37-c5f45c9fa4bb"},"vehicle_type_id":"4","last_reported":1777397301,"current_range_meters":6000,"station_id":"ce4bh192rcd13ifvqdc0","pricing_plan_id":"cebpf4jnsgd1na2vs0mg"},{"bike_id":"93a03888-12b3-4ccc-b435-7f12038be2f7","system_id":"levelo_inurba_marseille","lat":43.21192,"lon":5.35067,"is_reserved":false,"is_disabled":false,"rental_uris":{"android":"levelo://app?vid=93a03888-12b3-4ccc-b435-7f12038be2f7","ios":"levelo://app?vid=93a03888-12b3-4ccc-b435-7f12038be2f7"},"vehicle_type_id":"4","last_reported":1777397301,"current_range_meters":6000,"station_id":"st_cvj6sg6p6f1abm77japg","pricing_plan_id":"cebpf4jnsgd1na2vs0mg"},{"bike_id":"fafc5ef8-64f4-41d9-9241-a9e9d6ab8283","system_id":"levelo_inurba_marseille","lat":43.31083,"lon":5.42428,"is_reserved":false,"is_disabled":false,"rental_uris":{"android":"levelo://app?vid=fafc5ef8-64f4-41d9-9241-a9e9d6ab8283","ios":"levelo://app?vid=fafc5ef8-64f4-41d9-9241-a9e9d6ab8283"},"vehicle_type_id":"4","last_reported":1777397301,"current_range_meters":6000,"station_id":"ce4bhp92rcd13ifvqhag","pricing_plan_id":"cebpf4jnsgd1na2vs0mg"},{"bike_id":"6f57ab5e-0fe9-4f78-b031-aee17010eeb7","system_id":"levelo_inurba_marseille","lat":43.29881,"lon":5.38905,"is_reserved":false,"is_disabled":false,"rental_uris":{"android":"levelo://app?vid=6f57ab5e-0fe9-4f78-b031-aee17010eeb7","ios":"levelo://app?vid=6f57ab5e-0fe9-4f78-b031-aee17010eeb7"},"vehicle_type_id":"4","last_reported":1777397301,"current_range_meters":6000,"station_id":"ce4bh392rcd13ifvqdl0","pricing_plan_id":"cebpf4jnsgd1na2vs0mg"},{"bike_id":"5367fafd-42a5-4c52-bd35-5d85953af91c","system_id":"levelo_inurba_marseille","lat":43.3145,"lon":5.37379,"is_reserved":false,"is_disabled":true,"rental_uris":{"android":"levelo://app?vid=5367fafd-42a5-4c52-bd35-5d85953af91c","ios":"levelo://app?vid=5367fafd-42a5-4c52-bd35-5d85953af91c"},"vehicle_type_id":"4","last_reported":1777397301,"current_range_meters":6400,"station_id":"","pricing_plan_id":"cebpf4jnsgd1na2vs0mg"},{"bike_id":"27cd71a7-0940-4415-a67f-21597fbf1cd9","system_id":"levelo_inurba_marseille","lat":43.34534,"lon":5.37787,"is_reserved":false,"is_disabled":true,"rental_uris":{"android":"levelo://app?vid=27cd71a7-0940-4415-a67f-21597fbf1cd9","ios":"levelo://app?vid=27cd71a7-0940-4415-a67f-21597fbf1cd9"},"vehicle_type_id":"4","last_reported":1777397301,"current_range_meters":6400,"station_id":"","pricing_plan_id":"cebpf4jnsgd1na2vs0mg"},{"bike_id":"1373da39-9bf2-42d8-a4e3-3a4bec183890","system_id":"levelo_inurba_marseille","lat":43.21209,"lon":5.35069,"is_reserved":false,"is_disabled":false,"rental_uris":{"android":"levelo://app?vid=1373da39-9bf2-42d8-a4e3-3a4bec183890","ios":"levelo://app?vid=1373da39-9bf2-42d8-a4e3-3a4bec183890"},"vehicle_type_id":"4","last_reported":1777397301,"current_range_meters":6400,"station_id":"st_cvj6sg6p6f1abm77japg","pricing_plan_id":"cebpf4jnsgd1na2vs0mg"},{"bike_id":"779a7d39-1f55-4e76-86d3-a26c647bfe6d","system_id":"levelo_inurba_marseille","lat":43.25575,"lon":5.38258,"is_reserved":false,"is_disabled":false,"rental_uris":{"android":"levelo://app?vid=779a7d39-1f55-4e76-86d3-a26c647bfe6d","ios":"levelo://app?vid=779a7d39-1f55-4e76-86d3-a26c647bfe6d"},"vehicle_type_id":"4","last_reported":1777397301,"current_range_meters":6400,"station_id":"ce4bhih2rcd13ifvqfs0","pricing_plan_id":"cebpf4jnsgd1na2vs0mg"},{"bike_id":"94b1d427-102e-4c64-aa76-0c93e226150f","system_id":"levelo_inurba_marseille","lat":43.28474,"lon":5.48405,"is_reserved":false,"is_disabled":false,"rental_uris":{"android":"levelo://app?vid=94b1d427-102e-4c64-aa76-0c93e226150f","ios":"levelo://app?vid=94b1d427-102e-4c64-aa76-0c93e226150f"},"vehicle_type_id":"4","last_reported":1777397301,"current_range_meters":6400,"station_id":"st_d3svhcjqgbts73a3dn0g","pricing_plan_id":"cebpf4jnsgd1na2vs0mg"},{"bike_id":"40d58886-f9c3-4163-8c06-ee6310545b15","system_id":"levelo_inurba_marseille","lat":43.29514,"lon":5.39045,"is_reserved":false,"is_disabled":false,"rental_uris":{"android":"levelo://app?vid=40d58886-f9c3-4163-8c06-ee6310545b15","ios":"levelo://app?vid=40d58886-f9c3-4163-8c06-ee6310545b15"},"vehicle_type_id":"4","last_reported":1777397301,"current_range_meters":6400,"station_id":"ce4bh3p2rcd13ifvqdp0","pricing_plan_id":"cebpf4jnsgd1na2vs0mg"},{"bike_id":"7489f3fb-b674-4f8a-afcd-1d622ca35469","system_id":"levelo_inurba_marseille","lat":43.31118,"lon":5.37758,"is_reserved":false,"is_disabled":false,"rental_uris":{"android":"levelo://app?vid=7489f3fb-b674-4f8a-afcd-1d622ca35469","ios":"levelo://app?vid=7489f3fb-b674-4f8a-afcd-1d622ca35469"},"vehicle_type_id":"4","last_reported":1777397301,"current_range_meters":6400,"station_id":"ce4bgt92rcd13ifvqcg0","pricing_plan_id":"cebpf4jnsgd1na2vs0mg"},{"bike_id":"741d64e2-d2ab-41b7-ba06-c8eb487e4eb3","system_id":"levelo_inurba_marseille","lat":43.26556,"lon":5.39081,"is_reserved":false,"is_disabled":false,"rental_uris":{"android":"levelo://app?vid=741d64e2-d2ab-41b7-ba06-c8eb487e4eb3","ios":"levelo://app?vid=741d64e2-d2ab-41b7-ba06-c8eb487e4eb3"},"vehicle_type_id":"4","last_reported":1777397301,"current_range_meters":6400,"station_id":"","pricing_plan_id":"cebpf4jnsgd1na2vs0mg"},{"bike_id":"987eda33-b3ad-4fac-a63c-0e3ff496e921","system_id":"levelo_inurba_marseille","lat":43.32365,"lon":5.36697,"is_reserved":false,"is_disabled":false,"rental_uris":{"android":"levelo://app?vid=987eda33-b3ad-4fac-a63c-0e3ff496e921","ios":"levelo://app?vid=987eda33-b3ad-4fac-a63c-0e3ff496e921"},"vehicle_type_id":"4","last_reported":1777397301,"current_range_meters":6400,"station_id":"","pricing_plan_id":"cebpf4jnsgd1na2vs0mg"},{"bike_id":"92b0e79d-5118-4cdc-a154-ad1d52d847b8","system_id":"levelo_inurba_marseille","lat":43.29608,"lon":5.36065,"is_reserved":false,"is_disabled":false,"rental_uris":{"android":"levelo://app?vid=92b0e79d-5118-4cdc-a154-ad1d52d847b8","ios":"levelo://app?vid=92b0e79d-5118-4cdc-a154-ad1d52d847b8"},"vehicle_type_id":"4","last_reported":1777397301,"current_range_meters":6400,"station_id":"","pricing_plan_id":"cebpf4jnsgd1na2vs0mg"},{"bike_id":"eec401be-82ad-4f63-b0db-33abd6b577d0","system_id":"levelo_inurba_marseille","lat":43.30129,"lon":5.43121,"is_reserved":false,"is_disabled":false,"rental_uris":{"android":"levelo://app?vid=eec401be-82ad-4f63-b0db-33abd6b577d0","ios":"levelo://app?vid=eec401be-82ad-4f63-b0db-33abd6b577d0"},"vehicle_type_id":"4","last_reported":1777397301,"current_range_meters":6400,"station_id":"st_d3js3co5814s73ftftug","pricing_plan_id":"cebpf4jnsgd1na2vs0mg"},{"bike_id":"6b4aa15b-259f-4e69-9c10-9ad064f7be7c","system_id":"levelo_inurba_marseille","lat":43.25577,"lon":5.38241,"is_reserved":false,"is_disabled":false,"rental_uris":{"android":"levelo://app?vid=6b4aa15b-259f-4e69-9c10-9ad064f7be7c","ios":"levelo://app?vid=6b4aa15b-259f-4e69-9c10-9ad064f7be7c"},"vehicle_type_id":"4","last_reported":1777397301,"current_range_meters":6400,"station_id":"ce4bhih2rcd13ifvqfs0","pricing_plan_id":"cebpf4jnsgd1na2vs0mg"},{"bike_id":"ff5d0110-9dd0-417c-831c-046235ffca67","system_id":"levelo_inurba_marseille","lat":43.2696,"lon":5.38632,"is_reserved":false,"is_disabled":false,"rental_uris":{"android":"levelo://app?vid=ff5d0110-9dd0-417c-831c-046235ffca67","ios":"levelo://app?vid=ff5d0110-9dd0-417c-831c-046235ffca67"},"vehicle_type_id":"4","last_reported":1777397301,"current_range_meters":6400,"station_id":"ce4bhh92rcd13ifvqfh0","pricing_plan_id":"cebpf4jnsgd1na2vs0mg"},{"bike_id":"b4e349b1-3758-41c0-986d-367554a0653c","system_id":"levelo_inurba_marseille","lat":43.28037,"lon":5.36946,"is_reserved":false,"is_disabled":true,"rental_uris":{"android":"levelo://app?vid=b4e349b1-3758-41c0-986d-367554a0653c","ios":"levelo://app?vid=b4e349b1-3758-41c0-986d-367554a0653c"},"vehicle_type_id":"4","last_reported":1777397301,"current_range_meters":6800,"station_id":"ce4bha12rcd13ifvqef0","pricing_plan_id":"cebpf4jnsgd1na2vs0mg"},{"bike_id":"9657fe04-379d-47e1-9560-727a114ed63b","system_id":"levelo_inurba_marseille","lat":43.29266,"lon":5.38431,"is_reserved":false,"is_disabled":false,"rental_uris":{"android":"levelo://app?vid=9657fe04-379d-47e1-9560-727a114ed63b","ios":"levelo://app?vid=9657fe04-379d-47e1-9560-727a114ed63b"},"vehicle_type_id":"4","last_reported":1777397301,"current_range_meters":6800,"station_id":"ce4bh692rcd13ifvqea0","pricing_plan_id":"cebpf4jnsgd1na2vs0mg"},{"bike_id":"70f5e157-0b1e-460f-b820-a474d7f18294","system_id":"levelo_inurba_marseille","lat":43.28925,"lon":5.38903,"is_reserved":false,"is_disabled":false,"rental_uris":{"android":"levelo://app?vid=70f5e157-0b1e-460f-b820-a474d7f18294","ios":"levelo://app?vid=70f5e157-0b1e-460f-b820-a474d7f18294"},"vehicle_type_id":"4","last_reported":1777397301,"current_range_meters":6800,"station_id":"","pricing_plan_id":"cebpf4jnsgd1na2vs0mg"},{"bike_id":"66fd292d-5970-4e69-8ee6-9c6a1e0f9e63","system_id":"levelo_inurba_marseille","lat":43.2656,"lon":5.37306,"is_reserved":false,"is_disabled":true,"rental_uris":{"android":"levelo://app?vid=66fd292d-5970-4e69-8ee6-9c6a1e0f9e63","ios":"levelo://app?vid=66fd292d-5970-4e69-8ee6-9c6a1e0f9e63"},"vehicle_type_id":"4","last_reported":1777397301,"current_range_meters":6800,"station_id":"ce4bhg12rcd13ifvqf70","pricing_plan_id":"cebpf4jnsgd1na2vs0mg"},{"bike_id":"bdf457fa-3aa5-4438-906e-72d136f86bcb","system_id":"levelo_inurba_marseille","lat":43.31071,"lon":5.37154,"is_reserved":false,"is_disabled":false,"rental_uris":{"android":"levelo://app?vid=bdf457fa-3aa5-4438-906e-72d136f86bcb","ios":"levelo://app?vid=bdf457fa-3aa5-4438-906e-72d136f86bcb"},"vehicle_type_id":"4","last_reported":1777397301,"current_range_meters":6800,"station_id":"st_d4kl2rp97mjs73e7tdfg","pricing_plan_id":"cebpf4jnsgd1na2vs0mg"},{"bike_id":"591f6c8b-3d34-4d3b-b1b2-c443b79414b9","system_id":"levelo_inurba_marseille","lat":43.2894,"lon":5.36628,"is_reserved":false,"is_disabled":false,"rental_uris":{"android":"levelo://app?vid=591f6c8b-3d34-4d3b-b1b2-c443b79414b9","ios":"levelo://app?vid=591f6c8b-3d34-4d3b-b1b2-c443b79414b9"},"vehicle_type_id":"4","last_reported":1777397301,"current_range_meters":6800,"station_id":"ce4bhap2rcd13ifvqek0","pricing_plan_id":"cebpf4jnsgd1na2vs0mg"},{"bike_id":"d2276d1c-4dd8-4805-b674-72347073e05f","system_id":"levelo_inurba_marseille","lat":43.28843,"lon":5.42514,"is_reserved":false,"is_disabled":false,"rental_uris":{"android":"levelo://app?vid=d2276d1c-4dd8-4805-b674-72347073e05f","ios":"levelo://app?vid=d2276d1c-4dd8-4805-b674-72347073e05f"},"vehicle_type_id":"4","last_reported":1777397301,"current_range_meters":6800,"station_id":"st_d3b462108ojc7389ooeg","pricing_plan_id":"cebpf4jnsgd1na2vs0mg"},{"bike_id":"76907408-a8ff-4688-9cbf-66e48bb415e8","system_id":"levelo_inurba_marseille","lat":43.28725,"lon":5.46682,"is_reserved":false,"is_disabled":false,"rental_uris":{"android":"levelo://app?vid=76907408-a8ff-4688-9cbf-66e48bb415e8","ios":"levelo://app?vid=76907408-a8ff-4688-9cbf-66e48bb415e8"},"vehicle_type_id":"4","last_reported":1777397301,"current_range_meters":6800,"station_id":"st_d6tc3vkotcvc738tfjhg","pricing_plan_id":"cebpf4jnsgd1na2vs0mg"},{"bike_id":"997332d4-df23-4b30-9a89-2b858415e775","system_id":"levelo_inurba_marseille","lat":43.26033,"lon":5.37534,"is_reserved":false,"is_disabled":false,"rental_uris":{"android":"levelo://app?vid=997332d4-df23-4b30-9a89-2b858415e775","ios":"levelo://app?vid=997332d4-df23-4b30-9a89-2b858415e775"},"vehicle_type_id":"4","last_reported":1777397301,"current_range_meters":6800,"station_id":"ce4bhgh2rcd13ifvqfa0","pricing_plan_id":"cebpf4jnsgd1na2vs0mg"},{"bike_id":"f13c1412-9987-4b53-aa5c-79a6ecb2ba2d","system_id":"levelo_inurba_marseille","lat":43.32362,"lon":5.36755,"is_reserved":false,"is_disabled":false,"rental_uris":{"android":"levelo://app?vid=f13c1412-9987-4b53-aa5c-79a6ecb2ba2d","ios":"levelo://app?vid=f13c1412-9987-4b53-aa5c-79a6ecb2ba2d"},"vehicle_type_id":"4","last_reported":1777397301,"current_range_meters":6800,"station_id":"ce4bhsh2rcd13ifvqi2g","pricing_plan_id":"cebpf4jnsgd1na2vs0mg"},{"bike_id":"2edc5ea3-8a6b-4b3a-a083-d78f84f7ba32","system_id":"levelo_inurba_marseille","lat":43.2928,"lon":5.40123,"is_reserved":false,"is_disabled":false,"rental_uris":{"android":"levelo://app?vid=2edc5ea3-8a6b-4b3a-a083-d78f84f7ba32","ios":"levelo://app?vid=2edc5ea3-8a6b-4b3a-a083-d78f84f7ba32"},"vehicle_type_id":"4","last_reported":1777397301,"current_range_meters":6800,"station_id":"ce4bh312rcd13ifvqdk0","pricing_plan_id":"cebpf4jnsgd1na2vs0mg"},{"bike_id":"8b4e6bd3-1e82-4277-a45a-3a8abaa4e3ab","system_id":"levelo_inurba_marseille","lat":43.28474,"lon":5.48392,"is_reserved":false,"is_disabled":false,"rental_uris":{"android":"levelo://app?vid=8b4e6bd3-1e82-4277-a45a-3a8abaa4e3ab","ios":"levelo://app?vid=8b4e6bd3-1e82-4277-a45a-3a8abaa4e3ab"},"vehicle_type_id":"4","last_reported":1777397301,"current_range_meters":6800,"station_id":"","pricing_plan_id":"cebpf4jnsgd1na2vs0mg"},{"bike_id":"ef7c3ff1-f033-42a3-aa2e-3083ee5e5795","system_id":"levelo_inurba_marseille","lat":43.24169,"lon":5.36398,"is_reserved":false,"is_disabled":false,"rental_uris":{"android":"levelo://app?vid=ef7c3ff1-f033-42a3-aa2e-3083ee5e5795","ios":"levelo://app?vid=ef7c3ff1-f033-42a3-aa2e-3083ee5e5795"},"vehicle_type_id":"4","last_reported":1777397301,"current_range_meters":6800,"station_id":"cpo36qri1sfpv3e86is0","pricing_plan_id":"cebpf4jnsgd1na2vs0mg"},{"bike_id":"36b89cd3-0449-4ea1-868d-756b0d329a4a","system_id":"levelo_inurba_marseille","lat":43.29788,"lon":5.39353,"is_reserved":false,"is_disabled":false,"rental_uris":{"android":"levelo://app?vid=36b89cd3-0449-4ea1-868d-756b0d329a4a","ios":"levelo://app?vid=36b89cd3-0449-4ea1-868d-756b0d329a4a"},"vehicle_type_id":"4","last_reported":1777397301,"current_range_meters":6800,"station_id":"chh1huq6cuj3fo74tm60","pricing_plan_id":"cebpf4jnsgd1na2vs0mg"},{"bike_id":"c1fdc55c-a85b-4b94-b56b-911a03a5712c","system_id":"levelo_inurba_marseille","lat":43.27426,"lon":5.39415,"is_reserved":false,"is_disabled":true,"rental_uris":{"android":"levelo://app?vid=c1fdc55c-a85b-4b94-b56b-911a03a5712c","ios":"levelo://app?vid=c1fdc55c-a85b-4b94-b56b-911a03a5712c"},"vehicle_type_id":"4","last_reported":1777397301,"current_range_meters":7200,"station_id":"ce4bhdp2rcd13ifvqf20","pricing_plan_id":"cebpf4jnsgd1na2vs0mg"},{"bike_id":"5238f5a2-d9ed-468f-94e5-8a18831ee667","system_id":"levelo_inurba_marseille","lat":43.27998,"lon":5.41666,"is_reserved":false,"is_disabled":false,"rental_uris":{"android":"levelo://app?vid=5238f5a2-d9ed-468f-94e5-8a18831ee667","ios":"levelo://app?vid=5238f5a2-d9ed-468f-94e5-8a18831ee667"},"vehicle_type_id":"4","last_reported":1777397301,"current_range_meters":7200,"station_id":"ce4bho12rcd13ifvqh1g","pricing_plan_id":"cebpf4jnsgd1na2vs0mg"},{"bike_id":"bcd67e65-43b0-4b23-bb5c-0bdd7484ac57","system_id":"levelo_inurba_marseille","lat":43.33173,"lon":5.37785,"is_reserved":false,"is_disabled":false,"rental_uris":{"android":"levelo://app?vid=bcd67e65-43b0-4b23-bb5c-0bdd7484ac57","ios":"levelo://app?vid=bcd67e65-43b0-4b23-bb5c-0bdd7484ac57"},"vehicle_type_id":"4","last_reported":1777397301,"current_range_meters":7200,"station_id":"","pricing_plan_id":"cebpf4jnsgd1na2vs0mg"},{"bike_id":"dabc5e28-b9df-4b1a-affa-f2e365a8b45b","system_id":"levelo_inurba_marseille","lat":43.32118,"lon":5.36759,"is_reserved":false,"is_disabled":false,"rental_uris":{"android":"levelo://app?vid=dabc5e28-b9df-4b1a-affa-f2e365a8b45b","ios":"levelo://app?vid=dabc5e28-b9df-4b1a-affa-f2e365a8b45b"},"vehicle_type_id":"4","last_reported":1777397301,"current_range_meters":7200,"station_id":"ce4bhrh2rcd13ifvqhug","pricing_plan_id":"cebpf4jnsgd1na2vs0mg"},{"bike_id":"4541a58b-5803-4873-8531-8182c7674429","system_id":"levelo_inurba_marseille","lat":43.28474,"lon":5.48408,"is_reserved":false,"is_disabled":false,"rental_uris":{"android":"levelo://app?vid=4541a58b-5803-4873-8531-8182c7674429","ios":"levelo://app?vid=4541a58b-5803-4873-8531-8182c7674429"},"vehicle_type_id":"4","last_reported":1777397301,"current_range_meters":7200,"station_id":"st_d3svhcjqgbts73a3dn0g","pricing_plan_id":"cebpf4jnsgd1na2vs0mg"},{"bike_id":"6baa7b68-d4ea-4e9d-b829-0fc0a9c21591","system_id":"levelo_inurba_marseille","lat":43.29797,"lon":5.40395,"is_reserved":false,"is_disabled":false,"rental_uris":{"android":"levelo://app?vid=6baa7b68-d4ea-4e9d-b829-0fc0a9c21591","ios":"levelo://app?vid=6baa7b68-d4ea-4e9d-b829-0fc0a9c21591"},"vehicle_type_id":"4","last_reported":1777397301,"current_range_meters":7200,"station_id":"ce4bh112rcd13ifvqd90","pricing_plan_id":"cebpf4jnsgd1na2vs0mg"},{"bike_id":"e1d26622-7491-4fdf-a6f0-77cbc7cac2ef","system_id":"levelo_inurba_marseille","lat":43.24172,"lon":5.36397,"is_reserved":false,"is_disabled":true,"rental_uris":{"android":"levelo://app?vid=e1d26622-7491-4fdf-a6f0-77cbc7cac2ef","ios":"levelo://app?vid=e1d26622-7491-4fdf-a6f0-77cbc7cac2ef"},"vehicle_type_id":"4","last_reported":1777397301,"current_range_meters":7200,"station_id":"cpo36qri1sfpv3e86is0","pricing_plan_id":"cebpf4jnsgd1na2vs0mg"},{"bike_id":"72c4ccb8-9c06-4f24-9811-df6eccbecf29","system_id":"levelo_inurba_marseille","lat":43.24952,"lon":5.40483,"is_reserved":false,"is_disabled":false,"rental_uris":{"android":"levelo://app?vid=72c4ccb8-9c06-4f24-9811-df6eccbecf29","ios":"levelo://app?vid=72c4ccb8-9c06-4f24-9811-df6eccbecf29"},"vehicle_type_id":"4","last_reported":1777397301,"current_range_meters":7200,"station_id":"st_d2ngiaodas8pm72gd1h0","pricing_plan_id":"cebpf4jnsgd1na2vs0mg"},{"bike_id":"7daf469d-b57d-4bc0-b105-7a7ba033afa2","system_id":"levelo_inurba_marseille","lat":43.31326,"lon":5.39691,"is_reserved":false,"is_disabled":false,"rental_uris":{"android":"levelo://app?vid=7daf469d-b57d-4bc0-b105-7a7ba033afa2","ios":"levelo://app?vid=7daf469d-b57d-4bc0-b105-7a7ba033afa2"},"vehicle_type_id":"4","last_reported":1777397301,"current_range_meters":7200,"station_id":"ce4bgvp2rcd13ifvqcu0","pricing_plan_id":"cebpf4jnsgd1na2vs0mg"},{"bike_id":"27cbbdc8-76be-4943-abdc-2247bea40f15","system_id":"levelo_inurba_marseille","lat":43.284124,"lon":5.349978,"is_reserved":false,"is_disabled":false,"rental_uris":{"android":"levelo://app?vid=27cbbdc8-76be-4943-abdc-2247bea40f15","ios":"levelo://app?vid=27cbbdc8-76be-4943-abdc-2247bea40f15"},"vehicle_type_id":"4","last_reported":1777397301,"current_range_meters":7200,"station_id":"ce4bhbh2rcd13ifvqepg","pricing_plan_id":"cebpf4jnsgd1na2vs0mg"},{"bike_id":"1bf6bc57-f8be-4912-882e-8fb7d21ff70a","system_id":"levelo_inurba_marseille","lat":43.28943,"lon":5.38454,"is_reserved":false,"is_disabled":true,"rental_uris":{"android":"levelo://app?vid=1bf6bc57-f8be-4912-882e-8fb7d21ff70a","ios":"levelo://app?vid=1bf6bc57-f8be-4912-882e-8fb7d21ff70a"},"vehicle_type_id":"4","last_reported":1777397301,"current_range_meters":7200,"station_id":"ce4bh612rcd13ifvqe6g","pricing_plan_id":"cebpf4jnsgd1na2vs0mg"},{"bike_id":"963ad63d-bb00-4266-b1cc-ea4a169ad0ab","system_id":"levelo_inurba_marseille","lat":43.23184,"lon":5.39983,"is_reserved":false,"is_disabled":false,"rental_uris":{"android":"levelo://app?vid=963ad63d-bb00-4266-b1cc-ea4a169ad0ab","ios":"levelo://app?vid=963ad63d-bb00-4266-b1cc-ea4a169ad0ab"},"vehicle_type_id":"4","last_reported":1777397301,"current_range_meters":7200,"station_id":"ce4bhn12rcd13ifvqgqg","pricing_plan_id":"cebpf4jnsgd1na2vs0mg"},{"bike_id":"11effbb2-3489-4e85-aec9-0e018fcdcc03","system_id":"levelo_inurba_marseille","lat":43.23196,"lon":5.35553,"is_reserved":false,"is_disabled":false,"rental_uris":{"android":"levelo://app?vid=11effbb2-3489-4e85-aec9-0e018fcdcc03","ios":"levelo://app?vid=11effbb2-3489-4e85-aec9-0e018fcdcc03"},"vehicle_type_id":"4","last_reported":1777397301,"current_range_meters":7200,"station_id":"ce4bhu92rcd13ifvqi70","pricing_plan_id":"cebpf4jnsgd1na2vs0mg"},{"bike_id":"14e8562c-cd38-4655-8cd7-8392c45261ab","system_id":"levelo_inurba_marseille","lat":43.28384,"lon":5.39074,"is_reserved":false,"is_disabled":false,"rental_uris":{"android":"levelo://app?vid=14e8562c-cd38-4655-8cd7-8392c45261ab","ios":"levelo://app?vid=14e8562c-cd38-4655-8cd7-8392c45261ab"},"vehicle_type_id":"4","last_reported":1777397301,"current_range_meters":7200,"station_id":"","pricing_plan_id":"cebpf4jnsgd1na2vs0mg"},{"bike_id":"357d470b-3a20-4c8e-9b58-5c3a10a785ac","system_id":"levelo_inurba_marseille","lat":43.28413,"lon":5.35002,"is_reserved":false,"is_disabled":false,"rental_uris":{"android":"levelo://app?vid=357d470b-3a20-4c8e-9b58-5c3a10a785ac","ios":"levelo://app?vid=357d470b-3a20-4c8e-9b58-5c3a10a785ac"},"vehicle_type_id":"4","last_reported":1777397301,"current_range_meters":7200,"station_id":"ce4bhbh2rcd13ifvqepg","pricing_plan_id":"cebpf4jnsgd1na2vs0mg"},{"bike_id":"1e50c851-896e-44dc-a13c-da834270707c","system_id":"levelo_inurba_marseille","lat":43.27646,"lon":5.38924,"is_reserved":false,"is_disabled":true,"rental_uris":{"android":"levelo://app?vid=1e50c851-896e-44dc-a13c-da834270707c","ios":"levelo://app?vid=1e50c851-896e-44dc-a13c-da834270707c"},"vehicle_type_id":"4","last_reported":1777397301,"current_range_meters":7200,"station_id":"ce4bhi12rcd13ifvqfo0","pricing_plan_id":"cebpf4jnsgd1na2vs0mg"},{"bike_id":"3880dd00-fb82-4dc4-8052-b34010106d25","system_id":"levelo_inurba_marseille","lat":43.30898,"lon":5.36873,"is_reserved":false,"is_disabled":false,"rental_uris":{"android":"levelo://app?vid=3880dd00-fb82-4dc4-8052-b34010106d25","ios":"levelo://app?vid=3880dd00-fb82-4dc4-8052-b34010106d25"},"vehicle_type_id":"4","last_reported":1777397301,"current_range_meters":7200,"station_id":"ce4bgn92rcd13ifvqbvg","pricing_plan_id":"cebpf4jnsgd1na2vs0mg"},{"bike_id":"adfa86f3-2693-4db9-beb3-6549e397ab24","system_id":"levelo_inurba_marseille","lat":43.30549,"lon":5.38422,"is_reserved":false,"is_disabled":false,"rental_uris":{"android":"levelo://app?vid=adfa86f3-2693-4db9-beb3-6549e397ab24","ios":"levelo://app?vid=adfa86f3-2693-4db9-beb3-6549e397ab24"},"vehicle_type_id":"4","last_reported":1777397301,"current_range_meters":7200,"station_id":"ce4bgg92rcd13ifvqb30","pricing_plan_id":"cebpf4jnsgd1na2vs0mg"},{"bike_id":"82f4038e-95b4-4ca6-9b49-b844689794d6","system_id":"levelo_inurba_marseille","lat":43.29264,"lon":5.38435,"is_reserved":false,"is_disabled":false,"rental_uris":{"android":"levelo://app?vid=82f4038e-95b4-4ca6-9b49-b844689794d6","ios":"levelo://app?vid=82f4038e-95b4-4ca6-9b49-b844689794d6"},"vehicle_type_id":"4","last_reported":1777397301,"current_range_meters":7200,"station_id":"ce4bh692rcd13ifvqea0","pricing_plan_id":"cebpf4jnsgd1na2vs0mg"},{"bike_id":"9f543810-4dfb-4951-9c10-acd2d2940820","system_id":"levelo_inurba_marseille","lat":43.28579,"lon":5.39504,"is_reserved":false,"is_disabled":true,"rental_uris":{"android":"levelo://app?vid=9f543810-4dfb-4951-9c10-acd2d2940820","ios":"levelo://app?vid=9f543810-4dfb-4951-9c10-acd2d2940820"},"vehicle_type_id":"4","last_reported":1777397301,"current_range_meters":7200,"station_id":"ce4bh292rcd13ifvqdg0","pricing_plan_id":"cebpf4jnsgd1na2vs0mg"},{"bike_id":"0061473e-9ab4-4475-9805-59f85de65e62","system_id":"levelo_inurba_marseille","lat":43.28425,"lon":5.35005,"is_reserved":false,"is_disabled":false,"rental_uris":{"android":"levelo://app?vid=0061473e-9ab4-4475-9805-59f85de65e62","ios":"levelo://app?vid=0061473e-9ab4-4475-9805-59f85de65e62"},"vehicle_type_id":"4","last_reported":1777397301,"current_range_meters":7200,"station_id":"ce4bhbh2rcd13ifvqepg","pricing_plan_id":"cebpf4jnsgd1na2vs0mg"},{"bike_id":"568bd8fe-96e7-452e-a8f4-75da606f1240","system_id":"levelo_inurba_marseille","lat":43.2319,"lon":5.39969,"is_reserved":false,"is_disabled":false,"rental_uris":{"android":"levelo://app?vid=568bd8fe-96e7-452e-a8f4-75da606f1240","ios":"levelo://app?vid=568bd8fe-96e7-452e-a8f4-75da606f1240"},"vehicle_type_id":"4","last_reported":1777397301,"current_range_meters":7200,"station_id":"ce4bhn12rcd13ifvqgqg","pricing_plan_id":"cebpf4jnsgd1na2vs0mg"},{"bike_id":"08fede73-ab6f-4a91-b6b9-a61e63d4f1f2","system_id":"levelo_inurba_marseille","lat":43.23768,"lon":5.367,"is_reserved":false,"is_disabled":false,"rental_uris":{"android":"levelo://app?vid=08fede73-ab6f-4a91-b6b9-a61e63d4f1f2","ios":"levelo://app?vid=08fede73-ab6f-4a91-b6b9-a61e63d4f1f2"},"vehicle_type_id":"4","last_reported":1777397301,"current_range_meters":7200,"station_id":"","pricing_plan_id":"cebpf4jnsgd1na2vs0mg"},{"bike_id":"e6971f60-2b16-4b1a-882d-ddc811629fd6","system_id":"levelo_inurba_marseille","lat":43.29977,"lon":5.38466,"is_reserved":false,"is_disabled":false,"rental_uris":{"android":"levelo://app?vid=e6971f60-2b16-4b1a-882d-ddc811629fd6","ios":"levelo://app?vid=e6971f60-2b16-4b1a-882d-ddc811629fd6"},"vehicle_type_id":"4","last_reported":1777397301,"current_range_meters":8000,"station_id":"ce4bgj92rcd13ifvqbd0","pricing_plan_id":"cebpf4jnsgd1na2vs0mg"},{"bike_id":"fceb4850-6c24-4b20-9118-090928fd1a6b","system_id":"levelo_inurba_marseille","lat":43.30133,"lon":5.3987,"is_reserved":false,"is_disabled":false,"rental_uris":{"android":"levelo://app?vid=fceb4850-6c24-4b20-9118-090928fd1a6b","ios":"levelo://app?vid=fceb4850-6c24-4b20-9118-090928fd1a6b"},"vehicle_type_id":"4","last_reported":1777397301,"current_range_meters":8000,"station_id":"ce4bh0h2rcd13ifvqd40","pricing_plan_id":"cebpf4jnsgd1na2vs0mg"},{"bike_id":"f876cb19-0749-40f4-8bd3-e18d1d5c19e4","system_id":"levelo_inurba_marseille","lat":43.31283,"lon":5.40169,"is_reserved":false,"is_disabled":false,"rental_uris":{"android":"levelo://app?vid=f876cb19-0749-40f4-8bd3-e18d1d5c19e4","ios":"levelo://app?vid=f876cb19-0749-40f4-8bd3-e18d1d5c19e4"},"vehicle_type_id":"4","last_reported":1777397301,"current_range_meters":8000,"station_id":"ce4bh092rcd13ifvqd30","pricing_plan_id":"cebpf4jnsgd1na2vs0mg"},{"bike_id":"ee6e6492-3b3f-4673-947e-83a699788251","system_id":"levelo_inurba_marseille","lat":43.29786,"lon":5.37088,"is_reserved":false,"is_disabled":false,"rental_uris":{"android":"levelo://app?vid=ee6e6492-3b3f-4673-947e-83a699788251","ios":"levelo://app?vid=ee6e6492-3b3f-4673-947e-83a699788251"},"vehicle_type_id":"4","last_reported":1777397301,"current_range_meters":8000,"station_id":"ce4bgop2rcd13ifvqc1g","pricing_plan_id":"cebpf4jnsgd1na2vs0mg"},{"bike_id":"47ee972e-4cfa-44de-bd31-63a3787a2eda","system_id":"levelo_inurba_marseille","lat":43.271717,"lon":5.409899,"is_reserved":false,"is_disabled":false,"rental_uris":{"android":"levelo://app?vid=47ee972e-4cfa-44de-bd31-63a3787a2eda","ios":"levelo://app?vid=47ee972e-4cfa-44de-bd31-63a3787a2eda"},"vehicle_type_id":"4","last_reported":1777397301,"current_range_meters":8000,"station_id":"ce4bhl12rcd13ifvqgf0","pricing_plan_id":"cebpf4jnsgd1na2vs0mg"},{"bike_id":"e2605e88-9f7b-49cc-8a63-119a038d9512","system_id":"levelo_inurba_marseille","lat":43.25622,"lon":5.38577,"is_reserved":false,"is_disabled":false,"rental_uris":{"android":"levelo://app?vid=e2605e88-9f7b-49cc-8a63-119a038d9512","ios":"levelo://app?vid=e2605e88-9f7b-49cc-8a63-119a038d9512"},"vehicle_type_id":"4","last_reported":1777397301,"current_range_meters":8000,"station_id":"","pricing_plan_id":"cebpf4jnsgd1na2vs0mg"},{"bike_id":"0257a1bd-686f-4605-bc40-ed3db15deace","system_id":"levelo_inurba_marseille","lat":43.31171,"lon":5.38727,"is_reserved":false,"is_disabled":false,"rental_uris":{"android":"levelo://app?vid=0257a1bd-686f-4605-bc40-ed3db15deace","ios":"levelo://app?vid=0257a1bd-686f-4605-bc40-ed3db15deace"},"vehicle_type_id":"4","last_reported":1777397301,"current_range_meters":8000,"station_id":"ce4bgv12rcd13ifvqcp0","pricing_plan_id":"cebpf4jnsgd1na2vs0mg"},{"bike_id":"ccc64b12-fba8-4953-9e4c-789c15629674","system_id":"levelo_inurba_marseille","lat":43.23206,"lon":5.35082,"is_reserved":false,"is_disabled":false,"rental_uris":{"android":"levelo://app?vid=ccc64b12-fba8-4953-9e4c-789c15629674","ios":"levelo://app?vid=ccc64b12-fba8-4953-9e4c-789c15629674"},"vehicle_type_id":"4","last_reported":1777397301,"current_range_meters":8000,"station_id":"","pricing_plan_id":"cebpf4jnsgd1na2vs0mg"},{"bike_id":"550b61bf-024e-4f9e-9492-2a8f7afeae1e","system_id":"levelo_inurba_marseille","lat":43.30852,"lon":5.40523,"is_reserved":false,"is_disabled":false,"rental_uris":{"android":"levelo://app?vid=550b61bf-024e-4f9e-9492-2a8f7afeae1e","ios":"levelo://app?vid=550b61bf-024e-4f9e-9492-2a8f7afeae1e"},"vehicle_type_id":"4","last_reported":1777397301,"current_range_meters":8000,"station_id":"","pricing_plan_id":"cebpf4jnsgd1na2vs0mg"},{"bike_id":"dda1b10a-1162-4c4b-b859-aa54bc8756cc","system_id":"levelo_inurba_marseille","lat":43.29628,"lon":5.40605,"is_reserved":false,"is_disabled":false,"rental_uris":{"android":"levelo://app?vid=dda1b10a-1162-4c4b-b859-aa54bc8756cc","ios":"levelo://app?vid=dda1b10a-1162-4c4b-b859-aa54bc8756cc"},"vehicle_type_id":"4","last_reported":1777397301,"current_range_meters":8000,"station_id":"ce4bh0h2rcd13ifvqd60","pricing_plan_id":"cebpf4jnsgd1na2vs0mg"},{"bike_id":"dc49c7fd-3a90-4657-ab11-4be72a54d9a0","system_id":"levelo_inurba_marseille","lat":43.29884,"lon":5.39731,"is_reserved":false,"is_disabled":false,"rental_uris":{"android":"levelo://app?vid=dc49c7fd-3a90-4657-ab11-4be72a54d9a0","ios":"levelo://app?vid=dc49c7fd-3a90-4657-ab11-4be72a54d9a0"},"vehicle_type_id":"4","last_reported":1777397301,"current_range_meters":8000,"station_id":"ce4bh0h2rcd13ifvqd50","pricing_plan_id":"cebpf4jnsgd1na2vs0mg"},{"bike_id":"bfa5791a-051d-47da-a49e-b9975c822958","system_id":"levelo_inurba_marseille","lat":43.293847,"lon":5.372527,"is_reserved":false,"is_disabled":false,"rental_uris":{"android":"levelo://app?vid=bfa5791a-051d-47da-a49e-b9975c822958","ios":"levelo://app?vid=bfa5791a-051d-47da-a49e-b9975c822958"},"vehicle_type_id":"4","last_reported":1777397301,"current_range_meters":8000,"station_id":"ce4bgi12rcd13ifvqb70","pricing_plan_id":"cebpf4jnsgd1na2vs0mg"},{"bike_id":"7411c997-4373-4930-94c6-bccc1a2fb4d9","system_id":"levelo_inurba_marseille","lat":43.30291,"lon":5.39918,"is_reserved":false,"is_disabled":false,"rental_uris":{"android":"levelo://app?vid=7411c997-4373-4930-94c6-bccc1a2fb4d9","ios":"levelo://app?vid=7411c997-4373-4930-94c6-bccc1a2fb4d9"},"vehicle_type_id":"4","last_reported":1777397301,"current_range_meters":8000,"station_id":"","pricing_plan_id":"cebpf4jnsgd1na2vs0mg"},{"bike_id":"085bcbf1-50b6-4543-8549-76369abec0d2","system_id":"levelo_inurba_marseille","lat":43.28224,"lon":5.39066,"is_reserved":false,"is_disabled":false,"rental_uris":{"android":"levelo://app?vid=085bcbf1-50b6-4543-8549-76369abec0d2","ios":"levelo://app?vid=085bcbf1-50b6-4543-8549-76369abec0d2"},"vehicle_type_id":"4","last_reported":1777397301,"current_range_meters":8000,"station_id":"ce4bhn92rcd13ifvqgsg","pricing_plan_id":"cebpf4jnsgd1na2vs0mg"},{"bike_id":"141e77b6-2017-4747-bb62-655ab23b61ba","system_id":"levelo_inurba_marseille","lat":43.29257,"lon":5.38442,"is_reserved":false,"is_disabled":false,"rental_uris":{"android":"levelo://app?vid=141e77b6-2017-4747-bb62-655ab23b61ba","ios":"levelo://app?vid=141e77b6-2017-4747-bb62-655ab23b61ba"},"vehicle_type_id":"4","last_reported":1777397301,"current_range_meters":8000,"station_id":"ce4bh692rcd13ifvqea0","pricing_plan_id":"cebpf4jnsgd1na2vs0mg"},{"bike_id":"2cccef52-caca-4abd-9340-4e4da40e7fc5","system_id":"levelo_inurba_marseille","lat":43.22936,"lon":5.35378,"is_reserved":false,"is_disabled":false,"rental_uris":{"android":"levelo://app?vid=2cccef52-caca-4abd-9340-4e4da40e7fc5","ios":"levelo://app?vid=2cccef52-caca-4abd-9340-4e4da40e7fc5"},"vehicle_type_id":"4","last_reported":1777397301,"current_range_meters":8000,"station_id":"cpo3532slgdg3j2ikp40","pricing_plan_id":"cebpf4jnsgd1na2vs0mg"},{"bike_id":"b4e64bbd-db1b-46f6-acf8-00e89d743eb5","system_id":"levelo_inurba_marseille","lat":43.29714,"lon":5.36595,"is_reserved":false,"is_disabled":false,"rental_uris":{"android":"levelo://app?vid=b4e64bbd-db1b-46f6-acf8-00e89d743eb5","ios":"levelo://app?vid=b4e64bbd-db1b-46f6-acf8-00e89d743eb5"},"vehicle_type_id":"4","last_reported":1777397301,"current_range_meters":8400,"station_id":"ce4bgn12rcd13ifvqbt0","pricing_plan_id":"cebpf4jnsgd1na2vs0mg"},{"bike_id":"e116e98a-e7c1-4e2d-9ae3-1a759c33b548","system_id":"levelo_inurba_marseille","lat":43.337444,"lon":5.374475,"is_reserved":false,"is_disabled":false,"rental_uris":{"android":"levelo://app?vid=e116e98a-e7c1-4e2d-9ae3-1a759c33b548","ios":"levelo://app?vid=e116e98a-e7c1-4e2d-9ae3-1a759c33b548"},"vehicle_type_id":"4","last_reported":1777397301,"current_range_meters":8400,"station_id":"ce4bgop2rcd13ifvqc1g","pricing_plan_id":"cebpf4jnsgd1na2vs0mg"},{"bike_id":"23b9edcd-305b-48b3-b42b-c5b2d1a2cdca","system_id":"levelo_inurba_marseille","lat":43.27049,"lon":5.38634,"is_reserved":false,"is_disabled":false,"rental_uris":{"android":"levelo://app?vid=23b9edcd-305b-48b3-b42b-c5b2d1a2cdca","ios":"levelo://app?vid=23b9edcd-305b-48b3-b42b-c5b2d1a2cdca"},"vehicle_type_id":"4","last_reported":1777397301,"current_range_meters":8400,"station_id":"","pricing_plan_id":"cebpf4jnsgd1na2vs0mg"},{"bike_id":"e95739bb-1255-4c8c-8ec8-ee8d9c764ba7","system_id":"levelo_inurba_marseille","lat":43.27362,"lon":5.3626,"is_reserved":false,"is_disabled":false,"rental_uris":{"android":"levelo://app?vid=e95739bb-1255-4c8c-8ec8-ee8d9c764ba7","ios":"levelo://app?vid=e95739bb-1255-4c8c-8ec8-ee8d9c764ba7"},"vehicle_type_id":"4","last_reported":1777397301,"current_range_meters":8400,"station_id":"ce4bhbh2rcd13ifvqeo0","pricing_plan_id":"cebpf4jnsgd1na2vs0mg"},{"bike_id":"4b4f472d-a020-4f64-bae6-1a6482749aa2","system_id":"levelo_inurba_marseille","lat":43.28284,"lon":5.35073,"is_reserved":false,"is_disabled":false,"rental_uris":{"android":"levelo://app?vid=4b4f472d-a020-4f64-bae6-1a6482749aa2","ios":"levelo://app?vid=4b4f472d-a020-4f64-bae6-1a6482749aa2"},"vehicle_type_id":"4","last_reported":1777397301,"current_range_meters":8400,"station_id":"ce4bhbp2rcd13ifvqerg","pricing_plan_id":"cebpf4jnsgd1na2vs0mg"},{"bike_id":"a24a44e8-36ce-4573-9b5b-bd5b8568c6d5","system_id":"levelo_inurba_marseille","lat":43.26031,"lon":5.37553,"is_reserved":false,"is_disabled":false,"rental_uris":{"android":"levelo://app?vid=a24a44e8-36ce-4573-9b5b-bd5b8568c6d5","ios":"levelo://app?vid=a24a44e8-36ce-4573-9b5b-bd5b8568c6d5"},"vehicle_type_id":"4","last_reported":1777397301,"current_range_meters":8400,"station_id":"ce4bhgh2rcd13ifvqfa0","pricing_plan_id":"cebpf4jnsgd1na2vs0mg"},{"bike_id":"64caf656-9c5b-4754-be7e-5471268d2436","system_id":"levelo_inurba_marseille","lat":43.29033,"lon":5.3865,"is_reserved":false,"is_disabled":true,"rental_uris":{"android":"levelo://app?vid=64caf656-9c5b-4754-be7e-5471268d2436","ios":"levelo://app?vid=64caf656-9c5b-4754-be7e-5471268d2436"},"vehicle_type_id":"4","last_reported":1777397301,"current_range_meters":8400,"station_id":"ce4bh4p2rcd13ifvqe0g","pricing_plan_id":"cebpf4jnsgd1na2vs0mg"},{"bike_id":"1d21bf35-3acf-4724-8842-ea167e0e0c05","system_id":"levelo_inurba_marseille","lat":43.31267,"lon":5.40183,"is_reserved":false,"is_disabled":false,"rental_uris":{"android":"levelo://app?vid=1d21bf35-3acf-4724-8842-ea167e0e0c05","ios":"levelo://app?vid=1d21bf35-3acf-4724-8842-ea167e0e0c05"},"vehicle_type_id":"4","last_reported":1777397301,"current_range_meters":8400,"station_id":"ce4bh092rcd13ifvqd30","pricing_plan_id":"cebpf4jnsgd1na2vs0mg"},{"bike_id":"05e2779a-a1fa-424f-9dde-3bcada555894","system_id":"levelo_inurba_marseille","lat":43.29887,"lon":5.39728,"is_reserved":false,"is_disabled":false,"rental_uris":{"android":"levelo://app?vid=05e2779a-a1fa-424f-9dde-3bcada555894","ios":"levelo://app?vid=05e2779a-a1fa-424f-9dde-3bcada555894"},"vehicle_type_id":"4","last_reported":1777397301,"current_range_meters":8400,"station_id":"ce4bh0h2rcd13ifvqd50","pricing_plan_id":"cebpf4jnsgd1na2vs0mg"},{"bike_id":"dbf6c680-c4d9-4e99-a8ba-f7dffecd5f63","system_id":"levelo_inurba_marseille","lat":43.28412,"lon":5.35002,"is_reserved":false,"is_disabled":false,"rental_uris":{"android":"levelo://app?vid=dbf6c680-c4d9-4e99-a8ba-f7dffecd5f63","ios":"levelo://app?vid=dbf6c680-c4d9-4e99-a8ba-f7dffecd5f63"},"vehicle_type_id":"4","last_reported":1777397301,"current_range_meters":8400,"station_id":"ce4bhbh2rcd13ifvqepg","pricing_plan_id":"cebpf4jnsgd1na2vs0mg"},{"bike_id":"c5fb7c9c-a63a-49a1-8aed-b33f29d7e52d","system_id":"levelo_inurba_marseille","lat":43.24658,"lon":5.3889,"is_reserved":false,"is_disabled":false,"rental_uris":{"android":"levelo://app?vid=c5fb7c9c-a63a-49a1-8aed-b33f29d7e52d","ios":"levelo://app?vid=c5fb7c9c-a63a-49a1-8aed-b33f29d7e52d"},"vehicle_type_id":"4","last_reported":1777397301,"current_range_meters":8400,"station_id":"ce4bhg12rcd13ifvqf60","pricing_plan_id":"cebpf4jnsgd1na2vs0mg"},{"bike_id":"8ddf78e6-7053-4f51-a052-cbf410efa6bf","system_id":"levelo_inurba_marseille","lat":43.31179,"lon":5.36849,"is_reserved":false,"is_disabled":false,"rental_uris":{"android":"levelo://app?vid=8ddf78e6-7053-4f51-a052-cbf410efa6bf","ios":"levelo://app?vid=8ddf78e6-7053-4f51-a052-cbf410efa6bf"},"vehicle_type_id":"4","last_reported":1777397301,"current_range_meters":8400,"station_id":"ce4bgl92rcd13ifvqbq0","pricing_plan_id":"cebpf4jnsgd1na2vs0mg"},{"bike_id":"5cf5cac4-304b-4407-a8e5-357d3ab6bc0b","system_id":"levelo_inurba_marseille","lat":43.23896,"lon":5.37464,"is_reserved":false,"is_disabled":true,"rental_uris":{"android":"levelo://app?vid=5cf5cac4-304b-4407-a8e5-357d3ab6bc0b","ios":"levelo://app?vid=5cf5cac4-304b-4407-a8e5-357d3ab6bc0b"},"vehicle_type_id":"4","last_reported":1777397301,"current_range_meters":8400,"station_id":"st_d6sm7csbq4hs73f8fpjg","pricing_plan_id":"cebpf4jnsgd1na2vs0mg"},{"bike_id":"ef809088-19f7-4902-a559-51469dadba8c","system_id":"levelo_inurba_marseille","lat":43.27114,"lon":5.39108,"is_reserved":false,"is_disabled":false,"rental_uris":{"android":"levelo://app?vid=ef809088-19f7-4902-a559-51469dadba8c","ios":"levelo://app?vid=ef809088-19f7-4902-a559-51469dadba8c"},"vehicle_type_id":"4","last_reported":1777397301,"current_range_meters":8400,"station_id":"","pricing_plan_id":"cebpf4jnsgd1na2vs0mg"},{"bike_id":"40c3f170-6a36-4cca-b75a-fe03b77910d7","system_id":"levelo_inurba_marseille","lat":43.28731,"lon":5.3609,"is_reserved":false,"is_disabled":false,"rental_uris":{"android":"levelo://app?vid=40c3f170-6a36-4cca-b75a-fe03b77910d7","ios":"levelo://app?vid=40c3f170-6a36-4cca-b75a-fe03b77910d7"},"vehicle_type_id":"4","last_reported":1777397301,"current_range_meters":8400,"station_id":"cki0cbj6b192h4jlfktg","pricing_plan_id":"cebpf4jnsgd1na2vs0mg"},{"bike_id":"ead0a165-6f37-496a-bde0-66b1ac4811d6","system_id":"levelo_inurba_marseille","lat":43.28699,"lon":5.3739,"is_reserved":false,"is_disabled":false,"rental_uris":{"android":"levelo://app?vid=ead0a165-6f37-496a-bde0-66b1ac4811d6","ios":"levelo://app?vid=ead0a165-6f37-496a-bde0-66b1ac4811d6"},"vehicle_type_id":"4","last_reported":1777397301,"current_range_meters":8400,"station_id":"ce4bh3p2rcd13ifvqdq0","pricing_plan_id":"cebpf4jnsgd1na2vs0mg"},{"bike_id":"f11e3633-986d-40f4-8b5f-6b5e41220dfc","system_id":"levelo_inurba_marseille","lat":43.31904,"lon":5.36812,"is_reserved":false,"is_disabled":false,"rental_uris":{"android":"levelo://app?vid=f11e3633-986d-40f4-8b5f-6b5e41220dfc","ios":"levelo://app?vid=f11e3633-986d-40f4-8b5f-6b5e41220dfc"},"vehicle_type_id":"4","last_reported":1777397301,"current_range_meters":8400,"station_id":"st_d6o2h0d0559c73evc1b0","pricing_plan_id":"cebpf4jnsgd1na2vs0mg"},{"bike_id":"04d07930-42f0-4c92-9bce-6eaea7bbfac2","system_id":"levelo_inurba_marseille","lat":43.29569,"lon":5.38384,"is_reserved":false,"is_disabled":false,"rental_uris":{"android":"levelo://app?vid=04d07930-42f0-4c92-9bce-6eaea7bbfac2","ios":"levelo://app?vid=04d07930-42f0-4c92-9bce-6eaea7bbfac2"},"vehicle_type_id":"4","last_reported":1777397301,"current_range_meters":8400,"station_id":"","pricing_plan_id":"cebpf4jnsgd1na2vs0mg"},{"bike_id":"ef3a68ef-5b94-411a-921f-f7cda00ffdfc","system_id":"levelo_inurba_marseille","lat":43.29528,"lon":5.39023,"is_reserved":false,"is_disabled":false,"rental_uris":{"android":"levelo://app?vid=ef3a68ef-5b94-411a-921f-f7cda00ffdfc","ios":"levelo://app?vid=ef3a68ef-5b94-411a-921f-f7cda00ffdfc"},"vehicle_type_id":"4","last_reported":1777397301,"current_range_meters":8400,"station_id":"ce4bh3p2rcd13ifvqdp0","pricing_plan_id":"cebpf4jnsgd1na2vs0mg"},{"bike_id":"90d143e4-3bd2-4f5d-899a-16b3c4aff3f5","system_id":"levelo_inurba_marseille","lat":43.30135,"lon":5.39874,"is_reserved":false,"is_disabled":false,"rental_uris":{"android":"levelo://app?vid=90d143e4-3bd2-4f5d-899a-16b3c4aff3f5","ios":"levelo://app?vid=90d143e4-3bd2-4f5d-899a-16b3c4aff3f5"},"vehicle_type_id":"4","last_reported":1777397301,"current_range_meters":8400,"station_id":"ce4bh0h2rcd13ifvqd40","pricing_plan_id":"cebpf4jnsgd1na2vs0mg"},{"bike_id":"fadbd9a5-2a49-4734-8db0-528994d97e40","system_id":"levelo_inurba_marseille","lat":43.29272,"lon":5.38362,"is_reserved":false,"is_disabled":false,"rental_uris":{"android":"levelo://app?vid=fadbd9a5-2a49-4734-8db0-528994d97e40","ios":"levelo://app?vid=fadbd9a5-2a49-4734-8db0-528994d97e40"},"vehicle_type_id":"4","last_reported":1777397301,"current_range_meters":8400,"station_id":"","pricing_plan_id":"cebpf4jnsgd1na2vs0mg"},{"bike_id":"01c578b5-d3ac-4295-8963-0b85678912d1","system_id":"levelo_inurba_marseille","lat":43.28409,"lon":5.37521,"is_reserved":false,"is_disabled":false,"rental_uris":{"android":"levelo://app?vid=01c578b5-d3ac-4295-8963-0b85678912d1","ios":"levelo://app?vid=01c578b5-d3ac-4295-8963-0b85678912d1"},"vehicle_type_id":"4","last_reported":1777397301,"current_range_meters":8400,"station_id":"ce4bh412rcd13ifvqds0","pricing_plan_id":"cebpf4jnsgd1na2vs0mg"},{"bike_id":"65382d33-5c1c-45ad-9f10-3e6e87139089","system_id":"levelo_inurba_marseille","lat":43.30917,"lon":5.36804,"is_reserved":false,"is_disabled":false,"rental_uris":{"android":"levelo://app?vid=65382d33-5c1c-45ad-9f10-3e6e87139089","ios":"levelo://app?vid=65382d33-5c1c-45ad-9f10-3e6e87139089"},"vehicle_type_id":"4","last_reported":1777397301,"current_range_meters":8400,"station_id":"ce4bgn92rcd13ifvqbvg","pricing_plan_id":"cebpf4jnsgd1na2vs0mg"},{"bike_id":"475b56ab-fd61-45ae-be40-05696313ed1d","system_id":"levelo_inurba_marseille","lat":43.29415,"lon":5.40179,"is_reserved":false,"is_disabled":true,"rental_uris":{"android":"levelo://app?vid=475b56ab-fd61-45ae-be40-05696313ed1d","ios":"levelo://app?vid=475b56ab-fd61-45ae-be40-05696313ed1d"},"vehicle_type_id":"4","last_reported":1777397301,"current_range_meters":8400,"station_id":"","pricing_plan_id":"cebpf4jnsgd1na2vs0mg"},{"bike_id":"a0faf62e-3fd3-41e6-8c3f-14765bb7d79d","system_id":"levelo_inurba_marseille","lat":43.29607,"lon":5.38017,"is_reserved":false,"is_disabled":false,"rental_uris":{"android":"levelo://app?vid=a0faf62e-3fd3-41e6-8c3f-14765bb7d79d","ios":"levelo://app?vid=a0faf62e-3fd3-41e6-8c3f-14765bb7d79d"},"vehicle_type_id":"4","last_reported":1777397301,"current_range_meters":8400,"station_id":"","pricing_plan_id":"cebpf4jnsgd1na2vs0mg"},{"bike_id":"6fea8e66-72ac-4e1d-ad5e-35ac0653ba28","system_id":"levelo_inurba_marseille","lat":43.3355,"lon":5.3745,"is_reserved":false,"is_disabled":false,"rental_uris":{"android":"levelo://app?vid=6fea8e66-72ac-4e1d-ad5e-35ac0653ba28","ios":"levelo://app?vid=6fea8e66-72ac-4e1d-ad5e-35ac0653ba28"},"vehicle_type_id":"4","last_reported":1777397301,"current_range_meters":8400,"station_id":"st_d46tts09ee8s73dlu43g","pricing_plan_id":"cebpf4jnsgd1na2vs0mg"},{"bike_id":"b9bfed38-fcc0-471c-8f98-51a1dc44f45e","system_id":"levelo_inurba_marseille","lat":43.26056,"lon":5.39402,"is_reserved":false,"is_disabled":false,"rental_uris":{"android":"levelo://app?vid=b9bfed38-fcc0-471c-8f98-51a1dc44f45e","ios":"levelo://app?vid=b9bfed38-fcc0-471c-8f98-51a1dc44f45e"},"vehicle_type_id":"4","last_reported":1777397301,"current_range_meters":8800,"station_id":"ce4bhh92rcd13ifvqfj0","pricing_plan_id":"cebpf4jnsgd1na2vs0mg"},{"bike_id":"870cf028-d317-4365-88b3-cfc8b2733cc6","system_id":"levelo_inurba_marseille","lat":43.287,"lon":5.46689,"is_reserved":false,"is_disabled":false,"rental_uris":{"android":"levelo://app?vid=870cf028-d317-4365-88b3-cfc8b2733cc6","ios":"levelo://app?vid=870cf028-d317-4365-88b3-cfc8b2733cc6"},"vehicle_type_id":"4","last_reported":1777397301,"current_range_meters":8800,"station_id":"st_d6tc3vkotcvc738tfjhg","pricing_plan_id":"cebpf4jnsgd1na2vs0mg"},{"bike_id":"2fc2df49-00fa-46f9-ba9c-9be9fcf73fa8","system_id":"levelo_inurba_marseille","lat":43.27817,"lon":5.40697,"is_reserved":false,"is_disabled":false,"rental_uris":{"android":"levelo://app?vid=2fc2df49-00fa-46f9-ba9c-9be9fcf73fa8","ios":"levelo://app?vid=2fc2df49-00fa-46f9-ba9c-9be9fcf73fa8"},"vehicle_type_id":"4","last_reported":1777397301,"current_range_meters":8800,"station_id":"ce4bhnh2rcd13ifvqgtg","pricing_plan_id":"cebpf4jnsgd1na2vs0mg"},{"bike_id":"b9c0ca4a-61af-4a0b-994f-7b554a71a91c","system_id":"levelo_inurba_marseille","lat":43.32365,"lon":5.36774,"is_reserved":false,"is_disabled":false,"rental_uris":{"android":"levelo://app?vid=b9c0ca4a-61af-4a0b-994f-7b554a71a91c","ios":"levelo://app?vid=b9c0ca4a-61af-4a0b-994f-7b554a71a91c"},"vehicle_type_id":"4","last_reported":1777397301,"current_range_meters":8800,"station_id":"ce4bhsh2rcd13ifvqi2g","pricing_plan_id":"cebpf4jnsgd1na2vs0mg"},{"bike_id":"5024ef06-f3f6-4c38-8fca-6a759a92d3b5","system_id":"levelo_inurba_marseille","lat":43.29988,"lon":5.38503,"is_reserved":false,"is_disabled":false,"rental_uris":{"android":"levelo://app?vid=5024ef06-f3f6-4c38-8fca-6a759a92d3b5","ios":"levelo://app?vid=5024ef06-f3f6-4c38-8fca-6a759a92d3b5"},"vehicle_type_id":"4","last_reported":1777397301,"current_range_meters":8800,"station_id":"ce4bgj92rcd13ifvqbd0","pricing_plan_id":"cebpf4jnsgd1na2vs0mg"},{"bike_id":"a3c484a7-0968-485f-810e-87d5d8f11fb2","system_id":"levelo_inurba_marseille","lat":43.30547,"lon":5.36566,"is_reserved":false,"is_disabled":false,"rental_uris":{"android":"levelo://app?vid=a3c484a7-0968-485f-810e-87d5d8f11fb2","ios":"levelo://app?vid=a3c484a7-0968-485f-810e-87d5d8f11fb2"},"vehicle_type_id":"4","last_reported":1777397301,"current_range_meters":8800,"station_id":"ce4bgs12rcd13ifvqcag","pricing_plan_id":"cebpf4jnsgd1na2vs0mg"},{"bike_id":"324cb8f9-3560-454a-897b-be69dd40e99c","system_id":"levelo_inurba_marseille","lat":43.28404,"lon":5.3752,"is_reserved":false,"is_disabled":false,"rental_uris":{"android":"levelo://app?vid=324cb8f9-3560-454a-897b-be69dd40e99c","ios":"levelo://app?vid=324cb8f9-3560-454a-897b-be69dd40e99c"},"vehicle_type_id":"4","last_reported":1777397301,"current_range_meters":8800,"station_id":"ce4bh412rcd13ifvqds0","pricing_plan_id":"cebpf4jnsgd1na2vs0mg"},{"bike_id":"472878c6-3caa-47af-9b21-86468fa136a9","system_id":"levelo_inurba_marseille","lat":43.28614,"lon":5.37062,"is_reserved":false,"is_disabled":false,"rental_uris":{"android":"levelo://app?vid=472878c6-3caa-47af-9b21-86468fa136a9","ios":"levelo://app?vid=472878c6-3caa-47af-9b21-86468fa136a9"},"vehicle_type_id":"4","last_reported":1777397301,"current_range_meters":8800,"station_id":"ce4bht12rcd13ifvqi60","pricing_plan_id":"cebpf4jnsgd1na2vs0mg"},{"bike_id":"ee5bca21-2a39-4c24-aced-c94d2451e251","system_id":"levelo_inurba_marseille","lat":43.27993,"lon":5.41655,"is_reserved":false,"is_disabled":false,"rental_uris":{"android":"levelo://app?vid=ee5bca21-2a39-4c24-aced-c94d2451e251","ios":"levelo://app?vid=ee5bca21-2a39-4c24-aced-c94d2451e251"},"vehicle_type_id":"4","last_reported":1777397301,"current_range_meters":8800,"station_id":"ce4bho12rcd13ifvqh1g","pricing_plan_id":"cebpf4jnsgd1na2vs0mg"},{"bike_id":"0b359e2d-2066-4550-b078-babef0425322","system_id":"levelo_inurba_marseille","lat":43.29253,"lon":5.38446,"is_reserved":false,"is_disabled":false,"rental_uris":{"android":"levelo://app?vid=0b359e2d-2066-4550-b078-babef0425322","ios":"levelo://app?vid=0b359e2d-2066-4550-b078-babef0425322"},"vehicle_type_id":"4","last_reported":1777397301,"current_range_meters":8800,"station_id":"ce4bh692rcd13ifvqea0","pricing_plan_id":"cebpf4jnsgd1na2vs0mg"},{"bike_id":"e81022dd-19c8-4204-a3cc-bd5e81a601c4","system_id":"levelo_inurba_marseille","lat":43.255119,"lon":5.401645,"is_reserved":false,"is_disabled":false,"rental_uris":{"android":"levelo://app?vid=e81022dd-19c8-4204-a3cc-bd5e81a601c4","ios":"levelo://app?vid=e81022dd-19c8-4204-a3cc-bd5e81a601c4"},"vehicle_type_id":"4","last_reported":1777397301,"current_range_meters":8800,"station_id":"st_d2ngiaodas8pm72gd1h0","pricing_plan_id":"cebpf4jnsgd1na2vs0mg"},{"bike_id":"e03a9553-f014-4591-84d1-bb481db182e5","system_id":"levelo_inurba_marseille","lat":43.28689,"lon":5.46671,"is_reserved":false,"is_disabled":false,"rental_uris":{"android":"levelo://app?vid=e03a9553-f014-4591-84d1-bb481db182e5","ios":"levelo://app?vid=e03a9553-f014-4591-84d1-bb481db182e5"},"vehicle_type_id":"4","last_reported":1777397301,"current_range_meters":8800,"station_id":"st_d6tc3vkotcvc738tfjhg","pricing_plan_id":"cebpf4jnsgd1na2vs0mg"},{"bike_id":"2a9f517f-dc7e-442a-8a6e-b3ad6200cb4e","system_id":"levelo_inurba_marseille","lat":43.33538,"lon":5.37468,"is_reserved":false,"is_disabled":false,"rental_uris":{"android":"levelo://app?vid=2a9f517f-dc7e-442a-8a6e-b3ad6200cb4e","ios":"levelo://app?vid=2a9f517f-dc7e-442a-8a6e-b3ad6200cb4e"},"vehicle_type_id":"4","last_reported":1777397301,"current_range_meters":8800,"station_id":"st_d46tts09ee8s73dlu43g","pricing_plan_id":"cebpf4jnsgd1na2vs0mg"},{"bike_id":"b3d1e892-66ab-4b09-8d9d-e9fc94a9698d","system_id":"levelo_inurba_marseille","lat":43.28268,"lon":5.35069,"is_reserved":false,"is_disabled":false,"rental_uris":{"android":"levelo://app?vid=b3d1e892-66ab-4b09-8d9d-e9fc94a9698d","ios":"levelo://app?vid=b3d1e892-66ab-4b09-8d9d-e9fc94a9698d"},"vehicle_type_id":"4","last_reported":1777397301,"current_range_meters":8800,"station_id":"ce4bhbp2rcd13ifvqerg","pricing_plan_id":"cebpf4jnsgd1na2vs0mg"},{"bike_id":"2c407960-b5d4-433f-85df-368b1cb47da0","system_id":"levelo_inurba_marseille","lat":43.29862,"lon":5.37652,"is_reserved":false,"is_disabled":false,"rental_uris":{"android":"levelo://app?vid=2c407960-b5d4-433f-85df-368b1cb47da0","ios":"levelo://app?vid=2c407960-b5d4-433f-85df-368b1cb47da0"},"vehicle_type_id":"4","last_reported":1777397301,"current_range_meters":8800,"station_id":"","pricing_plan_id":"cebpf4jnsgd1na2vs0mg"},{"bike_id":"97101e97-9dc1-46b9-aa51-c662f292853d","system_id":"levelo_inurba_marseille","lat":43.28145,"lon":5.42641,"is_reserved":false,"is_disabled":false,"rental_uris":{"android":"levelo://app?vid=97101e97-9dc1-46b9-aa51-c662f292853d","ios":"levelo://app?vid=97101e97-9dc1-46b9-aa51-c662f292853d"},"vehicle_type_id":"4","last_reported":1777397301,"current_range_meters":8800,"station_id":"ce4bhnh2rcd13ifvqgug","pricing_plan_id":"cebpf4jnsgd1na2vs0mg"},{"bike_id":"0256971e-927a-4136-bafd-665aafac7fc7","system_id":"levelo_inurba_marseille","lat":43.21754,"lon":5.34604,"is_reserved":false,"is_disabled":true,"rental_uris":{"android":"levelo://app?vid=0256971e-927a-4136-bafd-665aafac7fc7","ios":"levelo://app?vid=0256971e-927a-4136-bafd-665aafac7fc7"},"vehicle_type_id":"4","last_reported":1777397301,"current_range_meters":8800,"station_id":"st_cvj6r9ubvosntc0bgbag","pricing_plan_id":"cebpf4jnsgd1na2vs0mg"},{"bike_id":"5a082d0b-9dcd-4b27-b749-e7a082c3a4b6","system_id":"levelo_inurba_marseille","lat":43.25148,"lon":5.40462,"is_reserved":false,"is_disabled":false,"rental_uris":{"android":"levelo://app?vid=5a082d0b-9dcd-4b27-b749-e7a082c3a4b6","ios":"levelo://app?vid=5a082d0b-9dcd-4b27-b749-e7a082c3a4b6"},"vehicle_type_id":"4","last_reported":1777397301,"current_range_meters":8800,"station_id":"","pricing_plan_id":"cebpf4jnsgd1na2vs0mg"},{"bike_id":"bc977835-7c3d-4543-a1e7-b0920bc7f3c0","system_id":"levelo_inurba_marseille","lat":43.28621,"lon":5.35102,"is_reserved":false,"is_disabled":false,"rental_uris":{"android":"levelo://app?vid=bc977835-7c3d-4543-a1e7-b0920bc7f3c0","ios":"levelo://app?vid=bc977835-7c3d-4543-a1e7-b0920bc7f3c0"},"vehicle_type_id":"4","last_reported":1777397301,"current_range_meters":8800,"station_id":"ce4bhch2rcd13ifvqeug","pricing_plan_id":"cebpf4jnsgd1na2vs0mg"},{"bike_id":"f85937b2-0ec4-4bc0-9c45-454acbb4424f","system_id":"levelo_inurba_marseille","lat":43.24954,"lon":5.40483,"is_reserved":false,"is_disabled":false,"rental_uris":{"android":"levelo://app?vid=f85937b2-0ec4-4bc0-9c45-454acbb4424f","ios":"levelo://app?vid=f85937b2-0ec4-4bc0-9c45-454acbb4424f"},"vehicle_type_id":"4","last_reported":1777397301,"current_range_meters":8800,"station_id":"st_d2ngiaodas8pm72gd1h0","pricing_plan_id":"cebpf4jnsgd1na2vs0mg"},{"bike_id":"525129d8-a7e9-4d3a-94c3-9737193fe89b","system_id":"levelo_inurba_marseille","lat":43.32655,"lon":5.40989,"is_reserved":false,"is_disabled":false,"rental_uris":{"android":"levelo://app?vid=525129d8-a7e9-4d3a-94c3-9737193fe89b","ios":"levelo://app?vid=525129d8-a7e9-4d3a-94c3-9737193fe89b"},"vehicle_type_id":"4","last_reported":1777397301,"current_range_meters":8800,"station_id":"ce4bhpp2rcd13ifvqhgg","pricing_plan_id":"cebpf4jnsgd1na2vs0mg"},{"bike_id":"b2f4375d-7e08-4ebd-b4b6-9f49c6fdecbb","system_id":"levelo_inurba_marseille","lat":43.21193,"lon":5.35078,"is_reserved":false,"is_disabled":false,"rental_uris":{"android":"levelo://app?vid=b2f4375d-7e08-4ebd-b4b6-9f49c6fdecbb","ios":"levelo://app?vid=b2f4375d-7e08-4ebd-b4b6-9f49c6fdecbb"},"vehicle_type_id":"4","last_reported":1777397301,"current_range_meters":8800,"station_id":"st_cvj6sg6p6f1abm77japg","pricing_plan_id":"cebpf4jnsgd1na2vs0mg"},{"bike_id":"1e2d236d-e5d9-45c2-9f60-ea3280840ff0","system_id":"levelo_inurba_marseille","lat":43.28718,"lon":5.37925,"is_reserved":false,"is_disabled":false,"rental_uris":{"android":"levelo://app?vid=1e2d236d-e5d9-45c2-9f60-ea3280840ff0","ios":"levelo://app?vid=1e2d236d-e5d9-45c2-9f60-ea3280840ff0"},"vehicle_type_id":"4","last_reported":1777397301,"current_range_meters":8800,"station_id":"ce4bh9p2rcd13ifvqec0","pricing_plan_id":"cebpf4jnsgd1na2vs0mg"},{"bike_id":"db3bdcf0-2fad-47e2-8f97-20b5fc43e7fd","system_id":"levelo_inurba_marseille","lat":43.24167,"lon":5.36411,"is_reserved":false,"is_disabled":false,"rental_uris":{"android":"levelo://app?vid=db3bdcf0-2fad-47e2-8f97-20b5fc43e7fd","ios":"levelo://app?vid=db3bdcf0-2fad-47e2-8f97-20b5fc43e7fd"},"vehicle_type_id":"4","last_reported":1777397301,"current_range_meters":9200,"station_id":"cpo36qri1sfpv3e86is0","pricing_plan_id":"cebpf4jnsgd1na2vs0mg"},{"bike_id":"4dbe00ec-feb8-4193-848e-b5324775416c","system_id":"levelo_inurba_marseille","lat":43.2842,"lon":5.35003,"is_reserved":false,"is_disabled":false,"rental_uris":{"android":"levelo://app?vid=4dbe00ec-feb8-4193-848e-b5324775416c","ios":"levelo://app?vid=4dbe00ec-feb8-4193-848e-b5324775416c"},"vehicle_type_id":"4","last_reported":1777397301,"current_range_meters":9200,"station_id":"ce4bhbh2rcd13ifvqepg","pricing_plan_id":"cebpf4jnsgd1na2vs0mg"},{"bike_id":"5f2b664d-3299-4b97-a16c-944e74430601","system_id":"levelo_inurba_marseille","lat":43.29294,"lon":5.36392,"is_reserved":false,"is_disabled":false,"rental_uris":{"android":"levelo://app?vid=5f2b664d-3299-4b97-a16c-944e74430601","ios":"levelo://app?vid=5f2b664d-3299-4b97-a16c-944e74430601"},"vehicle_type_id":"4","last_reported":1777397301,"current_range_meters":9200,"station_id":"","pricing_plan_id":"cebpf4jnsgd1na2vs0mg"},{"bike_id":"de1b4f6f-6b9d-4fc7-894f-85b3adf5ba9d","system_id":"levelo_inurba_marseille","lat":43.27555,"lon":5.38416,"is_reserved":false,"is_disabled":true,"rental_uris":{"android":"levelo://app?vid=de1b4f6f-6b9d-4fc7-894f-85b3adf5ba9d","ios":"levelo://app?vid=de1b4f6f-6b9d-4fc7-894f-85b3adf5ba9d"},"vehicle_type_id":"4","last_reported":1777397301,"current_range_meters":9200,"station_id":"ce4bhh92rcd13ifvqfi0","pricing_plan_id":"cebpf4jnsgd1na2vs0mg"},{"bike_id":"4f81a05a-97e9-44ec-a51e-366c3977229f","system_id":"levelo_inurba_marseille","lat":43.31316,"lon":5.39746,"is_reserved":false,"is_disabled":false,"rental_uris":{"android":"levelo://app?vid=4f81a05a-97e9-44ec-a51e-366c3977229f","ios":"levelo://app?vid=4f81a05a-97e9-44ec-a51e-366c3977229f"},"vehicle_type_id":"4","last_reported":1777397301,"current_range_meters":9200,"station_id":"","pricing_plan_id":"cebpf4jnsgd1na2vs0mg"},{"bike_id":"c5d87c94-f8c8-47f4-ae84-ea0b6e6ae165","system_id":"levelo_inurba_marseille","lat":43.26267,"lon":5.38885,"is_reserved":false,"is_disabled":false,"rental_uris":{"android":"levelo://app?vid=c5d87c94-f8c8-47f4-ae84-ea0b6e6ae165","ios":"levelo://app?vid=c5d87c94-f8c8-47f4-ae84-ea0b6e6ae165"},"vehicle_type_id":"4","last_reported":1777397301,"current_range_meters":9200,"station_id":"","pricing_plan_id":"cebpf4jnsgd1na2vs0mg"},{"bike_id":"2918ec89-555e-45a0-8785-863a2c165390","system_id":"levelo_inurba_marseille","lat":43.31189,"lon":5.3682,"is_reserved":false,"is_disabled":false,"rental_uris":{"android":"levelo://app?vid=2918ec89-555e-45a0-8785-863a2c165390","ios":"levelo://app?vid=2918ec89-555e-45a0-8785-863a2c165390"},"vehicle_type_id":"4","last_reported":1777397301,"current_range_meters":9200,"station_id":"ce4bgl92rcd13ifvqbq0","pricing_plan_id":"cebpf4jnsgd1na2vs0mg"},{"bike_id":"1b7a8686-4538-4376-bb20-1fdde4bc196c","system_id":"levelo_inurba_marseille","lat":43.28983,"lon":5.37851,"is_reserved":false,"is_disabled":false,"rental_uris":{"android":"levelo://app?vid=1b7a8686-4538-4376-bb20-1fdde4bc196c","ios":"levelo://app?vid=1b7a8686-4538-4376-bb20-1fdde4bc196c"},"vehicle_type_id":"4","last_reported":1777397301,"current_range_meters":9200,"station_id":"ce4bh9p2rcd13ifvqed0","pricing_plan_id":"cebpf4jnsgd1na2vs0mg"},{"bike_id":"e2a155dc-3d0d-46a3-95f7-669c8a8ae1e0","system_id":"levelo_inurba_marseille","lat":43.28624,"lon":5.35087,"is_reserved":false,"is_disabled":false,"rental_uris":{"android":"levelo://app?vid=e2a155dc-3d0d-46a3-95f7-669c8a8ae1e0","ios":"levelo://app?vid=e2a155dc-3d0d-46a3-95f7-669c8a8ae1e0"},"vehicle_type_id":"4","last_reported":1777397301,"current_range_meters":9200,"station_id":"ce4bhch2rcd13ifvqeug","pricing_plan_id":"cebpf4jnsgd1na2vs0mg"},{"bike_id":"2c0808ca-959e-46d2-bd7d-5fa523a2fa9a","system_id":"levelo_inurba_marseille","lat":43.30632,"lon":5.43637,"is_reserved":false,"is_disabled":false,"rental_uris":{"android":"levelo://app?vid=2c0808ca-959e-46d2-bd7d-5fa523a2fa9a","ios":"levelo://app?vid=2c0808ca-959e-46d2-bd7d-5fa523a2fa9a"},"vehicle_type_id":"4","last_reported":1777397301,"current_range_meters":9200,"station_id":"","pricing_plan_id":"cebpf4jnsgd1na2vs0mg"},{"bike_id":"8d3efc46-3d81-4c5f-88a3-4fdafbab2bcb","system_id":"levelo_inurba_marseille","lat":43.28667,"lon":5.3868,"is_reserved":false,"is_disabled":false,"rental_uris":{"android":"levelo://app?vid=8d3efc46-3d81-4c5f-88a3-4fdafbab2bcb","ios":"levelo://app?vid=8d3efc46-3d81-4c5f-88a3-4fdafbab2bcb"},"vehicle_type_id":"4","last_reported":1777397301,"current_range_meters":9200,"station_id":"ce4bh492rcd13ifvqdug","pricing_plan_id":"cebpf4jnsgd1na2vs0mg"},{"bike_id":"5d411e32-c60a-4019-935b-8e92970257cd","system_id":"levelo_inurba_marseille","lat":43.28429,"lon":5.34988,"is_reserved":false,"is_disabled":false,"rental_uris":{"android":"levelo://app?vid=5d411e32-c60a-4019-935b-8e92970257cd","ios":"levelo://app?vid=5d411e32-c60a-4019-935b-8e92970257cd"},"vehicle_type_id":"4","last_reported":1777397301,"current_range_meters":9200,"station_id":"ce4bhbh2rcd13ifvqepg","pricing_plan_id":"cebpf4jnsgd1na2vs0mg"},{"bike_id":"65010c6b-26f0-4ad8-b6d9-a2be7775660c","system_id":"levelo_inurba_marseille","lat":43.2557,"lon":5.38246,"is_reserved":false,"is_disabled":false,"rental_uris":{"android":"levelo://app?vid=65010c6b-26f0-4ad8-b6d9-a2be7775660c","ios":"levelo://app?vid=65010c6b-26f0-4ad8-b6d9-a2be7775660c"},"vehicle_type_id":"4","last_reported":1777397301,"current_range_meters":9200,"station_id":"ce4bhih2rcd13ifvqfs0","pricing_plan_id":"cebpf4jnsgd1na2vs0mg"},{"bike_id":"14015fc9-b839-4138-b4d5-9a2f5afbe521","system_id":"levelo_inurba_marseille","lat":43.29164,"lon":5.42697,"is_reserved":false,"is_disabled":false,"rental_uris":{"android":"levelo://app?vid=14015fc9-b839-4138-b4d5-9a2f5afbe521","ios":"levelo://app?vid=14015fc9-b839-4138-b4d5-9a2f5afbe521"},"vehicle_type_id":"4","last_reported":1777397301,"current_range_meters":9200,"station_id":"","pricing_plan_id":"cebpf4jnsgd1na2vs0mg"},{"bike_id":"beab1295-a165-4d15-8c78-abe046f75d6c","system_id":"levelo_inurba_marseille","lat":43.30789,"lon":5.37655,"is_reserved":false,"is_disabled":false,"rental_uris":{"android":"levelo://app?vid=beab1295-a165-4d15-8c78-abe046f75d6c","ios":"levelo://app?vid=beab1295-a165-4d15-8c78-abe046f75d6c"},"vehicle_type_id":"4","last_reported":1777397301,"current_range_meters":9200,"station_id":"ce4bgv92rcd13ifvqcq0","pricing_plan_id":"cebpf4jnsgd1na2vs0mg"},{"bike_id":"fb48eb95-a721-45e3-a917-4c0e5102e02d","system_id":"levelo_inurba_marseille","lat":43.2319,"lon":5.35557,"is_reserved":false,"is_disabled":false,"rental_uris":{"android":"levelo://app?vid=fb48eb95-a721-45e3-a917-4c0e5102e02d","ios":"levelo://app?vid=fb48eb95-a721-45e3-a917-4c0e5102e02d"},"vehicle_type_id":"4","last_reported":1777397301,"current_range_meters":9200,"station_id":"ce4bhu92rcd13ifvqi70","pricing_plan_id":"cebpf4jnsgd1na2vs0mg"},{"bike_id":"1a0b7023-7018-49fb-a2f6-294157db12c6","system_id":"levelo_inurba_marseille","lat":43.28486,"lon":5.3842,"is_reserved":false,"is_disabled":false,"rental_uris":{"android":"levelo://app?vid=1a0b7023-7018-49fb-a2f6-294157db12c6","ios":"levelo://app?vid=1a0b7023-7018-49fb-a2f6-294157db12c6"},"vehicle_type_id":"4","last_reported":1777397301,"current_range_meters":9200,"station_id":"ce4bh512rcd13ifvqe3g","pricing_plan_id":"cebpf4jnsgd1na2vs0mg"},{"bike_id":"32ca017b-97a3-407c-83d0-f7ef756a30b4","system_id":"levelo_inurba_marseille","lat":43.29271,"lon":5.38425,"is_reserved":false,"is_disabled":false,"rental_uris":{"android":"levelo://app?vid=32ca017b-97a3-407c-83d0-f7ef756a30b4","ios":"levelo://app?vid=32ca017b-97a3-407c-83d0-f7ef756a30b4"},"vehicle_type_id":"4","last_reported":1777397301,"current_range_meters":9600,"station_id":"ce4bh692rcd13ifvqea0","pricing_plan_id":"cebpf4jnsgd1na2vs0mg"},{"bike_id":"d96f2c39-788b-4b13-96be-d4e2b4273afe","system_id":"levelo_inurba_marseille","lat":43.2927,"lon":5.38421,"is_reserved":false,"is_disabled":false,"rental_uris":{"android":"levelo://app?vid=d96f2c39-788b-4b13-96be-d4e2b4273afe","ios":"levelo://app?vid=d96f2c39-788b-4b13-96be-d4e2b4273afe"},"vehicle_type_id":"4","last_reported":1777397301,"current_range_meters":9600,"station_id":"ce4bh692rcd13ifvqea0","pricing_plan_id":"cebpf4jnsgd1na2vs0mg"},{"bike_id":"99173126-f9ff-4683-a89a-4d503ace287d","system_id":"levelo_inurba_marseille","lat":43.3354,"lon":5.37471,"is_reserved":false,"is_disabled":false,"rental_uris":{"android":"levelo://app?vid=99173126-f9ff-4683-a89a-4d503ace287d","ios":"levelo://app?vid=99173126-f9ff-4683-a89a-4d503ace287d"},"vehicle_type_id":"4","last_reported":1777397301,"current_range_meters":9600,"station_id":"st_d46tts09ee8s73dlu43g","pricing_plan_id":"cebpf4jnsgd1na2vs0mg"},{"bike_id":"ad016942-5b0b-44b8-ac1c-1b7068118d02","system_id":"levelo_inurba_marseille","lat":43.23203,"lon":5.35555,"is_reserved":false,"is_disabled":false,"rental_uris":{"android":"levelo://app?vid=ad016942-5b0b-44b8-ac1c-1b7068118d02","ios":"levelo://app?vid=ad016942-5b0b-44b8-ac1c-1b7068118d02"},"vehicle_type_id":"4","last_reported":1777397301,"current_range_meters":9600,"station_id":"ce4bhu92rcd13ifvqi70","pricing_plan_id":"cebpf4jnsgd1na2vs0mg"},