{"last_updated":1728846461,"ttl":60,"version":"2.2","data":{"bikes":[{"bike_id":"65f2e9e8-8927-465e-a2e8-cfabd2b0d4ae","system_id":"levelo_inurba_marseille","lat":43.3153,"lon":5.38042,"is_reserved":false,"is_disabled":false,"rental_uris":{"android":"levelo://app?vid=65f2e9e8-8927-465e-a2e8-cfabd2b0d4ae","ios":"levelo://app?vid=65f2e9e8-8927-465e-a2e8-cfabd2b0d4ae"},"vehicle_type_id":"4","last_reported":1728846461,"current_range_meters":17200,"station_id":"ce4bhsp2rcd13ifvqi50","pricing_plan_id":"cebpf4jnsgd1na2vs0mg"},{"bike_id":"a39aa9a0-c47b-43d5-b462-f9cfc73cd96e","system_id":"levelo_inurba_marseille","lat":43.28943,"lon":5.36645,"is_reserved":false,"is_disabled":false,"rental_uris":{"android":"levelo://app?vid=a39aa9a0-c47b-43d5-b462-f9cfc73cd96e","ios":"levelo://app?vid=a39aa9a0-c47b-43d5-b462-f9cfc73cd96e"},"vehicle_type_id":"4","last_reported":1728846461,"current_range_meters":6400,"station_id":"ce4bhap2rcd13ifvqek0","pricing_plan_id":"cebpf4jnsgd1na2vs0mg"},{"bike_id":"480c36bc-dd66-41df-b09a-76735c76211b","system_id":"levelo_inurba_marseille","lat":43.27998,"lon":5.4166,"is_reserved":false,"is_disabled":false,"rental_uris":{"android":"levelo://app?vid=480c36bc-dd66-41df-b09a-76735c76211b","ios":"levelo://app?vid=480c36bc-dd66-41df-b09a-76735c76211b"},"vehicle_type_id":"4","last_reported":1728846461,"current_range_meters":35200,"station_id":"ce4bho12rcd13ifvqh1g","pricing_plan_id":"cebpf4jnsgd1na2vs0mg"},{"bike_id":"d9b629b0-e23d-4e1d-ab01-060732d693c4","system_id":"levelo_inurba_marseille","lat":43.29991,"lon":5.37409,"is_reserved":false,"is_disabled":false,"rental_uris":{"android":"levelo://app?vid=d9b629b0-e23d-4e1d-ab01-060732d693c4","ios":"levelo://app?vid=d9b629b0-e23d-4e1d-ab01-060732d693c4"},"vehicle_type_id":"4","last_reported":1728846461,"current_range_meters":9600,"station_id":"","pricing_plan_id":"cebpf4jnsgd1na2vs0mg"},{"bike_id":"443b8b9f-c881-490b-81f2-15dc9c031ca7","system_id":"levelo_inurba_marseille","lat":43.2466,"lon":5.38168,"is_reserved":false,"is_disabled":false,"rental_uris":{"android":"levelo://app?vid=443b8b9f-c881-490b-81f2-15dc9c031ca7","ios":"levelo://app?vid=443b8b9f-c881-490b-81f2-15dc9c031ca7"},"vehicle_type_id":"4","last_reported":1728846461,"current_range_meters":2800,"station_id":"ce4bhih2rcd13ifvqfr0","pricing_plan_id":"cebpf4jnsgd1na2vs0mg"},{"bike_id":"d19f9305-2de6-40e2-8774-4adf1ca2124a","system_id":"levelo_inurba_marseille","lat":43.29706,"lon":5.37701,"is_reserved":false,"is_disabled":false,"rental_uris":{"android":"levelo://app?vid=d19f9305-2de6-40e2-8774-4adf1ca2124a","ios":"levelo://app?vid=d19f9305-2de6-40e2-8774-4adf1ca2124a"},"vehicle_type_id":"4","last_reported":1728846461,"current_range_meters":36400,"station_id":"ce4bgkh2rcd13ifvqbl0","pricing_plan_id":"cebpf4jnsgd1na2vs0mg"},{"bike_id":"e17e907c-4fa3-474a-b50b-5db07b6861ef","system_id":"levelo_inurba_marseille","lat":43.31085,"lon":5.42433,"is_reserved":false,"is_disabled":false,"rental_uris":{"android":"levelo://app?vid=e17e907c-4fa3-474a-b50b-5db07b6861ef","ios":"levelo://app?vid=e17e907c-4fa3-474a-b50b-5db07b6861ef"},"vehicle_type_id":"4","last_reported":1728846461,"current_range_meters":8000,"station_id":"ce4bhp92rcd13ifvqhag","pricing_plan_id":"cebpf4jnsgd1na2vs0mg"},{"bike_id":"bd501995-e26b-4ea3-a4bd-91688e96e9ec","system_id":"levelo_inurba_marseille","lat":43.28444,"lon":5.39189,"is_reserved":false,"is_disabled":false,"rental_uris":{"android":"levelo://app?vid=bd501995-e26b-4ea3-a4bd-91688e96e9ec","ios":"levelo://app?vid=bd501995-e26b-4ea3-a4bd-91688e96e9ec"},"vehicle_type_id":"4","last_reported":1728846461,"current_range_meters":12400,"station_id":"ce4bhoh2rcd13ifvqh5g","pricing_plan_id":"cebpf4jnsgd1na2vs0mg"},{"bike_id":"d5904edc-115e-41fa-8710-b55e98f606fc","system_id":"levelo_inurba_marseille","lat":43.31167,"lon":5.3873,"is_reserved":false,"is_disabled":false,"rental_uris":{"android":"levelo://app?vid=d5904edc-115e-41fa-8710-b55e98f606fc","ios":"levelo://app?vid=d5904edc-115e-41fa-8710-b55e98f606fc"},"vehicle_type_id":"4","last_reported":1728846461,"current_range_meters":10000,"station_id":"ce4bgv12rcd13ifvqcp0","pricing_plan_id":"cebpf4jnsgd1na2vs0mg"},{"bike_id":"2c10af63-08f4-40bf-83a2-1890160187a6","system_id":"levelo_inurba_marseille","lat":43.29897,"lon":5.43674,"is_reserved":false,"is_disabled":false,"rental_uris":{"android":"levelo://app?vid=2c10af63-08f4-40bf-83a2-1890160187a6","ios":"levelo://app?vid=2c10af63-08f4-40bf-83a2-1890160187a6"},"vehicle_type_id":"4","last_reported":1728846461,"current_range_meters":27600,"station_id":"ce4bhpp2rcd13ifvqhfg","pricing_plan_id":"cebpf4jnsgd1na2vs0mg"},{"bike_id":"931d1f9c-4cb2-40a2-a856-914a1c55fcf3","system_id":"levelo_inurba_marseille","lat":43.2457,"lon":5.41661,"is_reserved":false,"is_disabled":false,"rental_uris":{"android":"levelo://app?vid=931d1f9c-4cb2-40a2-a856-914a1c55fcf3","ios":"levelo://app?vid=931d1f9c-4cb2-40a2-a856-914a1c55fcf3"},"vehicle_type_id":"4","last_reported":1728846461,"current_range_meters":6000,"station_id":"","pricing_plan_id":"cebpf4jnsgd1na2vs0mg"},{"bike_id":"0aab5297-6f8d-4e7a-8178-748fef5fb6fe","system_id":"levelo_inurba_marseille","lat":43.28371,"lon":5.38641,"is_reserved":false,"is_disabled":false,"rental_uris":{"android":"levelo://app?vid=0aab5297-6f8d-4e7a-8178-748fef5fb6fe","ios":"levelo://app?vid=0aab5297-6f8d-4e7a-8178-748fef5fb6fe"},"vehicle_type_id":"4","last_reported":1728846461,"current_range_meters":19200,"station_id":"ce4bh492rcd13ifvqdvg","pricing_plan_id":"cebpf4jnsgd1na2vs0mg"},{"bike_id":"c1526f14-0f53-47fd-bc6e-2dc8711b4bf6","system_id":"levelo_inurba_marseille","lat":43.29899,"lon":5.43675,"is_reserved":false,"is_disabled":false,"rental_uris":{"android":"levelo://app?vid=c1526f14-0f53-47fd-bc6e-2dc8711b4bf6","ios":"levelo://app?vid=c1526f14-0f53-47fd-bc6e-2dc8711b4bf6"},"vehicle_type_id":"4","last_reported":1728846461,"current_range_meters":28800,"station_id":"ce4bhpp2rcd13ifvqhfg","pricing_plan_id":"cebpf4jnsgd1na2vs0mg"},{"bike_id":"fe0f9d12-1c14-41df-b0e0-06bc0e9d9232","system_id":"levelo_inurba_marseille","lat":43.29875,"lon":5.38918,"is_reserved":false,"is_disabled":false,"rental_uris":{"android":"levelo://app?vid=fe0f9d12-1c14-41df-b0e0-06bc0e9d9232","ios":"levelo://app?vid=fe0f9d12-1c14-41df-b0e0-06bc0e9d9232"},"vehicle_type_id":"4","last_reported":1728846461,"current_range_meters":16800,"station_id":"ce4bh392rcd13ifvqdl0","pricing_plan_id":"cebpf4jnsgd1na2vs0mg"},{"bike_id":"1577fecb-cfb2-4506-83a8-2cd8ebbde5be","system_id":"levelo_inurba_marseille","lat":43.29042,"lon":5.37503,"is_reserved":false,"is_disabled":false,"rental_uris":{"android":"levelo://app?vid=1577fecb-cfb2-4506-83a8-2cd8ebbde5be","ios":"levelo://app?vid=1577fecb-cfb2-4506-83a8-2cd8ebbde5be"},"vehicle_type_id":"4","last_reported":1728846461,"current_range_meters":5600,"station_id":"","pricing_plan_id":"cebpf4jnsgd1na2vs0mg"},{"bike_id":"06966271-aa40-4ae0-8856-e4cdbbdcc3f1","system_id":"levelo_inurba_marseille","lat":43.28661,"lon":5.36361,"is_reserved":false,"is_disabled":false,"rental_uris":{"android":"levelo://app?vid=06966271-aa40-4ae0-8856-e4cdbbdcc3f1","ios":"levelo://app?vid=06966271-aa40-4ae0-8856-e4cdbbdcc3f1"},"vehicle_type_id":"4","last_reported":1728846461,"current_range_meters":38800,"station_id":"ce4bhah2rcd13ifvqej0","pricing_plan_id":"cebpf4jnsgd1na2vs0mg"},{"bike_id":"e23c091a-66a6-4791-8e53-301be6a5e58f","system_id":"levelo_inurba_marseille","lat":43.29417,"lon":5.38627,"is_reserved":false,"is_disabled":false,"rental_uris":{"android":"levelo://app?vid=e23c091a-66a6-4791-8e53-301be6a5e58f","ios":"levelo://app?vid=e23c091a-66a6-4791-8e53-301be6a5e58f"},"vehicle_type_id":"4","last_reported":1728846461,"current_range_meters":38800,"station_id":"ce4bh2h2rcd13ifvqdh0","pricing_plan_id":"cebpf4jnsgd1na2vs0mg"},{"bike_id":"f5092ebf-7802-487c-bf45-c4b25c77443d","system_id":"levelo_inurba_marseille","lat":43.26949,"lon":5.3863,"is_reserved":false,"is_disabled":false,"rental_uris":{"android":"levelo://app?vid=f5092ebf-7802-487c-bf45-c4b25c77443d","ios":"levelo://app?vid=f5092ebf-7802-487c-bf45-c4b25c77443d"},"vehicle_type_id":"4","last_reported":1728846461,"current_range_meters":35200,"station_id":"ce4bhh92rcd13ifvqfh0","pricing_plan_id":"cebpf4jnsgd1na2vs0mg"},{"bike_id":"6b2daff3-9851-4dff-9081-e0ec010599e4","system_id":"levelo_inurba_marseille","lat":43.314515,"lon":5.37384,"is_reserved":false,"is_disabled":false,"rental_uris":{"android":"levelo://app?vid=6b2daff3-9851-4dff-9081-e0ec010599e4","ios":"levelo://app?vid=6b2daff3-9851-4dff-9081-e0ec010599e4"},"vehicle_type_id":"4","last_reported":1728846461,"current_range_meters":31200,"station_id":"","pricing_plan_id":"cebpf4jnsgd1na2vs0mg"},{"bike_id":"dc12e8b1-7689-48e9-aabf-e9f5478adefc","system_id":"levelo_inurba_marseille","lat":43.29251,"lon":5.40908,"is_reserved":false,"is_disabled":false,"rental_uris":{"android":"levelo://app?vid=dc12e8b1-7689-48e9-aabf-e9f5478adefc","ios":"levelo://app?vid=dc12e8b1-7689-48e9-aabf-e9f5478adefc"},"vehicle_type_id":"4","last_reported":1728846461,"current_range_meters":36000,"station_id":"ce4bh192rcd13ifvqdc0","pricing_plan_id":"cebpf4jnsgd1na2vs0mg"},{"bike_id":"67e48798-506e-4ddc-81db-ec93bf2c3b72","system_id":"levelo_inurba_marseille","lat":43.3213,"lon":5.38719,"is_reserved":false,"is_disabled":false,"rental_uris":{"android":"levelo://app?vid=67e48798-506e-4ddc-81db-ec93bf2c3b72","ios":"levelo://app?vid=67e48798-506e-4ddc-81db-ec93bf2c3b72"},"vehicle_type_id":"4","last_reported":1728846461,"current_range_meters":37600,"station_id":"","pricing_plan_id":"cebpf4jnsgd1na2vs0mg"},{"bike_id":"3c822ecd-c349-4358-955d-935167de7c4d","system_id":"levelo_inurba_marseille","lat":43.27178,"lon":5.4099,"is_reserved":false,"is_disabled":false,"rental_uris":{"android":"levelo://app?vid=3c822ecd-c349-4358-955d-935167de7c4d","ios":"levelo://app?vid=3c822ecd-c349-4358-955d-935167de7c4d"},"vehicle_type_id":"4","last_reported":1728846461,"current_range_meters":9600,"station_id":"ce4bhl12rcd13ifvqgf0","pricing_plan_id":"cebpf4jnsgd1na2vs0mg"},{"bike_id":"73253a8f-e5dc-4264-99b1-3ab44f156d3b","system_id":"levelo_inurba_marseille","lat":43.2841,"lon":5.37512,"is_reserved":false,"is_disabled":false,"rental_uris":{"android":"levelo://app?vid=73253a8f-e5dc-4264-99b1-3ab44f156d3b","ios":"levelo://app?vid=73253a8f-e5dc-4264-99b1-3ab44f156d3b"},"vehicle_type_id":"4","last_reported":1728846461,"current_range_meters":38800,"station_id":"ce4bh412rcd13ifvqds0","pricing_plan_id":"cebpf4jnsgd1na2vs0mg"},{"bike_id":"06bd846f-1a8a-42c7-a68c-452b45147310","system_id":"levelo_inurba_marseille","lat":43.29526,"lon":5.3855,"is_reserved":false,"is_disabled":false,"rental_uris":{"android":"levelo://app?vid=06bd846f-1a8a-42c7-a68c-452b45147310","ios":"levelo://app?vid=06bd846f-1a8a-42c7-a68c-452b45147310"},"vehicle_type_id":"4","last_reported":1728846461,"current_range_meters":33200,"station_id":"ce4bgih2rcd13ifvqba0","pricing_plan_id":"cebpf4jnsgd1na2vs0mg"},{"bike_id":"4d35adc6-03b3-441c-8faa-5198d3005bdf","system_id":"levelo_inurba_marseille","lat":43.30789,"lon":5.38163,"is_reserved":false,"is_disabled":false,"rental_uris":{"android":"levelo://app?vid=4d35adc6-03b3-441c-8faa-5198d3005bdf","ios":"levelo://app?vid=4d35adc6-03b3-441c-8faa-5198d3005bdf"},"vehicle_type_id":"4","last_reported":1728846461,"current_range_meters":38400,"station_id":"ce4bgt12rcd13ifvqce0","pricing_plan_id":"cebpf4jnsgd1na2vs0mg"},{"bike_id":"0b9ac74a-86ac-4709-9bf1-fecee604d340","system_id":"levelo_inurba_marseille","lat":43.30145,"lon":5.39855,"is_reserved":false,"is_disabled":false,"rental_uris":{"android":"levelo://app?vid=0b9ac74a-86ac-4709-9bf1-fecee604d340","ios":"levelo://app?vid=0b9ac74a-86ac-4709-9bf1-fecee604d340"},"vehicle_type_id":"4","last_reported":1728846461,"current_range_meters":4400,"station_id":"ce4bh0h2rcd13ifvqd40","pricing_plan_id":"cebpf4jnsgd1na2vs0mg"},{"bike_id":"306a87d6-b1b6-4a42-8945-899d1a46fb57","system_id":"levelo_inurba_marseille","lat":43.29031,"lon":5.38656,"is_reserved":false,"is_disabled":false,"rental_uris":{"android":"levelo://app?vid=306a87d6-b1b6-4a42-8945-899d1a46fb57","ios":"levelo://app?vid=306a87d6-b1b6-4a42-8945-899d1a46fb57"},"vehicle_type_id":"4","last_reported":1728846461,"current_range_meters":38800,"station_id":"ce4bh4p2rcd13ifvqe0g","pricing_plan_id":"cebpf4jnsgd1na2vs0mg"},{"bike_id":"7bfca5b2-1ddd-4e5d-b9fc-19e6379d40a0","system_id":"levelo_inurba_marseille","lat":43.2806,"lon":5.40989,"is_reserved":false,"is_disabled":false,"rental_uris":{"android":"levelo://app?vid=7bfca5b2-1ddd-4e5d-b9fc-19e6379d40a0","ios":"levelo://app?vid=7bfca5b2-1ddd-4e5d-b9fc-19e6379d40a0"},"vehicle_type_id":"4","last_reported":1728846461,"current_range_meters":30800,"station_id":"","pricing_plan_id":"cebpf4jnsgd1na2vs0mg"},{"bike_id":"a9f025de-7fbb-467d-8b40-db2fd10475e7","system_id":"levelo_inurba_marseille","lat":43.28109,"lon":5.37839,"is_reserved":false,"is_disabled":false,"rental_uris":{"android":"levelo://app?vid=a9f025de-7fbb-467d-8b40-db2fd10475e7","ios":"levelo://app?vid=a9f025de-7fbb-467d-8b40-db2fd10475e7"},"vehicle_type_id":"4","last_reported":1728846461,"current_range_meters":30800,"station_id":"ce4bha12rcd13ifvqee0","pricing_plan_id":"cebpf4jnsgd1na2vs0mg"},{"bike_id":"0e876c53-2a5b-482c-939e-5b55d4042a0c","system_id":"levelo_inurba_marseille","lat":43.27074,"lon":5.42284,"is_reserved":false,"is_disabled":false,"rental_uris":{"android":"levelo://app?vid=0e876c53-2a5b-482c-939e-5b55d4042a0c","ios":"levelo://app?vid=0e876c53-2a5b-482c-939e-5b55d4042a0c"},"vehicle_type_id":"4","last_reported":1728846461,"current_range_meters":27600,"station_id":"ce4bhk92rcd13ifvqgb0","pricing_plan_id":"cebpf4jnsgd1na2vs0mg"},{"bike_id":"3e1d519a-b734-45ec-9710-57ae2f604c35","system_id":"levelo_inurba_marseille","lat":43.28939,"lon":5.39629,"is_reserved":false,"is_disabled":false,"rental_uris":{"android":"levelo://app?vid=3e1d519a-b734-45ec-9710-57ae2f604c35","ios":"levelo://app?vid=3e1d519a-b734-45ec-9710-57ae2f604c35"},"vehicle_type_id":"4","last_reported":1728846461,"current_range_meters":33200,"station_id":"ce4bh3h2rcd13ifvqdn0","pricing_plan_id":"cebpf4jnsgd1na2vs0mg"},{"bike_id":"0c828a5a-8a25-4446-9557-bc67b1155bb2","system_id":"levelo_inurba_marseille","lat":43.27949,"lon":5.41054,"is_reserved":false,"is_disabled":false,"rental_uris":{"android":"levelo://app?vid=0c828a5a-8a25-4446-9557-bc67b1155bb2","ios":"levelo://app?vid=0c828a5a-8a25-4446-9557-bc67b1155bb2"},"vehicle_type_id":"4","last_reported":1728846461,"current_range_meters":21600,"station_id":"ce4bhnp2rcd13ifvqh0g","pricing_plan_id":"cebpf4jnsgd1na2vs0mg"},{"bike_id":"e7453d71-f51b-4853-a981-08fe3aa8100e","system_id":"levelo_inurba_marseille","lat":43.2985,"lon":5.36281,"is_reserved":false,"is_disabled":false,"rental_uris":{"android":"levelo://app?vid=e7453d71-f51b-4853-a981-08fe3aa8100e","ios":"levelo://app?vid=e7453d71-f51b-4853-a981-08fe3aa8100e"},"vehicle_type_id":"4","last_reported":1728846461,"current_range_meters":16000,"station_id":"ce4bgpp2rcd13ifvqc3g","pricing_plan_id":"cebpf4jnsgd1na2vs0mg"},{"bike_id":"71f692fc-4973-4331-935a-cee4889bce29","system_id":"levelo_inurba_marseille","lat":43.29032,"lon":5.38655,"is_reserved":false,"is_disabled":false,"rental_uris":{"android":"levelo://app?vid=71f692fc-4973-4331-935a-cee4889bce29","ios":"levelo://app?vid=71f692fc-4973-4331-935a-cee4889bce29"},"vehicle_type_id":"4","last_reported":1728846461,"current_range_meters":18800,"station_id":"ce4bh4p2rcd13ifvqe0g","pricing_plan_id":"cebpf4jnsgd1na2vs0mg"},{"bike_id":"cb0fa5b9-00ee-48fc-9ffa-599816c760e3","system_id":"levelo_inurba_marseille","lat":43.28105,"lon":5.37848,"is_reserved":false,"is_disabled":false,"rental_uris":{"android":"levelo://app?vid=cb0fa5b9-00ee-48fc-9ffa-599816c760e3","ios":"levelo://app?vid=cb0fa5b9-00ee-48fc-9ffa-599816c760e3"},"vehicle_type_id":"4","last_reported":1728846461,"current_range_meters":38800,"station_id":"ce4bha12rcd13ifvqee0","pricing_plan_id":"cebpf4jnsgd1na2vs0mg"},{"bike_id":"af4ede23-a140-463b-9d2d-e496c7f896ef","system_id":"levelo_inurba_marseille","lat":43.287,"lon":5.39985,"is_reserved":false,"is_disabled":false,"rental_uris":{"android":"levelo://app?vid=af4ede23-a140-463b-9d2d-e496c7f896ef","ios":"levelo://app?vid=af4ede23-a140-463b-9d2d-e496c7f896ef"},"vehicle_type_id":"4","last_reported":1728846461,"current_range_meters":18000,"station_id":"ce4bho92rcd13ifvqh3g","pricing_plan_id":"cebpf4jnsgd1na2vs0mg"},{"bike_id":"91126898-d9aa-4637-b3e3-caaa451f390c","system_id":"levelo_inurba_marseille","lat":43.291748,"lon":5.37327,"is_reserved":false,"is_disabled":false,"rental_uris":{"android":"levelo://app?vid=91126898-d9aa-4637-b3e3-caaa451f390c","ios":"levelo://app?vid=91126898-d9aa-4637-b3e3-caaa451f390c"},"vehicle_type_id":"4","last_reported":1728846461,"current_range_meters":38800,"station_id":"chh1huq6cuj3fo74tm60","pricing_plan_id":"cebpf4jnsgd1na2vs0mg"},{"bike_id":"66429568-b275-4ebd-944e-f14a44ce8f74","system_id":"levelo_inurba_marseille","lat":43.29916,"lon":5.3747,"is_reserved":false,"is_disabled":false,"rental_uris":{"android":"levelo://app?vid=66429568-b275-4ebd-944e-f14a44ce8f74","ios":"levelo://app?vid=66429568-b275-4ebd-944e-f14a44ce8f74"},"vehicle_type_id":"4","last_reported":1728846461,"current_range_meters":38800,"station_id":"ce4bgjh2rcd13ifvqbg0","pricing_plan_id":"cebpf4jnsgd1na2vs0mg"},{"bike_id":"a2ac4f24-86ed-48e3-86d0-598518a899a4","system_id":"levelo_inurba_marseille","lat":43.29875,"lon":5.39741,"is_reserved":false,"is_disabled":false,"rental_uris":{"android":"levelo://app?vid=a2ac4f24-86ed-48e3-86d0-598518a899a4","ios":"levelo://app?vid=a2ac4f24-86ed-48e3-86d0-598518a899a4"},"vehicle_type_id":"4","last_reported":1728846461,"current_range_meters":4400,"station_id":"ce4bh0h2rcd13ifvqd50","pricing_plan_id":"cebpf4jnsgd1na2vs0mg"},{"bike_id":"000e672d-f817-49bb-b8dd-f8ab934dd653","system_id":"levelo_inurba_marseille","lat":43.29268,"lon":5.38443,"is_reserved":false,"is_disabled":false,"rental_uris":{"android":"levelo://app?vid=000e672d-f817-49bb-b8dd-f8ab934dd653","ios":"levelo://app?vid=000e672d-f817-49bb-b8dd-f8ab934dd653"},"vehicle_type_id":"4","last_reported":1728846461,"current_range_meters":36800,"station_id":"ce4bh692rcd13ifvqea0","pricing_plan_id":"cebpf4jnsgd1na2vs0mg"},{"bike_id":"7472adbc-f0bb-4c4d-b47e-f82bdf59d1ef","system_id":"levelo_inurba_marseille","lat":43.230591,"lon":5.354874,"is_reserved":false,"is_disabled":false,"rental_uris":{"android":"levelo://app?vid=7472adbc-f0bb-4c4d-b47e-f82bdf59d1ef","ios":"levelo://app?vid=7472adbc-f0bb-4c4d-b47e-f82bdf59d1ef"},"vehicle_type_id":"4","last_reported":1728846461,"current_range_meters":38400,"station_id":"cpo3342slgdg3j2ifvpg","pricing_plan_id":"cebpf4jnsgd1na2vs0mg"},{"bike_id":"cf060c54-b385-4999-9625-2ef3b6a18227","system_id":"levelo_inurba_marseille","lat":43.31072,"lon":5.38349,"is_reserved":false,"is_disabled":false,"rental_uris":{"android":"levelo://app?vid=cf060c54-b385-4999-9625-2ef3b6a18227","ios":"levelo://app?vid=cf060c54-b385-4999-9625-2ef3b6a18227"},"vehicle_type_id":"4","last_reported":1728846461,"current_range_meters":38800,"station_id":"ce4bgv92rcd13ifvqcr0","pricing_plan_id":"cebpf4jnsgd1na2vs0mg"},{"bike_id":"b4fd8142-7bed-4f8d-84d3-dd5550aac463","system_id":"levelo_inurba_marseille","lat":43.30298,"lon":5.40097,"is_reserved":false,"is_disabled":false,"rental_uris":{"android":"levelo://app?vid=b4fd8142-7bed-4f8d-84d3-dd5550aac463","ios":"levelo://app?vid=b4fd8142-7bed-4f8d-84d3-dd5550aac463"},"vehicle_type_id":"4","last_reported":1728846461,"current_range_meters":33600,"station_id":"ce4bh2h2rcd13ifvqdh0","pricing_plan_id":"cebpf4jnsgd1na2vs0mg"},{"bike_id":"a691dc80-0475-4a96-ab4d-61d3faa64db9","system_id":"levelo_inurba_marseille","lat":43.29528,"lon":5.38555,"is_reserved":false,"is_disabled":false,"rental_uris":{"android":"levelo://app?vid=a691dc80-0475-4a96-ab4d-61d3faa64db9","ios":"levelo://app?vid=a691dc80-0475-4a96-ab4d-61d3faa64db9"},"vehicle_type_id":"4","last_reported":1728846461,"current_range_meters":8400,"station_id":"ce4bgih2rcd13ifvqba0","pricing_plan_id":"cebpf4jnsgd1na2vs0mg"},{"bike_id":"ab74643d-1000-4824-a711-abd655b46663","system_id":"levelo_inurba_marseille","lat":43.29524,"lon":5.39047,"is_reserved":false,"is_disabled":false,"rental_uris":{"android":"levelo://app?vid=ab74643d-1000-4824-a711-abd655b46663","ios":"levelo://app?vid=ab74643d-1000-4824-a711-abd655b46663"},"vehicle_type_id":"4","last_reported":1728846461,"current_range_meters":38800,"station_id":"ce4bh3p2rcd13ifvqdp0","pricing_plan_id":"cebpf4jnsgd1na2vs0mg"},{"bike_id":"b9f4adf1-dca7-4036-9214-4b1d91092b0d","system_id":"levelo_inurba_marseille","lat":43.30324,"lon":5.40442,"is_reserved":false,"is_disabled":false,"rental_uris":{"android":"levelo://app?vid=b9f4adf1-dca7-4036-9214-4b1d91092b0d","ios":"levelo://app?vid=b9f4adf1-dca7-4036-9214-4b1d91092b0d"},"vehicle_type_id":"4","last_reported":1728846461,"current_range_meters":6400,"station_id":"ce4bh012rcd13ifvqd10","pricing_plan_id":"cebpf4jnsgd1na2vs0mg"},{"bike_id":"dc40a090-e957-4e81-9461-22da13153f93","system_id":"levelo_inurba_marseille","lat":43.25005,"lon":5.38926,"is_reserved":false,"is_disabled":false,"rental_uris":{"android":"levelo://app?vid=dc40a090-e957-4e81-9461-22da13153f93","ios":"levelo://app?vid=dc40a090-e957-4e81-9461-22da13153f93"},"vehicle_type_id":"4","last_reported":1728846461,"current_range_meters":38800,"station_id":"ce4bhgp2rcd13ifvqfd0","pricing_plan_id":"cebpf4jnsgd1na2vs0mg"},{"bike_id":"df7aad52-8d96-4731-9608-3eed53902e1e","system_id":"levelo_inurba_marseille","lat":43.3095,"lon":5.39048,"is_reserved":false,"is_disabled":false,"rental_uris":{"android":"levelo://app?vid=df7aad52-8d96-4731-9608-3eed53902e1e","ios":"levelo://app?vid=df7aad52-8d96-4731-9608-3eed53902e1e"},"vehicle_type_id":"4","last_reported":1728846461,"current_range_meters":38800,"station_id":"ce4bgup2rcd13ifvqco0","pricing_plan_id":"cebpf4jnsgd1na2vs0mg"},{"bike_id":"4b25fcea-d5b6-4f7b-a654-6ee3e22b0dfe","system_id":"levelo_inurba_marseille","lat":43.3229,"lon":5.38276,"is_reserved":false,"is_disabled":false,"rental_uris":{"android":"levelo://app?vid=4b25fcea-d5b6-4f7b-a654-6ee3e22b0dfe","ios":"levelo://app?vid=4b25fcea-d5b6-4f7b-a654-6ee3e22b0dfe"},"vehicle_type_id":"4","last_reported":1728846461,"current_range_meters":16400,"station_id":"ce4bhr12rcd13ifvqhqg","pricing_plan_id":"cebpf4jnsgd1na2vs0mg"},{"bike_id":"26ef0f82-778d-44d7-ad89-5daefc08a1a4","system_id":"levelo_inurba_marseille","lat":43.31462,"lon":5.37389,"is_reserved":false,"is_disabled":false,"rental_uris":{"android":"levelo://app?vid=26ef0f82-778d-44d7-ad89-5daefc08a1a4","ios":"levelo://app?vid=26ef0f82-778d-44d7-ad89-5daefc08a1a4"},"vehicle_type_id":"4","last_reported":1728846461,"current_range_meters":19600,"station_id":"","pricing_plan_id":"cebpf4jnsgd1na2vs0mg"},{"bike_id":"bf994896-4e33-4fd2-850e-19f20bc7bb36","system_id":"levelo_inurba_marseille","lat":43.28412,"lon":5.37519,"is_reserved":false,"is_disabled":false,"rental_uris":{"android":"levelo://app?vid=bf994896-4e33-4fd2-850e-19f20bc7bb36","ios":"levelo://app?vid=bf994896-4e33-4fd2-850e-19f20bc7bb36"},"vehicle_type_id":"4","last_reported":1728846461,"current_range_meters":38800,"station_id":"ce4bh412rcd13ifvqds0","pricing_plan_id":"cebpf4jnsgd1na2vs0mg"},{"bike_id":"5bd974c5-0032-4e59-8cbe-1cc3b135d8cb","system_id":"levelo_inurba_marseille","lat":43.28729,"lon":5.36091,"is_reserved":false,"is_disabled":false,"rental_uris":{"android":"levelo://app?vid=5bd974c5-0032-4e59-8cbe-1cc3b135d8cb","ios":"levelo://app?vid=5bd974c5-0032-4e59-8cbe-1cc3b135d8cb"},"vehicle_type_id":"4","last_reported":1728846461,"current_range_meters":32000,"station_id":"cki0cbj6b192h4jlfktg","pricing_plan_id":"cebpf4jnsgd1na2vs0mg"},{"bike_id":"25ed2710-8c35-44e6-81fd-8fc7cf6b54a8","system_id":"levelo_inurba_marseille","lat":43.274948,"lon":5.424466,"is_reserved":false,"is_disabled":false,"rental_uris":{"android":"levelo://app?vid=25ed2710-8c35-44e6-81fd-8fc7cf6b54a8","ios":"levelo://app?vid=25ed2710-8c35-44e6-81fd-8fc7cf6b54a8"},"vehicle_type_id":"4","last_reported":1728846461,"current_range_meters":20000,"station_id":"ce4bhn92rcd13ifvqgrg","pricing_plan_id":"cebpf4jnsgd1na2vs0mg"},{"bike_id":"b9b18d1e-08b0-4d2d-ae4b-c6ff6e5bb0fe","system_id":"levelo_inurba_marseille","lat":43.29641,"lon":5.3727,"is_reserved":false,"is_disabled":false,"rental_uris":{"android":"levelo://app?vid=b9b18d1e-08b0-4d2d-ae4b-c6ff6e5bb0fe","ios":"levelo://app?vid=b9b18d1e-08b0-4d2d-ae4b-c6ff6e5bb0fe"},"vehicle_type_id":"4","last_reported":1728846461,"current_range_meters":16000,"station_id":"ce4bgk12rcd13ifvqbj0","pricing_plan_id":"cebpf4jnsgd1na2vs0mg"},{"bike_id":"9dc24e1a-5dde-4f45-8bfb-5d453eec77c4","system_id":"levelo_inurba_marseille","lat":43.29417,"lon":5.38625,"is_reserved":false,"is_disabled":false,"rental_uris":{"android":"levelo://app?vid=9dc24e1a-5dde-4f45-8bfb-5d453eec77c4","ios":"levelo://app?vid=9dc24e1a-5dde-4f45-8bfb-5d453eec77c4"},"vehicle_type_id":"4","last_reported":1728846461,"current_range_meters":4400,"station_id":"ce4bh2h2rcd13ifvqdh0","pricing_plan_id":"cebpf4jnsgd1na2vs0mg"},{"bike_id":"6ddfc66b-734e-434e-a7f7-fa40e9aa954e","system_id":"levelo_inurba_marseille","lat":43.29789,"lon":5.39343,"is_reserved":false,"is_disabled":false,"rental_uris":{"android":"levelo://app?vid=6ddfc66b-734e-434e-a7f7-fa40e9aa954e","ios":"levelo://app?vid=6ddfc66b-734e-434e-a7f7-fa40e9aa954e"},"vehicle_type_id":"4","last_reported":1728846461,"current_range_meters":9200,"station_id":"chh1huq6cuj3fo74tm60","pricing_plan_id":"cebpf4jnsgd1na2vs0mg"},{"bike_id":"aedac563-15ee-4351-a523-b50d3fdb64d6","system_id":"levelo_inurba_marseille","lat":43.29932,"lon":5.3654,"is_reserved":false,"is_disabled":false,"rental_uris":{"android":"levelo://app?vid=aedac563-15ee-4351-a523-b50d3fdb64d6","ios":"levelo://app?vid=aedac563-15ee-4351-a523-b50d3fdb64d6"},"vehicle_type_id":"4","last_reported":1728846461,"current_range_meters":27600,"station_id":"ce4bgm92rcd13ifvqbr0","pricing_plan_id":"cebpf4jnsgd1na2vs0mg"},{"bike_id":"26e17979-e227-4224-a529-6170c31c8d09","system_id":"levelo_inurba_marseille","lat":43.29518,"lon":5.39408,"is_reserved":false,"is_disabled":false,"rental_uris":{"android":"levelo://app?vid=26e17979-e227-4224-a529-6170c31c8d09","ios":"levelo://app?vid=26e17979-e227-4224-a529-6170c31c8d09"},"vehicle_type_id":"4","last_reported":1728846461,"current_range_meters":8400,"station_id":"ce4bh292rcd13ifvqdf0","pricing_plan_id":"cebpf4jnsgd1na2vs0mg"},{"bike_id":"64d319f2-164b-4ef6-a30c-055db2ee446a","system_id":"levelo_inurba_marseille","lat":43.25318,"lon":5.38043,"is_reserved":false,"is_disabled":false,"rental_uris":{"android":"levelo://app?vid=64d319f2-164b-4ef6-a30c-055db2ee446a","ios":"levelo://app?vid=64d319f2-164b-4ef6-a30c-055db2ee446a"},"vehicle_type_id":"4","last_reported":1728846461,"current_range_meters":17200,"station_id":"","pricing_plan_id":"cebpf4jnsgd1na2vs0mg"},{"bike_id":"b5e82018-6cfe-4489-99cb-042823510eba","system_id":"levelo_inurba_marseille","lat":43.30928,"lon":5.4015,"is_reserved":false,"is_disabled":false,"rental_uris":{"android":"levelo://app?vid=b5e82018-6cfe-4489-99cb-042823510eba","ios":"levelo://app?vid=b5e82018-6cfe-4489-99cb-042823510eba"},"vehicle_type_id":"4","last_reported":1728846461,"current_range_meters":36400,"station_id":"ce4bgvp2rcd13ifvqct0","pricing_plan_id":"cebpf4jnsgd1na2vs0mg"},{"bike_id":"744d7d46-a030-452d-827a-600610e2a098","system_id":"levelo_inurba_marseille","lat":43.23183,"lon":5.39998,"is_reserved":false,"is_disabled":false,"rental_uris":{"android":"levelo://app?vid=744d7d46-a030-452d-827a-600610e2a098","ios":"levelo://app?vid=744d7d46-a030-452d-827a-600610e2a098"},"vehicle_type_id":"4","last_reported":1728846461,"current_range_meters":32400,"station_id":"ce4bhn12rcd13ifvqgqg","pricing_plan_id":"cebpf4jnsgd1na2vs0mg"},{"bike_id":"8ade89e6-a64e-4f3d-801c-ef64d2fa404a","system_id":"levelo_inurba_marseille","lat":43.31322,"lon":5.39702,"is_reserved":false,"is_disabled":false,"rental_uris":{"android":"levelo://app?vid=8ade89e6-a64e-4f3d-801c-ef64d2fa404a","ios":"levelo://app?vid=8ade89e6-a64e-4f3d-801c-ef64d2fa404a"},"vehicle_type_id":"4","last_reported":1728846461,"current_range_meters":34000,"station_id":"ce4bgvp2rcd13ifvqcu0","pricing_plan_id":"cebpf4jnsgd1na2vs0mg"},{"bike_id":"77c2d373-7038-4ba9-bee8-c19735c918e0","system_id":"levelo_inurba_marseille","lat":43.33608,"lon":5.41037,"is_reserved":false,"is_disabled":false,"rental_uris":{"android":"levelo://app?vid=77c2d373-7038-4ba9-bee8-c19735c918e0","ios":"levelo://app?vid=77c2d373-7038-4ba9-bee8-c19735c918e0"},"vehicle_type_id":"4","last_reported":1728846461,"current_range_meters":37600,"station_id":"ce4bhqh2rcd13ifvqhmg","pricing_plan_id":"cebpf4jnsgd1na2vs0mg"},{"bike_id":"2b9d5ece-2a9d-4b1a-9617-6ea2b2ec85b6","system_id":"levelo_inurba_marseille","lat":43.28105,"lon":5.37842,"is_reserved":false,"is_disabled":false,"rental_uris":{"android":"levelo://app?vid=2b9d5ece-2a9d-4b1a-9617-6ea2b2ec85b6","ios":"levelo://app?vid=2b9d5ece-2a9d-4b1a-9617-6ea2b2ec85b6"},"vehicle_type_id":"4","last_reported":1728846461,"current_range_meters":32800,"station_id":"ce4bha12rcd13ifvqee0","pricing_plan_id":"cebpf4jnsgd1na2vs0mg"},{"bike_id":"3defdbcf-ef8f-422f-83d2-82684a161b97","system_id":"levelo_inurba_marseille","lat":43.25577,"lon":5.38236,"is_reserved":false,"is_disabled":false,"rental_uris":{"android":"levelo://app?vid=3defdbcf-ef8f-422f-83d2-82684a161b97","ios":"levelo://app?vid=3defdbcf-ef8f-422f-83d2-82684a161b97"},"vehicle_type_id":"4","last_reported":1728846461,"current_range_meters":12000,"station_id":"ce4bhih2rcd13ifvqfs0","pricing_plan_id":"cebpf4jnsgd1na2vs0mg"},{"bike_id":"5e5f7a3b-041e-4657-b33d-6d761579747d","system_id":"levelo_inurba_marseille","lat":43.33024,"lon":5.39043,"is_reserved":false,"is_disabled":false,"rental_uris":{"android":"levelo://app?vid=5e5f7a3b-041e-4657-b33d-6d761579747d","ios":"levelo://app?vid=5e5f7a3b-041e-4657-b33d-6d761579747d"},"vehicle_type_id":"4","last_reported":1728846461,"current_range_meters":6400,"station_id":"ce4bhr92rcd13ifvqhrg","pricing_plan_id":"cebpf4jnsgd1na2vs0mg"},{"bike_id":"ef6dcb05-bb0e-4d0c-945d-3e60c4e36ba8","system_id":"levelo_inurba_marseille","lat":43.29886,"lon":5.38904,"is_reserved":false,"is_disabled":false,"rental_uris":{"android":"levelo://app?vid=ef6dcb05-bb0e-4d0c-945d-3e60c4e36ba8","ios":"levelo://app?vid=ef6dcb05-bb0e-4d0c-945d-3e60c4e36ba8"},"vehicle_type_id":"4","last_reported":1728846461,"current_range_meters":6800,"station_id":"ce4bh392rcd13ifvqdl0","pricing_plan_id":"cebpf4jnsgd1na2vs0mg"},{"bike_id":"66b7a16e-6796-4981-b35e-3f2cc868af25","system_id":"levelo_inurba_marseille","lat":43.30778,"lon":5.37656,"is_reserved":false,"is_disabled":false,"rental_uris":{"android":"levelo://app?vid=66b7a16e-6796-4981-b35e-3f2cc868af25","ios":"levelo://app?vid=66b7a16e-6796-4981-b35e-3f2cc868af25"},"vehicle_type_id":"4","last_reported":1728846461,"current_range_meters":24800,"station_id":"ce4bgv92rcd13ifvqcq0","pricing_plan_id":"cebpf4jnsgd1na2vs0mg"},{"bike_id":"24466155-6997-4f94-9fe8-7e013626ffff","system_id":"levelo_inurba_marseille","lat":43.298297,"lon":5.388778,"is_reserved":false,"is_disabled":false,"rental_uris":{"android":"levelo://app?vid=24466155-6997-4f94-9fe8-7e013626ffff","ios":"levelo://app?vid=24466155-6997-4f94-9fe8-7e013626ffff"},"vehicle_type_id":"4","last_reported":1728846461,"current_range_meters":3600,"station_id":"ce4bh392rcd13ifvqdl0","pricing_plan_id":"cebpf4jnsgd1na2vs0mg"},{"bike_id":"180fa9ac-c569-4822-999c-fdf81b883ca8","system_id":"levelo_inurba_marseille","lat":43.30545,"lon":5.38432,"is_reserved":false,"is_disabled":false,"rental_uris":{"android":"levelo://app?vid=180fa9ac-c569-4822-999c-fdf81b883ca8","ios":"levelo://app?vid=180fa9ac-c569-4822-999c-fdf81b883ca8"},"vehicle_type_id":"4","last_reported":1728846461,"current_range_meters":2800,"station_id":"ce4bgg92rcd13ifvqb30","pricing_plan_id":"cebpf4jnsgd1na2vs0mg"},{"bike_id":"d36a8747-7e1c-419d-b75f-08f0664b79e7","system_id":"levelo_inurba_marseille","lat":43.31176,"lon":5.3872,"is_reserved":false,"is_disabled":false,"rental_uris":{"android":"levelo://app?vid=d36a8747-7e1c-419d-b75f-08f0664b79e7","ios":"levelo://app?vid=d36a8747-7e1c-419d-b75f-08f0664b79e7"},"vehicle_type_id":"4","last_reported":1728846461,"current_range_meters":39200,"station_id":"ce4bgv12rcd13ifvqcp0","pricing_plan_id":"cebpf4jnsgd1na2vs0mg"},{"bike_id":"79e896a9-fffc-44a4-8871-b8e37d811e40","system_id":"levelo_inurba_marseille","lat":43.28852,"lon":5.39311,"is_reserved":false,"is_disabled":false,"rental_uris":{"android":"levelo://app?vid=79e896a9-fffc-44a4-8871-b8e37d811e40","ios":"levelo://app?vid=79e896a9-fffc-44a4-8871-b8e37d811e40"},"vehicle_type_id":"4","last_reported":1728846461,"current_range_meters":33600,"station_id":"ce4bh2p2rcd13ifvqdi0","pricing_plan_id":"cebpf4jnsgd1na2vs0mg"},{"bike_id":"fcd7499d-953e-490c-881b-5e9ac436b014","system_id":"levelo_inurba_marseille","lat":43.29021,"lon":5.38652,"is_reserved":false,"is_disabled":false,"rental_uris":{"android":"levelo://app?vid=fcd7499d-953e-490c-881b-5e9ac436b014","ios":"levelo://app?vid=fcd7499d-953e-490c-881b-5e9ac436b014"},"vehicle_type_id":"4","last_reported":1728846461,"current_range_meters":38800,"station_id":"ce4bh4p2rcd13ifvqe0g","pricing_plan_id":"cebpf4jnsgd1na2vs0mg"},{"bike_id":"c370b456-efe8-4bdb-ac9f-5e11062046ae","system_id":"levelo_inurba_marseille","lat":43.26198,"lon":5.37451,"is_reserved":false,"is_disabled":false,"rental_uris":{"android":"levelo://app?vid=c370b456-efe8-4bdb-ac9f-5e11062046ae","ios":"levelo://app?vid=c370b456-efe8-4bdb-ac9f-5e11062046ae"},"vehicle_type_id":"4","last_reported":1728846461,"current_range_meters":30400,"station_id":"ce4bhgp2rcd13ifvqfc0","pricing_plan_id":"cebpf4jnsgd1na2vs0mg"},{"bike_id":"c074db94-e0ff-49df-afe2-4cd4fb4d2847","system_id":"levelo_inurba_marseille","lat":43.24177,"lon":5.39734,"is_reserved":false,"is_disabled":false,"rental_uris":{"android":"levelo://app?vid=c074db94-e0ff-49df-afe2-4cd4fb4d2847","ios":"levelo://app?vid=c074db94-e0ff-49df-afe2-4cd4fb4d2847"},"vehicle_type_id":"4","last_reported":1728846461,"current_range_meters":16800,"station_id":"ce4bhn12rcd13ifvqgpg","pricing_plan_id":"cebpf4jnsgd1na2vs0mg"},{"bike_id":"08b90ce9-976c-4532-bec2-da40bf2d87f8","system_id":"levelo_inurba_marseille","lat":43.29095,"lon":5.38148,"is_reserved":false,"is_disabled":false,"rental_uris":{"android":"levelo://app?vid=08b90ce9-976c-4532-bec2-da40bf2d87f8","ios":"levelo://app?vid=08b90ce9-976c-4532-bec2-da40bf2d87f8"},"vehicle_type_id":"4","last_reported":1728846461,"current_range_meters":37600,"station_id":"ce4bh512rcd13ifvqe2g","pricing_plan_id":"cebpf4jnsgd1na2vs0mg"},{"bike_id":"5807b78d-00a5-4af6-b7a4-ec73100a9f48","system_id":"levelo_inurba_marseille","lat":43.28417,"lon":5.37523,"is_reserved":false,"is_disabled":false,"rental_uris":{"android":"levelo://app?vid=5807b78d-00a5-4af6-b7a4-ec73100a9f48","ios":"levelo://app?vid=5807b78d-00a5-4af6-b7a4-ec73100a9f48"},"vehicle_type_id":"4","last_reported":1728846461,"current_range_meters":38800,"station_id":"ce4bh412rcd13ifvqds0","pricing_plan_id":"cebpf4jnsgd1na2vs0mg"},{"bike_id":"eccffdca-8ae3-4d1b-8411-c1751546085f","system_id":"levelo_inurba_marseille","lat":43.25855,"lon":5.39907,"is_reserved":false,"is_disabled":false,"rental_uris":{"android":"levelo://app?vid=eccffdca-8ae3-4d1b-8411-c1751546085f","ios":"levelo://app?vid=eccffdca-8ae3-4d1b-8411-c1751546085f"},"vehicle_type_id":"4","last_reported":1728846461,"current_range_meters":31200,"station_id":"ce4bhl92rcd13ifvqghg","pricing_plan_id":"cebpf4jnsgd1na2vs0mg"},{"bike_id":"9d671549-67ad-4eb0-ace0-50f59d8a0c79","system_id":"levelo_inurba_marseille","lat":43.31109,"lon":5.38064,"is_reserved":false,"is_disabled":false,"rental_uris":{"android":"levelo://app?vid=9d671549-67ad-4eb0-ace0-50f59d8a0c79","ios":"levelo://app?vid=9d671549-67ad-4eb0-ace0-50f59d8a0c79"},"vehicle_type_id":"4","last_reported":1728846461,"current_range_meters":22800,"station_id":"ce4bgt92rcd13ifvqcf0","pricing_plan_id":"cebpf4jnsgd1na2vs0mg"},{"bike_id":"5c639a26-5c91-4b8b-9329-66026ae8437d","system_id":"levelo_inurba_marseille","lat":43.24666,"lon":5.3817,"is_reserved":false,"is_disabled":false,"rental_uris":{"android":"levelo://app?vid=5c639a26-5c91-4b8b-9329-66026ae8437d","ios":"levelo://app?vid=5c639a26-5c91-4b8b-9329-66026ae8437d"},"vehicle_type_id":"4","last_reported":1728846461,"current_range_meters":34000,"station_id":"ce4bhih2rcd13ifvqfr0","pricing_plan_id":"cebpf4jnsgd1na2vs0mg"},{"bike_id":"3f6ccd2a-c95b-4a9e-af4c-297fbace2f14","system_id":"levelo_inurba_marseille","lat":43.26677,"lon":5.38267,"is_reserved":false,"is_disabled":false,"rental_uris":{"android":"levelo://app?vid=3f6ccd2a-c95b-4a9e-af4c-297fbace2f14","ios":"levelo://app?vid=3f6ccd2a-c95b-4a9e-af4c-297fbace2f14"},"vehicle_type_id":"4","last_reported":1728846461,"current_range_meters":7200,"station_id":"ce4bhg92rcd13ifvqf90","pricing_plan_id":"cebpf4jnsgd1na2vs0mg"},{"bike_id":"d04013bb-4208-4517-8244-ea6814fa2ac2","system_id":"levelo_inurba_marseille","lat":43.29897,"lon":5.43674,"is_reserved":false,"is_disabled":false,"rental_uris":{"android":"levelo://app?vid=d04013bb-4208-4517-8244-ea6814fa2ac2","ios":"levelo://app?vid=d04013bb-4208-4517-8244-ea6814fa2ac2"},"vehicle_type_id":"4","last_reported":1728846461,"current_range_meters":14000,"station_id":"ce4bhpp2rcd13ifvqhfg","pricing_plan_id":"cebpf4jnsgd1na2vs0mg"},{"bike_id":"00bc3eec-6367-49cf-a034-725d08e1c6b6","system_id":"levelo_inurba_marseille","lat":43.25816,"lon":5.39438,"is_reserved":false,"is_disabled":false,"rental_uris":{"android":"levelo://app?vid=00bc3eec-6367-49cf-a034-725d08e1c6b6","ios":"levelo://app?vid=00bc3eec-6367-49cf-a034-725d08e1c6b6"},"vehicle_type_id":"4","last_reported":1728846461,"current_range_meters":9600,"station_id":"ce4bhip2rcd13ifvqft0","pricing_plan_id":"cebpf4jnsgd1na2vs0mg"},{"bike_id":"0c697a75-a415-438a-ba6b-8d7a1b5ee488","system_id":"levelo_inurba_marseille","lat":43.29367,"lon":5.37852,"is_reserved":false,"is_disabled":false,"rental_uris":{"android":"levelo://app?vid=0c697a75-a415-438a-ba6b-8d7a1b5ee488","ios":"levelo://app?vid=0c697a75-a415-438a-ba6b-8d7a1b5ee488"},"vehicle_type_id":"4","last_reported":1728846461,"current_range_meters":3200,"station_id":"ce4bgjh2rcd13ifvqbf0","pricing_plan_id":"cebpf4jnsgd1na2vs0mg"},{"bike_id":"5966984f-e690-4f16-823b-9c9885be5acc","system_id":"levelo_inurba_marseille","lat":43.25503,"lon":5.37651,"is_reserved":false,"is_disabled":false,"rental_uris":{"android":"levelo://app?vid=5966984f-e690-4f16-823b-9c9885be5acc","ios":"levelo://app?vid=5966984f-e690-4f16-823b-9c9885be5acc"},"vehicle_type_id":"4","last_reported":1728846461,"current_range_meters":38800,"station_id":"ce4bhh12rcd13ifvqff0","pricing_plan_id":"cebpf4jnsgd1na2vs0mg"},{"bike_id":"66c9a963-8b9d-417f-b817-8b024026116d","system_id":"levelo_inurba_marseille","lat":43.30606,"lon":5.37208,"is_reserved":false,"is_disabled":false,"rental_uris":{"android":"levelo://app?vid=66c9a963-8b9d-417f-b817-8b024026116d","ios":"levelo://app?vid=66c9a963-8b9d-417f-b817-8b024026116d"},"vehicle_type_id":"4","last_reported":1728846461,"current_range_meters":19200,"station_id":"ce4bgqh2rcd13ifvqc4g","pricing_plan_id":"cebpf4jnsgd1na2vs0mg"},{"bike_id":"b7c37ac6-8b08-4acb-8d86-8cdb738cf50f","system_id":"levelo_inurba_marseille","lat":43.29881,"lon":5.39751,"is_reserved":false,"is_disabled":false,"rental_uris":{"android":"levelo://app?vid=b7c37ac6-8b08-4acb-8d86-8cdb738cf50f","ios":"levelo://app?vid=b7c37ac6-8b08-4acb-8d86-8cdb738cf50f"},"vehicle_type_id":"4","last_reported":1728846461,"current_range_meters":10000,"station_id":"ce4bh0h2rcd13ifvqd50","pricing_plan_id":"cebpf4jnsgd1na2vs0mg"},{"bike_id":"7ae5aec0-d26a-443e-b53a-fee38a54b212","system_id":"levelo_inurba_marseille","lat":43.29298,"lon":5.3744,"is_reserved":false,"is_disabled":false,"rental_uris":{"android":"levelo://app?vid=7ae5aec0-d26a-443e-b53a-fee38a54b212","ios":"levelo://app?vid=7ae5aec0-d26a-443e-b53a-fee38a54b212"},"vehicle_type_id":"4","last_reported":1728846461,"current_range_meters":38800,"station_id":"ce4bgi12rcd13ifvqb70","pricing_plan_id":"cebpf4jnsgd1na2vs0mg"},{"bike_id":"96124732-5d93-4162-958b-d7533f5930fa","system_id":"levelo_inurba_marseille","lat":43.28414,"lon":5.3752,"is_reserved":false,"is_disabled":false,"rental_uris":{"android":"levelo://app?vid=96124732-5d93-4162-958b-d7533f5930fa","ios":"levelo://app?vid=96124732-5d93-4162-958b-d7533f5930fa"},"vehicle_type_id":"4","last_reported":1728846461,"current_range_meters":38800,"station_id":"ce4bh412rcd13ifvqds0","pricing_plan_id":"cebpf4jnsgd1na2vs0mg"},{"bike_id":"42cede74-d141-4d6b-a790-a30a9d0f6f40","system_id":"levelo_inurba_marseille","lat":43.31895,"lon":5.40747,"is_reserved":false,"is_disabled":false,"rental_uris":{"android":"levelo://app?vid=42cede74-d141-4d6b-a790-a30a9d0f6f40","ios":"levelo://app?vid=42cede74-d141-4d6b-a790-a30a9d0f6f40"},"vehicle_type_id":"4","last_reported":1728846461,"current_range_meters":24000,"station_id":"ce4bhq12rcd13ifvqhig","pricing_plan_id":"cebpf4jnsgd1na2vs0mg"},{"bike_id":"549d6d74-2989-4262-84f7-d0467c6c02f7","system_id":"levelo_inurba_marseille","lat":43.29901,"lon":5.4368,"is_reserved":false,"is_disabled":false,"rental_uris":{"android":"levelo://app?vid=549d6d74-2989-4262-84f7-d0467c6c02f7","ios":"levelo://app?vid=549d6d74-2989-4262-84f7-d0467c6c02f7"},"vehicle_type_id":"4","last_reported":1728846461,"current_range_meters":16800,"station_id":"ce4bhpp2rcd13ifvqhfg","pricing_plan_id":"cebpf4jnsgd1na2vs0mg"},{"bike_id":"4cc78f8d-edec-4dd7-9997-05a103593f9c","system_id":"levelo_inurba_marseille","lat":43.30883,"lon":5.39662,"is_reserved":false,"is_disabled":false,"rental_uris":{"android":"levelo://app?vid=4cc78f8d-edec-4dd7-9997-05a103593f9c","ios":"levelo://app?vid=4cc78f8d-edec-4dd7-9997-05a103593f9c"},"vehicle_type_id":"4","last_reported":1728846461,"current_range_meters":18800,"station_id":"ce4bh012rcd13ifvqcv0","pricing_plan_id":"cebpf4jnsgd1na2vs0mg"},{"bike_id":"1e0af55a-98c4-4ebc-a1a7-fb554fa91241","system_id":"levelo_inurba_marseille","lat":43.3059,"lon":5.393635,"is_reserved":false,"is_disabled":false,"rental_uris":{"android":"levelo://app?vid=1e0af55a-98c4-4ebc-a1a7-fb554fa91241","ios":"levelo://app?vid=1e0af55a-98c4-4ebc-a1a7-fb554fa91241"},"vehicle_type_id":"4","last_reported":1728846461,"current_range_meters":38000,"station_id":"ce4bh0p2rcd13ifvqd80","pricing_plan_id":"cebpf4jnsgd1na2vs0mg"},{"bike_id":"cd416b81-b067-4ec8-9794-aeeb293fa8af","system_id":"levelo_inurba_marseille","lat":43.29914,"lon":5.37482,"is_reserved":false,"is_disabled":false,"rental_uris":{"android":"levelo://app?vid=cd416b81-b067-4ec8-9794-aeeb293fa8af","ios":"levelo://app?vid=cd416b81-b067-4ec8-9794-aeeb293fa8af"},"vehicle_type_id":"4","last_reported":1728846461,"current_range_meters":11200,"station_id":"ce4bgjh2rcd13ifvqbg0","pricing_plan_id":"cebpf4jnsgd1na2vs0mg"},{"bike_id":"86f622d8-25af-4828-be66-dd2949a95229","system_id":"levelo_inurba_marseille","lat":43.3133,"lon":5.39699,"is_reserved":false,"is_disabled":false,"rental_uris":{"android":"levelo://app?vid=86f622d8-25af-4828-be66-dd2949a95229","ios":"levelo://app?vid=86f622d8-25af-4828-be66-dd2949a95229"},"vehicle_type_id":"4","last_reported":1728846461,"current_range_meters":38800,"station_id":"ce4bgvp2rcd13ifvqcu0","pricing_plan_id":"cebpf4jnsgd1na2vs0mg"},{"bike_id":"7563807c-d27a-4161-8a5f-4b0cb3141228","system_id":"levelo_inurba_marseille","lat":43.33729,"lon":5.39186,"is_reserved":false,"is_disabled":false,"rental_uris":{"android":"levelo://app?vid=7563807c-d27a-4161-8a5f-4b0cb3141228","ios":"levelo://app?vid=7563807c-d27a-4161-8a5f-4b0cb3141228"},"vehicle_type_id":"4","last_reported":1728846461,"current_range_meters":3200,"station_id":"ce4bhr92rcd13ifvqhsg","pricing_plan_id":"cebpf4jnsgd1na2vs0mg"},{"bike_id":"5bc9b78b-9615-45c0-a888-79c429dfa74a","system_id":"levelo_inurba_marseille","lat":43.33738,"lon":5.39197,"is_reserved":false,"is_disabled":false,"rental_uris":{"android":"levelo://app?vid=5bc9b78b-9615-45c0-a888-79c429dfa74a","ios":"levelo://app?vid=5bc9b78b-9615-45c0-a888-79c429dfa74a"},"vehicle_type_id":"4","last_reported":1728846461,"current_range_meters":16000,"station_id":"ce4bhr92rcd13ifvqhsg","pricing_plan_id":"cebpf4jnsgd1na2vs0mg"},{"bike_id":"d78c27bf-97c1-420b-82fb-48ca2bea5d28","system_id":"levelo_inurba_marseille","lat":43.26198,"lon":5.37939,"is_reserved":false,"is_disabled":false,"rental_uris":{"android":"levelo://app?vid=d78c27bf-97c1-420b-82fb-48ca2bea5d28","ios":"levelo://app?vid=d78c27bf-97c1-420b-82fb-48ca2bea5d28"},"vehicle_type_id":"4","last_reported":1728846461,"current_range_meters":3200,"station_id":"ce4bhjp2rcd13ifvqg90","pricing_plan_id":"cebpf4jnsgd1na2vs0mg"},{"bike_id":"43e2d030-0bfb-4517-b041-e8f66461591c","system_id":"levelo_inurba_marseille","lat":43.30303,"lon":5.39207,"is_reserved":false,"is_disabled":false,"rental_uris":{"android":"levelo://app?vid=43e2d030-0bfb-4517-b041-e8f66461591c","ios":"levelo://app?vid=43e2d030-0bfb-4517-b041-e8f66461591c"},"vehicle_type_id":"4","last_reported":1728846461,"current_range_meters":24400,"station_id":"ce4bgkh2rcd13ifvqbk0","pricing_plan_id":"cebpf4jnsgd1na2vs0mg"},{"bike_id":"38f07ed5-0c99-48e1-abbf-f4d75869169c","system_id":"levelo_inurba_marseille","lat":43.28851,"lon":5.39296,"is_reserved":false,"is_disabled":false,"rental_uris":{"android":"levelo://app?vid=38f07ed5-0c99-48e1-abbf-f4d75869169c","ios":"levelo://app?vid=38f07ed5-0c99-48e1-abbf-f4d75869169c"},"vehicle_type_id":"4","last_reported":1728846461,"current_range_meters":27600,"station_id":"ce4bh2p2rcd13ifvqdi0","pricing_plan_id":"cebpf4jnsgd1na2vs0mg"},{"bike_id":"7e18ad77-4a6a-4823-888b-42a1fc290045","system_id":"levelo_inurba_marseille","lat":43.26932,"lon":5.40264,"is_reserved":false,"is_disabled":false,"rental_uris":{"android":"levelo://app?vid=7e18ad77-4a6a-4823-888b-42a1fc290045","ios":"levelo://app?vid=7e18ad77-4a6a-4823-888b-42a1fc290045"},"vehicle_type_id":"4","last_reported":1728846461,"current_range_meters":38800,"station_id":"cjm6bp8fraef2m0cb0m0","pricing_plan_id":"cebpf4jnsgd1na2vs0mg"},{"bike_id":"adc7d74b-739a-4700-b0e4-f97c3081e144","system_id":"levelo_inurba_marseille","lat":43.29041,"lon":5.3757,"is_reserved":false,"is_disabled":false,"rental_uris":{"android":"levelo://app?vid=adc7d74b-739a-4700-b0e4-f97c3081e144","ios":"levelo://app?vid=adc7d74b-739a-4700-b0e4-f97c3081e144"},"vehicle_type_id":"4","last_reported":1728846461,"current_range_meters":15200,"station_id":"ce4bh692rcd13ifvqe90","pricing_plan_id":"cebpf4jnsgd1na2vs0mg"},{"bike_id":"24ddde74-3313-452c-a8e1-c554fbc08b52","system_id":"levelo_inurba_marseille","lat":43.24662,"lon":5.38173,"is_reserved":false,"is_disabled":false,"rental_uris":{"android":"levelo://app?vid=24ddde74-3313-452c-a8e1-c554fbc08b52","ios":"levelo://app?vid=24ddde74-3313-452c-a8e1-c554fbc08b52"},"vehicle_type_id":"4","last_reported":1728846461,"current_range_meters":28000,"station_id":"ce4bhih2rcd13ifvqfr0","pricing_plan_id":"cebpf4jnsgd1na2vs0mg"},{"bike_id":"4a5b80c1-bd19-4661-9bfc-f6ee285bfbbe","system_id":"levelo_inurba_marseille","lat":43.29031,"lon":5.38645,"is_reserved":false,"is_disabled":false,"rental_uris":{"android":"levelo://app?vid=4a5b80c1-bd19-4661-9bfc-f6ee285bfbbe","ios":"levelo://app?vid=4a5b80c1-bd19-4661-9bfc-f6ee285bfbbe"},"vehicle_type_id":"4","last_reported":1728846461,"current_range_meters":27600,"station_id":"ce4bh4p2rcd13ifvqe0g","pricing_plan_id":"cebpf4jnsgd1na2vs0mg"},{"bike_id":"88d806d9-ecee-4fa0-8350-4aa528297ba7","system_id":"levelo_inurba_marseille","lat":43.291,"lon":5.38142,"is_reserved":false,"is_disabled":false,"rental_uris":{"android":"levelo://app?vid=88d806d9-ecee-4fa0-8350-4aa528297ba7","ios":"levelo://app?vid=88d806d9-ecee-4fa0-8350-4aa528297ba7"},"vehicle_type_id":"4","last_reported":1728846461,"current_range_meters":6800,"station_id":"ce4bh512rcd13ifvqe2g","pricing_plan_id":"cebpf4jnsgd1na2vs0mg"},{"bike_id":"b7d5f2d8-e166-4110-9144-a2383360d5ef","system_id":"levelo_inurba_marseille","lat":43.3108,"lon":5.42433,"is_reserved":false,"is_disabled":false,"rental_uris":{"android":"levelo://app?vid=b7d5f2d8-e166-4110-9144-a2383360d5ef","ios":"levelo://app?vid=b7d5f2d8-e166-4110-9144-a2383360d5ef"},"vehicle_type_id":"4","last_reported":1728846461,"current_range_meters":5600,"station_id":"ce4bhp92rcd13ifvqhag","pricing_plan_id":"cebpf4jnsgd1na2vs0mg"},{"bike_id":"564dcfd4-3820-404b-9e9f-da7d5903a9f5","system_id":"levelo_inurba_marseille","lat":43.29708,"lon":5.37696,"is_reserved":false,"is_disabled":false,"rental_uris":{"android":"levelo://app?vid=564dcfd4-3820-404b-9e9f-da7d5903a9f5","ios":"levelo://app?vid=564dcfd4-3820-404b-9e9f-da7d5903a9f5"},"vehicle_type_id":"4","last_reported":1728846461,"current_range_meters":17600,"station_id":"ce4bgkh2rcd13ifvqbl0","pricing_plan_id":"cebpf4jnsgd1na2vs0mg"},{"bike_id":"729b5747-2745-44f4-8e45-767e543cac8a","system_id":"levelo_inurba_marseille","lat":43.33034,"lon":5.38936,"is_reserved":false,"is_disabled":false,"rental_uris":{"android":"levelo://app?vid=729b5747-2745-44f4-8e45-767e543cac8a","ios":"levelo://app?vid=729b5747-2745-44f4-8e45-767e543cac8a"},"vehicle_type_id":"4","last_reported":1728846461,"current_range_meters":36800,"station_id":"","pricing_plan_id":"cebpf4jnsgd1na2vs0mg"},{"bike_id":"2aefec87-76db-4148-be79-3093f38525b3","system_id":"levelo_inurba_marseille","lat":43.29921,"lon":5.37475,"is_reserved":false,"is_disabled":false,"rental_uris":{"android":"levelo://app?vid=2aefec87-76db-4148-be79-3093f38525b3","ios":"levelo://app?vid=2aefec87-76db-4148-be79-3093f38525b3"},"vehicle_type_id":"4","last_reported":1728846461,"current_range_meters":27200,"station_id":"ce4bgjh2rcd13ifvqbg0","pricing_plan_id":"cebpf4jnsgd1na2vs0mg"},{"bike_id":"6a98afc1-6dae-40c7-a24c-079a1265e2b9","system_id":"levelo_inurba_marseille","lat":43.2681,"lon":5.40273,"is_reserved":false,"is_disabled":false,"rental_uris":{"android":"levelo://app?vid=6a98afc1-6dae-40c7-a24c-079a1265e2b9","ios":"levelo://app?vid=6a98afc1-6dae-40c7-a24c-079a1265e2b9"},"vehicle_type_id":"4","last_reported":1728846461,"current_range_meters":25600,"station_id":"ce501612rcd8frsf0b60","pricing_plan_id":"cebpf4jnsgd1na2vs0mg"},{"bike_id":"dc794c74-0f30-4137-ae4b-d3baf705f788","system_id":"levelo_inurba_marseille","lat":43.27901,"lon":5.38012,"is_reserved":false,"is_disabled":false,"rental_uris":{"android":"levelo://app?vid=dc794c74-0f30-4137-ae4b-d3baf705f788","ios":"levelo://app?vid=dc794c74-0f30-4137-ae4b-d3baf705f788"},"vehicle_type_id":"4","last_reported":1728846461,"current_range_meters":20400,"station_id":"ce4bhf92rcd13ifvqf50","pricing_plan_id":"cebpf4jnsgd1na2vs0mg"},{"bike_id":"91f6673b-90a8-411d-99db-7565c73ddd0e","system_id":"levelo_inurba_marseille","lat":43.33023,"lon":5.39042,"is_reserved":false,"is_disabled":false,"rental_uris":{"android":"levelo://app?vid=91f6673b-90a8-411d-99db-7565c73ddd0e","ios":"levelo://app?vid=91f6673b-90a8-411d-99db-7565c73ddd0e"},"vehicle_type_id":"4","last_reported":1728846461,"current_range_meters":20400,"station_id":"ce4bhr92rcd13ifvqhrg","pricing_plan_id":"cebpf4jnsgd1na2vs0mg"},{"bike_id":"62b35810-2788-484a-8c4e-b06cc56a6d95","system_id":"levelo_inurba_marseille","lat":43.28455,"lon":5.3589,"is_reserved":false,"is_disabled":false,"rental_uris":{"android":"levelo://app?vid=62b35810-2788-484a-8c4e-b06cc56a6d95","ios":"levelo://app?vid=62b35810-2788-484a-8c4e-b06cc56a6d95"},"vehicle_type_id":"4","last_reported":1728846461,"current_range_meters":4800,"station_id":"ce4bhah2rcd13ifvqei0","pricing_plan_id":"cebpf4jnsgd1na2vs0mg"},{"bike_id":"12a1dc52-1e0e-44bc-b93a-5523961bdfa6","system_id":"levelo_inurba_marseille","lat":43.30537,"lon":5.38422,"is_reserved":false,"is_disabled":false,"rental_uris":{"android":"levelo://app?vid=12a1dc52-1e0e-44bc-b93a-5523961bdfa6","ios":"levelo://app?vid=12a1dc52-1e0e-44bc-b93a-5523961bdfa6"},"vehicle_type_id":"4","last_reported":1728846461,"current_range_meters":8800,"station_id":"ce4bgg92rcd13ifvqb30","pricing_plan_id":"cebpf4jnsgd1na2vs0mg"},{"bike_id":"d2969520-94d2-426c-a3fa-3a28f4281670","system_id":"levelo_inurba_marseille","lat":43.29528,"lon":5.39052,"is_reserved":false,"is_disabled":false,"rental_uris":{"android":"levelo://app?vid=d2969520-94d2-426c-a3fa-3a28f4281670","ios":"levelo://app?vid=d2969520-94d2-426c-a3fa-3a28f4281670"},"vehicle_type_id":"4","last_reported":1728846461,"current_range_meters":38800,"station_id":"ce4bh3p2rcd13ifvqdp0","pricing_plan_id":"cebpf4jnsgd1na2vs0mg"},{"bike_id":"dc82ed02-331a-41ef-a548-b054919d66d3","system_id":"levelo_inurba_marseille","lat":43.24179,"lon":5.3973,"is_reserved":false,"is_disabled":false,"rental_uris":{"android":"levelo://app?vid=dc82ed02-331a-41ef-a548-b054919d66d3","ios":"levelo://app?vid=dc82ed02-331a-41ef-a548-b054919d66d3"},"vehicle_type_id":"4","last_reported":1728846461,"current_range_meters":2800,"station_id":"ce4bhn12rcd13ifvqgpg","pricing_plan_id":"cebpf4jnsgd1na2vs0mg"},{"bike_id":"6f7399da-6330-407f-b021-d53846382c0f","system_id":"levelo_inurba_marseille","lat":43.25001,"lon":5.38928,"is_reserved":false,"is_disabled":false,"rental_uris":{"android":"levelo://app?vid=6f7399da-6330-407f-b021-d53846382c0f","ios":"levelo://app?vid=6f7399da-6330-407f-b021-d53846382c0f"},"vehicle_type_id":"4","last_reported":1728846461,"current_range_meters":17200,"station_id":"ce4bhgp2rcd13ifvqfd0","pricing_plan_id":"cebpf4jnsgd1na2vs0mg"},{"bike_id":"2ab423a0-58a0-4125-b3de-29c6611f5114","system_id":"levelo_inurba_marseille","lat":43.25086,"lon":5.39519,"is_reserved":false,"is_disabled":false,"rental_uris":{"android":"levelo://app?vid=2ab423a0-58a0-4125-b3de-29c6611f5114","ios":"levelo://app?vid=2ab423a0-58a0-4125-b3de-29c6611f5114"},"vehicle_type_id":"4","last_reported":1728846461,"current_range_meters":38800,"station_id":"ce4bhm12rcd13ifvqgkg","pricing_plan_id":"cebpf4jnsgd1na2vs0mg"},{"bike_id":"2e456db8-1a5f-41a3-b523-53ecee8f12dc","system_id":"levelo_inurba_marseille","lat":43.30602,"lon":5.37222,"is_reserved":false,"is_disabled":false,"rental_uris":{"android":"levelo://app?vid=2e456db8-1a5f-41a3-b523-53ecee8f12dc","ios":"levelo://app?vid=2e456db8-1a5f-41a3-b523-53ecee8f12dc"},"vehicle_type_id":"4","last_reported":1728846461,"current_range_meters":39200,"station_id":"ce4bgqh2rcd13ifvqc4g","pricing_plan_id":"cebpf4jnsgd1na2vs0mg"},{"bike_id":"2345577c-d92c-4664-a791-5b888c5c1382","system_id":"levelo_inurba_marseille","lat":43.29599,"lon":5.381,"is_reserved":false,"is_disabled":false,"rental_uris":{"android":"levelo://app?vid=2345577c-d92c-4664-a791-5b888c5c1382","ios":"levelo://app?vid=2345577c-d92c-4664-a791-5b888c5c1382"},"vehicle_type_id":"4","last_reported":1728846461,"current_range_meters":24800,"station_id":"ce4bgl12rcd13ifvqbo0","pricing_plan_id":"cebpf4jnsgd1na2vs0mg"},{"bike_id":"699451ba-dba1-4cc7-b931-20482fc283a8","system_id":"levelo_inurba_marseille","lat":43.30653,"lon":5.40099,"is_reserved":false,"is_disabled":false,"rental_uris":{"android":"levelo://app?vid=699451ba-dba1-4cc7-b931-20482fc283a8","ios":"levelo://app?vid=699451ba-dba1-4cc7-b931-20482fc283a8"},"vehicle_type_id":"4","last_reported":1728846461,"current_range_meters":24400,"station_id":"ce4bh112rcd13ifvqda0","pricing_plan_id":"cebpf4jnsgd1na2vs0mg"},{"bike_id":"1b8c6c6d-1fe9-48ef-81fc-2e3864db520f","system_id":"levelo_inurba_marseille","lat":43.29557,"lon":5.42298,"is_reserved":false,"is_disabled":false,"rental_uris":{"android":"levelo://app?vid=1b8c6c6d-1fe9-48ef-81fc-2e3864db520f","ios":"levelo://app?vid=1b8c6c6d-1fe9-48ef-81fc-2e3864db520f"},"vehicle_type_id":"4","last_reported":1728846461,"current_range_meters":26000,"station_id":"ce4bhph2rcd13ifvqhdg","pricing_plan_id":"cebpf4jnsgd1na2vs0mg"},{"bike_id":"debe48d7-7243-499e-96d3-0b5e1402766d","system_id":"levelo_inurba_marseille","lat":43.29193,"lon":5.35811,"is_reserved":false,"is_disabled":false,"rental_uris":{"android":"levelo://app?vid=debe48d7-7243-499e-96d3-0b5e1402766d","ios":"levelo://app?vid=debe48d7-7243-499e-96d3-0b5e1402766d"},"vehicle_type_id":"4","last_reported":1728846461,"current_range_meters":12400,"station_id":"ce4bhb12rcd13ifvqel0","pricing_plan_id":"cebpf4jnsgd1na2vs0mg"},{"bike_id":"ca888b5b-f95e-4ccd-b158-a1e69abb200b","system_id":"levelo_inurba_marseille","lat":43.29024,"lon":5.38645,"is_reserved":false,"is_disabled":false,"rental_uris":{"android":"levelo://app?vid=ca888b5b-f95e-4ccd-b158-a1e69abb200b","ios":"levelo://app?vid=ca888b5b-f95e-4ccd-b158-a1e69abb200b"},"vehicle_type_id":"4","last_reported":1728846461,"current_range_meters":7200,"station_id":"ce4bh4p2rcd13ifvqe0g","pricing_plan_id":"cebpf4jnsgd1na2vs0mg"},{"bike_id":"6079e7aa-0ee6-4d31-aa0e-861f57578c9f","system_id":"levelo_inurba_marseille","lat":43.28924,"lon":5.36405,"is_reserved":false,"is_disabled":false,"rental_uris":{"android":"levelo://app?vid=6079e7aa-0ee6-4d31-aa0e-861f57578c9f","ios":"levelo://app?vid=6079e7aa-0ee6-4d31-aa0e-861f57578c9f"},"vehicle_type_id":"4","last_reported":1728846461,"current_range_meters":38800,"station_id":"ce4bhc92rcd13ifvqetg","pricing_plan_id":"cebpf4jnsgd1na2vs0mg"},{"bike_id":"d7ed9a21-0e85-466b-84e2-bc5a3810ccb9","system_id":"levelo_inurba_marseille","lat":43.284,"lon":5.37528,"is_reserved":false,"is_disabled":false,"rental_uris":{"android":"levelo://app?vid=d7ed9a21-0e85-466b-84e2-bc5a3810ccb9","ios":"levelo://app?vid=d7ed9a21-0e85-466b-84e2-bc5a3810ccb9"},"vehicle_type_id":"4","last_reported":1728846461,"current_range_meters":8000,"station_id":"ce4bh412rcd13ifvqds0","pricing_plan_id":"cebpf4jnsgd1na2vs0mg"},{"bike_id":"ec2f5956-0bd0-4154-8f53-b28cdc549918","system_id":"levelo_inurba_marseille","lat":43.32366,"lon":5.38886,"is_reserved":false,"is_disabled":false,"rental_uris":{"android":"levelo://app?vid=ec2f5956-0bd0-4154-8f53-b28cdc549918","ios":"levelo://app?vid=ec2f5956-0bd0-4154-8f53-b28cdc549918"},"vehicle_type_id":"4","last_reported":1728846461,"current_range_meters":6800,"station_id":"ce4bhqp2rcd13ifvqhog","pricing_plan_id":"cebpf4jnsgd1na2vs0mg"},{"bike_id":"a9d5587c-1809-4b1f-a195-4d440a10f784","system_id":"levelo_inurba_marseille","lat":43.29538,"lon":5.385394,"is_reserved":false,"is_disabled":false,"rental_uris":{"android":"levelo://app?vid=a9d5587c-1809-4b1f-a195-4d440a10f784","ios":"levelo://app?vid=a9d5587c-1809-4b1f-a195-4d440a10f784"},"vehicle_type_id":"4","last_reported":1728846461,"current_range_meters":34800,"station_id":"ce4bgih2rcd13ifvqba0","pricing_plan_id":"cebpf4jnsgd1na2vs0mg"},{"bike_id":"c5e1c5f0-4d0d-43b4-a5ce-bda7a5679e5e","system_id":"levelo_inurba_marseille","lat":43.30928,"lon":5.40144,"is_reserved":false,"is_disabled":false,"rental_uris":{"android":"levelo://app?vid=c5e1c5f0-4d0d-43b4-a5ce-bda7a5679e5e","ios":"levelo://app?vid=c5e1c5f0-4d0d-43b4-a5ce-bda7a5679e5e"},"vehicle_type_id":"4","last_reported":1728846461,"current_range_meters":18800,"station_id":"ce4bgvp2rcd13ifvqct0","pricing_plan_id":"cebpf4jnsgd1na2vs0mg"},{"bike_id":"27e30b31-ae65-40a7-9382-c3f316db6b2b","system_id":"levelo_inurba_marseille","lat":43.31075,"lon":5.38361,"is_reserved":false,"is_disabled":false,"rental_uris":{"android":"levelo://app?vid=27e30b31-ae65-40a7-9382-c3f316db6b2b","ios":"levelo://app?vid=27e30b31-ae65-40a7-9382-c3f316db6b2b"},"vehicle_type_id":"4","last_reported":1728846461,"current_range_meters":38800,"station_id":"ce4bgv92rcd13ifvqcr0","pricing_plan_id":"cebpf4jnsgd1na2vs0mg"},{"bike_id":"7c095d3c-604a-4602-b927-64e3a8b70e01","system_id":"levelo_inurba_marseille","lat":43.29032,"lon":5.37567,"is_reserved":false,"is_disabled":false,"rental_uris":{"android":"levelo://app?vid=7c095d3c-604a-4602-b927-64e3a8b70e01","ios":"levelo://app?vid=7c095d3c-604a-4602-b927-64e3a8b70e01"},"vehicle_type_id":"4","last_reported":1728846461,"current_range_meters":34000,"station_id":"ce4bh692rcd13ifvqe90","pricing_plan_id":"cebpf4jnsgd1na2vs0mg"},{"bike_id":"cdde71fa-933f-47ef-8a23-39142a076aea","system_id":"levelo_inurba_marseille","lat":43.29548,"lon":5.42296,"is_reserved":false,"is_disabled":false,"rental_uris":{"android":"levelo://app?vid=cdde71fa-933f-47ef-8a23-39142a076aea","ios":"levelo://app?vid=cdde71fa-933f-47ef-8a23-39142a076aea"},"vehicle_type_id":"4","last_reported":1728846461,"current_range_meters":38800,"station_id":"ce4bhph2rcd13ifvqhdg","pricing_plan_id":"cebpf4jnsgd1na2vs0mg"},{"bike_id":"1d97b85c-3982-4e16-b39b-81c73dc869d1","system_id":"levelo_inurba_marseille","lat":43.25727,"lon":5.41115,"is_reserved":false,"is_disabled":false,"rental_uris":{"android":"levelo://app?vid=1d97b85c-3982-4e16-b39b-81c73dc869d1","ios":"levelo://app?vid=1d97b85c-3982-4e16-b39b-81c73dc869d1"},"vehicle_type_id":"4","last_reported":1728846461,"current_range_meters":11200,"station_id":"ce4bhkp2rcd13ifvqgd0","pricing_plan_id":"cebpf4jnsgd1na2vs0mg"},{"bike_id":"b611e9b5-cad1-4766-a33e-d412d529c184","system_id":"levelo_inurba_marseille","lat":43.28415,"lon":5.34985,"is_reserved":false,"is_disabled":false,"rental_uris":{"android":"levelo://app?vid=b611e9b5-cad1-4766-a33e-d412d529c184","ios":"levelo://app?vid=b611e9b5-cad1-4766-a33e-d412d529c184"},"vehicle_type_id":"4","last_reported":1728846461,"current_range_meters":36800,"station_id":"ce4bhbh2rcd13ifvqepg","pricing_plan_id":"cebpf4jnsgd1na2vs0mg"},{"bike_id":"08ec2c2b-541c-4b21-837a-21bd108bdc80","system_id":"levelo_inurba_marseille","lat":43.29536,"lon":5.37503,"is_reserved":false,"is_disabled":false,"rental_uris":{"android":"levelo://app?vid=08ec2c2b-541c-4b21-837a-21bd108bdc80","ios":"levelo://app?vid=08ec2c2b-541c-4b21-837a-21bd108bdc80"},"vehicle_type_id":"4","last_reported":1728846461,"current_range_meters":22000,"station_id":"ce4bgkp2rcd13ifvqbmg","pricing_plan_id":"cebpf4jnsgd1na2vs0mg"},{"bike_id":"d25140cc-e8b2-4d8f-a8c2-7ddcc355039b","system_id":"levelo_inurba_marseille","lat":43.31185,"lon":5.3871,"is_reserved":false,"is_disabled":false,"rental_uris":{"android":"levelo://app?vid=d25140cc-e8b2-4d8f-a8c2-7ddcc355039b","ios":"levelo://app?vid=d25140cc-e8b2-4d8f-a8c2-7ddcc355039b"},"vehicle_type_id":"4","last_reported":1728846461,"current_range_meters":8000,"station_id":"ce4bgv12rcd13ifvqcp0","pricing_plan_id":"cebpf4jnsgd1na2vs0mg"},{"bike_id":"aad69708-28ac-43e6-945e-619f5a7c6bfd","system_id":"levelo_inurba_marseille","lat":43.33781,"lon":5.37443,"is_reserved":false,"is_disabled":false,"rental_uris":{"android":"levelo://app?vid=aad69708-28ac-43e6-945e-619f5a7c6bfd","ios":"levelo://app?vid=aad69708-28ac-43e6-945e-619f5a7c6bfd"},"vehicle_type_id":"4","last_reported":1728846461,"current_range_meters":32400,"station_id":"","pricing_plan_id":"cebpf4jnsgd1na2vs0mg"},{"bike_id":"ce666276-9867-42a9-ac83-fe792af6c036","system_id":"levelo_inurba_marseille","lat":43.28702,"lon":5.37394,"is_reserved":false,"is_disabled":false,"rental_uris":{"android":"levelo://app?vid=ce666276-9867-42a9-ac83-fe792af6c036","ios":"levelo://app?vid=ce666276-9867-42a9-ac83-fe792af6c036"},"vehicle_type_id":"4","last_reported":1728846461,"current_range_meters":38800,"station_id":"ce4bh3p2rcd13ifvqdq0","pricing_plan_id":"cebpf4jnsgd1na2vs0mg"},{"bike_id":"1434b983-f7f2-4952-9578-3b4de6cb87c7","system_id":"levelo_inurba_marseille","lat":43.28413,"lon":5.3752,"is_reserved":false,"is_disabled":false,"rental_uris":{"android":"levelo://app?vid=1434b983-f7f2-4952-9578-3b4de6cb87c7","ios":"levelo://app?vid=1434b983-f7f2-4952-9578-3b4de6cb87c7"},"vehicle_type_id":"4","last_reported":1728846461,"current_range_meters":26000,"station_id":"ce4bh412rcd13ifvqds0","pricing_plan_id":"cebpf4jnsgd1na2vs0mg"},{"bike_id":"a5a12f32-6d03-4bc1-a4d6-e85fc191b1c3","system_id":"levelo_inurba_marseille","lat":43.3248,"lon":5.36581,"is_reserved":false,"is_disabled":false,"rental_uris":{"android":"levelo://app?vid=a5a12f32-6d03-4bc1-a4d6-e85fc191b1c3","ios":"levelo://app?vid=a5a12f32-6d03-4bc1-a4d6-e85fc191b1c3"},"vehicle_type_id":"4","last_reported":1728846461,"current_range_meters":8400,"station_id":"ce4bhs12rcd13ifvqhvg","pricing_plan_id":"cebpf4jnsgd1na2vs0mg"},{"bike_id":"ded0110a-3056-4d14-a8f2-3b34b2d05ac5","system_id":"levelo_inurba_marseille","lat":43.30136,"lon":5.38783,"is_reserved":false,"is_disabled":false,"rental_uris":{"android":"levelo://app?vid=ded0110a-3056-4d14-a8f2-3b34b2d05ac5","ios":"levelo://app?vid=ded0110a-3056-4d14-a8f2-3b34b2d05ac5"},"vehicle_type_id":"4","last_reported":1728846461,"current_range_meters":18000,"station_id":"ce4bghh2rcd13ifvqb60","pricing_plan_id":"cebpf4jnsgd1na2vs0mg"},{"bike_id":"aa89d08a-5963-4b35-9285-53c0ad4f999f","system_id":"levelo_inurba_marseille","lat":43.24077,"lon":5.37761,"is_reserved":false,"is_disabled":false,"rental_uris":{"android":"levelo://app?vid=aa89d08a-5963-4b35-9285-53c0ad4f999f","ios":"levelo://app?vid=aa89d08a-5963-4b35-9285-53c0ad4f999f"},"vehicle_type_id":"4","last_reported":1728846461,"current_range_meters":23200,"station_id":"ce4bhnp2rcd13ifvqgvg","pricing_plan_id":"cebpf4jnsgd1na2vs0mg"},{"bike_id":"96dead0d-2dfd-4594-8b56-f4562f0a3f62","system_id":"levelo_inurba_marseille","lat":43.28721,"lon":5.37943,"is_reserved":false,"is_disabled":false,"rental_uris":{"android":"levelo://app?vid=96dead0d-2dfd-4594-8b56-f4562f0a3f62","ios":"levelo://app?vid=96dead0d-2dfd-4594-8b56-f4562f0a3f62"},"vehicle_type_id":"4","last_reported":1728846461,"current_range_meters":38800,"station_id":"ce4bh9p2rcd13ifvqec0","pricing_plan_id":"cebpf4jnsgd1na2vs0mg"},{"bike_id":"cca7b7b4-32ea-44b5-9202-6772bbe95850","system_id":"levelo_inurba_marseille","lat":43.30127,"lon":5.39865,"is_reserved":false,"is_disabled":false,"rental_uris":{"android":"levelo://app?vid=cca7b7b4-32ea-44b5-9202-6772bbe95850","ios":"levelo://app?vid=cca7b7b4-32ea-44b5-9202-6772bbe95850"},"vehicle_type_id":"4","last_reported":1728846461,"current_range_meters":24400,"station_id":"ce4bh0h2rcd13ifvqd40","pricing_plan_id":"cebpf4jnsgd1na2vs0mg"},{"bike_id":"77214fc0-4441-47f6-9886-820f459cf067","system_id":"levelo_inurba_marseille","lat":43.29534,"lon":5.38545,"is_reserved":false,"is_disabled":false,"rental_uris":{"android":"levelo://app?vid=77214fc0-4441-47f6-9886-820f459cf067","ios":"levelo://app?vid=77214fc0-4441-47f6-9886-820f459cf067"},"vehicle_type_id":"4","last_reported":1728846461,"current_range_meters":8000,"station_id":"ce4bgih2rcd13ifvqba0","pricing_plan_id":"cebpf4jnsgd1na2vs0mg"},{"bike_id":"27311a75-ebb6-43d6-9fb5-f3ba72a10e0e","system_id":"levelo_inurba_marseille","lat":43.299,"lon":5.4367,"is_reserved":false,"is_disabled":false,"rental_uris":{"android":"levelo://app?vid=27311a75-ebb6-43d6-9fb5-f3ba72a10e0e","ios":"levelo://app?vid=27311a75-ebb6-43d6-9fb5-f3ba72a10e0e"},"vehicle_type_id":"4","last_reported":1728846461,"current_range_meters":17200,"station_id":"ce4bhpp2rcd13ifvqhfg","pricing_plan_id":"cebpf4jnsgd1na2vs0mg"},{"bike_id":"7fb9fb79-9e22-4fd1-89d5-9a037493be9d","system_id":"levelo_inurba_marseille","lat":43.315,"lon":5.37295,"is_reserved":false,"is_disabled":false,"rental_uris":{"android":"levelo://app?vid=7fb9fb79-9e22-4fd1-89d5-9a037493be9d","ios":"levelo://app?vid=7fb9fb79-9e22-4fd1-89d5-9a037493be9d"},"vehicle_type_id":"4","last_reported":1728846461,"current_range_meters":8000,"station_id":"ce4bgt12rcd13ifvqcd0","pricing_plan_id":"cebpf4jnsgd1na2vs0mg"},{"bike_id":"3718f0f9-5001-4acc-b559-d7c80e3f7bfb","system_id":"levelo_inurba_marseille","lat":43.28698,"lon":5.39985,"is_reserved":false,"is_disabled":false,"rental_uris":{"android":"levelo://app?vid=3718f0f9-5001-4acc-b559-d7c80e3f7bfb","ios":"levelo://app?vid=3718f0f9-5001-4acc-b559-d7c80e3f7bfb"},"vehicle_type_id":"4","last_reported":1728846461,"current_range_meters":3600,"station_id":"ce4bho92rcd13ifvqh3g","pricing_plan_id":"cebpf4jnsgd1na2vs0mg"},{"bike_id":"9b8b60d3-4254-4126-9986-1282f961db32","system_id":"levelo_inurba_marseille","lat":43.27944,"lon":5.41052,"is_reserved":false,"is_disabled":false,"rental_uris":{"android":"levelo://app?vid=9b8b60d3-4254-4126-9986-1282f961db32","ios":"levelo://app?vid=9b8b60d3-4254-4126-9986-1282f961db32"},"vehicle_type_id":"4","last_reported":1728846461,"current_range_meters":3600,"station_id":"ce4bhnp2rcd13ifvqh0g","pricing_plan_id":"cebpf4jnsgd1na2vs0mg"},{"bike_id":"f64b71eb-10bf-4d99-91dc-b8356ad64ea8","system_id":"levelo_inurba_marseille","lat":43.25498,"lon":5.37654,"is_reserved":false,"is_disabled":false,"rental_uris":{"android":"levelo://app?vid=f64b71eb-10bf-4d99-91dc-b8356ad64ea8","ios":"levelo://app?vid=f64b71eb-10bf-4d99-91dc-b8356ad64ea8"},"vehicle_type_id":"4","last_reported":1728846461,"current_range_meters":2800,"station_id":"ce4bhh12rcd13ifvqff0","pricing_plan_id":"cebpf4jnsgd1na2vs0mg"},{"bike_id":"6d161c90-a5f4-440a-919e-3a233b14df23","system_id":"levelo_inurba_marseille","lat":43.286,"lon":5.42576,"is_reserved":false,"is_disabled":false,"rental_uris":{"android":"levelo://app?vid=6d161c90-a5f4-440a-919e-3a233b14df23","ios":"levelo://app?vid=6d161c90-a5f4-440a-919e-3a233b14df23"},"vehicle_type_id":"4","last_reported":1728846461,"current_range_meters":36800,"station_id":"ce4bhnh2rcd13ifvqgug","pricing_plan_id":"cebpf4jnsgd1na2vs0mg"},{"bike_id":"09deed96-8c12-4543-882a-afb249706678","system_id":"levelo_inurba_marseille","lat":43.31493,"lon":5.37307,"is_reserved":false,"is_disabled":false,"rental_uris":{"android":"levelo://app?vid=09deed96-8c12-4543-882a-afb249706678","ios":"levelo://app?vid=09deed96-8c12-4543-882a-afb249706678"},"vehicle_type_id":"4","last_reported":1728846461,"current_range_meters":9200,"station_id":"ce4bgt12rcd13ifvqcd0","pricing_plan_id":"cebpf4jnsgd1na2vs0mg"},{"bike_id":"d57d8f5d-3ba8-4252-893a-5a9f4134007c","system_id":"levelo_inurba_marseille","lat":43.28857,"lon":5.3932,"is_reserved":false,"is_disabled":false,"rental_uris":{"android":"levelo://app?vid=d57d8f5d-3ba8-4252-893a-5a9f4134007c","ios":"levelo://app?vid=d57d8f5d-3ba8-4252-893a-5a9f4134007c"},"vehicle_type_id":"4","last_reported":1728846461,"current_range_meters":37600,"station_id":"ce4bh2p2rcd13ifvqdi0","pricing_plan_id":"cebpf4jnsgd1na2vs0mg"},{"bike_id":"3da8380e-f0e2-4dc4-920f-90d2e3f6e9e7","system_id":"levelo_inurba_marseille","lat":43.28705,"lon":5.37397,"is_reserved":false,"is_disabled":false,"rental_uris":{"android":"levelo://app?vid=3da8380e-f0e2-4dc4-920f-90d2e3f6e9e7","ios":"levelo://app?vid=3da8380e-f0e2-4dc4-920f-90d2e3f6e9e7"},"vehicle_type_id":"4","last_reported":1728846461,"current_range_meters":38800,"station_id":"ce4bh3p2rcd13ifvqdq0","pricing_plan_id":"cebpf4jnsgd1na2vs0mg"},{"bike_id":"cba59919-95e6-42ff-83c9-6bcf45674d60","system_id":"levelo_inurba_marseille","lat":43.32336,"lon":5.38328,"is_reserved":false,"is_disabled":false,"rental_uris":{"android":"levelo://app?vid=cba59919-95e6-42ff-83c9-6bcf45674d60","ios":"levelo://app?vid=cba59919-95e6-42ff-83c9-6bcf45674d60"},"vehicle_type_id":"4","last_reported":1728846461,"current_range_meters":38400,"station_id":"","pricing_plan_id":"cebpf4jnsgd1na2vs0mg"},{"bike_id":"776233b9-89be-442a-8dfe-967695d556fc","system_id":"levelo_inurba_marseille","lat":43.29274,"lon":5.38455,"is_reserved":false,"is_disabled":false,"rental_uris":{"android":"levelo://app?vid=776233b9-89be-442a-8dfe-967695d556fc","ios":"levelo://app?vid=776233b9-89be-442a-8dfe-967695d556fc"},"vehicle_type_id":"4","last_reported":1728846461,"current_range_meters":0,"station_id":"ce4bh692rcd13ifvqea0","pricing_plan_id":"cebpf4jnsgd1na2vs0mg"},{"bike_id":"54aec1fc-f8f8-49b7-aa52-6ef4f1bdaf2a","system_id":"levelo_inurba_marseille","lat":43.24394,"lon":5.37063,"is_reserved":false,"is_disabled":false,"rental_uris":{"android":"levelo://app?vid=54aec1fc-f8f8-49b7-aa52-6ef4f1bdaf2a","ios":"levelo://app?vid=54aec1fc-f8f8-49b7-aa52-6ef4f1bdaf2a"},"vehicle_type_id":"4","last_reported":1728846461,"current_range_meters":20000,"station_id":"ce4bhhh2rcd13ifvqfk0","pricing_plan_id":"cebpf4jnsgd1na2vs0mg"},{"bike_id":"555e5659-0e16-41e4-b7df-62030b03e6ca","system_id":"levelo_inurba_marseille","lat":43.32269,"lon":5.38659,"is_reserved":false,"is_disabled":false,"rental_uris":{"android":"levelo://app?vid=555e5659-0e16-41e4-b7df-62030b03e6ca","ios":"levelo://app?vid=555e5659-0e16-41e4-b7df-62030b03e6ca"},"vehicle_type_id":"4","last_reported":1728846461,"current_range_meters":26000,"station_id":"","pricing_plan_id":"cebpf4jnsgd1na2vs0mg"},{"bike_id":"8b2312cf-0c04-492c-8611-453b5ad89ee3","system_id":"levelo_inurba_marseille","lat":43.30947,"lon":5.39038,"is_reserved":false,"is_disabled":false,"rental_uris":{"android":"levelo://app?vid=8b2312cf-0c04-492c-8611-453b5ad89ee3","ios":"levelo://app?vid=8b2312cf-0c04-492c-8611-453b5ad89ee3"},"vehicle_type_id":"4","last_reported":1728846461,"current_range_meters":6400,"station_id":"ce4bgup2rcd13ifvqco0","pricing_plan_id":"cebpf4jnsgd1na2vs0mg"},{"bike_id":"5ab49369-40b4-43f5-b18e-38e9014da21f","system_id":"levelo_inurba_marseille","lat":43.29604,"lon":5.38112,"is_reserved":false,"is_disabled":false,"rental_uris":{"android":"levelo://app?vid=5ab49369-40b4-43f5-b18e-38e9014da21f","ios":"levelo://app?vid=5ab49369-40b4-43f5-b18e-38e9014da21f"},"vehicle_type_id":"4","last_reported":1728846461,"current_range_meters":34000,"station_id":"ce4bgl12rcd13ifvqbo0","pricing_plan_id":"cebpf4jnsgd1na2vs0mg"},{"bike_id":"598d4920-c40d-41e2-a5ad-2fb72182993d","system_id":"levelo_inurba_marseille","lat":43.24808,"lon":5.37456,"is_reserved":false,"is_disabled":false,"rental_uris":{"android":"levelo://app?vid=598d4920-c40d-41e2-a5ad-2fb72182993d","ios":"levelo://app?vid=598d4920-c40d-41e2-a5ad-2fb72182993d"},"vehicle_type_id":"4","last_reported":1728846461,"current_range_meters":26000,"station_id":"ce4bhgh2rcd13ifvqfb0","pricing_plan_id":"cebpf4jnsgd1na2vs0mg"},{"bike_id":"d8c3bb1b-bf1b-4a6d-a3ff-06b4ac3f276d","system_id":"levelo_inurba_marseille","lat":43.24649,"lon":5.38894,"is_reserved":false,"is_disabled":false,"rental_uris":{"android":"levelo://app?vid=d8c3bb1b-bf1b-4a6d-a3ff-06b4ac3f276d","ios":"levelo://app?vid=d8c3bb1b-bf1b-4a6d-a3ff-06b4ac3f276d"},"vehicle_type_id":"4","last_reported":1728846461,"current_range_meters":38800,"station_id":"ce4bhg12rcd13ifvqf60","pricing_plan_id":"cebpf4jnsgd1na2vs0mg"},{"bike_id":"93b27a53-ca87-42cc-a558-985f0164192b","system_id":"levelo_inurba_marseille","lat":43.29656,"lon":5.40009,"is_reserved":false,"is_disabled":false,"rental_uris":{"android":"levelo://app?vid=93b27a53-ca87-42cc-a558-985f0164192b","ios":"levelo://app?vid=93b27a53-ca87-42cc-a558-985f0164192b"},"vehicle_type_id":"4","last_reported":1728846461,"current_range_meters":8000,"station_id":"","pricing_plan_id":"cebpf4jnsgd1na2vs0mg"},{"bike_id":"c2f1ae2b-f193-4b68-ba91-7a98a522ff0d","system_id":"levelo_inurba_marseille","lat":43.28098,"lon":5.37841,"is_reserved":false,"is_disabled":false,"rental_uris":{"android":"levelo://app?vid=c2f1ae2b-f193-4b68-ba91-7a98a522ff0d","ios":"levelo://app?vid=c2f1ae2b-f193-4b68-ba91-7a98a522ff0d"},"vehicle_type_id":"4","last_reported":1728846461,"current_range_meters":11600,"station_id":"ce4bha12rcd13ifvqee0","pricing_plan_id":"cebpf4jnsgd1na2vs0mg"},{"bike_id":"7c6576e7-f018-4e6a-bd50-27df25daddf9","system_id":"levelo_inurba_marseille","lat":43.2842,"lon":5.3752,"is_reserved":false,"is_disabled":false,"rental_uris":{"android":"levelo://app?vid=7c6576e7-f018-4e6a-bd50-27df25daddf9","ios":"levelo://app?vid=7c6576e7-f018-4e6a-bd50-27df25daddf9"},"vehicle_type_id":"4","last_reported":1728846461,"current_range_meters":38800,"station_id":"ce4bh412rcd13ifvqds0","pricing_plan_id":"cebpf4jnsgd1na2vs0mg"},{"bike_id":"f38d0416-45e4-4b72-b8ba-e99de53a981a","system_id":"levelo_inurba_marseille","lat":43.27938,"lon":5.41047,"is_reserved":false,"is_disabled":false,"rental_uris":{"android":"levelo://app?vid=f38d0416-45e4-4b72-b8ba-e99de53a981a","ios":"levelo://app?vid=f38d0416-45e4-4b72-b8ba-e99de53a981a"},"vehicle_type_id":"4","last_reported":1728846461,"current_range_meters":8400,"station_id":"ce4bhnp2rcd13ifvqh0g","pricing_plan_id":"cebpf4jnsgd1na2vs0mg"},{"bike_id":"4b0cebe3-fe0d-448d-8fdf-f05d3e917e8e","system_id":"levelo_inurba_marseille","lat":43.31115,"lon":5.37768,"is_reserved":false,"is_disabled":false,"rental_uris":{"android":"levelo://app?vid=4b0cebe3-fe0d-448d-8fdf-f05d3e917e8e","ios":"levelo://app?vid=4b0cebe3-fe0d-448d-8fdf-f05d3e917e8e"},"vehicle_type_id":"4","last_reported":1728846461,"current_range_meters":18000,"station_id":"ce4bgt92rcd13ifvqcg0","pricing_plan_id":"cebpf4jnsgd1na2vs0mg"},{"bike_id":"2152ad7a-4d85-4f41-895d-ff8dea9cfef2","system_id":"levelo_inurba_marseille","lat":43.28409,"lon":5.37526,"is_reserved":false,"is_disabled":false,"rental_uris":{"android":"levelo://app?vid=2152ad7a-4d85-4f41-895d-ff8dea9cfef2","ios":"levelo://app?vid=2152ad7a-4d85-4f41-895d-ff8dea9cfef2"},"vehicle_type_id":"4","last_reported":1728846461,"current_range_meters":3600,"station_id":"ce4bh412rcd13ifvqds0","pricing_plan_id":"cebpf4jnsgd1na2vs0mg"},{"bike_id":"76751032-0e19-4dbe-b869-55e11dad3f8e","system_id":"levelo_inurba_marseille","lat":43.28079,"lon":5.39663,"is_reserved":false,"is_disabled":false,"rental_uris":{"android":"levelo://app?vid=76751032-0e19-4dbe-b869-55e11dad3f8e","ios":"levelo://app?vid=76751032-0e19-4dbe-b869-55e11dad3f8e"},"vehicle_type_id":"4","last_reported":1728846461,"current_range_meters":22800,"station_id":"ce4bho12rcd13ifvqh2g","pricing_plan_id":"cebpf4jnsgd1na2vs0mg"},{"bike_id":"adf7f252-dbc1-459a-8043-ad1f1eca0157","system_id":"levelo_inurba_marseille","lat":43.33722,"lon":5.39184,"is_reserved":false,"is_disabled":false,"rental_uris":{"android":"levelo://app?vid=adf7f252-dbc1-459a-8043-ad1f1eca0157","ios":"levelo://app?vid=adf7f252-dbc1-459a-8043-ad1f1eca0157"},"vehicle_type_id":"4","last_reported":1728846461,"current_range_meters":32800,"station_id":"ce4bhr92rcd13ifvqhsg","pricing_plan_id":"cebpf4jnsgd1na2vs0mg"},{"bike_id":"6c7c615c-2d26-4047-8380-ca99e9efd048","system_id":"levelo_inurba_marseille","lat":43.26212,"lon":5.37919,"is_reserved":false,"is_disabled":false,"rental_uris":{"android":"levelo://app?vid=6c7c615c-2d26-4047-8380-ca99e9efd048","ios":"levelo://app?vid=6c7c615c-2d26-4047-8380-ca99e9efd048"},"vehicle_type_id":"4","last_reported":1728846461,"current_range_meters":38800,"station_id":"ce4bhjp2rcd13ifvqg90","pricing_plan_id":"cebpf4jnsgd1na2vs0mg"},{"bike_id":"310c580c-81aa-47f8-affb-af34652cd9f9","system_id":"levelo_inurba_marseille","lat":43.26194,"lon":5.37939,"is_reserved":false,"is_disabled":false,"rental_uris":{"android":"levelo://app?vid=310c580c-81aa-47f8-affb-af34652cd9f9","ios":"levelo://app?vid=310c580c-81aa-47f8-affb-af34652cd9f9"},"vehicle_type_id":"4","last_reported":1728846461,"current_range_meters":6000,"station_id":"ce4bhjp2rcd13ifvqg90","pricing_plan_id":"cebpf4jnsgd1na2vs0mg"},{"bike_id":"abe51b1f-8478-4675-8a72-b240879f3909","system_id":"levelo_inurba_marseille","lat":43.29797,"lon":5.38101,"is_reserved":false,"is_disabled":false,"rental_uris":{"android":"levelo://app?vid=abe51b1f-8478-4675-8a72-b240879f3909","ios":"levelo://app?vid=abe51b1f-8478-4675-8a72-b240879f3909"},"vehicle_type_id":"4","last_reported":1728846461,"current_range_meters":38800,"station_id":"ce4bgip2rcd13ifvqbb0","pricing_plan_id":"cebpf4jnsgd1na2vs0mg"},{"bike_id":"3daa78f9-0489-402c-8c96-8ef40ec5c302","system_id":"levelo_inurba_marseille","lat":43.24804,"lon":5.37466,"is_reserved":false,"is_disabled":false,"rental_uris":{"android":"levelo://app?vid=3daa78f9-0489-402c-8c96-8ef40ec5c302","ios":"levelo://app?vid=3daa78f9-0489-402c-8c96-8ef40ec5c302"},"vehicle_type_id":"4","last_reported":1728846461,"current_range_meters":8000,"station_id":"ce4bhgh2rcd13ifvqfb0","pricing_plan_id":"cebpf4jnsgd1na2vs0mg"},{"bike_id":"66c63c24-4f48-41ab-b018-90614f1475eb","system_id":"levelo_inurba_marseille","lat":43.28699,"lon":5.37397,"is_reserved":false,"is_disabled":false,"rental_uris":{"android":"levelo://app?vid=66c63c24-4f48-41ab-b018-90614f1475eb","ios":"levelo://app?vid=66c63c24-4f48-41ab-b018-90614f1475eb"},"vehicle_type_id":"4","last_reported":1728846461,"current_range_meters":38800,"station_id":"ce4bh3p2rcd13ifvqdq0","pricing_plan_id":"cebpf4jnsgd1na2vs0mg"},{"bike_id":"966eedf3-5836-4ea2-9c7a-2d72dbacc25b","system_id":"levelo_inurba_marseille","lat":43.28431,"lon":5.39201,"is_reserved":false,"is_disabled":false,"rental_uris":{"android":"levelo://app?vid=966eedf3-5836-4ea2-9c7a-2d72dbacc25b","ios":"levelo://app?vid=966eedf3-5836-4ea2-9c7a-2d72dbacc25b"},"vehicle_type_id":"4","last_reported":1728846461,"current_range_meters":34000,"station_id":"ce4bhoh2rcd13ifvqh5g","pricing_plan_id":"cebpf4jnsgd1na2vs0mg"},{"bike_id":"0fe37e89-fefc-4545-8187-5b1fdd7e5f70","system_id":"levelo_inurba_marseille","lat":43.32217,"lon":5.39144,"is_reserved":false,"is_disabled":false,"rental_uris":{"android":"levelo://app?vid=0fe37e89-fefc-4545-8187-5b1fdd7e5f70","ios":"levelo://app?vid=0fe37e89-fefc-4545-8187-5b1fdd7e5f70"},"vehicle_type_id":"4","last_reported":1728846461,"current_range_meters":7200,"station_id":"","pricing_plan_id":"cebpf4jnsgd1na2vs0mg"},{"bike_id":"9d960984-c801-496e-bb50-c485ac295345","system_id":"levelo_inurba_marseille","lat":43.30356,"lon":5.41888,"is_reserved":false,"is_disabled":false,"rental_uris":{"android":"levelo://app?vid=9d960984-c801-496e-bb50-c485ac295345","ios":"levelo://app?vid=9d960984-c801-496e-bb50-c485ac295345"},"vehicle_type_id":"4","last_reported":1728846461,"current_range_meters":25600,"station_id":"ce4bhop2rcd13ifvqh7g","pricing_plan_id":"cebpf4jnsgd1na2vs0mg"},{"bike_id":"0b183f77-87b5-4247-9d11-d2af73c0bd02","system_id":"levelo_inurba_marseille","lat":43.29025,"lon":5.38145,"is_reserved":false,"is_disabled":false,"rental_uris":{"android":"levelo://app?vid=0b183f77-87b5-4247-9d11-d2af73c0bd02","ios":"levelo://app?vid=0b183f77-87b5-4247-9d11-d2af73c0bd02"},"vehicle_type_id":"4","last_reported":1728846461,"current_range_meters":38800,"station_id":"ce4bh4p2rcd13ifvqe1g","pricing_plan_id":"cebpf4jnsgd1na2vs0mg"},{"bike_id":"2aa5a2a6-9654-4b0a-ac75-9e3c16c0c596","system_id":"levelo_inurba_marseille","lat":43.28104,"lon":5.37844,"is_reserved":false,"is_disabled":false,"rental_uris":{"android":"levelo://app?vid=2aa5a2a6-9654-4b0a-ac75-9e3c16c0c596","ios":"levelo://app?vid=2aa5a2a6-9654-4b0a-ac75-9e3c16c0c596"},"vehicle_type_id":"4","last_reported":1728846461,"current_range_meters":38800,"station_id":"ce4bha12rcd13ifvqee0","pricing_plan_id":"cebpf4jnsgd1na2vs0mg"},{"bike_id":"2f19d9b2-60a0-45bf-bf48-04c9ce231242","system_id":"levelo_inurba_marseille","lat":43.25566,"lon":5.38244,"is_reserved":false,"is_disabled":false,"rental_uris":{"android":"levelo://app?vid=2f19d9b2-60a0-45bf-bf48-04c9ce231242","ios":"levelo://app?vid=2f19d9b2-60a0-45bf-bf48-04c9ce231242"},"vehicle_type_id":"4","last_reported":1728846461,"current_range_meters":6800,"station_id":"ce4bhih2rcd13ifvqfs0","pricing_plan_id":"cebpf4jnsgd1na2vs0mg"},{"bike_id":"868d20e3-b7ed-416b-b0e0-7d5ba26216f7","system_id":"levelo_inurba_marseille","lat":43.31715,"lon":5.43714,"is_reserved":false,"is_disabled":false,"rental_uris":{"android":"levelo://app?vid=868d20e3-b7ed-416b-b0e0-7d5ba26216f7","ios":"levelo://app?vid=868d20e3-b7ed-416b-b0e0-7d5ba26216f7"},"vehicle_type_id":"4","last_reported":1728846461,"current_range_meters":38800,"station_id":"ce4bhp92rcd13ifvqhcg","pricing_plan_id":"cebpf4jnsgd1na2vs0mg"},{"bike_id":"e44a295d-5cd3-49c4-89cb-d8086d2bf2ef","system_id":"levelo_inurba_marseille","lat":43.291439,"lon":5.399962,"is_reserved":false,"is_disabled":false,"rental_uris":{"android":"levelo://app?vid=e44a295d-5cd3-49c4-89cb-d8086d2bf2ef","ios":"levelo://app?vid=e44a295d-5cd3-49c4-89cb-d8086d2bf2ef"},"vehicle_type_id":"4","last_reported":1728846461,"current_range_meters":12400,"station_id":"ce4bh392rcd13ifvqdm0","pricing_plan_id":"cebpf4jnsgd1na2vs0mg"},{"bike_id":"b04c2adb-608e-4822-9cd7-0e4eeaf393de","system_id":"levelo_inurba_marseille","lat":43.29057,"lon":5.37143,"is_reserved":false,"is_disabled":false,"rental_uris":{"android":"levelo://app?vid=b04c2adb-608e-4822-9cd7-0e4eeaf393de","ios":"levelo://app?vid=b04c2adb-608e-4822-9cd7-0e4eeaf393de"},"vehicle_type_id":"4","last_reported":1728846461,"current_range_meters":38400,"station_id":"ce4bh5p2rcd13ifvqe4g","pricing_plan_id":"cebpf4jnsgd1na2vs0mg"},{"bike_id":"5d9ebc79-7b92-41b1-8900-06b541e42f48","system_id":"levelo_inurba_marseille","lat":43.29365,"lon":5.3785,"is_reserved":false,"is_disabled":false,"rental_uris":{"android":"levelo://app?vid=5d9ebc79-7b92-41b1-8900-06b541e42f48","ios":"levelo://app?vid=5d9ebc79-7b92-41b1-8900-06b541e42f48"},"vehicle_type_id":"4","last_reported":1728846461,"current_range_meters":15200,"station_id":"ce4bgjh2rcd13ifvqbf0","pricing_plan_id":"cebpf4jnsgd1na2vs0mg"},{"bike_id":"99222104-04be-4636-8222-4586012a9f49","system_id":"levelo_inurba_marseille","lat":43.33722,"lon":5.39192,"is_reserved":false,"is_disabled":false,"rental_uris":{"android":"levelo://app?vid=99222104-04be-4636-8222-4586012a9f49","ios":"levelo://app?vid=99222104-04be-4636-8222-4586012a9f49"},"vehicle_type_id":"4","last_reported":1728846461,"current_range_meters":8800,"station_id":"ce4bhr92rcd13ifvqhsg","pricing_plan_id":"cebpf4jnsgd1na2vs0mg"},{"bike_id":"2e6d013b-f51d-4c22-aaf8-bd7e7024fa3a","system_id":"levelo_inurba_marseille","lat":43.29528,"lon":5.38549,"is_reserved":false,"is_disabled":false,"rental_uris":{"android":"levelo://app?vid=2e6d013b-f51d-4c22-aaf8-bd7e7024fa3a","ios":"levelo://app?vid=2e6d013b-f51d-4c22-aaf8-bd7e7024fa3a"},"vehicle_type_id":"4","last_reported":1728846461,"current_range_meters":35600,"station_id":"ce4bgih2rcd13ifvqba0","pricing_plan_id":"cebpf4jnsgd1na2vs0mg"},{"bike_id":"4e0e8081-b4aa-41ee-8bef-5d3b7e396498","system_id":"levelo_inurba_marseille","lat":43.292771,"lon":5.368736,"is_reserved":false,"is_disabled":false,"rental_uris":{"android":"levelo://app?vid=4e0e8081-b4aa-41ee-8bef-5d3b7e396498","ios":"levelo://app?vid=4e0e8081-b4aa-41ee-8bef-5d3b7e396498"},"vehicle_type_id":"4","last_reported":1728846461,"current_range_meters":38800,"station_id":"ce4bgj12rcd13ifvqbc0","pricing_plan_id":"cebpf4jnsgd1na2vs0mg"},{"bike_id":"9817715c-5c44-4f6b-a16d-7800214c7c56","system_id":"levelo_inurba_marseille","lat":43.28943,"lon":5.36389,"is_reserved":false,"is_disabled":false,"rental_uris":{"android":"levelo://app?vid=9817715c-5c44-4f6b-a16d-7800214c7c56","ios":"levelo://app?vid=9817715c-5c44-4f6b-a16d-7800214c7c56"},"vehicle_type_id":"4","last_reported":1728846461,"current_range_meters":38800,"station_id":"ce4bhc92rcd13ifvqetg","pricing_plan_id":"cebpf4jnsgd1na2vs0mg"},{"bike_id":"95e9e971-3e88-4f5b-9ad4-570ab64ac80f","system_id":"levelo_inurba_marseille","lat":43.2894,"lon":5.36637,"is_reserved":false,"is_disabled":false,"rental_uris":{"android":"levelo://app?vid=95e9e971-3e88-4f5b-9ad4-570ab64ac80f","ios":"levelo://app?vid=95e9e971-3e88-4f5b-9ad4-570ab64ac80f"},"vehicle_type_id":"4","last_reported":1728846461,"current_range_meters":38800,"station_id":"ce4bhap2rcd13ifvqek0","pricing_plan_id":"cebpf4jnsgd1na2vs0mg"},{"bike_id":"600a6ea5-5c70-4f25-9b57-c621b8210681","system_id":"levelo_inurba_marseille","lat":43.32658,"lon":5.40993,"is_reserved":false,"is_disabled":false,"rental_uris":{"android":"levelo://app?vid=600a6ea5-5c70-4f25-9b57-c621b8210681","ios":"levelo://app?vid=600a6ea5-5c70-4f25-9b57-c621b8210681"},"vehicle_type_id":"4","last_reported":1728846461,"current_range_meters":27200,"station_id":"ce4bhpp2rcd13ifvqhgg","pricing_plan_id":"cebpf4jnsgd1na2vs0mg"},{"bike_id":"d9176fa4-cbed-4c81-bb91-58c6a2a85fde","system_id":"levelo_inurba_marseille","lat":43.30936,"lon":5.40144,"is_reserved":false,"is_disabled":false,"rental_uris":{"android":"levelo://app?vid=d9176fa4-cbed-4c81-bb91-58c6a2a85fde","ios":"levelo://app?vid=d9176fa4-cbed-4c81-bb91-58c6a2a85fde"},"vehicle_type_id":"4","last_reported":1728846461,"current_range_meters":7200,"station_id":"ce4bgvp2rcd13ifvqct0","pricing_plan_id":"cebpf4jnsgd1na2vs0mg"},{"bike_id":"15710218-163a-4492-a69a-4c3e4c5411b8","system_id":"levelo_inurba_marseille","lat":43.32367,"lon":5.38889,"is_reserved":false,"is_disabled":false,"rental_uris":{"android":"levelo://app?vid=15710218-163a-4492-a69a-4c3e4c5411b8","ios":"levelo://app?vid=15710218-163a-4492-a69a-4c3e4c5411b8"},"vehicle_type_id":"4","last_reported":1728846461,"current_range_meters":33200,"station_id":"ce4bhqp2rcd13ifvqhog","pricing_plan_id":"cebpf4jnsgd1na2vs0mg"},{"bike_id":"088a0174-53ec-442e-ab81-f4302b9d8850","system_id":"levelo_inurba_marseille","lat":43.29512,"lon":5.39041,"is_reserved":false,"is_disabled":false,"rental_uris":{"android":"levelo://app?vid=088a0174-53ec-442e-ab81-f4302b9d8850","ios":"levelo://app?vid=088a0174-53ec-442e-ab81-f4302b9d8850"},"vehicle_type_id":"4","last_reported":1728846461,"current_range_meters":38800,"station_id":"ce4bh3p2rcd13ifvqdp0","pricing_plan_id":"cebpf4jnsgd1na2vs0mg"},{"bike_id":"185408e8-2489-401c-92a2-cc02cb55b0ef","system_id":"levelo_inurba_marseille","lat":43.29266,"lon":5.38448,"is_reserved":false,"is_disabled":false,"rental_uris":{"android":"levelo://app?vid=185408e8-2489-401c-92a2-cc02cb55b0ef","ios":"levelo://app?vid=185408e8-2489-401c-92a2-cc02cb55b0ef"},"vehicle_type_id":"4","last_reported":1728846461,"current_range_meters":38800,"station_id":"ce4bh692rcd13ifvqea0","pricing_plan_id":"cebpf4jnsgd1na2vs0mg"},{"bike_id":"3c25dded-f8d5-4193-a336-9fad641c4aac","system_id":"levelo_inurba_marseille","lat":43.33752,"lon":5.3748,"is_reserved":false,"is_disabled":false,"rental_uris":{"android":"levelo://app?vid=3c25dded-f8d5-4193-a336-9fad641c4aac","ios":"levelo://app?vid=3c25dded-f8d5-4193-a336-9fad641c4aac"},"vehicle_type_id":"4","last_reported":1728846461,"current_range_meters":28800,"station_id":"","pricing_plan_id":"cebpf4jnsgd1na2vs0mg"},{"bike_id":"a8da941b-9ccb-417b-bfc3-04a05b79f770","system_id":"levelo_inurba_marseille","lat":43.30154,"lon":5.39863,"is_reserved":false,"is_disabled":false,"rental_uris":{"android":"levelo://app?vid=a8da941b-9ccb-417b-bfc3-04a05b79f770","ios":"levelo://app?vid=a8da941b-9ccb-417b-bfc3-04a05b79f770"},"vehicle_type_id":"4","last_reported":1728846461,"current_range_meters":23200,"station_id":"ce4bh0h2rcd13ifvqd40","pricing_plan_id":"cebpf4jnsgd1na2vs0mg"},{"bike_id":"18409cc2-464c-42c5-9c40-870052c18b92","system_id":"levelo_inurba_marseille","lat":43.29421,"lon":5.38628,"is_reserved":false,"is_disabled":false,"rental_uris":{"android":"levelo://app?vid=18409cc2-464c-42c5-9c40-870052c18b92","ios":"levelo://app?vid=18409cc2-464c-42c5-9c40-870052c18b92"},"vehicle_type_id":"4","last_reported":1728846461,"current_range_meters":10800,"station_id":"ce4bh2h2rcd13ifvqdh0","pricing_plan_id":"cebpf4jnsgd1na2vs0mg"},{"bike_id":"7ca008ad-7799-4c0c-9d23-ebd07cca5141","system_id":"levelo_inurba_marseille","lat":43.266754,"lon":5.394547,"is_reserved":false,"is_disabled":false,"rental_uris":{"android":"levelo://app?vid=7ca008ad-7799-4c0c-9d23-ebd07cca5141","ios":"levelo://app?vid=7ca008ad-7799-4c0c-9d23-ebd07cca5141"},"vehicle_type_id":"4","last_reported":1728846461,"current_range_meters":16400,"station_id":"ce4bhi12rcd13ifvqfq0","pricing_plan_id":"cebpf4jnsgd1na2vs0mg"},{"bike_id":"15c9a6c6-1acf-489f-87cc-327eea868f59","system_id":"levelo_inurba_marseille","lat":43.27986,"lon":5.41658,"is_reserved":false,"is_disabled":false,"rental_uris":{"android":"levelo://app?vid=15c9a6c6-1acf-489f-87cc-327eea868f59","ios":"levelo://app?vid=15c9a6c6-1acf-489f-87cc-327eea868f59"},"vehicle_type_id":"4","last_reported":1728846461,"current_range_meters":24800,"station_id":"ce4bho12rcd13ifvqh1g","pricing_plan_id":"cebpf4jnsgd1na2vs0mg"},{"bike_id":"e50a13b1-f959-4b93-86ed-56fcfa747cf4","system_id":"levelo_inurba_marseille","lat":43.32039,"lon":5.41558,"is_reserved":false,"is_disabled":false,"rental_uris":{"android":"levelo://app?vid=e50a13b1-f959-4b93-86ed-56fcfa747cf4","ios":"levelo://app?vid=e50a13b1-f959-4b93-86ed-56fcfa747cf4"},"vehicle_type_id":"4","last_reported":1728846461,"current_range_meters":9600,"station_id":"ce4bhq92rcd13ifvqhkg","pricing_plan_id":"cebpf4jnsgd1na2vs0mg"},{"bike_id":"6a3e5649-002b-46ca-9636-6e2df46c5cd7","system_id":"levelo_inurba_marseille","lat":43.31489,"lon":5.37309,"is_reserved":false,"is_disabled":false,"rental_uris":{"android":"levelo://app?vid=6a3e5649-002b-46ca-9636-6e2df46c5cd7","ios":"levelo://app?vid=6a3e5649-002b-46ca-9636-6e2df46c5cd7"},"vehicle_type_id":"4","last_reported":1728846461,"current_range_meters":36000,"station_id":"ce4bgt12rcd13ifvqcd0","pricing_plan_id":"cebpf4jnsgd1na2vs0mg"},{"bike_id":"cc15dd4d-065e-486a-a948-a5866ef52ea7","system_id":"levelo_inurba_marseille","lat":43.29422,"lon":5.3863,"is_reserved":false,"is_disabled":false,"rental_uris":{"android":"levelo://app?vid=cc15dd4d-065e-486a-a948-a5866ef52ea7","ios":"levelo://app?vid=cc15dd4d-065e-486a-a948-a5866ef52ea7"},"vehicle_type_id":"4","last_reported":1728846461,"current_range_meters":38800,"station_id":"ce4bh2h2rcd13ifvqdh0","pricing_plan_id":"cebpf4jnsgd1na2vs0mg"},{"bike_id":"28d44640-493d-48b2-9626-f14bb3db4927","system_id":"levelo_inurba_marseille","lat":43.32366,"lon":5.38889,"is_reserved":false,"is_disabled":false,"rental_uris":{"android":"levelo://app?vid=28d44640-493d-48b2-9626-f14bb3db4927","ios":"levelo://app?vid=28d44640-493d-48b2-9626-f14bb3db4927"},"vehicle_type_id":"4","last_reported":1728846461,"current_range_meters":2000,"station_id":"ce4bhqp2rcd13ifvqhog","pricing_plan_id":"cebpf4jnsgd1na2vs0mg"},{"bike_id":"0454796c-aede-49e8-8930-bb945809ab3f","system_id":"levelo_inurba_marseille","lat":43.29581,"lon":5.36736,"is_reserved":false,"is_disabled":false,"rental_uris":{"android":"levelo://app?vid=0454796c-aede-49e8-8930-bb945809ab3f","ios":"levelo://app?vid=0454796c-aede-49e8-8930-bb945809ab3f"},"vehicle_type_id":"4","last_reported":1728846461,"current_range_meters":37600,"station_id":"ce4bgph2rcd13ifvqc2g","pricing_plan_id":"cebpf4jnsgd1na2vs0mg"},{"bike_id":"7f7b4233-9217-495e-9777-a21bca986df9","system_id":"levelo_inurba_marseille","lat":43.28717,"lon":5.37944,"is_reserved":false,"is_disabled":false,"rental_uris":{"android":"levelo://app?vid=7f7b4233-9217-495e-9777-a21bca986df9","ios":"levelo://app?vid=7f7b4233-9217-495e-9777-a21bca986df9"},"vehicle_type_id":"4","last_reported":1728846461,"current_range_meters":38800,"station_id":"ce4bh9p2rcd13ifvqec0","pricing_plan_id":"cebpf4jnsgd1na2vs0mg"},{"bike_id":"8fc54e32-2dad-4cfe-867b-a52e651d7f0f","system_id":"levelo_inurba_marseille","lat":43.25558,"lon":5.40385,"is_reserved":false,"is_disabled":false,"rental_uris":{"android":"levelo://app?vid=8fc54e32-2dad-4cfe-867b-a52e651d7f0f","ios":"levelo://app?vid=8fc54e32-2dad-4cfe-867b-a52e651d7f0f"},"vehicle_type_id":"4","last_reported":1728846461,"current_range_meters":12800,"station_id":"","pricing_plan_id":"cebpf4jnsgd1na2vs0mg"},{"bike_id":"e2737230-28b8-4573-bdce-6e16dcdeed08","system_id":"levelo_inurba_marseille","lat":43.30302,"lon":5.39215,"is_reserved":false,"is_disabled":false,"rental_uris":{"android":"levelo://app?vid=e2737230-28b8-4573-bdce-6e16dcdeed08","ios":"levelo://app?vid=e2737230-28b8-4573-bdce-6e16dcdeed08"},"vehicle_type_id":"4","last_reported":1728846461,"current_range_meters":10800,"station_id":"ce4bgkh2rcd13ifvqbk0","pricing_plan_id":"cebpf4jnsgd1na2vs0mg"},{"bike_id":"9761c064-85d8-48a6-a07e-079b0e9fafc1","system_id":"levelo_inurba_marseille","lat":43.24669,"lon":5.38161,"is_reserved":false,"is_disabled":false,"rental_uris":{"android":"levelo://app?vid=9761c064-85d8-48a6-a07e-079b0e9fafc1","ios":"levelo://app?vid=9761c064-85d8-48a6-a07e-079b0e9fafc1"},"vehicle_type_id":"4","last_reported":1728846461,"current_range_meters":18000,"station_id":"ce4bhih2rcd13ifvqfr0","pricing_plan_id":"cebpf4jnsgd1na2vs0mg"},{"bike_id":"514e08e7-ddc8-4e9f-9679-f4f0ce4d9f9d","system_id":"levelo_inurba_marseille","lat":43.28455,"lon":5.35889,"is_reserved":false,"is_disabled":false,"rental_uris":{"android":"levelo://app?vid=514e08e7-ddc8-4e9f-9679-f4f0ce4d9f9d","ios":"levelo://app?vid=514e08e7-ddc8-4e9f-9679-f4f0ce4d9f9d"},"vehicle_type_id":"4","last_reported":1728846461,"current_range_meters":38800,"station_id":"ce4bhah2rcd13ifvqei0","pricing_plan_id":"cebpf4jnsgd1na2vs0mg"},{"bike_id":"8fc81f8f-0a7c-4c3b-802f-164ad91bba3c","system_id":"levelo_inurba_marseille","lat":43.24667,"lon":5.3817,"is_reserved":false,"is_disabled":false,"rental_uris":{"android":"levelo://app?vid=8fc81f8f-0a7c-4c3b-802f-164ad91bba3c","ios":"levelo://app?vid=8fc81f8f-0a7c-4c3b-802f-164ad91bba3c"},"vehicle_type_id":"4","last_reported":1728846461,"current_range_meters":20000,"station_id":"ce4bhih2rcd13ifvqfr0","pricing_plan_id":"cebpf4jnsgd1na2vs0mg"},{"bike_id":"4c827a6b-648d-45a3-abb7-dc7111fbee9f","system_id":"levelo_inurba_marseille","lat":43.3014,"lon":5.39875,"is_reserved":false,"is_disabled":false,"rental_uris":{"android":"levelo://app?vid=4c827a6b-648d-45a3-abb7-dc7111fbee9f","ios":"levelo://app?vid=4c827a6b-648d-45a3-abb7-dc7111fbee9f"},"vehicle_type_id":"4","last_reported":1728846461,"current_range_meters":14800,"station_id":"ce4bh0h2rcd13ifvqd40","pricing_plan_id":"cebpf4jnsgd1na2vs0mg"},{"bike_id":"6407f013-b7db-48c5-bc27-23d2ae38889a","system_id":"levelo_inurba_marseille","lat":43.33025,"lon":5.3904,"is_reserved":false,"is_disabled":false,"rental_uris":{"android":"levelo://app?vid=6407f013-b7db-48c5-bc27-23d2ae38889a","ios":"levelo://app?vid=6407f013-b7db-48c5-bc27-23d2ae38889a"},"vehicle_type_id":"4","last_reported":1728846461,"current_range_meters":30400,"station_id":"ce4bhr92rcd13ifvqhrg","pricing_plan_id":"cebpf4jnsgd1na2vs0mg"},{"bike_id":"d9b3ea75-f194-417e-aade-8514de2914a1","system_id":"levelo_inurba_marseille","lat":43.28003,"lon":5.40021,"is_reserved":false,"is_disabled":false,"rental_uris":{"android":"levelo://app?vid=d9b3ea75-f194-417e-aade-8514de2914a1","ios":"levelo://app?vid=d9b3ea75-f194-417e-aade-8514de2914a1"},"vehicle_type_id":"4","last_reported":1728846461,"current_range_meters":28000,"station_id":"ce4bho92rcd13ifvqh4g","pricing_plan_id":"cebpf4jnsgd1na2vs0mg"},{"bike_id":"03974326-dd13-4549-8405-0952f9b77c51","system_id":"levelo_inurba_marseille","lat":43.28705,"lon":5.37397,"is_reserved":false,"is_disabled":false,"rental_uris":{"android":"levelo://app?vid=03974326-dd13-4549-8405-0952f9b77c51","ios":"levelo://app?vid=03974326-dd13-4549-8405-0952f9b77c51"},"vehicle_type_id":"4","last_reported":1728846461,"current_range_meters":28400,"station_id":"ce4bh3p2rcd13ifvqdq0","pricing_plan_id":"cebpf4jnsgd1na2vs0mg"},{"bike_id":"68e57733-3833-4b61-835b-04c0434b4890","system_id":"levelo_inurba_marseille","lat":43.28853,"lon":5.39321,"is_reserved":false,"is_disabled":false,"rental_uris":{"android":"levelo://app?vid=68e57733-3833-4b61-835b-04c0434b4890","ios":"levelo://app?vid=68e57733-3833-4b61-835b-04c0434b4890"},"vehicle_type_id":"4","last_reported":1728846461,"current_range_meters":38800,"station_id":"ce4bh2p2rcd13ifvqdi0","pricing_plan_id":"cebpf4jnsgd1na2vs0mg"},{"bike_id":"0410aeb7-0a48-483d-a3a8-fea35c38eb5b","system_id":"levelo_inurba_marseille","lat":43.29718,"lon":5.37696,"is_reserved":false,"is_disabled":false,"rental_uris":{"android":"levelo://app?vid=0410aeb7-0a48-483d-a3a8-fea35c38eb5b","ios":"levelo://app?vid=0410aeb7-0a48-483d-a3a8-fea35c38eb5b"},"vehicle_type_id":"4","last_reported":1728846461,"current_range_meters":20000,"station_id":"ce4bgkh2rcd13ifvqbl0","pricing_plan_id":"cebpf4jnsgd1na2vs0mg"},{"bike_id":"14c72868-3577-43c1-85f8-6f23bf297017","system_id":"levelo_inurba_marseille","lat":43.30952,"lon":5.39033,"is_reserved":false,"is_disabled":false,"rental_uris":{"android":"levelo://app?vid=14c72868-3577-43c1-85f8-6f23bf297017","ios":"levelo://app?vid=14c72868-3577-43c1-85f8-6f23bf297017"},"vehicle_type_id":"4","last_reported":1728846461,"current_range_meters":16400,"station_id":"ce4bgup2rcd13ifvqco0","pricing_plan_id":"cebpf4jnsgd1na2vs0mg"},{"bike_id":"c33fc9a4-d369-4dd6-a496-e16f009a6557","system_id":"levelo_inurba_marseille","lat":43.28934,"lon":5.3664,"is_reserved":false,"is_disabled":false,"rental_uris":{"android":"levelo://app?vid=c33fc9a4-d369-4dd6-a496-e16f009a6557","ios":"levelo://app?vid=c33fc9a4-d369-4dd6-a496-e16f009a6557"},"vehicle_type_id":"4","last_reported":1728846461,"current_range_meters":38400,"station_id":"ce4bhap2rcd13ifvqek0","pricing_plan_id":"cebpf4jnsgd1na2vs0mg"},