{"last_updated":1683317222,"ttl":30,"version":"2.2","data":{"bikes":[{"bike_id":"2d7cf203-56a1-4fa2-856f-44b49ed45750","system_id":"levelo_inurba_marseille","lat":43.31341,"lon":5.367098,"is_reserved":false,"is_disabled":false,"rental_uris":{"android":"levelo://app?vid=2d7cf203-56a1-4fa2-856f-44b49ed45750","ios":"levelo://app?vid=2d7cf203-56a1-4fa2-856f-44b49ed45750"},"vehicle_type_id":"4","last_reported":1683317223,"current_range_meters":15200,"station_id":"ce4bgr92rcd13ifvqc6g","pricing_plan_id":"free"},{"bike_id":"ddf4fa75-1830-4b76-9606-b4da80a2cae6","system_id":"levelo_inurba_marseille","lat":43.313391,"lon":5.36706,"is_reserved":false,"is_disabled":false,"rental_uris":{"android":"levelo://app?vid=ddf4fa75-1830-4b76-9606-b4da80a2cae6","ios":"levelo://app?vid=ddf4fa75-1830-4b76-9606-b4da80a2cae6"},"vehicle_type_id":"4","last_reported":1683317223,"current_range_meters":12800,"station_id":"ce4bgr92rcd13ifvqc6g","pricing_plan_id":"free"},{"bike_id":"6acf8c88-f447-41be-86bd-4127fbf4629a","system_id":"levelo_inurba_marseille","lat":43.31341,"lon":5.367098,"is_reserved":false,"is_disabled":false,"rental_uris":{"android":"levelo://app?vid=6acf8c88-f447-41be-86bd-4127fbf4629a","ios":"levelo://app?vid=6acf8c88-f447-41be-86bd-4127fbf4629a"},"vehicle_type_id":"4","last_reported":1683317223,"current_range_meters":800,"station_id":"ce4bgr92rcd13ifvqc6g","pricing_plan_id":"free"},{"bike_id":"bb568394-42b9-46ab-8803-ee22c5703ae7","system_id":"levelo_inurba_marseille","lat":43.312239,"lon":5.368562,"is_reserved":false,"is_disabled":false,"rental_uris":{"android":"levelo://app?vid=bb568394-42b9-46ab-8803-ee22c5703ae7","ios":"levelo://app?vid=bb568394-42b9-46ab-8803-ee22c5703ae7"},"vehicle_type_id":"4","last_reported":1683317223,"current_range_meters":27600,"station_id":"ce4bgl92rcd13ifvqbq0","pricing_plan_id":"free"},{"bike_id":"e42d6016-30b9-4cac-8294-0c066258d5a0","system_id":"levelo_inurba_marseille","lat":43.312239,"lon":5.368562,"is_reserved":false,"is_disabled":false,"rental_uris":{"android":"levelo://app?vid=e42d6016-30b9-4cac-8294-0c066258d5a0","ios":"levelo://app?vid=e42d6016-30b9-4cac-8294-0c066258d5a0"},"vehicle_type_id":"4","last_reported":1683317223,"current_range_meters":3600,"station_id":"ce4bgl92rcd13ifvqbq0","pricing_plan_id":"free"},{"bike_id":"ac955a2f-0eed-4ecf-81b3-de19073a212d","system_id":"levelo_inurba_marseille","lat":43.312239,"lon":5.368562,"is_reserved":false,"is_disabled":false,"rental_uris":{"android":"levelo://app?vid=ac955a2f-0eed-4ecf-81b3-de19073a212d","ios":"levelo://app?vid=ac955a2f-0eed-4ecf-81b3-de19073a212d"},"vehicle_type_id":"4","last_reported":1683317223,"current_range_meters":26000,"station_id":"ce4bgl92rcd13ifvqbq0","pricing_plan_id":"free"},{"bike_id":"ff2ddb45-b3b7-4ee4-a760-a2f8689110a1","system_id":"levelo_inurba_marseille","lat":43.312239,"lon":5.368562,"is_reserved":false,"is_disabled":false,"rental_uris":{"android":"levelo://app?vid=ff2ddb45-b3b7-4ee4-a760-a2f8689110a1","ios":"levelo://app?vid=ff2ddb45-b3b7-4ee4-a760-a2f8689110a1"},"vehicle_type_id":"4","last_reported":1683317223,"current_range_meters":10800,"station_id":"ce4bgl92rcd13ifvqbq0","pricing_plan_id":"free"},{"bike_id":"9f3a22c1-d25f-42a6-98e0-371109874fb1","system_id":"levelo_inurba_marseille","lat":43.312239,"lon":5.368562,"is_reserved":false,"is_disabled":false,"rental_uris":{"android":"levelo://app?vid=9f3a22c1-d25f-42a6-98e0-371109874fb1","ios":"levelo://app?vid=9f3a22c1-d25f-42a6-98e0-371109874fb1"},"vehicle_type_id":"4","last_reported":1683317223,"current_range_meters":31600,"station_id":"ce4bgl92rcd13ifvqbq0","pricing_plan_id":"free"},{"bike_id":"416ed621-5dcc-411b-af7a-78886df8b686","system_id":"levelo_inurba_marseille","lat":43.312239,"lon":5.368562,"is_reserved":false,"is_disabled":false,"rental_uris":{"android":"levelo://app?vid=416ed621-5dcc-411b-af7a-78886df8b686","ios":"levelo://app?vid=416ed621-5dcc-411b-af7a-78886df8b686"},"vehicle_type_id":"4","last_reported":1683317223,"current_range_meters":29600,"station_id":"ce4bgl92rcd13ifvqbq0","pricing_plan_id":"free"},{"bike_id":"1ad9d66e-a406-4536-ac42-430aa68fdfcb","system_id":"levelo_inurba_marseille","lat":43.312239,"lon":5.368562,"is_reserved":false,"is_disabled":false,"rental_uris":{"android":"levelo://app?vid=1ad9d66e-a406-4536-ac42-430aa68fdfcb","ios":"levelo://app?vid=1ad9d66e-a406-4536-ac42-430aa68fdfcb"},"vehicle_type_id":"4","last_reported":1683317223,"current_range_meters":13600,"station_id":"ce4bgl92rcd13ifvqbq0","pricing_plan_id":"free"},{"bike_id":"c7f5d670-55b4-46e6-a645-f39184bf4a98","system_id":"levelo_inurba_marseille","lat":43.312239,"lon":5.368562,"is_reserved":false,"is_disabled":false,"rental_uris":{"android":"levelo://app?vid=c7f5d670-55b4-46e6-a645-f39184bf4a98","ios":"levelo://app?vid=c7f5d670-55b4-46e6-a645-f39184bf4a98"},"vehicle_type_id":"4","last_reported":1683317223,"current_range_meters":22400,"station_id":"ce4bgl92rcd13ifvqbq0","pricing_plan_id":"free"},{"bike_id":"c5d9a6d2-9be9-4018-b369-f176440792a5","system_id":"levelo_inurba_marseille","lat":43.309076,"lon":5.368465,"is_reserved":false,"is_disabled":false,"rental_uris":{"android":"levelo://app?vid=c5d9a6d2-9be9-4018-b369-f176440792a5","ios":"levelo://app?vid=c5d9a6d2-9be9-4018-b369-f176440792a5"},"vehicle_type_id":"4","last_reported":1683317223,"current_range_meters":31200,"station_id":"ce4bgn92rcd13ifvqbvg","pricing_plan_id":"free"},{"bike_id":"6592fbb7-bf54-4a16-8e53-b0529f3dd343","system_id":"levelo_inurba_marseille","lat":43.309076,"lon":5.368465,"is_reserved":false,"is_disabled":false,"rental_uris":{"android":"levelo://app?vid=6592fbb7-bf54-4a16-8e53-b0529f3dd343","ios":"levelo://app?vid=6592fbb7-bf54-4a16-8e53-b0529f3dd343"},"vehicle_type_id":"4","last_reported":1683317223,"current_range_meters":26400,"station_id":"ce4bgn92rcd13ifvqbvg","pricing_plan_id":"free"},{"bike_id":"85db9227-8cd4-437f-9613-3a570ff31ea6","system_id":"levelo_inurba_marseille","lat":43.314811,"lon":5.373104,"is_reserved":false,"is_disabled":false,"rental_uris":{"android":"levelo://app?vid=85db9227-8cd4-437f-9613-3a570ff31ea6","ios":"levelo://app?vid=85db9227-8cd4-437f-9613-3a570ff31ea6"},"vehicle_type_id":"4","last_reported":1683317223,"current_range_meters":800,"station_id":"ce4bgt12rcd13ifvqcd0","pricing_plan_id":"free"},{"bike_id":"91060a43-7b9f-440c-baab-f9f69dfeacf5","system_id":"levelo_inurba_marseille","lat":43.314811,"lon":5.373103,"is_reserved":false,"is_disabled":false,"rental_uris":{"android":"levelo://app?vid=91060a43-7b9f-440c-baab-f9f69dfeacf5","ios":"levelo://app?vid=91060a43-7b9f-440c-baab-f9f69dfeacf5"},"vehicle_type_id":"4","last_reported":1683317223,"current_range_meters":20800,"station_id":"ce4bgt12rcd13ifvqcd0","pricing_plan_id":"free"},{"bike_id":"2bf01a4c-e18d-4db8-977e-e420e84328fc","system_id":"levelo_inurba_marseille","lat":43.314811,"lon":5.373103,"is_reserved":false,"is_disabled":false,"rental_uris":{"android":"levelo://app?vid=2bf01a4c-e18d-4db8-977e-e420e84328fc","ios":"levelo://app?vid=2bf01a4c-e18d-4db8-977e-e420e84328fc"},"vehicle_type_id":"4","last_reported":1683317223,"current_range_meters":8000,"station_id":"ce4bgt12rcd13ifvqcd0","pricing_plan_id":"free"},{"bike_id":"6b90f7c2-15bb-426f-a9ef-84a11f737857","system_id":"levelo_inurba_marseille","lat":43.314811,"lon":5.373103,"is_reserved":false,"is_disabled":false,"rental_uris":{"android":"levelo://app?vid=6b90f7c2-15bb-426f-a9ef-84a11f737857","ios":"levelo://app?vid=6b90f7c2-15bb-426f-a9ef-84a11f737857"},"vehicle_type_id":"4","last_reported":1683317223,"current_range_meters":4800,"station_id":"ce4bgt12rcd13ifvqcd0","pricing_plan_id":"free"},{"bike_id":"611accda-3a05-4735-ae96-3bfb160a30ce","system_id":"levelo_inurba_marseille","lat":43.308614,"lon":5.372098,"is_reserved":false,"is_disabled":false,"rental_uris":{"android":"levelo://app?vid=611accda-3a05-4735-ae96-3bfb160a30ce","ios":"levelo://app?vid=611accda-3a05-4735-ae96-3bfb160a30ce"},"vehicle_type_id":"4","last_reported":1683317223,"current_range_meters":28800,"station_id":"ce4bguh2rcd13ifvqckg","pricing_plan_id":"free"},{"bike_id":"26c8babe-fcba-4929-8132-72531cf3dcc4","system_id":"levelo_inurba_marseille","lat":43.308614,"lon":5.372098,"is_reserved":false,"is_disabled":false,"rental_uris":{"android":"levelo://app?vid=26c8babe-fcba-4929-8132-72531cf3dcc4","ios":"levelo://app?vid=26c8babe-fcba-4929-8132-72531cf3dcc4"},"vehicle_type_id":"4","last_reported":1683317223,"current_range_meters":20400,"station_id":"ce4bguh2rcd13ifvqckg","pricing_plan_id":"free"},{"bike_id":"493dd9c0-c49f-4406-8836-c423cc588ed5","system_id":"levelo_inurba_marseille","lat":43.308614,"lon":5.372098,"is_reserved":false,"is_disabled":false,"rental_uris":{"android":"levelo://app?vid=493dd9c0-c49f-4406-8836-c423cc588ed5","ios":"levelo://app?vid=493dd9c0-c49f-4406-8836-c423cc588ed5"},"vehicle_type_id":"4","last_reported":1683317223,"current_range_meters":28800,"station_id":"ce4bguh2rcd13ifvqckg","pricing_plan_id":"free"},{"bike_id":"f4832e3a-8042-4982-8bce-4d581074892c","system_id":"levelo_inurba_marseille","lat":43.308614,"lon":5.372098,"is_reserved":false,"is_disabled":false,"rental_uris":{"android":"levelo://app?vid=f4832e3a-8042-4982-8bce-4d581074892c","ios":"levelo://app?vid=f4832e3a-8042-4982-8bce-4d581074892c"},"vehicle_type_id":"4","last_reported":1683317223,"current_range_meters":28800,"station_id":"ce4bguh2rcd13ifvqckg","pricing_plan_id":"free"},{"bike_id":"11236616-13b1-4d37-ab5e-f3f69064131a","system_id":"levelo_inurba_marseille","lat":43.308614,"lon":5.372098,"is_reserved":false,"is_disabled":false,"rental_uris":{"android":"levelo://app?vid=11236616-13b1-4d37-ab5e-f3f69064131a","ios":"levelo://app?vid=11236616-13b1-4d37-ab5e-f3f69064131a"},"vehicle_type_id":"4","last_reported":1683317223,"current_range_meters":30400,"station_id":"ce4bguh2rcd13ifvqckg","pricing_plan_id":"free"},{"bike_id":"5c21fbf5-ae6b-4172-9b9f-9966c555ae73","system_id":"levelo_inurba_marseille","lat":43.308614,"lon":5.372098,"is_reserved":false,"is_disabled":false,"rental_uris":{"android":"levelo://app?vid=5c21fbf5-ae6b-4172-9b9f-9966c555ae73","ios":"levelo://app?vid=5c21fbf5-ae6b-4172-9b9f-9966c555ae73"},"vehicle_type_id":"4","last_reported":1683317223,"current_range_meters":0,"station_id":"ce4bguh2rcd13ifvqckg","pricing_plan_id":"free"},{"bike_id":"dc0554a0-c5e3-45a6-b3e9-9681212a3094","system_id":"levelo_inurba_marseille","lat":43.308614,"lon":5.372098,"is_reserved":false,"is_disabled":false,"rental_uris":{"android":"levelo://app?vid=dc0554a0-c5e3-45a6-b3e9-9681212a3094","ios":"levelo://app?vid=dc0554a0-c5e3-45a6-b3e9-9681212a3094"},"vehicle_type_id":"4","last_reported":1683317223,"current_range_meters":0,"station_id":"ce4bguh2rcd13ifvqckg","pricing_plan_id":"free"},{"bike_id":"caea2489-5a5d-4f00-8e78-8c319f8ed68e","system_id":"levelo_inurba_marseille","lat":43.3057,"lon":5.36553,"is_reserved":false,"is_disabled":false,"rental_uris":{"android":"levelo://app?vid=caea2489-5a5d-4f00-8e78-8c319f8ed68e","ios":"levelo://app?vid=caea2489-5a5d-4f00-8e78-8c319f8ed68e"},"vehicle_type_id":"4","last_reported":1683317223,"current_range_meters":10800,"station_id":"","pricing_plan_id":"free"},{"bike_id":"d4e5d4fa-31cf-4a72-9245-1761fa6e7b72","system_id":"levelo_inurba_marseille","lat":43.305368,"lon":5.367343,"is_reserved":false,"is_disabled":false,"rental_uris":{"android":"levelo://app?vid=d4e5d4fa-31cf-4a72-9245-1761fa6e7b72","ios":"levelo://app?vid=d4e5d4fa-31cf-4a72-9245-1761fa6e7b72"},"vehicle_type_id":"4","last_reported":1683317223,"current_range_meters":12400,"station_id":"ce4bgrp2rcd13ifvqc9g","pricing_plan_id":"free"},{"bike_id":"2f589a57-28ce-47dc-b313-f5bbdf46d8a9","system_id":"levelo_inurba_marseille","lat":43.305368,"lon":5.367343,"is_reserved":false,"is_disabled":false,"rental_uris":{"android":"levelo://app?vid=2f589a57-28ce-47dc-b313-f5bbdf46d8a9","ios":"levelo://app?vid=2f589a57-28ce-47dc-b313-f5bbdf46d8a9"},"vehicle_type_id":"4","last_reported":1683317223,"current_range_meters":4400,"station_id":"ce4bgrp2rcd13ifvqc9g","pricing_plan_id":"free"},{"bike_id":"2c5049f3-0d4d-4c8d-9493-92a700b1a6ef","system_id":"levelo_inurba_marseille","lat":43.305368,"lon":5.367343,"is_reserved":false,"is_disabled":false,"rental_uris":{"android":"levelo://app?vid=2c5049f3-0d4d-4c8d-9493-92a700b1a6ef","ios":"levelo://app?vid=2c5049f3-0d4d-4c8d-9493-92a700b1a6ef"},"vehicle_type_id":"4","last_reported":1683317223,"current_range_meters":19200,"station_id":"ce4bgrp2rcd13ifvqc9g","pricing_plan_id":"free"},{"bike_id":"e3013c78-aa70-4d61-8515-42a24fa15434","system_id":"levelo_inurba_marseille","lat":43.305714,"lon":5.365633,"is_reserved":false,"is_disabled":false,"rental_uris":{"android":"levelo://app?vid=e3013c78-aa70-4d61-8515-42a24fa15434","ios":"levelo://app?vid=e3013c78-aa70-4d61-8515-42a24fa15434"},"vehicle_type_id":"4","last_reported":1683317223,"current_range_meters":15200,"station_id":"ce4bgs12rcd13ifvqcag","pricing_plan_id":"free"},{"bike_id":"5704ce40-bb19-4502-a2c5-5cc144767995","system_id":"levelo_inurba_marseille","lat":43.305989,"lon":5.37225,"is_reserved":false,"is_disabled":false,"rental_uris":{"android":"levelo://app?vid=5704ce40-bb19-4502-a2c5-5cc144767995","ios":"levelo://app?vid=5704ce40-bb19-4502-a2c5-5cc144767995"},"vehicle_type_id":"4","last_reported":1683317223,"current_range_meters":10800,"station_id":"ce4bgqh2rcd13ifvqc4g","pricing_plan_id":"free"},{"bike_id":"a880c7cf-1d50-4daf-850b-4af6850ee458","system_id":"levelo_inurba_marseille","lat":43.305989,"lon":5.37225,"is_reserved":false,"is_disabled":false,"rental_uris":{"android":"levelo://app?vid=a880c7cf-1d50-4daf-850b-4af6850ee458","ios":"levelo://app?vid=a880c7cf-1d50-4daf-850b-4af6850ee458"},"vehicle_type_id":"4","last_reported":1683317223,"current_range_meters":30400,"station_id":"ce4bgqh2rcd13ifvqc4g","pricing_plan_id":"free"},{"bike_id":"786bc758-f13e-45a3-95eb-062685a7c435","system_id":"levelo_inurba_marseille","lat":43.305989,"lon":5.37225,"is_reserved":false,"is_disabled":false,"rental_uris":{"android":"levelo://app?vid=786bc758-f13e-45a3-95eb-062685a7c435","ios":"levelo://app?vid=786bc758-f13e-45a3-95eb-062685a7c435"},"vehicle_type_id":"4","last_reported":1683317223,"current_range_meters":31600,"station_id":"ce4bgqh2rcd13ifvqc4g","pricing_plan_id":"free"},{"bike_id":"208ee71c-2960-47ff-b313-3b5b0e8f49d7","system_id":"levelo_inurba_marseille","lat":43.305989,"lon":5.37225,"is_reserved":false,"is_disabled":false,"rental_uris":{"android":"levelo://app?vid=208ee71c-2960-47ff-b313-3b5b0e8f49d7","ios":"levelo://app?vid=208ee71c-2960-47ff-b313-3b5b0e8f49d7"},"vehicle_type_id":"4","last_reported":1683317223,"current_range_meters":0,"station_id":"ce4bgqh2rcd13ifvqc4g","pricing_plan_id":"free"},{"bike_id":"249d009e-a16d-4002-9565-05b114f4cf2a","system_id":"levelo_inurba_marseille","lat":43.305989,"lon":5.37225,"is_reserved":false,"is_disabled":false,"rental_uris":{"android":"levelo://app?vid=249d009e-a16d-4002-9565-05b114f4cf2a","ios":"levelo://app?vid=249d009e-a16d-4002-9565-05b114f4cf2a"},"vehicle_type_id":"4","last_reported":1683317223,"current_range_meters":24400,"station_id":"ce4bgqh2rcd13ifvqc4g","pricing_plan_id":"free"},{"bike_id":"40710284-5055-47c3-bccf-a60fe4443b61","system_id":"levelo_inurba_marseille","lat":43.305989,"lon":5.37225,"is_reserved":false,"is_disabled":false,"rental_uris":{"android":"levelo://app?vid=40710284-5055-47c3-bccf-a60fe4443b61","ios":"levelo://app?vid=40710284-5055-47c3-bccf-a60fe4443b61"},"vehicle_type_id":"4","last_reported":1683317223,"current_range_meters":4800,"station_id":"ce4bgqh2rcd13ifvqc4g","pricing_plan_id":"free"},{"bike_id":"68236999-dba2-4399-b7d9-2ef5b355e8e1","system_id":"levelo_inurba_marseille","lat":43.305989,"lon":5.37225,"is_reserved":false,"is_disabled":false,"rental_uris":{"android":"levelo://app?vid=68236999-dba2-4399-b7d9-2ef5b355e8e1","ios":"levelo://app?vid=68236999-dba2-4399-b7d9-2ef5b355e8e1"},"vehicle_type_id":"4","last_reported":1683317223,"current_range_meters":23600,"station_id":"ce4bgqh2rcd13ifvqc4g","pricing_plan_id":"free"},{"bike_id":"d63c9a0d-2b67-44c3-a597-59699e6a0ce1","system_id":"levelo_inurba_marseille","lat":43.305989,"lon":5.37225,"is_reserved":false,"is_disabled":false,"rental_uris":{"android":"levelo://app?vid=d63c9a0d-2b67-44c3-a597-59699e6a0ce1","ios":"levelo://app?vid=d63c9a0d-2b67-44c3-a597-59699e6a0ce1"},"vehicle_type_id":"4","last_reported":1683317223,"current_range_meters":31200,"station_id":"ce4bgqh2rcd13ifvqc4g","pricing_plan_id":"free"},{"bike_id":"275d4618-9e89-4cd1-8df4-6b9ecb7c445a","system_id":"levelo_inurba_marseille","lat":43.305989,"lon":5.37225,"is_reserved":false,"is_disabled":false,"rental_uris":{"android":"levelo://app?vid=275d4618-9e89-4cd1-8df4-6b9ecb7c445a","ios":"levelo://app?vid=275d4618-9e89-4cd1-8df4-6b9ecb7c445a"},"vehicle_type_id":"4","last_reported":1683317223,"current_range_meters":6800,"station_id":"ce4bgqh2rcd13ifvqc4g","pricing_plan_id":"free"},{"bike_id":"2e816221-8604-4fe9-a66f-0f2c556458a4","system_id":"levelo_inurba_marseille","lat":43.305989,"lon":5.37225,"is_reserved":false,"is_disabled":false,"rental_uris":{"android":"levelo://app?vid=2e816221-8604-4fe9-a66f-0f2c556458a4","ios":"levelo://app?vid=2e816221-8604-4fe9-a66f-0f2c556458a4"},"vehicle_type_id":"4","last_reported":1683317223,"current_range_meters":16000,"station_id":"ce4bgqh2rcd13ifvqc4g","pricing_plan_id":"free"},{"bike_id":"1cb6bd2a-d6c3-4d5f-841c-cd76bf74f6b2","system_id":"levelo_inurba_marseille","lat":43.31119,"lon":5.37757,"is_reserved":false,"is_disabled":false,"rental_uris":{"android":"levelo://app?vid=1cb6bd2a-d6c3-4d5f-841c-cd76bf74f6b2","ios":"levelo://app?vid=1cb6bd2a-d6c3-4d5f-841c-cd76bf74f6b2"},"vehicle_type_id":"4","last_reported":1683317223,"current_range_meters":7600,"station_id":"","pricing_plan_id":"free"},{"bike_id":"6ae14798-fee0-4bdb-b098-614cd9a2b8b3","system_id":"levelo_inurba_marseille","lat":43.311131,"lon":5.377651,"is_reserved":false,"is_disabled":false,"rental_uris":{"android":"levelo://app?vid=6ae14798-fee0-4bdb-b098-614cd9a2b8b3","ios":"levelo://app?vid=6ae14798-fee0-4bdb-b098-614cd9a2b8b3"},"vehicle_type_id":"4","last_reported":1683317223,"current_range_meters":19200,"station_id":"ce4bgt92rcd13ifvqcg0","pricing_plan_id":"free"},{"bike_id":"4a4d6ac7-929f-4743-bf1b-c5d837398877","system_id":"levelo_inurba_marseille","lat":43.317075,"lon":5.377367,"is_reserved":false,"is_disabled":false,"rental_uris":{"android":"levelo://app?vid=4a4d6ac7-929f-4743-bf1b-c5d837398877","ios":"levelo://app?vid=4a4d6ac7-929f-4743-bf1b-c5d837398877"},"vehicle_type_id":"4","last_reported":1683317223,"current_range_meters":24800,"station_id":"ce4bgth2rcd13ifvqch0","pricing_plan_id":"free"},{"bike_id":"0ceddf03-75b7-4dff-ba07-11950b87c5d3","system_id":"levelo_inurba_marseille","lat":43.317075,"lon":5.377367,"is_reserved":false,"is_disabled":false,"rental_uris":{"android":"levelo://app?vid=0ceddf03-75b7-4dff-ba07-11950b87c5d3","ios":"levelo://app?vid=0ceddf03-75b7-4dff-ba07-11950b87c5d3"},"vehicle_type_id":"4","last_reported":1683317223,"current_range_meters":25600,"station_id":"ce4bgth2rcd13ifvqch0","pricing_plan_id":"free"},{"bike_id":"2a9ba982-b2b3-404c-9cd8-3013399dd421","system_id":"levelo_inurba_marseille","lat":43.317075,"lon":5.377367,"is_reserved":false,"is_disabled":false,"rental_uris":{"android":"levelo://app?vid=2a9ba982-b2b3-404c-9cd8-3013399dd421","ios":"levelo://app?vid=2a9ba982-b2b3-404c-9cd8-3013399dd421"},"vehicle_type_id":"4","last_reported":1683317223,"current_range_meters":16800,"station_id":"ce4bgth2rcd13ifvqch0","pricing_plan_id":"free"},{"bike_id":"bf4c8d15-23b5-43ac-9ff3-2e2a00d87083","system_id":"levelo_inurba_marseille","lat":43.30143,"lon":5.37413,"is_reserved":false,"is_disabled":false,"rental_uris":{"android":"levelo://app?vid=bf4c8d15-23b5-43ac-9ff3-2e2a00d87083","ios":"levelo://app?vid=bf4c8d15-23b5-43ac-9ff3-2e2a00d87083"},"vehicle_type_id":"4","last_reported":1683317223,"current_range_meters":4800,"station_id":"ce4bgs92rcd13ifvqcc0","pricing_plan_id":"free"},{"bike_id":"d44ef1b5-aa87-494f-b80b-d91982363150","system_id":"levelo_inurba_marseille","lat":43.31527,"lon":5.38038,"is_reserved":false,"is_disabled":false,"rental_uris":{"android":"levelo://app?vid=d44ef1b5-aa87-494f-b80b-d91982363150","ios":"levelo://app?vid=d44ef1b5-aa87-494f-b80b-d91982363150"},"vehicle_type_id":"4","last_reported":1683317223,"current_range_meters":29600,"station_id":"ce4bhsp2rcd13ifvqi50","pricing_plan_id":"free"},{"bike_id":"8170f3b4-b1c3-4994-93d8-7121a498d044","system_id":"levelo_inurba_marseille","lat":43.31526,"lon":5.3804,"is_reserved":false,"is_disabled":false,"rental_uris":{"android":"levelo://app?vid=8170f3b4-b1c3-4994-93d8-7121a498d044","ios":"levelo://app?vid=8170f3b4-b1c3-4994-93d8-7121a498d044"},"vehicle_type_id":"4","last_reported":1683317223,"current_range_meters":10800,"station_id":"ce4bhsp2rcd13ifvqi50","pricing_plan_id":"free"},{"bike_id":"6646f385-7df2-4aa2-8f2d-7587e9a3c28a","system_id":"levelo_inurba_marseille","lat":43.315293,"lon":5.380349,"is_reserved":false,"is_disabled":false,"rental_uris":{"android":"levelo://app?vid=6646f385-7df2-4aa2-8f2d-7587e9a3c28a","ios":"levelo://app?vid=6646f385-7df2-4aa2-8f2d-7587e9a3c28a"},"vehicle_type_id":"4","last_reported":1683317223,"current_range_meters":27200,"station_id":"ce4bhsp2rcd13ifvqi50","pricing_plan_id":"free"},{"bike_id":"5615e51f-1f47-461e-ac11-f8d0d69e43dc","system_id":"levelo_inurba_marseille","lat":43.31533,"lon":5.3804,"is_reserved":false,"is_disabled":false,"rental_uris":{"android":"levelo://app?vid=5615e51f-1f47-461e-ac11-f8d0d69e43dc","ios":"levelo://app?vid=5615e51f-1f47-461e-ac11-f8d0d69e43dc"},"vehicle_type_id":"4","last_reported":1683317223,"current_range_meters":0,"station_id":"ce4bhsp2rcd13ifvqi50","pricing_plan_id":"free"},{"bike_id":"4957c8ad-94d6-44aa-ba40-d7ec2f00e25b","system_id":"levelo_inurba_marseille","lat":43.301939,"lon":5.366286,"is_reserved":false,"is_disabled":false,"rental_uris":{"android":"levelo://app?vid=4957c8ad-94d6-44aa-ba40-d7ec2f00e25b","ios":"levelo://app?vid=4957c8ad-94d6-44aa-ba40-d7ec2f00e25b"},"vehicle_type_id":"4","last_reported":1683317223,"current_range_meters":0,"station_id":"ce4bgrh2rcd13ifvqc8g","pricing_plan_id":"free"},{"bike_id":"804017c5-9178-42e2-940d-95c73c0fe108","system_id":"levelo_inurba_marseille","lat":43.30806,"lon":5.38152,"is_reserved":false,"is_disabled":false,"rental_uris":{"android":"levelo://app?vid=804017c5-9178-42e2-940d-95c73c0fe108","ios":"levelo://app?vid=804017c5-9178-42e2-940d-95c73c0fe108"},"vehicle_type_id":"4","last_reported":1683317223,"current_range_meters":15200,"station_id":"ce4bgt12rcd13ifvqce0","pricing_plan_id":"free"},{"bike_id":"a93b47eb-7f04-4d95-8d0f-4a02ab92ba05","system_id":"levelo_inurba_marseille","lat":43.305364,"lon":5.384119,"is_reserved":false,"is_disabled":false,"rental_uris":{"android":"levelo://app?vid=a93b47eb-7f04-4d95-8d0f-4a02ab92ba05","ios":"levelo://app?vid=a93b47eb-7f04-4d95-8d0f-4a02ab92ba05"},"vehicle_type_id":"4","last_reported":1683317223,"current_range_meters":15600,"station_id":"ce4bgg92rcd13ifvqb30","pricing_plan_id":"free"},{"bike_id":"0d921131-f37e-42d3-a942-d82477716baa","system_id":"levelo_inurba_marseille","lat":43.308012,"lon":5.381511,"is_reserved":false,"is_disabled":false,"rental_uris":{"android":"levelo://app?vid=0d921131-f37e-42d3-a942-d82477716baa","ios":"levelo://app?vid=0d921131-f37e-42d3-a942-d82477716baa"},"vehicle_type_id":"4","last_reported":1683317223,"current_range_meters":0,"station_id":"ce4bgt12rcd13ifvqce0","pricing_plan_id":"free"},{"bike_id":"55623f64-d8ba-424f-850e-5c9caf10fe3b","system_id":"levelo_inurba_marseille","lat":43.308012,"lon":5.381511,"is_reserved":false,"is_disabled":false,"rental_uris":{"android":"levelo://app?vid=55623f64-d8ba-424f-850e-5c9caf10fe3b","ios":"levelo://app?vid=55623f64-d8ba-424f-850e-5c9caf10fe3b"},"vehicle_type_id":"4","last_reported":1683317223,"current_range_meters":5200,"station_id":"ce4bgt12rcd13ifvqce0","pricing_plan_id":"free"},{"bike_id":"573dbe7e-54eb-4013-90fb-9e2ab2b1e65e","system_id":"levelo_inurba_marseille","lat":43.304606,"lon":5.379026,"is_reserved":false,"is_disabled":false,"rental_uris":{"android":"levelo://app?vid=573dbe7e-54eb-4013-90fb-9e2ab2b1e65e","ios":"levelo://app?vid=573dbe7e-54eb-4013-90fb-9e2ab2b1e65e"},"vehicle_type_id":"4","last_reported":1683317223,"current_range_meters":14000,"station_id":"ce4bgup2rcd13ifvqcn0","pricing_plan_id":"free"},{"bike_id":"6d1dea99-0cc6-4f27-9abf-2e091025fed6","system_id":"levelo_inurba_marseille","lat":43.304606,"lon":5.379026,"is_reserved":false,"is_disabled":false,"rental_uris":{"android":"levelo://app?vid=6d1dea99-0cc6-4f27-9abf-2e091025fed6","ios":"levelo://app?vid=6d1dea99-0cc6-4f27-9abf-2e091025fed6"},"vehicle_type_id":"4","last_reported":1683317223,"current_range_meters":6400,"station_id":"ce4bgup2rcd13ifvqcn0","pricing_plan_id":"free"},{"bike_id":"973c3a0a-aeab-4f35-84a6-afbfd9749cbc","system_id":"levelo_inurba_marseille","lat":43.30143,"lon":5.37413,"is_reserved":false,"is_disabled":false,"rental_uris":{"android":"levelo://app?vid=973c3a0a-aeab-4f35-84a6-afbfd9749cbc","ios":"levelo://app?vid=973c3a0a-aeab-4f35-84a6-afbfd9749cbc"},"vehicle_type_id":"4","last_reported":1683317223,"current_range_meters":2800,"station_id":"ce4bgs92rcd13ifvqcc0","pricing_plan_id":"free"},{"bike_id":"ef7f11df-80f0-499a-9e96-036dada902df","system_id":"levelo_inurba_marseille","lat":43.30136,"lon":5.37424,"is_reserved":false,"is_disabled":false,"rental_uris":{"android":"levelo://app?vid=ef7f11df-80f0-499a-9e96-036dada902df","ios":"levelo://app?vid=ef7f11df-80f0-499a-9e96-036dada902df"},"vehicle_type_id":"4","last_reported":1683317223,"current_range_meters":1600,"station_id":"ce4bgs92rcd13ifvqcc0","pricing_plan_id":"free"},{"bike_id":"3a249a4a-aa1f-4c3b-972d-b281d9c306d0","system_id":"levelo_inurba_marseille","lat":43.313571,"lon":5.384829,"is_reserved":false,"is_disabled":false,"rental_uris":{"android":"levelo://app?vid=3a249a4a-aa1f-4c3b-972d-b281d9c306d0","ios":"levelo://app?vid=3a249a4a-aa1f-4c3b-972d-b281d9c306d0"},"vehicle_type_id":"4","last_reported":1683317223,"current_range_meters":24400,"station_id":"ce4bgt92rcd13ifvqcf0","pricing_plan_id":"free"},{"bike_id":"ed823ae8-e73d-41df-b709-72e0e301e341","system_id":"levelo_inurba_marseille","lat":43.313571,"lon":5.384829,"is_reserved":false,"is_disabled":false,"rental_uris":{"android":"levelo://app?vid=ed823ae8-e73d-41df-b709-72e0e301e341","ios":"levelo://app?vid=ed823ae8-e73d-41df-b709-72e0e301e341"},"vehicle_type_id":"4","last_reported":1683317223,"current_range_meters":31200,"station_id":"ce4bgt92rcd13ifvqcf0","pricing_plan_id":"free"},{"bike_id":"e4c642f8-dfed-4b02-ae78-599808cd1c70","system_id":"levelo_inurba_marseille","lat":43.313571,"lon":5.384829,"is_reserved":false,"is_disabled":false,"rental_uris":{"android":"levelo://app?vid=e4c642f8-dfed-4b02-ae78-599808cd1c70","ios":"levelo://app?vid=e4c642f8-dfed-4b02-ae78-599808cd1c70"},"vehicle_type_id":"4","last_reported":1683317223,"current_range_meters":13200,"station_id":"ce4bgt92rcd13ifvqcf0","pricing_plan_id":"free"},{"bike_id":"89774f87-c5fa-4a95-82a5-8e49aaf4a4da","system_id":"levelo_inurba_marseille","lat":43.29941,"lon":5.3656,"is_reserved":false,"is_disabled":false,"rental_uris":{"android":"levelo://app?vid=89774f87-c5fa-4a95-82a5-8e49aaf4a4da","ios":"levelo://app?vid=89774f87-c5fa-4a95-82a5-8e49aaf4a4da"},"vehicle_type_id":"4","last_reported":1683317223,"current_range_meters":19200,"station_id":"ce4bgm92rcd13ifvqbr0","pricing_plan_id":"free"},{"bike_id":"84c446eb-2c87-4098-8fd5-624ea4d2a61e","system_id":"levelo_inurba_marseille","lat":43.299222,"lon":5.365554,"is_reserved":false,"is_disabled":false,"rental_uris":{"android":"levelo://app?vid=84c446eb-2c87-4098-8fd5-624ea4d2a61e","ios":"levelo://app?vid=84c446eb-2c87-4098-8fd5-624ea4d2a61e"},"vehicle_type_id":"4","last_reported":1683317223,"current_range_meters":0,"station_id":"ce4bgm92rcd13ifvqbr0","pricing_plan_id":"free"},{"bike_id":"dbfeae76-92cf-48d2-9ad8-27dae65fb157","system_id":"levelo_inurba_marseille","lat":43.299222,"lon":5.365554,"is_reserved":false,"is_disabled":false,"rental_uris":{"android":"levelo://app?vid=dbfeae76-92cf-48d2-9ad8-27dae65fb157","ios":"levelo://app?vid=dbfeae76-92cf-48d2-9ad8-27dae65fb157"},"vehicle_type_id":"4","last_reported":1683317223,"current_range_meters":25600,"station_id":"ce4bgm92rcd13ifvqbr0","pricing_plan_id":"free"},{"bike_id":"bcf12486-4d40-4884-969b-2c19f244a968","system_id":"levelo_inurba_marseille","lat":43.29889,"lon":5.367,"is_reserved":false,"is_disabled":false,"rental_uris":{"android":"levelo://app?vid=bcf12486-4d40-4884-969b-2c19f244a968","ios":"levelo://app?vid=bcf12486-4d40-4884-969b-2c19f244a968"},"vehicle_type_id":"4","last_reported":1683317223,"current_range_meters":2800,"station_id":"","pricing_plan_id":"free"},{"bike_id":"67257408-f281-43c1-a65b-06e5473e3579","system_id":"levelo_inurba_marseille","lat":43.298433,"lon":5.362774,"is_reserved":false,"is_disabled":false,"rental_uris":{"android":"levelo://app?vid=67257408-f281-43c1-a65b-06e5473e3579","ios":"levelo://app?vid=67257408-f281-43c1-a65b-06e5473e3579"},"vehicle_type_id":"4","last_reported":1683317223,"current_range_meters":0,"station_id":"ce4bgpp2rcd13ifvqc3g","pricing_plan_id":"free"},{"bike_id":"ac0ec3e8-d52d-42fe-8a84-7f8b9ccb829a","system_id":"levelo_inurba_marseille","lat":43.298433,"lon":5.362774,"is_reserved":false,"is_disabled":false,"rental_uris":{"android":"levelo://app?vid=ac0ec3e8-d52d-42fe-8a84-7f8b9ccb829a","ios":"levelo://app?vid=ac0ec3e8-d52d-42fe-8a84-7f8b9ccb829a"},"vehicle_type_id":"4","last_reported":1683317223,"current_range_meters":0,"station_id":"ce4bgpp2rcd13ifvqc3g","pricing_plan_id":"free"},{"bike_id":"5fa4ebdf-e549-4442-8ec0-f669dc277806","system_id":"levelo_inurba_marseille","lat":43.299243,"lon":5.37481,"is_reserved":false,"is_disabled":false,"rental_uris":{"android":"levelo://app?vid=5fa4ebdf-e549-4442-8ec0-f669dc277806","ios":"levelo://app?vid=5fa4ebdf-e549-4442-8ec0-f669dc277806"},"vehicle_type_id":"4","last_reported":1683317223,"current_range_meters":800,"station_id":"ce4bgjh2rcd13ifvqbg0","pricing_plan_id":"free"},{"bike_id":"1b9b8155-a30f-4fec-93bb-7591d06a9a6f","system_id":"levelo_inurba_marseille","lat":43.311722,"lon":5.387247,"is_reserved":false,"is_disabled":false,"rental_uris":{"android":"levelo://app?vid=1b9b8155-a30f-4fec-93bb-7591d06a9a6f","ios":"levelo://app?vid=1b9b8155-a30f-4fec-93bb-7591d06a9a6f"},"vehicle_type_id":"4","last_reported":1683317223,"current_range_meters":11200,"station_id":"ce4bgv12rcd13ifvqcp0","pricing_plan_id":"free"},{"bike_id":"0ddc8f60-7680-4f69-a451-9fccdb0fb714","system_id":"levelo_inurba_marseille","lat":43.311722,"lon":5.387247,"is_reserved":false,"is_disabled":false,"rental_uris":{"android":"levelo://app?vid=0ddc8f60-7680-4f69-a451-9fccdb0fb714","ios":"levelo://app?vid=0ddc8f60-7680-4f69-a451-9fccdb0fb714"},"vehicle_type_id":"4","last_reported":1683317223,"current_range_meters":9600,"station_id":"ce4bgv12rcd13ifvqcp0","pricing_plan_id":"free"},{"bike_id":"c2dcf690-7922-4016-adc2-261fdc127cf2","system_id":"levelo_inurba_marseille","lat":43.311722,"lon":5.387247,"is_reserved":false,"is_disabled":false,"rental_uris":{"android":"levelo://app?vid=c2dcf690-7922-4016-adc2-261fdc127cf2","ios":"levelo://app?vid=c2dcf690-7922-4016-adc2-261fdc127cf2"},"vehicle_type_id":"4","last_reported":1683317223,"current_range_meters":18400,"station_id":"ce4bgv12rcd13ifvqcp0","pricing_plan_id":"free"},{"bike_id":"f01ec473-7fe9-47ec-852c-f195da583b5a","system_id":"levelo_inurba_marseille","lat":43.328371,"lon":5.366909,"is_reserved":false,"is_disabled":false,"rental_uris":{"android":"levelo://app?vid=f01ec473-7fe9-47ec-852c-f195da583b5a","ios":"levelo://app?vid=f01ec473-7fe9-47ec-852c-f195da583b5a"},"vehicle_type_id":"4","last_reported":1683317223,"current_range_meters":21600,"station_id":"ce4bhs92rcd13ifvqi0g","pricing_plan_id":"free"},{"bike_id":"2b50b170-0df6-406d-bea0-202c3e023fe5","system_id":"levelo_inurba_marseille","lat":43.328371,"lon":5.366909,"is_reserved":false,"is_disabled":false,"rental_uris":{"android":"levelo://app?vid=2b50b170-0df6-406d-bea0-202c3e023fe5","ios":"levelo://app?vid=2b50b170-0df6-406d-bea0-202c3e023fe5"},"vehicle_type_id":"4","last_reported":1683317223,"current_range_meters":20400,"station_id":"ce4bhs92rcd13ifvqi0g","pricing_plan_id":"free"},{"bike_id":"68fae7dd-9127-45ab-af87-1d51dc8bb480","system_id":"levelo_inurba_marseille","lat":43.328371,"lon":5.366909,"is_reserved":false,"is_disabled":false,"rental_uris":{"android":"levelo://app?vid=68fae7dd-9127-45ab-af87-1d51dc8bb480","ios":"levelo://app?vid=68fae7dd-9127-45ab-af87-1d51dc8bb480"},"vehicle_type_id":"4","last_reported":1683317223,"current_range_meters":0,"station_id":"ce4bhs92rcd13ifvqi0g","pricing_plan_id":"free"},{"bike_id":"aafcc005-5e38-4c52-a10d-6d0f89f0012b","system_id":"levelo_inurba_marseille","lat":43.302008,"lon":5.394694,"is_reserved":false,"is_disabled":false,"rental_uris":{"android":"levelo://app?vid=aafcc005-5e38-4c52-a10d-6d0f89f0012b","ios":"levelo://app?vid=aafcc005-5e38-4c52-a10d-6d0f89f0012b"},"vehicle_type_id":"4","last_reported":1683317223,"current_range_meters":8000,"station_id":"ce4bh0p2rcd13ifvqd70","pricing_plan_id":"free"},{"bike_id":"fba1b095-7299-4e69-823f-42b0bbec59f5","system_id":"levelo_inurba_marseille","lat":43.296131,"lon":5.370773,"is_reserved":false,"is_disabled":false,"rental_uris":{"android":"levelo://app?vid=fba1b095-7299-4e69-823f-42b0bbec59f5","ios":"levelo://app?vid=fba1b095-7299-4e69-823f-42b0bbec59f5"},"vehicle_type_id":"4","last_reported":1683317223,"current_range_meters":22000,"station_id":"ce4bgnh2rcd13ifvqc0g","pricing_plan_id":"free"},{"bike_id":"701e7a16-b830-456d-867d-e0060eae0916","system_id":"levelo_inurba_marseille","lat":43.296131,"lon":5.370773,"is_reserved":false,"is_disabled":false,"rental_uris":{"android":"levelo://app?vid=701e7a16-b830-456d-867d-e0060eae0916","ios":"levelo://app?vid=701e7a16-b830-456d-867d-e0060eae0916"},"vehicle_type_id":"4","last_reported":1683317223,"current_range_meters":23200,"station_id":"ce4bgnh2rcd13ifvqc0g","pricing_plan_id":"free"},{"bike_id":"3ca6f383-83d5-438e-8826-78664b89ea22","system_id":"levelo_inurba_marseille","lat":43.29914,"lon":5.3807,"is_reserved":false,"is_disabled":false,"rental_uris":{"android":"levelo://app?vid=3ca6f383-83d5-438e-8826-78664b89ea22","ios":"levelo://app?vid=3ca6f383-83d5-438e-8826-78664b89ea22"},"vehicle_type_id":"4","last_reported":1683317223,"current_range_meters":800,"station_id":"","pricing_plan_id":"free"},{"bike_id":"35b5d55b-c7d0-4e18-bd34-2333b4760fc8","system_id":"levelo_inurba_marseille","lat":43.299028,"lon":5.381509,"is_reserved":false,"is_disabled":false,"rental_uris":{"android":"levelo://app?vid=35b5d55b-c7d0-4e18-bd34-2333b4760fc8","ios":"levelo://app?vid=35b5d55b-c7d0-4e18-bd34-2333b4760fc8"},"vehicle_type_id":"4","last_reported":1683317223,"current_range_meters":31200,"station_id":"ce4bgj12rcd13ifvqbc0","pricing_plan_id":"free"},{"bike_id":"5a3a0b5a-abb0-4d6e-9abf-9bf6d86ede48","system_id":"levelo_inurba_marseille","lat":43.296921,"lon":5.376579,"is_reserved":false,"is_disabled":false,"rental_uris":{"android":"levelo://app?vid=5a3a0b5a-abb0-4d6e-9abf-9bf6d86ede48","ios":"levelo://app?vid=5a3a0b5a-abb0-4d6e-9abf-9bf6d86ede48"},"vehicle_type_id":"4","last_reported":1683317223,"current_range_meters":21200,"station_id":"ce4bgkh2rcd13ifvqbl0","pricing_plan_id":"free"},{"bike_id":"324ed1b1-2fb8-484f-895b-1b7f7882a4c4","system_id":"levelo_inurba_marseille","lat":43.296935,"lon":5.376544,"is_reserved":false,"is_disabled":false,"rental_uris":{"android":"levelo://app?vid=324ed1b1-2fb8-484f-895b-1b7f7882a4c4","ios":"levelo://app?vid=324ed1b1-2fb8-484f-895b-1b7f7882a4c4"},"vehicle_type_id":"4","last_reported":1683317223,"current_range_meters":5600,"station_id":"ce4bgkh2rcd13ifvqbl0","pricing_plan_id":"free"},{"bike_id":"8160c5a4-26c0-4f63-9859-e35d242a3c6c","system_id":"levelo_inurba_marseille","lat":43.299028,"lon":5.381509,"is_reserved":false,"is_disabled":false,"rental_uris":{"android":"levelo://app?vid=8160c5a4-26c0-4f63-9859-e35d242a3c6c","ios":"levelo://app?vid=8160c5a4-26c0-4f63-9859-e35d242a3c6c"},"vehicle_type_id":"4","last_reported":1683317223,"current_range_meters":8800,"station_id":"ce4bgj12rcd13ifvqbc0","pricing_plan_id":"free"},{"bike_id":"5fb19b9f-7476-446b-b5b8-b0c4c464fb2e","system_id":"levelo_inurba_marseille","lat":43.30962,"lon":5.39032,"is_reserved":false,"is_disabled":false,"rental_uris":{"android":"levelo://app?vid=5fb19b9f-7476-446b-b5b8-b0c4c464fb2e","ios":"levelo://app?vid=5fb19b9f-7476-446b-b5b8-b0c4c464fb2e"},"vehicle_type_id":"4","last_reported":1683317223,"current_range_meters":12800,"station_id":"ce4bgup2rcd13ifvqco0","pricing_plan_id":"free"},{"bike_id":"c58705af-ca32-47cd-bf8a-76781434e781","system_id":"levelo_inurba_marseille","lat":43.299028,"lon":5.381509,"is_reserved":false,"is_disabled":false,"rental_uris":{"android":"levelo://app?vid=c58705af-ca32-47cd-bf8a-76781434e781","ios":"levelo://app?vid=c58705af-ca32-47cd-bf8a-76781434e781"},"vehicle_type_id":"4","last_reported":1683317223,"current_range_meters":16400,"station_id":"ce4bgj12rcd13ifvqbc0","pricing_plan_id":"free"},{"bike_id":"ec8372c9-8302-42e7-9cf6-12f66c703f5d","system_id":"levelo_inurba_marseille","lat":43.299028,"lon":5.381509,"is_reserved":false,"is_disabled":false,"rental_uris":{"android":"levelo://app?vid=ec8372c9-8302-42e7-9cf6-12f66c703f5d","ios":"levelo://app?vid=ec8372c9-8302-42e7-9cf6-12f66c703f5d"},"vehicle_type_id":"4","last_reported":1683317223,"current_range_meters":31200,"station_id":"ce4bgj12rcd13ifvqbc0","pricing_plan_id":"free"},{"bike_id":"fbf4912c-dfcc-4723-b4f2-b5012e8d4f5c","system_id":"levelo_inurba_marseille","lat":43.299028,"lon":5.381509,"is_reserved":false,"is_disabled":false,"rental_uris":{"android":"levelo://app?vid=fbf4912c-dfcc-4723-b4f2-b5012e8d4f5c","ios":"levelo://app?vid=fbf4912c-dfcc-4723-b4f2-b5012e8d4f5c"},"vehicle_type_id":"4","last_reported":1683317223,"current_range_meters":18800,"station_id":"ce4bgj12rcd13ifvqbc0","pricing_plan_id":"free"},{"bike_id":"d1a7da33-0ef6-421f-af8a-f1bf4ac285b7","system_id":"levelo_inurba_marseille","lat":43.299028,"lon":5.381509,"is_reserved":false,"is_disabled":false,"rental_uris":{"android":"levelo://app?vid=d1a7da33-0ef6-421f-af8a-f1bf4ac285b7","ios":"levelo://app?vid=d1a7da33-0ef6-421f-af8a-f1bf4ac285b7"},"vehicle_type_id":"4","last_reported":1683317223,"current_range_meters":18000,"station_id":"ce4bgj12rcd13ifvqbc0","pricing_plan_id":"free"},{"bike_id":"fc664ecd-283b-4ad5-b8d8-fe7518401503","system_id":"levelo_inurba_marseille","lat":43.317557,"lon":5.390173,"is_reserved":false,"is_disabled":false,"rental_uris":{"android":"levelo://app?vid=fc664ecd-283b-4ad5-b8d8-fe7518401503","ios":"levelo://app?vid=fc664ecd-283b-4ad5-b8d8-fe7518401503"},"vehicle_type_id":"4","last_reported":1683317223,"current_range_meters":31200,"station_id":"ce4bhqp2rcd13ifvqhng","pricing_plan_id":"free"},{"bike_id":"55e81a5c-dc18-4625-89aa-fe6acd3ab9fd","system_id":"levelo_inurba_marseille","lat":43.31761,"lon":5.39013,"is_reserved":false,"is_disabled":false,"rental_uris":{"android":"levelo://app?vid=55e81a5c-dc18-4625-89aa-fe6acd3ab9fd","ios":"levelo://app?vid=55e81a5c-dc18-4625-89aa-fe6acd3ab9fd"},"vehicle_type_id":"4","last_reported":1683317223,"current_range_meters":14400,"station_id":"ce4bhqp2rcd13ifvqhng","pricing_plan_id":"free"},{"bike_id":"e00888f6-99e1-4c69-986f-1e3669edea53","system_id":"levelo_inurba_marseille","lat":43.317557,"lon":5.390173,"is_reserved":false,"is_disabled":false,"rental_uris":{"android":"levelo://app?vid=e00888f6-99e1-4c69-986f-1e3669edea53","ios":"levelo://app?vid=e00888f6-99e1-4c69-986f-1e3669edea53"},"vehicle_type_id":"4","last_reported":1683317223,"current_range_meters":19200,"station_id":"ce4bhqp2rcd13ifvqhng","pricing_plan_id":"free"},{"bike_id":"d3bded05-295a-4e27-816d-28fd9af6ceed","system_id":"levelo_inurba_marseille","lat":43.317557,"lon":5.390173,"is_reserved":false,"is_disabled":false,"rental_uris":{"android":"levelo://app?vid=d3bded05-295a-4e27-816d-28fd9af6ceed","ios":"levelo://app?vid=d3bded05-295a-4e27-816d-28fd9af6ceed"},"vehicle_type_id":"4","last_reported":1683317223,"current_range_meters":29600,"station_id":"ce4bhqp2rcd13ifvqhng","pricing_plan_id":"free"},{"bike_id":"77f34d79-51d0-4db3-ab3a-5aec4d75e78b","system_id":"levelo_inurba_marseille","lat":43.317557,"lon":5.390173,"is_reserved":false,"is_disabled":false,"rental_uris":{"android":"levelo://app?vid=77f34d79-51d0-4db3-ab3a-5aec4d75e78b","ios":"levelo://app?vid=77f34d79-51d0-4db3-ab3a-5aec4d75e78b"},"vehicle_type_id":"4","last_reported":1683317223,"current_range_meters":21200,"station_id":"ce4bhqp2rcd13ifvqhng","pricing_plan_id":"free"},{"bike_id":"75083129-cb37-4ae1-868b-cd09b5374176","system_id":"levelo_inurba_marseille","lat":43.31758,"lon":5.39027,"is_reserved":false,"is_disabled":false,"rental_uris":{"android":"levelo://app?vid=75083129-cb37-4ae1-868b-cd09b5374176","ios":"levelo://app?vid=75083129-cb37-4ae1-868b-cd09b5374176"},"vehicle_type_id":"4","last_reported":1683317223,"current_range_meters":18000,"station_id":"ce4bhqp2rcd13ifvqhng","pricing_plan_id":"free"},{"bike_id":"60ef946b-9459-4a60-b71e-9a93871770e0","system_id":"levelo_inurba_marseille","lat":43.3175,"lon":5.39035,"is_reserved":false,"is_disabled":false,"rental_uris":{"android":"levelo://app?vid=60ef946b-9459-4a60-b71e-9a93871770e0","ios":"levelo://app?vid=60ef946b-9459-4a60-b71e-9a93871770e0"},"vehicle_type_id":"4","last_reported":1683317223,"current_range_meters":30800,"station_id":"ce4bhqp2rcd13ifvqhng","pricing_plan_id":"free"},{"bike_id":"f6924403-371f-4bff-939b-0ba8f87f2397","system_id":"levelo_inurba_marseille","lat":43.2981,"lon":5.38101,"is_reserved":false,"is_disabled":false,"rental_uris":{"android":"levelo://app?vid=f6924403-371f-4bff-939b-0ba8f87f2397","ios":"levelo://app?vid=f6924403-371f-4bff-939b-0ba8f87f2397"},"vehicle_type_id":"4","last_reported":1683317223,"current_range_meters":0,"station_id":"ce4bgip2rcd13ifvqbb0","pricing_plan_id":"free"},{"bike_id":"8108af65-e17d-4769-8a5f-6cbd59f737ad","system_id":"levelo_inurba_marseille","lat":43.298037,"lon":5.381066,"is_reserved":false,"is_disabled":false,"rental_uris":{"android":"levelo://app?vid=8108af65-e17d-4769-8a5f-6cbd59f737ad","ios":"levelo://app?vid=8108af65-e17d-4769-8a5f-6cbd59f737ad"},"vehicle_type_id":"4","last_reported":1683317223,"current_range_meters":6800,"station_id":"ce4bgip2rcd13ifvqbb0","pricing_plan_id":"free"},{"bike_id":"cf6b5351-9dfd-45a2-be95-fc7bdaf97c93","system_id":"levelo_inurba_marseille","lat":43.29809,"lon":5.38104,"is_reserved":false,"is_disabled":false,"rental_uris":{"android":"levelo://app?vid=cf6b5351-9dfd-45a2-be95-fc7bdaf97c93","ios":"levelo://app?vid=cf6b5351-9dfd-45a2-be95-fc7bdaf97c93"},"vehicle_type_id":"4","last_reported":1683317223,"current_range_meters":0,"station_id":"ce4bgip2rcd13ifvqbb0","pricing_plan_id":"free"},{"bike_id":"0df830ea-bbaf-435e-ad18-be19bf72a3dd","system_id":"levelo_inurba_marseille","lat":43.29796,"lon":5.38101,"is_reserved":false,"is_disabled":false,"rental_uris":{"android":"levelo://app?vid=0df830ea-bbaf-435e-ad18-be19bf72a3dd","ios":"levelo://app?vid=0df830ea-bbaf-435e-ad18-be19bf72a3dd"},"vehicle_type_id":"4","last_reported":1683317223,"current_range_meters":3200,"station_id":"ce4bgip2rcd13ifvqbb0","pricing_plan_id":"free"},{"bike_id":"07463b46-c47f-489c-9c27-a6fb2c473c78","system_id":"levelo_inurba_marseille","lat":43.31466,"lon":5.39153,"is_reserved":false,"is_disabled":false,"rental_uris":{"android":"levelo://app?vid=07463b46-c47f-489c-9c27-a6fb2c473c78","ios":"levelo://app?vid=07463b46-c47f-489c-9c27-a6fb2c473c78"},"vehicle_type_id":"4","last_reported":1683317223,"current_range_meters":4800,"station_id":"","pricing_plan_id":"free"},{"bike_id":"d1f1c3ee-bbe0-4f7a-bd19-8b6a21672318","system_id":"levelo_inurba_marseille","lat":43.298037,"lon":5.381066,"is_reserved":false,"is_disabled":false,"rental_uris":{"android":"levelo://app?vid=d1f1c3ee-bbe0-4f7a-bd19-8b6a21672318","ios":"levelo://app?vid=d1f1c3ee-bbe0-4f7a-bd19-8b6a21672318"},"vehicle_type_id":"4","last_reported":1683317223,"current_range_meters":8800,"station_id":"ce4bgip2rcd13ifvqbb0","pricing_plan_id":"free"},{"bike_id":"e2901898-ed1f-43a8-9e08-c6b5d2c4d46a","system_id":"levelo_inurba_marseille","lat":43.29798,"lon":5.38115,"is_reserved":false,"is_disabled":false,"rental_uris":{"android":"levelo://app?vid=e2901898-ed1f-43a8-9e08-c6b5d2c4d46a","ios":"levelo://app?vid=e2901898-ed1f-43a8-9e08-c6b5d2c4d46a"},"vehicle_type_id":"4","last_reported":1683317223,"current_range_meters":21200,"station_id":"ce4bgip2rcd13ifvqbb0","pricing_plan_id":"free"},{"bike_id":"4bde3d6b-a766-4b41-a19b-7dda99cbfdb0","system_id":"levelo_inurba_marseille","lat":43.304278,"lon":5.388868,"is_reserved":false,"is_disabled":false,"rental_uris":{"android":"levelo://app?vid=4bde3d6b-a766-4b41-a19b-7dda99cbfdb0","ios":"levelo://app?vid=4bde3d6b-a766-4b41-a19b-7dda99cbfdb0"},"vehicle_type_id":"4","last_reported":1683317223,"current_range_meters":22800,"station_id":"ce4bgk12rcd13ifvqbi0","pricing_plan_id":"free"},{"bike_id":"48334e84-52e6-4979-a37e-2fbe3787c129","system_id":"levelo_inurba_marseille","lat":43.29791,"lon":5.38111,"is_reserved":false,"is_disabled":false,"rental_uris":{"android":"levelo://app?vid=48334e84-52e6-4979-a37e-2fbe3787c129","ios":"levelo://app?vid=48334e84-52e6-4979-a37e-2fbe3787c129"},"vehicle_type_id":"4","last_reported":1683317223,"current_range_meters":14800,"station_id":"ce4bgip2rcd13ifvqbb0","pricing_plan_id":"free"},{"bike_id":"b061403f-3091-493a-b82c-20836fcf67d2","system_id":"levelo_inurba_marseille","lat":43.29788,"lon":5.38109,"is_reserved":false,"is_disabled":false,"rental_uris":{"android":"levelo://app?vid=b061403f-3091-493a-b82c-20836fcf67d2","ios":"levelo://app?vid=b061403f-3091-493a-b82c-20836fcf67d2"},"vehicle_type_id":"4","last_reported":1683317223,"current_range_meters":12000,"station_id":"ce4bgip2rcd13ifvqbb0","pricing_plan_id":"free"},{"bike_id":"04dd3200-0dce-44f9-b0ef-4f53fa50e408","system_id":"levelo_inurba_marseille","lat":43.304278,"lon":5.388868,"is_reserved":false,"is_disabled":false,"rental_uris":{"android":"levelo://app?vid=04dd3200-0dce-44f9-b0ef-4f53fa50e408","ios":"levelo://app?vid=04dd3200-0dce-44f9-b0ef-4f53fa50e408"},"vehicle_type_id":"4","last_reported":1683317223,"current_range_meters":2800,"station_id":"ce4bgk12rcd13ifvqbi0","pricing_plan_id":"free"},{"bike_id":"353ec4a3-e0f6-41a6-9499-ffbe2b77caa9","system_id":"levelo_inurba_marseille","lat":43.299707,"lon":5.384859,"is_reserved":false,"is_disabled":false,"rental_uris":{"android":"levelo://app?vid=353ec4a3-e0f6-41a6-9499-ffbe2b77caa9","ios":"levelo://app?vid=353ec4a3-e0f6-41a6-9499-ffbe2b77caa9"},"vehicle_type_id":"4","last_reported":1683317223,"current_range_meters":30800,"station_id":"ce4bgj92rcd13ifvqbd0","pricing_plan_id":"free"},{"bike_id":"cf31c52c-20b3-4cee-87a2-1d143c742ff9","system_id":"levelo_inurba_marseille","lat":43.2997,"lon":5.3849,"is_reserved":false,"is_disabled":false,"rental_uris":{"android":"levelo://app?vid=cf31c52c-20b3-4cee-87a2-1d143c742ff9","ios":"levelo://app?vid=cf31c52c-20b3-4cee-87a2-1d143c742ff9"},"vehicle_type_id":"4","last_reported":1683317223,"current_range_meters":27200,"station_id":"ce4bgj92rcd13ifvqbd0","pricing_plan_id":"free"},{"bike_id":"bfb973a9-b32b-4a2c-a45d-b74408846ea5","system_id":"levelo_inurba_marseille","lat":43.29969,"lon":5.38491,"is_reserved":false,"is_disabled":false,"rental_uris":{"android":"levelo://app?vid=bfb973a9-b32b-4a2c-a45d-b74408846ea5","ios":"levelo://app?vid=bfb973a9-b32b-4a2c-a45d-b74408846ea5"},"vehicle_type_id":"4","last_reported":1683317223,"current_range_meters":7200,"station_id":"ce4bgj92rcd13ifvqbd0","pricing_plan_id":"free"},{"bike_id":"fca3c8dc-cacf-4112-9c8f-e78026c96c46","system_id":"levelo_inurba_marseille","lat":43.29965,"lon":5.38488,"is_reserved":false,"is_disabled":false,"rental_uris":{"android":"levelo://app?vid=fca3c8dc-cacf-4112-9c8f-e78026c96c46","ios":"levelo://app?vid=fca3c8dc-cacf-4112-9c8f-e78026c96c46"},"vehicle_type_id":"4","last_reported":1683317223,"current_range_meters":0,"station_id":"ce4bgj92rcd13ifvqbd0","pricing_plan_id":"free"},{"bike_id":"b1b0c982-4245-49d8-adf9-95b23fca38d0","system_id":"levelo_inurba_marseille","lat":43.29962,"lon":5.38484,"is_reserved":false,"is_disabled":false,"rental_uris":{"android":"levelo://app?vid=b1b0c982-4245-49d8-adf9-95b23fca38d0","ios":"levelo://app?vid=b1b0c982-4245-49d8-adf9-95b23fca38d0"},"vehicle_type_id":"4","last_reported":1683317223,"current_range_meters":0,"station_id":"ce4bgj92rcd13ifvqbd0","pricing_plan_id":"free"},{"bike_id":"ea861551-6a35-44ed-b168-c6382dc56608","system_id":"levelo_inurba_marseille","lat":43.29961,"lon":5.38498,"is_reserved":false,"is_disabled":false,"rental_uris":{"android":"levelo://app?vid=ea861551-6a35-44ed-b168-c6382dc56608","ios":"levelo://app?vid=ea861551-6a35-44ed-b168-c6382dc56608"},"vehicle_type_id":"4","last_reported":1683317223,"current_range_meters":14000,"station_id":"ce4bgj92rcd13ifvqbd0","pricing_plan_id":"free"},{"bike_id":"3e8a6a4a-6f50-4dbf-94ed-a6b9ec3aa715","system_id":"levelo_inurba_marseille","lat":43.29959,"lon":5.38497,"is_reserved":false,"is_disabled":false,"rental_uris":{"android":"levelo://app?vid=3e8a6a4a-6f50-4dbf-94ed-a6b9ec3aa715","ios":"levelo://app?vid=3e8a6a4a-6f50-4dbf-94ed-a6b9ec3aa715"},"vehicle_type_id":"4","last_reported":1683317223,"current_range_meters":1200,"station_id":"ce4bgj92rcd13ifvqbd0","pricing_plan_id":"free"},{"bike_id":"848f9ec4-8468-4e88-9e70-8258c0536f70","system_id":"levelo_inurba_marseille","lat":43.32142,"lon":5.38959,"is_reserved":false,"is_disabled":false,"rental_uris":{"android":"levelo://app?vid=848f9ec4-8468-4e88-9e70-8258c0536f70","ios":"levelo://app?vid=848f9ec4-8468-4e88-9e70-8258c0536f70"},"vehicle_type_id":"4","last_reported":1683317223,"current_range_meters":12800,"station_id":"ce4bgrp2rcd13ifvqc9g","pricing_plan_id":"free"},{"bike_id":"a86adabf-2e56-49f2-b1eb-17908d955d22","system_id":"levelo_inurba_marseille","lat":43.29529,"lon":5.385581,"is_reserved":false,"is_disabled":false,"rental_uris":{"android":"levelo://app?vid=a86adabf-2e56-49f2-b1eb-17908d955d22","ios":"levelo://app?vid=a86adabf-2e56-49f2-b1eb-17908d955d22"},"vehicle_type_id":"4","last_reported":1683317223,"current_range_meters":2800,"station_id":"ce4bgih2rcd13ifvqba0","pricing_plan_id":"free"},{"bike_id":"1dd06c98-c200-4a3d-afc9-e5fd057d158b","system_id":"levelo_inurba_marseille","lat":43.3046,"lon":5.39057,"is_reserved":false,"is_disabled":false,"rental_uris":{"android":"levelo://app?vid=1dd06c98-c200-4a3d-afc9-e5fd057d158b","ios":"levelo://app?vid=1dd06c98-c200-4a3d-afc9-e5fd057d158b"},"vehicle_type_id":"4","last_reported":1683317223,"current_range_meters":16800,"station_id":"","pricing_plan_id":"free"},{"bike_id":"6d73d6a7-b0bb-4294-8ce3-4b197f3aa886","system_id":"levelo_inurba_marseille","lat":43.302992,"lon":5.392136,"is_reserved":false,"is_disabled":false,"rental_uris":{"android":"levelo://app?vid=6d73d6a7-b0bb-4294-8ce3-4b197f3aa886","ios":"levelo://app?vid=6d73d6a7-b0bb-4294-8ce3-4b197f3aa886"},"vehicle_type_id":"4","last_reported":1683317223,"current_range_meters":1200,"station_id":"ce4bgkh2rcd13ifvqbk0","pricing_plan_id":"free"},{"bike_id":"d12317f6-5e43-43d3-a282-57e40f56ad4e","system_id":"levelo_inurba_marseille","lat":43.29607,"lon":5.3801,"is_reserved":false,"is_disabled":false,"rental_uris":{"android":"levelo://app?vid=d12317f6-5e43-43d3-a282-57e40f56ad4e","ios":"levelo://app?vid=d12317f6-5e43-43d3-a282-57e40f56ad4e"},"vehicle_type_id":"4","last_reported":1683317223,"current_range_meters":9600,"station_id":"","pricing_plan_id":"free"},{"bike_id":"729606f8-a379-4f78-ad43-5f877fe4fcd2","system_id":"levelo_inurba_marseille","lat":43.292644,"lon":5.384257,"is_reserved":false,"is_disabled":false,"rental_uris":{"android":"levelo://app?vid=729606f8-a379-4f78-ad43-5f877fe4fcd2","ios":"levelo://app?vid=729606f8-a379-4f78-ad43-5f877fe4fcd2"},"vehicle_type_id":"4","last_reported":1683317223,"current_range_meters":2000,"station_id":"ce4bh692rcd13ifvqea0","pricing_plan_id":"free"},{"bike_id":"5560fb30-b37d-47e3-a3d2-a577e19f5f0a","system_id":"levelo_inurba_marseille","lat":43.32368,"lon":5.38898,"is_reserved":false,"is_disabled":false,"rental_uris":{"android":"levelo://app?vid=5560fb30-b37d-47e3-a3d2-a577e19f5f0a","ios":"levelo://app?vid=5560fb30-b37d-47e3-a3d2-a577e19f5f0a"},"vehicle_type_id":"4","last_reported":1683317223,"current_range_meters":17200,"station_id":"","pricing_plan_id":"free"},{"bike_id":"811adafb-f81f-416d-ada5-ab8d233347fd","system_id":"levelo_inurba_marseille","lat":43.29593,"lon":5.38103,"is_reserved":false,"is_disabled":false,"rental_uris":{"android":"levelo://app?vid=811adafb-f81f-416d-ada5-ab8d233347fd","ios":"levelo://app?vid=811adafb-f81f-416d-ada5-ab8d233347fd"},"vehicle_type_id":"4","last_reported":1683317223,"current_range_meters":400,"station_id":"ce4bgl12rcd13ifvqbo0","pricing_plan_id":"free"},{"bike_id":"0e65602c-bd25-443b-9920-16177ab246dc","system_id":"levelo_inurba_marseille","lat":43.29308,"lon":5.3717,"is_reserved":false,"is_disabled":false,"rental_uris":{"android":"levelo://app?vid=0e65602c-bd25-443b-9920-16177ab246dc","ios":"levelo://app?vid=0e65602c-bd25-443b-9920-16177ab246dc"},"vehicle_type_id":"4","last_reported":1683317223,"current_range_meters":12000,"station_id":"ce4bgh92rcd13ifvqb40","pricing_plan_id":"free"},{"bike_id":"a5a32882-545c-4952-806a-df13d1c64c47","system_id":"levelo_inurba_marseille","lat":43.29308,"lon":5.37173,"is_reserved":false,"is_disabled":false,"rental_uris":{"android":"levelo://app?vid=a5a32882-545c-4952-806a-df13d1c64c47","ios":"levelo://app?vid=a5a32882-545c-4952-806a-df13d1c64c47"},"vehicle_type_id":"4","last_reported":1683317223,"current_range_meters":11200,"station_id":"ce4bgh92rcd13ifvqb40","pricing_plan_id":"free"},{"bike_id":"49b6c107-5344-4756-bebd-937eaa3b476a","system_id":"levelo_inurba_marseille","lat":43.29309,"lon":5.37181,"is_reserved":false,"is_disabled":false,"rental_uris":{"android":"levelo://app?vid=49b6c107-5344-4756-bebd-937eaa3b476a","ios":"levelo://app?vid=49b6c107-5344-4756-bebd-937eaa3b476a"},"vehicle_type_id":"4","last_reported":1683317223,"current_range_meters":22000,"station_id":"ce4bgh92rcd13ifvqb40","pricing_plan_id":"free"},{"bike_id":"5401efff-f7f1-4729-83ca-9be5336d0df7","system_id":"levelo_inurba_marseille","lat":43.29305,"lon":5.37171,"is_reserved":false,"is_disabled":false,"rental_uris":{"android":"levelo://app?vid=5401efff-f7f1-4729-83ca-9be5336d0df7","ios":"levelo://app?vid=5401efff-f7f1-4729-83ca-9be5336d0df7"},"vehicle_type_id":"4","last_reported":1683317223,"current_range_meters":1600,"station_id":"","pricing_plan_id":"free"},{"bike_id":"d6faf34b-b11b-4b70-bde1-72d07cd40214","system_id":"levelo_inurba_marseille","lat":43.29267,"lon":5.36846,"is_reserved":false,"is_disabled":false,"rental_uris":{"android":"levelo://app?vid=d6faf34b-b11b-4b70-bde1-72d07cd40214","ios":"levelo://app?vid=d6faf34b-b11b-4b70-bde1-72d07cd40214"},"vehicle_type_id":"4","last_reported":1683317223,"current_range_meters":18400,"station_id":"ce4bhbp2rcd13ifvqesg","pricing_plan_id":"free"},{"bike_id":"193e5064-1582-4875-a8c1-b90882f304ca","system_id":"levelo_inurba_marseille","lat":43.29266,"lon":5.36847,"is_reserved":false,"is_disabled":false,"rental_uris":{"android":"levelo://app?vid=193e5064-1582-4875-a8c1-b90882f304ca","ios":"levelo://app?vid=193e5064-1582-4875-a8c1-b90882f304ca"},"vehicle_type_id":"4","last_reported":1683317223,"current_range_meters":7600,"station_id":"ce4bhbp2rcd13ifvqesg","pricing_plan_id":"free"},{"bike_id":"a280c6ce-babe-4b3f-bef3-0c0a6bc83fc6","system_id":"levelo_inurba_marseille","lat":43.29266,"lon":5.3685,"is_reserved":false,"is_disabled":false,"rental_uris":{"android":"levelo://app?vid=a280c6ce-babe-4b3f-bef3-0c0a6bc83fc6","ios":"levelo://app?vid=a280c6ce-babe-4b3f-bef3-0c0a6bc83fc6"},"vehicle_type_id":"4","last_reported":1683317223,"current_range_meters":0,"station_id":"ce4bhbp2rcd13ifvqesg","pricing_plan_id":"free"},{"bike_id":"576f0156-a561-4448-b2ff-45e4cbe0191a","system_id":"levelo_inurba_marseille","lat":43.29263,"lon":5.36838,"is_reserved":false,"is_disabled":false,"rental_uris":{"android":"levelo://app?vid=576f0156-a561-4448-b2ff-45e4cbe0191a","ios":"levelo://app?vid=576f0156-a561-4448-b2ff-45e4cbe0191a"},"vehicle_type_id":"4","last_reported":1683317223,"current_range_meters":14800,"station_id":"ce4bhbp2rcd13ifvqesg","pricing_plan_id":"free"},{"bike_id":"67dd6e6a-5c3f-4415-a107-b8300cadb60b","system_id":"levelo_inurba_marseille","lat":43.32832,"lon":5.38502,"is_reserved":false,"is_disabled":false,"rental_uris":{"android":"levelo://app?vid=67dd6e6a-5c3f-4415-a107-b8300cadb60b","ios":"levelo://app?vid=67dd6e6a-5c3f-4415-a107-b8300cadb60b"},"vehicle_type_id":"4","last_reported":1683317223,"current_range_meters":22800,"station_id":"","pricing_plan_id":"free"},{"bike_id":"c7175043-c2e9-4e96-89b9-fe3a07ace1a7","system_id":"levelo_inurba_marseille","lat":43.30597,"lon":5.39361,"is_reserved":false,"is_disabled":false,"rental_uris":{"android":"levelo://app?vid=c7175043-c2e9-4e96-89b9-fe3a07ace1a7","ios":"levelo://app?vid=c7175043-c2e9-4e96-89b9-fe3a07ace1a7"},"vehicle_type_id":"4","last_reported":1683317223,"current_range_meters":25200,"station_id":"ce4bh0p2rcd13ifvqd80","pricing_plan_id":"free"},{"bike_id":"3a0d1f09-2abb-4cd6-8c84-7507d02072fa","system_id":"levelo_inurba_marseille","lat":43.305994,"lon":5.393687,"is_reserved":false,"is_disabled":false,"rental_uris":{"android":"levelo://app?vid=3a0d1f09-2abb-4cd6-8c84-7507d02072fa","ios":"levelo://app?vid=3a0d1f09-2abb-4cd6-8c84-7507d02072fa"},"vehicle_type_id":"4","last_reported":1683317223,"current_range_meters":0,"station_id":"ce4bh0p2rcd13ifvqd80","pricing_plan_id":"free"},{"bike_id":"c64b9481-334c-4ddb-a2af-b608f8a4e3d9","system_id":"levelo_inurba_marseille","lat":43.29292,"lon":5.37463,"is_reserved":false,"is_disabled":false,"rental_uris":{"android":"levelo://app?vid=c64b9481-334c-4ddb-a2af-b608f8a4e3d9","ios":"levelo://app?vid=c64b9481-334c-4ddb-a2af-b608f8a4e3d9"},"vehicle_type_id":"4","last_reported":1683317223,"current_range_meters":0,"station_id":"ce4bgi12rcd13ifvqb70","pricing_plan_id":"free"},{"bike_id":"9fe6add8-e0b9-4952-8e09-f6b1ebbb8f04","system_id":"levelo_inurba_marseille","lat":43.303002,"lon":5.392142,"is_reserved":false,"is_disabled":false,"rental_uris":{"android":"levelo://app?vid=9fe6add8-e0b9-4952-8e09-f6b1ebbb8f04","ios":"levelo://app?vid=9fe6add8-e0b9-4952-8e09-f6b1ebbb8f04"},"vehicle_type_id":"4","last_reported":1683317223,"current_range_meters":0,"station_id":"ce4bgkh2rcd13ifvqbk0","pricing_plan_id":"free"},{"bike_id":"0deba04b-ab44-470e-8914-545d05d90902","system_id":"levelo_inurba_marseille","lat":43.302992,"lon":5.392136,"is_reserved":false,"is_disabled":false,"rental_uris":{"android":"levelo://app?vid=0deba04b-ab44-470e-8914-545d05d90902","ios":"levelo://app?vid=0deba04b-ab44-470e-8914-545d05d90902"},"vehicle_type_id":"4","last_reported":1683317223,"current_range_meters":26400,"station_id":"ce4bgkh2rcd13ifvqbk0","pricing_plan_id":"free"},{"bike_id":"9967ab9c-246f-4219-a6c8-c0b1ab8b2373","system_id":"levelo_inurba_marseille","lat":43.302992,"lon":5.392136,"is_reserved":false,"is_disabled":false,"rental_uris":{"android":"levelo://app?vid=9967ab9c-246f-4219-a6c8-c0b1ab8b2373","ios":"levelo://app?vid=9967ab9c-246f-4219-a6c8-c0b1ab8b2373"},"vehicle_type_id":"4","last_reported":1683317223,"current_range_meters":2000,"station_id":"ce4bgkh2rcd13ifvqbk0","pricing_plan_id":"free"},{"bike_id":"d9314ccb-161b-4922-a054-52e93969a7cf","system_id":"levelo_inurba_marseille","lat":43.29376,"lon":5.37855,"is_reserved":false,"is_disabled":false,"rental_uris":{"android":"levelo://app?vid=d9314ccb-161b-4922-a054-52e93969a7cf","ios":"levelo://app?vid=d9314ccb-161b-4922-a054-52e93969a7cf"},"vehicle_type_id":"4","last_reported":1683317223,"current_range_meters":13600,"station_id":"ce4bgjh2rcd13ifvqbf0","pricing_plan_id":"free"},{"bike_id":"f0edd727-490f-4870-bf4d-5139582901ff","system_id":"levelo_inurba_marseille","lat":43.300852,"lon":5.390859,"is_reserved":false,"is_disabled":false,"rental_uris":{"android":"levelo://app?vid=f0edd727-490f-4870-bf4d-5139582901ff","ios":"levelo://app?vid=f0edd727-490f-4870-bf4d-5139582901ff"},"vehicle_type_id":"4","last_reported":1683317223,"current_range_meters":27600,"station_id":"ce4bh192rcd13ifvqdb0","pricing_plan_id":"free"},{"bike_id":"3a47ab5b-3349-4c6f-bee0-533644aa2b81","system_id":"levelo_inurba_marseille","lat":43.30085,"lon":5.390856,"is_reserved":false,"is_disabled":false,"rental_uris":{"android":"levelo://app?vid=3a47ab5b-3349-4c6f-bee0-533644aa2b81","ios":"levelo://app?vid=3a47ab5b-3349-4c6f-bee0-533644aa2b81"},"vehicle_type_id":"4","last_reported":1683317223,"current_range_meters":3200,"station_id":"ce4bh192rcd13ifvqdb0","pricing_plan_id":"free"},{"bike_id":"faab5a62-cbab-41d5-9a5f-60c32434b02a","system_id":"levelo_inurba_marseille","lat":43.29145,"lon":5.37085,"is_reserved":false,"is_disabled":false,"rental_uris":{"android":"levelo://app?vid=faab5a62-cbab-41d5-9a5f-60c32434b02a","ios":"levelo://app?vid=faab5a62-cbab-41d5-9a5f-60c32434b02a"},"vehicle_type_id":"4","last_reported":1683317223,"current_range_meters":14400,"station_id":"","pricing_plan_id":"free"},{"bike_id":"d5fb45b5-905e-4bf9-ac84-edfa28921845","system_id":"levelo_inurba_marseille","lat":43.299028,"lon":5.381509,"is_reserved":false,"is_disabled":false,"rental_uris":{"android":"levelo://app?vid=d5fb45b5-905e-4bf9-ac84-edfa28921845","ios":"levelo://app?vid=d5fb45b5-905e-4bf9-ac84-edfa28921845"},"vehicle_type_id":"4","last_reported":1683317223,"current_range_meters":19600,"station_id":"ce4bgj12rcd13ifvqbc0","pricing_plan_id":"free"},{"bike_id":"a903f8f3-0779-4d04-af2d-c82f494860ef","system_id":"levelo_inurba_marseille","lat":43.313291,"lon":5.396838,"is_reserved":false,"is_disabled":false,"rental_uris":{"android":"levelo://app?vid=a903f8f3-0779-4d04-af2d-c82f494860ef","ios":"levelo://app?vid=a903f8f3-0779-4d04-af2d-c82f494860ef"},"vehicle_type_id":"4","last_reported":1683317223,"current_range_meters":1600,"station_id":"ce4bgvp2rcd13ifvqcu0","pricing_plan_id":"free"},{"bike_id":"a9c6e4fd-3ae1-46d7-b246-0ac0d6a11056","system_id":"levelo_inurba_marseille","lat":43.313291,"lon":5.396838,"is_reserved":false,"is_disabled":false,"rental_uris":{"android":"levelo://app?vid=a9c6e4fd-3ae1-46d7-b246-0ac0d6a11056","ios":"levelo://app?vid=a9c6e4fd-3ae1-46d7-b246-0ac0d6a11056"},"vehicle_type_id":"4","last_reported":1683317223,"current_range_meters":11600,"station_id":"ce4bgvp2rcd13ifvqcu0","pricing_plan_id":"free"},{"bike_id":"12d550f2-61eb-40a9-80f4-fdab2578764c","system_id":"levelo_inurba_marseille","lat":43.30881,"lon":5.39644,"is_reserved":false,"is_disabled":false,"rental_uris":{"android":"levelo://app?vid=12d550f2-61eb-40a9-80f4-fdab2578764c","ios":"levelo://app?vid=12d550f2-61eb-40a9-80f4-fdab2578764c"},"vehicle_type_id":"4","last_reported":1683317223,"current_range_meters":0,"station_id":"","pricing_plan_id":"free"},{"bike_id":"0e3932e6-6afc-4620-a5f3-f34cce9c3f6b","system_id":"levelo_inurba_marseille","lat":43.309038,"lon":5.396546,"is_reserved":false,"is_disabled":false,"rental_uris":{"android":"levelo://app?vid=0e3932e6-6afc-4620-a5f3-f34cce9c3f6b","ios":"levelo://app?vid=0e3932e6-6afc-4620-a5f3-f34cce9c3f6b"},"vehicle_type_id":"4","last_reported":1683317223,"current_range_meters":13600,"station_id":"ce4bh012rcd13ifvqcv0","pricing_plan_id":"free"},{"bike_id":"5b5bff3a-b5ca-4fe4-b3b2-9778142ed1d0","system_id":"levelo_inurba_marseille","lat":43.313291,"lon":5.396838,"is_reserved":false,"is_disabled":false,"rental_uris":{"android":"levelo://app?vid=5b5bff3a-b5ca-4fe4-b3b2-9778142ed1d0","ios":"levelo://app?vid=5b5bff3a-b5ca-4fe4-b3b2-9778142ed1d0"},"vehicle_type_id":"4","last_reported":1683317223,"current_range_meters":15200,"station_id":"ce4bgvp2rcd13ifvqcu0","pricing_plan_id":"free"},{"bike_id":"c96b837c-2477-48dc-a9e1-786e82954547","system_id":"levelo_inurba_marseille","lat":43.309038,"lon":5.396546,"is_reserved":false,"is_disabled":false,"rental_uris":{"android":"levelo://app?vid=c96b837c-2477-48dc-a9e1-786e82954547","ios":"levelo://app?vid=c96b837c-2477-48dc-a9e1-786e82954547"},"vehicle_type_id":"4","last_reported":1683317223,"current_range_meters":21600,"station_id":"ce4bh012rcd13ifvqcv0","pricing_plan_id":"free"},{"bike_id":"9b94ec32-2848-408d-9c73-d655c28006a7","system_id":"levelo_inurba_marseille","lat":43.302759,"lon":5.400793,"is_reserved":false,"is_disabled":false,"rental_uris":{"android":"levelo://app?vid=9b94ec32-2848-408d-9c73-d655c28006a7","ios":"levelo://app?vid=9b94ec32-2848-408d-9c73-d655c28006a7"},"vehicle_type_id":"4","last_reported":1683317223,"current_range_meters":2800,"station_id":"ce4bgvh2rcd13ifvqcs0","pricing_plan_id":"free"},{"bike_id":"9c77c3d5-e975-4d49-aedd-2a7f37b15b5e","system_id":"levelo_inurba_marseille","lat":43.309038,"lon":5.396546,"is_reserved":false,"is_disabled":false,"rental_uris":{"android":"levelo://app?vid=9c77c3d5-e975-4d49-aedd-2a7f37b15b5e","ios":"levelo://app?vid=9c77c3d5-e975-4d49-aedd-2a7f37b15b5e"},"vehicle_type_id":"4","last_reported":1683317223,"current_range_meters":8400,"station_id":"ce4bh012rcd13ifvqcv0","pricing_plan_id":"free"},{"bike_id":"c6a0137f-7c07-4bfe-9515-7b753ee02e01","system_id":"levelo_inurba_marseille","lat":43.29529,"lon":5.385581,"is_reserved":false,"is_disabled":false,"rental_uris":{"android":"levelo://app?vid=c6a0137f-7c07-4bfe-9515-7b753ee02e01","ios":"levelo://app?vid=c6a0137f-7c07-4bfe-9515-7b753ee02e01"},"vehicle_type_id":"4","last_reported":1683317223,"current_range_meters":18800,"station_id":"ce4bgih2rcd13ifvqba0","pricing_plan_id":"free"},{"bike_id":"002d829f-56e1-40ee-a66e-4a134abc576a","system_id":"levelo_inurba_marseille","lat":43.29529,"lon":5.385581,"is_reserved":false,"is_disabled":false,"rental_uris":{"android":"levelo://app?vid=002d829f-56e1-40ee-a66e-4a134abc576a","ios":"levelo://app?vid=002d829f-56e1-40ee-a66e-4a134abc576a"},"vehicle_type_id":"4","last_reported":1683317223,"current_range_meters":10400,"station_id":"ce4bgih2rcd13ifvqba0","pricing_plan_id":"free"},{"bike_id":"8a868eac-88af-4d8d-baba-c80cc14f7c6f","system_id":"levelo_inurba_marseille","lat":43.29529,"lon":5.385581,"is_reserved":false,"is_disabled":false,"rental_uris":{"android":"levelo://app?vid=8a868eac-88af-4d8d-baba-c80cc14f7c6f","ios":"levelo://app?vid=8a868eac-88af-4d8d-baba-c80cc14f7c6f"},"vehicle_type_id":"4","last_reported":1683317223,"current_range_meters":8400,"station_id":"ce4bgih2rcd13ifvqba0","pricing_plan_id":"free"},{"bike_id":"1ae7d964-1f2f-4853-8bcc-d2448fcd59cd","system_id":"levelo_inurba_marseille","lat":43.29529,"lon":5.385581,"is_reserved":false,"is_disabled":false,"rental_uris":{"android":"levelo://app?vid=1ae7d964-1f2f-4853-8bcc-d2448fcd59cd","ios":"levelo://app?vid=1ae7d964-1f2f-4853-8bcc-d2448fcd59cd"},"vehicle_type_id":"4","last_reported":1683317223,"current_range_meters":14400,"station_id":"ce4bgih2rcd13ifvqba0","pricing_plan_id":"free"},{"bike_id":"1704ea80-1b81-4cf9-bdcf-e1dcd842ba72","system_id":"levelo_inurba_marseille","lat":43.29529,"lon":5.385581,"is_reserved":false,"is_disabled":false,"rental_uris":{"android":"levelo://app?vid=1704ea80-1b81-4cf9-bdcf-e1dcd842ba72","ios":"levelo://app?vid=1704ea80-1b81-4cf9-bdcf-e1dcd842ba72"},"vehicle_type_id":"4","last_reported":1683317223,"current_range_meters":5600,"station_id":"ce4bgih2rcd13ifvqba0","pricing_plan_id":"free"},{"bike_id":"ca8f9954-81f3-42b4-8b7e-91d3a40c9f3f","system_id":"levelo_inurba_marseille","lat":43.29529,"lon":5.385581,"is_reserved":false,"is_disabled":false,"rental_uris":{"android":"levelo://app?vid=ca8f9954-81f3-42b4-8b7e-91d3a40c9f3f","ios":"levelo://app?vid=ca8f9954-81f3-42b4-8b7e-91d3a40c9f3f"},"vehicle_type_id":"4","last_reported":1683317223,"current_range_meters":400,"station_id":"ce4bgih2rcd13ifvqba0","pricing_plan_id":"free"},{"bike_id":"683f37e5-895e-4462-8c10-67890ebcc932","system_id":"levelo_inurba_marseille","lat":43.29529,"lon":5.385581,"is_reserved":false,"is_disabled":false,"rental_uris":{"android":"levelo://app?vid=683f37e5-895e-4462-8c10-67890ebcc932","ios":"levelo://app?vid=683f37e5-895e-4462-8c10-67890ebcc932"},"vehicle_type_id":"4","last_reported":1683317223,"current_range_meters":1600,"station_id":"ce4bgih2rcd13ifvqba0","pricing_plan_id":"free"},{"bike_id":"fe1d52cb-6e1c-41b9-a32b-b204e3b16187","system_id":"levelo_inurba_marseille","lat":43.29529,"lon":5.385581,"is_reserved":false,"is_disabled":false,"rental_uris":{"android":"levelo://app?vid=fe1d52cb-6e1c-41b9-a32b-b204e3b16187","ios":"levelo://app?vid=fe1d52cb-6e1c-41b9-a32b-b204e3b16187"},"vehicle_type_id":"4","last_reported":1683317223,"current_range_meters":25600,"station_id":"ce4bgih2rcd13ifvqba0","pricing_plan_id":"free"},{"bike_id":"4d7762d8-649d-4ec0-9ee8-106e02a89e02","system_id":"levelo_inurba_marseille","lat":43.29529,"lon":5.385581,"is_reserved":false,"is_disabled":false,"rental_uris":{"android":"levelo://app?vid=4d7762d8-649d-4ec0-9ee8-106e02a89e02","ios":"levelo://app?vid=4d7762d8-649d-4ec0-9ee8-106e02a89e02"},"vehicle_type_id":"4","last_reported":1683317223,"current_range_meters":0,"station_id":"ce4bgih2rcd13ifvqba0","pricing_plan_id":"free"},{"bike_id":"e0693bbd-daf9-4623-81ad-baa7002d0384","system_id":"levelo_inurba_marseille","lat":43.29529,"lon":5.385581,"is_reserved":false,"is_disabled":false,"rental_uris":{"android":"levelo://app?vid=e0693bbd-daf9-4623-81ad-baa7002d0384","ios":"levelo://app?vid=e0693bbd-daf9-4623-81ad-baa7002d0384"},"vehicle_type_id":"4","last_reported":1683317223,"current_range_meters":14000,"station_id":"ce4bgih2rcd13ifvqba0","pricing_plan_id":"free"},{"bike_id":"dcb6f6c0-f8e3-4ab7-8375-e857a132a91a","system_id":"levelo_inurba_marseille","lat":43.29529,"lon":5.385581,"is_reserved":false,"is_disabled":false,"rental_uris":{"android":"levelo://app?vid=dcb6f6c0-f8e3-4ab7-8375-e857a132a91a","ios":"levelo://app?vid=dcb6f6c0-f8e3-4ab7-8375-e857a132a91a"},"vehicle_type_id":"4","last_reported":1683317223,"current_range_meters":15200,"station_id":"ce4bgih2rcd13ifvqba0","pricing_plan_id":"free"},{"bike_id":"fe842130-67d5-4ded-9e45-a88dabf97722","system_id":"levelo_inurba_marseille","lat":43.29529,"lon":5.385581,"is_reserved":false,"is_disabled":false,"rental_uris":{"android":"levelo://app?vid=fe842130-67d5-4ded-9e45-a88dabf97722","ios":"levelo://app?vid=fe842130-67d5-4ded-9e45-a88dabf97722"},"vehicle_type_id":"4","last_reported":1683317223,"current_range_meters":18400,"station_id":"ce4bgih2rcd13ifvqba0","pricing_plan_id":"free"},{"bike_id":"01488cd3-a378-4158-ac15-2cc77e84ac29","system_id":"levelo_inurba_marseille","lat":43.29529,"lon":5.385581,"is_reserved":false,"is_disabled":false,"rental_uris":{"android":"levelo://app?vid=01488cd3-a378-4158-ac15-2cc77e84ac29","ios":"levelo://app?vid=01488cd3-a378-4158-ac15-2cc77e84ac29"},"vehicle_type_id":"4","last_reported":1683317223,"current_range_meters":22000,"station_id":"ce4bgih2rcd13ifvqba0","pricing_plan_id":"free"},{"bike_id":"47d10c9a-002a-4edb-b663-64d0bb2e3996","system_id":"levelo_inurba_marseille","lat":43.29529,"lon":5.385581,"is_reserved":false,"is_disabled":false,"rental_uris":{"android":"levelo://app?vid=47d10c9a-002a-4edb-b663-64d0bb2e3996","ios":"levelo://app?vid=47d10c9a-002a-4edb-b663-64d0bb2e3996"},"vehicle_type_id":"4","last_reported":1683317223,"current_range_meters":16800,"station_id":"ce4bgih2rcd13ifvqba0","pricing_plan_id":"free"},{"bike_id":"3017303a-347d-4038-9be0-1f051cc1ed88","system_id":"levelo_inurba_marseille","lat":43.290779,"lon":5.371482,"is_reserved":false,"is_disabled":false,"rental_uris":{"android":"levelo://app?vid=3017303a-347d-4038-9be0-1f051cc1ed88","ios":"levelo://app?vid=3017303a-347d-4038-9be0-1f051cc1ed88"},"vehicle_type_id":"4","last_reported":1683317223,"current_range_meters":3200,"station_id":"ce4bh5p2rcd13ifvqe4g","pricing_plan_id":"free"},{"bike_id":"5e37a12a-80dd-4596-99b6-1727357b1710","system_id":"levelo_inurba_marseille","lat":43.2907,"lon":5.37175,"is_reserved":false,"is_disabled":false,"rental_uris":{"android":"levelo://app?vid=5e37a12a-80dd-4596-99b6-1727357b1710","ios":"levelo://app?vid=5e37a12a-80dd-4596-99b6-1727357b1710"},"vehicle_type_id":"4","last_reported":1683317223,"current_range_meters":13600,"station_id":"ce4bh5p2rcd13ifvqe4g","pricing_plan_id":"free"},{"bike_id":"3d2255fe-08f3-4da9-9bc9-9629218fddb1","system_id":"levelo_inurba_marseille","lat":43.290624,"lon":5.359245,"is_reserved":false,"is_disabled":false,"rental_uris":{"android":"levelo://app?vid=3d2255fe-08f3-4da9-9bc9-9629218fddb1","ios":"levelo://app?vid=3d2255fe-08f3-4da9-9bc9-9629218fddb1"},"vehicle_type_id":"4","last_reported":1683317223,"current_range_meters":800,"station_id":"ce4bha92rcd13ifvqeg0","pricing_plan_id":"free"},{"bike_id":"2fe32c5f-f357-4941-a5d7-94d3051c8739","system_id":"levelo_inurba_marseille","lat":43.29423,"lon":5.38619,"is_reserved":false,"is_disabled":false,"rental_uris":{"android":"levelo://app?vid=2fe32c5f-f357-4941-a5d7-94d3051c8739","ios":"levelo://app?vid=2fe32c5f-f357-4941-a5d7-94d3051c8739"},"vehicle_type_id":"4","last_reported":1683317223,"current_range_meters":24400,"station_id":"ce4bh2h2rcd13ifvqdh0","pricing_plan_id":"free"},{"bike_id":"5a818488-33f5-4d8a-b929-2d13fad6e064","system_id":"levelo_inurba_marseille","lat":43.29423,"lon":5.38623,"is_reserved":false,"is_disabled":false,"rental_uris":{"android":"levelo://app?vid=5a818488-33f5-4d8a-b929-2d13fad6e064","ios":"levelo://app?vid=5a818488-33f5-4d8a-b929-2d13fad6e064"},"vehicle_type_id":"4","last_reported":1683317223,"current_range_meters":6000,"station_id":"ce4bh2h2rcd13ifvqdh0","pricing_plan_id":"free"},{"bike_id":"d5f86cfa-686e-47a5-9a8f-0ac1276a0221","system_id":"levelo_inurba_marseille","lat":43.29416,"lon":5.38618,"is_reserved":false,"is_disabled":false,"rental_uris":{"android":"levelo://app?vid=d5f86cfa-686e-47a5-9a8f-0ac1276a0221","ios":"levelo://app?vid=d5f86cfa-686e-47a5-9a8f-0ac1276a0221"},"vehicle_type_id":"4","last_reported":1683317223,"current_range_meters":18400,"station_id":"ce4bh2h2rcd13ifvqdh0","pricing_plan_id":"free"},{"bike_id":"117fabe8-c4a4-4609-80c4-5a7e30a05c40","system_id":"levelo_inurba_marseille","lat":43.29421,"lon":5.38628,"is_reserved":false,"is_disabled":false,"rental_uris":{"android":"levelo://app?vid=117fabe8-c4a4-4609-80c4-5a7e30a05c40","ios":"levelo://app?vid=117fabe8-c4a4-4609-80c4-5a7e30a05c40"},"vehicle_type_id":"4","last_reported":1683317223,"current_range_meters":12800,"station_id":"","pricing_plan_id":"free"},{"bike_id":"9f37c10f-9015-4e56-a796-583c5027c690","system_id":"levelo_inurba_marseille","lat":43.29414,"lon":5.38616,"is_reserved":false,"is_disabled":false,"rental_uris":{"android":"levelo://app?vid=9f37c10f-9015-4e56-a796-583c5027c690","ios":"levelo://app?vid=9f37c10f-9015-4e56-a796-583c5027c690"},"vehicle_type_id":"4","last_reported":1683317223,"current_range_meters":9200,"station_id":"ce4bh2h2rcd13ifvqdh0","pricing_plan_id":"free"},{"bike_id":"a7be2da7-23b3-4d57-83b9-935c6edc0333","system_id":"levelo_inurba_marseille","lat":43.29421,"lon":5.38629,"is_reserved":false,"is_disabled":false,"rental_uris":{"android":"levelo://app?vid=a7be2da7-23b3-4d57-83b9-935c6edc0333","ios":"levelo://app?vid=a7be2da7-23b3-4d57-83b9-935c6edc0333"},"vehicle_type_id":"4","last_reported":1683317223,"current_range_meters":1200,"station_id":"ce4bh2h2rcd13ifvqdh0","pricing_plan_id":"free"},{"bike_id":"0bc668fa-c7eb-4b07-b7d9-ff199b8ac796","system_id":"levelo_inurba_marseille","lat":43.29416,"lon":5.3862,"is_reserved":false,"is_disabled":false,"rental_uris":{"android":"levelo://app?vid=0bc668fa-c7eb-4b07-b7d9-ff199b8ac796","ios":"levelo://app?vid=0bc668fa-c7eb-4b07-b7d9-ff199b8ac796"},"vehicle_type_id":"4","last_reported":1683317223,"current_range_meters":6000,"station_id":"ce4bh2h2rcd13ifvqdh0","pricing_plan_id":"free"},{"bike_id":"bcb4733f-02fb-4a7a-a7e5-96038ecffa82","system_id":"levelo_inurba_marseille","lat":43.294153,"lon":5.386305,"is_reserved":false,"is_disabled":false,"rental_uris":{"android":"levelo://app?vid=bcb4733f-02fb-4a7a-a7e5-96038ecffa82","ios":"levelo://app?vid=bcb4733f-02fb-4a7a-a7e5-96038ecffa82"},"vehicle_type_id":"4","last_reported":1683317223,"current_range_meters":10400,"station_id":"ce4bh2h2rcd13ifvqdh0","pricing_plan_id":"free"},{"bike_id":"cee7fff2-484d-4715-b6d5-596a5d67d9f5","system_id":"levelo_inurba_marseille","lat":43.29416,"lon":5.38621,"is_reserved":false,"is_disabled":false,"rental_uris":{"android":"levelo://app?vid=cee7fff2-484d-4715-b6d5-596a5d67d9f5","ios":"levelo://app?vid=cee7fff2-484d-4715-b6d5-596a5d67d9f5"},"vehicle_type_id":"4","last_reported":1683317223,"current_range_meters":0,"station_id":"ce4bh2h2rcd13ifvqdh0","pricing_plan_id":"free"},{"bike_id":"ae18827e-6976-4645-88c2-07bf0fc8c9b6","system_id":"levelo_inurba_marseille","lat":43.29416,"lon":5.38621,"is_reserved":false,"is_disabled":false,"rental_uris":{"android":"levelo://app?vid=ae18827e-6976-4645-88c2-07bf0fc8c9b6","ios":"levelo://app?vid=ae18827e-6976-4645-88c2-07bf0fc8c9b6"},"vehicle_type_id":"4","last_reported":1683317223,"current_range_meters":22400,"station_id":"ce4bh2h2rcd13ifvqdh0","pricing_plan_id":"free"},{"bike_id":"c2f18142-2c2d-42b4-858d-7aaeb66701d0","system_id":"levelo_inurba_marseille","lat":43.29419,"lon":5.38627,"is_reserved":false,"is_disabled":false,"rental_uris":{"android":"levelo://app?vid=c2f18142-2c2d-42b4-858d-7aaeb66701d0","ios":"levelo://app?vid=c2f18142-2c2d-42b4-858d-7aaeb66701d0"},"vehicle_type_id":"4","last_reported":1683317223,"current_range_meters":4000,"station_id":"ce4bh2h2rcd13ifvqdh0","pricing_plan_id":"free"},{"bike_id":"349f3d52-db77-420f-91ad-609e4e4c757c","system_id":"levelo_inurba_marseille","lat":43.294153,"lon":5.386305,"is_reserved":false,"is_disabled":false,"rental_uris":{"android":"levelo://app?vid=349f3d52-db77-420f-91ad-609e4e4c757c","ios":"levelo://app?vid=349f3d52-db77-420f-91ad-609e4e4c757c"},"vehicle_type_id":"4","last_reported":1683317223,"current_range_meters":25200,"station_id":"ce4bh2h2rcd13ifvqdh0","pricing_plan_id":"free"},{"bike_id":"02a20e74-c691-4acc-97df-31e670832b25","system_id":"levelo_inurba_marseille","lat":43.29417,"lon":5.38627,"is_reserved":false,"is_disabled":false,"rental_uris":{"android":"levelo://app?vid=02a20e74-c691-4acc-97df-31e670832b25","ios":"levelo://app?vid=02a20e74-c691-4acc-97df-31e670832b25"},"vehicle_type_id":"4","last_reported":1683317223,"current_range_meters":400,"station_id":"ce4bh2h2rcd13ifvqdh0","pricing_plan_id":"free"},{"bike_id":"7b2331b7-5ab9-4d22-a579-6141d1c60747","system_id":"levelo_inurba_marseille","lat":43.29413,"lon":5.3862,"is_reserved":false,"is_disabled":false,"rental_uris":{"android":"levelo://app?vid=7b2331b7-5ab9-4d22-a579-6141d1c60747","ios":"levelo://app?vid=7b2331b7-5ab9-4d22-a579-6141d1c60747"},"vehicle_type_id":"4","last_reported":1683317223,"current_range_meters":800,"station_id":"ce4bh2h2rcd13ifvqdh0","pricing_plan_id":"free"},{"bike_id":"c3862ce4-bb2b-4dad-94b0-977fe57ad1a7","system_id":"levelo_inurba_marseille","lat":43.29415,"lon":5.38624,"is_reserved":false,"is_disabled":false,"rental_uris":{"android":"levelo://app?vid=c3862ce4-bb2b-4dad-94b0-977fe57ad1a7","ios":"levelo://app?vid=c3862ce4-bb2b-4dad-94b0-977fe57ad1a7"},"vehicle_type_id":"4","last_reported":1683317223,"current_range_meters":25200,"station_id":"ce4bh2h2rcd13ifvqdh0","pricing_plan_id":"free"},{"bike_id":"603f9470-7a38-47cc-8bb4-1865cef4da07","system_id":"levelo_inurba_marseille","lat":43.29418,"lon":5.3863,"is_reserved":false,"is_disabled":false,"rental_uris":{"android":"levelo://app?vid=603f9470-7a38-47cc-8bb4-1865cef4da07","ios":"levelo://app?vid=603f9470-7a38-47cc-8bb4-1865cef4da07"},"vehicle_type_id":"4","last_reported":1683317223,"current_range_meters":9600,"station_id":"ce4bh2h2rcd13ifvqdh0","pricing_plan_id":"free"},{"bike_id":"11372ef4-d4b1-4e7c-8f4f-96a8e66e86d5","system_id":"levelo_inurba_marseille","lat":43.29418,"lon":5.38632,"is_reserved":false,"is_disabled":false,"rental_uris":{"android":"levelo://app?vid=11372ef4-d4b1-4e7c-8f4f-96a8e66e86d5","ios":"levelo://app?vid=11372ef4-d4b1-4e7c-8f4f-96a8e66e86d5"},"vehicle_type_id":"4","last_reported":1683317223,"current_range_meters":9200,"station_id":"ce4bh2h2rcd13ifvqdh0","pricing_plan_id":"free"},{"bike_id":"a7ecabef-de8f-4cb7-94c9-4ccb55dee6ca","system_id":"levelo_inurba_marseille","lat":43.29419,"lon":5.386349,"is_reserved":false,"is_disabled":false,"rental_uris":{"android":"levelo://app?vid=a7ecabef-de8f-4cb7-94c9-4ccb55dee6ca","ios":"levelo://app?vid=a7ecabef-de8f-4cb7-94c9-4ccb55dee6ca"},"vehicle_type_id":"4","last_reported":1683317223,"current_range_meters":22000,"station_id":"ce4bh2h2rcd13ifvqdh0","pricing_plan_id":"free"},{"bike_id":"694f6dfb-942a-4155-87a7-d5b4d2f1abb4","system_id":"levelo_inurba_marseille","lat":43.29413,"lon":5.38624,"is_reserved":false,"is_disabled":false,"rental_uris":{"android":"levelo://app?vid=694f6dfb-942a-4155-87a7-d5b4d2f1abb4","ios":"levelo://app?vid=694f6dfb-942a-4155-87a7-d5b4d2f1abb4"},"vehicle_type_id":"4","last_reported":1683317223,"current_range_meters":6400,"station_id":"ce4bh2h2rcd13ifvqdh0","pricing_plan_id":"free"},{"bike_id":"dcfb8059-4d3c-4589-9a20-3f01830fc37b","system_id":"levelo_inurba_marseille","lat":43.289184,"lon":5.366408,"is_reserved":false,"is_disabled":false,"rental_uris":{"android":"levelo://app?vid=dcfb8059-4d3c-4589-9a20-3f01830fc37b","ios":"levelo://app?vid=dcfb8059-4d3c-4589-9a20-3f01830fc37b"},"vehicle_type_id":"4","last_reported":1683317223,"current_range_meters":12000,"station_id":"ce4bhap2rcd13ifvqek0","pricing_plan_id":"free"},{"bike_id":"fc6ed387-3da2-40b4-989c-b608a888d228","system_id":"levelo_inurba_marseille","lat":43.289184,"lon":5.366408,"is_reserved":false,"is_disabled":false,"rental_uris":{"android":"levelo://app?vid=fc6ed387-3da2-40b4-989c-b608a888d228","ios":"levelo://app?vid=fc6ed387-3da2-40b4-989c-b608a888d228"},"vehicle_type_id":"4","last_reported":1683317223,"current_range_meters":11600,"station_id":"ce4bhap2rcd13ifvqek0","pricing_plan_id":"free"},{"bike_id":"33e80398-dfa8-46e4-bf81-230d61870f85","system_id":"levelo_inurba_marseille","lat":43.29413,"lon":5.38626,"is_reserved":false,"is_disabled":false,"rental_uris":{"android":"levelo://app?vid=33e80398-dfa8-46e4-bf81-230d61870f85","ios":"levelo://app?vid=33e80398-dfa8-46e4-bf81-230d61870f85"},"vehicle_type_id":"4","last_reported":1683317223,"current_range_meters":25200,"station_id":"ce4bh2h2rcd13ifvqdh0","pricing_plan_id":"free"},{"bike_id":"6fcbc6f0-2c67-41f9-8d9d-b3e5568699b7","system_id":"levelo_inurba_marseille","lat":43.289184,"lon":5.366408,"is_reserved":false,"is_disabled":false,"rental_uris":{"android":"levelo://app?vid=6fcbc6f0-2c67-41f9-8d9d-b3e5568699b7","ios":"levelo://app?vid=6fcbc6f0-2c67-41f9-8d9d-b3e5568699b7"},"vehicle_type_id":"4","last_reported":1683317223,"current_range_meters":12000,"station_id":"ce4bhap2rcd13ifvqek0","pricing_plan_id":"free"},{"bike_id":"e437b40e-bab5-4749-880a-35e7d837afec","system_id":"levelo_inurba_marseille","lat":43.289184,"lon":5.366408,"is_reserved":false,"is_disabled":false,"rental_uris":{"android":"levelo://app?vid=e437b40e-bab5-4749-880a-35e7d837afec","ios":"levelo://app?vid=e437b40e-bab5-4749-880a-35e7d837afec"},"vehicle_type_id":"4","last_reported":1683317223,"current_range_meters":26400,"station_id":"ce4bhap2rcd13ifvqek0","pricing_plan_id":"free"},{"bike_id":"e3d2afce-a02f-44e4-b3bd-4c0ffda05a94","system_id":"levelo_inurba_marseille","lat":43.29413,"lon":5.38627,"is_reserved":false,"is_disabled":false,"rental_uris":{"android":"levelo://app?vid=e3d2afce-a02f-44e4-b3bd-4c0ffda05a94","ios":"levelo://app?vid=e3d2afce-a02f-44e4-b3bd-4c0ffda05a94"},"vehicle_type_id":"4","last_reported":1683317223,"current_range_meters":12800,"station_id":"ce4bh2h2rcd13ifvqdh0","pricing_plan_id":"free"},{"bike_id":"a9390a13-e390-4b3c-b3f1-8840e7b935ce","system_id":"levelo_inurba_marseille","lat":43.289184,"lon":5.366408,"is_reserved":false,"is_disabled":false,"rental_uris":{"android":"levelo://app?vid=a9390a13-e390-4b3c-b3f1-8840e7b935ce","ios":"levelo://app?vid=a9390a13-e390-4b3c-b3f1-8840e7b935ce"},"vehicle_type_id":"4","last_reported":1683317223,"current_range_meters":31600,"station_id":"ce4bhap2rcd13ifvqek0","pricing_plan_id":"free"},{"bike_id":"f5da4cfd-0a9a-42f9-b623-172a2f56fe10","system_id":"levelo_inurba_marseille","lat":43.29417,"lon":5.38635,"is_reserved":false,"is_disabled":false,"rental_uris":{"android":"levelo://app?vid=f5da4cfd-0a9a-42f9-b623-172a2f56fe10","ios":"levelo://app?vid=f5da4cfd-0a9a-42f9-b623-172a2f56fe10"},"vehicle_type_id":"4","last_reported":1683317223,"current_range_meters":1200,"station_id":"ce4bh2h2rcd13ifvqdh0","pricing_plan_id":"free"},{"bike_id":"e3656171-4719-426d-aacf-cccee32dbab8","system_id":"levelo_inurba_marseille","lat":43.289184,"lon":5.366408,"is_reserved":false,"is_disabled":false,"rental_uris":{"android":"levelo://app?vid=e3656171-4719-426d-aacf-cccee32dbab8","ios":"levelo://app?vid=e3656171-4719-426d-aacf-cccee32dbab8"},"vehicle_type_id":"4","last_reported":1683317223,"current_range_meters":31200,"station_id":"ce4bhap2rcd13ifvqek0","pricing_plan_id":"free"},{"bike_id":"bd3392f4-4ef2-4cb9-bd7b-6345470b45ba","system_id":"levelo_inurba_marseille","lat":43.289184,"lon":5.366408,"is_reserved":false,"is_disabled":false,"rental_uris":{"android":"levelo://app?vid=bd3392f4-4ef2-4cb9-bd7b-6345470b45ba","ios":"levelo://app?vid=bd3392f4-4ef2-4cb9-bd7b-6345470b45ba"},"vehicle_type_id":"4","last_reported":1683317223,"current_range_meters":22000,"station_id":"ce4bhap2rcd13ifvqek0","pricing_plan_id":"free"},{"bike_id":"2bfe7b28-33f6-4a4d-aacd-b880cc12ab9f","system_id":"levelo_inurba_marseille","lat":43.28937,"lon":5.36633,"is_reserved":false,"is_disabled":false,"rental_uris":{"android":"levelo://app?vid=2bfe7b28-33f6-4a4d-aacd-b880cc12ab9f","ios":"levelo://app?vid=2bfe7b28-33f6-4a4d-aacd-b880cc12ab9f"},"vehicle_type_id":"4","last_reported":1683317223,"current_range_meters":18400,"station_id":"ce4bhap2rcd13ifvqek0","pricing_plan_id":"free"},{"bike_id":"2d0281c9-e4eb-47e4-ab66-62ca5f79c177","system_id":"levelo_inurba_marseille","lat":43.289184,"lon":5.366408,"is_reserved":false,"is_disabled":false,"rental_uris":{"android":"levelo://app?vid=2d0281c9-e4eb-47e4-ab66-62ca5f79c177","ios":"levelo://app?vid=2d0281c9-e4eb-47e4-ab66-62ca5f79c177"},"vehicle_type_id":"4","last_reported":1683317223,"current_range_meters":12800,"station_id":"ce4bhap2rcd13ifvqek0","pricing_plan_id":"free"},{"bike_id":"bc39020e-ee84-4585-8406-503636db75ec","system_id":"levelo_inurba_marseille","lat":43.29406,"lon":5.38626,"is_reserved":false,"is_disabled":false,"rental_uris":{"android":"levelo://app?vid=bc39020e-ee84-4585-8406-503636db75ec","ios":"levelo://app?vid=bc39020e-ee84-4585-8406-503636db75ec"},"vehicle_type_id":"4","last_reported":1683317223,"current_range_meters":10000,"station_id":"ce4bh2h2rcd13ifvqdh0","pricing_plan_id":"free"},{"bike_id":"4bed4299-e684-42fa-b8d5-4189f4d24c97","system_id":"levelo_inurba_marseille","lat":43.289184,"lon":5.366408,"is_reserved":false,"is_disabled":false,"rental_uris":{"android":"levelo://app?vid=4bed4299-e684-42fa-b8d5-4189f4d24c97","ios":"levelo://app?vid=4bed4299-e684-42fa-b8d5-4189f4d24c97"},"vehicle_type_id":"4","last_reported":1683317223,"current_range_meters":15200,"station_id":"ce4bhap2rcd13ifvqek0","pricing_plan_id":"free"},{"bike_id":"807405a3-8d8d-41ca-93ab-8a6b5d03327b","system_id":"levelo_inurba_marseille","lat":43.289184,"lon":5.366408,"is_reserved":false,"is_disabled":false,"rental_uris":{"android":"levelo://app?vid=807405a3-8d8d-41ca-93ab-8a6b5d03327b","ios":"levelo://app?vid=807405a3-8d8d-41ca-93ab-8a6b5d03327b"},"vehicle_type_id":"4","last_reported":1683317223,"current_range_meters":19200,"station_id":"ce4bhap2rcd13ifvqek0","pricing_plan_id":"free"},{"bike_id":"6921e770-f4aa-4d9b-9f3a-19a2c0e8fd58","system_id":"levelo_inurba_marseille","lat":43.289184,"lon":5.366408,"is_reserved":false,"is_disabled":false,"rental_uris":{"android":"levelo://app?vid=6921e770-f4aa-4d9b-9f3a-19a2c0e8fd58","ios":"levelo://app?vid=6921e770-f4aa-4d9b-9f3a-19a2c0e8fd58"},"vehicle_type_id":"4","last_reported":1683317223,"current_range_meters":0,"station_id":"ce4bhap2rcd13ifvqek0","pricing_plan_id":"free"},{"bike_id":"9ae0fa69-69a8-4e1e-9972-28f09c36fb7c","system_id":"levelo_inurba_marseille","lat":43.289184,"lon":5.366408,"is_reserved":false,"is_disabled":false,"rental_uris":{"android":"levelo://app?vid=9ae0fa69-69a8-4e1e-9972-28f09c36fb7c","ios":"levelo://app?vid=9ae0fa69-69a8-4e1e-9972-28f09c36fb7c"},"vehicle_type_id":"4","last_reported":1683317223,"current_range_meters":28400,"station_id":"ce4bhap2rcd13ifvqek0","pricing_plan_id":"free"},{"bike_id":"ea2e4129-8b3f-480a-bf74-1d30246883fc","system_id":"levelo_inurba_marseille","lat":43.289184,"lon":5.366408,"is_reserved":false,"is_disabled":false,"rental_uris":{"android":"levelo://app?vid=ea2e4129-8b3f-480a-bf74-1d30246883fc","ios":"levelo://app?vid=ea2e4129-8b3f-480a-bf74-1d30246883fc"},"vehicle_type_id":"4","last_reported":1683317223,"current_range_meters":25200,"station_id":"ce4bhap2rcd13ifvqek0","pricing_plan_id":"free"},{"bike_id":"3fff42cf-7db6-499a-9eb4-5d7b24957ee7","system_id":"levelo_inurba_marseille","lat":43.289184,"lon":5.366408,"is_reserved":false,"is_disabled":false,"rental_uris":{"android":"levelo://app?vid=3fff42cf-7db6-499a-9eb4-5d7b24957ee7","ios":"levelo://app?vid=3fff42cf-7db6-499a-9eb4-5d7b24957ee7"},"vehicle_type_id":"4","last_reported":1683317223,"current_range_meters":23600,"station_id":"ce4bhap2rcd13ifvqek0","pricing_plan_id":"free"},{"bike_id":"dd76f83c-d667-4e50-9905-1420228c1223","system_id":"levelo_inurba_marseille","lat":43.289468,"lon":5.363719,"is_reserved":false,"is_disabled":false,"rental_uris":{"android":"levelo://app?vid=dd76f83c-d667-4e50-9905-1420228c1223","ios":"levelo://app?vid=dd76f83c-d667-4e50-9905-1420228c1223"},"vehicle_type_id":"4","last_reported":1683317223,"current_range_meters":26800,"station_id":"ce4bhc92rcd13ifvqetg","pricing_plan_id":"free"},{"bike_id":"db9557e2-ec9b-431f-8c25-9b9afaeba06b","system_id":"levelo_inurba_marseille","lat":43.28934,"lon":5.36407,"is_reserved":false,"is_disabled":false,"rental_uris":{"android":"levelo://app?vid=db9557e2-ec9b-431f-8c25-9b9afaeba06b","ios":"levelo://app?vid=db9557e2-ec9b-431f-8c25-9b9afaeba06b"},"vehicle_type_id":"4","last_reported":1683317223,"current_range_meters":21200,"station_id":"","pricing_plan_id":"free"},{"bike_id":"3e4d8d3e-3a74-4649-a9e4-2580cd049b4b","system_id":"levelo_inurba_marseille","lat":43.289184,"lon":5.366408,"is_reserved":false,"is_disabled":false,"rental_uris":{"android":"levelo://app?vid=3e4d8d3e-3a74-4649-a9e4-2580cd049b4b","ios":"levelo://app?vid=3e4d8d3e-3a74-4649-a9e4-2580cd049b4b"},"vehicle_type_id":"4","last_reported":1683317223,"current_range_meters":15600,"station_id":"ce4bhap2rcd13ifvqek0","pricing_plan_id":"free"},{"bike_id":"1f16ef66-429c-49c2-9714-4d605cf7e5b9","system_id":"levelo_inurba_marseille","lat":43.29267,"lon":5.38428,"is_reserved":false,"is_disabled":false,"rental_uris":{"android":"levelo://app?vid=1f16ef66-429c-49c2-9714-4d605cf7e5b9","ios":"levelo://app?vid=1f16ef66-429c-49c2-9714-4d605cf7e5b9"},"vehicle_type_id":"4","last_reported":1683317223,"current_range_meters":10000,"station_id":"ce4bh692rcd13ifvqea0","pricing_plan_id":"free"},{"bike_id":"0d560df4-b1b8-4767-88e6-cc599ca27d0c","system_id":"levelo_inurba_marseille","lat":43.292644,"lon":5.384257,"is_reserved":false,"is_disabled":false,"rental_uris":{"android":"levelo://app?vid=0d560df4-b1b8-4767-88e6-cc599ca27d0c","ios":"levelo://app?vid=0d560df4-b1b8-4767-88e6-cc599ca27d0c"},"vehicle_type_id":"4","last_reported":1683317223,"current_range_meters":27600,"station_id":"ce4bh692rcd13ifvqea0","pricing_plan_id":"free"},{"bike_id":"5eb65046-4bf8-47f1-98d3-320c0d04ab72","system_id":"levelo_inurba_marseille","lat":43.292644,"lon":5.384257,"is_reserved":false,"is_disabled":false,"rental_uris":{"android":"levelo://app?vid=5eb65046-4bf8-47f1-98d3-320c0d04ab72","ios":"levelo://app?vid=5eb65046-4bf8-47f1-98d3-320c0d04ab72"},"vehicle_type_id":"4","last_reported":1683317223,"current_range_meters":400,"station_id":"ce4bh692rcd13ifvqea0","pricing_plan_id":"free"},{"bike_id":"657851a6-dea9-4415-af52-f35fc7a89147","system_id":"levelo_inurba_marseille","lat":43.29265,"lon":5.38432,"is_reserved":false,"is_disabled":false,"rental_uris":{"android":"levelo://app?vid=657851a6-dea9-4415-af52-f35fc7a89147","ios":"levelo://app?vid=657851a6-dea9-4415-af52-f35fc7a89147"},"vehicle_type_id":"4","last_reported":1683317223,"current_range_meters":17200,"station_id":"ce4bh692rcd13ifvqea0","pricing_plan_id":"free"},{"bike_id":"2de568bb-6759-4328-a2be-b0378235a93e","system_id":"levelo_inurba_marseille","lat":43.292644,"lon":5.384257,"is_reserved":false,"is_disabled":false,"rental_uris":{"android":"levelo://app?vid=2de568bb-6759-4328-a2be-b0378235a93e","ios":"levelo://app?vid=2de568bb-6759-4328-a2be-b0378235a93e"},"vehicle_type_id":"4","last_reported":1683317223,"current_range_meters":22800,"station_id":"ce4bh692rcd13ifvqea0","pricing_plan_id":"free"},{"bike_id":"58b01f0f-1fce-4a2d-83ad-87326aef01c3","system_id":"levelo_inurba_marseille","lat":43.29262,"lon":5.38427,"is_reserved":false,"is_disabled":false,"rental_uris":{"android":"levelo://app?vid=58b01f0f-1fce-4a2d-83ad-87326aef01c3","ios":"levelo://app?vid=58b01f0f-1fce-4a2d-83ad-87326aef01c3"},"vehicle_type_id":"4","last_reported":1683317223,"current_range_meters":8400,"station_id":"ce4bh692rcd13ifvqea0","pricing_plan_id":"free"},{"bike_id":"35df0e66-f90e-4ad4-9bfa-c2e3510248cf","system_id":"levelo_inurba_marseille","lat":43.292642,"lon":5.384254,"is_reserved":false,"is_disabled":false,"rental_uris":{"android":"levelo://app?vid=35df0e66-f90e-4ad4-9bfa-c2e3510248cf","ios":"levelo://app?vid=35df0e66-f90e-4ad4-9bfa-c2e3510248cf"},"vehicle_type_id":"4","last_reported":1683317223,"current_range_meters":4400,"station_id":"ce4bh692rcd13ifvqea0","pricing_plan_id":"free"},{"bike_id":"a1d1e480-2c8f-4fec-833a-0157abc3caf2","system_id":"levelo_inurba_marseille","lat":43.292644,"lon":5.384257,"is_reserved":false,"is_disabled":false,"rental_uris":{"android":"levelo://app?vid=a1d1e480-2c8f-4fec-833a-0157abc3caf2","ios":"levelo://app?vid=a1d1e480-2c8f-4fec-833a-0157abc3caf2"},"vehicle_type_id":"4","last_reported":1683317223,"current_range_meters":2000,"station_id":"ce4bh692rcd13ifvqea0","pricing_plan_id":"free"},{"bike_id":"ad590daa-faf2-402f-8d8e-e5f1da7647e7","system_id":"levelo_inurba_marseille","lat":43.29266,"lon":5.38439,"is_reserved":false,"is_disabled":false,"rental_uris":{"android":"levelo://app?vid=ad590daa-faf2-402f-8d8e-e5f1da7647e7","ios":"levelo://app?vid=ad590daa-faf2-402f-8d8e-e5f1da7647e7"},"vehicle_type_id":"4","last_reported":1683317223,"current_range_meters":3200,"station_id":"ce4bh692rcd13ifvqea0","pricing_plan_id":"free"},{"bike_id":"3b2fd13d-9cf6-44bd-9301-4e9114110c23","system_id":"levelo_inurba_marseille","lat":43.29265,"lon":5.38437,"is_reserved":false,"is_disabled":false,"rental_uris":{"android":"levelo://app?vid=3b2fd13d-9cf6-44bd-9301-4e9114110c23","ios":"levelo://app?vid=3b2fd13d-9cf6-44bd-9301-4e9114110c23"},"vehicle_type_id":"4","last_reported":1683317223,"current_range_meters":2400,"station_id":"ce4bh692rcd13ifvqea0","pricing_plan_id":"free"},{"bike_id":"116e13e6-7f0f-4b74-aa7f-934363f1b6e9","system_id":"levelo_inurba_marseille","lat":43.292644,"lon":5.384257,"is_reserved":false,"is_disabled":false,"rental_uris":{"android":"levelo://app?vid=116e13e6-7f0f-4b74-aa7f-934363f1b6e9","ios":"levelo://app?vid=116e13e6-7f0f-4b74-aa7f-934363f1b6e9"},"vehicle_type_id":"4","last_reported":1683317223,"current_range_meters":21600,"station_id":"ce4bh692rcd13ifvqea0","pricing_plan_id":"free"},{"bike_id":"ecf6b366-b11e-4429-9930-a8b6c9ccfd72","system_id":"levelo_inurba_marseille","lat":43.292644,"lon":5.384257,"is_reserved":false,"is_disabled":false,"rental_uris":{"android":"levelo://app?vid=ecf6b366-b11e-4429-9930-a8b6c9ccfd72","ios":"levelo://app?vid=ecf6b366-b11e-4429-9930-a8b6c9ccfd72"},"vehicle_type_id":"4","last_reported":1683317223,"current_range_meters":10000,"station_id":"ce4bh692rcd13ifvqea0","pricing_plan_id":"free"},{"bike_id":"b8a2413a-21b7-46c0-80dd-32d4349e0437","system_id":"levelo_inurba_marseille","lat":43.292644,"lon":5.384257,"is_reserved":false,"is_disabled":false,"rental_uris":{"android":"levelo://app?vid=b8a2413a-21b7-46c0-80dd-32d4349e0437","ios":"levelo://app?vid=b8a2413a-21b7-46c0-80dd-32d4349e0437"},"vehicle_type_id":"4","last_reported":1683317223,"current_range_meters":9200,"station_id":"ce4bh692rcd13ifvqea0","pricing_plan_id":"free"},{"bike_id":"7426a479-d9ff-4b8e-8b46-de15b1348c6c","system_id":"levelo_inurba_marseille","lat":43.2926,"lon":5.38442,"is_reserved":false,"is_disabled":false,"rental_uris":{"android":"levelo://app?vid=7426a479-d9ff-4b8e-8b46-de15b1348c6c","ios":"levelo://app?vid=7426a479-d9ff-4b8e-8b46-de15b1348c6c"},"vehicle_type_id":"4","last_reported":1683317223,"current_range_meters":25200,"station_id":"ce4bh692rcd13ifvqea0","pricing_plan_id":"free"},{"bike_id":"e97ac1dd-8a3b-48a0-bf2c-5044b4dfba01","system_id":"levelo_inurba_marseille","lat":43.292642,"lon":5.384254,"is_reserved":false,"is_disabled":false,"rental_uris":{"android":"levelo://app?vid=e97ac1dd-8a3b-48a0-bf2c-5044b4dfba01","ios":"levelo://app?vid=e97ac1dd-8a3b-48a0-bf2c-5044b4dfba01"},"vehicle_type_id":"4","last_reported":1683317223,"current_range_meters":24400,"station_id":"ce4bh692rcd13ifvqea0","pricing_plan_id":"free"},{"bike_id":"14a4bceb-7513-40e8-9239-c8196b0c7043","system_id":"levelo_inurba_marseille","lat":43.292644,"lon":5.384257,"is_reserved":false,"is_disabled":false,"rental_uris":{"android":"levelo://app?vid=14a4bceb-7513-40e8-9239-c8196b0c7043","ios":"levelo://app?vid=14a4bceb-7513-40e8-9239-c8196b0c7043"},"vehicle_type_id":"4","last_reported":1683317223,"current_range_meters":10000,"station_id":"ce4bh692rcd13ifvqea0","pricing_plan_id":"free"},{"bike_id":"c6a5f3db-467c-47f5-acd9-61fe8cd674ee","system_id":"levelo_inurba_marseille","lat":43.33043,"lon":5.38917,"is_reserved":false,"is_disabled":false,"rental_uris":{"android":"levelo://app?vid=c6a5f3db-467c-47f5-acd9-61fe8cd674ee","ios":"levelo://app?vid=c6a5f3db-467c-47f5-acd9-61fe8cd674ee"},"vehicle_type_id":"4","last_reported":1683317223,"current_range_meters":26400,"station_id":"ce4bhr92rcd13ifvqhrg","pricing_plan_id":"free"},{"bike_id":"c9455a8e-920b-4e52-910e-7a1224d93dcf","system_id":"levelo_inurba_marseille","lat":43.33042,"lon":5.38919,"is_reserved":false,"is_disabled":false,"rental_uris":{"android":"levelo://app?vid=c9455a8e-920b-4e52-910e-7a1224d93dcf","ios":"levelo://app?vid=c9455a8e-920b-4e52-910e-7a1224d93dcf"},"vehicle_type_id":"4","last_reported":1683317223,"current_range_meters":24400,"station_id":"ce4bhr92rcd13ifvqhrg","pricing_plan_id":"free"},{"bike_id":"c0b39783-7886-4047-9a8d-355fea0e4444","system_id":"levelo_inurba_marseille","lat":43.33044,"lon":5.38916,"is_reserved":false,"is_disabled":false,"rental_uris":{"android":"levelo://app?vid=c0b39783-7886-4047-9a8d-355fea0e4444","ios":"levelo://app?vid=c0b39783-7886-4047-9a8d-355fea0e4444"},"vehicle_type_id":"4","last_reported":1683317223,"current_range_meters":24400,"station_id":"ce4bhr92rcd13ifvqhrg","pricing_plan_id":"free"},{"bike_id":"1f662943-fd3c-4d30-8e8d-761822cb14d2","system_id":"levelo_inurba_marseille","lat":43.33042,"lon":5.3892,"is_reserved":false,"is_disabled":false,"rental_uris":{"android":"levelo://app?vid=1f662943-fd3c-4d30-8e8d-761822cb14d2","ios":"levelo://app?vid=1f662943-fd3c-4d30-8e8d-761822cb14d2"},"vehicle_type_id":"4","last_reported":1683317223,"current_range_meters":24800,"station_id":"ce4bhr92rcd13ifvqhrg","pricing_plan_id":"free"},{"bike_id":"da86836b-d020-456b-ad95-a73c452d8db8","system_id":"levelo_inurba_marseille","lat":43.33045,"lon":5.38916,"is_reserved":false,"is_disabled":false,"rental_uris":{"android":"levelo://app?vid=da86836b-d020-456b-ad95-a73c452d8db8","ios":"levelo://app?vid=da86836b-d020-456b-ad95-a73c452d8db8"},"vehicle_type_id":"4","last_reported":1683317223,"current_range_meters":20800,"station_id":"ce4bhr92rcd13ifvqhrg","pricing_plan_id":"free"},