{"last_updated":1731568165,"ttl":60,"version":"2.2","data":{"bikes":[{"bike_id":"0202ba49-d00f-419c-8ce0-c22568f9d903","system_id":"levelo_inurba_marseille","lat":43.24652,"lon":5.38895,"is_reserved":false,"is_disabled":false,"rental_uris":{"android":"levelo://app?vid=0202ba49-d00f-419c-8ce0-c22568f9d903","ios":"levelo://app?vid=0202ba49-d00f-419c-8ce0-c22568f9d903"},"vehicle_type_id":"4","last_reported":1731568165,"current_range_meters":38400,"station_id":"ce4bhg12rcd13ifvqf60","pricing_plan_id":"cebpf4jnsgd1na2vs0mg"},{"bike_id":"aa58b55a-b61d-45d6-8cbb-da8b2e1ca130","system_id":"levelo_inurba_marseille","lat":43.30464,"lon":5.37914,"is_reserved":false,"is_disabled":false,"rental_uris":{"android":"levelo://app?vid=aa58b55a-b61d-45d6-8cbb-da8b2e1ca130","ios":"levelo://app?vid=aa58b55a-b61d-45d6-8cbb-da8b2e1ca130"},"vehicle_type_id":"4","last_reported":1731568165,"current_range_meters":30400,"station_id":"ce4bgup2rcd13ifvqcn0","pricing_plan_id":"cebpf4jnsgd1na2vs0mg"},{"bike_id":"8a78b40a-48bd-4a22-80c1-10c5bdcb2018","system_id":"levelo_inurba_marseille","lat":43.30467,"lon":5.37901,"is_reserved":false,"is_disabled":false,"rental_uris":{"android":"levelo://app?vid=8a78b40a-48bd-4a22-80c1-10c5bdcb2018","ios":"levelo://app?vid=8a78b40a-48bd-4a22-80c1-10c5bdcb2018"},"vehicle_type_id":"4","last_reported":1731568165,"current_range_meters":36000,"station_id":"ce4bgup2rcd13ifvqcn0","pricing_plan_id":"cebpf4jnsgd1na2vs0mg"},{"bike_id":"717b066d-ff0c-450c-96e5-9d90722466cc","system_id":"levelo_inurba_marseille","lat":43.30311,"lon":5.36905,"is_reserved":false,"is_disabled":false,"rental_uris":{"android":"levelo://app?vid=717b066d-ff0c-450c-96e5-9d90722466cc","ios":"levelo://app?vid=717b066d-ff0c-450c-96e5-9d90722466cc"},"vehicle_type_id":"4","last_reported":1731568165,"current_range_meters":38800,"station_id":"ce4bgqh2rcd13ifvqc5g","pricing_plan_id":"cebpf4jnsgd1na2vs0mg"},{"bike_id":"adee8ef6-ad89-4c23-ad71-9e185ba25dc4","system_id":"levelo_inurba_marseille","lat":43.24077,"lon":5.37758,"is_reserved":false,"is_disabled":false,"rental_uris":{"android":"levelo://app?vid=adee8ef6-ad89-4c23-ad71-9e185ba25dc4","ios":"levelo://app?vid=adee8ef6-ad89-4c23-ad71-9e185ba25dc4"},"vehicle_type_id":"4","last_reported":1731568165,"current_range_meters":37600,"station_id":"ce4bhnp2rcd13ifvqgvg","pricing_plan_id":"cebpf4jnsgd1na2vs0mg"},{"bike_id":"70e13cc8-22bc-41bc-a936-7db55b3253ca","system_id":"levelo_inurba_marseille","lat":43.31491,"lon":5.37311,"is_reserved":false,"is_disabled":false,"rental_uris":{"android":"levelo://app?vid=70e13cc8-22bc-41bc-a936-7db55b3253ca","ios":"levelo://app?vid=70e13cc8-22bc-41bc-a936-7db55b3253ca"},"vehicle_type_id":"4","last_reported":1731568165,"current_range_meters":40000,"station_id":"ce4bgt12rcd13ifvqcd0","pricing_plan_id":"cebpf4jnsgd1na2vs0mg"},{"bike_id":"32eda776-b812-4f17-9025-66688169bb30","system_id":"levelo_inurba_marseille","lat":43.30462,"lon":5.37903,"is_reserved":false,"is_disabled":false,"rental_uris":{"android":"levelo://app?vid=32eda776-b812-4f17-9025-66688169bb30","ios":"levelo://app?vid=32eda776-b812-4f17-9025-66688169bb30"},"vehicle_type_id":"4","last_reported":1731568165,"current_range_meters":17200,"station_id":"ce4bgup2rcd13ifvqcn0","pricing_plan_id":"cebpf4jnsgd1na2vs0mg"},{"bike_id":"eb66c83e-9c22-451e-9a96-11fcf0b6a22c","system_id":"levelo_inurba_marseille","lat":43.31796,"lon":5.39007,"is_reserved":false,"is_disabled":false,"rental_uris":{"android":"levelo://app?vid=eb66c83e-9c22-451e-9a96-11fcf0b6a22c","ios":"levelo://app?vid=eb66c83e-9c22-451e-9a96-11fcf0b6a22c"},"vehicle_type_id":"4","last_reported":1731568165,"current_range_meters":36800,"station_id":"ce4bhqp2rcd13ifvqhng","pricing_plan_id":"cebpf4jnsgd1na2vs0mg"},{"bike_id":"77b69f18-7c6a-412a-9655-4f3da3f95e57","system_id":"levelo_inurba_marseille","lat":43.26025,"lon":5.37551,"is_reserved":false,"is_disabled":false,"rental_uris":{"android":"levelo://app?vid=77b69f18-7c6a-412a-9655-4f3da3f95e57","ios":"levelo://app?vid=77b69f18-7c6a-412a-9655-4f3da3f95e57"},"vehicle_type_id":"4","last_reported":1731568165,"current_range_meters":38400,"station_id":"ce4bhgh2rcd13ifvqfa0","pricing_plan_id":"cebpf4jnsgd1na2vs0mg"},{"bike_id":"052f9b93-6cd6-4b1f-acb9-36b85dbc4923","system_id":"levelo_inurba_marseille","lat":43.28462,"lon":5.35892,"is_reserved":false,"is_disabled":false,"rental_uris":{"android":"levelo://app?vid=052f9b93-6cd6-4b1f-acb9-36b85dbc4923","ios":"levelo://app?vid=052f9b93-6cd6-4b1f-acb9-36b85dbc4923"},"vehicle_type_id":"4","last_reported":1731568165,"current_range_meters":8400,"station_id":"ce4bhah2rcd13ifvqei0","pricing_plan_id":"cebpf4jnsgd1na2vs0mg"},{"bike_id":"ae292185-8e91-4db6-a612-c3563674c7fa","system_id":"levelo_inurba_marseille","lat":43.31722,"lon":5.39014,"is_reserved":false,"is_disabled":false,"rental_uris":{"android":"levelo://app?vid=ae292185-8e91-4db6-a612-c3563674c7fa","ios":"levelo://app?vid=ae292185-8e91-4db6-a612-c3563674c7fa"},"vehicle_type_id":"4","last_reported":1731568165,"current_range_meters":22800,"station_id":"ce4bhqp2rcd13ifvqhng","pricing_plan_id":"cebpf4jnsgd1na2vs0mg"},{"bike_id":"eb1a157f-ac9e-4b8f-8d39-1796d44fd43e","system_id":"levelo_inurba_marseille","lat":43.24804,"lon":5.37452,"is_reserved":false,"is_disabled":false,"rental_uris":{"android":"levelo://app?vid=eb1a157f-ac9e-4b8f-8d39-1796d44fd43e","ios":"levelo://app?vid=eb1a157f-ac9e-4b8f-8d39-1796d44fd43e"},"vehicle_type_id":"4","last_reported":1731568165,"current_range_meters":11600,"station_id":"ce4bhgh2rcd13ifvqfb0","pricing_plan_id":"cebpf4jnsgd1na2vs0mg"},{"bike_id":"91fe36a8-bc4f-4b08-8287-b0444a16f338","system_id":"levelo_inurba_marseille","lat":43.2315,"lon":5.43724,"is_reserved":false,"is_disabled":false,"rental_uris":{"android":"levelo://app?vid=91fe36a8-bc4f-4b08-8287-b0444a16f338","ios":"levelo://app?vid=91fe36a8-bc4f-4b08-8287-b0444a16f338"},"vehicle_type_id":"4","last_reported":1731568165,"current_range_meters":39200,"station_id":"ce4bhmp2rcd13ifvqgog","pricing_plan_id":"cebpf4jnsgd1na2vs0mg"},{"bike_id":"8472a442-1b27-4429-9cbb-acb2837e6d0f","system_id":"levelo_inurba_marseille","lat":43.24086,"lon":5.37747,"is_reserved":false,"is_disabled":false,"rental_uris":{"android":"levelo://app?vid=8472a442-1b27-4429-9cbb-acb2837e6d0f","ios":"levelo://app?vid=8472a442-1b27-4429-9cbb-acb2837e6d0f"},"vehicle_type_id":"4","last_reported":1731568165,"current_range_meters":28800,"station_id":"ce4bhnp2rcd13ifvqgvg","pricing_plan_id":"cebpf4jnsgd1na2vs0mg"},{"bike_id":"69190c37-1086-4d53-b9bb-7b1787cbf076","system_id":"levelo_inurba_marseille","lat":43.287262,"lon":5.360862,"is_reserved":false,"is_disabled":false,"rental_uris":{"android":"levelo://app?vid=69190c37-1086-4d53-b9bb-7b1787cbf076","ios":"levelo://app?vid=69190c37-1086-4d53-b9bb-7b1787cbf076"},"vehicle_type_id":"4","last_reported":1731568165,"current_range_meters":35600,"station_id":"ce4bh312rcd13ifvqdj0","pricing_plan_id":"cebpf4jnsgd1na2vs0mg"},{"bike_id":"b64af34c-4cdf-474a-9735-d719d3d9d718","system_id":"levelo_inurba_marseille","lat":43.30461,"lon":5.3791,"is_reserved":false,"is_disabled":false,"rental_uris":{"android":"levelo://app?vid=b64af34c-4cdf-474a-9735-d719d3d9d718","ios":"levelo://app?vid=b64af34c-4cdf-474a-9735-d719d3d9d718"},"vehicle_type_id":"4","last_reported":1731568165,"current_range_meters":39200,"station_id":"ce4bgup2rcd13ifvqcn0","pricing_plan_id":"cebpf4jnsgd1na2vs0mg"},{"bike_id":"dcd38d4b-307c-44aa-b09c-13a07e26f7c8","system_id":"levelo_inurba_marseille","lat":43.27067,"lon":5.42273,"is_reserved":false,"is_disabled":false,"rental_uris":{"android":"levelo://app?vid=dcd38d4b-307c-44aa-b09c-13a07e26f7c8","ios":"levelo://app?vid=dcd38d4b-307c-44aa-b09c-13a07e26f7c8"},"vehicle_type_id":"4","last_reported":1731568165,"current_range_meters":19200,"station_id":"ce4bhk92rcd13ifvqgb0","pricing_plan_id":"cebpf4jnsgd1na2vs0mg"},{"bike_id":"3a7c1686-16fb-43f9-a859-6da762d7feac","system_id":"levelo_inurba_marseille","lat":43.30778,"lon":5.37643,"is_reserved":false,"is_disabled":false,"rental_uris":{"android":"levelo://app?vid=3a7c1686-16fb-43f9-a859-6da762d7feac","ios":"levelo://app?vid=3a7c1686-16fb-43f9-a859-6da762d7feac"},"vehicle_type_id":"4","last_reported":1731568165,"current_range_meters":39200,"station_id":"ce4bgv92rcd13ifvqcq0","pricing_plan_id":"cebpf4jnsgd1na2vs0mg"},{"bike_id":"deeb86ad-6988-4b1a-861c-2717a7c11d1e","system_id":"levelo_inurba_marseille","lat":43.28151,"lon":5.42646,"is_reserved":false,"is_disabled":false,"rental_uris":{"android":"levelo://app?vid=deeb86ad-6988-4b1a-861c-2717a7c11d1e","ios":"levelo://app?vid=deeb86ad-6988-4b1a-861c-2717a7c11d1e"},"vehicle_type_id":"4","last_reported":1731568165,"current_range_meters":39200,"station_id":"ce4bhnh2rcd13ifvqgug","pricing_plan_id":"cebpf4jnsgd1na2vs0mg"},{"bike_id":"10f83ea1-21fc-49d5-934a-4b6f18d7a2b7","system_id":"levelo_inurba_marseille","lat":43.33607,"lon":5.41049,"is_reserved":false,"is_disabled":false,"rental_uris":{"android":"levelo://app?vid=10f83ea1-21fc-49d5-934a-4b6f18d7a2b7","ios":"levelo://app?vid=10f83ea1-21fc-49d5-934a-4b6f18d7a2b7"},"vehicle_type_id":"4","last_reported":1731568165,"current_range_meters":38800,"station_id":"ce4bhqh2rcd13ifvqhmg","pricing_plan_id":"cebpf4jnsgd1na2vs0mg"},{"bike_id":"4808bd98-ce9e-4a4a-a591-d68af470e387","system_id":"levelo_inurba_marseille","lat":43.25003,"lon":5.38925,"is_reserved":false,"is_disabled":false,"rental_uris":{"android":"levelo://app?vid=4808bd98-ce9e-4a4a-a591-d68af470e387","ios":"levelo://app?vid=4808bd98-ce9e-4a4a-a591-d68af470e387"},"vehicle_type_id":"4","last_reported":1731568165,"current_range_meters":37600,"station_id":"ce4bhgp2rcd13ifvqfd0","pricing_plan_id":"cebpf4jnsgd1na2vs0mg"},{"bike_id":"1bcae4b7-3d44-40a1-b35f-3b9e0255fa03","system_id":"levelo_inurba_marseille","lat":43.29972,"lon":5.38482,"is_reserved":false,"is_disabled":false,"rental_uris":{"android":"levelo://app?vid=1bcae4b7-3d44-40a1-b35f-3b9e0255fa03","ios":"levelo://app?vid=1bcae4b7-3d44-40a1-b35f-3b9e0255fa03"},"vehicle_type_id":"4","last_reported":1731568165,"current_range_meters":36800,"station_id":"ce4bh0p2rcd13ifvqd80","pricing_plan_id":"cebpf4jnsgd1na2vs0mg"},{"bike_id":"4a74f469-1d99-48ee-a8ca-9199898c00a4","system_id":"levelo_inurba_marseille","lat":43.23205,"lon":5.35546,"is_reserved":false,"is_disabled":false,"rental_uris":{"android":"levelo://app?vid=4a74f469-1d99-48ee-a8ca-9199898c00a4","ios":"levelo://app?vid=4a74f469-1d99-48ee-a8ca-9199898c00a4"},"vehicle_type_id":"4","last_reported":1731568165,"current_range_meters":22800,"station_id":"ce4bhu92rcd13ifvqi70","pricing_plan_id":"cebpf4jnsgd1na2vs0mg"},{"bike_id":"4f2bb6b2-d88a-4aec-9fa7-f9f94afa0d0f","system_id":"levelo_inurba_marseille","lat":43.26921,"lon":5.38902,"is_reserved":false,"is_disabled":false,"rental_uris":{"android":"levelo://app?vid=4f2bb6b2-d88a-4aec-9fa7-f9f94afa0d0f","ios":"levelo://app?vid=4f2bb6b2-d88a-4aec-9fa7-f9f94afa0d0f"},"vehicle_type_id":"4","last_reported":1731568165,"current_range_meters":36000,"station_id":"ce4bhhh2rcd13ifvqfl0","pricing_plan_id":"cebpf4jnsgd1na2vs0mg"},{"bike_id":"dafd56e6-4f75-4b61-b4e0-5b75d8c1a00c","system_id":"levelo_inurba_marseille","lat":43.2872,"lon":5.36082,"is_reserved":false,"is_disabled":false,"rental_uris":{"android":"levelo://app?vid=dafd56e6-4f75-4b61-b4e0-5b75d8c1a00c","ios":"levelo://app?vid=dafd56e6-4f75-4b61-b4e0-5b75d8c1a00c"},"vehicle_type_id":"4","last_reported":1731568165,"current_range_meters":36400,"station_id":"cki0cbj6b192h4jlfktg","pricing_plan_id":"cebpf4jnsgd1na2vs0mg"},{"bike_id":"58807b2d-b058-4cab-b862-d68a4feac04f","system_id":"levelo_inurba_marseille","lat":43.279266,"lon":5.380061,"is_reserved":false,"is_disabled":false,"rental_uris":{"android":"levelo://app?vid=58807b2d-b058-4cab-b862-d68a4feac04f","ios":"levelo://app?vid=58807b2d-b058-4cab-b862-d68a4feac04f"},"vehicle_type_id":"4","last_reported":1731568165,"current_range_meters":26000,"station_id":"ce4bhh92rcd13ifvqfj0","pricing_plan_id":"cebpf4jnsgd1na2vs0mg"},{"bike_id":"14ab9193-04bb-4abc-887b-1cab1a7e8170","system_id":"levelo_inurba_marseille","lat":43.24075,"lon":5.37758,"is_reserved":false,"is_disabled":false,"rental_uris":{"android":"levelo://app?vid=14ab9193-04bb-4abc-887b-1cab1a7e8170","ios":"levelo://app?vid=14ab9193-04bb-4abc-887b-1cab1a7e8170"},"vehicle_type_id":"4","last_reported":1731568165,"current_range_meters":32800,"station_id":"ce4bhnp2rcd13ifvqgvg","pricing_plan_id":"cebpf4jnsgd1na2vs0mg"},{"bike_id":"c2880181-016e-412f-bb5f-618a02063312","system_id":"levelo_inurba_marseille","lat":43.28942,"lon":5.36644,"is_reserved":false,"is_disabled":false,"rental_uris":{"android":"levelo://app?vid=c2880181-016e-412f-bb5f-618a02063312","ios":"levelo://app?vid=c2880181-016e-412f-bb5f-618a02063312"},"vehicle_type_id":"4","last_reported":1731568165,"current_range_meters":38800,"station_id":"ce4bhap2rcd13ifvqek0","pricing_plan_id":"cebpf4jnsgd1na2vs0mg"},{"bike_id":"4b1abe0a-9f48-4536-a8fc-6a4c289408b8","system_id":"levelo_inurba_marseille","lat":43.30551,"lon":5.36709,"is_reserved":false,"is_disabled":false,"rental_uris":{"android":"levelo://app?vid=4b1abe0a-9f48-4536-a8fc-6a4c289408b8","ios":"levelo://app?vid=4b1abe0a-9f48-4536-a8fc-6a4c289408b8"},"vehicle_type_id":"4","last_reported":1731568165,"current_range_meters":39200,"station_id":"ce4bgrp2rcd13ifvqc9g","pricing_plan_id":"cebpf4jnsgd1na2vs0mg"},{"bike_id":"47c967a5-3c8a-4d73-a522-90111361a0a0","system_id":"levelo_inurba_marseille","lat":43.324743,"lon":5.365741,"is_reserved":false,"is_disabled":false,"rental_uris":{"android":"levelo://app?vid=47c967a5-3c8a-4d73-a522-90111361a0a0","ios":"levelo://app?vid=47c967a5-3c8a-4d73-a522-90111361a0a0"},"vehicle_type_id":"4","last_reported":1731568165,"current_range_meters":38000,"station_id":"ce4bhs12rcd13ifvqhvg","pricing_plan_id":"cebpf4jnsgd1na2vs0mg"},{"bike_id":"b401526e-9797-412b-a024-2aeff2654ce6","system_id":"levelo_inurba_marseille","lat":43.27932,"lon":5.35498,"is_reserved":false,"is_disabled":false,"rental_uris":{"android":"levelo://app?vid=b401526e-9797-412b-a024-2aeff2654ce6","ios":"levelo://app?vid=b401526e-9797-412b-a024-2aeff2654ce6"},"vehicle_type_id":"4","last_reported":1731568165,"current_range_meters":6800,"station_id":"","pricing_plan_id":"cebpf4jnsgd1na2vs0mg"},{"bike_id":"d90d861b-f246-48e4-b5c6-8f100bd8f91c","system_id":"levelo_inurba_marseille","lat":43.25086,"lon":5.39517,"is_reserved":false,"is_disabled":false,"rental_uris":{"android":"levelo://app?vid=d90d861b-f246-48e4-b5c6-8f100bd8f91c","ios":"levelo://app?vid=d90d861b-f246-48e4-b5c6-8f100bd8f91c"},"vehicle_type_id":"4","last_reported":1731568165,"current_range_meters":25200,"station_id":"ce4bhm12rcd13ifvqgkg","pricing_plan_id":"cebpf4jnsgd1na2vs0mg"},{"bike_id":"6bd25cf4-db8a-4e02-ac4e-15e026c39951","system_id":"levelo_inurba_marseille","lat":43.25441,"lon":5.38103,"is_reserved":false,"is_disabled":false,"rental_uris":{"android":"levelo://app?vid=6bd25cf4-db8a-4e02-ac4e-15e026c39951","ios":"levelo://app?vid=6bd25cf4-db8a-4e02-ac4e-15e026c39951"},"vehicle_type_id":"4","last_reported":1731568165,"current_range_meters":38000,"station_id":"ce4bhih2rcd13ifvqfs0","pricing_plan_id":"cebpf4jnsgd1na2vs0mg"},{"bike_id":"884c3eea-4219-4f9c-954c-8a12e6e92d39","system_id":"levelo_inurba_marseille","lat":43.284893,"lon":5.385629,"is_reserved":false,"is_disabled":false,"rental_uris":{"android":"levelo://app?vid=884c3eea-4219-4f9c-954c-8a12e6e92d39","ios":"levelo://app?vid=884c3eea-4219-4f9c-954c-8a12e6e92d39"},"vehicle_type_id":"4","last_reported":1731568165,"current_range_meters":24800,"station_id":"ce4bh8p2rcd13ifvqeb0","pricing_plan_id":"cebpf4jnsgd1na2vs0mg"},{"bike_id":"6cf1d4c1-819d-442e-bb10-22d496efc5aa","system_id":"levelo_inurba_marseille","lat":43.26572,"lon":5.39003,"is_reserved":false,"is_disabled":false,"rental_uris":{"android":"levelo://app?vid=6cf1d4c1-819d-442e-bb10-22d496efc5aa","ios":"levelo://app?vid=6cf1d4c1-819d-442e-bb10-22d496efc5aa"},"vehicle_type_id":"4","last_reported":1731568165,"current_range_meters":8800,"station_id":"ce4bhe12rcd13ifvqf30","pricing_plan_id":"cebpf4jnsgd1na2vs0mg"},{"bike_id":"ba072c81-68e1-461a-864f-4e07b99f5aff","system_id":"levelo_inurba_marseille","lat":43.30469,"lon":5.37912,"is_reserved":false,"is_disabled":false,"rental_uris":{"android":"levelo://app?vid=ba072c81-68e1-461a-864f-4e07b99f5aff","ios":"levelo://app?vid=ba072c81-68e1-461a-864f-4e07b99f5aff"},"vehicle_type_id":"4","last_reported":1731568165,"current_range_meters":19600,"station_id":"ce4bgup2rcd13ifvqcn0","pricing_plan_id":"cebpf4jnsgd1na2vs0mg"},{"bike_id":"315d2c84-923e-49a6-90b5-e2544bd16496","system_id":"levelo_inurba_marseille","lat":43.23978,"lon":5.36648,"is_reserved":false,"is_disabled":false,"rental_uris":{"android":"levelo://app?vid=315d2c84-923e-49a6-90b5-e2544bd16496","ios":"levelo://app?vid=315d2c84-923e-49a6-90b5-e2544bd16496"},"vehicle_type_id":"4","last_reported":1731568165,"current_range_meters":32400,"station_id":"ce4bhi12rcd13ifvqfp0","pricing_plan_id":"cebpf4jnsgd1na2vs0mg"},{"bike_id":"94db2fb9-cf4a-480e-ba5d-fd4c37a2218a","system_id":"levelo_inurba_marseille","lat":43.31759,"lon":5.39019,"is_reserved":false,"is_disabled":false,"rental_uris":{"android":"levelo://app?vid=94db2fb9-cf4a-480e-ba5d-fd4c37a2218a","ios":"levelo://app?vid=94db2fb9-cf4a-480e-ba5d-fd4c37a2218a"},"vehicle_type_id":"4","last_reported":1731568165,"current_range_meters":36400,"station_id":"ce4bhqp2rcd13ifvqhng","pricing_plan_id":"cebpf4jnsgd1na2vs0mg"},{"bike_id":"b93995ae-8aa6-4301-9697-0fd0c9558986","system_id":"levelo_inurba_marseille","lat":43.29188,"lon":5.39317,"is_reserved":false,"is_disabled":false,"rental_uris":{"android":"levelo://app?vid=b93995ae-8aa6-4301-9697-0fd0c9558986","ios":"levelo://app?vid=b93995ae-8aa6-4301-9697-0fd0c9558986"},"vehicle_type_id":"4","last_reported":1731568165,"current_range_meters":38000,"station_id":"ce4bh192rcd13ifvqdd0","pricing_plan_id":"cebpf4jnsgd1na2vs0mg"},{"bike_id":"75e5e499-5141-4755-97eb-31d76921c718","system_id":"levelo_inurba_marseille","lat":43.29171,"lon":5.37158,"is_reserved":false,"is_disabled":false,"rental_uris":{"android":"levelo://app?vid=75e5e499-5141-4755-97eb-31d76921c718","ios":"levelo://app?vid=75e5e499-5141-4755-97eb-31d76921c718"},"vehicle_type_id":"4","last_reported":1731568165,"current_range_meters":38000,"station_id":"ce4bha92rcd13ifvqeh0","pricing_plan_id":"cebpf4jnsgd1na2vs0mg"},{"bike_id":"460294fb-fd20-42e7-85c5-d0e52643477f","system_id":"levelo_inurba_marseille","lat":43.27491,"lon":5.42453,"is_reserved":false,"is_disabled":false,"rental_uris":{"android":"levelo://app?vid=460294fb-fd20-42e7-85c5-d0e52643477f","ios":"levelo://app?vid=460294fb-fd20-42e7-85c5-d0e52643477f"},"vehicle_type_id":"4","last_reported":1731568165,"current_range_meters":7200,"station_id":"ce4bhn92rcd13ifvqgrg","pricing_plan_id":"cebpf4jnsgd1na2vs0mg"},{"bike_id":"9680f9be-2844-4975-b871-a2364dd53e90","system_id":"levelo_inurba_marseille","lat":43.29582,"lon":5.36739,"is_reserved":false,"is_disabled":false,"rental_uris":{"android":"levelo://app?vid=9680f9be-2844-4975-b871-a2364dd53e90","ios":"levelo://app?vid=9680f9be-2844-4975-b871-a2364dd53e90"},"vehicle_type_id":"4","last_reported":1731568165,"current_range_meters":36400,"station_id":"ce4bgph2rcd13ifvqc2g","pricing_plan_id":"cebpf4jnsgd1na2vs0mg"},{"bike_id":"df699764-ae9c-431c-88bb-28d619346779","system_id":"levelo_inurba_marseille","lat":43.2721,"lon":5.3918,"is_reserved":false,"is_disabled":false,"rental_uris":{"android":"levelo://app?vid=df699764-ae9c-431c-88bb-28d619346779","ios":"levelo://app?vid=df699764-ae9c-431c-88bb-28d619346779"},"vehicle_type_id":"4","last_reported":1731568165,"current_range_meters":26000,"station_id":"ce4bhhp2rcd13ifvqfm0","pricing_plan_id":"cebpf4jnsgd1na2vs0mg"},{"bike_id":"88f4a0ea-f89b-4e50-88f3-da55f603f69a","system_id":"levelo_inurba_marseille","lat":43.32102,"lon":5.36779,"is_reserved":false,"is_disabled":false,"rental_uris":{"android":"levelo://app?vid=88f4a0ea-f89b-4e50-88f3-da55f603f69a","ios":"levelo://app?vid=88f4a0ea-f89b-4e50-88f3-da55f603f69a"},"vehicle_type_id":"4","last_reported":1731568165,"current_range_meters":16800,"station_id":"ce4bhrh2rcd13ifvqhug","pricing_plan_id":"cebpf4jnsgd1na2vs0mg"},{"bike_id":"d5248d2b-5b98-4ab1-bb99-9a959d0082a8","system_id":"levelo_inurba_marseille","lat":43.30534,"lon":5.36557,"is_reserved":false,"is_disabled":false,"rental_uris":{"android":"levelo://app?vid=d5248d2b-5b98-4ab1-bb99-9a959d0082a8","ios":"levelo://app?vid=d5248d2b-5b98-4ab1-bb99-9a959d0082a8"},"vehicle_type_id":"4","last_reported":1731568165,"current_range_meters":5600,"station_id":"ce4bgs12rcd13ifvqcag","pricing_plan_id":"cebpf4jnsgd1na2vs0mg"},{"bike_id":"335d719c-dcd4-4d3c-bda8-c2d72a49aa64","system_id":"levelo_inurba_marseille","lat":43.309072,"lon":5.402739,"is_reserved":false,"is_disabled":false,"rental_uris":{"android":"levelo://app?vid=335d719c-dcd4-4d3c-bda8-c2d72a49aa64","ios":"levelo://app?vid=335d719c-dcd4-4d3c-bda8-c2d72a49aa64"},"vehicle_type_id":"4","last_reported":1731568165,"current_range_meters":37600,"station_id":"","pricing_plan_id":"cebpf4jnsgd1na2vs0mg"},{"bike_id":"d5546b3d-b68f-4967-8be4-c4d9c5ae5537","system_id":"levelo_inurba_marseille","lat":43.30586,"lon":5.39357,"is_reserved":false,"is_disabled":false,"rental_uris":{"android":"levelo://app?vid=d5546b3d-b68f-4967-8be4-c4d9c5ae5537","ios":"levelo://app?vid=d5546b3d-b68f-4967-8be4-c4d9c5ae5537"},"vehicle_type_id":"4","last_reported":1731568165,"current_range_meters":28800,"station_id":"ce4bh0p2rcd13ifvqd80","pricing_plan_id":"cebpf4jnsgd1na2vs0mg"},{"bike_id":"203e76b4-b6a7-4141-81bb-1c6c13698fa7","system_id":"levelo_inurba_marseille","lat":43.28153,"lon":5.42648,"is_reserved":false,"is_disabled":false,"rental_uris":{"android":"levelo://app?vid=203e76b4-b6a7-4141-81bb-1c6c13698fa7","ios":"levelo://app?vid=203e76b4-b6a7-4141-81bb-1c6c13698fa7"},"vehicle_type_id":"4","last_reported":1731568165,"current_range_meters":39200,"station_id":"ce4bhnh2rcd13ifvqgug","pricing_plan_id":"cebpf4jnsgd1na2vs0mg"},{"bike_id":"817849d8-25eb-48a4-b155-e11b87f519ff","system_id":"levelo_inurba_marseille","lat":43.30541,"lon":5.36539,"is_reserved":false,"is_disabled":false,"rental_uris":{"android":"levelo://app?vid=817849d8-25eb-48a4-b155-e11b87f519ff","ios":"levelo://app?vid=817849d8-25eb-48a4-b155-e11b87f519ff"},"vehicle_type_id":"4","last_reported":1731568165,"current_range_meters":38000,"station_id":"ce4bgs12rcd13ifvqcag","pricing_plan_id":"cebpf4jnsgd1na2vs0mg"},{"bike_id":"fd9fc422-4e48-45eb-837e-7e53b85fe799","system_id":"levelo_inurba_marseille","lat":43.2586,"lon":5.39903,"is_reserved":false,"is_disabled":false,"rental_uris":{"android":"levelo://app?vid=fd9fc422-4e48-45eb-837e-7e53b85fe799","ios":"levelo://app?vid=fd9fc422-4e48-45eb-837e-7e53b85fe799"},"vehicle_type_id":"4","last_reported":1731568165,"current_range_meters":31200,"station_id":"ce4bhl92rcd13ifvqghg","pricing_plan_id":"cebpf4jnsgd1na2vs0mg"},{"bike_id":"c673c85a-59de-4b62-b9d3-423f8c623f79","system_id":"levelo_inurba_marseille","lat":43.29277,"lon":5.36841,"is_reserved":false,"is_disabled":false,"rental_uris":{"android":"levelo://app?vid=c673c85a-59de-4b62-b9d3-423f8c623f79","ios":"levelo://app?vid=c673c85a-59de-4b62-b9d3-423f8c623f79"},"vehicle_type_id":"4","last_reported":1731568165,"current_range_meters":36000,"station_id":"ce4bhbp2rcd13ifvqesg","pricing_plan_id":"cebpf4jnsgd1na2vs0mg"},{"bike_id":"5a7f78f9-3714-4ba5-8338-4401bb3b862a","system_id":"levelo_inurba_marseille","lat":43.30472,"lon":5.37901,"is_reserved":false,"is_disabled":false,"rental_uris":{"android":"levelo://app?vid=5a7f78f9-3714-4ba5-8338-4401bb3b862a","ios":"levelo://app?vid=5a7f78f9-3714-4ba5-8338-4401bb3b862a"},"vehicle_type_id":"4","last_reported":1731568165,"current_range_meters":25600,"station_id":"ce4bgup2rcd13ifvqcn0","pricing_plan_id":"cebpf4jnsgd1na2vs0mg"},{"bike_id":"4fb8b7ae-277b-4572-a3ac-da30ea9cb92c","system_id":"levelo_inurba_marseille","lat":43.27977,"lon":5.38734,"is_reserved":false,"is_disabled":false,"rental_uris":{"android":"levelo://app?vid=4fb8b7ae-277b-4572-a3ac-da30ea9cb92c","ios":"levelo://app?vid=4fb8b7ae-277b-4572-a3ac-da30ea9cb92c"},"vehicle_type_id":"4","last_reported":1731568165,"current_range_meters":38800,"station_id":"","pricing_plan_id":"cebpf4jnsgd1na2vs0mg"},{"bike_id":"e5e2a9ef-c304-480e-b91c-bb0b02b2faeb","system_id":"levelo_inurba_marseille","lat":43.29771,"lon":5.3804,"is_reserved":false,"is_disabled":false,"rental_uris":{"android":"levelo://app?vid=e5e2a9ef-c304-480e-b91c-bb0b02b2faeb","ios":"levelo://app?vid=e5e2a9ef-c304-480e-b91c-bb0b02b2faeb"},"vehicle_type_id":"4","last_reported":1731568165,"current_range_meters":39200,"station_id":"ce4bgip2rcd13ifvqbb0","pricing_plan_id":"cebpf4jnsgd1na2vs0mg"},{"bike_id":"05ef0e5c-fc94-4eeb-bfa5-5f0566aac8e5","system_id":"levelo_inurba_marseille","lat":43.24181,"lon":5.39729,"is_reserved":false,"is_disabled":false,"rental_uris":{"android":"levelo://app?vid=05ef0e5c-fc94-4eeb-bfa5-5f0566aac8e5","ios":"levelo://app?vid=05ef0e5c-fc94-4eeb-bfa5-5f0566aac8e5"},"vehicle_type_id":"4","last_reported":1731568165,"current_range_meters":35600,"station_id":"ce4bhn12rcd13ifvqgpg","pricing_plan_id":"cebpf4jnsgd1na2vs0mg"},{"bike_id":"d99bff46-e3e0-4c25-9719-3fa3dd9a1a6e","system_id":"levelo_inurba_marseille","lat":43.31577,"lon":5.37284,"is_reserved":false,"is_disabled":false,"rental_uris":{"android":"levelo://app?vid=d99bff46-e3e0-4c25-9719-3fa3dd9a1a6e","ios":"levelo://app?vid=d99bff46-e3e0-4c25-9719-3fa3dd9a1a6e"},"vehicle_type_id":"4","last_reported":1731568165,"current_range_meters":21600,"station_id":"ce4bgt12rcd13ifvqcd0","pricing_plan_id":"cebpf4jnsgd1na2vs0mg"},{"bike_id":"50f953f9-da0b-4fcf-a81f-4fc9538513d1","system_id":"levelo_inurba_marseille","lat":43.2696,"lon":5.38631,"is_reserved":false,"is_disabled":false,"rental_uris":{"android":"levelo://app?vid=50f953f9-da0b-4fcf-a81f-4fc9538513d1","ios":"levelo://app?vid=50f953f9-da0b-4fcf-a81f-4fc9538513d1"},"vehicle_type_id":"4","last_reported":1731568165,"current_range_meters":39200,"station_id":"ce4bhh92rcd13ifvqfh0","pricing_plan_id":"cebpf4jnsgd1na2vs0mg"},{"bike_id":"e2e2fbf4-0c1a-4b24-85d8-09094ab8d3e5","system_id":"levelo_inurba_marseille","lat":43.26956,"lon":5.38624,"is_reserved":false,"is_disabled":false,"rental_uris":{"android":"levelo://app?vid=e2e2fbf4-0c1a-4b24-85d8-09094ab8d3e5","ios":"levelo://app?vid=e2e2fbf4-0c1a-4b24-85d8-09094ab8d3e5"},"vehicle_type_id":"4","last_reported":1731568165,"current_range_meters":8400,"station_id":"ce4bhh92rcd13ifvqfh0","pricing_plan_id":"cebpf4jnsgd1na2vs0mg"},{"bike_id":"4fdc22e4-3195-4481-aa5f-d85cf878ac6a","system_id":"levelo_inurba_marseille","lat":43.30605,"lon":5.3722,"is_reserved":false,"is_disabled":false,"rental_uris":{"android":"levelo://app?vid=4fdc22e4-3195-4481-aa5f-d85cf878ac6a","ios":"levelo://app?vid=4fdc22e4-3195-4481-aa5f-d85cf878ac6a"},"vehicle_type_id":"4","last_reported":1731568165,"current_range_meters":32800,"station_id":"ce4bgqh2rcd13ifvqc4g","pricing_plan_id":"cebpf4jnsgd1na2vs0mg"},{"bike_id":"07df449b-4274-4142-8432-30fbab1e34c7","system_id":"levelo_inurba_marseille","lat":43.316925,"lon":5.423986,"is_reserved":false,"is_disabled":false,"rental_uris":{"android":"levelo://app?vid=07df449b-4274-4142-8432-30fbab1e34c7","ios":"levelo://app?vid=07df449b-4274-4142-8432-30fbab1e34c7"},"vehicle_type_id":"4","last_reported":1731568165,"current_range_meters":6400,"station_id":"ce4bhp92rcd13ifvqhbg","pricing_plan_id":"cebpf4jnsgd1na2vs0mg"},{"bike_id":"9df40997-fc4d-46fa-b68a-d858b9f0e787","system_id":"levelo_inurba_marseille","lat":43.27992,"lon":5.41659,"is_reserved":false,"is_disabled":false,"rental_uris":{"android":"levelo://app?vid=9df40997-fc4d-46fa-b68a-d858b9f0e787","ios":"levelo://app?vid=9df40997-fc4d-46fa-b68a-d858b9f0e787"},"vehicle_type_id":"4","last_reported":1731568165,"current_range_meters":37600,"station_id":"ce4bho12rcd13ifvqh1g","pricing_plan_id":"cebpf4jnsgd1na2vs0mg"},{"bike_id":"30efcd49-4a6c-4e89-a5a0-ea98b66830c6","system_id":"levelo_inurba_marseille","lat":43.30466,"lon":5.37916,"is_reserved":false,"is_disabled":false,"rental_uris":{"android":"levelo://app?vid=30efcd49-4a6c-4e89-a5a0-ea98b66830c6","ios":"levelo://app?vid=30efcd49-4a6c-4e89-a5a0-ea98b66830c6"},"vehicle_type_id":"4","last_reported":1731568165,"current_range_meters":8800,"station_id":"ce4bgup2rcd13ifvqcn0","pricing_plan_id":"cebpf4jnsgd1na2vs0mg"},{"bike_id":"1f82fd4c-c516-4a93-bc94-937e463bfe2a","system_id":"levelo_inurba_marseille","lat":43.28419,"lon":5.34992,"is_reserved":false,"is_disabled":false,"rental_uris":{"android":"levelo://app?vid=1f82fd4c-c516-4a93-bc94-937e463bfe2a","ios":"levelo://app?vid=1f82fd4c-c516-4a93-bc94-937e463bfe2a"},"vehicle_type_id":"4","last_reported":1731568165,"current_range_meters":38000,"station_id":"ce4bhbh2rcd13ifvqepg","pricing_plan_id":"cebpf4jnsgd1na2vs0mg"},{"bike_id":"98815e11-316c-46d0-a9a4-8247fa6ca6a0","system_id":"levelo_inurba_marseille","lat":43.31702,"lon":5.40464,"is_reserved":false,"is_disabled":false,"rental_uris":{"android":"levelo://app?vid=98815e11-316c-46d0-a9a4-8247fa6ca6a0","ios":"levelo://app?vid=98815e11-316c-46d0-a9a4-8247fa6ca6a0"},"vehicle_type_id":"4","last_reported":1731568165,"current_range_meters":25200,"station_id":"ce4bh012rcd13ifvqd00","pricing_plan_id":"cebpf4jnsgd1na2vs0mg"},{"bike_id":"b70ecfda-b601-466d-8c93-b3b7d926fdea","system_id":"levelo_inurba_marseille","lat":43.29444,"lon":5.39742,"is_reserved":false,"is_disabled":false,"rental_uris":{"android":"levelo://app?vid=b70ecfda-b601-466d-8c93-b3b7d926fdea","ios":"levelo://app?vid=b70ecfda-b601-466d-8c93-b3b7d926fdea"},"vehicle_type_id":"4","last_reported":1731568165,"current_range_meters":32000,"station_id":"ce4bh3h2rcd13ifvqdo0","pricing_plan_id":"cebpf4jnsgd1na2vs0mg"},{"bike_id":"a64b2e87-dfc1-4098-aac6-83156bb73f66","system_id":"levelo_inurba_marseille","lat":43.25001,"lon":5.38932,"is_reserved":false,"is_disabled":false,"rental_uris":{"android":"levelo://app?vid=a64b2e87-dfc1-4098-aac6-83156bb73f66","ios":"levelo://app?vid=a64b2e87-dfc1-4098-aac6-83156bb73f66"},"vehicle_type_id":"4","last_reported":1731568165,"current_range_meters":29600,"station_id":"ce4bhgp2rcd13ifvqfd0","pricing_plan_id":"cebpf4jnsgd1na2vs0mg"},{"bike_id":"951c8b8e-a6b8-42ee-955c-4959438259e1","system_id":"levelo_inurba_marseille","lat":43.26962,"lon":5.3864,"is_reserved":false,"is_disabled":false,"rental_uris":{"android":"levelo://app?vid=951c8b8e-a6b8-42ee-955c-4959438259e1","ios":"levelo://app?vid=951c8b8e-a6b8-42ee-955c-4959438259e1"},"vehicle_type_id":"4","last_reported":1731568165,"current_range_meters":7200,"station_id":"ce4bhh92rcd13ifvqfh0","pricing_plan_id":"cebpf4jnsgd1na2vs0mg"},{"bike_id":"adf6d005-fa58-4531-8a7d-3b2a244cc8c7","system_id":"levelo_inurba_marseille","lat":43.29767,"lon":5.36798,"is_reserved":false,"is_disabled":false,"rental_uris":{"android":"levelo://app?vid=adf6d005-fa58-4531-8a7d-3b2a244cc8c7","ios":"levelo://app?vid=adf6d005-fa58-4531-8a7d-3b2a244cc8c7"},"vehicle_type_id":"4","last_reported":1731568165,"current_range_meters":24800,"station_id":"","pricing_plan_id":"cebpf4jnsgd1na2vs0mg"},{"bike_id":"914f27dd-74b7-4f35-b47e-8a8370e6e61d","system_id":"levelo_inurba_marseille","lat":43.30467,"lon":5.37906,"is_reserved":false,"is_disabled":false,"rental_uris":{"android":"levelo://app?vid=914f27dd-74b7-4f35-b47e-8a8370e6e61d","ios":"levelo://app?vid=914f27dd-74b7-4f35-b47e-8a8370e6e61d"},"vehicle_type_id":"4","last_reported":1731568165,"current_range_meters":30800,"station_id":"ce4bgup2rcd13ifvqcn0","pricing_plan_id":"cebpf4jnsgd1na2vs0mg"},{"bike_id":"e7176aa2-d3c2-43a2-b061-c0a4679ce72f","system_id":"levelo_inurba_marseille","lat":43.29844,"lon":5.36268,"is_reserved":false,"is_disabled":false,"rental_uris":{"android":"levelo://app?vid=e7176aa2-d3c2-43a2-b061-c0a4679ce72f","ios":"levelo://app?vid=e7176aa2-d3c2-43a2-b061-c0a4679ce72f"},"vehicle_type_id":"4","last_reported":1731568165,"current_range_meters":30800,"station_id":"ce4bgpp2rcd13ifvqc3g","pricing_plan_id":"cebpf4jnsgd1na2vs0mg"},{"bike_id":"4d588559-87d9-4b67-ac55-1a3523c0923d","system_id":"levelo_inurba_marseille","lat":43.29892,"lon":5.43659,"is_reserved":false,"is_disabled":false,"rental_uris":{"android":"levelo://app?vid=4d588559-87d9-4b67-ac55-1a3523c0923d","ios":"levelo://app?vid=4d588559-87d9-4b67-ac55-1a3523c0923d"},"vehicle_type_id":"4","last_reported":1731568165,"current_range_meters":38800,"station_id":"ce4bhpp2rcd13ifvqhfg","pricing_plan_id":"cebpf4jnsgd1na2vs0mg"},{"bike_id":"2d16809b-b950-4ab3-9ebf-e094f3c550af","system_id":"levelo_inurba_marseille","lat":43.31694,"lon":5.40462,"is_reserved":false,"is_disabled":false,"rental_uris":{"android":"levelo://app?vid=2d16809b-b950-4ab3-9ebf-e094f3c550af","ios":"levelo://app?vid=2d16809b-b950-4ab3-9ebf-e094f3c550af"},"vehicle_type_id":"4","last_reported":1731568165,"current_range_meters":25600,"station_id":"ce4bh012rcd13ifvqd00","pricing_plan_id":"cebpf4jnsgd1na2vs0mg"},{"bike_id":"ee3de632-4a9d-4476-a736-5887d9114126","system_id":"levelo_inurba_marseille","lat":43.2894,"lon":5.3664,"is_reserved":false,"is_disabled":false,"rental_uris":{"android":"levelo://app?vid=ee3de632-4a9d-4476-a736-5887d9114126","ios":"levelo://app?vid=ee3de632-4a9d-4476-a736-5887d9114126"},"vehicle_type_id":"4","last_reported":1731568165,"current_range_meters":18000,"station_id":"ce4bhap2rcd13ifvqek0","pricing_plan_id":"cebpf4jnsgd1na2vs0mg"},{"bike_id":"9cae69d7-aac5-4b0d-a08f-325ae6451574","system_id":"levelo_inurba_marseille","lat":43.275543,"lon":5.396072,"is_reserved":false,"is_disabled":false,"rental_uris":{"android":"levelo://app?vid=9cae69d7-aac5-4b0d-a08f-325ae6451574","ios":"levelo://app?vid=9cae69d7-aac5-4b0d-a08f-325ae6451574"},"vehicle_type_id":"4","last_reported":1731568165,"current_range_meters":6800,"station_id":"ce4bhdp2rcd13ifvqf20","pricing_plan_id":"cebpf4jnsgd1na2vs0mg"},{"bike_id":"49807534-6bf7-4697-ad04-8800b4688794","system_id":"levelo_inurba_marseille","lat":43.28416,"lon":5.37504,"is_reserved":false,"is_disabled":false,"rental_uris":{"android":"levelo://app?vid=49807534-6bf7-4697-ad04-8800b4688794","ios":"levelo://app?vid=49807534-6bf7-4697-ad04-8800b4688794"},"vehicle_type_id":"4","last_reported":1731568165,"current_range_meters":19200,"station_id":"ce4bh412rcd13ifvqds0","pricing_plan_id":"cebpf4jnsgd1na2vs0mg"},{"bike_id":"2dfe3ff7-15f1-44d8-8056-486b409d3678","system_id":"levelo_inurba_marseille","lat":43.31691,"lon":5.40467,"is_reserved":false,"is_disabled":false,"rental_uris":{"android":"levelo://app?vid=2dfe3ff7-15f1-44d8-8056-486b409d3678","ios":"levelo://app?vid=2dfe3ff7-15f1-44d8-8056-486b409d3678"},"vehicle_type_id":"4","last_reported":1731568165,"current_range_meters":35600,"station_id":"ce4bh012rcd13ifvqd00","pricing_plan_id":"cebpf4jnsgd1na2vs0mg"},{"bike_id":"60772716-e7dc-486d-bb43-68a64c782644","system_id":"levelo_inurba_marseille","lat":43.25939,"lon":5.40908,"is_reserved":false,"is_disabled":false,"rental_uris":{"android":"levelo://app?vid=60772716-e7dc-486d-bb43-68a64c782644","ios":"levelo://app?vid=60772716-e7dc-486d-bb43-68a64c782644"},"vehicle_type_id":"4","last_reported":1731568165,"current_range_meters":28000,"station_id":"ce4bhm92rcd13ifvqglg","pricing_plan_id":"cebpf4jnsgd1na2vs0mg"},{"bike_id":"8963f262-bdcb-43f5-9e37-237198779ba8","system_id":"levelo_inurba_marseille","lat":43.33773,"lon":5.37442,"is_reserved":false,"is_disabled":false,"rental_uris":{"android":"levelo://app?vid=8963f262-bdcb-43f5-9e37-237198779ba8","ios":"levelo://app?vid=8963f262-bdcb-43f5-9e37-237198779ba8"},"vehicle_type_id":"4","last_reported":1731568165,"current_range_meters":34800,"station_id":"","pricing_plan_id":"cebpf4jnsgd1na2vs0mg"},{"bike_id":"131d5275-8201-4abf-89e3-9cd3bb0ce7b5","system_id":"levelo_inurba_marseille","lat":43.306834,"lon":5.380212,"is_reserved":false,"is_disabled":false,"rental_uris":{"android":"levelo://app?vid=131d5275-8201-4abf-89e3-9cd3bb0ce7b5","ios":"levelo://app?vid=131d5275-8201-4abf-89e3-9cd3bb0ce7b5"},"vehicle_type_id":"4","last_reported":1731568165,"current_range_meters":34000,"station_id":"","pricing_plan_id":"cebpf4jnsgd1na2vs0mg"},{"bike_id":"398b47b3-a042-4cec-b1dd-254773a78263","system_id":"levelo_inurba_marseille","lat":43.27409,"lon":5.38945,"is_reserved":false,"is_disabled":false,"rental_uris":{"android":"levelo://app?vid=398b47b3-a042-4cec-b1dd-254773a78263","ios":"levelo://app?vid=398b47b3-a042-4cec-b1dd-254773a78263"},"vehicle_type_id":"4","last_reported":1731568165,"current_range_meters":6400,"station_id":"","pricing_plan_id":"cebpf4jnsgd1na2vs0mg"},{"bike_id":"2e9bfb20-c726-4dff-9f4b-93c0d95af472","system_id":"levelo_inurba_marseille","lat":43.2407,"lon":5.37765,"is_reserved":false,"is_disabled":false,"rental_uris":{"android":"levelo://app?vid=2e9bfb20-c726-4dff-9f4b-93c0d95af472","ios":"levelo://app?vid=2e9bfb20-c726-4dff-9f4b-93c0d95af472"},"vehicle_type_id":"4","last_reported":1731568165,"current_range_meters":14000,"station_id":"ce4bhnp2rcd13ifvqgvg","pricing_plan_id":"cebpf4jnsgd1na2vs0mg"},{"bike_id":"aca23579-0a19-4a4b-a12f-57b0591e79bd","system_id":"levelo_inurba_marseille","lat":43.24082,"lon":5.3775,"is_reserved":false,"is_disabled":false,"rental_uris":{"android":"levelo://app?vid=aca23579-0a19-4a4b-a12f-57b0591e79bd","ios":"levelo://app?vid=aca23579-0a19-4a4b-a12f-57b0591e79bd"},"vehicle_type_id":"4","last_reported":1731568165,"current_range_meters":28400,"station_id":"ce4bhnp2rcd13ifvqgvg","pricing_plan_id":"cebpf4jnsgd1na2vs0mg"},{"bike_id":"44d4aeee-f0c2-4734-b402-fb62f0186632","system_id":"levelo_inurba_marseille","lat":43.24384,"lon":5.37049,"is_reserved":false,"is_disabled":false,"rental_uris":{"android":"levelo://app?vid=44d4aeee-f0c2-4734-b402-fb62f0186632","ios":"levelo://app?vid=44d4aeee-f0c2-4734-b402-fb62f0186632"},"vehicle_type_id":"4","last_reported":1731568165,"current_range_meters":29600,"station_id":"ce4bhhh2rcd13ifvqfk0","pricing_plan_id":"cebpf4jnsgd1na2vs0mg"},{"bike_id":"0781ccd2-99d8-4f03-8754-2f0fc4e34d2f","system_id":"levelo_inurba_marseille","lat":43.29259,"lon":5.40166,"is_reserved":false,"is_disabled":false,"rental_uris":{"android":"levelo://app?vid=0781ccd2-99d8-4f03-8754-2f0fc4e34d2f","ios":"levelo://app?vid=0781ccd2-99d8-4f03-8754-2f0fc4e34d2f"},"vehicle_type_id":"4","last_reported":1731568165,"current_range_meters":27200,"station_id":"ce4bh312rcd13ifvqdk0","pricing_plan_id":"cebpf4jnsgd1na2vs0mg"},{"bike_id":"bfa67605-738a-4a04-8785-ac934e987ef3","system_id":"levelo_inurba_marseille","lat":43.31695,"lon":5.40463,"is_reserved":false,"is_disabled":false,"rental_uris":{"android":"levelo://app?vid=bfa67605-738a-4a04-8785-ac934e987ef3","ios":"levelo://app?vid=bfa67605-738a-4a04-8785-ac934e987ef3"},"vehicle_type_id":"4","last_reported":1731568165,"current_range_meters":38800,"station_id":"ce4bh012rcd13ifvqd00","pricing_plan_id":"cebpf4jnsgd1na2vs0mg"},{"bike_id":"92e3ad17-17c9-4714-a148-ef9436ad6113","system_id":"levelo_inurba_marseille","lat":43.22938,"lon":5.3538,"is_reserved":false,"is_disabled":false,"rental_uris":{"android":"levelo://app?vid=92e3ad17-17c9-4714-a148-ef9436ad6113","ios":"levelo://app?vid=92e3ad17-17c9-4714-a148-ef9436ad6113"},"vehicle_type_id":"4","last_reported":1731568165,"current_range_meters":39200,"station_id":"cpo3532slgdg3j2ikp40","pricing_plan_id":"cebpf4jnsgd1na2vs0mg"},{"bike_id":"187a7fa8-9afd-4d26-b5e7-6a10712e67a7","system_id":"levelo_inurba_marseille","lat":43.23147,"lon":5.43714,"is_reserved":false,"is_disabled":false,"rental_uris":{"android":"levelo://app?vid=187a7fa8-9afd-4d26-b5e7-6a10712e67a7","ios":"levelo://app?vid=187a7fa8-9afd-4d26-b5e7-6a10712e67a7"},"vehicle_type_id":"4","last_reported":1731568165,"current_range_meters":39200,"station_id":"ce4bhmp2rcd13ifvqgog","pricing_plan_id":"cebpf4jnsgd1na2vs0mg"},{"bike_id":"0f8efc19-3255-42a2-a1ec-cb067590a67d","system_id":"levelo_inurba_marseille","lat":43.3134,"lon":5.36702,"is_reserved":false,"is_disabled":false,"rental_uris":{"android":"levelo://app?vid=0f8efc19-3255-42a2-a1ec-cb067590a67d","ios":"levelo://app?vid=0f8efc19-3255-42a2-a1ec-cb067590a67d"},"vehicle_type_id":"4","last_reported":1731568165,"current_range_meters":24800,"station_id":"ce4bgr92rcd13ifvqc6g","pricing_plan_id":"cebpf4jnsgd1na2vs0mg"},{"bike_id":"187dab1e-6f52-4db4-a1d6-a502ef5495b2","system_id":"levelo_inurba_marseille","lat":43.28646,"lon":5.38357,"is_reserved":false,"is_disabled":false,"rental_uris":{"android":"levelo://app?vid=187dab1e-6f52-4db4-a1d6-a502ef5495b2","ios":"levelo://app?vid=187dab1e-6f52-4db4-a1d6-a502ef5495b2"},"vehicle_type_id":"4","last_reported":1731568165,"current_range_meters":32000,"station_id":"","pricing_plan_id":"cebpf4jnsgd1na2vs0mg"},{"bike_id":"beb7b9bd-a544-4d0c-b0ee-a6204f3f5108","system_id":"levelo_inurba_marseille","lat":43.291962,"lon":5.385193,"is_reserved":false,"is_disabled":false,"rental_uris":{"android":"levelo://app?vid=beb7b9bd-a544-4d0c-b0ee-a6204f3f5108","ios":"levelo://app?vid=beb7b9bd-a544-4d0c-b0ee-a6204f3f5108"},"vehicle_type_id":"4","last_reported":1731568165,"current_range_meters":25600,"station_id":"","pricing_plan_id":"cebpf4jnsgd1na2vs0mg"},{"bike_id":"82f309e6-c4ae-421f-89cb-1d64a8e0ef10","system_id":"levelo_inurba_marseille","lat":43.337444,"lon":5.374475,"is_reserved":false,"is_disabled":false,"rental_uris":{"android":"levelo://app?vid=82f309e6-c4ae-421f-89cb-1d64a8e0ef10","ios":"levelo://app?vid=82f309e6-c4ae-421f-89cb-1d64a8e0ef10"},"vehicle_type_id":"4","last_reported":1731568165,"current_range_meters":33600,"station_id":"","pricing_plan_id":"cebpf4jnsgd1na2vs0mg"},{"bike_id":"5419d154-3ce9-4c40-9294-d16b9d2b3431","system_id":"levelo_inurba_marseille","lat":43.337444,"lon":5.374475,"is_reserved":false,"is_disabled":false,"rental_uris":{"android":"levelo://app?vid=5419d154-3ce9-4c40-9294-d16b9d2b3431","ios":"levelo://app?vid=5419d154-3ce9-4c40-9294-d16b9d2b3431"},"vehicle_type_id":"4","last_reported":1731568165,"current_range_meters":33600,"station_id":"","pricing_plan_id":"cebpf4jnsgd1na2vs0mg"},{"bike_id":"bbccb9e3-5219-4b42-bd52-3b1dd85c5465","system_id":"levelo_inurba_marseille","lat":43.31483,"lon":5.37309,"is_reserved":false,"is_disabled":false,"rental_uris":{"android":"levelo://app?vid=bbccb9e3-5219-4b42-bd52-3b1dd85c5465","ios":"levelo://app?vid=bbccb9e3-5219-4b42-bd52-3b1dd85c5465"},"vehicle_type_id":"4","last_reported":1731568165,"current_range_meters":28400,"station_id":"ce4bgt12rcd13ifvqcd0","pricing_plan_id":"cebpf4jnsgd1na2vs0mg"},{"bike_id":"0e0b9fff-c27a-44a3-adbb-781da27f4685","system_id":"levelo_inurba_marseille","lat":43.30581,"lon":5.39351,"is_reserved":false,"is_disabled":false,"rental_uris":{"android":"levelo://app?vid=0e0b9fff-c27a-44a3-adbb-781da27f4685","ios":"levelo://app?vid=0e0b9fff-c27a-44a3-adbb-781da27f4685"},"vehicle_type_id":"4","last_reported":1731568165,"current_range_meters":34000,"station_id":"ce4bh0p2rcd13ifvqd80","pricing_plan_id":"cebpf4jnsgd1na2vs0mg"},{"bike_id":"6e4ab7d2-c1df-4ea4-bb4b-2f5c43ed5717","system_id":"levelo_inurba_marseille","lat":43.33768,"lon":5.37439,"is_reserved":false,"is_disabled":false,"rental_uris":{"android":"levelo://app?vid=6e4ab7d2-c1df-4ea4-bb4b-2f5c43ed5717","ios":"levelo://app?vid=6e4ab7d2-c1df-4ea4-bb4b-2f5c43ed5717"},"vehicle_type_id":"4","last_reported":1731568165,"current_range_meters":33600,"station_id":"","pricing_plan_id":"cebpf4jnsgd1na2vs0mg"},{"bike_id":"d03bea96-afe9-45e7-be84-00d441bc8751","system_id":"levelo_inurba_marseille","lat":43.29715,"lon":5.3769,"is_reserved":false,"is_disabled":false,"rental_uris":{"android":"levelo://app?vid=d03bea96-afe9-45e7-be84-00d441bc8751","ios":"levelo://app?vid=d03bea96-afe9-45e7-be84-00d441bc8751"},"vehicle_type_id":"4","last_reported":1731568165,"current_range_meters":8800,"station_id":"ce4bgkh2rcd13ifvqbl0","pricing_plan_id":"cebpf4jnsgd1na2vs0mg"},{"bike_id":"2e10cc50-770f-4f75-be0f-4e12b149451d","system_id":"levelo_inurba_marseille","lat":43.31887,"lon":5.40737,"is_reserved":false,"is_disabled":false,"rental_uris":{"android":"levelo://app?vid=2e10cc50-770f-4f75-be0f-4e12b149451d","ios":"levelo://app?vid=2e10cc50-770f-4f75-be0f-4e12b149451d"},"vehicle_type_id":"4","last_reported":1731568165,"current_range_meters":38800,"station_id":"ce4bhq12rcd13ifvqhig","pricing_plan_id":"cebpf4jnsgd1na2vs0mg"},{"bike_id":"956b0e11-d66d-499b-a1ef-f74ac0cb077e","system_id":"levelo_inurba_marseille","lat":43.27074,"lon":5.42275,"is_reserved":false,"is_disabled":false,"rental_uris":{"android":"levelo://app?vid=956b0e11-d66d-499b-a1ef-f74ac0cb077e","ios":"levelo://app?vid=956b0e11-d66d-499b-a1ef-f74ac0cb077e"},"vehicle_type_id":"4","last_reported":1731568165,"current_range_meters":29600,"station_id":"ce4bhk92rcd13ifvqgb0","pricing_plan_id":"cebpf4jnsgd1na2vs0mg"},{"bike_id":"bf572986-72e5-4ae6-bf1e-d22b0a1d0215","system_id":"levelo_inurba_marseille","lat":43.311843,"lon":5.387162,"is_reserved":false,"is_disabled":false,"rental_uris":{"android":"levelo://app?vid=bf572986-72e5-4ae6-bf1e-d22b0a1d0215","ios":"levelo://app?vid=bf572986-72e5-4ae6-bf1e-d22b0a1d0215"},"vehicle_type_id":"4","last_reported":1731568165,"current_range_meters":7200,"station_id":"ce4bgv12rcd13ifvqcp0","pricing_plan_id":"cebpf4jnsgd1na2vs0mg"},{"bike_id":"9415868c-ff49-470b-96bd-0b4dd1de7fb5","system_id":"levelo_inurba_marseille","lat":43.280384,"lon":5.369381,"is_reserved":false,"is_disabled":false,"rental_uris":{"android":"levelo://app?vid=9415868c-ff49-470b-96bd-0b4dd1de7fb5","ios":"levelo://app?vid=9415868c-ff49-470b-96bd-0b4dd1de7fb5"},"vehicle_type_id":"4","last_reported":1731568165,"current_range_meters":38800,"station_id":"ce4bha12rcd13ifvqef0","pricing_plan_id":"cebpf4jnsgd1na2vs0mg"},{"bike_id":"42744b5d-4b77-4c92-808c-ebf462138a5f","system_id":"levelo_inurba_marseille","lat":43.31557,"lon":5.38622,"is_reserved":false,"is_disabled":false,"rental_uris":{"android":"levelo://app?vid=42744b5d-4b77-4c92-808c-ebf462138a5f","ios":"levelo://app?vid=42744b5d-4b77-4c92-808c-ebf462138a5f"},"vehicle_type_id":"4","last_reported":1731568165,"current_range_meters":24800,"station_id":"","pricing_plan_id":"cebpf4jnsgd1na2vs0mg"},{"bike_id":"c9d041c0-acec-4cf4-bba2-e01a92441368","system_id":"levelo_inurba_marseille","lat":43.337444,"lon":5.374475,"is_reserved":false,"is_disabled":false,"rental_uris":{"android":"levelo://app?vid=c9d041c0-acec-4cf4-bba2-e01a92441368","ios":"levelo://app?vid=c9d041c0-acec-4cf4-bba2-e01a92441368"},"vehicle_type_id":"4","last_reported":1731568165,"current_range_meters":32400,"station_id":"","pricing_plan_id":"cebpf4jnsgd1na2vs0mg"},{"bike_id":"2b3fd0e1-260e-44db-b3a5-4a184e9b2c76","system_id":"levelo_inurba_marseille","lat":43.290344,"lon":5.379366,"is_reserved":false,"is_disabled":false,"rental_uris":{"android":"levelo://app?vid=2b3fd0e1-260e-44db-b3a5-4a184e9b2c76","ios":"levelo://app?vid=2b3fd0e1-260e-44db-b3a5-4a184e9b2c76"},"vehicle_type_id":"4","last_reported":1731568165,"current_range_meters":31200,"station_id":"ce4bhah2rcd13ifvqej0","pricing_plan_id":"cebpf4jnsgd1na2vs0mg"},{"bike_id":"38bbdcff-2bf0-472f-b7a7-55224c74f01e","system_id":"levelo_inurba_marseille","lat":43.28846,"lon":5.35835,"is_reserved":false,"is_disabled":false,"rental_uris":{"android":"levelo://app?vid=38bbdcff-2bf0-472f-b7a7-55224c74f01e","ios":"levelo://app?vid=38bbdcff-2bf0-472f-b7a7-55224c74f01e"},"vehicle_type_id":"4","last_reported":1731568165,"current_range_meters":36800,"station_id":"ce4bhb12rcd13ifvqem0","pricing_plan_id":"cebpf4jnsgd1na2vs0mg"},{"bike_id":"c6cf657c-b796-4dc1-8cad-c9652f0a389c","system_id":"levelo_inurba_marseille","lat":43.300323,"lon":5.430804,"is_reserved":false,"is_disabled":false,"rental_uris":{"android":"levelo://app?vid=c6cf657c-b796-4dc1-8cad-c9652f0a389c","ios":"levelo://app?vid=c6cf657c-b796-4dc1-8cad-c9652f0a389c"},"vehicle_type_id":"4","last_reported":1731568165,"current_range_meters":38800,"station_id":"ce4bhop2rcd13ifvqh7g","pricing_plan_id":"cebpf4jnsgd1na2vs0mg"},{"bike_id":"4788d8b7-1907-48c7-aac1-097c5755fb35","system_id":"levelo_inurba_marseille","lat":43.28721,"lon":5.37935,"is_reserved":false,"is_disabled":false,"rental_uris":{"android":"levelo://app?vid=4788d8b7-1907-48c7-aac1-097c5755fb35","ios":"levelo://app?vid=4788d8b7-1907-48c7-aac1-097c5755fb35"},"vehicle_type_id":"4","last_reported":1731568165,"current_range_meters":33200,"station_id":"ce4bh9p2rcd13ifvqec0","pricing_plan_id":"cebpf4jnsgd1na2vs0mg"},{"bike_id":"df66abf0-5814-42dd-b2a3-5842fb95e6fb","system_id":"levelo_inurba_marseille","lat":43.3414,"lon":5.40921,"is_reserved":false,"is_disabled":false,"rental_uris":{"android":"levelo://app?vid=df66abf0-5814-42dd-b2a3-5842fb95e6fb","ios":"levelo://app?vid=df66abf0-5814-42dd-b2a3-5842fb95e6fb"},"vehicle_type_id":"4","last_reported":1731568165,"current_range_meters":30000,"station_id":"ce4bhqh2rcd13ifvqhlg","pricing_plan_id":"cebpf4jnsgd1na2vs0mg"},{"bike_id":"7cc35c5c-f760-4acf-9c94-feed88d1dd83","system_id":"levelo_inurba_marseille","lat":43.24072,"lon":5.3776,"is_reserved":false,"is_disabled":false,"rental_uris":{"android":"levelo://app?vid=7cc35c5c-f760-4acf-9c94-feed88d1dd83","ios":"levelo://app?vid=7cc35c5c-f760-4acf-9c94-feed88d1dd83"},"vehicle_type_id":"4","last_reported":1731568165,"current_range_meters":37600,"station_id":"ce4bhnp2rcd13ifvqgvg","pricing_plan_id":"cebpf4jnsgd1na2vs0mg"},{"bike_id":"41216786-c537-48ee-ba23-962247c384b3","system_id":"levelo_inurba_marseille","lat":43.30467,"lon":5.37908,"is_reserved":false,"is_disabled":false,"rental_uris":{"android":"levelo://app?vid=41216786-c537-48ee-ba23-962247c384b3","ios":"levelo://app?vid=41216786-c537-48ee-ba23-962247c384b3"},"vehicle_type_id":"4","last_reported":1731568165,"current_range_meters":38800,"station_id":"ce4bgup2rcd13ifvqcn0","pricing_plan_id":"cebpf4jnsgd1na2vs0mg"},{"bike_id":"97f76cf1-f002-4139-9163-e81a50f30670","system_id":"levelo_inurba_marseille","lat":43.27497,"lon":5.4245,"is_reserved":false,"is_disabled":false,"rental_uris":{"android":"levelo://app?vid=97f76cf1-f002-4139-9163-e81a50f30670","ios":"levelo://app?vid=97f76cf1-f002-4139-9163-e81a50f30670"},"vehicle_type_id":"4","last_reported":1731568165,"current_range_meters":36000,"station_id":"ce4bhn92rcd13ifvqgrg","pricing_plan_id":"cebpf4jnsgd1na2vs0mg"},{"bike_id":"944f9039-56ac-427f-b954-5a769afa512a","system_id":"levelo_inurba_marseille","lat":43.29801,"lon":5.38111,"is_reserved":false,"is_disabled":false,"rental_uris":{"android":"levelo://app?vid=944f9039-56ac-427f-b954-5a769afa512a","ios":"levelo://app?vid=944f9039-56ac-427f-b954-5a769afa512a"},"vehicle_type_id":"4","last_reported":1731568165,"current_range_meters":20400,"station_id":"ce4bgip2rcd13ifvqbb0","pricing_plan_id":"cebpf4jnsgd1na2vs0mg"},{"bike_id":"994ae73e-b160-43d9-817d-790c5daccc4d","system_id":"levelo_inurba_marseille","lat":43.30155,"lon":5.38084,"is_reserved":false,"is_disabled":false,"rental_uris":{"android":"levelo://app?vid=994ae73e-b160-43d9-817d-790c5daccc4d","ios":"levelo://app?vid=994ae73e-b160-43d9-817d-790c5daccc4d"},"vehicle_type_id":"4","last_reported":1731568165,"current_range_meters":37600,"station_id":"ce4bgjp2rcd13ifvqbh0","pricing_plan_id":"cebpf4jnsgd1na2vs0mg"},{"bike_id":"77ca5bdc-0211-4ec2-8505-ae813951942f","system_id":"levelo_inurba_marseille","lat":43.27493,"lon":5.4245,"is_reserved":false,"is_disabled":false,"rental_uris":{"android":"levelo://app?vid=77ca5bdc-0211-4ec2-8505-ae813951942f","ios":"levelo://app?vid=77ca5bdc-0211-4ec2-8505-ae813951942f"},"vehicle_type_id":"4","last_reported":1731568165,"current_range_meters":29600,"station_id":"ce4bhn92rcd13ifvqgrg","pricing_plan_id":"cebpf4jnsgd1na2vs0mg"},{"bike_id":"f0fe31f0-77b1-4606-96c4-e39595ce46a8","system_id":"levelo_inurba_marseille","lat":43.27497,"lon":5.42447,"is_reserved":false,"is_disabled":false,"rental_uris":{"android":"levelo://app?vid=f0fe31f0-77b1-4606-96c4-e39595ce46a8","ios":"levelo://app?vid=f0fe31f0-77b1-4606-96c4-e39595ce46a8"},"vehicle_type_id":"4","last_reported":1731568165,"current_range_meters":37600,"station_id":"ce4bhn92rcd13ifvqgrg","pricing_plan_id":"cebpf4jnsgd1na2vs0mg"},{"bike_id":"4b09a844-598b-47fd-b89b-9a6ffb3358d9","system_id":"levelo_inurba_marseille","lat":43.32539,"lon":5.41426,"is_reserved":false,"is_disabled":false,"rental_uris":{"android":"levelo://app?vid=4b09a844-598b-47fd-b89b-9a6ffb3358d9","ios":"levelo://app?vid=4b09a844-598b-47fd-b89b-9a6ffb3358d9"},"vehicle_type_id":"4","last_reported":1731568165,"current_range_meters":19600,"station_id":"ce4bhq12rcd13ifvqhhg","pricing_plan_id":"cebpf4jnsgd1na2vs0mg"},{"bike_id":"afe2e088-4a36-4017-9dde-ff8c960d2821","system_id":"levelo_inurba_marseille","lat":43.34145,"lon":5.40913,"is_reserved":false,"is_disabled":false,"rental_uris":{"android":"levelo://app?vid=afe2e088-4a36-4017-9dde-ff8c960d2821","ios":"levelo://app?vid=afe2e088-4a36-4017-9dde-ff8c960d2821"},"vehicle_type_id":"4","last_reported":1731568165,"current_range_meters":30400,"station_id":"ce4bhqh2rcd13ifvqhlg","pricing_plan_id":"cebpf4jnsgd1na2vs0mg"},{"bike_id":"538d573f-c786-4bfd-a9d7-bb7ea496cfe9","system_id":"levelo_inurba_marseille","lat":43.28346,"lon":5.38117,"is_reserved":false,"is_disabled":false,"rental_uris":{"android":"levelo://app?vid=538d573f-c786-4bfd-a9d7-bb7ea496cfe9","ios":"levelo://app?vid=538d573f-c786-4bfd-a9d7-bb7ea496cfe9"},"vehicle_type_id":"4","last_reported":1731568165,"current_range_meters":6000,"station_id":"ce4bh412rcd13ifvqdr0","pricing_plan_id":"cebpf4jnsgd1na2vs0mg"},{"bike_id":"0ab6ffaf-c727-40ea-8b19-4b5aa5726236","system_id":"levelo_inurba_marseille","lat":43.30599,"lon":5.39356,"is_reserved":false,"is_disabled":false,"rental_uris":{"android":"levelo://app?vid=0ab6ffaf-c727-40ea-8b19-4b5aa5726236","ios":"levelo://app?vid=0ab6ffaf-c727-40ea-8b19-4b5aa5726236"},"vehicle_type_id":"4","last_reported":1731568165,"current_range_meters":33200,"station_id":"ce4bh0p2rcd13ifvqd80","pricing_plan_id":"cebpf4jnsgd1na2vs0mg"},{"bike_id":"337ea833-1b01-4041-a864-7a3676c066d7","system_id":"levelo_inurba_marseille","lat":43.2707,"lon":5.4227,"is_reserved":false,"is_disabled":false,"rental_uris":{"android":"levelo://app?vid=337ea833-1b01-4041-a864-7a3676c066d7","ios":"levelo://app?vid=337ea833-1b01-4041-a864-7a3676c066d7"},"vehicle_type_id":"4","last_reported":1731568165,"current_range_meters":38800,"station_id":"ce4bhk92rcd13ifvqgb0","pricing_plan_id":"cebpf4jnsgd1na2vs0mg"},{"bike_id":"7616a63e-4040-448c-a84b-1c511a4e52ab","system_id":"levelo_inurba_marseille","lat":43.31072,"lon":5.38352,"is_reserved":false,"is_disabled":false,"rental_uris":{"android":"levelo://app?vid=7616a63e-4040-448c-a84b-1c511a4e52ab","ios":"levelo://app?vid=7616a63e-4040-448c-a84b-1c511a4e52ab"},"vehicle_type_id":"4","last_reported":1731568165,"current_range_meters":16400,"station_id":"ce4bgv92rcd13ifvqcr0","pricing_plan_id":"cebpf4jnsgd1na2vs0mg"},{"bike_id":"2b7d50ef-9a61-4209-b8f1-3f971410cd24","system_id":"levelo_inurba_marseille","lat":43.317,"lon":5.40468,"is_reserved":false,"is_disabled":false,"rental_uris":{"android":"levelo://app?vid=2b7d50ef-9a61-4209-b8f1-3f971410cd24","ios":"levelo://app?vid=2b7d50ef-9a61-4209-b8f1-3f971410cd24"},"vehicle_type_id":"4","last_reported":1731568165,"current_range_meters":10800,"station_id":"ce4bh012rcd13ifvqd00","pricing_plan_id":"cebpf4jnsgd1na2vs0mg"},{"bike_id":"19609f5c-b5f0-4273-b980-7077f8b26026","system_id":"levelo_inurba_marseille","lat":43.29794,"lon":5.38102,"is_reserved":false,"is_disabled":false,"rental_uris":{"android":"levelo://app?vid=19609f5c-b5f0-4273-b980-7077f8b26026","ios":"levelo://app?vid=19609f5c-b5f0-4273-b980-7077f8b26026"},"vehicle_type_id":"4","last_reported":1731568165,"current_range_meters":12400,"station_id":"ce4bgip2rcd13ifvqbb0","pricing_plan_id":"cebpf4jnsgd1na2vs0mg"},{"bike_id":"9e328efb-e0cc-4b46-aeae-6c1812186486","system_id":"levelo_inurba_marseille","lat":43.30459,"lon":5.37907,"is_reserved":false,"is_disabled":false,"rental_uris":{"android":"levelo://app?vid=9e328efb-e0cc-4b46-aeae-6c1812186486","ios":"levelo://app?vid=9e328efb-e0cc-4b46-aeae-6c1812186486"},"vehicle_type_id":"4","last_reported":1731568165,"current_range_meters":32000,"station_id":"ce4bgup2rcd13ifvqcn0","pricing_plan_id":"cebpf4jnsgd1na2vs0mg"},{"bike_id":"621d496c-c09a-4305-a748-453b79ab4ac0","system_id":"levelo_inurba_marseille","lat":43.29192,"lon":5.35811,"is_reserved":false,"is_disabled":false,"rental_uris":{"android":"levelo://app?vid=621d496c-c09a-4305-a748-453b79ab4ac0","ios":"levelo://app?vid=621d496c-c09a-4305-a748-453b79ab4ac0"},"vehicle_type_id":"4","last_reported":1731568165,"current_range_meters":38800,"station_id":"ce4bhb12rcd13ifvqel0","pricing_plan_id":"cebpf4jnsgd1na2vs0mg"},{"bike_id":"0017d6cf-6c90-4bf0-9626-a3ec2112cc8e","system_id":"levelo_inurba_marseille","lat":43.27907,"lon":5.38005,"is_reserved":false,"is_disabled":false,"rental_uris":{"android":"levelo://app?vid=0017d6cf-6c90-4bf0-9626-a3ec2112cc8e","ios":"levelo://app?vid=0017d6cf-6c90-4bf0-9626-a3ec2112cc8e"},"vehicle_type_id":"4","last_reported":1731568165,"current_range_meters":8800,"station_id":"ce4bhf92rcd13ifvqf50","pricing_plan_id":"cebpf4jnsgd1na2vs0mg"},{"bike_id":"84817729-7a11-4bfd-b918-6535d69c0b65","system_id":"levelo_inurba_marseille","lat":43.24073,"lon":5.37765,"is_reserved":false,"is_disabled":false,"rental_uris":{"android":"levelo://app?vid=84817729-7a11-4bfd-b918-6535d69c0b65","ios":"levelo://app?vid=84817729-7a11-4bfd-b918-6535d69c0b65"},"vehicle_type_id":"4","last_reported":1731568165,"current_range_meters":30000,"station_id":"ce4bhnp2rcd13ifvqgvg","pricing_plan_id":"cebpf4jnsgd1na2vs0mg"},{"bike_id":"9e7d822f-83cf-482f-9a99-578a090a5137","system_id":"levelo_inurba_marseille","lat":43.33763,"lon":5.37461,"is_reserved":false,"is_disabled":false,"rental_uris":{"android":"levelo://app?vid=9e7d822f-83cf-482f-9a99-578a090a5137","ios":"levelo://app?vid=9e7d822f-83cf-482f-9a99-578a090a5137"},"vehicle_type_id":"4","last_reported":1731568165,"current_range_meters":17600,"station_id":"","pricing_plan_id":"cebpf4jnsgd1na2vs0mg"},{"bike_id":"012927f2-0ce0-4abc-933c-6366952c031d","system_id":"levelo_inurba_marseille","lat":43.24184,"lon":5.39727,"is_reserved":false,"is_disabled":false,"rental_uris":{"android":"levelo://app?vid=012927f2-0ce0-4abc-933c-6366952c031d","ios":"levelo://app?vid=012927f2-0ce0-4abc-933c-6366952c031d"},"vehicle_type_id":"4","last_reported":1731568165,"current_range_meters":28000,"station_id":"ce4bhn12rcd13ifvqgpg","pricing_plan_id":"cebpf4jnsgd1na2vs0mg"},{"bike_id":"5e650c09-9797-4cff-aaa1-8c270f7edf72","system_id":"levelo_inurba_marseille","lat":43.30459,"lon":5.37914,"is_reserved":false,"is_disabled":false,"rental_uris":{"android":"levelo://app?vid=5e650c09-9797-4cff-aaa1-8c270f7edf72","ios":"levelo://app?vid=5e650c09-9797-4cff-aaa1-8c270f7edf72"},"vehicle_type_id":"4","last_reported":1731568165,"current_range_meters":26000,"station_id":"ce4bgup2rcd13ifvqcn0","pricing_plan_id":"cebpf4jnsgd1na2vs0mg"},{"bike_id":"5be06ff8-8d93-480d-a159-6024a9480b35","system_id":"levelo_inurba_marseille","lat":43.2834,"lon":5.38109,"is_reserved":false,"is_disabled":false,"rental_uris":{"android":"levelo://app?vid=5be06ff8-8d93-480d-a159-6024a9480b35","ios":"levelo://app?vid=5be06ff8-8d93-480d-a159-6024a9480b35"},"vehicle_type_id":"4","last_reported":1731568165,"current_range_meters":22400,"station_id":"ce4bh412rcd13ifvqdr0","pricing_plan_id":"cebpf4jnsgd1na2vs0mg"},{"bike_id":"e320d189-79ad-4b4b-8378-af120e211eb6","system_id":"levelo_inurba_marseille","lat":43.25939,"lon":5.40901,"is_reserved":false,"is_disabled":false,"rental_uris":{"android":"levelo://app?vid=e320d189-79ad-4b4b-8378-af120e211eb6","ios":"levelo://app?vid=e320d189-79ad-4b4b-8378-af120e211eb6"},"vehicle_type_id":"4","last_reported":1731568165,"current_range_meters":28800,"station_id":"ce4bhm92rcd13ifvqglg","pricing_plan_id":"cebpf4jnsgd1na2vs0mg"},{"bike_id":"bab82320-e6fc-48dd-9d66-dc00547e2081","system_id":"levelo_inurba_marseille","lat":43.26952,"lon":5.38621,"is_reserved":false,"is_disabled":false,"rental_uris":{"android":"levelo://app?vid=bab82320-e6fc-48dd-9d66-dc00547e2081","ios":"levelo://app?vid=bab82320-e6fc-48dd-9d66-dc00547e2081"},"vehicle_type_id":"4","last_reported":1731568165,"current_range_meters":32000,"station_id":"ce4bhh92rcd13ifvqfh0","pricing_plan_id":"cebpf4jnsgd1na2vs0mg"},{"bike_id":"7c9b8995-ac96-4708-b4eb-b4b17631b9d8","system_id":"levelo_inurba_marseille","lat":43.337444,"lon":5.374475,"is_reserved":false,"is_disabled":false,"rental_uris":{"android":"levelo://app?vid=7c9b8995-ac96-4708-b4eb-b4b17631b9d8","ios":"levelo://app?vid=7c9b8995-ac96-4708-b4eb-b4b17631b9d8"},"vehicle_type_id":"4","last_reported":1731568165,"current_range_meters":34000,"station_id":"","pricing_plan_id":"cebpf4jnsgd1na2vs0mg"},{"bike_id":"aa6bb8a3-6021-42ac-b0b1-22f50ff8e5e7","system_id":"levelo_inurba_marseille","lat":43.30886,"lon":5.36836,"is_reserved":false,"is_disabled":false,"rental_uris":{"android":"levelo://app?vid=aa6bb8a3-6021-42ac-b0b1-22f50ff8e5e7","ios":"levelo://app?vid=aa6bb8a3-6021-42ac-b0b1-22f50ff8e5e7"},"vehicle_type_id":"4","last_reported":1731568165,"current_range_meters":38800,"station_id":"ce4bgn92rcd13ifvqbvg","pricing_plan_id":"cebpf4jnsgd1na2vs0mg"},{"bike_id":"72f4d26f-8a48-4f8a-b506-c079c443a232","system_id":"levelo_inurba_marseille","lat":43.29191,"lon":5.35785,"is_reserved":false,"is_disabled":false,"rental_uris":{"android":"levelo://app?vid=72f4d26f-8a48-4f8a-b506-c079c443a232","ios":"levelo://app?vid=72f4d26f-8a48-4f8a-b506-c079c443a232"},"vehicle_type_id":"4","last_reported":1731568165,"current_range_meters":7200,"station_id":"ce4bhb12rcd13ifvqel0","pricing_plan_id":"cebpf4jnsgd1na2vs0mg"},{"bike_id":"a4df5d8f-a96e-44fd-a33c-a0551b9dcb5d","system_id":"levelo_inurba_marseille","lat":43.27057,"lon":5.42254,"is_reserved":false,"is_disabled":false,"rental_uris":{"android":"levelo://app?vid=a4df5d8f-a96e-44fd-a33c-a0551b9dcb5d","ios":"levelo://app?vid=a4df5d8f-a96e-44fd-a33c-a0551b9dcb5d"},"vehicle_type_id":"4","last_reported":1731568165,"current_range_meters":38800,"station_id":"ce4bhk92rcd13ifvqgb0","pricing_plan_id":"cebpf4jnsgd1na2vs0mg"},{"bike_id":"a592f289-7c17-4820-9105-4cfe6872b948","system_id":"levelo_inurba_marseille","lat":43.281539,"lon":5.426468,"is_reserved":false,"is_disabled":false,"rental_uris":{"android":"levelo://app?vid=a592f289-7c17-4820-9105-4cfe6872b948","ios":"levelo://app?vid=a592f289-7c17-4820-9105-4cfe6872b948"},"vehicle_type_id":"4","last_reported":1731568165,"current_range_meters":34800,"station_id":"ce4bhnh2rcd13ifvqgug","pricing_plan_id":"cebpf4jnsgd1na2vs0mg"},{"bike_id":"b3b5223c-5272-409d-bc43-d2e21832bcd1","system_id":"levelo_inurba_marseille","lat":43.30353,"lon":5.41872,"is_reserved":false,"is_disabled":false,"rental_uris":{"android":"levelo://app?vid=b3b5223c-5272-409d-bc43-d2e21832bcd1","ios":"levelo://app?vid=b3b5223c-5272-409d-bc43-d2e21832bcd1"},"vehicle_type_id":"4","last_reported":1731568165,"current_range_meters":38800,"station_id":"ce4bhop2rcd13ifvqh7g","pricing_plan_id":"cebpf4jnsgd1na2vs0mg"},{"bike_id":"845d5bd0-d1b4-4e61-a20c-2e02b3552b38","system_id":"levelo_inurba_marseille","lat":43.28488,"lon":5.38405,"is_reserved":false,"is_disabled":false,"rental_uris":{"android":"levelo://app?vid=845d5bd0-d1b4-4e61-a20c-2e02b3552b38","ios":"levelo://app?vid=845d5bd0-d1b4-4e61-a20c-2e02b3552b38"},"vehicle_type_id":"4","last_reported":1731568165,"current_range_meters":36000,"station_id":"ce4bh512rcd13ifvqe3g","pricing_plan_id":"cebpf4jnsgd1na2vs0mg"},{"bike_id":"05e1fca1-ddc2-4b44-be8c-57a27e93f2c5","system_id":"levelo_inurba_marseille","lat":43.31724,"lon":5.42405,"is_reserved":false,"is_disabled":false,"rental_uris":{"android":"levelo://app?vid=05e1fca1-ddc2-4b44-be8c-57a27e93f2c5","ios":"levelo://app?vid=05e1fca1-ddc2-4b44-be8c-57a27e93f2c5"},"vehicle_type_id":"4","last_reported":1731568165,"current_range_meters":37600,"station_id":"ce4bhp92rcd13ifvqhbg","pricing_plan_id":"cebpf4jnsgd1na2vs0mg"},{"bike_id":"27b4e9bd-df15-4424-acdd-3f5ada6cd854","system_id":"levelo_inurba_marseille","lat":43.26937,"lon":5.40246,"is_reserved":false,"is_disabled":false,"rental_uris":{"android":"levelo://app?vid=27b4e9bd-df15-4424-acdd-3f5ada6cd854","ios":"levelo://app?vid=27b4e9bd-df15-4424-acdd-3f5ada6cd854"},"vehicle_type_id":"4","last_reported":1731568165,"current_range_meters":38000,"station_id":"cjm6bp8fraef2m0cb0m0","pricing_plan_id":"cebpf4jnsgd1na2vs0mg"},{"bike_id":"a0075b00-286f-4bc2-b9a3-30fe35d4d52f","system_id":"levelo_inurba_marseille","lat":43.26798,"lon":5.39409,"is_reserved":false,"is_disabled":false,"rental_uris":{"android":"levelo://app?vid=a0075b00-286f-4bc2-b9a3-30fe35d4d52f","ios":"levelo://app?vid=a0075b00-286f-4bc2-b9a3-30fe35d4d52f"},"vehicle_type_id":"4","last_reported":1731568165,"current_range_meters":24400,"station_id":"ce4bhh12rcd13ifvqfg0","pricing_plan_id":"cebpf4jnsgd1na2vs0mg"},{"bike_id":"3aa9b374-6e8a-45d0-876f-578f97b2df9d","system_id":"levelo_inurba_marseille","lat":43.29821,"lon":5.38104,"is_reserved":false,"is_disabled":false,"rental_uris":{"android":"levelo://app?vid=3aa9b374-6e8a-45d0-876f-578f97b2df9d","ios":"levelo://app?vid=3aa9b374-6e8a-45d0-876f-578f97b2df9d"},"vehicle_type_id":"4","last_reported":1731568165,"current_range_meters":4000,"station_id":"ce4bgip2rcd13ifvqbb0","pricing_plan_id":"cebpf4jnsgd1na2vs0mg"},{"bike_id":"d6ba3878-4bad-451c-a0f0-13c7d61281b1","system_id":"levelo_inurba_marseille","lat":43.27677,"lon":5.38894,"is_reserved":false,"is_disabled":false,"rental_uris":{"android":"levelo://app?vid=d6ba3878-4bad-451c-a0f0-13c7d61281b1","ios":"levelo://app?vid=d6ba3878-4bad-451c-a0f0-13c7d61281b1"},"vehicle_type_id":"4","last_reported":1731568165,"current_range_meters":38800,"station_id":"ce4bhi12rcd13ifvqfo0","pricing_plan_id":"cebpf4jnsgd1na2vs0mg"},{"bike_id":"3dc2a228-079c-4072-8fd5-6a4d42db143f","system_id":"levelo_inurba_marseille","lat":43.31329,"lon":5.36714,"is_reserved":false,"is_disabled":false,"rental_uris":{"android":"levelo://app?vid=3dc2a228-079c-4072-8fd5-6a4d42db143f","ios":"levelo://app?vid=3dc2a228-079c-4072-8fd5-6a4d42db143f"},"vehicle_type_id":"4","last_reported":1731568165,"current_range_meters":12000,"station_id":"ce4bgr92rcd13ifvqc6g","pricing_plan_id":"cebpf4jnsgd1na2vs0mg"},{"bike_id":"93ca2130-aaf5-470f-9099-d847f3932292","system_id":"levelo_inurba_marseille","lat":43.24075,"lon":5.37756,"is_reserved":false,"is_disabled":false,"rental_uris":{"android":"levelo://app?vid=93ca2130-aaf5-470f-9099-d847f3932292","ios":"levelo://app?vid=93ca2130-aaf5-470f-9099-d847f3932292"},"vehicle_type_id":"4","last_reported":1731568165,"current_range_meters":32000,"station_id":"ce4bhnp2rcd13ifvqgvg","pricing_plan_id":"cebpf4jnsgd1na2vs0mg"},{"bike_id":"7735a892-8d6b-4a93-b64f-341778d38d92","system_id":"levelo_inurba_marseille","lat":43.33611,"lon":5.4102,"is_reserved":false,"is_disabled":false,"rental_uris":{"android":"levelo://app?vid=7735a892-8d6b-4a93-b64f-341778d38d92","ios":"levelo://app?vid=7735a892-8d6b-4a93-b64f-341778d38d92"},"vehicle_type_id":"4","last_reported":1731568165,"current_range_meters":26000,"station_id":"ce4bhqh2rcd13ifvqhmg","pricing_plan_id":"cebpf4jnsgd1na2vs0mg"},{"bike_id":"a4ec425c-e618-4c93-8518-14aaf2cc1493","system_id":"levelo_inurba_marseille","lat":43.31756,"lon":5.39023,"is_reserved":false,"is_disabled":false,"rental_uris":{"android":"levelo://app?vid=a4ec425c-e618-4c93-8518-14aaf2cc1493","ios":"levelo://app?vid=a4ec425c-e618-4c93-8518-14aaf2cc1493"},"vehicle_type_id":"4","last_reported":1731568165,"current_range_meters":38000,"station_id":"ce4bhqp2rcd13ifvqhng","pricing_plan_id":"cebpf4jnsgd1na2vs0mg"},{"bike_id":"104fa2e2-a293-4b8c-9a34-e0d1e535ae8f","system_id":"levelo_inurba_marseille","lat":43.27497,"lon":5.4245,"is_reserved":false,"is_disabled":false,"rental_uris":{"android":"levelo://app?vid=104fa2e2-a293-4b8c-9a34-e0d1e535ae8f","ios":"levelo://app?vid=104fa2e2-a293-4b8c-9a34-e0d1e535ae8f"},"vehicle_type_id":"4","last_reported":1731568165,"current_range_meters":31200,"station_id":"ce4bhn92rcd13ifvqgrg","pricing_plan_id":"cebpf4jnsgd1na2vs0mg"},{"bike_id":"0abb36a9-9c96-4529-86c6-6e9726160ec4","system_id":"levelo_inurba_marseille","lat":43.29094,"lon":5.38131,"is_reserved":false,"is_disabled":false,"rental_uris":{"android":"levelo://app?vid=0abb36a9-9c96-4529-86c6-6e9726160ec4","ios":"levelo://app?vid=0abb36a9-9c96-4529-86c6-6e9726160ec4"},"vehicle_type_id":"4","last_reported":1731568165,"current_range_meters":1600,"station_id":"ce4bh512rcd13ifvqe2g","pricing_plan_id":"cebpf4jnsgd1na2vs0mg"},{"bike_id":"30f551e5-ad89-4afc-8c3f-487fdfe57b29","system_id":"levelo_inurba_marseille","lat":43.28724,"lon":5.37938,"is_reserved":false,"is_disabled":false,"rental_uris":{"android":"levelo://app?vid=30f551e5-ad89-4afc-8c3f-487fdfe57b29","ios":"levelo://app?vid=30f551e5-ad89-4afc-8c3f-487fdfe57b29"},"vehicle_type_id":"4","last_reported":1731568165,"current_range_meters":35600,"station_id":"ce4bh9p2rcd13ifvqec0","pricing_plan_id":"cebpf4jnsgd1na2vs0mg"},{"bike_id":"dae5cfe0-b8b5-4b7f-a29e-18f7f77aa5ed","system_id":"levelo_inurba_marseille","lat":43.29932,"lon":5.38035,"is_reserved":false,"is_disabled":false,"rental_uris":{"android":"levelo://app?vid=dae5cfe0-b8b5-4b7f-a29e-18f7f77aa5ed","ios":"levelo://app?vid=dae5cfe0-b8b5-4b7f-a29e-18f7f77aa5ed"},"vehicle_type_id":"4","last_reported":1731568165,"current_range_meters":24800,"station_id":"","pricing_plan_id":"cebpf4jnsgd1na2vs0mg"},{"bike_id":"0a80c2f3-9d06-4ce6-9b02-954dff760d06","system_id":"levelo_inurba_marseille","lat":43.30755,"lon":5.4017,"is_reserved":false,"is_disabled":false,"rental_uris":{"android":"levelo://app?vid=0a80c2f3-9d06-4ce6-9b02-954dff760d06","ios":"levelo://app?vid=0a80c2f3-9d06-4ce6-9b02-954dff760d06"},"vehicle_type_id":"4","last_reported":1731568165,"current_range_meters":37600,"station_id":"ce4bhr12rcd13ifvqhpg","pricing_plan_id":"cebpf4jnsgd1na2vs0mg"},{"bike_id":"385ec239-505b-4595-908c-fb22d2b2039f","system_id":"levelo_inurba_marseille","lat":43.31338,"lon":5.36711,"is_reserved":false,"is_disabled":false,"rental_uris":{"android":"levelo://app?vid=385ec239-505b-4595-908c-fb22d2b2039f","ios":"levelo://app?vid=385ec239-505b-4595-908c-fb22d2b2039f"},"vehicle_type_id":"4","last_reported":1731568165,"current_range_meters":23200,"station_id":"ce4bgr92rcd13ifvqc6g","pricing_plan_id":"cebpf4jnsgd1na2vs0mg"},{"bike_id":"07ee4904-f535-458a-b0b5-2f7426ce7969","system_id":"levelo_inurba_marseille","lat":43.24081,"lon":5.37752,"is_reserved":false,"is_disabled":false,"rental_uris":{"android":"levelo://app?vid=07ee4904-f535-458a-b0b5-2f7426ce7969","ios":"levelo://app?vid=07ee4904-f535-458a-b0b5-2f7426ce7969"},"vehicle_type_id":"4","last_reported":1731568165,"current_range_meters":5600,"station_id":"ce4bhnp2rcd13ifvqgvg","pricing_plan_id":"cebpf4jnsgd1na2vs0mg"},{"bike_id":"f87f2439-11e3-4811-826c-aae8008298a8","system_id":"levelo_inurba_marseille","lat":43.30316,"lon":5.36906,"is_reserved":false,"is_disabled":false,"rental_uris":{"android":"levelo://app?vid=f87f2439-11e3-4811-826c-aae8008298a8","ios":"levelo://app?vid=f87f2439-11e3-4811-826c-aae8008298a8"},"vehicle_type_id":"4","last_reported":1731568165,"current_range_meters":36400,"station_id":"ce4bgqh2rcd13ifvqc5g","pricing_plan_id":"cebpf4jnsgd1na2vs0mg"},{"bike_id":"8aa67a89-0dc6-4b92-b9d3-266a6f0ca2c6","system_id":"levelo_inurba_marseille","lat":43.305204,"lon":5.367263,"is_reserved":false,"is_disabled":false,"rental_uris":{"android":"levelo://app?vid=8aa67a89-0dc6-4b92-b9d3-266a6f0ca2c6","ios":"levelo://app?vid=8aa67a89-0dc6-4b92-b9d3-266a6f0ca2c6"},"vehicle_type_id":"4","last_reported":1731568165,"current_range_meters":35600,"station_id":"ce4bgrp2rcd13ifvqc9g","pricing_plan_id":"cebpf4jnsgd1na2vs0mg"},{"bike_id":"02b1bd0b-a86a-47f1-9ed3-78958123915a","system_id":"levelo_inurba_marseille","lat":43.24078,"lon":5.37757,"is_reserved":false,"is_disabled":false,"rental_uris":{"android":"levelo://app?vid=02b1bd0b-a86a-47f1-9ed3-78958123915a","ios":"levelo://app?vid=02b1bd0b-a86a-47f1-9ed3-78958123915a"},"vehicle_type_id":"4","last_reported":1731568165,"current_range_meters":9200,"station_id":"ce4bhnp2rcd13ifvqgvg","pricing_plan_id":"cebpf4jnsgd1na2vs0mg"},{"bike_id":"d142a5c2-4240-45b6-a9b1-061c710b6dc8","system_id":"levelo_inurba_marseille","lat":43.30583,"lon":5.39366,"is_reserved":false,"is_disabled":false,"rental_uris":{"android":"levelo://app?vid=d142a5c2-4240-45b6-a9b1-061c710b6dc8","ios":"levelo://app?vid=d142a5c2-4240-45b6-a9b1-061c710b6dc8"},"vehicle_type_id":"4","last_reported":1731568165,"current_range_meters":32400,"station_id":"ce4bh0p2rcd13ifvqd80","pricing_plan_id":"cebpf4jnsgd1na2vs0mg"},{"bike_id":"012f2b85-1931-45c4-a79f-e1666cdd307c","system_id":"levelo_inurba_marseille","lat":43.28724,"lon":5.37932,"is_reserved":false,"is_disabled":false,"rental_uris":{"android":"levelo://app?vid=012f2b85-1931-45c4-a79f-e1666cdd307c","ios":"levelo://app?vid=012f2b85-1931-45c4-a79f-e1666cdd307c"},"vehicle_type_id":"4","last_reported":1731568165,"current_range_meters":9200,"station_id":"ce4bh9p2rcd13ifvqec0","pricing_plan_id":"cebpf4jnsgd1na2vs0mg"},{"bike_id":"d3efbb11-a133-4f70-8115-ced7a53ecd2b","system_id":"levelo_inurba_marseille","lat":43.31687,"lon":5.40471,"is_reserved":false,"is_disabled":false,"rental_uris":{"android":"levelo://app?vid=d3efbb11-a133-4f70-8115-ced7a53ecd2b","ios":"levelo://app?vid=d3efbb11-a133-4f70-8115-ced7a53ecd2b"},"vehicle_type_id":"4","last_reported":1731568165,"current_range_meters":30000,"station_id":"ce4bh012rcd13ifvqd00","pricing_plan_id":"cebpf4jnsgd1na2vs0mg"},{"bike_id":"2868211a-801a-40e9-87f4-374361291305","system_id":"levelo_inurba_marseille","lat":43.28152,"lon":5.42644,"is_reserved":false,"is_disabled":false,"rental_uris":{"android":"levelo://app?vid=2868211a-801a-40e9-87f4-374361291305","ios":"levelo://app?vid=2868211a-801a-40e9-87f4-374361291305"},"vehicle_type_id":"4","last_reported":1731568165,"current_range_meters":27600,"station_id":"ce4bhnh2rcd13ifvqgug","pricing_plan_id":"cebpf4jnsgd1na2vs0mg"},{"bike_id":"06b0db35-ac6f-4f3a-b2a6-4061e8132356","system_id":"levelo_inurba_marseille","lat":43.29788,"lon":5.38099,"is_reserved":false,"is_disabled":false,"rental_uris":{"android":"levelo://app?vid=06b0db35-ac6f-4f3a-b2a6-4061e8132356","ios":"levelo://app?vid=06b0db35-ac6f-4f3a-b2a6-4061e8132356"},"vehicle_type_id":"4","last_reported":1731568165,"current_range_meters":27200,"station_id":"ce4bgip2rcd13ifvqbb0","pricing_plan_id":"cebpf4jnsgd1na2vs0mg"},{"bike_id":"1311c692-6e9d-4afb-b7b0-20686564fe7a","system_id":"levelo_inurba_marseille","lat":43.337444,"lon":5.374475,"is_reserved":false,"is_disabled":false,"rental_uris":{"android":"levelo://app?vid=1311c692-6e9d-4afb-b7b0-20686564fe7a","ios":"levelo://app?vid=1311c692-6e9d-4afb-b7b0-20686564fe7a"},"vehicle_type_id":"4","last_reported":1731568165,"current_range_meters":33600,"station_id":"","pricing_plan_id":"cebpf4jnsgd1na2vs0mg"},{"bike_id":"8def89e3-ead0-48a3-9167-c5fa1d9d9e93","system_id":"levelo_inurba_marseille","lat":43.29629,"lon":5.37709,"is_reserved":false,"is_disabled":false,"rental_uris":{"android":"levelo://app?vid=8def89e3-ead0-48a3-9167-c5fa1d9d9e93","ios":"levelo://app?vid=8def89e3-ead0-48a3-9167-c5fa1d9d9e93"},"vehicle_type_id":"4","last_reported":1731568165,"current_range_meters":38400,"station_id":"ce4bgi92rcd13ifvqb90","pricing_plan_id":"cebpf4jnsgd1na2vs0mg"},{"bike_id":"07a4be1c-5cf0-4f3e-8c27-4c3e24078daa","system_id":"levelo_inurba_marseille","lat":43.24808,"lon":5.37455,"is_reserved":false,"is_disabled":false,"rental_uris":{"android":"levelo://app?vid=07a4be1c-5cf0-4f3e-8c27-4c3e24078daa","ios":"levelo://app?vid=07a4be1c-5cf0-4f3e-8c27-4c3e24078daa"},"vehicle_type_id":"4","last_reported":1731568165,"current_range_meters":16000,"station_id":"ce4bhgh2rcd13ifvqfb0","pricing_plan_id":"cebpf4jnsgd1na2vs0mg"},{"bike_id":"4950fae1-ce47-439e-aa06-0be740b50f99","system_id":"levelo_inurba_marseille","lat":43.24081,"lon":5.37755,"is_reserved":false,"is_disabled":false,"rental_uris":{"android":"levelo://app?vid=4950fae1-ce47-439e-aa06-0be740b50f99","ios":"levelo://app?vid=4950fae1-ce47-439e-aa06-0be740b50f99"},"vehicle_type_id":"4","last_reported":1731568165,"current_range_meters":19200,"station_id":"ce4bhnp2rcd13ifvqgvg","pricing_plan_id":"cebpf4jnsgd1na2vs0mg"},{"bike_id":"bbb76869-5f19-4adb-b3fd-8e5dab144919","system_id":"levelo_inurba_marseille","lat":43.24075,"lon":5.37759,"is_reserved":false,"is_disabled":false,"rental_uris":{"android":"levelo://app?vid=bbb76869-5f19-4adb-b3fd-8e5dab144919","ios":"levelo://app?vid=bbb76869-5f19-4adb-b3fd-8e5dab144919"},"vehicle_type_id":"4","last_reported":1731568165,"current_range_meters":32800,"station_id":"ce4bhnp2rcd13ifvqgvg","pricing_plan_id":"cebpf4jnsgd1na2vs0mg"},{"bike_id":"01fcfe29-ee50-4094-aa21-30aefc8c2080","system_id":"levelo_inurba_marseille","lat":43.30565,"lon":5.38417,"is_reserved":false,"is_disabled":false,"rental_uris":{"android":"levelo://app?vid=01fcfe29-ee50-4094-aa21-30aefc8c2080","ios":"levelo://app?vid=01fcfe29-ee50-4094-aa21-30aefc8c2080"},"vehicle_type_id":"4","last_reported":1731568165,"current_range_meters":38800,"station_id":"ce4bgg92rcd13ifvqb30","pricing_plan_id":"cebpf4jnsgd1na2vs0mg"},{"bike_id":"0c18554f-4fb6-4f63-98b2-d2dec88f5c1c","system_id":"levelo_inurba_marseille","lat":43.284812,"lon":5.384244,"is_reserved":false,"is_disabled":false,"rental_uris":{"android":"levelo://app?vid=0c18554f-4fb6-4f63-98b2-d2dec88f5c1c","ios":"levelo://app?vid=0c18554f-4fb6-4f63-98b2-d2dec88f5c1c"},"vehicle_type_id":"4","last_reported":1731568165,"current_range_meters":17600,"station_id":"ce4bhmp2rcd13ifvqgog","pricing_plan_id":"cebpf4jnsgd1na2vs0mg"},{"bike_id":"8dd5ff20-0796-4595-a806-c64a3c001813","system_id":"levelo_inurba_marseille","lat":43.29428,"lon":5.38614,"is_reserved":false,"is_disabled":false,"rental_uris":{"android":"levelo://app?vid=8dd5ff20-0796-4595-a806-c64a3c001813","ios":"levelo://app?vid=8dd5ff20-0796-4595-a806-c64a3c001813"},"vehicle_type_id":"4","last_reported":1731568165,"current_range_meters":37600,"station_id":"ce4bh2h2rcd13ifvqdh0","pricing_plan_id":"cebpf4jnsgd1na2vs0mg"},{"bike_id":"75f71ef1-6e08-415a-bb8b-dfb0f44294ba","system_id":"levelo_inurba_marseille","lat":43.27989,"lon":5.41658,"is_reserved":false,"is_disabled":false,"rental_uris":{"android":"levelo://app?vid=75f71ef1-6e08-415a-bb8b-dfb0f44294ba","ios":"levelo://app?vid=75f71ef1-6e08-415a-bb8b-dfb0f44294ba"},"vehicle_type_id":"4","last_reported":1731568165,"current_range_meters":6800,"station_id":"ce4bho12rcd13ifvqh1g","pricing_plan_id":"cebpf4jnsgd1na2vs0mg"},{"bike_id":"dd747430-bb5a-4193-a5c2-1c20ce35bc05","system_id":"levelo_inurba_marseille","lat":43.3176,"lon":5.39015,"is_reserved":false,"is_disabled":false,"rental_uris":{"android":"levelo://app?vid=dd747430-bb5a-4193-a5c2-1c20ce35bc05","ios":"levelo://app?vid=dd747430-bb5a-4193-a5c2-1c20ce35bc05"},"vehicle_type_id":"4","last_reported":1731568165,"current_range_meters":38800,"station_id":"ce4bhqp2rcd13ifvqhng","pricing_plan_id":"cebpf4jnsgd1na2vs0mg"},{"bike_id":"14041b42-c763-4196-acb4-81474847f26a","system_id":"levelo_inurba_marseille","lat":43.24082,"lon":5.3775,"is_reserved":false,"is_disabled":false,"rental_uris":{"android":"levelo://app?vid=14041b42-c763-4196-acb4-81474847f26a","ios":"levelo://app?vid=14041b42-c763-4196-acb4-81474847f26a"},"vehicle_type_id":"4","last_reported":1731568165,"current_range_meters":24800,"station_id":"ce4bhnp2rcd13ifvqgvg","pricing_plan_id":"cebpf4jnsgd1na2vs0mg"},{"bike_id":"20a6022f-93e7-457d-9e65-34fc2c4ed419","system_id":"levelo_inurba_marseille","lat":43.28445,"lon":5.39185,"is_reserved":false,"is_disabled":false,"rental_uris":{"android":"levelo://app?vid=20a6022f-93e7-457d-9e65-34fc2c4ed419","ios":"levelo://app?vid=20a6022f-93e7-457d-9e65-34fc2c4ed419"},"vehicle_type_id":"4","last_reported":1731568165,"current_range_meters":16800,"station_id":"ce4bhoh2rcd13ifvqh5g","pricing_plan_id":"cebpf4jnsgd1na2vs0mg"},{"bike_id":"17032cf8-d66f-43e5-b0f5-b9954b0395fe","system_id":"levelo_inurba_marseille","lat":43.3175,"lon":5.39012,"is_reserved":false,"is_disabled":false,"rental_uris":{"android":"levelo://app?vid=17032cf8-d66f-43e5-b0f5-b9954b0395fe","ios":"levelo://app?vid=17032cf8-d66f-43e5-b0f5-b9954b0395fe"},"vehicle_type_id":"4","last_reported":1731568165,"current_range_meters":38000,"station_id":"ce4bhqp2rcd13ifvqhng","pricing_plan_id":"cebpf4jnsgd1na2vs0mg"},{"bike_id":"bb196ce4-c942-4277-b14f-31260b7cbaf3","system_id":"levelo_inurba_marseille","lat":43.33104,"lon":5.39681,"is_reserved":false,"is_disabled":false,"rental_uris":{"android":"levelo://app?vid=bb196ce4-c942-4277-b14f-31260b7cbaf3","ios":"levelo://app?vid=bb196ce4-c942-4277-b14f-31260b7cbaf3"},"vehicle_type_id":"4","last_reported":1731568165,"current_range_meters":8400,"station_id":"","pricing_plan_id":"cebpf4jnsgd1na2vs0mg"},{"bike_id":"bd46ae1d-8198-446f-a700-38e6e558ca14","system_id":"levelo_inurba_marseille","lat":43.30182,"lon":5.36612,"is_reserved":false,"is_disabled":false,"rental_uris":{"android":"levelo://app?vid=bd46ae1d-8198-446f-a700-38e6e558ca14","ios":"levelo://app?vid=bd46ae1d-8198-446f-a700-38e6e558ca14"},"vehicle_type_id":"4","last_reported":1731568165,"current_range_meters":38400,"station_id":"ce4bgrh2rcd13ifvqc8g","pricing_plan_id":"cebpf4jnsgd1na2vs0mg"},{"bike_id":"d0d2685c-5b90-4359-827c-cc7233eec8c9","system_id":"levelo_inurba_marseille","lat":43.29787,"lon":5.38103,"is_reserved":false,"is_disabled":false,"rental_uris":{"android":"levelo://app?vid=d0d2685c-5b90-4359-827c-cc7233eec8c9","ios":"levelo://app?vid=d0d2685c-5b90-4359-827c-cc7233eec8c9"},"vehicle_type_id":"4","last_reported":1731568165,"current_range_meters":38400,"station_id":"ce4bgip2rcd13ifvqbb0","pricing_plan_id":"cebpf4jnsgd1na2vs0mg"},{"bike_id":"bdcb7712-f85e-4f07-9f34-6ee6ed761c35","system_id":"levelo_inurba_marseille","lat":43.296004,"lon":5.386998,"is_reserved":false,"is_disabled":false,"rental_uris":{"android":"levelo://app?vid=bdcb7712-f85e-4f07-9f34-6ee6ed761c35","ios":"levelo://app?vid=bdcb7712-f85e-4f07-9f34-6ee6ed761c35"},"vehicle_type_id":"4","last_reported":1731568165,"current_range_meters":33200,"station_id":"ce4bhb92rcd13ifvqen0","pricing_plan_id":"cebpf4jnsgd1na2vs0mg"},{"bike_id":"bba76986-27db-4a0b-aac9-b12dd5c4e056","system_id":"levelo_inurba_marseille","lat":43.3054,"lon":5.36556,"is_reserved":false,"is_disabled":false,"rental_uris":{"android":"levelo://app?vid=bba76986-27db-4a0b-aac9-b12dd5c4e056","ios":"levelo://app?vid=bba76986-27db-4a0b-aac9-b12dd5c4e056"},"vehicle_type_id":"4","last_reported":1731568165,"current_range_meters":34000,"station_id":"ce4bgs12rcd13ifvqcag","pricing_plan_id":"cebpf4jnsgd1na2vs0mg"},{"bike_id":"e172574a-62b1-4631-8fb4-dded1439cd60","system_id":"levelo_inurba_marseille","lat":43.27492,"lon":5.42455,"is_reserved":false,"is_disabled":false,"rental_uris":{"android":"levelo://app?vid=e172574a-62b1-4631-8fb4-dded1439cd60","ios":"levelo://app?vid=e172574a-62b1-4631-8fb4-dded1439cd60"},"vehicle_type_id":"4","last_reported":1731568165,"current_range_meters":16400,"station_id":"ce4bhn92rcd13ifvqgrg","pricing_plan_id":"cebpf4jnsgd1na2vs0mg"},{"bike_id":"91940671-507b-4795-b378-1022ca46b8c4","system_id":"levelo_inurba_marseille","lat":43.31888,"lon":5.40734,"is_reserved":false,"is_disabled":false,"rental_uris":{"android":"levelo://app?vid=91940671-507b-4795-b378-1022ca46b8c4","ios":"levelo://app?vid=91940671-507b-4795-b378-1022ca46b8c4"},"vehicle_type_id":"4","last_reported":1731568165,"current_range_meters":12800,"station_id":"ce4bhq12rcd13ifvqhig","pricing_plan_id":"cebpf4jnsgd1na2vs0mg"},{"bike_id":"ed2d8bd5-9c27-40ae-959f-74a893930887","system_id":"levelo_inurba_marseille","lat":43.2558,"lon":5.38238,"is_reserved":false,"is_disabled":false,"rental_uris":{"android":"levelo://app?vid=ed2d8bd5-9c27-40ae-959f-74a893930887","ios":"levelo://app?vid=ed2d8bd5-9c27-40ae-959f-74a893930887"},"vehicle_type_id":"4","last_reported":1731568165,"current_range_meters":10000,"station_id":"ce4bhih2rcd13ifvqfs0","pricing_plan_id":"cebpf4jnsgd1na2vs0mg"},{"bike_id":"f5df91d9-4a7c-43df-9009-00af233090e5","system_id":"levelo_inurba_marseille","lat":43.33608,"lon":5.41028,"is_reserved":false,"is_disabled":false,"rental_uris":{"android":"levelo://app?vid=f5df91d9-4a7c-43df-9009-00af233090e5","ios":"levelo://app?vid=f5df91d9-4a7c-43df-9009-00af233090e5"},"vehicle_type_id":"4","last_reported":1731568165,"current_range_meters":39200,"station_id":"ce4bhqh2rcd13ifvqhmg","pricing_plan_id":"cebpf4jnsgd1na2vs0mg"},{"bike_id":"a351fa12-a76b-4950-b3f5-bcba51fa6aee","system_id":"levelo_inurba_marseille","lat":43.32339,"lon":5.40623,"is_reserved":false,"is_disabled":false,"rental_uris":{"android":"levelo://app?vid=a351fa12-a76b-4950-b3f5-bcba51fa6aee","ios":"levelo://app?vid=a351fa12-a76b-4950-b3f5-bcba51fa6aee"},"vehicle_type_id":"4","last_reported":1731568165,"current_range_meters":35600,"station_id":"ce4bhq92rcd13ifvqhjg","pricing_plan_id":"cebpf4jnsgd1na2vs0mg"},{"bike_id":"01a9bc1b-9313-463c-99e4-648db166d63f","system_id":"levelo_inurba_marseille","lat":43.271702,"lon":5.391486,"is_reserved":false,"is_disabled":false,"rental_uris":{"android":"levelo://app?vid=01a9bc1b-9313-463c-99e4-648db166d63f","ios":"levelo://app?vid=01a9bc1b-9313-463c-99e4-648db166d63f"},"vehicle_type_id":"4","last_reported":1731568165,"current_range_meters":4000,"station_id":"ce4bhhp2rcd13ifvqfm0","pricing_plan_id":"cebpf4jnsgd1na2vs0mg"},{"bike_id":"eb17cd5d-bbf2-40f8-bce0-f62cfff1e229","system_id":"levelo_inurba_marseille","lat":43.31079,"lon":5.42429,"is_reserved":false,"is_disabled":false,"rental_uris":{"android":"levelo://app?vid=eb17cd5d-bbf2-40f8-bce0-f62cfff1e229","ios":"levelo://app?vid=eb17cd5d-bbf2-40f8-bce0-f62cfff1e229"},"vehicle_type_id":"4","last_reported":1731568165,"current_range_meters":29600,"station_id":"ce4bhp92rcd13ifvqhag","pricing_plan_id":"cebpf4jnsgd1na2vs0mg"},{"bike_id":"a15849be-f239-44ae-bba5-3ad474caa07d","system_id":"levelo_inurba_marseille","lat":43.30586,"lon":5.39354,"is_reserved":false,"is_disabled":false,"rental_uris":{"android":"levelo://app?vid=a15849be-f239-44ae-bba5-3ad474caa07d","ios":"levelo://app?vid=a15849be-f239-44ae-bba5-3ad474caa07d"},"vehicle_type_id":"4","last_reported":1731568165,"current_range_meters":38000,"station_id":"ce4bh0p2rcd13ifvqd80","pricing_plan_id":"cebpf4jnsgd1na2vs0mg"},{"bike_id":"488974a9-313a-4ef1-9ddf-12c55494a3d5","system_id":"levelo_inurba_marseille","lat":43.29006,"lon":5.35607,"is_reserved":false,"is_disabled":false,"rental_uris":{"android":"levelo://app?vid=488974a9-313a-4ef1-9ddf-12c55494a3d5","ios":"levelo://app?vid=488974a9-313a-4ef1-9ddf-12c55494a3d5"},"vehicle_type_id":"4","last_reported":1731568165,"current_range_meters":36800,"station_id":"ce4bhb92rcd13ifvqen0","pricing_plan_id":"cebpf4jnsgd1na2vs0mg"},{"bike_id":"cb6cd6d0-6ff4-4631-b51e-8175374c40e8","system_id":"levelo_inurba_marseille","lat":43.26936,"lon":5.40245,"is_reserved":false,"is_disabled":false,"rental_uris":{"android":"levelo://app?vid=cb6cd6d0-6ff4-4631-b51e-8175374c40e8","ios":"levelo://app?vid=cb6cd6d0-6ff4-4631-b51e-8175374c40e8"},"vehicle_type_id":"4","last_reported":1731568165,"current_range_meters":38400,"station_id":"cjm6bp8fraef2m0cb0m0","pricing_plan_id":"cebpf4jnsgd1na2vs0mg"},{"bike_id":"365ae1f0-fe9c-4257-a4d3-086f1b9d1c45","system_id":"levelo_inurba_marseille","lat":43.33747,"lon":5.3745,"is_reserved":false,"is_disabled":false,"rental_uris":{"android":"levelo://app?vid=365ae1f0-fe9c-4257-a4d3-086f1b9d1c45","ios":"levelo://app?vid=365ae1f0-fe9c-4257-a4d3-086f1b9d1c45"},"vehicle_type_id":"4","last_reported":1731568165,"current_range_meters":38800,"station_id":"","pricing_plan_id":"cebpf4jnsgd1na2vs0mg"},{"bike_id":"bdf4781e-b639-48cc-b8bf-87b5fb48be89","system_id":"levelo_inurba_marseille","lat":43.2694,"lon":5.40256,"is_reserved":false,"is_disabled":false,"rental_uris":{"android":"levelo://app?vid=bdf4781e-b639-48cc-b8bf-87b5fb48be89","ios":"levelo://app?vid=bdf4781e-b639-48cc-b8bf-87b5fb48be89"},"vehicle_type_id":"4","last_reported":1731568165,"current_range_meters":28400,"station_id":"cjm6bp8fraef2m0cb0m0","pricing_plan_id":"cebpf4jnsgd1na2vs0mg"},{"bike_id":"612a1859-686e-4be8-9bc0-5118634bc6df","system_id":"levelo_inurba_marseille","lat":43.26565,"lon":5.39013,"is_reserved":false,"is_disabled":false,"rental_uris":{"android":"levelo://app?vid=612a1859-686e-4be8-9bc0-5118634bc6df","ios":"levelo://app?vid=612a1859-686e-4be8-9bc0-5118634bc6df"},"vehicle_type_id":"4","last_reported":1731568165,"current_range_meters":36400,"station_id":"ce4bhe12rcd13ifvqf30","pricing_plan_id":"cebpf4jnsgd1na2vs0mg"},{"bike_id":"a01a5074-6141-4543-b8ee-07a008c9c4e5","system_id":"levelo_inurba_marseille","lat":43.27373,"lon":5.36259,"is_reserved":false,"is_disabled":false,"rental_uris":{"android":"levelo://app?vid=a01a5074-6141-4543-b8ee-07a008c9c4e5","ios":"levelo://app?vid=a01a5074-6141-4543-b8ee-07a008c9c4e5"},"vehicle_type_id":"4","last_reported":1731568165,"current_range_meters":38000,"station_id":"ce4bhbh2rcd13ifvqeo0","pricing_plan_id":"cebpf4jnsgd1na2vs0mg"},{"bike_id":"971b4a43-8c55-4041-9c79-18709a1e55f7","system_id":"levelo_inurba_marseille","lat":43.30462,"lon":5.37906,"is_reserved":false,"is_disabled":false,"rental_uris":{"android":"levelo://app?vid=971b4a43-8c55-4041-9c79-18709a1e55f7","ios":"levelo://app?vid=971b4a43-8c55-4041-9c79-18709a1e55f7"},"vehicle_type_id":"4","last_reported":1731568165,"current_range_meters":32000,"station_id":"ce4bgup2rcd13ifvqcn0","pricing_plan_id":"cebpf4jnsgd1na2vs0mg"},{"bike_id":"556a6ac2-654d-438b-8c3b-cce8686ad96e","system_id":"levelo_inurba_marseille","lat":43.30465,"lon":5.37914,"is_reserved":false,"is_disabled":false,"rental_uris":{"android":"levelo://app?vid=556a6ac2-654d-438b-8c3b-cce8686ad96e","ios":"levelo://app?vid=556a6ac2-654d-438b-8c3b-cce8686ad96e"},"vehicle_type_id":"4","last_reported":1731568165,"current_range_meters":28800,"station_id":"ce4bgup2rcd13ifvqcn0","pricing_plan_id":"cebpf4jnsgd1na2vs0mg"},{"bike_id":"8759ae07-5bad-4a84-ada3-f28f57811112","system_id":"levelo_inurba_marseille","lat":43.28864,"lon":5.35849,"is_reserved":false,"is_disabled":false,"rental_uris":{"android":"levelo://app?vid=8759ae07-5bad-4a84-ada3-f28f57811112","ios":"levelo://app?vid=8759ae07-5bad-4a84-ada3-f28f57811112"},"vehicle_type_id":"4","last_reported":1731568165,"current_range_meters":39200,"station_id":"ce4bhb12rcd13ifvqem0","pricing_plan_id":"cebpf4jnsgd1na2vs0mg"},{"bike_id":"fa66e67c-0487-45d5-b5c8-867e7f4e7f4a","system_id":"levelo_inurba_marseille","lat":43.29577,"lon":5.39991,"is_reserved":false,"is_disabled":false,"rental_uris":{"android":"levelo://app?vid=fa66e67c-0487-45d5-b5c8-867e7f4e7f4a","ios":"levelo://app?vid=fa66e67c-0487-45d5-b5c8-867e7f4e7f4a"},"vehicle_type_id":"4","last_reported":1731568165,"current_range_meters":37600,"station_id":"ce4bh312rcd13ifvqdj0","pricing_plan_id":"cebpf4jnsgd1na2vs0mg"},{"bike_id":"77eeae7b-ed74-47f2-944f-eb4b80aa21b8","system_id":"levelo_inurba_marseille","lat":43.27374,"lon":5.36258,"is_reserved":false,"is_disabled":false,"rental_uris":{"android":"levelo://app?vid=77eeae7b-ed74-47f2-944f-eb4b80aa21b8","ios":"levelo://app?vid=77eeae7b-ed74-47f2-944f-eb4b80aa21b8"},"vehicle_type_id":"4","last_reported":1731568165,"current_range_meters":38800,"station_id":"ce4bhbh2rcd13ifvqeo0","pricing_plan_id":"cebpf4jnsgd1na2vs0mg"},{"bike_id":"b448c76e-6a85-4e4e-8af8-7d9249501502","system_id":"levelo_inurba_marseille","lat":43.337444,"lon":5.374475,"is_reserved":false,"is_disabled":false,"rental_uris":{"android":"levelo://app?vid=b448c76e-6a85-4e4e-8af8-7d9249501502","ios":"levelo://app?vid=b448c76e-6a85-4e4e-8af8-7d9249501502"},"vehicle_type_id":"4","last_reported":1731568165,"current_range_meters":34000,"station_id":"","pricing_plan_id":"cebpf4jnsgd1na2vs0mg"},{"bike_id":"098cebf2-a356-4efe-af05-18b0786cec06","system_id":"levelo_inurba_marseille","lat":43.28952,"lon":5.364463,"is_reserved":false,"is_disabled":false,"rental_uris":{"android":"levelo://app?vid=098cebf2-a356-4efe-af05-18b0786cec06","ios":"levelo://app?vid=098cebf2-a356-4efe-af05-18b0786cec06"},"vehicle_type_id":"4","last_reported":1731568165,"current_range_meters":32800,"station_id":"ce4bh412rcd13ifvqds0","pricing_plan_id":"cebpf4jnsgd1na2vs0mg"},{"bike_id":"4a7d2ecf-f16c-4ede-8c5b-88bb37834ef7","system_id":"levelo_inurba_marseille","lat":43.26501,"lon":5.39539,"is_reserved":false,"is_disabled":false,"rental_uris":{"android":"levelo://app?vid=4a7d2ecf-f16c-4ede-8c5b-88bb37834ef7","ios":"levelo://app?vid=4a7d2ecf-f16c-4ede-8c5b-88bb37834ef7"},"vehicle_type_id":"4","last_reported":1731568165,"current_range_meters":18800,"station_id":"ce4bhi12rcd13ifvqfq0","pricing_plan_id":"cebpf4jnsgd1na2vs0mg"},{"bike_id":"ec05e9c5-8051-42d7-aa55-c4411a99d503","system_id":"levelo_inurba_marseille","lat":43.29595,"lon":5.38104,"is_reserved":false,"is_disabled":false,"rental_uris":{"android":"levelo://app?vid=ec05e9c5-8051-42d7-aa55-c4411a99d503","ios":"levelo://app?vid=ec05e9c5-8051-42d7-aa55-c4411a99d503"},"vehicle_type_id":"4","last_reported":1731568165,"current_range_meters":38800,"station_id":"ce4bgl12rcd13ifvqbo0","pricing_plan_id":"cebpf4jnsgd1na2vs0mg"},{"bike_id":"fa5ff0f2-173b-4dca-a940-a370161972e8","system_id":"levelo_inurba_marseille","lat":43.28611,"lon":5.37063,"is_reserved":false,"is_disabled":false,"rental_uris":{"android":"levelo://app?vid=fa5ff0f2-173b-4dca-a940-a370161972e8","ios":"levelo://app?vid=fa5ff0f2-173b-4dca-a940-a370161972e8"},"vehicle_type_id":"4","last_reported":1731568165,"current_range_meters":37600,"station_id":"ce4bht12rcd13ifvqi60","pricing_plan_id":"cebpf4jnsgd1na2vs0mg"},{"bike_id":"ac40fd1f-dca1-4153-a1ab-0eb25fa0db20","system_id":"levelo_inurba_marseille","lat":43.28334,"lon":5.38111,"is_reserved":false,"is_disabled":false,"rental_uris":{"android":"levelo://app?vid=ac40fd1f-dca1-4153-a1ab-0eb25fa0db20","ios":"levelo://app?vid=ac40fd1f-dca1-4153-a1ab-0eb25fa0db20"},"vehicle_type_id":"4","last_reported":1731568165,"current_range_meters":29600,"station_id":"ce4bh412rcd13ifvqdr0","pricing_plan_id":"cebpf4jnsgd1na2vs0mg"},{"bike_id":"50fdb6f1-66cd-4d38-a3de-97f2d1a0fe75","system_id":"levelo_inurba_marseille","lat":43.24548,"lon":5.39528,"is_reserved":false,"is_disabled":false,"rental_uris":{"android":"levelo://app?vid=50fdb6f1-66cd-4d38-a3de-97f2d1a0fe75","ios":"levelo://app?vid=50fdb6f1-66cd-4d38-a3de-97f2d1a0fe75"},"vehicle_type_id":"4","last_reported":1731568165,"current_range_meters":38800,"station_id":"ce4bhlp2rcd13ifvqgjg","pricing_plan_id":"cebpf4jnsgd1na2vs0mg"},{"bike_id":"e7ce7ddf-a665-4f80-a8cd-ffc1690d0651","system_id":"levelo_inurba_marseille","lat":43.28351,"lon":5.38101,"is_reserved":false,"is_disabled":false,"rental_uris":{"android":"levelo://app?vid=e7ce7ddf-a665-4f80-a8cd-ffc1690d0651","ios":"levelo://app?vid=e7ce7ddf-a665-4f80-a8cd-ffc1690d0651"},"vehicle_type_id":"4","last_reported":1731568165,"current_range_meters":35600,"station_id":"ce4bh412rcd13ifvqdr0","pricing_plan_id":"cebpf4jnsgd1na2vs0mg"},{"bike_id":"1e4651d4-906d-4bc8-a992-9cefd48ac51e","system_id":"levelo_inurba_marseille","lat":43.29842,"lon":5.36267,"is_reserved":false,"is_disabled":false,"rental_uris":{"android":"levelo://app?vid=1e4651d4-906d-4bc8-a992-9cefd48ac51e","ios":"levelo://app?vid=1e4651d4-906d-4bc8-a992-9cefd48ac51e"},"vehicle_type_id":"4","last_reported":1731568165,"current_range_meters":33600,"station_id":"ce4bgpp2rcd13ifvqc3g","pricing_plan_id":"cebpf4jnsgd1na2vs0mg"},{"bike_id":"4cbb71c3-7b75-4a14-a06c-952b73950be4","system_id":"levelo_inurba_marseille","lat":43.25013,"lon":5.38931,"is_reserved":false,"is_disabled":false,"rental_uris":{"android":"levelo://app?vid=4cbb71c3-7b75-4a14-a06c-952b73950be4","ios":"levelo://app?vid=4cbb71c3-7b75-4a14-a06c-952b73950be4"},"vehicle_type_id":"4","last_reported":1731568165,"current_range_meters":32400,"station_id":"ce4bhgp2rcd13ifvqfd0","pricing_plan_id":"cebpf4jnsgd1na2vs0mg"},{"bike_id":"2d566217-7731-4b7b-866d-739741f8cfcc","system_id":"levelo_inurba_marseille","lat":43.24072,"lon":5.37764,"is_reserved":false,"is_disabled":false,"rental_uris":{"android":"levelo://app?vid=2d566217-7731-4b7b-866d-739741f8cfcc","ios":"levelo://app?vid=2d566217-7731-4b7b-866d-739741f8cfcc"},"vehicle_type_id":"4","last_reported":1731568165,"current_range_meters":38400,"station_id":"ce4bhnp2rcd13ifvqgvg","pricing_plan_id":"cebpf4jnsgd1na2vs0mg"},{"bike_id":"5087cf48-b0de-46ed-aa22-517943596d67","system_id":"levelo_inurba_marseille","lat":43.28723,"lon":5.37925,"is_reserved":false,"is_disabled":false,"rental_uris":{"android":"levelo://app?vid=5087cf48-b0de-46ed-aa22-517943596d67","ios":"levelo://app?vid=5087cf48-b0de-46ed-aa22-517943596d67"},"vehicle_type_id":"4","last_reported":1731568165,"current_range_meters":24000,"station_id":"ce4bh9p2rcd13ifvqec0","pricing_plan_id":"cebpf4jnsgd1na2vs0mg"},{"bike_id":"a95d970a-5f72-407f-8da9-22fb93a43203","system_id":"levelo_inurba_marseille","lat":43.28345,"lon":5.38116,"is_reserved":false,"is_disabled":false,"rental_uris":{"android":"levelo://app?vid=a95d970a-5f72-407f-8da9-22fb93a43203","ios":"levelo://app?vid=a95d970a-5f72-407f-8da9-22fb93a43203"},"vehicle_type_id":"4","last_reported":1731568165,"current_range_meters":30800,"station_id":"ce4bh412rcd13ifvqdr0","pricing_plan_id":"cebpf4jnsgd1na2vs0mg"},{"bike_id":"4018447b-2886-4c23-942b-201819b3bc28","system_id":"levelo_inurba_marseille","lat":43.337444,"lon":5.374475,"is_reserved":false,"is_disabled":false,"rental_uris":{"android":"levelo://app?vid=4018447b-2886-4c23-942b-201819b3bc28","ios":"levelo://app?vid=4018447b-2886-4c23-942b-201819b3bc28"},"vehicle_type_id":"4","last_reported":1731568165,"current_range_meters":34000,"station_id":"","pricing_plan_id":"cebpf4jnsgd1na2vs0mg"},{"bike_id":"59b6a953-d114-4c2d-bdb4-78e85a61b1cb","system_id":"levelo_inurba_marseille","lat":43.25828,"lon":5.39433,"is_reserved":false,"is_disabled":false,"rental_uris":{"android":"levelo://app?vid=59b6a953-d114-4c2d-bdb4-78e85a61b1cb","ios":"levelo://app?vid=59b6a953-d114-4c2d-bdb4-78e85a61b1cb"},"vehicle_type_id":"4","last_reported":1731568165,"current_range_meters":26000,"station_id":"ce4bhip2rcd13ifvqft0","pricing_plan_id":"cebpf4jnsgd1na2vs0mg"},{"bike_id":"8363accd-fb3e-4197-b76c-de8d47411466","system_id":"levelo_inurba_marseille","lat":43.28852,"lon":5.35852,"is_reserved":false,"is_disabled":false,"rental_uris":{"android":"levelo://app?vid=8363accd-fb3e-4197-b76c-de8d47411466","ios":"levelo://app?vid=8363accd-fb3e-4197-b76c-de8d47411466"},"vehicle_type_id":"4","last_reported":1731568165,"current_range_meters":39200,"station_id":"ce4bhb12rcd13ifvqem0","pricing_plan_id":"cebpf4jnsgd1na2vs0mg"},{"bike_id":"dcd73710-d37d-47a8-bd66-c7af702be54c","system_id":"levelo_inurba_marseille","lat":43.29432,"lon":5.3976,"is_reserved":false,"is_disabled":false,"rental_uris":{"android":"levelo://app?vid=dcd73710-d37d-47a8-bd66-c7af702be54c","ios":"levelo://app?vid=dcd73710-d37d-47a8-bd66-c7af702be54c"},"vehicle_type_id":"4","last_reported":1731568165,"current_range_meters":36800,"station_id":"ce4bh3h2rcd13ifvqdo0","pricing_plan_id":"cebpf4jnsgd1na2vs0mg"},{"bike_id":"8ff3daf9-97e9-480f-95f9-4d1d61792a54","system_id":"levelo_inurba_marseille","lat":43.33758,"lon":5.37471,"is_reserved":false,"is_disabled":false,"rental_uris":{"android":"levelo://app?vid=8ff3daf9-97e9-480f-95f9-4d1d61792a54","ios":"levelo://app?vid=8ff3daf9-97e9-480f-95f9-4d1d61792a54"},"vehicle_type_id":"4","last_reported":1731568165,"current_range_meters":32000,"station_id":"","pricing_plan_id":"cebpf4jnsgd1na2vs0mg"},{"bike_id":"2431ea29-a158-4b1a-a48f-78d56cc0075a","system_id":"levelo_inurba_marseille","lat":43.29567,"lon":5.37522,"is_reserved":false,"is_disabled":false,"rental_uris":{"android":"levelo://app?vid=2431ea29-a158-4b1a-a48f-78d56cc0075a","ios":"levelo://app?vid=2431ea29-a158-4b1a-a48f-78d56cc0075a"},"vehicle_type_id":"4","last_reported":1731568165,"current_range_meters":20000,"station_id":"ce4bgh92rcd13ifvqb50","pricing_plan_id":"cebpf4jnsgd1na2vs0mg"},{"bike_id":"ea66587c-3c4b-49ca-b2bb-13306ef9730b","system_id":"levelo_inurba_marseille","lat":43.285025,"lon":5.383831,"is_reserved":false,"is_disabled":false,"rental_uris":{"android":"levelo://app?vid=ea66587c-3c4b-49ca-b2bb-13306ef9730b","ios":"levelo://app?vid=ea66587c-3c4b-49ca-b2bb-13306ef9730b"},