{"last_updated":1680203102,"ttl":30,"version":"2.2","data":{"bikes":[{"bike_id":"ce4db407-ffaa-4a92-9f3e-26b3efc96daf","system_id":"levelo_inurba_marseille","lat":43.312239,"lon":5.368562,"is_reserved":false,"is_disabled":false,"rental_uris":{"android":"levelo://app?vid=ce4db407-ffaa-4a92-9f3e-26b3efc96daf","ios":"levelo://app?vid=ce4db407-ffaa-4a92-9f3e-26b3efc96daf"},"vehicle_type_id":"4","last_reported":1680203102,"current_range_meters":2800,"station_id":"ce4bgl92rcd13ifvqbq0","pricing_plan_id":"free"},{"bike_id":"2042620b-a22a-49ea-ac81-20d8a3cf8c98","system_id":"levelo_inurba_marseille","lat":43.314811,"lon":5.373104,"is_reserved":false,"is_disabled":false,"rental_uris":{"android":"levelo://app?vid=2042620b-a22a-49ea-ac81-20d8a3cf8c98","ios":"levelo://app?vid=2042620b-a22a-49ea-ac81-20d8a3cf8c98"},"vehicle_type_id":"4","last_reported":1680203102,"current_range_meters":0,"station_id":"ce4bgt12rcd13ifvqcd0","pricing_plan_id":"free"},{"bike_id":"b31901a8-d801-4a77-a032-87a0d59c7554","system_id":"levelo_inurba_marseille","lat":43.31507,"lon":5.37306,"is_reserved":false,"is_disabled":false,"rental_uris":{"android":"levelo://app?vid=b31901a8-d801-4a77-a032-87a0d59c7554","ios":"levelo://app?vid=b31901a8-d801-4a77-a032-87a0d59c7554"},"vehicle_type_id":"4","last_reported":1680203102,"current_range_meters":9600,"station_id":"","pricing_plan_id":"free"},{"bike_id":"a29926de-eb91-40bd-81c0-54bde8452a6f","system_id":"levelo_inurba_marseille","lat":43.305989,"lon":5.37225,"is_reserved":false,"is_disabled":false,"rental_uris":{"android":"levelo://app?vid=a29926de-eb91-40bd-81c0-54bde8452a6f","ios":"levelo://app?vid=a29926de-eb91-40bd-81c0-54bde8452a6f"},"vehicle_type_id":"4","last_reported":1680203102,"current_range_meters":19600,"station_id":"ce4bgqh2rcd13ifvqc4g","pricing_plan_id":"free"},{"bike_id":"9bac9fd3-51a3-452f-a673-954d2ae392bd","system_id":"levelo_inurba_marseille","lat":43.30539,"lon":5.36724,"is_reserved":false,"is_disabled":false,"rental_uris":{"android":"levelo://app?vid=9bac9fd3-51a3-452f-a673-954d2ae392bd","ios":"levelo://app?vid=9bac9fd3-51a3-452f-a673-954d2ae392bd"},"vehicle_type_id":"4","last_reported":1680203102,"current_range_meters":21200,"station_id":"ce4bgrp2rcd13ifvqc9g","pricing_plan_id":"free"},{"bike_id":"cd08f0a7-e060-4df6-bc63-e8f8f0e79de2","system_id":"levelo_inurba_marseille","lat":43.305989,"lon":5.37225,"is_reserved":false,"is_disabled":false,"rental_uris":{"android":"levelo://app?vid=cd08f0a7-e060-4df6-bc63-e8f8f0e79de2","ios":"levelo://app?vid=cd08f0a7-e060-4df6-bc63-e8f8f0e79de2"},"vehicle_type_id":"4","last_reported":1680203102,"current_range_meters":16800,"station_id":"ce4bgqh2rcd13ifvqc4g","pricing_plan_id":"free"},{"bike_id":"8d6a9fe7-c7d0-4b27-97b6-bb3977bc7611","system_id":"levelo_inurba_marseille","lat":43.305989,"lon":5.37225,"is_reserved":false,"is_disabled":false,"rental_uris":{"android":"levelo://app?vid=8d6a9fe7-c7d0-4b27-97b6-bb3977bc7611","ios":"levelo://app?vid=8d6a9fe7-c7d0-4b27-97b6-bb3977bc7611"},"vehicle_type_id":"4","last_reported":1680203102,"current_range_meters":0,"station_id":"ce4bgqh2rcd13ifvqc4g","pricing_plan_id":"free"},{"bike_id":"78708cac-3f2c-4f4e-8577-3c1ba7dbe05f","system_id":"levelo_inurba_marseille","lat":43.32123,"lon":5.36776,"is_reserved":false,"is_disabled":false,"rental_uris":{"android":"levelo://app?vid=78708cac-3f2c-4f4e-8577-3c1ba7dbe05f","ios":"levelo://app?vid=78708cac-3f2c-4f4e-8577-3c1ba7dbe05f"},"vehicle_type_id":"4","last_reported":1680203102,"current_range_meters":10400,"station_id":"","pricing_plan_id":"free"},{"bike_id":"ed47e8b1-061f-4d25-ada8-ba3cc03181ad","system_id":"levelo_inurba_marseille","lat":43.31711,"lon":5.37756,"is_reserved":false,"is_disabled":false,"rental_uris":{"android":"levelo://app?vid=ed47e8b1-061f-4d25-ada8-ba3cc03181ad","ios":"levelo://app?vid=ed47e8b1-061f-4d25-ada8-ba3cc03181ad"},"vehicle_type_id":"4","last_reported":1680203102,"current_range_meters":2000,"station_id":"ce4bgth2rcd13ifvqch0","pricing_plan_id":"free"},{"bike_id":"f62747f2-1075-406e-a5d4-cdec7c83779c","system_id":"levelo_inurba_marseille","lat":43.30349,"lon":5.36599,"is_reserved":false,"is_disabled":false,"rental_uris":{"android":"levelo://app?vid=f62747f2-1075-406e-a5d4-cdec7c83779c","ios":"levelo://app?vid=f62747f2-1075-406e-a5d4-cdec7c83779c"},"vehicle_type_id":"4","last_reported":1680203102,"current_range_meters":4000,"station_id":"","pricing_plan_id":"free"},{"bike_id":"7ffc16d2-8841-422f-8108-648039b05eb9","system_id":"levelo_inurba_marseille","lat":43.3099,"lon":5.3793,"is_reserved":false,"is_disabled":false,"rental_uris":{"android":"levelo://app?vid=7ffc16d2-8841-422f-8108-648039b05eb9","ios":"levelo://app?vid=7ffc16d2-8841-422f-8108-648039b05eb9"},"vehicle_type_id":"4","last_reported":1680203102,"current_range_meters":0,"station_id":"","pricing_plan_id":"free"},{"bike_id":"07e5fa9b-8f78-4920-b6a6-a40a99b27d73","system_id":"levelo_inurba_marseille","lat":43.30303,"lon":5.36874,"is_reserved":false,"is_disabled":false,"rental_uris":{"android":"levelo://app?vid=07e5fa9b-8f78-4920-b6a6-a40a99b27d73","ios":"levelo://app?vid=07e5fa9b-8f78-4920-b6a6-a40a99b27d73"},"vehicle_type_id":"4","last_reported":1680203102,"current_range_meters":4800,"station_id":"ce4bgqh2rcd13ifvqc5g","pricing_plan_id":"free"},{"bike_id":"ebed12ca-7e18-4e30-abf0-c065b1b3609d","system_id":"levelo_inurba_marseille","lat":43.301939,"lon":5.366286,"is_reserved":false,"is_disabled":false,"rental_uris":{"android":"levelo://app?vid=ebed12ca-7e18-4e30-abf0-c065b1b3609d","ios":"levelo://app?vid=ebed12ca-7e18-4e30-abf0-c065b1b3609d"},"vehicle_type_id":"4","last_reported":1680203102,"current_range_meters":0,"station_id":"ce4bgrh2rcd13ifvqc8g","pricing_plan_id":"free"},{"bike_id":"4b42acfd-4da6-4dbf-be64-8a265c9bdc42","system_id":"levelo_inurba_marseille","lat":43.308136,"lon":5.381368,"is_reserved":false,"is_disabled":false,"rental_uris":{"android":"levelo://app?vid=4b42acfd-4da6-4dbf-be64-8a265c9bdc42","ios":"levelo://app?vid=4b42acfd-4da6-4dbf-be64-8a265c9bdc42"},"vehicle_type_id":"4","last_reported":1680203102,"current_range_meters":8800,"station_id":"ce4bgt12rcd13ifvqce0","pricing_plan_id":"free"},{"bike_id":"70756909-5f90-4485-a0fd-0f9d85d04c0f","system_id":"levelo_inurba_marseille","lat":43.308012,"lon":5.381511,"is_reserved":false,"is_disabled":false,"rental_uris":{"android":"levelo://app?vid=70756909-5f90-4485-a0fd-0f9d85d04c0f","ios":"levelo://app?vid=70756909-5f90-4485-a0fd-0f9d85d04c0f"},"vehicle_type_id":"4","last_reported":1680203102,"current_range_meters":22400,"station_id":"ce4bgt12rcd13ifvqce0","pricing_plan_id":"free"},{"bike_id":"b37fa43d-737b-4191-9e6f-f05e7e1ab011","system_id":"levelo_inurba_marseille","lat":43.30148,"lon":5.37412,"is_reserved":false,"is_disabled":false,"rental_uris":{"android":"levelo://app?vid=b37fa43d-737b-4191-9e6f-f05e7e1ab011","ios":"levelo://app?vid=b37fa43d-737b-4191-9e6f-f05e7e1ab011"},"vehicle_type_id":"4","last_reported":1680203102,"current_range_meters":8800,"station_id":"","pricing_plan_id":"free"},{"bike_id":"813465e8-446f-43dd-9081-04c1313a2495","system_id":"levelo_inurba_marseille","lat":43.31329,"lon":5.38461,"is_reserved":false,"is_disabled":false,"rental_uris":{"android":"levelo://app?vid=813465e8-446f-43dd-9081-04c1313a2495","ios":"levelo://app?vid=813465e8-446f-43dd-9081-04c1313a2495"},"vehicle_type_id":"4","last_reported":1680203102,"current_range_meters":4800,"station_id":"","pricing_plan_id":"free"},{"bike_id":"13506b4b-1956-4ef4-83e4-3b09cb3f90b6","system_id":"levelo_inurba_marseille","lat":43.311722,"lon":5.387247,"is_reserved":false,"is_disabled":false,"rental_uris":{"android":"levelo://app?vid=13506b4b-1956-4ef4-83e4-3b09cb3f90b6","ios":"levelo://app?vid=13506b4b-1956-4ef4-83e4-3b09cb3f90b6"},"vehicle_type_id":"4","last_reported":1680203102,"current_range_meters":21600,"station_id":"ce4bgv12rcd13ifvqcp0","pricing_plan_id":"free"},{"bike_id":"10e2de60-6648-4e7e-9cfe-f8554456cc4b","system_id":"levelo_inurba_marseille","lat":43.297774,"lon":5.370875,"is_reserved":false,"is_disabled":false,"rental_uris":{"android":"levelo://app?vid=10e2de60-6648-4e7e-9cfe-f8554456cc4b","ios":"levelo://app?vid=10e2de60-6648-4e7e-9cfe-f8554456cc4b"},"vehicle_type_id":"4","last_reported":1680203102,"current_range_meters":2400,"station_id":"ce4bgop2rcd13ifvqc1g","pricing_plan_id":"free"},{"bike_id":"aba8e98d-5879-4f5a-a127-c840d97c2809","system_id":"levelo_inurba_marseille","lat":43.32827,"lon":5.36687,"is_reserved":false,"is_disabled":false,"rental_uris":{"android":"levelo://app?vid=aba8e98d-5879-4f5a-a127-c840d97c2809","ios":"levelo://app?vid=aba8e98d-5879-4f5a-a127-c840d97c2809"},"vehicle_type_id":"4","last_reported":1680203102,"current_range_meters":1200,"station_id":"ce4bhs92rcd13ifvqi0g","pricing_plan_id":"free"},{"bike_id":"85e32669-58e4-4078-8437-3eb2989dc497","system_id":"levelo_inurba_marseille","lat":43.32829,"lon":5.36693,"is_reserved":false,"is_disabled":false,"rental_uris":{"android":"levelo://app?vid=85e32669-58e4-4078-8437-3eb2989dc497","ios":"levelo://app?vid=85e32669-58e4-4078-8437-3eb2989dc497"},"vehicle_type_id":"4","last_reported":1680203102,"current_range_meters":0,"station_id":"ce4bhs92rcd13ifvqi0g","pricing_plan_id":"free"},{"bike_id":"c6471657-689b-4ded-b487-243b32833fb7","system_id":"levelo_inurba_marseille","lat":43.2969,"lon":5.37291,"is_reserved":false,"is_disabled":false,"rental_uris":{"android":"levelo://app?vid=c6471657-689b-4ded-b487-243b32833fb7","ios":"levelo://app?vid=c6471657-689b-4ded-b487-243b32833fb7"},"vehicle_type_id":"4","last_reported":1680203102,"current_range_meters":1600,"station_id":"","pricing_plan_id":"free"},{"bike_id":"ec1951c3-7788-4c4a-91aa-a02b7bad0aed","system_id":"levelo_inurba_marseille","lat":43.29684,"lon":5.37291,"is_reserved":false,"is_disabled":false,"rental_uris":{"android":"levelo://app?vid=ec1951c3-7788-4c4a-91aa-a02b7bad0aed","ios":"levelo://app?vid=ec1951c3-7788-4c4a-91aa-a02b7bad0aed"},"vehicle_type_id":"4","last_reported":1680203102,"current_range_meters":0,"station_id":"","pricing_plan_id":"free"},{"bike_id":"6dd4f550-6d96-4580-9819-9fad252a34e6","system_id":"levelo_inurba_marseille","lat":43.29573,"lon":5.367355,"is_reserved":false,"is_disabled":false,"rental_uris":{"android":"levelo://app?vid=6dd4f550-6d96-4580-9819-9fad252a34e6","ios":"levelo://app?vid=6dd4f550-6d96-4580-9819-9fad252a34e6"},"vehicle_type_id":"4","last_reported":1680203102,"current_range_meters":10800,"station_id":"ce4bgph2rcd13ifvqc2g","pricing_plan_id":"free"},{"bike_id":"b475f29e-1dfe-46c0-8821-776bbda76781","system_id":"levelo_inurba_marseille","lat":43.299028,"lon":5.381509,"is_reserved":false,"is_disabled":false,"rental_uris":{"android":"levelo://app?vid=b475f29e-1dfe-46c0-8821-776bbda76781","ios":"levelo://app?vid=b475f29e-1dfe-46c0-8821-776bbda76781"},"vehicle_type_id":"4","last_reported":1680203102,"current_range_meters":14800,"station_id":"ce4bgj12rcd13ifvqbc0","pricing_plan_id":"free"},{"bike_id":"36680711-1e5e-45fd-bcb4-c5fd77722c51","system_id":"levelo_inurba_marseille","lat":43.29579,"lon":5.37503,"is_reserved":false,"is_disabled":false,"rental_uris":{"android":"levelo://app?vid=36680711-1e5e-45fd-bcb4-c5fd77722c51","ios":"levelo://app?vid=36680711-1e5e-45fd-bcb4-c5fd77722c51"},"vehicle_type_id":"4","last_reported":1680203102,"current_range_meters":0,"station_id":"ce4bgh92rcd13ifvqb50","pricing_plan_id":"free"},{"bike_id":"d515171c-d05b-41d3-bdf1-a0396f6b4f5a","system_id":"levelo_inurba_marseille","lat":43.3043,"lon":5.38878,"is_reserved":false,"is_disabled":false,"rental_uris":{"android":"levelo://app?vid=d515171c-d05b-41d3-bdf1-a0396f6b4f5a","ios":"levelo://app?vid=d515171c-d05b-41d3-bdf1-a0396f6b4f5a"},"vehicle_type_id":"4","last_reported":1680203102,"current_range_meters":4400,"station_id":"ce4bgk12rcd13ifvqbi0","pricing_plan_id":"free"},{"bike_id":"3cb747b0-f3dd-473d-a2fb-a1d78a755d22","system_id":"levelo_inurba_marseille","lat":43.32606,"lon":5.3836,"is_reserved":false,"is_disabled":false,"rental_uris":{"android":"levelo://app?vid=3cb747b0-f3dd-473d-a2fb-a1d78a755d22","ios":"levelo://app?vid=3cb747b0-f3dd-473d-a2fb-a1d78a755d22"},"vehicle_type_id":"4","last_reported":1680203102,"current_range_meters":5200,"station_id":"ce4bhr92rcd13ifvqhrg","pricing_plan_id":"free"},{"bike_id":"791138a5-1039-46bb-95df-d0616d0dac38","system_id":"levelo_inurba_marseille","lat":43.29795,"lon":5.38113,"is_reserved":false,"is_disabled":false,"rental_uris":{"android":"levelo://app?vid=791138a5-1039-46bb-95df-d0616d0dac38","ios":"levelo://app?vid=791138a5-1039-46bb-95df-d0616d0dac38"},"vehicle_type_id":"4","last_reported":1680203102,"current_range_meters":25200,"station_id":"ce4bgip2rcd13ifvqbb0","pricing_plan_id":"free"},{"bike_id":"922c3497-56bf-4679-b4c3-6c6984e9a6c6","system_id":"levelo_inurba_marseille","lat":43.300852,"lon":5.390859,"is_reserved":false,"is_disabled":false,"rental_uris":{"android":"levelo://app?vid=922c3497-56bf-4679-b4c3-6c6984e9a6c6","ios":"levelo://app?vid=922c3497-56bf-4679-b4c3-6c6984e9a6c6"},"vehicle_type_id":"4","last_reported":1680203102,"current_range_meters":8000,"station_id":"ce4bh192rcd13ifvqdb0","pricing_plan_id":"free"},{"bike_id":"93768ddc-c54a-4eb7-adfd-e4b353f8dfe2","system_id":"levelo_inurba_marseille","lat":43.32367,"lon":5.388836,"is_reserved":false,"is_disabled":false,"rental_uris":{"android":"levelo://app?vid=93768ddc-c54a-4eb7-adfd-e4b353f8dfe2","ios":"levelo://app?vid=93768ddc-c54a-4eb7-adfd-e4b353f8dfe2"},"vehicle_type_id":"4","last_reported":1680203102,"current_range_meters":27600,"station_id":"ce4bhqp2rcd13ifvqhog","pricing_plan_id":"free"},{"bike_id":"a30d8e66-6f45-4c66-bf41-88b54ff209b5","system_id":"levelo_inurba_marseille","lat":43.32367,"lon":5.388836,"is_reserved":false,"is_disabled":false,"rental_uris":{"android":"levelo://app?vid=a30d8e66-6f45-4c66-bf41-88b54ff209b5","ios":"levelo://app?vid=a30d8e66-6f45-4c66-bf41-88b54ff209b5"},"vehicle_type_id":"4","last_reported":1680203102,"current_range_meters":0,"station_id":"ce4bhqp2rcd13ifvqhog","pricing_plan_id":"free"},{"bike_id":"d485ed1c-06e4-4b0b-9a83-12214958d1ee","system_id":"levelo_inurba_marseille","lat":43.32367,"lon":5.388836,"is_reserved":false,"is_disabled":false,"rental_uris":{"android":"levelo://app?vid=d485ed1c-06e4-4b0b-9a83-12214958d1ee","ios":"levelo://app?vid=d485ed1c-06e4-4b0b-9a83-12214958d1ee"},"vehicle_type_id":"4","last_reported":1680203102,"current_range_meters":14400,"station_id":"ce4bhqp2rcd13ifvqhog","pricing_plan_id":"free"},{"bike_id":"398255bd-73c5-41a4-9ac4-f54800c595b5","system_id":"levelo_inurba_marseille","lat":43.32367,"lon":5.388836,"is_reserved":false,"is_disabled":false,"rental_uris":{"android":"levelo://app?vid=398255bd-73c5-41a4-9ac4-f54800c595b5","ios":"levelo://app?vid=398255bd-73c5-41a4-9ac4-f54800c595b5"},"vehicle_type_id":"4","last_reported":1680203102,"current_range_meters":30400,"station_id":"ce4bhqp2rcd13ifvqhog","pricing_plan_id":"free"},{"bike_id":"88d491a9-d71f-45eb-8136-f1dcc206acdd","system_id":"levelo_inurba_marseille","lat":43.32367,"lon":5.388836,"is_reserved":false,"is_disabled":false,"rental_uris":{"android":"levelo://app?vid=88d491a9-d71f-45eb-8136-f1dcc206acdd","ios":"levelo://app?vid=88d491a9-d71f-45eb-8136-f1dcc206acdd"},"vehicle_type_id":"4","last_reported":1680203102,"current_range_meters":8400,"station_id":"ce4bhqp2rcd13ifvqhog","pricing_plan_id":"free"},{"bike_id":"e726a405-f702-4881-9c6f-5faef72bd96d","system_id":"levelo_inurba_marseille","lat":43.32367,"lon":5.388836,"is_reserved":false,"is_disabled":false,"rental_uris":{"android":"levelo://app?vid=e726a405-f702-4881-9c6f-5faef72bd96d","ios":"levelo://app?vid=e726a405-f702-4881-9c6f-5faef72bd96d"},"vehicle_type_id":"4","last_reported":1680203102,"current_range_meters":12800,"station_id":"ce4bhqp2rcd13ifvqhog","pricing_plan_id":"free"},{"bike_id":"438ef1de-204a-4937-95e6-365373eef772","system_id":"levelo_inurba_marseille","lat":43.2936,"lon":5.37835,"is_reserved":false,"is_disabled":false,"rental_uris":{"android":"levelo://app?vid=438ef1de-204a-4937-95e6-365373eef772","ios":"levelo://app?vid=438ef1de-204a-4937-95e6-365373eef772"},"vehicle_type_id":"4","last_reported":1680203102,"current_range_meters":1600,"station_id":"ce4bgjh2rcd13ifvqbf0","pricing_plan_id":"free"},{"bike_id":"9617b2db-6a63-44c1-8d46-bdaf7685a03e","system_id":"levelo_inurba_marseille","lat":43.300852,"lon":5.390859,"is_reserved":false,"is_disabled":false,"rental_uris":{"android":"levelo://app?vid=9617b2db-6a63-44c1-8d46-bdaf7685a03e","ios":"levelo://app?vid=9617b2db-6a63-44c1-8d46-bdaf7685a03e"},"vehicle_type_id":"4","last_reported":1680203102,"current_range_meters":30800,"station_id":"ce4bh192rcd13ifvqdb0","pricing_plan_id":"free"},{"bike_id":"0ffabb40-3c34-473e-9287-6d48d5dbcac7","system_id":"levelo_inurba_marseille","lat":43.300852,"lon":5.390859,"is_reserved":false,"is_disabled":false,"rental_uris":{"android":"levelo://app?vid=0ffabb40-3c34-473e-9287-6d48d5dbcac7","ios":"levelo://app?vid=0ffabb40-3c34-473e-9287-6d48d5dbcac7"},"vehicle_type_id":"4","last_reported":1680203102,"current_range_meters":30800,"station_id":"ce4bh192rcd13ifvqdb0","pricing_plan_id":"free"},{"bike_id":"a6c66ecf-f6e0-4a32-bdc8-1df8b5c300f2","system_id":"levelo_inurba_marseille","lat":43.30088,"lon":5.39078,"is_reserved":false,"is_disabled":false,"rental_uris":{"android":"levelo://app?vid=a6c66ecf-f6e0-4a32-bdc8-1df8b5c300f2","ios":"levelo://app?vid=a6c66ecf-f6e0-4a32-bdc8-1df8b5c300f2"},"vehicle_type_id":"4","last_reported":1680203102,"current_range_meters":9200,"station_id":"ce4bh192rcd13ifvqdb0","pricing_plan_id":"free"},{"bike_id":"346f7c3f-35d8-45df-beb7-4dedd6fd24c5","system_id":"levelo_inurba_marseille","lat":43.298764,"lon":5.388973,"is_reserved":false,"is_disabled":false,"rental_uris":{"android":"levelo://app?vid=346f7c3f-35d8-45df-beb7-4dedd6fd24c5","ios":"levelo://app?vid=346f7c3f-35d8-45df-beb7-4dedd6fd24c5"},"vehicle_type_id":"4","last_reported":1680203102,"current_range_meters":14800,"station_id":"ce4bh392rcd13ifvqdl0","pricing_plan_id":"free"},{"bike_id":"6550dde6-6fe2-428f-b2cf-ab699ef22b38","system_id":"levelo_inurba_marseille","lat":43.291675,"lon":5.371583,"is_reserved":false,"is_disabled":false,"rental_uris":{"android":"levelo://app?vid=6550dde6-6fe2-428f-b2cf-ab699ef22b38","ios":"levelo://app?vid=6550dde6-6fe2-428f-b2cf-ab699ef22b38"},"vehicle_type_id":"4","last_reported":1680203102,"current_range_meters":8000,"station_id":"ce4bha92rcd13ifvqeh0","pricing_plan_id":"free"},{"bike_id":"f828b12a-5a7f-45b9-8349-2e344bfbced2","system_id":"levelo_inurba_marseille","lat":43.29529,"lon":5.385581,"is_reserved":false,"is_disabled":false,"rental_uris":{"android":"levelo://app?vid=f828b12a-5a7f-45b9-8349-2e344bfbced2","ios":"levelo://app?vid=f828b12a-5a7f-45b9-8349-2e344bfbced2"},"vehicle_type_id":"4","last_reported":1680203102,"current_range_meters":29200,"station_id":"ce4bgih2rcd13ifvqba0","pricing_plan_id":"free"},{"bike_id":"dc30c31f-9b15-4dd7-9e1c-874bf67fa41a","system_id":"levelo_inurba_marseille","lat":43.29529,"lon":5.385581,"is_reserved":false,"is_disabled":false,"rental_uris":{"android":"levelo://app?vid=dc30c31f-9b15-4dd7-9e1c-874bf67fa41a","ios":"levelo://app?vid=dc30c31f-9b15-4dd7-9e1c-874bf67fa41a"},"vehicle_type_id":"4","last_reported":1680203102,"current_range_meters":11200,"station_id":"ce4bgih2rcd13ifvqba0","pricing_plan_id":"free"},{"bike_id":"7d986723-3302-422e-a96b-e068cff71db8","system_id":"levelo_inurba_marseille","lat":43.290779,"lon":5.371482,"is_reserved":false,"is_disabled":false,"rental_uris":{"android":"levelo://app?vid=7d986723-3302-422e-a96b-e068cff71db8","ios":"levelo://app?vid=7d986723-3302-422e-a96b-e068cff71db8"},"vehicle_type_id":"4","last_reported":1680203102,"current_range_meters":22800,"station_id":"ce4bh5p2rcd13ifvqe4g","pricing_plan_id":"free"},{"bike_id":"4b461725-dea5-4884-b6c8-f46e3d3da561","system_id":"levelo_inurba_marseille","lat":43.290319,"lon":5.375732,"is_reserved":false,"is_disabled":false,"rental_uris":{"android":"levelo://app?vid=4b461725-dea5-4884-b6c8-f46e3d3da561","ios":"levelo://app?vid=4b461725-dea5-4884-b6c8-f46e3d3da561"},"vehicle_type_id":"4","last_reported":1680203102,"current_range_meters":18000,"station_id":"ce4bh692rcd13ifvqe90","pricing_plan_id":"free"},{"bike_id":"b5ba64cc-c436-451c-9b2e-81925c951740","system_id":"levelo_inurba_marseille","lat":43.28945,"lon":5.36641,"is_reserved":false,"is_disabled":false,"rental_uris":{"android":"levelo://app?vid=b5ba64cc-c436-451c-9b2e-81925c951740","ios":"levelo://app?vid=b5ba64cc-c436-451c-9b2e-81925c951740"},"vehicle_type_id":"4","last_reported":1680203102,"current_range_meters":0,"station_id":"","pricing_plan_id":"free"},{"bike_id":"0594b33a-5129-433d-9692-5802afdc0165","system_id":"levelo_inurba_marseille","lat":43.290319,"lon":5.375732,"is_reserved":false,"is_disabled":false,"rental_uris":{"android":"levelo://app?vid=0594b33a-5129-433d-9692-5802afdc0165","ios":"levelo://app?vid=0594b33a-5129-433d-9692-5802afdc0165"},"vehicle_type_id":"4","last_reported":1680203102,"current_range_meters":1200,"station_id":"ce4bh692rcd13ifvqe90","pricing_plan_id":"free"},{"bike_id":"f738bd05-863b-478c-9f3a-34972fd09ceb","system_id":"levelo_inurba_marseille","lat":43.289468,"lon":5.363719,"is_reserved":false,"is_disabled":false,"rental_uris":{"android":"levelo://app?vid=f738bd05-863b-478c-9f3a-34972fd09ceb","ios":"levelo://app?vid=f738bd05-863b-478c-9f3a-34972fd09ceb"},"vehicle_type_id":"4","last_reported":1680203102,"current_range_meters":2000,"station_id":"ce4bhc92rcd13ifvqetg","pricing_plan_id":"free"},{"bike_id":"79bd4a3b-3eb3-4e3a-91a9-2369ab48f984","system_id":"levelo_inurba_marseille","lat":43.292642,"lon":5.384254,"is_reserved":false,"is_disabled":false,"rental_uris":{"android":"levelo://app?vid=79bd4a3b-3eb3-4e3a-91a9-2369ab48f984","ios":"levelo://app?vid=79bd4a3b-3eb3-4e3a-91a9-2369ab48f984"},"vehicle_type_id":"4","last_reported":1680203102,"current_range_meters":23200,"station_id":"ce4bh692rcd13ifvqea0","pricing_plan_id":"free"},{"bike_id":"c0eb9c05-2cb1-4e49-937d-62f34c8abf3b","system_id":"levelo_inurba_marseille","lat":43.33045,"lon":5.38916,"is_reserved":false,"is_disabled":false,"rental_uris":{"android":"levelo://app?vid=c0eb9c05-2cb1-4e49-937d-62f34c8abf3b","ios":"levelo://app?vid=c0eb9c05-2cb1-4e49-937d-62f34c8abf3b"},"vehicle_type_id":"4","last_reported":1680203102,"current_range_meters":0,"station_id":"ce4bhr92rcd13ifvqhrg","pricing_plan_id":"free"},{"bike_id":"5807128d-88e6-4a1e-8438-8b47a655eec5","system_id":"levelo_inurba_marseille","lat":43.290104,"lon":5.356111,"is_reserved":false,"is_disabled":false,"rental_uris":{"android":"levelo://app?vid=5807128d-88e6-4a1e-8438-8b47a655eec5","ios":"levelo://app?vid=5807128d-88e6-4a1e-8438-8b47a655eec5"},"vehicle_type_id":"4","last_reported":1680203102,"current_range_meters":2400,"station_id":"ce4bhb92rcd13ifvqen0","pricing_plan_id":"free"},{"bike_id":"ddc2a85b-e298-4401-b673-8abdd566f550","system_id":"levelo_inurba_marseille","lat":43.330442,"lon":5.389148,"is_reserved":false,"is_disabled":false,"rental_uris":{"android":"levelo://app?vid=ddc2a85b-e298-4401-b673-8abdd566f550","ios":"levelo://app?vid=ddc2a85b-e298-4401-b673-8abdd566f550"},"vehicle_type_id":"4","last_reported":1680203102,"current_range_meters":0,"station_id":"ce4bhr92rcd13ifvqhrg","pricing_plan_id":"free"},{"bike_id":"be387a19-cb88-4ac4-acdc-ab3c4932fe51","system_id":"levelo_inurba_marseille","lat":43.33047,"lon":5.38917,"is_reserved":false,"is_disabled":false,"rental_uris":{"android":"levelo://app?vid=be387a19-cb88-4ac4-acdc-ab3c4932fe51","ios":"levelo://app?vid=be387a19-cb88-4ac4-acdc-ab3c4932fe51"},"vehicle_type_id":"4","last_reported":1680203102,"current_range_meters":0,"station_id":"ce4bhr92rcd13ifvqhrg","pricing_plan_id":"free"},{"bike_id":"c03cd901-93fd-46fb-a195-9e7f58111302","system_id":"levelo_inurba_marseille","lat":43.33046,"lon":5.38919,"is_reserved":false,"is_disabled":false,"rental_uris":{"android":"levelo://app?vid=c03cd901-93fd-46fb-a195-9e7f58111302","ios":"levelo://app?vid=c03cd901-93fd-46fb-a195-9e7f58111302"},"vehicle_type_id":"4","last_reported":1680203102,"current_range_meters":4400,"station_id":"ce4bhr92rcd13ifvqhrg","pricing_plan_id":"free"},{"bike_id":"81f70436-05a3-4865-a30e-21ba4ce252ba","system_id":"levelo_inurba_marseille","lat":43.33045,"lon":5.38921,"is_reserved":false,"is_disabled":false,"rental_uris":{"android":"levelo://app?vid=81f70436-05a3-4865-a30e-21ba4ce252ba","ios":"levelo://app?vid=81f70436-05a3-4865-a30e-21ba4ce252ba"},"vehicle_type_id":"4","last_reported":1680203102,"current_range_meters":9600,"station_id":"","pricing_plan_id":"free"},{"bike_id":"e414d4e1-0e32-48b2-a861-6208ac0066e7","system_id":"levelo_inurba_marseille","lat":43.288935,"lon":5.361244,"is_reserved":false,"is_disabled":false,"rental_uris":{"android":"levelo://app?vid=e414d4e1-0e32-48b2-a861-6208ac0066e7","ios":"levelo://app?vid=e414d4e1-0e32-48b2-a861-6208ac0066e7"},"vehicle_type_id":"4","last_reported":1680203102,"current_range_meters":0,"station_id":"","pricing_plan_id":"free"},{"bike_id":"888b86ec-f37d-4bd9-8151-0d6ee91d0b08","system_id":"levelo_inurba_marseille","lat":43.295169,"lon":5.390426,"is_reserved":false,"is_disabled":false,"rental_uris":{"android":"levelo://app?vid=888b86ec-f37d-4bd9-8151-0d6ee91d0b08","ios":"levelo://app?vid=888b86ec-f37d-4bd9-8151-0d6ee91d0b08"},"vehicle_type_id":"4","last_reported":1680203102,"current_range_meters":5200,"station_id":"ce4bh3p2rcd13ifvqdp0","pricing_plan_id":"free"},{"bike_id":"26b491c8-e691-43fe-a89a-7e692b136376","system_id":"levelo_inurba_marseille","lat":43.295169,"lon":5.390426,"is_reserved":false,"is_disabled":false,"rental_uris":{"android":"levelo://app?vid=26b491c8-e691-43fe-a89a-7e692b136376","ios":"levelo://app?vid=26b491c8-e691-43fe-a89a-7e692b136376"},"vehicle_type_id":"4","last_reported":1680203102,"current_range_meters":800,"station_id":"ce4bh3p2rcd13ifvqdp0","pricing_plan_id":"free"},{"bike_id":"d5c80345-9752-4c5b-a446-e48285e22a61","system_id":"levelo_inurba_marseille","lat":43.33753,"lon":5.37439,"is_reserved":false,"is_disabled":false,"rental_uris":{"android":"levelo://app?vid=d5c80345-9752-4c5b-a446-e48285e22a61","ios":"levelo://app?vid=d5c80345-9752-4c5b-a446-e48285e22a61"},"vehicle_type_id":"4","last_reported":1680203102,"current_range_meters":25200,"station_id":"","pricing_plan_id":"free"},{"bike_id":"ddffd1af-6274-4d91-a478-a2cb0842fc9a","system_id":"levelo_inurba_marseille","lat":43.30642,"lon":5.401031,"is_reserved":false,"is_disabled":false,"rental_uris":{"android":"levelo://app?vid=ddffd1af-6274-4d91-a478-a2cb0842fc9a","ios":"levelo://app?vid=ddffd1af-6274-4d91-a478-a2cb0842fc9a"},"vehicle_type_id":"4","last_reported":1680203102,"current_range_meters":4000,"station_id":"ce4bh112rcd13ifvqda0","pricing_plan_id":"free"},{"bike_id":"7ea5c5d1-1599-49e2-821e-335cd8dda03b","system_id":"levelo_inurba_marseille","lat":43.33769,"lon":5.37449,"is_reserved":false,"is_disabled":false,"rental_uris":{"android":"levelo://app?vid=7ea5c5d1-1599-49e2-821e-335cd8dda03b","ios":"levelo://app?vid=7ea5c5d1-1599-49e2-821e-335cd8dda03b"},"vehicle_type_id":"4","last_reported":1680203102,"current_range_meters":0,"station_id":"","pricing_plan_id":"free"},{"bike_id":"3fe8d592-8df4-4f80-b5d8-a6b20de66b3a","system_id":"levelo_inurba_marseille","lat":43.302759,"lon":5.400793,"is_reserved":false,"is_disabled":false,"rental_uris":{"android":"levelo://app?vid=3fe8d592-8df4-4f80-b5d8-a6b20de66b3a","ios":"levelo://app?vid=3fe8d592-8df4-4f80-b5d8-a6b20de66b3a"},"vehicle_type_id":"4","last_reported":1680203102,"current_range_meters":3200,"station_id":"ce4bgvh2rcd13ifvqcs0","pricing_plan_id":"free"},{"bike_id":"c99521e9-fb76-42f3-a46d-25ab9a2b5fdd","system_id":"levelo_inurba_marseille","lat":43.295196,"lon":5.39397,"is_reserved":false,"is_disabled":false,"rental_uris":{"android":"levelo://app?vid=c99521e9-fb76-42f3-a46d-25ab9a2b5fdd","ios":"levelo://app?vid=c99521e9-fb76-42f3-a46d-25ab9a2b5fdd"},"vehicle_type_id":"4","last_reported":1680203102,"current_range_meters":4400,"station_id":"ce4bh292rcd13ifvqdf0","pricing_plan_id":"free"},{"bike_id":"c3823e77-b330-4f7a-ad66-a3b361c175e3","system_id":"levelo_inurba_marseille","lat":43.295196,"lon":5.39397,"is_reserved":false,"is_disabled":false,"rental_uris":{"android":"levelo://app?vid=c3823e77-b330-4f7a-ad66-a3b361c175e3","ios":"levelo://app?vid=c3823e77-b330-4f7a-ad66-a3b361c175e3"},"vehicle_type_id":"4","last_reported":1680203102,"current_range_meters":10400,"station_id":"ce4bh292rcd13ifvqdf0","pricing_plan_id":"free"},{"bike_id":"d2d3f56d-1744-4196-a9a0-77bc4067437d","system_id":"levelo_inurba_marseille","lat":43.302759,"lon":5.400793,"is_reserved":false,"is_disabled":false,"rental_uris":{"android":"levelo://app?vid=d2d3f56d-1744-4196-a9a0-77bc4067437d","ios":"levelo://app?vid=d2d3f56d-1744-4196-a9a0-77bc4067437d"},"vehicle_type_id":"4","last_reported":1680203102,"current_range_meters":11600,"station_id":"ce4bgvh2rcd13ifvqcs0","pricing_plan_id":"free"},{"bike_id":"fbde04d5-851f-43e1-98e8-752367f7644d","system_id":"levelo_inurba_marseille","lat":43.286039,"lon":5.370679,"is_reserved":false,"is_disabled":false,"rental_uris":{"android":"levelo://app?vid=fbde04d5-851f-43e1-98e8-752367f7644d","ios":"levelo://app?vid=fbde04d5-851f-43e1-98e8-752367f7644d"},"vehicle_type_id":"4","last_reported":1680203102,"current_range_meters":30800,"station_id":"ce4bht12rcd13ifvqi60","pricing_plan_id":"free"},{"bike_id":"ba0f09f4-d186-4c17-ab90-9b1c8cae2615","system_id":"levelo_inurba_marseille","lat":43.286039,"lon":5.370679,"is_reserved":false,"is_disabled":false,"rental_uris":{"android":"levelo://app?vid=ba0f09f4-d186-4c17-ab90-9b1c8cae2615","ios":"levelo://app?vid=ba0f09f4-d186-4c17-ab90-9b1c8cae2615"},"vehicle_type_id":"4","last_reported":1680203102,"current_range_meters":30800,"station_id":"ce4bht12rcd13ifvqi60","pricing_plan_id":"free"},{"bike_id":"c26993fb-01b9-4421-8aaf-f1bbff529c2b","system_id":"levelo_inurba_marseille","lat":43.287184,"lon":5.37937,"is_reserved":false,"is_disabled":false,"rental_uris":{"android":"levelo://app?vid=c26993fb-01b9-4421-8aaf-f1bbff529c2b","ios":"levelo://app?vid=c26993fb-01b9-4421-8aaf-f1bbff529c2b"},"vehicle_type_id":"4","last_reported":1680203102,"current_range_meters":16400,"station_id":"ce4bh9p2rcd13ifvqec0","pricing_plan_id":"free"},{"bike_id":"a8fefb55-22f3-4f79-ad96-b702a3767747","system_id":"levelo_inurba_marseille","lat":43.287184,"lon":5.37937,"is_reserved":false,"is_disabled":false,"rental_uris":{"android":"levelo://app?vid=a8fefb55-22f3-4f79-ad96-b702a3767747","ios":"levelo://app?vid=a8fefb55-22f3-4f79-ad96-b702a3767747"},"vehicle_type_id":"4","last_reported":1680203102,"current_range_meters":8000,"station_id":"ce4bh9p2rcd13ifvqec0","pricing_plan_id":"free"},{"bike_id":"8c64559f-9b53-4ed0-8308-aaba75f1453b","system_id":"levelo_inurba_marseille","lat":43.287184,"lon":5.37937,"is_reserved":false,"is_disabled":false,"rental_uris":{"android":"levelo://app?vid=8c64559f-9b53-4ed0-8308-aaba75f1453b","ios":"levelo://app?vid=8c64559f-9b53-4ed0-8308-aaba75f1453b"},"vehicle_type_id":"4","last_reported":1680203102,"current_range_meters":0,"station_id":"ce4bh9p2rcd13ifvqec0","pricing_plan_id":"free"},{"bike_id":"487334e5-dab7-4bb4-bf50-efb928e5847a","system_id":"levelo_inurba_marseille","lat":43.295713,"lon":5.399639,"is_reserved":false,"is_disabled":false,"rental_uris":{"android":"levelo://app?vid=487334e5-dab7-4bb4-bf50-efb928e5847a","ios":"levelo://app?vid=487334e5-dab7-4bb4-bf50-efb928e5847a"},"vehicle_type_id":"4","last_reported":1680203102,"current_range_meters":24800,"station_id":"ce4bh312rcd13ifvqdj0","pricing_plan_id":"free"},{"bike_id":"144f695d-9dde-4dac-b9cb-b4e2a37f3699","system_id":"levelo_inurba_marseille","lat":43.33717,"lon":5.391857,"is_reserved":false,"is_disabled":false,"rental_uris":{"android":"levelo://app?vid=144f695d-9dde-4dac-b9cb-b4e2a37f3699","ios":"levelo://app?vid=144f695d-9dde-4dac-b9cb-b4e2a37f3699"},"vehicle_type_id":"4","last_reported":1680203102,"current_range_meters":14800,"station_id":"ce4bhr92rcd13ifvqhsg","pricing_plan_id":"free"},{"bike_id":"e8727ab4-e0cc-4682-95d8-333cbc13a66d","system_id":"levelo_inurba_marseille","lat":43.284787,"lon":5.384116,"is_reserved":false,"is_disabled":false,"rental_uris":{"android":"levelo://app?vid=e8727ab4-e0cc-4682-95d8-333cbc13a66d","ios":"levelo://app?vid=e8727ab4-e0cc-4682-95d8-333cbc13a66d"},"vehicle_type_id":"4","last_reported":1680203102,"current_range_meters":25600,"station_id":"ce4bh512rcd13ifvqe3g","pricing_plan_id":"free"},{"bike_id":"f503621c-c63b-4269-b107-90904f92d204","system_id":"levelo_inurba_marseille","lat":43.28859,"lon":5.39316,"is_reserved":false,"is_disabled":false,"rental_uris":{"android":"levelo://app?vid=f503621c-c63b-4269-b107-90904f92d204","ios":"levelo://app?vid=f503621c-c63b-4269-b107-90904f92d204"},"vehicle_type_id":"4","last_reported":1680203102,"current_range_meters":0,"station_id":"ce4bh2p2rcd13ifvqdi0","pricing_plan_id":"free"},{"bike_id":"8108272d-271a-44ba-9711-118a4a584888","system_id":"levelo_inurba_marseille","lat":43.28493,"lon":5.38532,"is_reserved":false,"is_disabled":false,"rental_uris":{"android":"levelo://app?vid=8108272d-271a-44ba-9711-118a4a584888","ios":"levelo://app?vid=8108272d-271a-44ba-9711-118a4a584888"},"vehicle_type_id":"4","last_reported":1680203102,"current_range_meters":18000,"station_id":"","pricing_plan_id":"free"},{"bike_id":"33412e70-1c2e-4666-9176-2bf614336aea","system_id":"levelo_inurba_marseille","lat":43.28354,"lon":5.38102,"is_reserved":false,"is_disabled":false,"rental_uris":{"android":"levelo://app?vid=33412e70-1c2e-4666-9176-2bf614336aea","ios":"levelo://app?vid=33412e70-1c2e-4666-9176-2bf614336aea"},"vehicle_type_id":"4","last_reported":1680203102,"current_range_meters":3200,"station_id":"","pricing_plan_id":"free"},{"bike_id":"9b895f11-4125-4ebc-bbe7-74af7a81dcd6","system_id":"levelo_inurba_marseille","lat":43.284219,"lon":5.3497,"is_reserved":false,"is_disabled":false,"rental_uris":{"android":"levelo://app?vid=9b895f11-4125-4ebc-bbe7-74af7a81dcd6","ios":"levelo://app?vid=9b895f11-4125-4ebc-bbe7-74af7a81dcd6"},"vehicle_type_id":"4","last_reported":1680203102,"current_range_meters":20400,"station_id":"ce4bhbh2rcd13ifvqepg","pricing_plan_id":"free"},{"bike_id":"3be6d7cd-8396-4771-9694-e6b74a4a5811","system_id":"levelo_inurba_marseille","lat":43.284219,"lon":5.3497,"is_reserved":false,"is_disabled":false,"rental_uris":{"android":"levelo://app?vid=3be6d7cd-8396-4771-9694-e6b74a4a5811","ios":"levelo://app?vid=3be6d7cd-8396-4771-9694-e6b74a4a5811"},"vehicle_type_id":"4","last_reported":1680203102,"current_range_meters":0,"station_id":"ce4bhbh2rcd13ifvqepg","pricing_plan_id":"free"},{"bike_id":"5b65549a-07fa-4510-92f8-6f45215d80c1","system_id":"levelo_inurba_marseille","lat":43.282744,"lon":5.350533,"is_reserved":false,"is_disabled":false,"rental_uris":{"android":"levelo://app?vid=5b65549a-07fa-4510-92f8-6f45215d80c1","ios":"levelo://app?vid=5b65549a-07fa-4510-92f8-6f45215d80c1"},"vehicle_type_id":"4","last_reported":1680203102,"current_range_meters":800,"station_id":"ce4bhbp2rcd13ifvqerg","pricing_plan_id":"free"},{"bike_id":"2b9f5ea6-bcef-4da5-ac1f-cef748da53c4","system_id":"levelo_inurba_marseille","lat":43.296263,"lon":5.40601,"is_reserved":false,"is_disabled":false,"rental_uris":{"android":"levelo://app?vid=2b9f5ea6-bcef-4da5-ac1f-cef748da53c4","ios":"levelo://app?vid=2b9f5ea6-bcef-4da5-ac1f-cef748da53c4"},"vehicle_type_id":"4","last_reported":1680203102,"current_range_meters":800,"station_id":"ce4bh0h2rcd13ifvqd60","pricing_plan_id":"free"},{"bike_id":"59ce78eb-b712-46d2-9c11-97a7dc0036ee","system_id":"levelo_inurba_marseille","lat":43.296263,"lon":5.40601,"is_reserved":false,"is_disabled":false,"rental_uris":{"android":"levelo://app?vid=59ce78eb-b712-46d2-9c11-97a7dc0036ee","ios":"levelo://app?vid=59ce78eb-b712-46d2-9c11-97a7dc0036ee"},"vehicle_type_id":"4","last_reported":1680203102,"current_range_meters":0,"station_id":"ce4bh0h2rcd13ifvqd60","pricing_plan_id":"free"},{"bike_id":"2cbb8508-7d2f-49ab-9fce-91f08094d42c","system_id":"levelo_inurba_marseille","lat":43.28636,"lon":5.39899,"is_reserved":false,"is_disabled":false,"rental_uris":{"android":"levelo://app?vid=2cbb8508-7d2f-49ab-9fce-91f08094d42c","ios":"levelo://app?vid=2cbb8508-7d2f-49ab-9fce-91f08094d42c"},"vehicle_type_id":"4","last_reported":1680203102,"current_range_meters":0,"station_id":"","pricing_plan_id":"free"},{"bike_id":"88616935-a107-4bff-b7ea-6f7193171b10","system_id":"levelo_inurba_marseille","lat":43.279742,"lon":5.38744,"is_reserved":false,"is_disabled":false,"rental_uris":{"android":"levelo://app?vid=88616935-a107-4bff-b7ea-6f7193171b10","ios":"levelo://app?vid=88616935-a107-4bff-b7ea-6f7193171b10"},"vehicle_type_id":"4","last_reported":1680203102,"current_range_meters":3200,"station_id":"ce4bhg12rcd13ifvqf80","pricing_plan_id":"free"},{"bike_id":"3323df48-f3bf-4eed-bf59-6cbee04e602f","system_id":"levelo_inurba_marseille","lat":43.32547,"lon":5.4142,"is_reserved":false,"is_disabled":false,"rental_uris":{"android":"levelo://app?vid=3323df48-f3bf-4eed-bf59-6cbee04e602f","ios":"levelo://app?vid=3323df48-f3bf-4eed-bf59-6cbee04e602f"},"vehicle_type_id":"4","last_reported":1680203102,"current_range_meters":3200,"station_id":"ce4bhq12rcd13ifvqhhg","pricing_plan_id":"free"},{"bike_id":"334d9060-1b37-4294-aef6-c1084a8dd306","system_id":"levelo_inurba_marseille","lat":43.27618,"lon":5.361009,"is_reserved":false,"is_disabled":false,"rental_uris":{"android":"levelo://app?vid=334d9060-1b37-4294-aef6-c1084a8dd306","ios":"levelo://app?vid=334d9060-1b37-4294-aef6-c1084a8dd306"},"vehicle_type_id":"4","last_reported":1680203102,"current_range_meters":23200,"station_id":"ce4bgj92rcd13ifvqbe0","pricing_plan_id":"free"},{"bike_id":"ed5f436f-0836-4b42-8d35-d8bbad08def0","system_id":"levelo_inurba_marseille","lat":43.280784,"lon":5.396622,"is_reserved":false,"is_disabled":false,"rental_uris":{"android":"levelo://app?vid=ed5f436f-0836-4b42-8d35-d8bbad08def0","ios":"levelo://app?vid=ed5f436f-0836-4b42-8d35-d8bbad08def0"},"vehicle_type_id":"4","last_reported":1680203102,"current_range_meters":22400,"station_id":"ce4bho12rcd13ifvqh2g","pricing_plan_id":"free"},{"bike_id":"1b1189b0-d913-4ff7-980f-6618eadf5136","system_id":"levelo_inurba_marseille","lat":43.28078,"lon":5.39662,"is_reserved":false,"is_disabled":false,"rental_uris":{"android":"levelo://app?vid=1b1189b0-d913-4ff7-980f-6618eadf5136","ios":"levelo://app?vid=1b1189b0-d913-4ff7-980f-6618eadf5136"},"vehicle_type_id":"4","last_reported":1680203102,"current_range_meters":29200,"station_id":"ce4bho12rcd13ifvqh2g","pricing_plan_id":"free"},{"bike_id":"5a85cf15-cd30-4774-a74a-be17606ad087","system_id":"levelo_inurba_marseille","lat":43.273613,"lon":5.362705,"is_reserved":false,"is_disabled":false,"rental_uris":{"android":"levelo://app?vid=5a85cf15-cd30-4774-a74a-be17606ad087","ios":"levelo://app?vid=5a85cf15-cd30-4774-a74a-be17606ad087"},"vehicle_type_id":"4","last_reported":1680203102,"current_range_meters":0,"station_id":"ce4bhbh2rcd13ifvqeo0","pricing_plan_id":"free"},{"bike_id":"94949930-ee84-40a4-852a-6b481355055e","system_id":"levelo_inurba_marseille","lat":43.33609,"lon":5.41035,"is_reserved":false,"is_disabled":false,"rental_uris":{"android":"levelo://app?vid=94949930-ee84-40a4-852a-6b481355055e","ios":"levelo://app?vid=94949930-ee84-40a4-852a-6b481355055e"},"vehicle_type_id":"4","last_reported":1680203102,"current_range_meters":6400,"station_id":"ce4bhqh2rcd13ifvqhmg","pricing_plan_id":"free"},{"bike_id":"749ce1b1-35bf-449f-bf99-04b741fae3f8","system_id":"levelo_inurba_marseille","lat":43.310785,"lon":5.424305,"is_reserved":false,"is_disabled":false,"rental_uris":{"android":"levelo://app?vid=749ce1b1-35bf-449f-bf99-04b741fae3f8","ios":"levelo://app?vid=749ce1b1-35bf-449f-bf99-04b741fae3f8"},"vehicle_type_id":"4","last_reported":1680203102,"current_range_meters":24800,"station_id":"ce4bhp92rcd13ifvqhag","pricing_plan_id":"free"},{"bike_id":"0a933b83-e240-4d27-821c-4cc7974e0f10","system_id":"levelo_inurba_marseille","lat":43.274103,"lon":5.394016,"is_reserved":false,"is_disabled":false,"rental_uris":{"android":"levelo://app?vid=0a933b83-e240-4d27-821c-4cc7974e0f10","ios":"levelo://app?vid=0a933b83-e240-4d27-821c-4cc7974e0f10"},"vehicle_type_id":"4","last_reported":1680203102,"current_range_meters":6800,"station_id":"ce4bhdp2rcd13ifvqf20","pricing_plan_id":"free"},{"bike_id":"41bc78d7-b793-4722-99a6-98a269e822d5","system_id":"levelo_inurba_marseille","lat":43.295523,"lon":5.422926,"is_reserved":false,"is_disabled":false,"rental_uris":{"android":"levelo://app?vid=41bc78d7-b793-4722-99a6-98a269e822d5","ios":"levelo://app?vid=41bc78d7-b793-4722-99a6-98a269e822d5"},"vehicle_type_id":"4","last_reported":1680203102,"current_range_meters":2000,"station_id":"ce4bhph2rcd13ifvqhdg","pricing_plan_id":"free"},{"bike_id":"d4a1168f-c13a-443b-ba33-a1e82f911181","system_id":"levelo_inurba_marseille","lat":43.278128,"lon":5.407195,"is_reserved":false,"is_disabled":false,"rental_uris":{"android":"levelo://app?vid=d4a1168f-c13a-443b-ba33-a1e82f911181","ios":"levelo://app?vid=d4a1168f-c13a-443b-ba33-a1e82f911181"},"vehicle_type_id":"4","last_reported":1680203102,"current_range_meters":800,"station_id":"ce4bhnh2rcd13ifvqgtg","pricing_plan_id":"free"},{"bike_id":"f13b5a65-5cfb-49ac-b723-19acc957459f","system_id":"levelo_inurba_marseille","lat":43.278128,"lon":5.407195,"is_reserved":false,"is_disabled":false,"rental_uris":{"android":"levelo://app?vid=f13b5a65-5cfb-49ac-b723-19acc957459f","ios":"levelo://app?vid=f13b5a65-5cfb-49ac-b723-19acc957459f"},"vehicle_type_id":"4","last_reported":1680203102,"current_range_meters":10800,"station_id":"ce4bhnh2rcd13ifvqgtg","pricing_plan_id":"free"},{"bike_id":"19abed80-9831-497d-bf4c-caf78fab5591","system_id":"levelo_inurba_marseille","lat":43.278128,"lon":5.407195,"is_reserved":false,"is_disabled":false,"rental_uris":{"android":"levelo://app?vid=19abed80-9831-497d-bf4c-caf78fab5591","ios":"levelo://app?vid=19abed80-9831-497d-bf4c-caf78fab5591"},"vehicle_type_id":"4","last_reported":1680203102,"current_range_meters":6800,"station_id":"ce4bhnh2rcd13ifvqgtg","pricing_plan_id":"free"},{"bike_id":"8f0b216c-ded9-4175-9806-82e8bc3b47fa","system_id":"levelo_inurba_marseille","lat":43.278128,"lon":5.407195,"is_reserved":false,"is_disabled":false,"rental_uris":{"android":"levelo://app?vid=8f0b216c-ded9-4175-9806-82e8bc3b47fa","ios":"levelo://app?vid=8f0b216c-ded9-4175-9806-82e8bc3b47fa"},"vehicle_type_id":"4","last_reported":1680203102,"current_range_meters":4000,"station_id":"ce4bhnh2rcd13ifvqgtg","pricing_plan_id":"free"},{"bike_id":"48d3e434-999f-4b7c-a1a8-08e18270eac8","system_id":"levelo_inurba_marseille","lat":43.32565,"lon":5.42702,"is_reserved":false,"is_disabled":false,"rental_uris":{"android":"levelo://app?vid=48d3e434-999f-4b7c-a1a8-08e18270eac8","ios":"levelo://app?vid=48d3e434-999f-4b7c-a1a8-08e18270eac8"},"vehicle_type_id":"4","last_reported":1680203102,"current_range_meters":19600,"station_id":"","pricing_plan_id":"free"},{"bike_id":"a02c57e1-6543-4c19-8a75-fc94d4e94580","system_id":"levelo_inurba_marseille","lat":43.265714,"lon":5.372891,"is_reserved":false,"is_disabled":false,"rental_uris":{"android":"levelo://app?vid=a02c57e1-6543-4c19-8a75-fc94d4e94580","ios":"levelo://app?vid=a02c57e1-6543-4c19-8a75-fc94d4e94580"},"vehicle_type_id":"4","last_reported":1680203102,"current_range_meters":0,"station_id":"ce4bhg12rcd13ifvqf70","pricing_plan_id":"free"},{"bike_id":"bde18321-16f4-431a-bcba-31d3cefe3e0f","system_id":"levelo_inurba_marseille","lat":43.26681,"lon":5.382694,"is_reserved":false,"is_disabled":false,"rental_uris":{"android":"levelo://app?vid=bde18321-16f4-431a-bcba-31d3cefe3e0f","ios":"levelo://app?vid=bde18321-16f4-431a-bcba-31d3cefe3e0f"},"vehicle_type_id":"4","last_reported":1680203102,"current_range_meters":12400,"station_id":"ce4bhg92rcd13ifvqf90","pricing_plan_id":"free"},{"bike_id":"460c9879-7220-4ef9-9741-08b8e45d914a","system_id":"levelo_inurba_marseille","lat":43.27996,"lon":5.416624,"is_reserved":false,"is_disabled":false,"rental_uris":{"android":"levelo://app?vid=460c9879-7220-4ef9-9741-08b8e45d914a","ios":"levelo://app?vid=460c9879-7220-4ef9-9741-08b8e45d914a"},"vehicle_type_id":"4","last_reported":1680203102,"current_range_meters":21600,"station_id":"ce4bho12rcd13ifvqh1g","pricing_plan_id":"free"},{"bike_id":"f6f8548f-3021-41d2-ae05-424ec9d15c0f","system_id":"levelo_inurba_marseille","lat":43.27996,"lon":5.416624,"is_reserved":false,"is_disabled":false,"rental_uris":{"android":"levelo://app?vid=f6f8548f-3021-41d2-ae05-424ec9d15c0f","ios":"levelo://app?vid=f6f8548f-3021-41d2-ae05-424ec9d15c0f"},"vehicle_type_id":"4","last_reported":1680203102,"current_range_meters":14400,"station_id":"ce4bho12rcd13ifvqh1g","pricing_plan_id":"free"},{"bike_id":"94132317-db01-45f5-a11b-b674ab40cd95","system_id":"levelo_inurba_marseille","lat":43.308051,"lon":5.43527,"is_reserved":false,"is_disabled":false,"rental_uris":{"android":"levelo://app?vid=94132317-db01-45f5-a11b-b674ab40cd95","ios":"levelo://app?vid=94132317-db01-45f5-a11b-b674ab40cd95"},"vehicle_type_id":"4","last_reported":1680203102,"current_range_meters":0,"station_id":"ce4bhph2rcd13ifvqheg","pricing_plan_id":"free"},{"bike_id":"3f48d300-3a5a-4762-9c3c-e5bfe6052062","system_id":"levelo_inurba_marseille","lat":43.28323,"lon":5.42351,"is_reserved":false,"is_disabled":false,"rental_uris":{"android":"levelo://app?vid=3f48d300-3a5a-4762-9c3c-e5bfe6052062","ios":"levelo://app?vid=3f48d300-3a5a-4762-9c3c-e5bfe6052062"},"vehicle_type_id":"4","last_reported":1680203102,"current_range_meters":0,"station_id":"","pricing_plan_id":"free"},{"bike_id":"c8ea8206-901a-488c-ac4b-8b1e01485d14","system_id":"levelo_inurba_marseille","lat":43.331864,"lon":5.431794,"is_reserved":false,"is_disabled":false,"rental_uris":{"android":"levelo://app?vid=c8ea8206-901a-488c-ac4b-8b1e01485d14","ios":"levelo://app?vid=c8ea8206-901a-488c-ac4b-8b1e01485d14"},"vehicle_type_id":"4","last_reported":1680203102,"current_range_meters":0,"station_id":"","pricing_plan_id":"free"},{"bike_id":"fdafc353-e0c6-4c25-838f-204181e2a802","system_id":"levelo_inurba_marseille","lat":43.317104,"lon":5.436818,"is_reserved":false,"is_disabled":false,"rental_uris":{"android":"levelo://app?vid=fdafc353-e0c6-4c25-838f-204181e2a802","ios":"levelo://app?vid=fdafc353-e0c6-4c25-838f-204181e2a802"},"vehicle_type_id":"4","last_reported":1680203102,"current_range_meters":0,"station_id":"ce4bhp92rcd13ifvqhcg","pricing_plan_id":"free"},{"bike_id":"b87667e2-fe88-4a47-96aa-aa26883d43da","system_id":"levelo_inurba_marseille","lat":43.268028,"lon":5.402764,"is_reserved":false,"is_disabled":false,"rental_uris":{"android":"levelo://app?vid=b87667e2-fe88-4a47-96aa-aa26883d43da","ios":"levelo://app?vid=b87667e2-fe88-4a47-96aa-aa26883d43da"},"vehicle_type_id":"4","last_reported":1680203102,"current_range_meters":12400,"station_id":"ce501612rcd8frsf0b60","pricing_plan_id":"free"},{"bike_id":"af6369ba-8a4d-4136-90bc-7e9e3512df2f","system_id":"levelo_inurba_marseille","lat":43.260909,"lon":5.397591,"is_reserved":false,"is_disabled":false,"rental_uris":{"android":"levelo://app?vid=af6369ba-8a4d-4136-90bc-7e9e3512df2f","ios":"levelo://app?vid=af6369ba-8a4d-4136-90bc-7e9e3512df2f"},"vehicle_type_id":"4","last_reported":1680203102,"current_range_meters":24400,"station_id":"ce4bhi12rcd13ifvqfq0","pricing_plan_id":"free"},{"bike_id":"2538402b-0bd2-4399-9a00-d4bd16f75aa5","system_id":"levelo_inurba_marseille","lat":43.260909,"lon":5.397591,"is_reserved":false,"is_disabled":false,"rental_uris":{"android":"levelo://app?vid=2538402b-0bd2-4399-9a00-d4bd16f75aa5","ios":"levelo://app?vid=2538402b-0bd2-4399-9a00-d4bd16f75aa5"},"vehicle_type_id":"4","last_reported":1680203102,"current_range_meters":31200,"station_id":"ce4bhi12rcd13ifvqfq0","pricing_plan_id":"free"},{"bike_id":"f3398c73-d336-41ad-a5e1-beeb69d3e30c","system_id":"levelo_inurba_marseille","lat":43.255756,"lon":5.382303,"is_reserved":false,"is_disabled":false,"rental_uris":{"android":"levelo://app?vid=f3398c73-d336-41ad-a5e1-beeb69d3e30c","ios":"levelo://app?vid=f3398c73-d336-41ad-a5e1-beeb69d3e30c"},"vehicle_type_id":"4","last_reported":1680203102,"current_range_meters":0,"station_id":"ce4bhih2rcd13ifvqfs0","pricing_plan_id":"free"},{"bike_id":"71241858-0662-40aa-a906-e6cec28d6a4f","system_id":"levelo_inurba_marseille","lat":43.25579,"lon":5.38239,"is_reserved":false,"is_disabled":false,"rental_uris":{"android":"levelo://app?vid=71241858-0662-40aa-a906-e6cec28d6a4f","ios":"levelo://app?vid=71241858-0662-40aa-a906-e6cec28d6a4f"},"vehicle_type_id":"4","last_reported":1680203102,"current_range_meters":0,"station_id":"ce4bhih2rcd13ifvqfs0","pricing_plan_id":"free"},{"bike_id":"6d047652-0f97-4d06-82d6-9fe2cfdf1afa","system_id":"levelo_inurba_marseille","lat":43.254947,"lon":5.376454,"is_reserved":false,"is_disabled":false,"rental_uris":{"android":"levelo://app?vid=6d047652-0f97-4d06-82d6-9fe2cfdf1afa","ios":"levelo://app?vid=6d047652-0f97-4d06-82d6-9fe2cfdf1afa"},"vehicle_type_id":"4","last_reported":1680203102,"current_range_meters":0,"station_id":"ce4bhh12rcd13ifvqff0","pricing_plan_id":"free"},{"bike_id":"f27f16d6-43a9-4dab-abb4-abef47da0a42","system_id":"levelo_inurba_marseille","lat":43.270721,"lon":5.422764,"is_reserved":false,"is_disabled":false,"rental_uris":{"android":"levelo://app?vid=f27f16d6-43a9-4dab-abb4-abef47da0a42","ios":"levelo://app?vid=f27f16d6-43a9-4dab-abb4-abef47da0a42"},"vehicle_type_id":"4","last_reported":1680203102,"current_range_meters":4000,"station_id":"ce4bhk92rcd13ifvqgb0","pricing_plan_id":"free"},{"bike_id":"539e77d9-20dc-43ae-8f31-0c0151e529e4","system_id":"levelo_inurba_marseille","lat":43.270721,"lon":5.422764,"is_reserved":false,"is_disabled":false,"rental_uris":{"android":"levelo://app?vid=539e77d9-20dc-43ae-8f31-0c0151e529e4","ios":"levelo://app?vid=539e77d9-20dc-43ae-8f31-0c0151e529e4"},"vehicle_type_id":"4","last_reported":1680203102,"current_range_meters":4800,"station_id":"ce4bhk92rcd13ifvqgb0","pricing_plan_id":"free"},{"bike_id":"b4865f4b-cbf9-47be-a277-ba734b9ff88b","system_id":"levelo_inurba_marseille","lat":43.270721,"lon":5.422764,"is_reserved":false,"is_disabled":false,"rental_uris":{"android":"levelo://app?vid=b4865f4b-cbf9-47be-a277-ba734b9ff88b","ios":"levelo://app?vid=b4865f4b-cbf9-47be-a277-ba734b9ff88b"},"vehicle_type_id":"4","last_reported":1680203102,"current_range_meters":0,"station_id":"ce4bhk92rcd13ifvqgb0","pricing_plan_id":"free"},{"bike_id":"f83a814d-bbaa-418c-b18e-6e04e8e7e884","system_id":"levelo_inurba_marseille","lat":43.250009,"lon":5.389195,"is_reserved":false,"is_disabled":false,"rental_uris":{"android":"levelo://app?vid=f83a814d-bbaa-418c-b18e-6e04e8e7e884","ios":"levelo://app?vid=f83a814d-bbaa-418c-b18e-6e04e8e7e884"},"vehicle_type_id":"4","last_reported":1680203102,"current_range_meters":18000,"station_id":"ce4bhgp2rcd13ifvqfd0","pricing_plan_id":"free"},{"bike_id":"0cf44e1a-fc6d-4bc8-8655-21d00a7356f8","system_id":"levelo_inurba_marseille","lat":43.250023,"lon":5.38919,"is_reserved":false,"is_disabled":false,"rental_uris":{"android":"levelo://app?vid=0cf44e1a-fc6d-4bc8-8655-21d00a7356f8","ios":"levelo://app?vid=0cf44e1a-fc6d-4bc8-8655-21d00a7356f8"},"vehicle_type_id":"4","last_reported":1680203102,"current_range_meters":28000,"station_id":"ce4bhgp2rcd13ifvqfd0","pricing_plan_id":"free"},{"bike_id":"c4f5aa25-9d61-4421-9218-49cab131209c","system_id":"levelo_inurba_marseille","lat":43.25083,"lon":5.39512,"is_reserved":false,"is_disabled":false,"rental_uris":{"android":"levelo://app?vid=c4f5aa25-9d61-4421-9218-49cab131209c","ios":"levelo://app?vid=c4f5aa25-9d61-4421-9218-49cab131209c"},"vehicle_type_id":"4","last_reported":1680203102,"current_range_meters":16000,"station_id":"ce4bhm12rcd13ifvqgkg","pricing_plan_id":"free"},{"bike_id":"4701f1c0-3fac-4984-baaf-bb13d9d44fec","system_id":"levelo_inurba_marseille","lat":43.250966,"lon":5.395186,"is_reserved":false,"is_disabled":false,"rental_uris":{"android":"levelo://app?vid=4701f1c0-3fac-4984-baaf-bb13d9d44fec","ios":"levelo://app?vid=4701f1c0-3fac-4984-baaf-bb13d9d44fec"},"vehicle_type_id":"4","last_reported":1680203102,"current_range_meters":27600,"station_id":"ce4bhm12rcd13ifvqgkg","pricing_plan_id":"free"},{"bike_id":"08a3ce3b-b476-4c76-81d8-82423eb20a9d","system_id":"levelo_inurba_marseille","lat":43.24693,"lon":5.382096,"is_reserved":false,"is_disabled":false,"rental_uris":{"android":"levelo://app?vid=08a3ce3b-b476-4c76-81d8-82423eb20a9d","ios":"levelo://app?vid=08a3ce3b-b476-4c76-81d8-82423eb20a9d"},"vehicle_type_id":"4","last_reported":1680203102,"current_range_meters":28000,"station_id":"ce4bhih2rcd13ifvqfr0","pricing_plan_id":"free"},{"bike_id":"1497e66b-7323-4c33-a88c-295a380384d3","system_id":"levelo_inurba_marseille","lat":43.246461,"lon":5.389014,"is_reserved":false,"is_disabled":false,"rental_uris":{"android":"levelo://app?vid=1497e66b-7323-4c33-a88c-295a380384d3","ios":"levelo://app?vid=1497e66b-7323-4c33-a88c-295a380384d3"},"vehicle_type_id":"4","last_reported":1680203102,"current_range_meters":11600,"station_id":"ce4bhg12rcd13ifvqf60","pricing_plan_id":"free"},{"bike_id":"cd7d66c1-3cd2-4ee8-a665-beb69fee065c","system_id":"levelo_inurba_marseille","lat":43.246467,"lon":5.388984,"is_reserved":false,"is_disabled":false,"rental_uris":{"android":"levelo://app?vid=cd7d66c1-3cd2-4ee8-a665-beb69fee065c","ios":"levelo://app?vid=cd7d66c1-3cd2-4ee8-a665-beb69fee065c"},"vehicle_type_id":"4","last_reported":1680203102,"current_range_meters":30000,"station_id":"ce4bhg12rcd13ifvqf60","pricing_plan_id":"free"},{"bike_id":"efe6e80a-dc25-4525-8da5-9a6e423f535b","system_id":"levelo_inurba_marseille","lat":43.240623,"lon":5.377642,"is_reserved":false,"is_disabled":false,"rental_uris":{"android":"levelo://app?vid=efe6e80a-dc25-4525-8da5-9a6e423f535b","ios":"levelo://app?vid=efe6e80a-dc25-4525-8da5-9a6e423f535b"},"vehicle_type_id":"4","last_reported":1680203102,"current_range_meters":7200,"station_id":"ce4bhnp2rcd13ifvqgvg","pricing_plan_id":"free"},{"bike_id":"e9fd2c00-248f-4160-a791-d5f2927aa1a4","system_id":"levelo_inurba_marseille","lat":43.240623,"lon":5.377642,"is_reserved":false,"is_disabled":false,"rental_uris":{"android":"levelo://app?vid=e9fd2c00-248f-4160-a791-d5f2927aa1a4","ios":"levelo://app?vid=e9fd2c00-248f-4160-a791-d5f2927aa1a4"},"vehicle_type_id":"4","last_reported":1680203102,"current_range_meters":800,"station_id":"ce4bhnp2rcd13ifvqgvg","pricing_plan_id":"free"},{"bike_id":"550f582b-494c-48d1-8eca-cb155a37f67c","system_id":"levelo_inurba_marseille","lat":43.240623,"lon":5.377642,"is_reserved":false,"is_disabled":false,"rental_uris":{"android":"levelo://app?vid=550f582b-494c-48d1-8eca-cb155a37f67c","ios":"levelo://app?vid=550f582b-494c-48d1-8eca-cb155a37f67c"},"vehicle_type_id":"4","last_reported":1680203102,"current_range_meters":8000,"station_id":"ce4bhnp2rcd13ifvqgvg","pricing_plan_id":"free"},{"bike_id":"aaeda10d-6058-456d-aaef-e9782220fe84","system_id":"levelo_inurba_marseille","lat":43.239588,"lon":5.366238,"is_reserved":false,"is_disabled":false,"rental_uris":{"android":"levelo://app?vid=aaeda10d-6058-456d-aaef-e9782220fe84","ios":"levelo://app?vid=aaeda10d-6058-456d-aaef-e9782220fe84"},"vehicle_type_id":"4","last_reported":1680203102,"current_range_meters":0,"station_id":"ce4bhi12rcd13ifvqfp0","pricing_plan_id":"free"},{"bike_id":"a7ed803d-11e6-4853-b959-c018fc675501","system_id":"levelo_inurba_marseille","lat":43.239588,"lon":5.366238,"is_reserved":false,"is_disabled":false,"rental_uris":{"android":"levelo://app?vid=a7ed803d-11e6-4853-b959-c018fc675501","ios":"levelo://app?vid=a7ed803d-11e6-4853-b959-c018fc675501"},"vehicle_type_id":"4","last_reported":1680203102,"current_range_meters":1600,"station_id":"ce4bhi12rcd13ifvqfp0","pricing_plan_id":"free"},{"bike_id":"0c24c4ce-20e1-41e4-b637-f753c25f0c0c","system_id":"levelo_inurba_marseille","lat":43.239588,"lon":5.366238,"is_reserved":false,"is_disabled":false,"rental_uris":{"android":"levelo://app?vid=0c24c4ce-20e1-41e4-b637-f753c25f0c0c","ios":"levelo://app?vid=0c24c4ce-20e1-41e4-b637-f753c25f0c0c"},"vehicle_type_id":"4","last_reported":1680203102,"current_range_meters":5600,"station_id":"ce4bhi12rcd13ifvqfp0","pricing_plan_id":"free"},{"bike_id":"2553e504-d446-41c6-b318-5052bc8255c8","system_id":"levelo_inurba_marseille","lat":43.28499,"lon":5.45998,"is_reserved":false,"is_disabled":false,"rental_uris":{"android":"levelo://app?vid=2553e504-d446-41c6-b318-5052bc8255c8","ios":"levelo://app?vid=2553e504-d446-41c6-b318-5052bc8255c8"},"vehicle_type_id":"4","last_reported":1680203102,"current_range_meters":19200,"station_id":"","pricing_plan_id":"free"},{"bike_id":"6394f09b-ff2b-4f41-88b0-90eef7bf45c8","system_id":"levelo_inurba_marseille","lat":43.241782,"lon":5.397264,"is_reserved":false,"is_disabled":false,"rental_uris":{"android":"levelo://app?vid=6394f09b-ff2b-4f41-88b0-90eef7bf45c8","ios":"levelo://app?vid=6394f09b-ff2b-4f41-88b0-90eef7bf45c8"},"vehicle_type_id":"4","last_reported":1680203102,"current_range_meters":19200,"station_id":"ce4bhn12rcd13ifvqgpg","pricing_plan_id":"free"},{"bike_id":"c00bcb7e-9cb3-4370-9d1f-0ca705767621","system_id":"levelo_inurba_marseille","lat":43.241782,"lon":5.397264,"is_reserved":false,"is_disabled":false,"rental_uris":{"android":"levelo://app?vid=c00bcb7e-9cb3-4370-9d1f-0ca705767621","ios":"levelo://app?vid=c00bcb7e-9cb3-4370-9d1f-0ca705767621"},"vehicle_type_id":"4","last_reported":1680203102,"current_range_meters":800,"station_id":"ce4bhn12rcd13ifvqgpg","pricing_plan_id":"free"},{"bike_id":"cbe633fd-959f-41b1-b446-01799316d3ee","system_id":"levelo_inurba_marseille","lat":43.241782,"lon":5.397264,"is_reserved":false,"is_disabled":false,"rental_uris":{"android":"levelo://app?vid=cbe633fd-959f-41b1-b446-01799316d3ee","ios":"levelo://app?vid=cbe633fd-959f-41b1-b446-01799316d3ee"},"vehicle_type_id":"4","last_reported":1680203102,"current_range_meters":31200,"station_id":"ce4bhn12rcd13ifvqgpg","pricing_plan_id":"free"}]}}