{"last_updated":1692979688,"ttl":30,"version":"2.2","data":{"bikes":[{"bike_id":"65674239-bfb7-4928-84de-b7277febf7c2","system_id":"levelo_inurba_marseille","lat":43.31226,"lon":5.3685,"is_reserved":false,"is_disabled":false,"rental_uris":{"android":"levelo://app?vid=65674239-bfb7-4928-84de-b7277febf7c2","ios":"levelo://app?vid=65674239-bfb7-4928-84de-b7277febf7c2"},"vehicle_type_id":"4","last_reported":1692979690,"current_range_meters":31200,"station_id":"ce4bgl92rcd13ifvqbq0","pricing_plan_id":"free"},{"bike_id":"f22ca441-4e4e-4660-b824-b2f46943e54d","system_id":"levelo_inurba_marseille","lat":43.312239,"lon":5.368562,"is_reserved":false,"is_disabled":false,"rental_uris":{"android":"levelo://app?vid=f22ca441-4e4e-4660-b824-b2f46943e54d","ios":"levelo://app?vid=f22ca441-4e4e-4660-b824-b2f46943e54d"},"vehicle_type_id":"4","last_reported":1692979690,"current_range_meters":31200,"station_id":"ce4bgl92rcd13ifvqbq0","pricing_plan_id":"free"},{"bike_id":"6400f5a4-7f32-4533-935c-d8161514d903","system_id":"levelo_inurba_marseille","lat":43.314811,"lon":5.373104,"is_reserved":false,"is_disabled":false,"rental_uris":{"android":"levelo://app?vid=6400f5a4-7f32-4533-935c-d8161514d903","ios":"levelo://app?vid=6400f5a4-7f32-4533-935c-d8161514d903"},"vehicle_type_id":"4","last_reported":1692979690,"current_range_meters":25200,"station_id":"ce4bgt12rcd13ifvqcd0","pricing_plan_id":"free"},{"bike_id":"e3c4aad0-7b99-4a09-ad94-863437ff0df5","system_id":"levelo_inurba_marseille","lat":43.31402,"lon":5.37255,"is_reserved":false,"is_disabled":false,"rental_uris":{"android":"levelo://app?vid=e3c4aad0-7b99-4a09-ad94-863437ff0df5","ios":"levelo://app?vid=e3c4aad0-7b99-4a09-ad94-863437ff0df5"},"vehicle_type_id":"4","last_reported":1692979690,"current_range_meters":12000,"station_id":"","pricing_plan_id":"free"},{"bike_id":"b682a5ac-da95-49b5-ac14-e2e4c0f158e3","system_id":"levelo_inurba_marseille","lat":43.314811,"lon":5.373103,"is_reserved":false,"is_disabled":false,"rental_uris":{"android":"levelo://app?vid=b682a5ac-da95-49b5-ac14-e2e4c0f158e3","ios":"levelo://app?vid=b682a5ac-da95-49b5-ac14-e2e4c0f158e3"},"vehicle_type_id":"4","last_reported":1692979690,"current_range_meters":1200,"station_id":"ce4bgt12rcd13ifvqcd0","pricing_plan_id":"free"},{"bike_id":"d2be997d-44d2-40a5-bb20-02aeaaf65fa5","system_id":"levelo_inurba_marseille","lat":43.314811,"lon":5.373103,"is_reserved":false,"is_disabled":false,"rental_uris":{"android":"levelo://app?vid=d2be997d-44d2-40a5-bb20-02aeaaf65fa5","ios":"levelo://app?vid=d2be997d-44d2-40a5-bb20-02aeaaf65fa5"},"vehicle_type_id":"4","last_reported":1692979690,"current_range_meters":31200,"station_id":"ce4bgt12rcd13ifvqcd0","pricing_plan_id":"free"},{"bike_id":"e4598f5a-58a7-44d4-92a0-440bf60e1b9c","system_id":"levelo_inurba_marseille","lat":43.309039,"lon":5.371797,"is_reserved":false,"is_disabled":false,"rental_uris":{"android":"levelo://app?vid=e4598f5a-58a7-44d4-92a0-440bf60e1b9c","ios":"levelo://app?vid=e4598f5a-58a7-44d4-92a0-440bf60e1b9c"},"vehicle_type_id":"4","last_reported":1692979690,"current_range_meters":26400,"station_id":"ce4bguh2rcd13ifvqckg","pricing_plan_id":"free"},{"bike_id":"7b219db4-2b01-4f66-8b20-4bd38e7b3235","system_id":"levelo_inurba_marseille","lat":43.30878,"lon":5.37187,"is_reserved":false,"is_disabled":false,"rental_uris":{"android":"levelo://app?vid=7b219db4-2b01-4f66-8b20-4bd38e7b3235","ios":"levelo://app?vid=7b219db4-2b01-4f66-8b20-4bd38e7b3235"},"vehicle_type_id":"4","last_reported":1692979690,"current_range_meters":0,"station_id":"ce4bguh2rcd13ifvqckg","pricing_plan_id":"free"},{"bike_id":"d594cf30-eff4-4d16-9a67-52818acedd63","system_id":"levelo_inurba_marseille","lat":43.31072,"lon":5.37675,"is_reserved":false,"is_disabled":false,"rental_uris":{"android":"levelo://app?vid=d594cf30-eff4-4d16-9a67-52818acedd63","ios":"levelo://app?vid=d594cf30-eff4-4d16-9a67-52818acedd63"},"vehicle_type_id":"4","last_reported":1692979690,"current_range_meters":8800,"station_id":"","pricing_plan_id":"free"},{"bike_id":"110393d4-2396-4b81-938a-ab2d3c2a9662","system_id":"levelo_inurba_marseille","lat":43.306,"lon":5.37236,"is_reserved":false,"is_disabled":false,"rental_uris":{"android":"levelo://app?vid=110393d4-2396-4b81-938a-ab2d3c2a9662","ios":"levelo://app?vid=110393d4-2396-4b81-938a-ab2d3c2a9662"},"vehicle_type_id":"4","last_reported":1692979690,"current_range_meters":31200,"station_id":"ce4bgqh2rcd13ifvqc4g","pricing_plan_id":"free"},{"bike_id":"ea578f10-2539-4d83-bc3b-7ed21ff53c77","system_id":"levelo_inurba_marseille","lat":43.31995,"lon":5.38163,"is_reserved":false,"is_disabled":false,"rental_uris":{"android":"levelo://app?vid=ea578f10-2539-4d83-bc3b-7ed21ff53c77","ios":"levelo://app?vid=ea578f10-2539-4d83-bc3b-7ed21ff53c77"},"vehicle_type_id":"4","last_reported":1692979690,"current_range_meters":8000,"station_id":"ce4bhr12rcd13ifvqhpg","pricing_plan_id":"free"},{"bike_id":"5a9fc8fe-a229-4bcf-90c4-cd3e4a2af558","system_id":"levelo_inurba_marseille","lat":43.32,"lon":5.38161,"is_reserved":false,"is_disabled":false,"rental_uris":{"android":"levelo://app?vid=5a9fc8fe-a229-4bcf-90c4-cd3e4a2af558","ios":"levelo://app?vid=5a9fc8fe-a229-4bcf-90c4-cd3e4a2af558"},"vehicle_type_id":"4","last_reported":1692979690,"current_range_meters":0,"station_id":"ce4bhr12rcd13ifvqhpg","pricing_plan_id":"free"},{"bike_id":"ea628102-f413-4421-a451-01c3055a1ca3","system_id":"levelo_inurba_marseille","lat":43.305364,"lon":5.384119,"is_reserved":false,"is_disabled":false,"rental_uris":{"android":"levelo://app?vid=ea628102-f413-4421-a451-01c3055a1ca3","ios":"levelo://app?vid=ea628102-f413-4421-a451-01c3055a1ca3"},"vehicle_type_id":"4","last_reported":1692979690,"current_range_meters":27200,"station_id":"ce4bgg92rcd13ifvqb30","pricing_plan_id":"free"},{"bike_id":"35eec3a1-aa54-4990-8eb4-78e6c0dd24d0","system_id":"levelo_inurba_marseille","lat":43.299243,"lon":5.374807,"is_reserved":false,"is_disabled":false,"rental_uris":{"android":"levelo://app?vid=35eec3a1-aa54-4990-8eb4-78e6c0dd24d0","ios":"levelo://app?vid=35eec3a1-aa54-4990-8eb4-78e6c0dd24d0"},"vehicle_type_id":"4","last_reported":1692979690,"current_range_meters":26400,"station_id":"ce4bgjh2rcd13ifvqbg0","pricing_plan_id":"free"},{"bike_id":"74bb8e6c-4d66-4dad-992e-bd7bea15b2f1","system_id":"levelo_inurba_marseille","lat":43.311724,"lon":5.387136,"is_reserved":false,"is_disabled":false,"rental_uris":{"android":"levelo://app?vid=74bb8e6c-4d66-4dad-992e-bd7bea15b2f1","ios":"levelo://app?vid=74bb8e6c-4d66-4dad-992e-bd7bea15b2f1"},"vehicle_type_id":"4","last_reported":1692979690,"current_range_meters":0,"station_id":"ce4bgv12rcd13ifvqcp0","pricing_plan_id":"free"},{"bike_id":"2f9e2def-2173-4eb4-a460-9a385f59debe","system_id":"levelo_inurba_marseille","lat":43.299243,"lon":5.37481,"is_reserved":false,"is_disabled":false,"rental_uris":{"android":"levelo://app?vid=2f9e2def-2173-4eb4-a460-9a385f59debe","ios":"levelo://app?vid=2f9e2def-2173-4eb4-a460-9a385f59debe"},"vehicle_type_id":"4","last_reported":1692979690,"current_range_meters":30800,"station_id":"ce4bgjh2rcd13ifvqbg0","pricing_plan_id":"free"},{"bike_id":"7cb4cd52-4fbe-4f9c-b2d3-0ef773006873","system_id":"levelo_inurba_marseille","lat":43.311722,"lon":5.387247,"is_reserved":false,"is_disabled":false,"rental_uris":{"android":"levelo://app?vid=7cb4cd52-4fbe-4f9c-b2d3-0ef773006873","ios":"levelo://app?vid=7cb4cd52-4fbe-4f9c-b2d3-0ef773006873"},"vehicle_type_id":"4","last_reported":1692979690,"current_range_meters":7200,"station_id":"ce4bgv12rcd13ifvqcp0","pricing_plan_id":"free"},{"bike_id":"b885f463-e8c5-42cc-902f-7152167ce1c7","system_id":"levelo_inurba_marseille","lat":43.29894,"lon":5.3755,"is_reserved":false,"is_disabled":false,"rental_uris":{"android":"levelo://app?vid=b885f463-e8c5-42cc-902f-7152167ce1c7","ios":"levelo://app?vid=b885f463-e8c5-42cc-902f-7152167ce1c7"},"vehicle_type_id":"4","last_reported":1692979690,"current_range_meters":31200,"station_id":"","pricing_plan_id":"free"},{"bike_id":"bb4304ae-b328-40b4-ab54-9674c34b9f11","system_id":"levelo_inurba_marseille","lat":43.322872,"lon":5.382756,"is_reserved":false,"is_disabled":false,"rental_uris":{"android":"levelo://app?vid=bb4304ae-b328-40b4-ab54-9674c34b9f11","ios":"levelo://app?vid=bb4304ae-b328-40b4-ab54-9674c34b9f11"},"vehicle_type_id":"4","last_reported":1692979690,"current_range_meters":18400,"station_id":"ce4bhr12rcd13ifvqhqg","pricing_plan_id":"free"},{"bike_id":"ac9e6fd7-c4b5-4542-b072-1af729ba9614","system_id":"levelo_inurba_marseille","lat":43.32288,"lon":5.38273,"is_reserved":false,"is_disabled":false,"rental_uris":{"android":"levelo://app?vid=ac9e6fd7-c4b5-4542-b072-1af729ba9614","ios":"levelo://app?vid=ac9e6fd7-c4b5-4542-b072-1af729ba9614"},"vehicle_type_id":"4","last_reported":1692979690,"current_range_meters":12400,"station_id":"ce4bhr12rcd13ifvqhqg","pricing_plan_id":"free"},{"bike_id":"0e2dd746-9c2a-4bd9-ac7c-e3a6ceaab594","system_id":"levelo_inurba_marseille","lat":43.32823,"lon":5.36689,"is_reserved":false,"is_disabled":false,"rental_uris":{"android":"levelo://app?vid=0e2dd746-9c2a-4bd9-ac7c-e3a6ceaab594","ios":"levelo://app?vid=0e2dd746-9c2a-4bd9-ac7c-e3a6ceaab594"},"vehicle_type_id":"4","last_reported":1692979690,"current_range_meters":30400,"station_id":"ce4bhs92rcd13ifvqi0g","pricing_plan_id":"free"},{"bike_id":"e6031190-c03d-4923-9932-b27fe3a326fb","system_id":"levelo_inurba_marseille","lat":43.328371,"lon":5.366909,"is_reserved":false,"is_disabled":false,"rental_uris":{"android":"levelo://app?vid=e6031190-c03d-4923-9932-b27fe3a326fb","ios":"levelo://app?vid=e6031190-c03d-4923-9932-b27fe3a326fb"},"vehicle_type_id":"4","last_reported":1692979690,"current_range_meters":8800,"station_id":"ce4bhs92rcd13ifvqi0g","pricing_plan_id":"free"},{"bike_id":"1982984c-1826-44ed-b984-c794b80833b8","system_id":"levelo_inurba_marseille","lat":43.32826,"lon":5.36677,"is_reserved":false,"is_disabled":false,"rental_uris":{"android":"levelo://app?vid=1982984c-1826-44ed-b984-c794b80833b8","ios":"levelo://app?vid=1982984c-1826-44ed-b984-c794b80833b8"},"vehicle_type_id":"4","last_reported":1692979690,"current_range_meters":26800,"station_id":"ce4bhs92rcd13ifvqi0g","pricing_plan_id":"free"},{"bike_id":"bcea497a-d913-4ba8-a6ba-22d74737dddc","system_id":"levelo_inurba_marseille","lat":43.32828,"lon":5.36681,"is_reserved":false,"is_disabled":false,"rental_uris":{"android":"levelo://app?vid=bcea497a-d913-4ba8-a6ba-22d74737dddc","ios":"levelo://app?vid=bcea497a-d913-4ba8-a6ba-22d74737dddc"},"vehicle_type_id":"4","last_reported":1692979690,"current_range_meters":1200,"station_id":"ce4bhs92rcd13ifvqi0g","pricing_plan_id":"free"},{"bike_id":"8ab89ae7-8be4-46b3-9068-54f9df410cfb","system_id":"levelo_inurba_marseille","lat":43.32831,"lon":5.36677,"is_reserved":false,"is_disabled":false,"rental_uris":{"android":"levelo://app?vid=8ab89ae7-8be4-46b3-9068-54f9df410cfb","ios":"levelo://app?vid=8ab89ae7-8be4-46b3-9068-54f9df410cfb"},"vehicle_type_id":"4","last_reported":1692979690,"current_range_meters":10800,"station_id":"ce4bhs92rcd13ifvqi0g","pricing_plan_id":"free"},{"bike_id":"180c86e8-b201-453c-8618-fac9a0555b64","system_id":"levelo_inurba_marseille","lat":43.32831,"lon":5.36675,"is_reserved":false,"is_disabled":false,"rental_uris":{"android":"levelo://app?vid=180c86e8-b201-453c-8618-fac9a0555b64","ios":"levelo://app?vid=180c86e8-b201-453c-8618-fac9a0555b64"},"vehicle_type_id":"4","last_reported":1692979690,"current_range_meters":20400,"station_id":"ce4bhs92rcd13ifvqi0g","pricing_plan_id":"free"},{"bike_id":"49dd2626-769b-42da-a83b-4618a2cc293c","system_id":"levelo_inurba_marseille","lat":43.31513,"lon":5.38809,"is_reserved":false,"is_disabled":false,"rental_uris":{"android":"levelo://app?vid=49dd2626-769b-42da-a83b-4618a2cc293c","ios":"levelo://app?vid=49dd2626-769b-42da-a83b-4618a2cc293c"},"vehicle_type_id":"4","last_reported":1692979690,"current_range_meters":22400,"station_id":"","pricing_plan_id":"free"},{"bike_id":"bd0bd295-6ecc-40c4-a4d0-89f645593756","system_id":"levelo_inurba_marseille","lat":43.297163,"lon":5.365866,"is_reserved":false,"is_disabled":false,"rental_uris":{"android":"levelo://app?vid=bd0bd295-6ecc-40c4-a4d0-89f645593756","ios":"levelo://app?vid=bd0bd295-6ecc-40c4-a4d0-89f645593756"},"vehicle_type_id":"4","last_reported":1692979690,"current_range_meters":23200,"station_id":"ce4bgn12rcd13ifvqbt0","pricing_plan_id":"free"},{"bike_id":"0f37c28f-665b-46b1-9496-b8fb35b3274e","system_id":"levelo_inurba_marseille","lat":43.32836,"lon":5.3668,"is_reserved":false,"is_disabled":false,"rental_uris":{"android":"levelo://app?vid=0f37c28f-665b-46b1-9496-b8fb35b3274e","ios":"levelo://app?vid=0f37c28f-665b-46b1-9496-b8fb35b3274e"},"vehicle_type_id":"4","last_reported":1692979690,"current_range_meters":30800,"station_id":"ce4bhs92rcd13ifvqi0g","pricing_plan_id":"free"},{"bike_id":"b2a6fc0b-fe04-43b7-8835-223f314ba282","system_id":"levelo_inurba_marseille","lat":43.32838,"lon":5.36674,"is_reserved":false,"is_disabled":false,"rental_uris":{"android":"levelo://app?vid=b2a6fc0b-fe04-43b7-8835-223f314ba282","ios":"levelo://app?vid=b2a6fc0b-fe04-43b7-8835-223f314ba282"},"vehicle_type_id":"4","last_reported":1692979690,"current_range_meters":22800,"station_id":"ce4bhs92rcd13ifvqi0g","pricing_plan_id":"free"},{"bike_id":"dd789220-e7b5-42c1-b9dc-dc4243148021","system_id":"levelo_inurba_marseille","lat":43.297163,"lon":5.365866,"is_reserved":false,"is_disabled":false,"rental_uris":{"android":"levelo://app?vid=dd789220-e7b5-42c1-b9dc-dc4243148021","ios":"levelo://app?vid=dd789220-e7b5-42c1-b9dc-dc4243148021"},"vehicle_type_id":"4","last_reported":1692979690,"current_range_meters":31200,"station_id":"ce4bgn12rcd13ifvqbt0","pricing_plan_id":"free"},{"bike_id":"b5f44150-373b-495b-ab52-a5912b1be51f","system_id":"levelo_inurba_marseille","lat":43.2997,"lon":5.38086,"is_reserved":false,"is_disabled":false,"rental_uris":{"android":"levelo://app?vid=b5f44150-373b-495b-ab52-a5912b1be51f","ios":"levelo://app?vid=b5f44150-373b-495b-ab52-a5912b1be51f"},"vehicle_type_id":"4","last_reported":1692979690,"current_range_meters":10400,"station_id":"","pricing_plan_id":"free"},{"bike_id":"aca58ca2-1606-46d4-a9a9-b19de44b48be","system_id":"levelo_inurba_marseille","lat":43.2968,"lon":5.37291,"is_reserved":false,"is_disabled":false,"rental_uris":{"android":"levelo://app?vid=aca58ca2-1606-46d4-a9a9-b19de44b48be","ios":"levelo://app?vid=aca58ca2-1606-46d4-a9a9-b19de44b48be"},"vehicle_type_id":"4","last_reported":1692979690,"current_range_meters":17200,"station_id":"ce4bgk12rcd13ifvqbj0","pricing_plan_id":"free"},{"bike_id":"d3139180-8ba9-4c91-b6e4-8baae3c22113","system_id":"levelo_inurba_marseille","lat":43.296131,"lon":5.370791,"is_reserved":false,"is_disabled":false,"rental_uris":{"android":"levelo://app?vid=d3139180-8ba9-4c91-b6e4-8baae3c22113","ios":"levelo://app?vid=d3139180-8ba9-4c91-b6e4-8baae3c22113"},"vehicle_type_id":"4","last_reported":1692979690,"current_range_meters":31200,"station_id":"ce4bgnh2rcd13ifvqc0g","pricing_plan_id":"free"},{"bike_id":"65d934c8-ea94-404c-b991-a012f59c0b64","system_id":"levelo_inurba_marseille","lat":43.29624,"lon":5.37154,"is_reserved":false,"is_disabled":false,"rental_uris":{"android":"levelo://app?vid=65d934c8-ea94-404c-b991-a012f59c0b64","ios":"levelo://app?vid=65d934c8-ea94-404c-b991-a012f59c0b64"},"vehicle_type_id":"4","last_reported":1692979690,"current_range_meters":28400,"station_id":"","pricing_plan_id":"free"},{"bike_id":"75d87d00-f0c4-4eab-afc4-5f498d464a04","system_id":"levelo_inurba_marseille","lat":43.29565,"lon":5.36637,"is_reserved":false,"is_disabled":false,"rental_uris":{"android":"levelo://app?vid=75d87d00-f0c4-4eab-afc4-5f498d464a04","ios":"levelo://app?vid=75d87d00-f0c4-4eab-afc4-5f498d464a04"},"vehicle_type_id":"4","last_reported":1692979690,"current_range_meters":10400,"station_id":"","pricing_plan_id":"free"},{"bike_id":"2c93ce6f-c5e1-4ec9-9941-ebb7469bb8f2","system_id":"levelo_inurba_marseille","lat":43.317557,"lon":5.390173,"is_reserved":false,"is_disabled":false,"rental_uris":{"android":"levelo://app?vid=2c93ce6f-c5e1-4ec9-9941-ebb7469bb8f2","ios":"levelo://app?vid=2c93ce6f-c5e1-4ec9-9941-ebb7469bb8f2"},"vehicle_type_id":"4","last_reported":1692979690,"current_range_meters":31200,"station_id":"ce4bhqp2rcd13ifvqhng","pricing_plan_id":"free"},{"bike_id":"c4e92979-b46a-4fd0-8286-acaaeedff943","system_id":"levelo_inurba_marseille","lat":43.29621,"lon":5.37708,"is_reserved":false,"is_disabled":false,"rental_uris":{"android":"levelo://app?vid=c4e92979-b46a-4fd0-8286-acaaeedff943","ios":"levelo://app?vid=c4e92979-b46a-4fd0-8286-acaaeedff943"},"vehicle_type_id":"4","last_reported":1692979690,"current_range_meters":11200,"station_id":"ce4bgi92rcd13ifvqb90","pricing_plan_id":"free"},{"bike_id":"cbbd043d-f219-4a13-a2db-4cfd7eaf2684","system_id":"levelo_inurba_marseille","lat":43.29783,"lon":5.38105,"is_reserved":false,"is_disabled":false,"rental_uris":{"android":"levelo://app?vid=cbbd043d-f219-4a13-a2db-4cfd7eaf2684","ios":"levelo://app?vid=cbbd043d-f219-4a13-a2db-4cfd7eaf2684"},"vehicle_type_id":"4","last_reported":1692979690,"current_range_meters":25600,"station_id":"ce4bgip2rcd13ifvqbb0","pricing_plan_id":"free"},{"bike_id":"d1fe83d5-099e-45f5-a1d5-5839577b3292","system_id":"levelo_inurba_marseille","lat":43.298037,"lon":5.381066,"is_reserved":false,"is_disabled":false,"rental_uris":{"android":"levelo://app?vid=d1fe83d5-099e-45f5-a1d5-5839577b3292","ios":"levelo://app?vid=d1fe83d5-099e-45f5-a1d5-5839577b3292"},"vehicle_type_id":"4","last_reported":1692979690,"current_range_meters":30800,"station_id":"ce4bgip2rcd13ifvqbb0","pricing_plan_id":"free"},{"bike_id":"952a19e7-6602-41c3-942f-79cfb514366f","system_id":"levelo_inurba_marseille","lat":43.29607,"lon":5.37726,"is_reserved":false,"is_disabled":false,"rental_uris":{"android":"levelo://app?vid=952a19e7-6602-41c3-942f-79cfb514366f","ios":"levelo://app?vid=952a19e7-6602-41c3-942f-79cfb514366f"},"vehicle_type_id":"4","last_reported":1692979690,"current_range_meters":30800,"station_id":"ce4bgi92rcd13ifvqb90","pricing_plan_id":"free"},{"bike_id":"329b52da-6179-4119-8885-76b50cbdc2a9","system_id":"levelo_inurba_marseille","lat":43.299707,"lon":5.384859,"is_reserved":false,"is_disabled":false,"rental_uris":{"android":"levelo://app?vid=329b52da-6179-4119-8885-76b50cbdc2a9","ios":"levelo://app?vid=329b52da-6179-4119-8885-76b50cbdc2a9"},"vehicle_type_id":"4","last_reported":1692979690,"current_range_meters":23200,"station_id":"ce4bgj92rcd13ifvqbd0","pricing_plan_id":"free"},{"bike_id":"88633cd0-092e-443a-a19c-7f566d24b133","system_id":"levelo_inurba_marseille","lat":43.33094,"lon":5.36229,"is_reserved":false,"is_disabled":false,"rental_uris":{"android":"levelo://app?vid=88633cd0-092e-443a-a19c-7f566d24b133","ios":"levelo://app?vid=88633cd0-092e-443a-a19c-7f566d24b133"},"vehicle_type_id":"4","last_reported":1692979690,"current_range_meters":3600,"station_id":"","pricing_plan_id":"free"},{"bike_id":"4cc6afcb-8ab3-420f-b8e1-a4bccdd2c827","system_id":"levelo_inurba_marseille","lat":43.32358,"lon":5.38872,"is_reserved":false,"is_disabled":false,"rental_uris":{"android":"levelo://app?vid=4cc6afcb-8ab3-420f-b8e1-a4bccdd2c827","ios":"levelo://app?vid=4cc6afcb-8ab3-420f-b8e1-a4bccdd2c827"},"vehicle_type_id":"4","last_reported":1692979690,"current_range_meters":29200,"station_id":"ce4bhqp2rcd13ifvqhog","pricing_plan_id":"free"},{"bike_id":"e7cb3d0f-38f2-4cba-a426-d6feb9f29300","system_id":"levelo_inurba_marseille","lat":43.32356,"lon":5.38874,"is_reserved":false,"is_disabled":false,"rental_uris":{"android":"levelo://app?vid=e7cb3d0f-38f2-4cba-a426-d6feb9f29300","ios":"levelo://app?vid=e7cb3d0f-38f2-4cba-a426-d6feb9f29300"},"vehicle_type_id":"4","last_reported":1692979690,"current_range_meters":29600,"station_id":"ce4bhqp2rcd13ifvqhog","pricing_plan_id":"free"},{"bike_id":"82d2479d-5d21-4f80-980f-b5f8eda092af","system_id":"levelo_inurba_marseille","lat":43.32354,"lon":5.38877,"is_reserved":false,"is_disabled":false,"rental_uris":{"android":"levelo://app?vid=82d2479d-5d21-4f80-980f-b5f8eda092af","ios":"levelo://app?vid=82d2479d-5d21-4f80-980f-b5f8eda092af"},"vehicle_type_id":"4","last_reported":1692979690,"current_range_meters":12400,"station_id":"ce4bhqp2rcd13ifvqhog","pricing_plan_id":"free"},{"bike_id":"00883cd9-a56a-4720-bb55-237d0136a4a1","system_id":"levelo_inurba_marseille","lat":43.32358,"lon":5.38877,"is_reserved":false,"is_disabled":false,"rental_uris":{"android":"levelo://app?vid=00883cd9-a56a-4720-bb55-237d0136a4a1","ios":"levelo://app?vid=00883cd9-a56a-4720-bb55-237d0136a4a1"},"vehicle_type_id":"4","last_reported":1692979690,"current_range_meters":20800,"station_id":"ce4bhqp2rcd13ifvqhog","pricing_plan_id":"free"},{"bike_id":"49be245a-4851-40f0-b24e-7204e690d4f6","system_id":"levelo_inurba_marseille","lat":43.32366,"lon":5.38876,"is_reserved":false,"is_disabled":false,"rental_uris":{"android":"levelo://app?vid=49be245a-4851-40f0-b24e-7204e690d4f6","ios":"levelo://app?vid=49be245a-4851-40f0-b24e-7204e690d4f6"},"vehicle_type_id":"4","last_reported":1692979690,"current_range_meters":11200,"station_id":"ce4bhqp2rcd13ifvqhog","pricing_plan_id":"free"},{"bike_id":"44d9454b-0d97-45e7-82da-a807e08c923d","system_id":"levelo_inurba_marseille","lat":43.32367,"lon":5.388836,"is_reserved":false,"is_disabled":false,"rental_uris":{"android":"levelo://app?vid=44d9454b-0d97-45e7-82da-a807e08c923d","ios":"levelo://app?vid=44d9454b-0d97-45e7-82da-a807e08c923d"},"vehicle_type_id":"4","last_reported":1692979690,"current_range_meters":31200,"station_id":"ce4bhqp2rcd13ifvqhog","pricing_plan_id":"free"},{"bike_id":"73332cf2-2dab-480d-8ffe-c35f8053021c","system_id":"levelo_inurba_marseille","lat":43.29305,"lon":5.37172,"is_reserved":false,"is_disabled":false,"rental_uris":{"android":"levelo://app?vid=73332cf2-2dab-480d-8ffe-c35f8053021c","ios":"levelo://app?vid=73332cf2-2dab-480d-8ffe-c35f8053021c"},"vehicle_type_id":"4","last_reported":1692979690,"current_range_meters":13600,"station_id":"ce4bgh92rcd13ifvqb40","pricing_plan_id":"free"},{"bike_id":"67fae338-0a5e-48aa-8a48-66ba8de4370d","system_id":"levelo_inurba_marseille","lat":43.31244,"lon":5.39492,"is_reserved":false,"is_disabled":false,"rental_uris":{"android":"levelo://app?vid=67fae338-0a5e-48aa-8a48-66ba8de4370d","ios":"levelo://app?vid=67fae338-0a5e-48aa-8a48-66ba8de4370d"},"vehicle_type_id":"4","last_reported":1692979690,"current_range_meters":0,"station_id":"","pricing_plan_id":"free"},{"bike_id":"38fef587-7cc5-4800-b069-87b8f296a10a","system_id":"levelo_inurba_marseille","lat":43.293009,"lon":5.374584,"is_reserved":false,"is_disabled":false,"rental_uris":{"android":"levelo://app?vid=38fef587-7cc5-4800-b069-87b8f296a10a","ios":"levelo://app?vid=38fef587-7cc5-4800-b069-87b8f296a10a"},"vehicle_type_id":"4","last_reported":1692979690,"current_range_meters":31200,"station_id":"ce4bgi12rcd13ifvqb70","pricing_plan_id":"free"},{"bike_id":"e3374b3c-9699-4404-a7ef-0c1b40b6fa55","system_id":"levelo_inurba_marseille","lat":43.301912,"lon":5.390897,"is_reserved":false,"is_disabled":false,"rental_uris":{"android":"levelo://app?vid=e3374b3c-9699-4404-a7ef-0c1b40b6fa55","ios":"levelo://app?vid=e3374b3c-9699-4404-a7ef-0c1b40b6fa55"},"vehicle_type_id":"4","last_reported":1692979690,"current_range_meters":15200,"station_id":"","pricing_plan_id":"free"},{"bike_id":"06c2ae73-a45f-4e16-85e4-4229ee774ffe","system_id":"levelo_inurba_marseille","lat":43.305994,"lon":5.393687,"is_reserved":false,"is_disabled":false,"rental_uris":{"android":"levelo://app?vid=06c2ae73-a45f-4e16-85e4-4229ee774ffe","ios":"levelo://app?vid=06c2ae73-a45f-4e16-85e4-4229ee774ffe"},"vehicle_type_id":"4","last_reported":1692979690,"current_range_meters":8800,"station_id":"ce4bh0p2rcd13ifvqd80","pricing_plan_id":"free"},{"bike_id":"6533c646-1091-4458-9ef2-bc9d36dce22d","system_id":"levelo_inurba_marseille","lat":43.293009,"lon":5.374584,"is_reserved":false,"is_disabled":false,"rental_uris":{"android":"levelo://app?vid=6533c646-1091-4458-9ef2-bc9d36dce22d","ios":"levelo://app?vid=6533c646-1091-4458-9ef2-bc9d36dce22d"},"vehicle_type_id":"4","last_reported":1692979690,"current_range_meters":31200,"station_id":"ce4bgi12rcd13ifvqb70","pricing_plan_id":"free"},{"bike_id":"0724f352-a262-45b7-9b71-9a09ff17d945","system_id":"levelo_inurba_marseille","lat":43.30301,"lon":5.39212,"is_reserved":false,"is_disabled":false,"rental_uris":{"android":"levelo://app?vid=0724f352-a262-45b7-9b71-9a09ff17d945","ios":"levelo://app?vid=0724f352-a262-45b7-9b71-9a09ff17d945"},"vehicle_type_id":"4","last_reported":1692979690,"current_range_meters":16800,"station_id":"ce4bgkh2rcd13ifvqbk0","pricing_plan_id":"free"},{"bike_id":"59d4a7cc-c4d8-47e1-a63f-2e26b5d209c3","system_id":"levelo_inurba_marseille","lat":43.2936,"lon":5.37835,"is_reserved":false,"is_disabled":false,"rental_uris":{"android":"levelo://app?vid=59d4a7cc-c4d8-47e1-a63f-2e26b5d209c3","ios":"levelo://app?vid=59d4a7cc-c4d8-47e1-a63f-2e26b5d209c3"},"vehicle_type_id":"4","last_reported":1692979690,"current_range_meters":30800,"station_id":"ce4bgjh2rcd13ifvqbf0","pricing_plan_id":"free"},{"bike_id":"e9513a8e-d5d0-4892-bb8b-ebb6eed04442","system_id":"levelo_inurba_marseille","lat":43.298764,"lon":5.388973,"is_reserved":false,"is_disabled":false,"rental_uris":{"android":"levelo://app?vid=e9513a8e-d5d0-4892-bb8b-ebb6eed04442","ios":"levelo://app?vid=e9513a8e-d5d0-4892-bb8b-ebb6eed04442"},"vehicle_type_id":"4","last_reported":1692979690,"current_range_meters":400,"station_id":"ce4bh392rcd13ifvqdl0","pricing_plan_id":"free"},{"bike_id":"889063a7-f800-43ce-acfd-cde2b486eb68","system_id":"levelo_inurba_marseille","lat":43.29529,"lon":5.385581,"is_reserved":false,"is_disabled":false,"rental_uris":{"android":"levelo://app?vid=889063a7-f800-43ce-acfd-cde2b486eb68","ios":"levelo://app?vid=889063a7-f800-43ce-acfd-cde2b486eb68"},"vehicle_type_id":"4","last_reported":1692979690,"current_range_meters":17200,"station_id":"ce4bgih2rcd13ifvqba0","pricing_plan_id":"free"},{"bike_id":"345f185e-2df5-4ca8-9747-50677efddcec","system_id":"levelo_inurba_marseille","lat":43.290779,"lon":5.371482,"is_reserved":false,"is_disabled":false,"rental_uris":{"android":"levelo://app?vid=345f185e-2df5-4ca8-9747-50677efddcec","ios":"levelo://app?vid=345f185e-2df5-4ca8-9747-50677efddcec"},"vehicle_type_id":"4","last_reported":1692979690,"current_range_meters":12400,"station_id":"ce4bh5p2rcd13ifvqe4g","pricing_plan_id":"free"},{"bike_id":"a495c533-d600-4af5-9969-671ec4decee7","system_id":"levelo_inurba_marseille","lat":43.29154,"lon":5.35734,"is_reserved":false,"is_disabled":false,"rental_uris":{"android":"levelo://app?vid=a495c533-d600-4af5-9969-671ec4decee7","ios":"levelo://app?vid=a495c533-d600-4af5-9969-671ec4decee7"},"vehicle_type_id":"4","last_reported":1692979690,"current_range_meters":19600,"station_id":"ce4bhch2rcd13ifvqeug","pricing_plan_id":"free"},{"bike_id":"e97b0301-d842-4806-af17-adea72730d86","system_id":"levelo_inurba_marseille","lat":43.290779,"lon":5.371482,"is_reserved":false,"is_disabled":false,"rental_uris":{"android":"levelo://app?vid=e97b0301-d842-4806-af17-adea72730d86","ios":"levelo://app?vid=e97b0301-d842-4806-af17-adea72730d86"},"vehicle_type_id":"4","last_reported":1692979690,"current_range_meters":0,"station_id":"ce4bh5p2rcd13ifvqe4g","pricing_plan_id":"free"},{"bike_id":"9e7a9708-38bb-4a16-aab4-a4cee4135de4","system_id":"levelo_inurba_marseille","lat":43.29163,"lon":5.35628,"is_reserved":false,"is_disabled":false,"rental_uris":{"android":"levelo://app?vid=9e7a9708-38bb-4a16-aab4-a4cee4135de4","ios":"levelo://app?vid=9e7a9708-38bb-4a16-aab4-a4cee4135de4"},"vehicle_type_id":"4","last_reported":1692979690,"current_range_meters":15200,"station_id":"ce4bhbp2rcd13ifvqerg","pricing_plan_id":"free"},{"bike_id":"b4631bbf-4ecf-478d-8bfb-961d1cdd1668","system_id":"levelo_inurba_marseille","lat":43.290631,"lon":5.359244,"is_reserved":false,"is_disabled":false,"rental_uris":{"android":"levelo://app?vid=b4631bbf-4ecf-478d-8bfb-961d1cdd1668","ios":"levelo://app?vid=b4631bbf-4ecf-478d-8bfb-961d1cdd1668"},"vehicle_type_id":"4","last_reported":1692979690,"current_range_meters":28800,"station_id":"ce4bha92rcd13ifvqeg0","pricing_plan_id":"free"},{"bike_id":"35ab6359-aa85-4613-8285-a8429562a978","system_id":"levelo_inurba_marseille","lat":43.290631,"lon":5.359244,"is_reserved":false,"is_disabled":false,"rental_uris":{"android":"levelo://app?vid=35ab6359-aa85-4613-8285-a8429562a978","ios":"levelo://app?vid=35ab6359-aa85-4613-8285-a8429562a978"},"vehicle_type_id":"4","last_reported":1692979690,"current_range_meters":18800,"station_id":"ce4bha92rcd13ifvqeg0","pricing_plan_id":"free"},{"bike_id":"cead2c3d-523e-452a-a4a2-6e142026f5df","system_id":"levelo_inurba_marseille","lat":43.289184,"lon":5.366408,"is_reserved":false,"is_disabled":false,"rental_uris":{"android":"levelo://app?vid=cead2c3d-523e-452a-a4a2-6e142026f5df","ios":"levelo://app?vid=cead2c3d-523e-452a-a4a2-6e142026f5df"},"vehicle_type_id":"4","last_reported":1692979690,"current_range_meters":8800,"station_id":"ce4bhap2rcd13ifvqek0","pricing_plan_id":"free"},{"bike_id":"4c7af9b9-177c-455d-b36c-6d18be9a6b25","system_id":"levelo_inurba_marseille","lat":43.294162,"lon":5.386292,"is_reserved":false,"is_disabled":false,"rental_uris":{"android":"levelo://app?vid=4c7af9b9-177c-455d-b36c-6d18be9a6b25","ios":"levelo://app?vid=4c7af9b9-177c-455d-b36c-6d18be9a6b25"},"vehicle_type_id":"4","last_reported":1692979690,"current_range_meters":26000,"station_id":"ce4bh2h2rcd13ifvqdh0","pricing_plan_id":"free"},{"bike_id":"60476e58-1c6b-4ff2-a5c9-15de0528b6e9","system_id":"levelo_inurba_marseille","lat":43.289468,"lon":5.363719,"is_reserved":false,"is_disabled":false,"rental_uris":{"android":"levelo://app?vid=60476e58-1c6b-4ff2-a5c9-15de0528b6e9","ios":"levelo://app?vid=60476e58-1c6b-4ff2-a5c9-15de0528b6e9"},"vehicle_type_id":"4","last_reported":1692979690,"current_range_meters":16800,"station_id":"ce4bhc92rcd13ifvqetg","pricing_plan_id":"free"},{"bike_id":"df06bcd6-e0e7-4df0-8c10-dcf54db34adb","system_id":"levelo_inurba_marseille","lat":43.33037,"lon":5.38914,"is_reserved":false,"is_disabled":false,"rental_uris":{"android":"levelo://app?vid=df06bcd6-e0e7-4df0-8c10-dcf54db34adb","ios":"levelo://app?vid=df06bcd6-e0e7-4df0-8c10-dcf54db34adb"},"vehicle_type_id":"4","last_reported":1692979690,"current_range_meters":10800,"station_id":"ce4bhr92rcd13ifvqhrg","pricing_plan_id":"free"},{"bike_id":"73e30c8d-1fec-42fa-994e-db63cd20ad16","system_id":"levelo_inurba_marseille","lat":43.3304,"lon":5.38915,"is_reserved":false,"is_disabled":false,"rental_uris":{"android":"levelo://app?vid=73e30c8d-1fec-42fa-994e-db63cd20ad16","ios":"levelo://app?vid=73e30c8d-1fec-42fa-994e-db63cd20ad16"},"vehicle_type_id":"4","last_reported":1692979690,"current_range_meters":14400,"station_id":"ce4bhr92rcd13ifvqhrg","pricing_plan_id":"free"},{"bike_id":"53ee0767-5a44-4605-8160-f82d36b89c93","system_id":"levelo_inurba_marseille","lat":43.33043,"lon":5.38912,"is_reserved":false,"is_disabled":false,"rental_uris":{"android":"levelo://app?vid=53ee0767-5a44-4605-8160-f82d36b89c93","ios":"levelo://app?vid=53ee0767-5a44-4605-8160-f82d36b89c93"},"vehicle_type_id":"4","last_reported":1692979690,"current_range_meters":26000,"station_id":"ce4bhr92rcd13ifvqhrg","pricing_plan_id":"free"},{"bike_id":"50b09953-cb5f-42d8-93fc-faaaeda848fc","system_id":"levelo_inurba_marseille","lat":43.33038,"lon":5.3892,"is_reserved":false,"is_disabled":false,"rental_uris":{"android":"levelo://app?vid=50b09953-cb5f-42d8-93fc-faaaeda848fc","ios":"levelo://app?vid=50b09953-cb5f-42d8-93fc-faaaeda848fc"},"vehicle_type_id":"4","last_reported":1692979690,"current_range_meters":30400,"station_id":"ce4bhr92rcd13ifvqhrg","pricing_plan_id":"free"},{"bike_id":"71bddafa-c0c1-4ff6-bca7-74ac830f347a","system_id":"levelo_inurba_marseille","lat":43.33041,"lon":5.38916,"is_reserved":false,"is_disabled":false,"rental_uris":{"android":"levelo://app?vid=71bddafa-c0c1-4ff6-bca7-74ac830f347a","ios":"levelo://app?vid=71bddafa-c0c1-4ff6-bca7-74ac830f347a"},"vehicle_type_id":"4","last_reported":1692979690,"current_range_meters":27200,"station_id":"ce4bhr92rcd13ifvqhrg","pricing_plan_id":"free"},{"bike_id":"1895038e-acdb-4d35-aa35-e1291f23a30a","system_id":"levelo_inurba_marseille","lat":43.290104,"lon":5.356111,"is_reserved":false,"is_disabled":false,"rental_uris":{"android":"levelo://app?vid=1895038e-acdb-4d35-aa35-e1291f23a30a","ios":"levelo://app?vid=1895038e-acdb-4d35-aa35-e1291f23a30a"},"vehicle_type_id":"4","last_reported":1692979690,"current_range_meters":31200,"station_id":"ce4bhb92rcd13ifvqen0","pricing_plan_id":"free"},{"bike_id":"3685847b-b261-4a33-84f6-6e3c885b33d7","system_id":"levelo_inurba_marseille","lat":43.33042,"lon":5.38917,"is_reserved":false,"is_disabled":false,"rental_uris":{"android":"levelo://app?vid=3685847b-b261-4a33-84f6-6e3c885b33d7","ios":"levelo://app?vid=3685847b-b261-4a33-84f6-6e3c885b33d7"},"vehicle_type_id":"4","last_reported":1692979690,"current_range_meters":17200,"station_id":"ce4bhr92rcd13ifvqhrg","pricing_plan_id":"free"},{"bike_id":"1c07e25f-84db-4513-bedb-11b97c6ec9b6","system_id":"levelo_inurba_marseille","lat":43.33041,"lon":5.3892,"is_reserved":false,"is_disabled":false,"rental_uris":{"android":"levelo://app?vid=1c07e25f-84db-4513-bedb-11b97c6ec9b6","ios":"levelo://app?vid=1c07e25f-84db-4513-bedb-11b97c6ec9b6"},"vehicle_type_id":"4","last_reported":1692979690,"current_range_meters":28800,"station_id":"ce4bhr92rcd13ifvqhrg","pricing_plan_id":"free"},{"bike_id":"f10717b1-2d8e-45e1-9f93-7c87584a474a","system_id":"levelo_inurba_marseille","lat":43.33042,"lon":5.38919,"is_reserved":false,"is_disabled":false,"rental_uris":{"android":"levelo://app?vid=f10717b1-2d8e-45e1-9f93-7c87584a474a","ios":"levelo://app?vid=f10717b1-2d8e-45e1-9f93-7c87584a474a"},"vehicle_type_id":"4","last_reported":1692979690,"current_range_meters":9200,"station_id":"ce4bhr92rcd13ifvqhrg","pricing_plan_id":"free"},{"bike_id":"e2bcf04b-3a6c-46b6-a0dc-c01d0f0e3eed","system_id":"levelo_inurba_marseille","lat":43.33043,"lon":5.38918,"is_reserved":false,"is_disabled":false,"rental_uris":{"android":"levelo://app?vid=e2bcf04b-3a6c-46b6-a0dc-c01d0f0e3eed","ios":"levelo://app?vid=e2bcf04b-3a6c-46b6-a0dc-c01d0f0e3eed"},"vehicle_type_id":"4","last_reported":1692979690,"current_range_meters":12800,"station_id":"ce4bhr92rcd13ifvqhrg","pricing_plan_id":"free"},{"bike_id":"4799da98-7673-4b5f-b477-49e64b7ff5cb","system_id":"levelo_inurba_marseille","lat":43.33041,"lon":5.38925,"is_reserved":false,"is_disabled":false,"rental_uris":{"android":"levelo://app?vid=4799da98-7673-4b5f-b477-49e64b7ff5cb","ios":"levelo://app?vid=4799da98-7673-4b5f-b477-49e64b7ff5cb"},"vehicle_type_id":"4","last_reported":1692979690,"current_range_meters":18400,"station_id":"ce4bhr92rcd13ifvqhrg","pricing_plan_id":"free"},{"bike_id":"9ccc4583-c024-4005-9500-9904f6a5551f","system_id":"levelo_inurba_marseille","lat":43.33042,"lon":5.38925,"is_reserved":false,"is_disabled":false,"rental_uris":{"android":"levelo://app?vid=9ccc4583-c024-4005-9500-9904f6a5551f","ios":"levelo://app?vid=9ccc4583-c024-4005-9500-9904f6a5551f"},"vehicle_type_id":"4","last_reported":1692979690,"current_range_meters":30800,"station_id":"ce4bhr92rcd13ifvqhrg","pricing_plan_id":"free"},{"bike_id":"a4df99ce-0488-49dd-a888-94686f562e88","system_id":"levelo_inurba_marseille","lat":43.29,"lon":5.35611,"is_reserved":false,"is_disabled":false,"rental_uris":{"android":"levelo://app?vid=a4df99ce-0488-49dd-a888-94686f562e88","ios":"levelo://app?vid=a4df99ce-0488-49dd-a888-94686f562e88"},"vehicle_type_id":"4","last_reported":1692979690,"current_range_meters":30000,"station_id":"ce4bhb92rcd13ifvqen0","pricing_plan_id":"free"},{"bike_id":"6093d433-f9d6-48fe-897b-a1be7c29ef34","system_id":"levelo_inurba_marseille","lat":43.290103,"lon":5.356114,"is_reserved":false,"is_disabled":false,"rental_uris":{"android":"levelo://app?vid=6093d433-f9d6-48fe-897b-a1be7c29ef34","ios":"levelo://app?vid=6093d433-f9d6-48fe-897b-a1be7c29ef34"},"vehicle_type_id":"4","last_reported":1692979690,"current_range_meters":31200,"station_id":"ce4bhb92rcd13ifvqen0","pricing_plan_id":"free"},{"bike_id":"fead09a7-7d45-48e9-a87c-00ce704dbd26","system_id":"levelo_inurba_marseille","lat":43.29512,"lon":5.39037,"is_reserved":false,"is_disabled":false,"rental_uris":{"android":"levelo://app?vid=fead09a7-7d45-48e9-a87c-00ce704dbd26","ios":"levelo://app?vid=fead09a7-7d45-48e9-a87c-00ce704dbd26"},"vehicle_type_id":"4","last_reported":1692979690,"current_range_meters":17200,"station_id":"ce4bh3p2rcd13ifvqdp0","pricing_plan_id":"free"},{"bike_id":"1c5e4745-ffeb-4454-8327-1d101020d55f","system_id":"levelo_inurba_marseille","lat":43.28856,"lon":5.358371,"is_reserved":false,"is_disabled":false,"rental_uris":{"android":"levelo://app?vid=1c5e4745-ffeb-4454-8327-1d101020d55f","ios":"levelo://app?vid=1c5e4745-ffeb-4454-8327-1d101020d55f"},"vehicle_type_id":"4","last_reported":1692979690,"current_range_meters":16800,"station_id":"ce4bhb12rcd13ifvqem0","pricing_plan_id":"free"},{"bike_id":"a44288f1-04a8-47c6-9248-1a830b61728a","system_id":"levelo_inurba_marseille","lat":43.337659,"lon":5.374556,"is_reserved":false,"is_disabled":false,"rental_uris":{"android":"levelo://app?vid=a44288f1-04a8-47c6-9248-1a830b61728a","ios":"levelo://app?vid=a44288f1-04a8-47c6-9248-1a830b61728a"},"vehicle_type_id":"4","last_reported":1692979690,"current_range_meters":30800,"station_id":"","pricing_plan_id":"free"},{"bike_id":"344e6328-a954-426b-b5d5-5615a2e439bc","system_id":"levelo_inurba_marseille","lat":43.30642,"lon":5.401031,"is_reserved":false,"is_disabled":false,"rental_uris":{"android":"levelo://app?vid=344e6328-a954-426b-b5d5-5615a2e439bc","ios":"levelo://app?vid=344e6328-a954-426b-b5d5-5615a2e439bc"},"vehicle_type_id":"4","last_reported":1692979690,"current_range_meters":21600,"station_id":"ce4bh112rcd13ifvqda0","pricing_plan_id":"free"},{"bike_id":"2c25eec2-baa1-4307-b95f-0a58c4ed1055","system_id":"levelo_inurba_marseille","lat":43.28673,"lon":5.36367,"is_reserved":false,"is_disabled":false,"rental_uris":{"android":"levelo://app?vid=2c25eec2-baa1-4307-b95f-0a58c4ed1055","ios":"levelo://app?vid=2c25eec2-baa1-4307-b95f-0a58c4ed1055"},"vehicle_type_id":"4","last_reported":1692979690,"current_range_meters":15600,"station_id":"ce4bhah2rcd13ifvqej0","pricing_plan_id":"free"},{"bike_id":"75199276-b705-4ad7-b6a9-49aeaa84628a","system_id":"levelo_inurba_marseille","lat":43.28658,"lon":5.36352,"is_reserved":false,"is_disabled":false,"rental_uris":{"android":"levelo://app?vid=75199276-b705-4ad7-b6a9-49aeaa84628a","ios":"levelo://app?vid=75199276-b705-4ad7-b6a9-49aeaa84628a"},"vehicle_type_id":"4","last_reported":1692979690,"current_range_meters":30000,"station_id":"ce4bhah2rcd13ifvqej0","pricing_plan_id":"free"},{"bike_id":"2365150f-73ab-4507-aea4-76016e6109c8","system_id":"levelo_inurba_marseille","lat":43.286593,"lon":5.363346,"is_reserved":false,"is_disabled":false,"rental_uris":{"android":"levelo://app?vid=2365150f-73ab-4507-aea4-76016e6109c8","ios":"levelo://app?vid=2365150f-73ab-4507-aea4-76016e6109c8"},"vehicle_type_id":"4","last_reported":1692979690,"current_range_meters":31200,"station_id":"ce4bhah2rcd13ifvqej0","pricing_plan_id":"free"},{"bike_id":"8cb5fc4c-702a-4af0-ab00-6785c16a265a","system_id":"levelo_inurba_marseille","lat":43.295196,"lon":5.39397,"is_reserved":false,"is_disabled":false,"rental_uris":{"android":"levelo://app?vid=8cb5fc4c-702a-4af0-ab00-6785c16a265a","ios":"levelo://app?vid=8cb5fc4c-702a-4af0-ab00-6785c16a265a"},"vehicle_type_id":"4","last_reported":1692979690,"current_range_meters":20000,"station_id":"ce4bh292rcd13ifvqdf0","pricing_plan_id":"free"},{"bike_id":"4f857080-aa10-4690-bcb2-34995cdcdce9","system_id":"levelo_inurba_marseille","lat":43.30249,"lon":5.40076,"is_reserved":false,"is_disabled":false,"rental_uris":{"android":"levelo://app?vid=4f857080-aa10-4690-bcb2-34995cdcdce9","ios":"levelo://app?vid=4f857080-aa10-4690-bcb2-34995cdcdce9"},"vehicle_type_id":"4","last_reported":1692979690,"current_range_meters":0,"station_id":"ce4bgvh2rcd13ifvqcs0","pricing_plan_id":"free"},{"bike_id":"b089ae0b-747c-4080-83d2-2ebbb4b79d6b","system_id":"levelo_inurba_marseille","lat":43.30257,"lon":5.400818,"is_reserved":false,"is_disabled":false,"rental_uris":{"android":"levelo://app?vid=b089ae0b-747c-4080-83d2-2ebbb4b79d6b","ios":"levelo://app?vid=b089ae0b-747c-4080-83d2-2ebbb4b79d6b"},"vehicle_type_id":"4","last_reported":1692979690,"current_range_meters":5200,"station_id":"","pricing_plan_id":"free"},{"bike_id":"7da9e437-1e79-4b5f-9ab0-65254ac17dd7","system_id":"levelo_inurba_marseille","lat":43.31641,"lon":5.40432,"is_reserved":false,"is_disabled":false,"rental_uris":{"android":"levelo://app?vid=7da9e437-1e79-4b5f-9ab0-65254ac17dd7","ios":"levelo://app?vid=7da9e437-1e79-4b5f-9ab0-65254ac17dd7"},"vehicle_type_id":"4","last_reported":1692979690,"current_range_meters":17600,"station_id":"ce4bh012rcd13ifvqd00","pricing_plan_id":"free"},{"bike_id":"5ef8c15f-d10e-4b0f-9098-88ef9122dd21","system_id":"levelo_inurba_marseille","lat":43.284534,"lon":5.358662,"is_reserved":false,"is_disabled":false,"rental_uris":{"android":"levelo://app?vid=5ef8c15f-d10e-4b0f-9098-88ef9122dd21","ios":"levelo://app?vid=5ef8c15f-d10e-4b0f-9098-88ef9122dd21"},"vehicle_type_id":"4","last_reported":1692979690,"current_range_meters":20000,"station_id":"ce4bhah2rcd13ifvqei0","pricing_plan_id":"free"},{"bike_id":"c4013f52-82b1-4bd9-8901-569828f71f33","system_id":"levelo_inurba_marseille","lat":43.285848,"lon":5.350787,"is_reserved":false,"is_disabled":false,"rental_uris":{"android":"levelo://app?vid=c4013f52-82b1-4bd9-8901-569828f71f33","ios":"levelo://app?vid=c4013f52-82b1-4bd9-8901-569828f71f33"},"vehicle_type_id":"4","last_reported":1692979690,"current_range_meters":30800,"station_id":"ce4bhch2rcd13ifvqeug","pricing_plan_id":"free"},{"bike_id":"d5638073-652a-410a-834a-d8458eba9fff","system_id":"levelo_inurba_marseille","lat":43.285848,"lon":5.350787,"is_reserved":false,"is_disabled":false,"rental_uris":{"android":"levelo://app?vid=d5638073-652a-410a-834a-d8458eba9fff","ios":"levelo://app?vid=d5638073-652a-410a-834a-d8458eba9fff"},"vehicle_type_id":"4","last_reported":1692979690,"current_range_meters":30800,"station_id":"ce4bhch2rcd13ifvqeug","pricing_plan_id":"free"},{"bike_id":"409ef9fa-dd94-4bd9-965e-9d1b37ecc6f7","system_id":"levelo_inurba_marseille","lat":43.28617,"lon":5.35098,"is_reserved":false,"is_disabled":false,"rental_uris":{"android":"levelo://app?vid=409ef9fa-dd94-4bd9-965e-9d1b37ecc6f7","ios":"levelo://app?vid=409ef9fa-dd94-4bd9-965e-9d1b37ecc6f7"},"vehicle_type_id":"4","last_reported":1692979690,"current_range_meters":31200,"station_id":"ce4bhch2rcd13ifvqeug","pricing_plan_id":"free"},{"bike_id":"e18ed66a-2db2-468a-92a1-d7f4d9db473a","system_id":"levelo_inurba_marseille","lat":43.285848,"lon":5.350787,"is_reserved":false,"is_disabled":false,"rental_uris":{"android":"levelo://app?vid=e18ed66a-2db2-468a-92a1-d7f4d9db473a","ios":"levelo://app?vid=e18ed66a-2db2-468a-92a1-d7f4d9db473a"},"vehicle_type_id":"4","last_reported":1692979690,"current_range_meters":22000,"station_id":"ce4bhch2rcd13ifvqeug","pricing_plan_id":"free"},{"bike_id":"9aeacbe9-45c6-45f1-8e9a-ba5b6c8fd658","system_id":"levelo_inurba_marseille","lat":43.285848,"lon":5.350787,"is_reserved":false,"is_disabled":false,"rental_uris":{"android":"levelo://app?vid=9aeacbe9-45c6-45f1-8e9a-ba5b6c8fd658","ios":"levelo://app?vid=9aeacbe9-45c6-45f1-8e9a-ba5b6c8fd658"},"vehicle_type_id":"4","last_reported":1692979690,"current_range_meters":27600,"station_id":"ce4bhch2rcd13ifvqeug","pricing_plan_id":"free"},{"bike_id":"8d000196-138c-46f5-8a3b-ac31e678e3fe","system_id":"levelo_inurba_marseille","lat":43.28613,"lon":5.35099,"is_reserved":false,"is_disabled":false,"rental_uris":{"android":"levelo://app?vid=8d000196-138c-46f5-8a3b-ac31e678e3fe","ios":"levelo://app?vid=8d000196-138c-46f5-8a3b-ac31e678e3fe"},"vehicle_type_id":"4","last_reported":1692979690,"current_range_meters":6000,"station_id":"ce4bhch2rcd13ifvqeug","pricing_plan_id":"free"},{"bike_id":"2961813a-2669-4532-a79c-8eb89f2b5635","system_id":"levelo_inurba_marseille","lat":43.285848,"lon":5.350787,"is_reserved":false,"is_disabled":false,"rental_uris":{"android":"levelo://app?vid=2961813a-2669-4532-a79c-8eb89f2b5635","ios":"levelo://app?vid=2961813a-2669-4532-a79c-8eb89f2b5635"},"vehicle_type_id":"4","last_reported":1692979690,"current_range_meters":6800,"station_id":"ce4bhch2rcd13ifvqeug","pricing_plan_id":"free"},{"bike_id":"2363d3b5-6c15-401a-a59c-ee80bd4af927","system_id":"levelo_inurba_marseille","lat":43.28415,"lon":5.37522,"is_reserved":false,"is_disabled":false,"rental_uris":{"android":"levelo://app?vid=2363d3b5-6c15-401a-a59c-ee80bd4af927","ios":"levelo://app?vid=2363d3b5-6c15-401a-a59c-ee80bd4af927"},"vehicle_type_id":"4","last_reported":1692979690,"current_range_meters":0,"station_id":"ce4bh412rcd13ifvqds0","pricing_plan_id":"free"},{"bike_id":"c716ebae-bb43-4f39-a862-4aaf8d400601","system_id":"levelo_inurba_marseille","lat":43.286732,"lon":5.386592,"is_reserved":false,"is_disabled":false,"rental_uris":{"android":"levelo://app?vid=c716ebae-bb43-4f39-a862-4aaf8d400601","ios":"levelo://app?vid=c716ebae-bb43-4f39-a862-4aaf8d400601"},"vehicle_type_id":"4","last_reported":1692979690,"current_range_meters":27200,"station_id":"","pricing_plan_id":"free"},{"bike_id":"6a6cf957-ef71-4e80-bc7d-9844e832cc1c","system_id":"levelo_inurba_marseille","lat":43.319179,"lon":5.407725,"is_reserved":false,"is_disabled":false,"rental_uris":{"android":"levelo://app?vid=6a6cf957-ef71-4e80-bc7d-9844e832cc1c","ios":"levelo://app?vid=6a6cf957-ef71-4e80-bc7d-9844e832cc1c"},"vehicle_type_id":"4","last_reported":1692979690,"current_range_meters":4000,"station_id":"ce4bhq12rcd13ifvqhig","pricing_plan_id":"free"},{"bike_id":"6e1f707b-6c0f-416a-ae9e-2d44e5e97f5b","system_id":"levelo_inurba_marseille","lat":43.33717,"lon":5.39191,"is_reserved":false,"is_disabled":false,"rental_uris":{"android":"levelo://app?vid=6e1f707b-6c0f-416a-ae9e-2d44e5e97f5b","ios":"levelo://app?vid=6e1f707b-6c0f-416a-ae9e-2d44e5e97f5b"},"vehicle_type_id":"4","last_reported":1692979690,"current_range_meters":0,"station_id":"ce4bhr92rcd13ifvqhsg","pricing_plan_id":"free"},{"bike_id":"7e4b49c2-f4de-4644-9176-19b326f1db26","system_id":"levelo_inurba_marseille","lat":43.33725,"lon":5.39185,"is_reserved":false,"is_disabled":false,"rental_uris":{"android":"levelo://app?vid=7e4b49c2-f4de-4644-9176-19b326f1db26","ios":"levelo://app?vid=7e4b49c2-f4de-4644-9176-19b326f1db26"},"vehicle_type_id":"4","last_reported":1692979690,"current_range_meters":29200,"station_id":"ce4bhr92rcd13ifvqhsg","pricing_plan_id":"free"},{"bike_id":"e54ac8bf-03e6-4445-b501-5f2a8496318b","system_id":"levelo_inurba_marseille","lat":43.33729,"lon":5.39189,"is_reserved":false,"is_disabled":false,"rental_uris":{"android":"levelo://app?vid=e54ac8bf-03e6-4445-b501-5f2a8496318b","ios":"levelo://app?vid=e54ac8bf-03e6-4445-b501-5f2a8496318b"},"vehicle_type_id":"4","last_reported":1692979690,"current_range_meters":7200,"station_id":"ce4bhr92rcd13ifvqhsg","pricing_plan_id":"free"},{"bike_id":"81207e02-e329-4cea-9b6c-33ba9c0267d2","system_id":"levelo_inurba_marseille","lat":43.284793,"lon":5.384119,"is_reserved":false,"is_disabled":false,"rental_uris":{"android":"levelo://app?vid=81207e02-e329-4cea-9b6c-33ba9c0267d2","ios":"levelo://app?vid=81207e02-e329-4cea-9b6c-33ba9c0267d2"},"vehicle_type_id":"4","last_reported":1692979690,"current_range_meters":31200,"station_id":"ce4bh512rcd13ifvqe3g","pricing_plan_id":"free"},{"bike_id":"414290bd-353b-41b2-bd9a-1d3c2c5739df","system_id":"levelo_inurba_marseille","lat":43.284793,"lon":5.384119,"is_reserved":false,"is_disabled":false,"rental_uris":{"android":"levelo://app?vid=414290bd-353b-41b2-bd9a-1d3c2c5739df","ios":"levelo://app?vid=414290bd-353b-41b2-bd9a-1d3c2c5739df"},"vehicle_type_id":"4","last_reported":1692979690,"current_range_meters":30800,"station_id":"ce4bh512rcd13ifvqe3g","pricing_plan_id":"free"},{"bike_id":"8f1bb7ca-fcdd-4904-84f5-ac3f2d2671e6","system_id":"levelo_inurba_marseille","lat":43.32549,"lon":5.40548,"is_reserved":false,"is_disabled":false,"rental_uris":{"android":"levelo://app?vid=8f1bb7ca-fcdd-4904-84f5-ac3f2d2671e6","ios":"levelo://app?vid=8f1bb7ca-fcdd-4904-84f5-ac3f2d2671e6"},"vehicle_type_id":"4","last_reported":1692979690,"current_range_meters":10400,"station_id":"","pricing_plan_id":"free"},{"bike_id":"1e0c45ac-5309-4627-b0ff-0f43b197b370","system_id":"levelo_inurba_marseille","lat":43.284219,"lon":5.3497,"is_reserved":false,"is_disabled":false,"rental_uris":{"android":"levelo://app?vid=1e0c45ac-5309-4627-b0ff-0f43b197b370","ios":"levelo://app?vid=1e0c45ac-5309-4627-b0ff-0f43b197b370"},"vehicle_type_id":"4","last_reported":1692979690,"current_range_meters":28400,"station_id":"ce4bhbh2rcd13ifvqepg","pricing_plan_id":"free"},{"bike_id":"95de9f2e-5873-4cba-b473-357bb71412d0","system_id":"levelo_inurba_marseille","lat":43.284219,"lon":5.3497,"is_reserved":false,"is_disabled":false,"rental_uris":{"android":"levelo://app?vid=95de9f2e-5873-4cba-b473-357bb71412d0","ios":"levelo://app?vid=95de9f2e-5873-4cba-b473-357bb71412d0"},"vehicle_type_id":"4","last_reported":1692979690,"current_range_meters":20000,"station_id":"ce4bhbh2rcd13ifvqepg","pricing_plan_id":"free"},{"bike_id":"be51860d-4104-43dd-91fa-0322b66d0d63","system_id":"levelo_inurba_marseille","lat":43.284219,"lon":5.3497,"is_reserved":false,"is_disabled":false,"rental_uris":{"android":"levelo://app?vid=be51860d-4104-43dd-91fa-0322b66d0d63","ios":"levelo://app?vid=be51860d-4104-43dd-91fa-0322b66d0d63"},"vehicle_type_id":"4","last_reported":1692979690,"current_range_meters":30400,"station_id":"ce4bhbh2rcd13ifvqepg","pricing_plan_id":"free"},{"bike_id":"0cda9314-0859-49ba-9ce6-cd37b768d469","system_id":"levelo_inurba_marseille","lat":43.28422,"lon":5.34996,"is_reserved":false,"is_disabled":false,"rental_uris":{"android":"levelo://app?vid=0cda9314-0859-49ba-9ce6-cd37b768d469","ios":"levelo://app?vid=0cda9314-0859-49ba-9ce6-cd37b768d469"},"vehicle_type_id":"4","last_reported":1692979690,"current_range_meters":12800,"station_id":"ce4bhbh2rcd13ifvqepg","pricing_plan_id":"free"},{"bike_id":"95f7d004-8cce-4b73-9eb1-30948afc38c0","system_id":"levelo_inurba_marseille","lat":43.28428,"lon":5.34976,"is_reserved":false,"is_disabled":false,"rental_uris":{"android":"levelo://app?vid=95f7d004-8cce-4b73-9eb1-30948afc38c0","ios":"levelo://app?vid=95f7d004-8cce-4b73-9eb1-30948afc38c0"},"vehicle_type_id":"4","last_reported":1692979690,"current_range_meters":5600,"station_id":"ce4bhbh2rcd13ifvqepg","pricing_plan_id":"free"},{"bike_id":"71cf8745-e1b4-4c62-9650-dd9f588a8900","system_id":"levelo_inurba_marseille","lat":43.284219,"lon":5.3497,"is_reserved":false,"is_disabled":false,"rental_uris":{"android":"levelo://app?vid=71cf8745-e1b4-4c62-9650-dd9f588a8900","ios":"levelo://app?vid=71cf8745-e1b4-4c62-9650-dd9f588a8900"},"vehicle_type_id":"4","last_reported":1692979690,"current_range_meters":27600,"station_id":"ce4bhbh2rcd13ifvqepg","pricing_plan_id":"free"},{"bike_id":"31da0d0f-304d-4964-971a-1a1ed0158b98","system_id":"levelo_inurba_marseille","lat":43.284219,"lon":5.3497,"is_reserved":false,"is_disabled":false,"rental_uris":{"android":"levelo://app?vid=31da0d0f-304d-4964-971a-1a1ed0158b98","ios":"levelo://app?vid=31da0d0f-304d-4964-971a-1a1ed0158b98"},"vehicle_type_id":"4","last_reported":1692979690,"current_range_meters":11600,"station_id":"ce4bhbh2rcd13ifvqepg","pricing_plan_id":"free"},{"bike_id":"30384be7-dcd6-41b3-aa16-67388477e06e","system_id":"levelo_inurba_marseille","lat":43.284217,"lon":5.349697,"is_reserved":false,"is_disabled":false,"rental_uris":{"android":"levelo://app?vid=30384be7-dcd6-41b3-aa16-67388477e06e","ios":"levelo://app?vid=30384be7-dcd6-41b3-aa16-67388477e06e"},"vehicle_type_id":"4","last_reported":1692979690,"current_range_meters":30000,"station_id":"ce4bhbh2rcd13ifvqepg","pricing_plan_id":"free"},{"bike_id":"9fa54b01-635e-43a5-910c-5544ee88e608","system_id":"levelo_inurba_marseille","lat":43.284219,"lon":5.3497,"is_reserved":false,"is_disabled":false,"rental_uris":{"android":"levelo://app?vid=9fa54b01-635e-43a5-910c-5544ee88e608","ios":"levelo://app?vid=9fa54b01-635e-43a5-910c-5544ee88e608"},"vehicle_type_id":"4","last_reported":1692979690,"current_range_meters":31200,"station_id":"ce4bhbh2rcd13ifvqepg","pricing_plan_id":"free"},{"bike_id":"e82e1410-7a8b-4523-b9ac-337f353be8ab","system_id":"levelo_inurba_marseille","lat":43.284219,"lon":5.3497,"is_reserved":false,"is_disabled":false,"rental_uris":{"android":"levelo://app?vid=e82e1410-7a8b-4523-b9ac-337f353be8ab","ios":"levelo://app?vid=e82e1410-7a8b-4523-b9ac-337f353be8ab"},"vehicle_type_id":"4","last_reported":1692979690,"current_range_meters":30000,"station_id":"ce4bhbh2rcd13ifvqepg","pricing_plan_id":"free"},{"bike_id":"f937bae5-96b0-4423-a1a7-117beb7f02cd","system_id":"levelo_inurba_marseille","lat":43.28419,"lon":5.34988,"is_reserved":false,"is_disabled":false,"rental_uris":{"android":"levelo://app?vid=f937bae5-96b0-4423-a1a7-117beb7f02cd","ios":"levelo://app?vid=f937bae5-96b0-4423-a1a7-117beb7f02cd"},"vehicle_type_id":"4","last_reported":1692979690,"current_range_meters":20400,"station_id":"ce4bhbh2rcd13ifvqepg","pricing_plan_id":"free"},{"bike_id":"271535d7-ef3a-4d90-88c3-096fd810582c","system_id":"levelo_inurba_marseille","lat":43.2842,"lon":5.34984,"is_reserved":false,"is_disabled":false,"rental_uris":{"android":"levelo://app?vid=271535d7-ef3a-4d90-88c3-096fd810582c","ios":"levelo://app?vid=271535d7-ef3a-4d90-88c3-096fd810582c"},"vehicle_type_id":"4","last_reported":1692979690,"current_range_meters":20400,"station_id":"ce4bhbh2rcd13ifvqepg","pricing_plan_id":"free"},{"bike_id":"d496a2ea-32e8-42e0-a03d-f8dfb90cddae","system_id":"levelo_inurba_marseille","lat":43.284219,"lon":5.3497,"is_reserved":false,"is_disabled":false,"rental_uris":{"android":"levelo://app?vid=d496a2ea-32e8-42e0-a03d-f8dfb90cddae","ios":"levelo://app?vid=d496a2ea-32e8-42e0-a03d-f8dfb90cddae"},"vehicle_type_id":"4","last_reported":1692979690,"current_range_meters":29600,"station_id":"ce4bhbh2rcd13ifvqepg","pricing_plan_id":"free"},{"bike_id":"0116cd6b-1757-4204-bf14-bd46b968ad60","system_id":"levelo_inurba_marseille","lat":43.284219,"lon":5.3497,"is_reserved":false,"is_disabled":false,"rental_uris":{"android":"levelo://app?vid=0116cd6b-1757-4204-bf14-bd46b968ad60","ios":"levelo://app?vid=0116cd6b-1757-4204-bf14-bd46b968ad60"},"vehicle_type_id":"4","last_reported":1692979690,"current_range_meters":31200,"station_id":"ce4bhbh2rcd13ifvqepg","pricing_plan_id":"free"},{"bike_id":"47482ffa-9b06-4fc9-8554-4ffe2aa55b9c","system_id":"levelo_inurba_marseille","lat":43.28414,"lon":5.34992,"is_reserved":false,"is_disabled":false,"rental_uris":{"android":"levelo://app?vid=47482ffa-9b06-4fc9-8554-4ffe2aa55b9c","ios":"levelo://app?vid=47482ffa-9b06-4fc9-8554-4ffe2aa55b9c"},"vehicle_type_id":"4","last_reported":1692979690,"current_range_meters":17200,"station_id":"ce4bhbh2rcd13ifvqepg","pricing_plan_id":"free"},{"bike_id":"78b02832-a763-4e44-8c36-2e5b04d3a592","system_id":"levelo_inurba_marseille","lat":43.28416,"lon":5.34985,"is_reserved":false,"is_disabled":false,"rental_uris":{"android":"levelo://app?vid=78b02832-a763-4e44-8c36-2e5b04d3a592","ios":"levelo://app?vid=78b02832-a763-4e44-8c36-2e5b04d3a592"},"vehicle_type_id":"4","last_reported":1692979690,"current_range_meters":31200,"station_id":"ce4bhbh2rcd13ifvqepg","pricing_plan_id":"free"},{"bike_id":"29d44e69-70c9-4608-91a8-84849780eeb7","system_id":"levelo_inurba_marseille","lat":43.28415,"lon":5.34986,"is_reserved":false,"is_disabled":false,"rental_uris":{"android":"levelo://app?vid=29d44e69-70c9-4608-91a8-84849780eeb7","ios":"levelo://app?vid=29d44e69-70c9-4608-91a8-84849780eeb7"},"vehicle_type_id":"4","last_reported":1692979690,"current_range_meters":12400,"station_id":"ce4bhbh2rcd13ifvqepg","pricing_plan_id":"free"},{"bike_id":"5741a4cd-fbda-4243-a966-6337b7f2cc2a","system_id":"levelo_inurba_marseille","lat":43.28415,"lon":5.34984,"is_reserved":false,"is_disabled":false,"rental_uris":{"android":"levelo://app?vid=5741a4cd-fbda-4243-a966-6337b7f2cc2a","ios":"levelo://app?vid=5741a4cd-fbda-4243-a966-6337b7f2cc2a"},"vehicle_type_id":"4","last_reported":1692979690,"current_range_meters":31200,"station_id":"ce4bhbh2rcd13ifvqepg","pricing_plan_id":"free"},{"bike_id":"71858df7-6339-4eec-a4de-b62084099af5","system_id":"levelo_inurba_marseille","lat":43.284219,"lon":5.3497,"is_reserved":false,"is_disabled":false,"rental_uris":{"android":"levelo://app?vid=71858df7-6339-4eec-a4de-b62084099af5","ios":"levelo://app?vid=71858df7-6339-4eec-a4de-b62084099af5"},"vehicle_type_id":"4","last_reported":1692979690,"current_range_meters":31200,"station_id":"ce4bhbh2rcd13ifvqepg","pricing_plan_id":"free"},{"bike_id":"1b320b70-dead-47b9-8ddd-3327d9a4b3c0","system_id":"levelo_inurba_marseille","lat":43.28413,"lon":5.34982,"is_reserved":false,"is_disabled":false,"rental_uris":{"android":"levelo://app?vid=1b320b70-dead-47b9-8ddd-3327d9a4b3c0","ios":"levelo://app?vid=1b320b70-dead-47b9-8ddd-3327d9a4b3c0"},"vehicle_type_id":"4","last_reported":1692979690,"current_range_meters":16800,"station_id":"ce4bhbh2rcd13ifvqepg","pricing_plan_id":"free"},{"bike_id":"803ce8a7-ba9d-4ad8-880d-b7a354dd831a","system_id":"levelo_inurba_marseille","lat":43.284219,"lon":5.3497,"is_reserved":false,"is_disabled":false,"rental_uris":{"android":"levelo://app?vid=803ce8a7-ba9d-4ad8-880d-b7a354dd831a","ios":"levelo://app?vid=803ce8a7-ba9d-4ad8-880d-b7a354dd831a"},"vehicle_type_id":"4","last_reported":1692979690,"current_range_meters":31200,"station_id":"ce4bhbh2rcd13ifvqepg","pricing_plan_id":"free"},{"bike_id":"bf1be32d-9bb4-4b61-8440-7c9a09416a18","system_id":"levelo_inurba_marseille","lat":43.28408,"lon":5.34988,"is_reserved":false,"is_disabled":false,"rental_uris":{"android":"levelo://app?vid=bf1be32d-9bb4-4b61-8440-7c9a09416a18","ios":"levelo://app?vid=bf1be32d-9bb4-4b61-8440-7c9a09416a18"},"vehicle_type_id":"4","last_reported":1692979690,"current_range_meters":31600,"station_id":"ce4bhbh2rcd13ifvqepg","pricing_plan_id":"free"},{"bike_id":"0e30a5be-929a-49fd-b792-4c474fae29f8","system_id":"levelo_inurba_marseille","lat":43.28896,"lon":5.39483,"is_reserved":false,"is_disabled":false,"rental_uris":{"android":"levelo://app?vid=0e30a5be-929a-49fd-b792-4c474fae29f8","ios":"levelo://app?vid=0e30a5be-929a-49fd-b792-4c474fae29f8"},"vehicle_type_id":"4","last_reported":1692979690,"current_range_meters":10000,"station_id":"","pricing_plan_id":"free"},{"bike_id":"79ae07f7-3d9b-456b-927e-8e880eafedba","system_id":"levelo_inurba_marseille","lat":43.32572,"lon":5.40673,"is_reserved":false,"is_disabled":false,"rental_uris":{"android":"levelo://app?vid=79ae07f7-3d9b-456b-927e-8e880eafedba","ios":"levelo://app?vid=79ae07f7-3d9b-456b-927e-8e880eafedba"},"vehicle_type_id":"4","last_reported":1692979690,"current_range_meters":0,"station_id":"","pricing_plan_id":"free"},{"bike_id":"f50aca5f-cf5b-4020-925f-826a2e34874f","system_id":"levelo_inurba_marseille","lat":43.289363,"lon":5.396322,"is_reserved":false,"is_disabled":false,"rental_uris":{"android":"levelo://app?vid=f50aca5f-cf5b-4020-925f-826a2e34874f","ios":"levelo://app?vid=f50aca5f-cf5b-4020-925f-826a2e34874f"},"vehicle_type_id":"4","last_reported":1692979690,"current_range_meters":31200,"station_id":"ce4bh3h2rcd13ifvqdn0","pricing_plan_id":"free"},{"bike_id":"89a0fea6-8659-4ac9-b081-777de3efd51c","system_id":"levelo_inurba_marseille","lat":43.28284,"lon":5.35057,"is_reserved":false,"is_disabled":false,"rental_uris":{"android":"levelo://app?vid=89a0fea6-8659-4ac9-b081-777de3efd51c","ios":"levelo://app?vid=89a0fea6-8659-4ac9-b081-777de3efd51c"},"vehicle_type_id":"4","last_reported":1692979690,"current_range_meters":12800,"station_id":"ce4bhbp2rcd13ifvqerg","pricing_plan_id":"free"},{"bike_id":"36f4b63c-1e1d-414d-8126-40c284746298","system_id":"levelo_inurba_marseille","lat":43.282754,"lon":5.350519,"is_reserved":false,"is_disabled":false,"rental_uris":{"android":"levelo://app?vid=36f4b63c-1e1d-414d-8126-40c284746298","ios":"levelo://app?vid=36f4b63c-1e1d-414d-8126-40c284746298"},"vehicle_type_id":"4","last_reported":1692979690,"current_range_meters":31600,"station_id":"ce4bhbp2rcd13ifvqerg","pricing_plan_id":"free"},{"bike_id":"c755631c-2733-42df-941e-081c9c73fa62","system_id":"levelo_inurba_marseille","lat":43.2828,"lon":5.35056,"is_reserved":false,"is_disabled":false,"rental_uris":{"android":"levelo://app?vid=c755631c-2733-42df-941e-081c9c73fa62","ios":"levelo://app?vid=c755631c-2733-42df-941e-081c9c73fa62"},"vehicle_type_id":"4","last_reported":1692979690,"current_range_meters":24400,"station_id":"ce4bhbp2rcd13ifvqerg","pricing_plan_id":"free"},{"bike_id":"b9fa8bda-ab5b-4da3-beea-fea6fb796b3d","system_id":"levelo_inurba_marseille","lat":43.282754,"lon":5.350519,"is_reserved":false,"is_disabled":false,"rental_uris":{"android":"levelo://app?vid=b9fa8bda-ab5b-4da3-beea-fea6fb796b3d","ios":"levelo://app?vid=b9fa8bda-ab5b-4da3-beea-fea6fb796b3d"},"vehicle_type_id":"4","last_reported":1692979690,"current_range_meters":2000,"station_id":"ce4bhbp2rcd13ifvqerg","pricing_plan_id":"free"},{"bike_id":"bb3a717b-5954-4d4c-98e4-339aca0a3fa3","system_id":"levelo_inurba_marseille","lat":43.28273,"lon":5.35078,"is_reserved":false,"is_disabled":false,"rental_uris":{"android":"levelo://app?vid=bb3a717b-5954-4d4c-98e4-339aca0a3fa3","ios":"levelo://app?vid=bb3a717b-5954-4d4c-98e4-339aca0a3fa3"},"vehicle_type_id":"4","last_reported":1692979690,"current_range_meters":11600,"station_id":"ce4bhbp2rcd13ifvqerg","pricing_plan_id":"free"},{"bike_id":"9810614e-159b-4e5f-ba7a-4e39dfad5eab","system_id":"levelo_inurba_marseille","lat":43.28275,"lon":5.35064,"is_reserved":false,"is_disabled":false,"rental_uris":{"android":"levelo://app?vid=9810614e-159b-4e5f-ba7a-4e39dfad5eab","ios":"levelo://app?vid=9810614e-159b-4e5f-ba7a-4e39dfad5eab"},"vehicle_type_id":"4","last_reported":1692979690,"current_range_meters":31200,"station_id":"ce4bhbp2rcd13ifvqerg","pricing_plan_id":"free"},{"bike_id":"e20fe853-5ff7-4b21-8d44-a097332bf70f","system_id":"levelo_inurba_marseille","lat":43.28274,"lon":5.35067,"is_reserved":false,"is_disabled":false,"rental_uris":{"android":"levelo://app?vid=e20fe853-5ff7-4b21-8d44-a097332bf70f","ios":"levelo://app?vid=e20fe853-5ff7-4b21-8d44-a097332bf70f"},"vehicle_type_id":"4","last_reported":1692979690,"current_range_meters":28000,"station_id":"ce4bhbp2rcd13ifvqerg","pricing_plan_id":"free"},{"bike_id":"d4829d0d-c9ae-43fb-944c-9dc999b5702e","system_id":"levelo_inurba_marseille","lat":43.28272,"lon":5.35069,"is_reserved":false,"is_disabled":false,"rental_uris":{"android":"levelo://app?vid=d4829d0d-c9ae-43fb-944c-9dc999b5702e","ios":"levelo://app?vid=d4829d0d-c9ae-43fb-944c-9dc999b5702e"},"vehicle_type_id":"4","last_reported":1692979690,"current_range_meters":13200,"station_id":"ce4bhbp2rcd13ifvqerg","pricing_plan_id":"free"},{"bike_id":"9c75e785-2c6a-4672-b053-35c2f4ae866a","system_id":"levelo_inurba_marseille","lat":43.283502,"lon":5.386471,"is_reserved":false,"is_disabled":false,"rental_uris":{"android":"levelo://app?vid=9c75e785-2c6a-4672-b053-35c2f4ae866a","ios":"levelo://app?vid=9c75e785-2c6a-4672-b053-35c2f4ae866a"},"vehicle_type_id":"4","last_reported":1692979690,"current_range_meters":15600,"station_id":"ce4bh492rcd13ifvqdvg","pricing_plan_id":"free"},{"bike_id":"9b60ec60-58c4-41c8-ae04-cce74cb8bd92","system_id":"levelo_inurba_marseille","lat":43.28272,"lon":5.35061,"is_reserved":false,"is_disabled":false,"rental_uris":{"android":"levelo://app?vid=9b60ec60-58c4-41c8-ae04-cce74cb8bd92","ios":"levelo://app?vid=9b60ec60-58c4-41c8-ae04-cce74cb8bd92"},"vehicle_type_id":"4","last_reported":1692979690,"current_range_meters":23200,"station_id":"ce4bhbp2rcd13ifvqerg","pricing_plan_id":"free"},{"bike_id":"6c7f1ad9-cfbf-4780-8755-768fb87bdf80","system_id":"levelo_inurba_marseille","lat":43.282754,"lon":5.350519,"is_reserved":false,"is_disabled":false,"rental_uris":{"android":"levelo://app?vid=6c7f1ad9-cfbf-4780-8755-768fb87bdf80","ios":"levelo://app?vid=6c7f1ad9-cfbf-4780-8755-768fb87bdf80"},"vehicle_type_id":"4","last_reported":1692979690,"current_range_meters":31200,"station_id":"ce4bhbp2rcd13ifvqerg","pricing_plan_id":"free"},{"bike_id":"469f7d79-92fc-4acb-9e23-e8306a0a4657","system_id":"levelo_inurba_marseille","lat":43.282754,"lon":5.350519,"is_reserved":false,"is_disabled":false,"rental_uris":{"android":"levelo://app?vid=469f7d79-92fc-4acb-9e23-e8306a0a4657","ios":"levelo://app?vid=469f7d79-92fc-4acb-9e23-e8306a0a4657"},"vehicle_type_id":"4","last_reported":1692979690,"current_range_meters":6800,"station_id":"ce4bhbp2rcd13ifvqerg","pricing_plan_id":"free"},{"bike_id":"efee3475-6e89-4c52-876e-05d25bebccf9","system_id":"levelo_inurba_marseille","lat":43.2827,"lon":5.35056,"is_reserved":false,"is_disabled":false,"rental_uris":{"android":"levelo://app?vid=efee3475-6e89-4c52-876e-05d25bebccf9","ios":"levelo://app?vid=efee3475-6e89-4c52-876e-05d25bebccf9"},"vehicle_type_id":"4","last_reported":1692979690,"current_range_meters":1200,"station_id":"ce4bhbp2rcd13ifvqerg","pricing_plan_id":"free"},{"bike_id":"3efd98e1-db14-4680-b9fd-4145f1ceda44","system_id":"levelo_inurba_marseille","lat":43.28264,"lon":5.35076,"is_reserved":false,"is_disabled":false,"rental_uris":{"android":"levelo://app?vid=3efd98e1-db14-4680-b9fd-4145f1ceda44","ios":"levelo://app?vid=3efd98e1-db14-4680-b9fd-4145f1ceda44"},"vehicle_type_id":"4","last_reported":1692979690,"current_range_meters":31200,"station_id":"ce4bhbp2rcd13ifvqerg","pricing_plan_id":"free"},{"bike_id":"cbbef566-2575-4c33-a9e7-1c5418020ad1","system_id":"levelo_inurba_marseille","lat":43.28266,"lon":5.35063,"is_reserved":false,"is_disabled":false,"rental_uris":{"android":"levelo://app?vid=cbbef566-2575-4c33-a9e7-1c5418020ad1","ios":"levelo://app?vid=cbbef566-2575-4c33-a9e7-1c5418020ad1"},"vehicle_type_id":"4","last_reported":1692979690,"current_range_meters":29200,"station_id":"ce4bhbp2rcd13ifvqerg","pricing_plan_id":"free"},{"bike_id":"d1153974-f98a-4bf2-9790-5601fb528eb8","system_id":"levelo_inurba_marseille","lat":43.28044,"lon":5.36934,"is_reserved":false,"is_disabled":false,"rental_uris":{"android":"levelo://app?vid=d1153974-f98a-4bf2-9790-5601fb528eb8","ios":"levelo://app?vid=d1153974-f98a-4bf2-9790-5601fb528eb8"},"vehicle_type_id":"4","last_reported":1692979690,"current_range_meters":31200,"station_id":"ce4bha12rcd13ifvqef0","pricing_plan_id":"free"},{"bike_id":"7abd57c5-6505-4577-b1a7-30ea2c97d225","system_id":"levelo_inurba_marseille","lat":43.282754,"lon":5.350519,"is_reserved":false,"is_disabled":false,"rental_uris":{"android":"levelo://app?vid=7abd57c5-6505-4577-b1a7-30ea2c97d225","ios":"levelo://app?vid=7abd57c5-6505-4577-b1a7-30ea2c97d225"},"vehicle_type_id":"4","last_reported":1692979690,"current_range_meters":10800,"station_id":"ce4bhbp2rcd13ifvqerg","pricing_plan_id":"free"},{"bike_id":"d1a09921-0dc3-4e84-b623-257fd60acf8e","system_id":"levelo_inurba_marseille","lat":43.28258,"lon":5.35075,"is_reserved":false,"is_disabled":false,"rental_uris":{"android":"levelo://app?vid=d1a09921-0dc3-4e84-b623-257fd60acf8e","ios":"levelo://app?vid=d1a09921-0dc3-4e84-b623-257fd60acf8e"},"vehicle_type_id":"4","last_reported":1692979690,"current_range_meters":25600,"station_id":"ce4bhbp2rcd13ifvqerg","pricing_plan_id":"free"},{"bike_id":"c8969b74-0d10-4926-a62f-63c1448025c3","system_id":"levelo_inurba_marseille","lat":43.28255,"lon":5.35072,"is_reserved":false,"is_disabled":false,"rental_uris":{"android":"levelo://app?vid=c8969b74-0d10-4926-a62f-63c1448025c3","ios":"levelo://app?vid=c8969b74-0d10-4926-a62f-63c1448025c3"},"vehicle_type_id":"4","last_reported":1692979690,"current_range_meters":16400,"station_id":"ce4bhbp2rcd13ifvqerg","pricing_plan_id":"free"},{"bike_id":"9f46cfde-4f76-4076-bade-5765c2d3d473","system_id":"levelo_inurba_marseille","lat":43.28028,"lon":5.36945,"is_reserved":false,"is_disabled":false,"rental_uris":{"android":"levelo://app?vid=9f46cfde-4f76-4076-bade-5765c2d3d473","ios":"levelo://app?vid=9f46cfde-4f76-4076-bade-5765c2d3d473"},"vehicle_type_id":"4","last_reported":1692979690,"current_range_meters":31200,"station_id":"ce4bha12rcd13ifvqef0","pricing_plan_id":"free"},{"bike_id":"5cebf7cc-66be-4c03-8531-2ab0c8c883a9","system_id":"levelo_inurba_marseille","lat":43.28023,"lon":5.36942,"is_reserved":false,"is_disabled":false,"rental_uris":{"android":"levelo://app?vid=5cebf7cc-66be-4c03-8531-2ab0c8c883a9","ios":"levelo://app?vid=5cebf7cc-66be-4c03-8531-2ab0c8c883a9"},"vehicle_type_id":"4","last_reported":1692979690,"current_range_meters":31200,"station_id":"ce4bha12rcd13ifvqef0","pricing_plan_id":"free"},{"bike_id":"bb1b98ac-3cfa-43bf-ae7e-4f9ca04fc2bd","system_id":"levelo_inurba_marseille","lat":43.29036,"lon":5.39988,"is_reserved":false,"is_disabled":false,"rental_uris":{"android":"levelo://app?vid=bb1b98ac-3cfa-43bf-ae7e-4f9ca04fc2bd","ios":"levelo://app?vid=bb1b98ac-3cfa-43bf-ae7e-4f9ca04fc2bd"},"vehicle_type_id":"4","last_reported":1692979690,"current_range_meters":26400,"station_id":"ce4bh392rcd13ifvqdm0","pricing_plan_id":"free"},{"bike_id":"1eb12bca-378d-47c3-a60d-3ba4b0c4bd70","system_id":"levelo_inurba_marseille","lat":43.285742,"lon":5.395004,"is_reserved":false,"is_disabled":false,"rental_uris":{"android":"levelo://app?vid=1eb12bca-378d-47c3-a60d-3ba4b0c4bd70","ios":"levelo://app?vid=1eb12bca-378d-47c3-a60d-3ba4b0c4bd70"},"vehicle_type_id":"4","last_reported":1692979690,"current_range_meters":27200,"station_id":"ce4bh292rcd13ifvqdg0","pricing_plan_id":"free"},{"bike_id":"4fa3213f-3d31-44d9-b207-8fdd29cde2ea","system_id":"levelo_inurba_marseille","lat":43.32656,"lon":5.40992,"is_reserved":false,"is_disabled":false,"rental_uris":{"android":"levelo://app?vid=4fa3213f-3d31-44d9-b207-8fdd29cde2ea","ios":"levelo://app?vid=4fa3213f-3d31-44d9-b207-8fdd29cde2ea"},"vehicle_type_id":"4","last_reported":1692979690,"current_range_meters":11600,"station_id":"ce4bhpp2rcd13ifvqhgg","pricing_plan_id":"free"},{"bike_id":"5f1d2d6a-9756-486c-8820-a4ded5a8dfc4","system_id":"levelo_inurba_marseille","lat":43.32653,"lon":5.40997,"is_reserved":false,"is_disabled":false,"rental_uris":{"android":"levelo://app?vid=5f1d2d6a-9756-486c-8820-a4ded5a8dfc4","ios":"levelo://app?vid=5f1d2d6a-9756-486c-8820-a4ded5a8dfc4"},"vehicle_type_id":"4","last_reported":1692979690,"current_range_meters":14400,"station_id":"ce4bhpp2rcd13ifvqhgg","pricing_plan_id":"free"},{"bike_id":"43ffdb4f-f9c3-425a-84e3-08a9ec788722","system_id":"levelo_inurba_marseille","lat":43.28015,"lon":5.35167,"is_reserved":false,"is_disabled":false,"rental_uris":{"android":"levelo://app?vid=43ffdb4f-f9c3-425a-84e3-08a9ec788722","ios":"levelo://app?vid=43ffdb4f-f9c3-425a-84e3-08a9ec788722"},"vehicle_type_id":"4","last_reported":1692979690,"current_range_meters":21200,"station_id":"","pricing_plan_id":"free"},{"bike_id":"fa8c7eff-0bdb-41cf-ae48-69902cafebea","system_id":"levelo_inurba_marseille","lat":43.287154,"lon":5.399979,"is_reserved":false,"is_disabled":false,"rental_uris":{"android":"levelo://app?vid=fa8c7eff-0bdb-41cf-ae48-69902cafebea","ios":"levelo://app?vid=fa8c7eff-0bdb-41cf-ae48-69902cafebea"},"vehicle_type_id":"4","last_reported":1692979690,"current_range_meters":16000,"station_id":"ce4bho92rcd13ifvqh3g","pricing_plan_id":"free"},{"bike_id":"1b9abd55-4c72-4f26-a1f2-a08def9e33ab","system_id":"levelo_inurba_marseille","lat":43.320045,"lon":5.415046,"is_reserved":false,"is_disabled":false,"rental_uris":{"android":"levelo://app?vid=1b9abd55-4c72-4f26-a1f2-a08def9e33ab","ios":"levelo://app?vid=1b9abd55-4c72-4f26-a1f2-a08def9e33ab"},"vehicle_type_id":"4","last_reported":1692979690,"current_range_meters":21600,"station_id":"ce4bhq92rcd13ifvqhkg","pricing_plan_id":"free"},{"bike_id":"65066d64-858a-4a20-9acb-87311d816971","system_id":"levelo_inurba_marseille","lat":43.32049,"lon":5.4154,"is_reserved":false,"is_disabled":false,"rental_uris":{"android":"levelo://app?vid=65066d64-858a-4a20-9acb-87311d816971","ios":"levelo://app?vid=65066d64-858a-4a20-9acb-87311d816971"},"vehicle_type_id":"4","last_reported":1692979690,"current_range_meters":27600,"station_id":"ce4bhq92rcd13ifvqhkg","pricing_plan_id":"free"},{"bike_id":"4e4f74f0-9f8f-42d5-ba01-c05b78ad1c00","system_id":"levelo_inurba_marseille","lat":43.320045,"lon":5.415046,"is_reserved":false,"is_disabled":false,"rental_uris":{"android":"levelo://app?vid=4e4f74f0-9f8f-42d5-ba01-c05b78ad1c00","ios":"levelo://app?vid=4e4f74f0-9f8f-42d5-ba01-c05b78ad1c00"},"vehicle_type_id":"4","last_reported":1692979690,"current_range_meters":30400,"station_id":"ce4bhq92rcd13ifvqhkg","pricing_plan_id":"free"},{"bike_id":"1894ec42-17fb-479c-a222-5ccbca2500b5","system_id":"levelo_inurba_marseille","lat":43.320045,"lon":5.415048,"is_reserved":false,"is_disabled":false,"rental_uris":{"android":"levelo://app?vid=1894ec42-17fb-479c-a222-5ccbca2500b5","ios":"levelo://app?vid=1894ec42-17fb-479c-a222-5ccbca2500b5"},"vehicle_type_id":"4","last_reported":1692979690,"current_range_meters":31200,"station_id":"ce4bhq92rcd13ifvqhkg","pricing_plan_id":"free"},{"bike_id":"0930c937-5355-4180-80b8-042073769809","system_id":"levelo_inurba_marseille","lat":43.320045,"lon":5.415048,"is_reserved":false,"is_disabled":false,"rental_uris":{"android":"levelo://app?vid=0930c937-5355-4180-80b8-042073769809","ios":"levelo://app?vid=0930c937-5355-4180-80b8-042073769809"},"vehicle_type_id":"4","last_reported":1692979690,"current_range_meters":31200,"station_id":"ce4bhq92rcd13ifvqhkg","pricing_plan_id":"free"},{"bike_id":"ce79a49b-f92f-4172-b487-6f103338b9f7","system_id":"levelo_inurba_marseille","lat":43.32047,"lon":5.41547,"is_reserved":false,"is_disabled":false,"rental_uris":{"android":"levelo://app?vid=ce79a49b-f92f-4172-b487-6f103338b9f7","ios":"levelo://app?vid=ce79a49b-f92f-4172-b487-6f103338b9f7"},"vehicle_type_id":"4","last_reported":1692979690,"current_range_meters":14800,"station_id":"ce4bhq92rcd13ifvqhkg","pricing_plan_id":"free"},{"bike_id":"4d91fd63-a752-4dfe-9ce5-a84320dccab8","system_id":"levelo_inurba_marseille","lat":43.279742,"lon":5.38744,"is_reserved":false,"is_disabled":false,"rental_uris":{"android":"levelo://app?vid=4d91fd63-a752-4dfe-9ce5-a84320dccab8","ios":"levelo://app?vid=4d91fd63-a752-4dfe-9ce5-a84320dccab8"},"vehicle_type_id":"4","last_reported":1692979690,"current_range_meters":2400,"station_id":"ce4bhg12rcd13ifvqf80","pricing_plan_id":"free"},{"bike_id":"f5583302-5654-48ac-8ed9-926d5acd6749","system_id":"levelo_inurba_marseille","lat":43.279742,"lon":5.38744,"is_reserved":false,"is_disabled":false,"rental_uris":{"android":"levelo://app?vid=f5583302-5654-48ac-8ed9-926d5acd6749","ios":"levelo://app?vid=f5583302-5654-48ac-8ed9-926d5acd6749"},"vehicle_type_id":"4","last_reported":1692979690,"current_range_meters":10000,"station_id":"ce4bhg12rcd13ifvqf80","pricing_plan_id":"free"},{"bike_id":"43466df3-1959-42ce-beff-6e205d1be309","system_id":"levelo_inurba_marseille","lat":43.320045,"lon":5.415046,"is_reserved":false,"is_disabled":false,"rental_uris":{"android":"levelo://app?vid=43466df3-1959-42ce-beff-6e205d1be309","ios":"levelo://app?vid=43466df3-1959-42ce-beff-6e205d1be309"},"vehicle_type_id":"4","last_reported":1692979690,"current_range_meters":29200,"station_id":"ce4bhq92rcd13ifvqhkg","pricing_plan_id":"free"},{"bike_id":"c327718a-8fe6-4791-a349-aba0f8f94e82","system_id":"levelo_inurba_marseille","lat":43.279742,"lon":5.38744,"is_reserved":false,"is_disabled":false,"rental_uris":{"android":"levelo://app?vid=c327718a-8fe6-4791-a349-aba0f8f94e82","ios":"levelo://app?vid=c327718a-8fe6-4791-a349-aba0f8f94e82"},"vehicle_type_id":"4","last_reported":1692979690,"current_range_meters":24800,"station_id":"ce4bhg12rcd13ifvqf80","pricing_plan_id":"free"},{"bike_id":"e209d7c3-b9ee-4fb2-b8ca-62ec9988cdfb","system_id":"levelo_inurba_marseille","lat":43.34626,"lon":5.34775,"is_reserved":false,"is_disabled":false,"rental_uris":{"android":"levelo://app?vid=e209d7c3-b9ee-4fb2-b8ca-62ec9988cdfb","ios":"levelo://app?vid=e209d7c3-b9ee-4fb2-b8ca-62ec9988cdfb"},"vehicle_type_id":"4","last_reported":1692979690,"current_range_meters":0,"station_id":"","pricing_plan_id":"free"},{"bike_id":"76cd4408-4f5a-4271-930c-1e9ac821118e","system_id":"levelo_inurba_marseille","lat":43.320045,"lon":5.415046,"is_reserved":false,"is_disabled":false,"rental_uris":{"android":"levelo://app?vid=76cd4408-4f5a-4271-930c-1e9ac821118e","ios":"levelo://app?vid=76cd4408-4f5a-4271-930c-1e9ac821118e"},"vehicle_type_id":"4","last_reported":1692979690,"current_range_meters":8400,"station_id":"ce4bhq92rcd13ifvqhkg","pricing_plan_id":"free"},{"bike_id":"06d57440-6982-4b57-b795-91e7dead82ba","system_id":"levelo_inurba_marseille","lat":43.292939,"lon":5.408764,"is_reserved":false,"is_disabled":false,"rental_uris":{"android":"levelo://app?vid=06d57440-6982-4b57-b795-91e7dead82ba","ios":"levelo://app?vid=06d57440-6982-4b57-b795-91e7dead82ba"},"vehicle_type_id":"4","last_reported":1692979690,"current_range_meters":17600,"station_id":"ce4bh192rcd13ifvqdc0","pricing_plan_id":"free"},{"bike_id":"577d3fd9-50b0-4404-8cca-239eee124b82","system_id":"levelo_inurba_marseille","lat":43.292569,"lon":5.409107,"is_reserved":false,"is_disabled":false,"rental_uris":{"android":"levelo://app?vid=577d3fd9-50b0-4404-8cca-239eee124b82","ios":"levelo://app?vid=577d3fd9-50b0-4404-8cca-239eee124b82"},"vehicle_type_id":"4","last_reported":1692979690,"current_range_meters":6000,"station_id":"ce4bh192rcd13ifvqdc0","pricing_plan_id":"free"},{"bike_id":"578d26bd-6684-48e1-ada7-fa7683003874","system_id":"levelo_inurba_marseille","lat":43.292569,"lon":5.409107,"is_reserved":false,"is_disabled":false,"rental_uris":{"android":"levelo://app?vid=578d26bd-6684-48e1-ada7-fa7683003874","ios":"levelo://app?vid=578d26bd-6684-48e1-ada7-fa7683003874"},"vehicle_type_id":"4","last_reported":1692979690,"current_range_meters":28400,"station_id":"ce4bh192rcd13ifvqdc0","pricing_plan_id":"free"},{"bike_id":"42f022b5-b99b-4350-a450-8c9d1e78ee1f","system_id":"levelo_inurba_marseille","lat":43.325233,"lon":5.414318,"is_reserved":false,"is_disabled":false,"rental_uris":{"android":"levelo://app?vid=42f022b5-b99b-4350-a450-8c9d1e78ee1f","ios":"levelo://app?vid=42f022b5-b99b-4350-a450-8c9d1e78ee1f"},"vehicle_type_id":"4","last_reported":1692979690,"current_range_meters":23200,"station_id":"ce4bhq12rcd13ifvqhhg","pricing_plan_id":"free"},{"bike_id":"e73ba8ca-75a1-49d2-9b5c-731c63eb6ce9","system_id":"levelo_inurba_marseille","lat":43.27621,"lon":5.3611,"is_reserved":false,"is_disabled":false,"rental_uris":{"android":"levelo://app?vid=e73ba8ca-75a1-49d2-9b5c-731c63eb6ce9","ios":"levelo://app?vid=e73ba8ca-75a1-49d2-9b5c-731c63eb6ce9"},"vehicle_type_id":"4","last_reported":1692979690,"current_range_meters":5200,"station_id":"ce4bgj92rcd13ifvqbe0","pricing_plan_id":"free"},{"bike_id":"8f1b9876-2f23-4844-9ae1-81b89a2a5778","system_id":"levelo_inurba_marseille","lat":43.325233,"lon":5.414318,"is_reserved":false,"is_disabled":false,"rental_uris":{"android":"levelo://app?vid=8f1b9876-2f23-4844-9ae1-81b89a2a5778","ios":"levelo://app?vid=8f1b9876-2f23-4844-9ae1-81b89a2a5778"},"vehicle_type_id":"4","last_reported":1692979690,"current_range_meters":29200,"station_id":"ce4bhq12rcd13ifvqhhg","pricing_plan_id":"free"},{"bike_id":"1f6a60d6-8f82-4e1d-9c26-aaac50ef3256","system_id":"levelo_inurba_marseille","lat":43.3254,"lon":5.41441,"is_reserved":false,"is_disabled":false,"rental_uris":{"android":"levelo://app?vid=1f6a60d6-8f82-4e1d-9c26-aaac50ef3256","ios":"levelo://app?vid=1f6a60d6-8f82-4e1d-9c26-aaac50ef3256"},"vehicle_type_id":"4","last_reported":1692979690,"current_range_meters":26400,"station_id":"ce4bhq12rcd13ifvqhhg","pricing_plan_id":"free"},{"bike_id":"8dedf5d6-0062-4004-b871-a5a4fc242d85","system_id":"levelo_inurba_marseille","lat":43.325233,"lon":5.414318,"is_reserved":false,"is_disabled":false,"rental_uris":{"android":"levelo://app?vid=8dedf5d6-0062-4004-b871-a5a4fc242d85","ios":"levelo://app?vid=8dedf5d6-0062-4004-b871-a5a4fc242d85"},"vehicle_type_id":"4","last_reported":1692979690,"current_range_meters":26800,"station_id":"ce4bhq12rcd13ifvqhhg","pricing_plan_id":"free"},{"bike_id":"3563d8b3-8312-4911-80be-32759d84381f","system_id":"levelo_inurba_marseille","lat":43.32549,"lon":5.41441,"is_reserved":false,"is_disabled":false,"rental_uris":{"android":"levelo://app?vid=3563d8b3-8312-4911-80be-32759d84381f","ios":"levelo://app?vid=3563d8b3-8312-4911-80be-32759d84381f"},"vehicle_type_id":"4","last_reported":1692979690,"current_range_meters":29200,"station_id":"ce4bhq12rcd13ifvqhhg","pricing_plan_id":"free"},{"bike_id":"924ee3f8-2f9f-44f8-9716-5fa01dde3a70","system_id":"levelo_inurba_marseille","lat":43.325233,"lon":5.414318,"is_reserved":false,"is_disabled":false,"rental_uris":{"android":"levelo://app?vid=924ee3f8-2f9f-44f8-9716-5fa01dde3a70","ios":"levelo://app?vid=924ee3f8-2f9f-44f8-9716-5fa01dde3a70"},"vehicle_type_id":"4","last_reported":1692979690,"current_range_meters":31600,"station_id":"ce4bhq12rcd13ifvqhhg","pricing_plan_id":"free"},{"bike_id":"ef93753d-d222-4d44-8491-cf5da1f2bade","system_id":"levelo_inurba_marseille","lat":43.32537,"lon":5.41449,"is_reserved":false,"is_disabled":false,"rental_uris":{"android":"levelo://app?vid=ef93753d-d222-4d44-8491-cf5da1f2bade","ios":"levelo://app?vid=ef93753d-d222-4d44-8491-cf5da1f2bade"},"vehicle_type_id":"4","last_reported":1692979690,"current_range_meters":0,"station_id":"ce4bhq12rcd13ifvqhhg","pricing_plan_id":"free"},{"bike_id":"d32dde61-9671-4136-a6db-16a502f51a42","system_id":"levelo_inurba_marseille","lat":43.32547,"lon":5.41445,"is_reserved":false,"is_disabled":false,"rental_uris":{"android":"levelo://app?vid=d32dde61-9671-4136-a6db-16a502f51a42","ios":"levelo://app?vid=d32dde61-9671-4136-a6db-16a502f51a42"},"vehicle_type_id":"4","last_reported":1692979690,"current_range_meters":26800,"station_id":"ce4bhq12rcd13ifvqhhg","pricing_plan_id":"free"},{"bike_id":"22abc744-22cf-4dbb-a8e3-e69bf34e615d","system_id":"levelo_inurba_marseille","lat":43.32546,"lon":5.41448,"is_reserved":false,"is_disabled":false,"rental_uris":{"android":"levelo://app?vid=22abc744-22cf-4dbb-a8e3-e69bf34e615d","ios":"levelo://app?vid=22abc744-22cf-4dbb-a8e3-e69bf34e615d"},"vehicle_type_id":"4","last_reported":1692979690,"current_range_meters":25600,"station_id":"ce4bhq12rcd13ifvqhhg","pricing_plan_id":"free"},{"bike_id":"fcda139a-6bc0-4103-9b39-726e44e6f12a","system_id":"levelo_inurba_marseille","lat":43.32549,"lon":5.41447,"is_reserved":false,"is_disabled":false,"rental_uris":{"android":"levelo://app?vid=fcda139a-6bc0-4103-9b39-726e44e6f12a","ios":"levelo://app?vid=fcda139a-6bc0-4103-9b39-726e44e6f12a"},"vehicle_type_id":"4","last_reported":1692979690,"current_range_meters":18400,"station_id":"ce4bhq12rcd13ifvqhhg","pricing_plan_id":"free"},{"bike_id":"ba7e827b-314d-4e9e-b71a-fa9bba7e7654","system_id":"levelo_inurba_marseille","lat":43.27611,"lon":5.36117,"is_reserved":false,"is_disabled":false,"rental_uris":{"android":"levelo://app?vid=ba7e827b-314d-4e9e-b71a-fa9bba7e7654","ios":"levelo://app?vid=ba7e827b-314d-4e9e-b71a-fa9bba7e7654"},"vehicle_type_id":"4","last_reported":1692979690,"current_range_meters":26000,"station_id":"ce4bgj92rcd13ifvqbe0","pricing_plan_id":"free"},{"bike_id":"d1626fc8-4867-4903-8dd7-42552d175d48","system_id":"levelo_inurba_marseille","lat":43.32551,"lon":5.41447,"is_reserved":false,"is_disabled":false,"rental_uris":{"android":"levelo://app?vid=d1626fc8-4867-4903-8dd7-42552d175d48","ios":"levelo://app?vid=d1626fc8-4867-4903-8dd7-42552d175d48"},"vehicle_type_id":"4","last_reported":1692979690,"current_range_meters":24000,"station_id":"ce4bhq12rcd13ifvqhhg","pricing_plan_id":"free"},{"bike_id":"da5934ed-3ff7-432d-9e13-bf2ca95c1bea","system_id":"levelo_inurba_marseille","lat":43.27611,"lon":5.36105,"is_reserved":false,"is_disabled":false,"rental_uris":{"android":"levelo://app?vid=da5934ed-3ff7-432d-9e13-bf2ca95c1bea","ios":"levelo://app?vid=da5934ed-3ff7-432d-9e13-bf2ca95c1bea"},"vehicle_type_id":"4","last_reported":1692979690,"current_range_meters":31200,"station_id":"ce4bgj92rcd13ifvqbe0","pricing_plan_id":"free"},{"bike_id":"97324b55-e038-4f44-9b9f-e580eddfed7b","system_id":"levelo_inurba_marseille","lat":43.280784,"lon":5.396622,"is_reserved":false,"is_disabled":false,"rental_uris":{"android":"levelo://app?vid=97324b55-e038-4f44-9b9f-e580eddfed7b","ios":"levelo://app?vid=97324b55-e038-4f44-9b9f-e580eddfed7b"},"vehicle_type_id":"4","last_reported":1692979690,"current_range_meters":26000,"station_id":"ce4bho12rcd13ifvqh2g","pricing_plan_id":"free"},{"bike_id":"5d35ddef-4fca-4589-9805-0ecb13306497","system_id":"levelo_inurba_marseille","lat":43.280784,"lon":5.396622,"is_reserved":false,"is_disabled":false,"rental_uris":{"android":"levelo://app?vid=5d35ddef-4fca-4589-9805-0ecb13306497","ios":"levelo://app?vid=5d35ddef-4fca-4589-9805-0ecb13306497"},"vehicle_type_id":"4","last_reported":1692979690,"current_range_meters":18800,"station_id":"ce4bho12rcd13ifvqh2g","pricing_plan_id":"free"},{"bike_id":"2d9231c5-ae91-44b3-be0d-d6c07affd9b9","system_id":"levelo_inurba_marseille","lat":43.280784,"lon":5.396622,"is_reserved":false,"is_disabled":false,"rental_uris":{"android":"levelo://app?vid=2d9231c5-ae91-44b3-be0d-d6c07affd9b9","ios":"levelo://app?vid=2d9231c5-ae91-44b3-be0d-d6c07affd9b9"},"vehicle_type_id":"4","last_reported":1692979690,"current_range_meters":23200,"station_id":"ce4bho12rcd13ifvqh2g","pricing_plan_id":"free"},{"bike_id":"0c3ae167-905a-4bc9-9b8c-b44f912bf1db","system_id":"levelo_inurba_marseille","lat":43.273613,"lon":5.362705,"is_reserved":false,"is_disabled":false,"rental_uris":{"android":"levelo://app?vid=0c3ae167-905a-4bc9-9b8c-b44f912bf1db","ios":"levelo://app?vid=0c3ae167-905a-4bc9-9b8c-b44f912bf1db"},"vehicle_type_id":"4","last_reported":1692979690,"current_range_meters":28800,"station_id":"ce4bhbh2rcd13ifvqeo0","pricing_plan_id":"free"},{"bike_id":"68c2f567-ff9c-4ac2-947e-f189bee12e93","system_id":"levelo_inurba_marseille","lat":43.273613,"lon":5.362705,"is_reserved":false,"is_disabled":false,"rental_uris":{"android":"levelo://app?vid=68c2f567-ff9c-4ac2-947e-f189bee12e93","ios":"levelo://app?vid=68c2f567-ff9c-4ac2-947e-f189bee12e93"},"vehicle_type_id":"4","last_reported":1692979690,"current_range_meters":24400,"station_id":"ce4bhbh2rcd13ifvqeo0","pricing_plan_id":"free"},{"bike_id":"39b5b5cf-86ef-48ea-a176-58e554756417","system_id":"levelo_inurba_marseille","lat":43.273609,"lon":5.362708,"is_reserved":false,"is_disabled":false,"rental_uris":{"android":"levelo://app?vid=39b5b5cf-86ef-48ea-a176-58e554756417","ios":"levelo://app?vid=39b5b5cf-86ef-48ea-a176-58e554756417"},"vehicle_type_id":"4","last_reported":1692979690,"current_range_meters":31200,"station_id":"ce4bhbh2rcd13ifvqeo0","pricing_plan_id":"free"},{"bike_id":"f500dc77-8573-4deb-9e92-991a4c875f38","system_id":"levelo_inurba_marseille","lat":43.273613,"lon":5.362705,"is_reserved":false,"is_disabled":false,"rental_uris":{"android":"levelo://app?vid=f500dc77-8573-4deb-9e92-991a4c875f38","ios":"levelo://app?vid=f500dc77-8573-4deb-9e92-991a4c875f38"},"vehicle_type_id":"4","last_reported":1692979690,"current_range_meters":13600,"station_id":"ce4bhbh2rcd13ifvqeo0","pricing_plan_id":"free"},{"bike_id":"f33eb6cb-c60c-4d9c-b4ba-02ed4319db60","system_id":"levelo_inurba_marseille","lat":43.273609,"lon":5.362708,"is_reserved":false,"is_disabled":false,"rental_uris":{"android":"levelo://app?vid=f33eb6cb-c60c-4d9c-b4ba-02ed4319db60","ios":"levelo://app?vid=f33eb6cb-c60c-4d9c-b4ba-02ed4319db60"},"vehicle_type_id":"4","last_reported":1692979690,"current_range_meters":30400,"station_id":"ce4bhbh2rcd13ifvqeo0","pricing_plan_id":"free"},{"bike_id":"f5219992-38e6-4764-9fca-3e0399f62a08","system_id":"levelo_inurba_marseille","lat":43.27567,"lon":5.3843,"is_reserved":false,"is_disabled":false,"rental_uris":{"android":"levelo://app?vid=f5219992-38e6-4764-9fca-3e0399f62a08","ios":"levelo://app?vid=f5219992-38e6-4764-9fca-3e0399f62a08"},"vehicle_type_id":"4","last_reported":1692979690,"current_range_meters":0,"station_id":"ce4bhh92rcd13ifvqfi0","pricing_plan_id":"free"},{"bike_id":"31d43c7a-93c4-4dda-8061-12b6588ef66c","system_id":"levelo_inurba_marseille","lat":43.273613,"lon":5.362705,"is_reserved":false,"is_disabled":false,"rental_uris":{"android":"levelo://app?vid=31d43c7a-93c4-4dda-8061-12b6588ef66c","ios":"levelo://app?vid=31d43c7a-93c4-4dda-8061-12b6588ef66c"},"vehicle_type_id":"4","last_reported":1692979690,"current_range_meters":31200,"station_id":"ce4bhbh2rcd13ifvqeo0","pricing_plan_id":"free"},{"bike_id":"9278726e-fbb6-4d1c-afd8-9bbbcc5e3810","system_id":"levelo_inurba_marseille","lat":43.33608,"lon":5.4102,"is_reserved":false,"is_disabled":false,"rental_uris":{"android":"levelo://app?vid=9278726e-fbb6-4d1c-afd8-9bbbcc5e3810","ios":"levelo://app?vid=9278726e-fbb6-4d1c-afd8-9bbbcc5e3810"},"vehicle_type_id":"4","last_reported":1692979690,"current_range_meters":8800,"station_id":"ce4bhqh2rcd13ifvqhmg","pricing_plan_id":"free"},{"bike_id":"dc85054f-495f-48d6-ae84-f74e17bf7cb1","system_id":"levelo_inurba_marseille","lat":43.273613,"lon":5.362705,"is_reserved":false,"is_disabled":false,"rental_uris":{"android":"levelo://app?vid=dc85054f-495f-48d6-ae84-f74e17bf7cb1","ios":"levelo://app?vid=dc85054f-495f-48d6-ae84-f74e17bf7cb1"},"vehicle_type_id":"4","last_reported":1692979690,"current_range_meters":19600,"station_id":"ce4bhbh2rcd13ifvqeo0","pricing_plan_id":"free"},{"bike_id":"e410c38e-95b1-4b3e-877f-fbddfcd4532e","system_id":"levelo_inurba_marseille","lat":43.273613,"lon":5.362705,"is_reserved":false,"is_disabled":false,"rental_uris":{"android":"levelo://app?vid=e410c38e-95b1-4b3e-877f-fbddfcd4532e","ios":"levelo://app?vid=e410c38e-95b1-4b3e-877f-fbddfcd4532e"},"vehicle_type_id":"4","last_reported":1692979690,"current_range_meters":31200,"station_id":"ce4bhbh2rcd13ifvqeo0","pricing_plan_id":"free"},{"bike_id":"2c002134-e4d2-41d1-b436-28e8e2ea24ca","system_id":"levelo_inurba_marseille","lat":43.276771,"lon":5.388799,"is_reserved":false,"is_disabled":false,"rental_uris":{"android":"levelo://app?vid=2c002134-e4d2-41d1-b436-28e8e2ea24ca","ios":"levelo://app?vid=2c002134-e4d2-41d1-b436-28e8e2ea24ca"},"vehicle_type_id":"4","last_reported":1692979690,"current_range_meters":28800,"station_id":"ce4bhi12rcd13ifvqfo0","pricing_plan_id":"free"},{"bike_id":"76a439e9-6c77-417c-81c7-58b9686f9a41","system_id":"levelo_inurba_marseille","lat":43.28123,"lon":5.40175,"is_reserved":false,"is_disabled":false,"rental_uris":{"android":"levelo://app?vid=76a439e9-6c77-417c-81c7-58b9686f9a41","ios":"levelo://app?vid=76a439e9-6c77-417c-81c7-58b9686f9a41"},"vehicle_type_id":"4","last_reported":1692979690,"current_range_meters":16400,"station_id":"","pricing_plan_id":"free"},{"bike_id":"b3e5f6f6-fdda-43cf-915e-bb162824458b","system_id":"levelo_inurba_marseille","lat":43.341406,"lon":5.409054,"is_reserved":false,"is_disabled":false,"rental_uris":{"android":"levelo://app?vid=b3e5f6f6-fdda-43cf-915e-bb162824458b","ios":"levelo://app?vid=b3e5f6f6-fdda-43cf-915e-bb162824458b"},"vehicle_type_id":"4","last_reported":1692979690,"current_range_meters":17200,"station_id":"ce4bhqh2rcd13ifvqhlg","pricing_plan_id":"free"},{"bike_id":"aee6c311-4dd8-42c2-a236-8e8ef20ad03e","system_id":"levelo_inurba_marseille","lat":43.341405,"lon":5.409068,"is_reserved":false,"is_disabled":false,"rental_uris":{"android":"levelo://app?vid=aee6c311-4dd8-42c2-a236-8e8ef20ad03e","ios":"levelo://app?vid=aee6c311-4dd8-42c2-a236-8e8ef20ad03e"},"vehicle_type_id":"4","last_reported":1692979690,"current_range_meters":20800,"station_id":"","pricing_plan_id":"free"},{"bike_id":"e70b76ea-5268-4e50-abe3-2f0407cbacc6","system_id":"levelo_inurba_marseille","lat":43.34143,"lon":5.40905,"is_reserved":false,"is_disabled":false,"rental_uris":{"android":"levelo://app?vid=e70b76ea-5268-4e50-abe3-2f0407cbacc6","ios":"levelo://app?vid=e70b76ea-5268-4e50-abe3-2f0407cbacc6"},"vehicle_type_id":"4","last_reported":1692979690,"current_range_meters":29600,"station_id":"ce4bhqh2rcd13ifvqhlg","pricing_plan_id":"free"},{"bike_id":"dca8497b-d5cc-4cd0-b42f-c53e91d7ef2d","system_id":"levelo_inurba_marseille","lat":43.34144,"lon":5.40904,"is_reserved":false,"is_disabled":false,"rental_uris":{"android":"levelo://app?vid=dca8497b-d5cc-4cd0-b42f-c53e91d7ef2d","ios":"levelo://app?vid=dca8497b-d5cc-4cd0-b42f-c53e91d7ef2d"},"vehicle_type_id":"4","last_reported":1692979690,"current_range_meters":20400,"station_id":"ce4bhqh2rcd13ifvqhlg","pricing_plan_id":"free"},{"bike_id":"f08d1aef-9ba1-437f-b152-ed9190f6f1d8","system_id":"levelo_inurba_marseille","lat":43.34149,"lon":5.40901,"is_reserved":false,"is_disabled":false,"rental_uris":{"android":"levelo://app?vid=f08d1aef-9ba1-437f-b152-ed9190f6f1d8","ios":"levelo://app?vid=f08d1aef-9ba1-437f-b152-ed9190f6f1d8"},"vehicle_type_id":"4","last_reported":1692979690,"current_range_meters":24000,"station_id":"ce4bhqh2rcd13ifvqhlg","pricing_plan_id":"free"},{"bike_id":"8b092189-b8b4-4410-8bae-adbec766b5c7","system_id":"levelo_inurba_marseille","lat":43.341463,"lon":5.409047,"is_reserved":false,"is_disabled":false,"rental_uris":{"android":"levelo://app?vid=8b092189-b8b4-4410-8bae-adbec766b5c7","ios":"levelo://app?vid=8b092189-b8b4-4410-8bae-adbec766b5c7"},"vehicle_type_id":"4","last_reported":1692979690,"current_range_meters":28400,"station_id":"","pricing_plan_id":"free"},{"bike_id":"56fae68c-5275-441a-9dc9-be69facb353e","system_id":"levelo_inurba_marseille","lat":43.34147,"lon":5.40908,"is_reserved":false,"is_disabled":false,"rental_uris":{"android":"levelo://app?vid=56fae68c-5275-441a-9dc9-be69facb353e","ios":"levelo://app?vid=56fae68c-5275-441a-9dc9-be69facb353e"},"vehicle_type_id":"4","last_reported":1692979690,"current_range_meters":20800,"station_id":"ce4bhqh2rcd13ifvqhlg","pricing_plan_id":"free"},{"bike_id":"73c58ad4-9273-4758-8948-6e207a6d1385","system_id":"levelo_inurba_marseille","lat":43.34153,"lon":5.40918,"is_reserved":false,"is_disabled":false,"rental_uris":{"android":"levelo://app?vid=73c58ad4-9273-4758-8948-6e207a6d1385","ios":"levelo://app?vid=73c58ad4-9273-4758-8948-6e207a6d1385"},"vehicle_type_id":"4","last_reported":1692979690,"current_range_meters":22400,"station_id":"ce4bhqh2rcd13ifvqhlg","pricing_plan_id":"free"},{"bike_id":"cdc70f2d-7478-41b7-9bba-fb3a86b9704d","system_id":"levelo_inurba_marseille","lat":43.273129,"lon":5.390725,"is_reserved":false,"is_disabled":false,"rental_uris":{"android":"levelo://app?vid=cdc70f2d-7478-41b7-9bba-fb3a86b9704d","ios":"levelo://app?vid=cdc70f2d-7478-41b7-9bba-fb3a86b9704d"},"vehicle_type_id":"4","last_reported":1692979690,"current_range_meters":23600,"station_id":"ce4bhgp2rcd13ifvqfe0","pricing_plan_id":"free"},{"bike_id":"f25112c0-cab5-4c6c-b521-cf9eef36273d","system_id":"levelo_inurba_marseille","lat":43.30416,"lon":5.42543,"is_reserved":false,"is_disabled":false,"rental_uris":{"android":"levelo://app?vid=f25112c0-cab5-4c6c-b521-cf9eef36273d","ios":"levelo://app?vid=f25112c0-cab5-4c6c-b521-cf9eef36273d"},"vehicle_type_id":"4","last_reported":1692979690,"current_range_meters":6000,"station_id":"ce4bhoh2rcd13ifvqh6g","pricing_plan_id":"free"},{"bike_id":"8bf3ce05-21d9-4337-aa49-55cb51731003","system_id":"levelo_inurba_marseille","lat":43.304172,"lon":5.425437,"is_reserved":false,"is_disabled":false,"rental_uris":{"android":"levelo://app?vid=8bf3ce05-21d9-4337-aa49-55cb51731003","ios":"levelo://app?vid=8bf3ce05-21d9-4337-aa49-55cb51731003"},"vehicle_type_id":"4","last_reported":1692979690,"current_range_meters":17200,"station_id":"ce4bhoh2rcd13ifvqh6g","pricing_plan_id":"free"},{"bike_id":"7aedd376-fedc-4fe8-9c2d-589794973f6c","system_id":"levelo_inurba_marseille","lat":43.304129,"lon":5.425458,"is_reserved":false,"is_disabled":false,"rental_uris":{"android":"levelo://app?vid=7aedd376-fedc-4fe8-9c2d-589794973f6c","ios":"levelo://app?vid=7aedd376-fedc-4fe8-9c2d-589794973f6c"},"vehicle_type_id":"4","last_reported":1692979690,"current_range_meters":23600,"station_id":"ce4bhoh2rcd13ifvqh6g","pricing_plan_id":"free"},{"bike_id":"4b085fbb-9033-4618-856c-317b53fbe6fc","system_id":"levelo_inurba_marseille","lat":43.30415,"lon":5.42547,"is_reserved":false,"is_disabled":false,"rental_uris":{"android":"levelo://app?vid=4b085fbb-9033-4618-856c-317b53fbe6fc","ios":"levelo://app?vid=4b085fbb-9033-4618-856c-317b53fbe6fc"},"vehicle_type_id":"4","last_reported":1692979690,"current_range_meters":14400,"station_id":"ce4bhoh2rcd13ifvqh6g","pricing_plan_id":"free"},{"bike_id":"1fbb5256-8cf9-4383-a72c-463820a95f65","system_id":"levelo_inurba_marseille","lat":43.304118,"lon":5.425483,"is_reserved":false,"is_disabled":false,"rental_uris":{"android":"levelo://app?vid=1fbb5256-8cf9-4383-a72c-463820a95f65","ios":"levelo://app?vid=1fbb5256-8cf9-4383-a72c-463820a95f65"},"vehicle_type_id":"4","last_reported":1692979690,"current_range_meters":10000,"station_id":"","pricing_plan_id":"free"},{"bike_id":"0cda96bb-8458-4085-ae4e-5975bb8ff62e","system_id":"levelo_inurba_marseille","lat":43.304136,"lon":5.425503,"is_reserved":false,"is_disabled":false,"rental_uris":{"android":"levelo://app?vid=0cda96bb-8458-4085-ae4e-5975bb8ff62e","ios":"levelo://app?vid=0cda96bb-8458-4085-ae4e-5975bb8ff62e"},"vehicle_type_id":"4","last_reported":1692979690,"current_range_meters":10800,"station_id":"","pricing_plan_id":"free"},{"bike_id":"1dc4b7e7-2ac5-48f7-bc93-2c4901f4f765","system_id":"levelo_inurba_marseille","lat":43.304126,"lon":5.425554,"is_reserved":false,"is_disabled":false,"rental_uris":{"android":"levelo://app?vid=1dc4b7e7-2ac5-48f7-bc93-2c4901f4f765","ios":"levelo://app?vid=1dc4b7e7-2ac5-48f7-bc93-2c4901f4f765"},"vehicle_type_id":"4","last_reported":1692979690,"current_range_meters":23200,"station_id":"ce4bhoh2rcd13ifvqh6g","pricing_plan_id":"free"},{"bike_id":"1b44a7cb-f2c0-4b9f-b1f7-aba251de8544","system_id":"levelo_inurba_marseille","lat":43.304107,"lon":5.425583,"is_reserved":false,"is_disabled":false,"rental_uris":{"android":"levelo://app?vid=1b44a7cb-f2c0-4b9f-b1f7-aba251de8544","ios":"levelo://app?vid=1b44a7cb-f2c0-4b9f-b1f7-aba251de8544"},"vehicle_type_id":"4","last_reported":1692979690,"current_range_meters":17600,"station_id":"ce4bhoh2rcd13ifvqh6g","pricing_plan_id":"free"},{"bike_id":"49112d6f-6f6c-44ab-89b6-4e24212a70f5","system_id":"levelo_inurba_marseille","lat":43.295511,"lon":5.422926,"is_reserved":false,"is_disabled":false,"rental_uris":{"android":"levelo://app?vid=49112d6f-6f6c-44ab-89b6-4e24212a70f5","ios":"levelo://app?vid=49112d6f-6f6c-44ab-89b6-4e24212a70f5"},"vehicle_type_id":"4","last_reported":1692979690,"current_range_meters":19600,"station_id":"ce4bhph2rcd13ifvqhdg","pricing_plan_id":"free"},{"bike_id":"ae01cb88-b30b-490f-95b3-c0db0e86ff9b","system_id":"levelo_inurba_marseille","lat":43.29545,"lon":5.42282,"is_reserved":false,"is_disabled":false,"rental_uris":{"android":"levelo://app?vid=ae01cb88-b30b-490f-95b3-c0db0e86ff9b","ios":"levelo://app?vid=ae01cb88-b30b-490f-95b3-c0db0e86ff9b"},"vehicle_type_id":"4","last_reported":1692979690,"current_range_meters":26000,"station_id":"ce4bhph2rcd13ifvqhdg","pricing_plan_id":"free"},{"bike_id":"961d768b-48ed-408a-954e-49cd2990eef5","system_id":"levelo_inurba_marseille","lat":43.27205,"lon":5.39186,"is_reserved":false,"is_disabled":false,"rental_uris":{"android":"levelo://app?vid=961d768b-48ed-408a-954e-49cd2990eef5","ios":"levelo://app?vid=961d768b-48ed-408a-954e-49cd2990eef5"},"vehicle_type_id":"4","last_reported":1692979690,"current_range_meters":1200,"station_id":"ce4bhhp2rcd13ifvqfm0","pricing_plan_id":"free"},{"bike_id":"b8136c04-9269-4f77-b0f5-6108affd67c8","system_id":"levelo_inurba_marseille","lat":43.278128,"lon":5.407195,"is_reserved":false,"is_disabled":false,"rental_uris":{"android":"levelo://app?vid=b8136c04-9269-4f77-b0f5-6108affd67c8","ios":"levelo://app?vid=b8136c04-9269-4f77-b0f5-6108affd67c8"},"vehicle_type_id":"4","last_reported":1692979690,"current_range_meters":11200,"station_id":"ce4bhnh2rcd13ifvqgtg","pricing_plan_id":"free"},