{"last_updated":1762528269,"ttl":60,"version":"2.2","data":{"bikes":[{"bike_id":"571bd3a6-912b-44a3-9841-50c558a61481","system_id":"levelo_inurba_marseille","lat":43.28096,"lon":5.40569,"is_reserved":false,"is_disabled":false,"rental_uris":{"android":"levelo://app?vid=571bd3a6-912b-44a3-9841-50c558a61481","ios":"levelo://app?vid=571bd3a6-912b-44a3-9841-50c558a61481"},"vehicle_type_id":"4","last_reported":1762528270,"current_range_meters":2800,"station_id":"","pricing_plan_id":"cebpf4jnsgd1na2vs0mg"},{"bike_id":"874b186c-6ec7-4094-a4dd-a249e7cc9b62","system_id":"levelo_inurba_marseille","lat":43.27734,"lon":5.42697,"is_reserved":false,"is_disabled":false,"rental_uris":{"android":"levelo://app?vid=874b186c-6ec7-4094-a4dd-a249e7cc9b62","ios":"levelo://app?vid=874b186c-6ec7-4094-a4dd-a249e7cc9b62"},"vehicle_type_id":"4","last_reported":1762528270,"current_range_meters":2800,"station_id":"","pricing_plan_id":"cebpf4jnsgd1na2vs0mg"},{"bike_id":"95ffbd3b-aced-4749-a606-0418a5bc059e","system_id":"levelo_inurba_marseille","lat":43.272099,"lon":5.391722,"is_reserved":false,"is_disabled":false,"rental_uris":{"android":"levelo://app?vid=95ffbd3b-aced-4749-a606-0418a5bc059e","ios":"levelo://app?vid=95ffbd3b-aced-4749-a606-0418a5bc059e"},"vehicle_type_id":"4","last_reported":1762528270,"current_range_meters":2800,"station_id":"ce4bhhp2rcd13ifvqfm0","pricing_plan_id":"cebpf4jnsgd1na2vs0mg"},{"bike_id":"667ceb97-34fb-4f13-8425-6a13d41e1a4c","system_id":"levelo_inurba_marseille","lat":43.29894,"lon":5.38128,"is_reserved":false,"is_disabled":false,"rental_uris":{"android":"levelo://app?vid=667ceb97-34fb-4f13-8425-6a13d41e1a4c","ios":"levelo://app?vid=667ceb97-34fb-4f13-8425-6a13d41e1a4c"},"vehicle_type_id":"4","last_reported":1762528270,"current_range_meters":2800,"station_id":"ce4bgj12rcd13ifvqbc0","pricing_plan_id":"cebpf4jnsgd1na2vs0mg"},{"bike_id":"c408a878-9bfb-49b7-b5d4-789d57aea0ee","system_id":"levelo_inurba_marseille","lat":43.29878,"lon":5.38901,"is_reserved":false,"is_disabled":false,"rental_uris":{"android":"levelo://app?vid=c408a878-9bfb-49b7-b5d4-789d57aea0ee","ios":"levelo://app?vid=c408a878-9bfb-49b7-b5d4-789d57aea0ee"},"vehicle_type_id":"4","last_reported":1762528270,"current_range_meters":2800,"station_id":"ce4bh392rcd13ifvqdl0","pricing_plan_id":"cebpf4jnsgd1na2vs0mg"},{"bike_id":"c7bd2e7c-cb75-44be-b212-a7c108d6361f","system_id":"levelo_inurba_marseille","lat":43.2937,"lon":5.37828,"is_reserved":false,"is_disabled":false,"rental_uris":{"android":"levelo://app?vid=c7bd2e7c-cb75-44be-b212-a7c108d6361f","ios":"levelo://app?vid=c7bd2e7c-cb75-44be-b212-a7c108d6361f"},"vehicle_type_id":"4","last_reported":1762528270,"current_range_meters":2800,"station_id":"ce4bgjh2rcd13ifvqbf0","pricing_plan_id":"cebpf4jnsgd1na2vs0mg"},{"bike_id":"541fe64e-ebfd-468b-afe0-ecdcd3cd34d5","system_id":"levelo_inurba_marseille","lat":43.298793,"lon":5.389051,"is_reserved":false,"is_disabled":false,"rental_uris":{"android":"levelo://app?vid=541fe64e-ebfd-468b-afe0-ecdcd3cd34d5","ios":"levelo://app?vid=541fe64e-ebfd-468b-afe0-ecdcd3cd34d5"},"vehicle_type_id":"4","last_reported":1762528270,"current_range_meters":3200,"station_id":"ce4bh392rcd13ifvqdl0","pricing_plan_id":"cebpf4jnsgd1na2vs0mg"},{"bike_id":"5d6d6d24-d960-4c35-8f06-fd984a3c9096","system_id":"levelo_inurba_marseille","lat":43.26566,"lon":5.4032,"is_reserved":false,"is_disabled":false,"rental_uris":{"android":"levelo://app?vid=5d6d6d24-d960-4c35-8f06-fd984a3c9096","ios":"levelo://app?vid=5d6d6d24-d960-4c35-8f06-fd984a3c9096"},"vehicle_type_id":"4","last_reported":1762528270,"current_range_meters":3200,"station_id":"ce4bhmp2rcd13ifvqgng","pricing_plan_id":"cebpf4jnsgd1na2vs0mg"},{"bike_id":"03d38a6c-a93a-4634-be9b-4e2dab3a5b9b","system_id":"levelo_inurba_marseille","lat":43.29703,"lon":5.37706,"is_reserved":false,"is_disabled":false,"rental_uris":{"android":"levelo://app?vid=03d38a6c-a93a-4634-be9b-4e2dab3a5b9b","ios":"levelo://app?vid=03d38a6c-a93a-4634-be9b-4e2dab3a5b9b"},"vehicle_type_id":"4","last_reported":1762528270,"current_range_meters":3200,"station_id":"ce4bgkh2rcd13ifvqbl0","pricing_plan_id":"cebpf4jnsgd1na2vs0mg"},{"bike_id":"106b2914-c952-44ac-b275-d1a49984762b","system_id":"levelo_inurba_marseille","lat":43.28456,"lon":5.35886,"is_reserved":false,"is_disabled":false,"rental_uris":{"android":"levelo://app?vid=106b2914-c952-44ac-b275-d1a49984762b","ios":"levelo://app?vid=106b2914-c952-44ac-b275-d1a49984762b"},"vehicle_type_id":"4","last_reported":1762528270,"current_range_meters":3200,"station_id":"ce4bhah2rcd13ifvqei0","pricing_plan_id":"cebpf4jnsgd1na2vs0mg"},{"bike_id":"ba05dfa0-259d-4cc9-a4a7-1a9129e0e82e","system_id":"levelo_inurba_marseille","lat":43.30303,"lon":5.39212,"is_reserved":false,"is_disabled":false,"rental_uris":{"android":"levelo://app?vid=ba05dfa0-259d-4cc9-a4a7-1a9129e0e82e","ios":"levelo://app?vid=ba05dfa0-259d-4cc9-a4a7-1a9129e0e82e"},"vehicle_type_id":"4","last_reported":1762528270,"current_range_meters":3600,"station_id":"ce4bgkh2rcd13ifvqbk0","pricing_plan_id":"cebpf4jnsgd1na2vs0mg"},{"bike_id":"149ff8b3-0ab6-4714-979b-538dfc261285","system_id":"levelo_inurba_marseille","lat":43.28481,"lon":5.386,"is_reserved":false,"is_disabled":false,"rental_uris":{"android":"levelo://app?vid=149ff8b3-0ab6-4714-979b-538dfc261285","ios":"levelo://app?vid=149ff8b3-0ab6-4714-979b-538dfc261285"},"vehicle_type_id":"4","last_reported":1762528270,"current_range_meters":3600,"station_id":"ce4bh8p2rcd13ifvqeb0","pricing_plan_id":"cebpf4jnsgd1na2vs0mg"},{"bike_id":"9ddf822c-bce0-420e-a8cb-722a8f78c43b","system_id":"levelo_inurba_marseille","lat":43.2794,"lon":5.38724,"is_reserved":false,"is_disabled":false,"rental_uris":{"android":"levelo://app?vid=9ddf822c-bce0-420e-a8cb-722a8f78c43b","ios":"levelo://app?vid=9ddf822c-bce0-420e-a8cb-722a8f78c43b"},"vehicle_type_id":"4","last_reported":1762528270,"current_range_meters":3600,"station_id":"ce4bhg12rcd13ifvqf80","pricing_plan_id":"cebpf4jnsgd1na2vs0mg"},{"bike_id":"46ea1783-79a5-4ee9-b0e7-3de645166e70","system_id":"levelo_inurba_marseille","lat":43.22568,"lon":5.41623,"is_reserved":false,"is_disabled":false,"rental_uris":{"android":"levelo://app?vid=46ea1783-79a5-4ee9-b0e7-3de645166e70","ios":"levelo://app?vid=46ea1783-79a5-4ee9-b0e7-3de645166e70"},"vehicle_type_id":"4","last_reported":1762528270,"current_range_meters":3600,"station_id":"st_d2o4gvlbi1j2169b742g","pricing_plan_id":"cebpf4jnsgd1na2vs0mg"},{"bike_id":"17a893c3-e132-4959-9185-b8446fa0cc1c","system_id":"levelo_inurba_marseille","lat":43.28941,"lon":5.36633,"is_reserved":false,"is_disabled":false,"rental_uris":{"android":"levelo://app?vid=17a893c3-e132-4959-9185-b8446fa0cc1c","ios":"levelo://app?vid=17a893c3-e132-4959-9185-b8446fa0cc1c"},"vehicle_type_id":"4","last_reported":1762528270,"current_range_meters":4000,"station_id":"ce4bhap2rcd13ifvqek0","pricing_plan_id":"cebpf4jnsgd1na2vs0mg"},{"bike_id":"00fedc4c-80a3-4f9a-9fe9-4c858b621eb3","system_id":"levelo_inurba_marseille","lat":43.29983,"lon":5.38505,"is_reserved":false,"is_disabled":false,"rental_uris":{"android":"levelo://app?vid=00fedc4c-80a3-4f9a-9fe9-4c858b621eb3","ios":"levelo://app?vid=00fedc4c-80a3-4f9a-9fe9-4c858b621eb3"},"vehicle_type_id":"4","last_reported":1762528270,"current_range_meters":4000,"station_id":"","pricing_plan_id":"cebpf4jnsgd1na2vs0mg"},{"bike_id":"d3a8c452-bd73-4909-9cfe-f1c0285f3d0c","system_id":"levelo_inurba_marseille","lat":43.28483,"lon":5.48391,"is_reserved":false,"is_disabled":false,"rental_uris":{"android":"levelo://app?vid=d3a8c452-bd73-4909-9cfe-f1c0285f3d0c","ios":"levelo://app?vid=d3a8c452-bd73-4909-9cfe-f1c0285f3d0c"},"vehicle_type_id":"4","last_reported":1762528270,"current_range_meters":4400,"station_id":"","pricing_plan_id":"cebpf4jnsgd1na2vs0mg"},{"bike_id":"a3b050cd-8040-477d-8aa3-61ef95b1a1bf","system_id":"levelo_inurba_marseille","lat":43.298,"lon":5.40389,"is_reserved":false,"is_disabled":false,"rental_uris":{"android":"levelo://app?vid=a3b050cd-8040-477d-8aa3-61ef95b1a1bf","ios":"levelo://app?vid=a3b050cd-8040-477d-8aa3-61ef95b1a1bf"},"vehicle_type_id":"4","last_reported":1762528270,"current_range_meters":4400,"station_id":"ce4bh112rcd13ifvqd90","pricing_plan_id":"cebpf4jnsgd1na2vs0mg"},{"bike_id":"00065666-b382-40c8-87f2-d52ded706b03","system_id":"levelo_inurba_marseille","lat":43.301849,"lon":5.391943,"is_reserved":false,"is_disabled":false,"rental_uris":{"android":"levelo://app?vid=00065666-b382-40c8-87f2-d52ded706b03","ios":"levelo://app?vid=00065666-b382-40c8-87f2-d52ded706b03"},"vehicle_type_id":"4","last_reported":1762528270,"current_range_meters":5600,"station_id":"","pricing_plan_id":"cebpf4jnsgd1na2vs0mg"},{"bike_id":"325d8a40-2de8-4f94-8020-626013c7394c","system_id":"levelo_inurba_marseille","lat":43.28456,"lon":5.35898,"is_reserved":false,"is_disabled":false,"rental_uris":{"android":"levelo://app?vid=325d8a40-2de8-4f94-8020-626013c7394c","ios":"levelo://app?vid=325d8a40-2de8-4f94-8020-626013c7394c"},"vehicle_type_id":"4","last_reported":1762528270,"current_range_meters":5600,"station_id":"ce4bhah2rcd13ifvqei0","pricing_plan_id":"cebpf4jnsgd1na2vs0mg"},{"bike_id":"7a6ea2bc-13f8-4474-871a-96aee35acde1","system_id":"levelo_inurba_marseille","lat":43.279,"lon":5.39614,"is_reserved":false,"is_disabled":false,"rental_uris":{"android":"levelo://app?vid=7a6ea2bc-13f8-4474-871a-96aee35acde1","ios":"levelo://app?vid=7a6ea2bc-13f8-4474-871a-96aee35acde1"},"vehicle_type_id":"4","last_reported":1762528270,"current_range_meters":5600,"station_id":"ce4bhf92rcd13ifvqf40","pricing_plan_id":"cebpf4jnsgd1na2vs0mg"},{"bike_id":"8afa9c7b-d1bc-411e-9068-9b14d401f382","system_id":"levelo_inurba_marseille","lat":43.29275,"lon":5.40114,"is_reserved":false,"is_disabled":false,"rental_uris":{"android":"levelo://app?vid=8afa9c7b-d1bc-411e-9068-9b14d401f382","ios":"levelo://app?vid=8afa9c7b-d1bc-411e-9068-9b14d401f382"},"vehicle_type_id":"4","last_reported":1762528270,"current_range_meters":6000,"station_id":"ce4bh312rcd13ifvqdk0","pricing_plan_id":"cebpf4jnsgd1na2vs0mg"},{"bike_id":"8dd4524a-e315-47cc-918b-e680b942070b","system_id":"levelo_inurba_marseille","lat":43.30129,"lon":5.39862,"is_reserved":false,"is_disabled":false,"rental_uris":{"android":"levelo://app?vid=8dd4524a-e315-47cc-918b-e680b942070b","ios":"levelo://app?vid=8dd4524a-e315-47cc-918b-e680b942070b"},"vehicle_type_id":"4","last_reported":1762528270,"current_range_meters":6000,"station_id":"ce4bh0h2rcd13ifvqd40","pricing_plan_id":"cebpf4jnsgd1na2vs0mg"},{"bike_id":"64a7e14c-46d0-4d8c-91f0-19fb7c8ad288","system_id":"levelo_inurba_marseille","lat":43.303217,"lon":5.369007,"is_reserved":false,"is_disabled":true,"rental_uris":{"android":"levelo://app?vid=64a7e14c-46d0-4d8c-91f0-19fb7c8ad288","ios":"levelo://app?vid=64a7e14c-46d0-4d8c-91f0-19fb7c8ad288"},"vehicle_type_id":"4","last_reported":1762528270,"current_range_meters":6400,"station_id":"","pricing_plan_id":"cebpf4jnsgd1na2vs0mg"},{"bike_id":"16526101-311f-402a-8030-428d02d62ee3","system_id":"levelo_inurba_marseille","lat":43.29791,"lon":5.37085,"is_reserved":false,"is_disabled":false,"rental_uris":{"android":"levelo://app?vid=16526101-311f-402a-8030-428d02d62ee3","ios":"levelo://app?vid=16526101-311f-402a-8030-428d02d62ee3"},"vehicle_type_id":"4","last_reported":1762528270,"current_range_meters":6400,"station_id":"ce4bgop2rcd13ifvqc1g","pricing_plan_id":"cebpf4jnsgd1na2vs0mg"},{"bike_id":"b53e35fe-8e5e-4bcf-acdc-73630c0d2c83","system_id":"levelo_inurba_marseille","lat":43.28043,"lon":5.36942,"is_reserved":false,"is_disabled":false,"rental_uris":{"android":"levelo://app?vid=b53e35fe-8e5e-4bcf-acdc-73630c0d2c83","ios":"levelo://app?vid=b53e35fe-8e5e-4bcf-acdc-73630c0d2c83"},"vehicle_type_id":"4","last_reported":1762528270,"current_range_meters":6400,"station_id":"ce4bha12rcd13ifvqef0","pricing_plan_id":"cebpf4jnsgd1na2vs0mg"},{"bike_id":"00e2fb23-c60b-44ca-b7e2-27d20839441b","system_id":"levelo_inurba_marseille","lat":43.290205,"lon":5.381306,"is_reserved":false,"is_disabled":false,"rental_uris":{"android":"levelo://app?vid=00e2fb23-c60b-44ca-b7e2-27d20839441b","ios":"levelo://app?vid=00e2fb23-c60b-44ca-b7e2-27d20839441b"},"vehicle_type_id":"4","last_reported":1762528270,"current_range_meters":6400,"station_id":"ce4bgqh2rcd13ifvqc5g","pricing_plan_id":"cebpf4jnsgd1na2vs0mg"},{"bike_id":"faf02dba-a063-4be7-b738-20d510b602ef","system_id":"levelo_inurba_marseille","lat":43.29807,"lon":5.383,"is_reserved":false,"is_disabled":false,"rental_uris":{"android":"levelo://app?vid=faf02dba-a063-4be7-b738-20d510b602ef","ios":"levelo://app?vid=faf02dba-a063-4be7-b738-20d510b602ef"},"vehicle_type_id":"4","last_reported":1762528270,"current_range_meters":6400,"station_id":"","pricing_plan_id":"cebpf4jnsgd1na2vs0mg"},{"bike_id":"23bea6a1-a83d-4e84-a7eb-d862852344b5","system_id":"levelo_inurba_marseille","lat":43.28418,"lon":5.34996,"is_reserved":false,"is_disabled":false,"rental_uris":{"android":"levelo://app?vid=23bea6a1-a83d-4e84-a7eb-d862852344b5","ios":"levelo://app?vid=23bea6a1-a83d-4e84-a7eb-d862852344b5"},"vehicle_type_id":"4","last_reported":1762528270,"current_range_meters":6400,"station_id":"ce4bhbh2rcd13ifvqepg","pricing_plan_id":"cebpf4jnsgd1na2vs0mg"},{"bike_id":"81dcc136-dea2-46c0-98af-42dbdee92b54","system_id":"levelo_inurba_marseille","lat":43.28473,"lon":5.484,"is_reserved":false,"is_disabled":false,"rental_uris":{"android":"levelo://app?vid=81dcc136-dea2-46c0-98af-42dbdee92b54","ios":"levelo://app?vid=81dcc136-dea2-46c0-98af-42dbdee92b54"},"vehicle_type_id":"4","last_reported":1762528270,"current_range_meters":6400,"station_id":"","pricing_plan_id":"cebpf4jnsgd1na2vs0mg"},{"bike_id":"fc8334d2-8cc7-48bf-93cc-8304409e8292","system_id":"levelo_inurba_marseille","lat":43.21752,"lon":5.34607,"is_reserved":false,"is_disabled":false,"rental_uris":{"android":"levelo://app?vid=fc8334d2-8cc7-48bf-93cc-8304409e8292","ios":"levelo://app?vid=fc8334d2-8cc7-48bf-93cc-8304409e8292"},"vehicle_type_id":"4","last_reported":1762528270,"current_range_meters":6400,"station_id":"","pricing_plan_id":"cebpf4jnsgd1na2vs0mg"},{"bike_id":"5a300086-b49c-48d3-8bef-e722b003b2b0","system_id":"levelo_inurba_marseille","lat":43.30602,"lon":5.40125,"is_reserved":false,"is_disabled":false,"rental_uris":{"android":"levelo://app?vid=5a300086-b49c-48d3-8bef-e722b003b2b0","ios":"levelo://app?vid=5a300086-b49c-48d3-8bef-e722b003b2b0"},"vehicle_type_id":"4","last_reported":1762528270,"current_range_meters":6400,"station_id":"ce4bh112rcd13ifvqda0","pricing_plan_id":"cebpf4jnsgd1na2vs0mg"},{"bike_id":"85b14fcd-c168-4cb9-866f-43a39ac43173","system_id":"levelo_inurba_marseille","lat":43.29032,"lon":5.38651,"is_reserved":false,"is_disabled":false,"rental_uris":{"android":"levelo://app?vid=85b14fcd-c168-4cb9-866f-43a39ac43173","ios":"levelo://app?vid=85b14fcd-c168-4cb9-866f-43a39ac43173"},"vehicle_type_id":"4","last_reported":1762528270,"current_range_meters":6800,"station_id":"ce4bh4p2rcd13ifvqe0g","pricing_plan_id":"cebpf4jnsgd1na2vs0mg"},{"bike_id":"443de70e-5e0f-4789-84e3-269694806577","system_id":"levelo_inurba_marseille","lat":43.28479,"lon":5.38418,"is_reserved":false,"is_disabled":false,"rental_uris":{"android":"levelo://app?vid=443de70e-5e0f-4789-84e3-269694806577","ios":"levelo://app?vid=443de70e-5e0f-4789-84e3-269694806577"},"vehicle_type_id":"4","last_reported":1762528270,"current_range_meters":6800,"station_id":"ce4bh512rcd13ifvqe3g","pricing_plan_id":"cebpf4jnsgd1na2vs0mg"},{"bike_id":"3818868e-6436-4b3b-abd7-77bf7766f0db","system_id":"levelo_inurba_marseille","lat":43.27983,"lon":5.40001,"is_reserved":false,"is_disabled":false,"rental_uris":{"android":"levelo://app?vid=3818868e-6436-4b3b-abd7-77bf7766f0db","ios":"levelo://app?vid=3818868e-6436-4b3b-abd7-77bf7766f0db"},"vehicle_type_id":"4","last_reported":1762528270,"current_range_meters":6800,"station_id":"ce4bho92rcd13ifvqh4g","pricing_plan_id":"cebpf4jnsgd1na2vs0mg"},{"bike_id":"252c59af-9435-4e63-a7d5-fce6e7b722e2","system_id":"levelo_inurba_marseille","lat":43.29696,"lon":5.37281,"is_reserved":false,"is_disabled":false,"rental_uris":{"android":"levelo://app?vid=252c59af-9435-4e63-a7d5-fce6e7b722e2","ios":"levelo://app?vid=252c59af-9435-4e63-a7d5-fce6e7b722e2"},"vehicle_type_id":"4","last_reported":1762528270,"current_range_meters":6800,"station_id":"ce4bgk12rcd13ifvqbj0","pricing_plan_id":"cebpf4jnsgd1na2vs0mg"},{"bike_id":"ec4f5866-c7cf-43b8-b25d-d4730f7ba199","system_id":"levelo_inurba_marseille","lat":43.260231,"lon":5.41742,"is_reserved":false,"is_disabled":false,"rental_uris":{"android":"levelo://app?vid=ec4f5866-c7cf-43b8-b25d-d4730f7ba199","ios":"levelo://app?vid=ec4f5866-c7cf-43b8-b25d-d4730f7ba199"},"vehicle_type_id":"4","last_reported":1762528270,"current_range_meters":6800,"station_id":"","pricing_plan_id":"cebpf4jnsgd1na2vs0mg"},{"bike_id":"dfd670f6-cfda-4c99-8154-75fdf1b852c7","system_id":"levelo_inurba_marseille","lat":43.295915,"lon":5.380895,"is_reserved":false,"is_disabled":false,"rental_uris":{"android":"levelo://app?vid=dfd670f6-cfda-4c99-8154-75fdf1b852c7","ios":"levelo://app?vid=dfd670f6-cfda-4c99-8154-75fdf1b852c7"},"vehicle_type_id":"4","last_reported":1762528270,"current_range_meters":6800,"station_id":"ce4bgl12rcd13ifvqbo0","pricing_plan_id":"cebpf4jnsgd1na2vs0mg"},{"bike_id":"a0986b7e-5cfa-426f-8c69-c9c870aeebd6","system_id":"levelo_inurba_marseille","lat":43.30262,"lon":5.40095,"is_reserved":false,"is_disabled":false,"rental_uris":{"android":"levelo://app?vid=a0986b7e-5cfa-426f-8c69-c9c870aeebd6","ios":"levelo://app?vid=a0986b7e-5cfa-426f-8c69-c9c870aeebd6"},"vehicle_type_id":"4","last_reported":1762528270,"current_range_meters":7200,"station_id":"ce4bgvh2rcd13ifvqcs0","pricing_plan_id":"cebpf4jnsgd1na2vs0mg"},{"bike_id":"71967476-752a-4f5e-b222-99c0eea95f39","system_id":"levelo_inurba_marseille","lat":43.323227,"lon":5.384129,"is_reserved":false,"is_disabled":false,"rental_uris":{"android":"levelo://app?vid=71967476-752a-4f5e-b222-99c0eea95f39","ios":"levelo://app?vid=71967476-752a-4f5e-b222-99c0eea95f39"},"vehicle_type_id":"4","last_reported":1762528270,"current_range_meters":7200,"station_id":"","pricing_plan_id":"cebpf4jnsgd1na2vs0mg"},{"bike_id":"74a83f19-4620-4517-be1e-697db6f72f0b","system_id":"levelo_inurba_marseille","lat":43.32341,"lon":5.36758,"is_reserved":false,"is_disabled":false,"rental_uris":{"android":"levelo://app?vid=74a83f19-4620-4517-be1e-697db6f72f0b","ios":"levelo://app?vid=74a83f19-4620-4517-be1e-697db6f72f0b"},"vehicle_type_id":"4","last_reported":1762528270,"current_range_meters":7200,"station_id":"ce4bhsh2rcd13ifvqi2g","pricing_plan_id":"cebpf4jnsgd1na2vs0mg"},{"bike_id":"6585ce0a-013d-4079-85c4-96295e3f9c31","system_id":"levelo_inurba_marseille","lat":43.290009,"lon":5.356109,"is_reserved":false,"is_disabled":false,"rental_uris":{"android":"levelo://app?vid=6585ce0a-013d-4079-85c4-96295e3f9c31","ios":"levelo://app?vid=6585ce0a-013d-4079-85c4-96295e3f9c31"},"vehicle_type_id":"4","last_reported":1762528270,"current_range_meters":7200,"station_id":"ce4bhb92rcd13ifvqen0","pricing_plan_id":"cebpf4jnsgd1na2vs0mg"},{"bike_id":"ed4b598a-d01a-4674-9ead-76ad5fc4abfc","system_id":"levelo_inurba_marseille","lat":43.30403,"lon":5.41301,"is_reserved":false,"is_disabled":true,"rental_uris":{"android":"levelo://app?vid=ed4b598a-d01a-4674-9ead-76ad5fc4abfc","ios":"levelo://app?vid=ed4b598a-d01a-4674-9ead-76ad5fc4abfc"},"vehicle_type_id":"4","last_reported":1762528270,"current_range_meters":7200,"station_id":"ce4bhop2rcd13ifvqh8g","pricing_plan_id":"cebpf4jnsgd1na2vs0mg"},{"bike_id":"aa94c73f-af47-4835-aefa-c38c09af66d0","system_id":"levelo_inurba_marseille","lat":43.26796,"lon":5.40281,"is_reserved":false,"is_disabled":false,"rental_uris":{"android":"levelo://app?vid=aa94c73f-af47-4835-aefa-c38c09af66d0","ios":"levelo://app?vid=aa94c73f-af47-4835-aefa-c38c09af66d0"},"vehicle_type_id":"4","last_reported":1762528270,"current_range_meters":8000,"station_id":"ce501612rcd8frsf0b60","pricing_plan_id":"cebpf4jnsgd1na2vs0mg"},{"bike_id":"29bcb9eb-85fb-40e7-83e5-8b78007165e6","system_id":"levelo_inurba_marseille","lat":43.30648,"lon":5.40097,"is_reserved":false,"is_disabled":false,"rental_uris":{"android":"levelo://app?vid=29bcb9eb-85fb-40e7-83e5-8b78007165e6","ios":"levelo://app?vid=29bcb9eb-85fb-40e7-83e5-8b78007165e6"},"vehicle_type_id":"4","last_reported":1762528270,"current_range_meters":8000,"station_id":"ce4bh112rcd13ifvqda0","pricing_plan_id":"cebpf4jnsgd1na2vs0mg"},{"bike_id":"aa073d3c-91f3-4920-9d1e-90bf82850b1e","system_id":"levelo_inurba_marseille","lat":43.33767,"lon":5.37432,"is_reserved":false,"is_disabled":false,"rental_uris":{"android":"levelo://app?vid=aa073d3c-91f3-4920-9d1e-90bf82850b1e","ios":"levelo://app?vid=aa073d3c-91f3-4920-9d1e-90bf82850b1e"},"vehicle_type_id":"4","last_reported":1762528270,"current_range_meters":8000,"station_id":"","pricing_plan_id":"cebpf4jnsgd1na2vs0mg"},{"bike_id":"92e79aff-669b-4d8f-ac48-596c78240a62","system_id":"levelo_inurba_marseille","lat":43.3042,"lon":5.38903,"is_reserved":false,"is_disabled":false,"rental_uris":{"android":"levelo://app?vid=92e79aff-669b-4d8f-ac48-596c78240a62","ios":"levelo://app?vid=92e79aff-669b-4d8f-ac48-596c78240a62"},"vehicle_type_id":"4","last_reported":1762528270,"current_range_meters":8000,"station_id":"ce4bgk12rcd13ifvqbi0","pricing_plan_id":"cebpf4jnsgd1na2vs0mg"},{"bike_id":"d3f25df0-d494-4fd5-ba13-335b21645822","system_id":"levelo_inurba_marseille","lat":43.31705,"lon":5.37789,"is_reserved":false,"is_disabled":false,"rental_uris":{"android":"levelo://app?vid=d3f25df0-d494-4fd5-ba13-335b21645822","ios":"levelo://app?vid=d3f25df0-d494-4fd5-ba13-335b21645822"},"vehicle_type_id":"4","last_reported":1762528270,"current_range_meters":8000,"station_id":"ce4bgth2rcd13ifvqch0","pricing_plan_id":"cebpf4jnsgd1na2vs0mg"},{"bike_id":"282b723a-acee-4cd2-ae7c-cbc109305a8a","system_id":"levelo_inurba_marseille","lat":43.308949,"lon":5.371955,"is_reserved":false,"is_disabled":false,"rental_uris":{"android":"levelo://app?vid=282b723a-acee-4cd2-ae7c-cbc109305a8a","ios":"levelo://app?vid=282b723a-acee-4cd2-ae7c-cbc109305a8a"},"vehicle_type_id":"4","last_reported":1762528270,"current_range_meters":8000,"station_id":"ce4bguh2rcd13ifvqckg","pricing_plan_id":"cebpf4jnsgd1na2vs0mg"},{"bike_id":"44de848a-cb8e-4c4f-ac67-5c74fe2af8e7","system_id":"levelo_inurba_marseille","lat":43.29044,"lon":5.35918,"is_reserved":false,"is_disabled":false,"rental_uris":{"android":"levelo://app?vid=44de848a-cb8e-4c4f-ac67-5c74fe2af8e7","ios":"levelo://app?vid=44de848a-cb8e-4c4f-ac67-5c74fe2af8e7"},"vehicle_type_id":"4","last_reported":1762528270,"current_range_meters":8000,"station_id":"ce4bha92rcd13ifvqeg0","pricing_plan_id":"cebpf4jnsgd1na2vs0mg"},{"bike_id":"f7f243ed-8371-4b76-bb63-79d833a04f50","system_id":"levelo_inurba_marseille","lat":43.29912,"lon":5.3748,"is_reserved":false,"is_disabled":false,"rental_uris":{"android":"levelo://app?vid=f7f243ed-8371-4b76-bb63-79d833a04f50","ios":"levelo://app?vid=f7f243ed-8371-4b76-bb63-79d833a04f50"},"vehicle_type_id":"4","last_reported":1762528270,"current_range_meters":8400,"station_id":"ce4bgjh2rcd13ifvqbg0","pricing_plan_id":"cebpf4jnsgd1na2vs0mg"},{"bike_id":"77807b52-a342-4413-b550-e7560c391773","system_id":"levelo_inurba_marseille","lat":43.31269,"lon":5.40169,"is_reserved":false,"is_disabled":false,"rental_uris":{"android":"levelo://app?vid=77807b52-a342-4413-b550-e7560c391773","ios":"levelo://app?vid=77807b52-a342-4413-b550-e7560c391773"},"vehicle_type_id":"4","last_reported":1762528270,"current_range_meters":8400,"station_id":"ce4bh092rcd13ifvqd30","pricing_plan_id":"cebpf4jnsgd1na2vs0mg"},{"bike_id":"2e9bda71-8565-4234-a1cc-0a8fc51e3b7f","system_id":"levelo_inurba_marseille","lat":43.30911,"lon":5.3684,"is_reserved":false,"is_disabled":false,"rental_uris":{"android":"levelo://app?vid=2e9bda71-8565-4234-a1cc-0a8fc51e3b7f","ios":"levelo://app?vid=2e9bda71-8565-4234-a1cc-0a8fc51e3b7f"},"vehicle_type_id":"4","last_reported":1762528270,"current_range_meters":8400,"station_id":"ce4bgn92rcd13ifvqbvg","pricing_plan_id":"cebpf4jnsgd1na2vs0mg"},{"bike_id":"59b31ef2-3fe3-46e5-b5a5-685f264695ce","system_id":"levelo_inurba_marseille","lat":43.28466,"lon":5.48409,"is_reserved":false,"is_disabled":false,"rental_uris":{"android":"levelo://app?vid=59b31ef2-3fe3-46e5-b5a5-685f264695ce","ios":"levelo://app?vid=59b31ef2-3fe3-46e5-b5a5-685f264695ce"},"vehicle_type_id":"4","last_reported":1762528270,"current_range_meters":8400,"station_id":"","pricing_plan_id":"cebpf4jnsgd1na2vs0mg"},{"bike_id":"a6b5c354-bbc4-46b2-9356-4b84838966f9","system_id":"levelo_inurba_marseille","lat":43.30673,"lon":5.40353,"is_reserved":false,"is_disabled":false,"rental_uris":{"android":"levelo://app?vid=a6b5c354-bbc4-46b2-9356-4b84838966f9","ios":"levelo://app?vid=a6b5c354-bbc4-46b2-9356-4b84838966f9"},"vehicle_type_id":"4","last_reported":1762528270,"current_range_meters":8400,"station_id":"","pricing_plan_id":"cebpf4jnsgd1na2vs0mg"},{"bike_id":"3ffe2c7b-f27f-49bd-95c3-0ecfbf0880d2","system_id":"levelo_inurba_marseille","lat":43.30704,"lon":5.38435,"is_reserved":false,"is_disabled":false,"rental_uris":{"android":"levelo://app?vid=3ffe2c7b-f27f-49bd-95c3-0ecfbf0880d2","ios":"levelo://app?vid=3ffe2c7b-f27f-49bd-95c3-0ecfbf0880d2"},"vehicle_type_id":"4","last_reported":1762528270,"current_range_meters":8400,"station_id":"","pricing_plan_id":"cebpf4jnsgd1na2vs0mg"},{"bike_id":"045ad47d-4bea-406c-a3af-c7fec313e122","system_id":"levelo_inurba_marseille","lat":43.279882,"lon":5.400111,"is_reserved":false,"is_disabled":false,"rental_uris":{"android":"levelo://app?vid=045ad47d-4bea-406c-a3af-c7fec313e122","ios":"levelo://app?vid=045ad47d-4bea-406c-a3af-c7fec313e122"},"vehicle_type_id":"4","last_reported":1762528270,"current_range_meters":8400,"station_id":"ce4bho92rcd13ifvqh4g","pricing_plan_id":"cebpf4jnsgd1na2vs0mg"},{"bike_id":"c8f5952a-545c-4f38-9d9e-4af8dd44921d","system_id":"levelo_inurba_marseille","lat":43.29048,"lon":5.35911,"is_reserved":false,"is_disabled":false,"rental_uris":{"android":"levelo://app?vid=c8f5952a-545c-4f38-9d9e-4af8dd44921d","ios":"levelo://app?vid=c8f5952a-545c-4f38-9d9e-4af8dd44921d"},"vehicle_type_id":"4","last_reported":1762528270,"current_range_meters":8800,"station_id":"ce4bha92rcd13ifvqeg0","pricing_plan_id":"cebpf4jnsgd1na2vs0mg"},{"bike_id":"ab3a4d6b-b442-44b9-8f02-c1c222f445ba","system_id":"levelo_inurba_marseille","lat":43.274513,"lon":5.392754,"is_reserved":false,"is_disabled":false,"rental_uris":{"android":"levelo://app?vid=ab3a4d6b-b442-44b9-8f02-c1c222f445ba","ios":"levelo://app?vid=ab3a4d6b-b442-44b9-8f02-c1c222f445ba"},"vehicle_type_id":"4","last_reported":1762528270,"current_range_meters":8800,"station_id":"","pricing_plan_id":"cebpf4jnsgd1na2vs0mg"},{"bike_id":"dc66b73d-2fe2-46c4-97a2-08da35c8b60c","system_id":"levelo_inurba_marseille","lat":43.31319,"lon":5.397,"is_reserved":false,"is_disabled":false,"rental_uris":{"android":"levelo://app?vid=dc66b73d-2fe2-46c4-97a2-08da35c8b60c","ios":"levelo://app?vid=dc66b73d-2fe2-46c4-97a2-08da35c8b60c"},"vehicle_type_id":"4","last_reported":1762528270,"current_range_meters":8800,"station_id":"ce4bgvp2rcd13ifvqcu0","pricing_plan_id":"cebpf4jnsgd1na2vs0mg"},{"bike_id":"80695dc8-f58c-41de-bdf8-ae65b1ff8df0","system_id":"levelo_inurba_marseille","lat":43.29962,"lon":5.38491,"is_reserved":false,"is_disabled":false,"rental_uris":{"android":"levelo://app?vid=80695dc8-f58c-41de-bdf8-ae65b1ff8df0","ios":"levelo://app?vid=80695dc8-f58c-41de-bdf8-ae65b1ff8df0"},"vehicle_type_id":"4","last_reported":1762528270,"current_range_meters":8800,"station_id":"ce4bgj92rcd13ifvqbd0","pricing_plan_id":"cebpf4jnsgd1na2vs0mg"},{"bike_id":"40ca9272-309b-4e1d-80ae-456eccfbde0d","system_id":"levelo_inurba_marseille","lat":43.27176,"lon":5.40994,"is_reserved":false,"is_disabled":false,"rental_uris":{"android":"levelo://app?vid=40ca9272-309b-4e1d-80ae-456eccfbde0d","ios":"levelo://app?vid=40ca9272-309b-4e1d-80ae-456eccfbde0d"},"vehicle_type_id":"4","last_reported":1762528270,"current_range_meters":8800,"station_id":"ce4bhl12rcd13ifvqgf0","pricing_plan_id":"cebpf4jnsgd1na2vs0mg"},{"bike_id":"b0732b62-19ca-4ec8-88e7-432d75ca293d","system_id":"levelo_inurba_marseille","lat":43.21745,"lon":5.34603,"is_reserved":false,"is_disabled":false,"rental_uris":{"android":"levelo://app?vid=b0732b62-19ca-4ec8-88e7-432d75ca293d","ios":"levelo://app?vid=b0732b62-19ca-4ec8-88e7-432d75ca293d"},"vehicle_type_id":"4","last_reported":1762528270,"current_range_meters":8800,"station_id":"","pricing_plan_id":"cebpf4jnsgd1na2vs0mg"},{"bike_id":"319ffc4e-7711-40e6-a5bd-4d90d7a995da","system_id":"levelo_inurba_marseille","lat":43.310828,"lon":5.424244,"is_reserved":false,"is_disabled":false,"rental_uris":{"android":"levelo://app?vid=319ffc4e-7711-40e6-a5bd-4d90d7a995da","ios":"levelo://app?vid=319ffc4e-7711-40e6-a5bd-4d90d7a995da"},"vehicle_type_id":"4","last_reported":1762528270,"current_range_meters":9200,"station_id":"ce4bhp92rcd13ifvqhag","pricing_plan_id":"cebpf4jnsgd1na2vs0mg"},{"bike_id":"52ceef46-74d0-4edd-9bd7-97163d154219","system_id":"levelo_inurba_marseille","lat":43.29904,"lon":5.37466,"is_reserved":false,"is_disabled":false,"rental_uris":{"android":"levelo://app?vid=52ceef46-74d0-4edd-9bd7-97163d154219","ios":"levelo://app?vid=52ceef46-74d0-4edd-9bd7-97163d154219"},"vehicle_type_id":"4","last_reported":1762528270,"current_range_meters":9200,"station_id":"ce4bgjh2rcd13ifvqbg0","pricing_plan_id":"cebpf4jnsgd1na2vs0mg"},{"bike_id":"62b597ad-0183-45ab-83ea-6b1f25540269","system_id":"levelo_inurba_marseille","lat":43.32749,"lon":5.45205,"is_reserved":false,"is_disabled":false,"rental_uris":{"android":"levelo://app?vid=62b597ad-0183-45ab-83ea-6b1f25540269","ios":"levelo://app?vid=62b597ad-0183-45ab-83ea-6b1f25540269"},"vehicle_type_id":"4","last_reported":1762528270,"current_range_meters":9200,"station_id":"","pricing_plan_id":"cebpf4jnsgd1na2vs0mg"},{"bike_id":"06536a64-78b4-4751-994f-fac7cca9b266","system_id":"levelo_inurba_marseille","lat":43.32471,"lon":5.36567,"is_reserved":false,"is_disabled":false,"rental_uris":{"android":"levelo://app?vid=06536a64-78b4-4751-994f-fac7cca9b266","ios":"levelo://app?vid=06536a64-78b4-4751-994f-fac7cca9b266"},"vehicle_type_id":"4","last_reported":1762528270,"current_range_meters":9600,"station_id":"ce4bhs12rcd13ifvqhvg","pricing_plan_id":"cebpf4jnsgd1na2vs0mg"},{"bike_id":"1c1406c3-ccbf-4c7e-948d-af3d562996c8","system_id":"levelo_inurba_marseille","lat":43.29779,"lon":5.44119,"is_reserved":false,"is_disabled":false,"rental_uris":{"android":"levelo://app?vid=1c1406c3-ccbf-4c7e-948d-af3d562996c8","ios":"levelo://app?vid=1c1406c3-ccbf-4c7e-948d-af3d562996c8"},"vehicle_type_id":"4","last_reported":1762528270,"current_range_meters":9600,"station_id":"st_d3jp68qikq2c7381ktn0","pricing_plan_id":"cebpf4jnsgd1na2vs0mg"},{"bike_id":"7c6ea6d1-2010-41c4-837d-28cbafdf9295","system_id":"levelo_inurba_marseille","lat":43.28085,"lon":5.39656,"is_reserved":false,"is_disabled":false,"rental_uris":{"android":"levelo://app?vid=7c6ea6d1-2010-41c4-837d-28cbafdf9295","ios":"levelo://app?vid=7c6ea6d1-2010-41c4-837d-28cbafdf9295"},"vehicle_type_id":"4","last_reported":1762528270,"current_range_meters":9600,"station_id":"ce4bho12rcd13ifvqh2g","pricing_plan_id":"cebpf4jnsgd1na2vs0mg"},{"bike_id":"26d0c9ae-55c5-41c2-a401-a729d91221fc","system_id":"levelo_inurba_marseille","lat":43.30541,"lon":5.36528,"is_reserved":false,"is_disabled":false,"rental_uris":{"android":"levelo://app?vid=26d0c9ae-55c5-41c2-a401-a729d91221fc","ios":"levelo://app?vid=26d0c9ae-55c5-41c2-a401-a729d91221fc"},"vehicle_type_id":"4","last_reported":1762528270,"current_range_meters":9600,"station_id":"ce4bgs12rcd13ifvqcag","pricing_plan_id":"cebpf4jnsgd1na2vs0mg"},{"bike_id":"33e8442b-f406-49cc-bf94-ff4505754636","system_id":"levelo_inurba_marseille","lat":43.275872,"lon":5.360703,"is_reserved":false,"is_disabled":false,"rental_uris":{"android":"levelo://app?vid=33e8442b-f406-49cc-bf94-ff4505754636","ios":"levelo://app?vid=33e8442b-f406-49cc-bf94-ff4505754636"},"vehicle_type_id":"4","last_reported":1762528270,"current_range_meters":9600,"station_id":"","pricing_plan_id":"cebpf4jnsgd1na2vs0mg"},{"bike_id":"78157824-82f6-4047-b215-3ab8da218851","system_id":"levelo_inurba_marseille","lat":43.28333,"lon":5.35266,"is_reserved":false,"is_disabled":false,"rental_uris":{"android":"levelo://app?vid=78157824-82f6-4047-b215-3ab8da218851","ios":"levelo://app?vid=78157824-82f6-4047-b215-3ab8da218851"},"vehicle_type_id":"4","last_reported":1762528270,"current_range_meters":9600,"station_id":"ce4bhah2rcd13ifvqei0","pricing_plan_id":"cebpf4jnsgd1na2vs0mg"},{"bike_id":"a2124279-73b1-4be7-ad31-c4963c1bce6c","system_id":"levelo_inurba_marseille","lat":43.25111,"lon":5.40336,"is_reserved":false,"is_disabled":false,"rental_uris":{"android":"levelo://app?vid=a2124279-73b1-4be7-ad31-c4963c1bce6c","ios":"levelo://app?vid=a2124279-73b1-4be7-ad31-c4963c1bce6c"},"vehicle_type_id":"4","last_reported":1762528270,"current_range_meters":10000,"station_id":"ce4bhlh2rcd13ifvqgig","pricing_plan_id":"cebpf4jnsgd1na2vs0mg"},{"bike_id":"8c118d90-d638-4241-afa6-17f188a4e6b6","system_id":"levelo_inurba_marseille","lat":43.337444,"lon":5.374475,"is_reserved":false,"is_disabled":false,"rental_uris":{"android":"levelo://app?vid=8c118d90-d638-4241-afa6-17f188a4e6b6","ios":"levelo://app?vid=8c118d90-d638-4241-afa6-17f188a4e6b6"},"vehicle_type_id":"4","last_reported":1762528270,"current_range_meters":10000,"station_id":"","pricing_plan_id":"cebpf4jnsgd1na2vs0mg"},{"bike_id":"d6985ed0-c1a9-4dd0-8d42-54d025ab4757","system_id":"levelo_inurba_marseille","lat":43.23181,"lon":5.39986,"is_reserved":false,"is_disabled":false,"rental_uris":{"android":"levelo://app?vid=d6985ed0-c1a9-4dd0-8d42-54d025ab4757","ios":"levelo://app?vid=d6985ed0-c1a9-4dd0-8d42-54d025ab4757"},"vehicle_type_id":"4","last_reported":1762528270,"current_range_meters":10000,"station_id":"ce4bhn12rcd13ifvqgqg","pricing_plan_id":"cebpf4jnsgd1na2vs0mg"},{"bike_id":"0e20a5d9-0ab3-4e71-a3ef-c9be28fc5551","system_id":"levelo_inurba_marseille","lat":43.28539,"lon":5.44116,"is_reserved":false,"is_disabled":false,"rental_uris":{"android":"levelo://app?vid=0e20a5d9-0ab3-4e71-a3ef-c9be28fc5551","ios":"levelo://app?vid=0e20a5d9-0ab3-4e71-a3ef-c9be28fc5551"},"vehicle_type_id":"4","last_reported":1762528270,"current_range_meters":10000,"station_id":"st_d3j3df2ikq2c7380ej80","pricing_plan_id":"cebpf4jnsgd1na2vs0mg"},{"bike_id":"7f69dc25-49ba-4034-97af-f89947100ea0","system_id":"levelo_inurba_marseille","lat":43.305578,"lon":5.365725,"is_reserved":false,"is_disabled":false,"rental_uris":{"android":"levelo://app?vid=7f69dc25-49ba-4034-97af-f89947100ea0","ios":"levelo://app?vid=7f69dc25-49ba-4034-97af-f89947100ea0"},"vehicle_type_id":"4","last_reported":1762528270,"current_range_meters":10000,"station_id":"ce4bgs12rcd13ifvqcag","pricing_plan_id":"cebpf4jnsgd1na2vs0mg"},{"bike_id":"d6e62d85-b0b2-409f-b78d-ee452b29c4c3","system_id":"levelo_inurba_marseille","lat":43.282707,"lon":5.350726,"is_reserved":false,"is_disabled":false,"rental_uris":{"android":"levelo://app?vid=d6e62d85-b0b2-409f-b78d-ee452b29c4c3","ios":"levelo://app?vid=d6e62d85-b0b2-409f-b78d-ee452b29c4c3"},"vehicle_type_id":"4","last_reported":1762528270,"current_range_meters":10000,"station_id":"ce4bhbp2rcd13ifvqerg","pricing_plan_id":"cebpf4jnsgd1na2vs0mg"},{"bike_id":"188944be-c910-4721-9222-e53dab9374b0","system_id":"levelo_inurba_marseille","lat":43.27048,"lon":5.40258,"is_reserved":false,"is_disabled":false,"rental_uris":{"android":"levelo://app?vid=188944be-c910-4721-9222-e53dab9374b0","ios":"levelo://app?vid=188944be-c910-4721-9222-e53dab9374b0"},"vehicle_type_id":"4","last_reported":1762528270,"current_range_meters":10000,"station_id":"ce4bhk92rcd13ifvqgc0","pricing_plan_id":"cebpf4jnsgd1na2vs0mg"},{"bike_id":"8fbdf482-2fbf-4fe3-a5de-c130a8c081af","system_id":"levelo_inurba_marseille","lat":43.25868,"lon":5.39895,"is_reserved":false,"is_disabled":false,"rental_uris":{"android":"levelo://app?vid=8fbdf482-2fbf-4fe3-a5de-c130a8c081af","ios":"levelo://app?vid=8fbdf482-2fbf-4fe3-a5de-c130a8c081af"},"vehicle_type_id":"4","last_reported":1762528270,"current_range_meters":10000,"station_id":"ce4bhl92rcd13ifvqghg","pricing_plan_id":"cebpf4jnsgd1na2vs0mg"},{"bike_id":"3c36fa3c-5085-4246-8e88-dc1f4dcec505","system_id":"levelo_inurba_marseille","lat":43.292313,"lon":5.360726,"is_reserved":false,"is_disabled":false,"rental_uris":{"android":"levelo://app?vid=3c36fa3c-5085-4246-8e88-dc1f4dcec505","ios":"levelo://app?vid=3c36fa3c-5085-4246-8e88-dc1f4dcec505"},"vehicle_type_id":"4","last_reported":1762528270,"current_range_meters":10800,"station_id":"ce4bhb12rcd13ifvqel0","pricing_plan_id":"cebpf4jnsgd1na2vs0mg"},{"bike_id":"711b5184-06a1-46c6-b1ad-270408b914a4","system_id":"levelo_inurba_marseille","lat":43.30009,"lon":5.40966,"is_reserved":false,"is_disabled":false,"rental_uris":{"android":"levelo://app?vid=711b5184-06a1-46c6-b1ad-270408b914a4","ios":"levelo://app?vid=711b5184-06a1-46c6-b1ad-270408b914a4"},"vehicle_type_id":"4","last_reported":1762528270,"current_range_meters":10800,"station_id":"","pricing_plan_id":"cebpf4jnsgd1na2vs0mg"},{"bike_id":"4c54ce66-cf7c-4f0b-a55a-64b0c96cb6f1","system_id":"levelo_inurba_marseille","lat":43.3046,"lon":5.37901,"is_reserved":false,"is_disabled":false,"rental_uris":{"android":"levelo://app?vid=4c54ce66-cf7c-4f0b-a55a-64b0c96cb6f1","ios":"levelo://app?vid=4c54ce66-cf7c-4f0b-a55a-64b0c96cb6f1"},"vehicle_type_id":"4","last_reported":1762528270,"current_range_meters":10800,"station_id":"ce4bgup2rcd13ifvqcn0","pricing_plan_id":"cebpf4jnsgd1na2vs0mg"},{"bike_id":"30837460-32a3-4a23-adca-913b3fa417d9","system_id":"levelo_inurba_marseille","lat":43.298393,"lon":5.362708,"is_reserved":false,"is_disabled":false,"rental_uris":{"android":"levelo://app?vid=30837460-32a3-4a23-adca-913b3fa417d9","ios":"levelo://app?vid=30837460-32a3-4a23-adca-913b3fa417d9"},"vehicle_type_id":"4","last_reported":1762528270,"current_range_meters":10800,"station_id":"ce4bgpp2rcd13ifvqc3g","pricing_plan_id":"cebpf4jnsgd1na2vs0mg"},{"bike_id":"735af335-66bf-4340-87fb-78f795989dcc","system_id":"levelo_inurba_marseille","lat":43.299315,"lon":5.382388,"is_reserved":false,"is_disabled":false,"rental_uris":{"android":"levelo://app?vid=735af335-66bf-4340-87fb-78f795989dcc","ios":"levelo://app?vid=735af335-66bf-4340-87fb-78f795989dcc"},"vehicle_type_id":"4","last_reported":1762528270,"current_range_meters":10800,"station_id":"","pricing_plan_id":"cebpf4jnsgd1na2vs0mg"},{"bike_id":"8b2313aa-fe5a-43f4-a3d7-e520f475f5dc","system_id":"levelo_inurba_marseille","lat":43.299211,"lon":5.399632,"is_reserved":false,"is_disabled":false,"rental_uris":{"android":"levelo://app?vid=8b2313aa-fe5a-43f4-a3d7-e520f475f5dc","ios":"levelo://app?vid=8b2313aa-fe5a-43f4-a3d7-e520f475f5dc"},"vehicle_type_id":"4","last_reported":1762528270,"current_range_meters":10800,"station_id":"ce4bh0h2rcd13ifvqd50","pricing_plan_id":"cebpf4jnsgd1na2vs0mg"},{"bike_id":"fdef9327-beed-4f50-bbb2-578ade70fe76","system_id":"levelo_inurba_marseille","lat":43.29749,"lon":5.427921,"is_reserved":false,"is_disabled":false,"rental_uris":{"android":"levelo://app?vid=fdef9327-beed-4f50-bbb2-578ade70fe76","ios":"levelo://app?vid=fdef9327-beed-4f50-bbb2-578ade70fe76"},"vehicle_type_id":"4","last_reported":1762528270,"current_range_meters":10800,"station_id":"st_d3md5207bmas73dh9klg","pricing_plan_id":"cebpf4jnsgd1na2vs0mg"},{"bike_id":"1429fa01-256c-4037-bf14-f7e4da268e66","system_id":"levelo_inurba_marseille","lat":43.29912,"lon":5.37473,"is_reserved":false,"is_disabled":false,"rental_uris":{"android":"levelo://app?vid=1429fa01-256c-4037-bf14-f7e4da268e66","ios":"levelo://app?vid=1429fa01-256c-4037-bf14-f7e4da268e66"},"vehicle_type_id":"4","last_reported":1762528270,"current_range_meters":11200,"station_id":"ce4bgjh2rcd13ifvqbg0","pricing_plan_id":"cebpf4jnsgd1na2vs0mg"},{"bike_id":"8f01e68a-0a05-4db6-b791-b8beaba42366","system_id":"levelo_inurba_marseille","lat":43.297905,"lon":5.381186,"is_reserved":false,"is_disabled":false,"rental_uris":{"android":"levelo://app?vid=8f01e68a-0a05-4db6-b791-b8beaba42366","ios":"levelo://app?vid=8f01e68a-0a05-4db6-b791-b8beaba42366"},"vehicle_type_id":"4","last_reported":1762528270,"current_range_meters":11200,"station_id":"ce4bgip2rcd13ifvqbb0","pricing_plan_id":"cebpf4jnsgd1na2vs0mg"},{"bike_id":"64f3b83b-6563-4410-8663-ca04c1526158","system_id":"levelo_inurba_marseille","lat":43.29901,"lon":5.37489,"is_reserved":false,"is_disabled":false,"rental_uris":{"android":"levelo://app?vid=64f3b83b-6563-4410-8663-ca04c1526158","ios":"levelo://app?vid=64f3b83b-6563-4410-8663-ca04c1526158"},"vehicle_type_id":"4","last_reported":1762528270,"current_range_meters":11200,"station_id":"ce4bgjh2rcd13ifvqbg0","pricing_plan_id":"cebpf4jnsgd1na2vs0mg"},{"bike_id":"bf54311a-6347-4b36-aaaf-ce1a0ecc323a","system_id":"levelo_inurba_marseille","lat":43.24161,"lon":5.36403,"is_reserved":false,"is_disabled":false,"rental_uris":{"android":"levelo://app?vid=bf54311a-6347-4b36-aaaf-ce1a0ecc323a","ios":"levelo://app?vid=bf54311a-6347-4b36-aaaf-ce1a0ecc323a"},"vehicle_type_id":"4","last_reported":1762528270,"current_range_meters":11200,"station_id":"cpo36qri1sfpv3e86is0","pricing_plan_id":"cebpf4jnsgd1na2vs0mg"},{"bike_id":"5bee8f0f-57fe-4257-a72a-04a4967570b5","system_id":"levelo_inurba_marseille","lat":43.300434,"lon":5.377309,"is_reserved":false,"is_disabled":false,"rental_uris":{"android":"levelo://app?vid=5bee8f0f-57fe-4257-a72a-04a4967570b5","ios":"levelo://app?vid=5bee8f0f-57fe-4257-a72a-04a4967570b5"},"vehicle_type_id":"4","last_reported":1762528270,"current_range_meters":11200,"station_id":"","pricing_plan_id":"cebpf4jnsgd1na2vs0mg"},{"bike_id":"e3e4908b-d453-43e8-bc66-2795f79d0a52","system_id":"levelo_inurba_marseille","lat":43.31165,"lon":5.38724,"is_reserved":false,"is_disabled":false,"rental_uris":{"android":"levelo://app?vid=e3e4908b-d453-43e8-bc66-2795f79d0a52","ios":"levelo://app?vid=e3e4908b-d453-43e8-bc66-2795f79d0a52"},"vehicle_type_id":"4","last_reported":1762528270,"current_range_meters":11600,"station_id":"ce4bgv12rcd13ifvqcp0","pricing_plan_id":"cebpf4jnsgd1na2vs0mg"},{"bike_id":"c541d6c6-d855-480d-9416-ad1e26b18f93","system_id":"levelo_inurba_marseille","lat":43.29511,"lon":5.39417,"is_reserved":false,"is_disabled":true,"rental_uris":{"android":"levelo://app?vid=c541d6c6-d855-480d-9416-ad1e26b18f93","ios":"levelo://app?vid=c541d6c6-d855-480d-9416-ad1e26b18f93"},"vehicle_type_id":"4","last_reported":1762528270,"current_range_meters":11600,"station_id":"ce4bh292rcd13ifvqdf0","pricing_plan_id":"cebpf4jnsgd1na2vs0mg"},{"bike_id":"91195dc3-7219-4139-a8eb-8e52bb6d271e","system_id":"levelo_inurba_marseille","lat":43.23192,"lon":5.35542,"is_reserved":false,"is_disabled":false,"rental_uris":{"android":"levelo://app?vid=91195dc3-7219-4139-a8eb-8e52bb6d271e","ios":"levelo://app?vid=91195dc3-7219-4139-a8eb-8e52bb6d271e"},"vehicle_type_id":"4","last_reported":1762528270,"current_range_meters":12000,"station_id":"ce4bhu92rcd13ifvqi70","pricing_plan_id":"cebpf4jnsgd1na2vs0mg"},{"bike_id":"df436567-b5dd-47ff-82cb-66b373039810","system_id":"levelo_inurba_marseille","lat":43.25944,"lon":5.40899,"is_reserved":false,"is_disabled":false,"rental_uris":{"android":"levelo://app?vid=df436567-b5dd-47ff-82cb-66b373039810","ios":"levelo://app?vid=df436567-b5dd-47ff-82cb-66b373039810"},"vehicle_type_id":"4","last_reported":1762528270,"current_range_meters":12000,"station_id":"ce4bhm92rcd13ifvqglg","pricing_plan_id":"cebpf4jnsgd1na2vs0mg"},{"bike_id":"92dafb03-7ec0-4b0b-8d48-f4c7b58e4937","system_id":"levelo_inurba_marseille","lat":43.26214,"lon":5.37895,"is_reserved":false,"is_disabled":false,"rental_uris":{"android":"levelo://app?vid=92dafb03-7ec0-4b0b-8d48-f4c7b58e4937","ios":"levelo://app?vid=92dafb03-7ec0-4b0b-8d48-f4c7b58e4937"},"vehicle_type_id":"4","last_reported":1762528270,"current_range_meters":12000,"station_id":"ce4bhjp2rcd13ifvqg90","pricing_plan_id":"cebpf4jnsgd1na2vs0mg"},{"bike_id":"ec44e195-cde1-4252-aadf-701a64256dd7","system_id":"levelo_inurba_marseille","lat":43.24631,"lon":5.43145,"is_reserved":false,"is_disabled":false,"rental_uris":{"android":"levelo://app?vid=ec44e195-cde1-4252-aadf-701a64256dd7","ios":"levelo://app?vid=ec44e195-cde1-4252-aadf-701a64256dd7"},"vehicle_type_id":"4","last_reported":1762528270,"current_range_meters":12000,"station_id":"st_d2m6c4gdas8pm72e190g","pricing_plan_id":"cebpf4jnsgd1na2vs0mg"},{"bike_id":"ff52e6d2-0126-428b-8241-f19a2cd5a014","system_id":"levelo_inurba_marseille","lat":43.26947,"lon":5.38598,"is_reserved":false,"is_disabled":true,"rental_uris":{"android":"levelo://app?vid=ff52e6d2-0126-428b-8241-f19a2cd5a014","ios":"levelo://app?vid=ff52e6d2-0126-428b-8241-f19a2cd5a014"},"vehicle_type_id":"4","last_reported":1762528270,"current_range_meters":12000,"station_id":"ce4bhh92rcd13ifvqfh0","pricing_plan_id":"cebpf4jnsgd1na2vs0mg"},{"bike_id":"0dd97e0f-7748-4bcd-82b1-ac034516de1d","system_id":"levelo_inurba_marseille","lat":43.23155,"lon":5.43727,"is_reserved":false,"is_disabled":false,"rental_uris":{"android":"levelo://app?vid=0dd97e0f-7748-4bcd-82b1-ac034516de1d","ios":"levelo://app?vid=0dd97e0f-7748-4bcd-82b1-ac034516de1d"},"vehicle_type_id":"4","last_reported":1762528270,"current_range_meters":12000,"station_id":"ce4bhmp2rcd13ifvqgog","pricing_plan_id":"cebpf4jnsgd1na2vs0mg"},{"bike_id":"1163662a-59d3-4106-af0e-1e2d8bb82520","system_id":"levelo_inurba_marseille","lat":43.250015,"lon":5.389229,"is_reserved":false,"is_disabled":false,"rental_uris":{"android":"levelo://app?vid=1163662a-59d3-4106-af0e-1e2d8bb82520","ios":"levelo://app?vid=1163662a-59d3-4106-af0e-1e2d8bb82520"},"vehicle_type_id":"4","last_reported":1762528270,"current_range_meters":12000,"station_id":"ce4bhgp2rcd13ifvqfd0","pricing_plan_id":"cebpf4jnsgd1na2vs0mg"},{"bike_id":"b61704ae-d2b8-48fd-a3c7-7e07cc5e8d4f","system_id":"levelo_inurba_marseille","lat":43.273875,"lon":5.36168,"is_reserved":false,"is_disabled":false,"rental_uris":{"android":"levelo://app?vid=b61704ae-d2b8-48fd-a3c7-7e07cc5e8d4f","ios":"levelo://app?vid=b61704ae-d2b8-48fd-a3c7-7e07cc5e8d4f"},"vehicle_type_id":"4","last_reported":1762528270,"current_range_meters":12000,"station_id":"ce4bhb92rcd13ifvqen0","pricing_plan_id":"cebpf4jnsgd1na2vs0mg"},{"bike_id":"47fe472a-584f-43c1-989e-cc29d650cbff","system_id":"levelo_inurba_marseille","lat":43.31156,"lon":5.36855,"is_reserved":false,"is_disabled":false,"rental_uris":{"android":"levelo://app?vid=47fe472a-584f-43c1-989e-cc29d650cbff","ios":"levelo://app?vid=47fe472a-584f-43c1-989e-cc29d650cbff"},"vehicle_type_id":"4","last_reported":1762528270,"current_range_meters":12000,"station_id":"","pricing_plan_id":"cebpf4jnsgd1na2vs0mg"},{"bike_id":"720c99ef-3f7c-4dc6-8673-e18cff2ba8d7","system_id":"levelo_inurba_marseille","lat":43.29621,"lon":5.3717,"is_reserved":false,"is_disabled":false,"rental_uris":{"android":"levelo://app?vid=720c99ef-3f7c-4dc6-8673-e18cff2ba8d7","ios":"levelo://app?vid=720c99ef-3f7c-4dc6-8673-e18cff2ba8d7"},"vehicle_type_id":"4","last_reported":1762528270,"current_range_meters":12400,"station_id":"ce4bgnh2rcd13ifvqc0g","pricing_plan_id":"cebpf4jnsgd1na2vs0mg"},{"bike_id":"416ac0e1-f04c-4803-89d5-ee13d796bf3e","system_id":"levelo_inurba_marseille","lat":43.31182,"lon":5.38725,"is_reserved":false,"is_disabled":false,"rental_uris":{"android":"levelo://app?vid=416ac0e1-f04c-4803-89d5-ee13d796bf3e","ios":"levelo://app?vid=416ac0e1-f04c-4803-89d5-ee13d796bf3e"},"vehicle_type_id":"4","last_reported":1762528270,"current_range_meters":12400,"station_id":"ce4bgv12rcd13ifvqcp0","pricing_plan_id":"cebpf4jnsgd1na2vs0mg"},{"bike_id":"c7f8eee5-f3ba-44c8-8287-670b766f40a1","system_id":"levelo_inurba_marseille","lat":43.31172,"lon":5.38722,"is_reserved":false,"is_disabled":false,"rental_uris":{"android":"levelo://app?vid=c7f8eee5-f3ba-44c8-8287-670b766f40a1","ios":"levelo://app?vid=c7f8eee5-f3ba-44c8-8287-670b766f40a1"},"vehicle_type_id":"4","last_reported":1762528270,"current_range_meters":12400,"station_id":"ce4bgv12rcd13ifvqcp0","pricing_plan_id":"cebpf4jnsgd1na2vs0mg"},{"bike_id":"49f72977-a3b0-4756-91f7-bfd8da95f1b4","system_id":"levelo_inurba_marseille","lat":43.25938,"lon":5.40897,"is_reserved":false,"is_disabled":false,"rental_uris":{"android":"levelo://app?vid=49f72977-a3b0-4756-91f7-bfd8da95f1b4","ios":"levelo://app?vid=49f72977-a3b0-4756-91f7-bfd8da95f1b4"},"vehicle_type_id":"4","last_reported":1762528270,"current_range_meters":12400,"station_id":"ce4bhm92rcd13ifvqglg","pricing_plan_id":"cebpf4jnsgd1na2vs0mg"},{"bike_id":"0a9b2361-104b-4ffc-a4ca-ff22a8243ea1","system_id":"levelo_inurba_marseille","lat":43.266828,"lon":5.394746,"is_reserved":false,"is_disabled":false,"rental_uris":{"android":"levelo://app?vid=0a9b2361-104b-4ffc-a4ca-ff22a8243ea1","ios":"levelo://app?vid=0a9b2361-104b-4ffc-a4ca-ff22a8243ea1"},"vehicle_type_id":"4","last_reported":1762528270,"current_range_meters":12400,"station_id":"ce4bhh12rcd13ifvqfg0","pricing_plan_id":"cebpf4jnsgd1na2vs0mg"},{"bike_id":"2214147d-b2bc-47a5-8262-b29a2f3cbd90","system_id":"levelo_inurba_marseille","lat":43.288528,"lon":5.425156,"is_reserved":false,"is_disabled":false,"rental_uris":{"android":"levelo://app?vid=2214147d-b2bc-47a5-8262-b29a2f3cbd90","ios":"levelo://app?vid=2214147d-b2bc-47a5-8262-b29a2f3cbd90"},"vehicle_type_id":"4","last_reported":1762528270,"current_range_meters":12400,"station_id":"st_d3b462108ojc7389ooeg","pricing_plan_id":"cebpf4jnsgd1na2vs0mg"},{"bike_id":"bf4313a2-0bc5-427f-83e9-196b2470d4a3","system_id":"levelo_inurba_marseille","lat":43.29358,"lon":5.37858,"is_reserved":false,"is_disabled":false,"rental_uris":{"android":"levelo://app?vid=bf4313a2-0bc5-427f-83e9-196b2470d4a3","ios":"levelo://app?vid=bf4313a2-0bc5-427f-83e9-196b2470d4a3"},"vehicle_type_id":"4","last_reported":1762528270,"current_range_meters":12400,"station_id":"ce4bgjh2rcd13ifvqbf0","pricing_plan_id":"cebpf4jnsgd1na2vs0mg"},{"bike_id":"06d8a6d4-cde1-4774-80e5-91004a4fe543","system_id":"levelo_inurba_marseille","lat":43.29786,"lon":5.36265,"is_reserved":false,"is_disabled":false,"rental_uris":{"android":"levelo://app?vid=06d8a6d4-cde1-4774-80e5-91004a4fe543","ios":"levelo://app?vid=06d8a6d4-cde1-4774-80e5-91004a4fe543"},"vehicle_type_id":"4","last_reported":1762528270,"current_range_meters":12800,"station_id":"","pricing_plan_id":"cebpf4jnsgd1na2vs0mg"},{"bike_id":"42e3d1b5-4754-4199-a071-d3b0350a2edd","system_id":"levelo_inurba_marseille","lat":43.29532,"lon":5.38546,"is_reserved":false,"is_disabled":false,"rental_uris":{"android":"levelo://app?vid=42e3d1b5-4754-4199-a071-d3b0350a2edd","ios":"levelo://app?vid=42e3d1b5-4754-4199-a071-d3b0350a2edd"},"vehicle_type_id":"4","last_reported":1762528270,"current_range_meters":12800,"station_id":"ce4bgih2rcd13ifvqba0","pricing_plan_id":"cebpf4jnsgd1na2vs0mg"},{"bike_id":"6c9db9e4-9e9e-4bab-80f5-21e3905ab6c9","system_id":"levelo_inurba_marseille","lat":43.27808,"lon":5.40701,"is_reserved":false,"is_disabled":false,"rental_uris":{"android":"levelo://app?vid=6c9db9e4-9e9e-4bab-80f5-21e3905ab6c9","ios":"levelo://app?vid=6c9db9e4-9e9e-4bab-80f5-21e3905ab6c9"},"vehicle_type_id":"4","last_reported":1762528270,"current_range_meters":12800,"station_id":"ce4bhnh2rcd13ifvqgtg","pricing_plan_id":"cebpf4jnsgd1na2vs0mg"},{"bike_id":"470fbe84-4292-424a-81a1-ddc5d0fc9959","system_id":"levelo_inurba_marseille","lat":43.3377,"lon":5.37429,"is_reserved":false,"is_disabled":false,"rental_uris":{"android":"levelo://app?vid=470fbe84-4292-424a-81a1-ddc5d0fc9959","ios":"levelo://app?vid=470fbe84-4292-424a-81a1-ddc5d0fc9959"},"vehicle_type_id":"4","last_reported":1762528270,"current_range_meters":12800,"station_id":"","pricing_plan_id":"cebpf4jnsgd1na2vs0mg"},{"bike_id":"3b350de2-695c-42e3-a80c-fe5d0f1d9920","system_id":"levelo_inurba_marseille","lat":43.259443,"lon":5.40901,"is_reserved":false,"is_disabled":false,"rental_uris":{"android":"levelo://app?vid=3b350de2-695c-42e3-a80c-fe5d0f1d9920","ios":"levelo://app?vid=3b350de2-695c-42e3-a80c-fe5d0f1d9920"},"vehicle_type_id":"4","last_reported":1762528270,"current_range_meters":12800,"station_id":"ce4bhm92rcd13ifvqglg","pricing_plan_id":"cebpf4jnsgd1na2vs0mg"},{"bike_id":"9b9c7b20-5931-4f77-aefa-be26cef28921","system_id":"levelo_inurba_marseille","lat":43.30053,"lon":5.3771,"is_reserved":false,"is_disabled":false,"rental_uris":{"android":"levelo://app?vid=9b9c7b20-5931-4f77-aefa-be26cef28921","ios":"levelo://app?vid=9b9c7b20-5931-4f77-aefa-be26cef28921"},"vehicle_type_id":"4","last_reported":1762528270,"current_range_meters":12800,"station_id":"","pricing_plan_id":"cebpf4jnsgd1na2vs0mg"},{"bike_id":"259d85a9-cbaf-4265-8534-6d5fa22ac71d","system_id":"levelo_inurba_marseille","lat":43.27915,"lon":5.39572,"is_reserved":false,"is_disabled":false,"rental_uris":{"android":"levelo://app?vid=259d85a9-cbaf-4265-8534-6d5fa22ac71d","ios":"levelo://app?vid=259d85a9-cbaf-4265-8534-6d5fa22ac71d"},"vehicle_type_id":"4","last_reported":1762528270,"current_range_meters":12800,"station_id":"ce4bhf92rcd13ifvqf40","pricing_plan_id":"cebpf4jnsgd1na2vs0mg"},{"bike_id":"23d4b732-c785-4a74-a220-93191f06591d","system_id":"levelo_inurba_marseille","lat":43.21187,"lon":5.35086,"is_reserved":false,"is_disabled":true,"rental_uris":{"android":"levelo://app?vid=23d4b732-c785-4a74-a220-93191f06591d","ios":"levelo://app?vid=23d4b732-c785-4a74-a220-93191f06591d"},"vehicle_type_id":"4","last_reported":1762528270,"current_range_meters":12800,"station_id":"st_cvj6sg6p6f1abm77japg","pricing_plan_id":"cebpf4jnsgd1na2vs0mg"},{"bike_id":"c0b7a471-f70d-437e-b72b-b9a67eac7822","system_id":"levelo_inurba_marseille","lat":43.26223,"lon":5.40453,"is_reserved":false,"is_disabled":false,"rental_uris":{"android":"levelo://app?vid=c0b7a471-f70d-437e-b72b-b9a67eac7822","ios":"levelo://app?vid=c0b7a471-f70d-437e-b72b-b9a67eac7822"},"vehicle_type_id":"4","last_reported":1762528270,"current_range_meters":12800,"station_id":"ce4bhmh2rcd13ifvqgmg","pricing_plan_id":"cebpf4jnsgd1na2vs0mg"},{"bike_id":"2e0f5b64-65ed-42b3-9deb-fc4f03eedfcc","system_id":"levelo_inurba_marseille","lat":43.28535,"lon":5.44102,"is_reserved":false,"is_disabled":false,"rental_uris":{"android":"levelo://app?vid=2e0f5b64-65ed-42b3-9deb-fc4f03eedfcc","ios":"levelo://app?vid=2e0f5b64-65ed-42b3-9deb-fc4f03eedfcc"},"vehicle_type_id":"4","last_reported":1762528270,"current_range_meters":12800,"station_id":"st_d3j3df2ikq2c7380ej80","pricing_plan_id":"cebpf4jnsgd1na2vs0mg"},{"bike_id":"2c54771e-bc90-4fcb-a7c7-984aebd4a9b2","system_id":"levelo_inurba_marseille","lat":43.30127,"lon":5.38787,"is_reserved":false,"is_disabled":false,"rental_uris":{"android":"levelo://app?vid=2c54771e-bc90-4fcb-a7c7-984aebd4a9b2","ios":"levelo://app?vid=2c54771e-bc90-4fcb-a7c7-984aebd4a9b2"},"vehicle_type_id":"4","last_reported":1762528270,"current_range_meters":13600,"station_id":"ce4bghh2rcd13ifvqb60","pricing_plan_id":"cebpf4jnsgd1na2vs0mg"},{"bike_id":"7c392732-2900-41fd-8c6d-e5b49cdf67b5","system_id":"levelo_inurba_marseille","lat":43.29717,"lon":5.3827,"is_reserved":false,"is_disabled":false,"rental_uris":{"android":"levelo://app?vid=7c392732-2900-41fd-8c6d-e5b49cdf67b5","ios":"levelo://app?vid=7c392732-2900-41fd-8c6d-e5b49cdf67b5"},"vehicle_type_id":"4","last_reported":1762528270,"current_range_meters":13600,"station_id":"","pricing_plan_id":"cebpf4jnsgd1na2vs0mg"},{"bike_id":"ada7c068-07f5-4885-8cb5-5c4f9b537ace","system_id":"levelo_inurba_marseille","lat":43.23157,"lon":5.43715,"is_reserved":false,"is_disabled":false,"rental_uris":{"android":"levelo://app?vid=ada7c068-07f5-4885-8cb5-5c4f9b537ace","ios":"levelo://app?vid=ada7c068-07f5-4885-8cb5-5c4f9b537ace"},"vehicle_type_id":"4","last_reported":1762528270,"current_range_meters":13600,"station_id":"ce4bhmp2rcd13ifvqgog","pricing_plan_id":"cebpf4jnsgd1na2vs0mg"},{"bike_id":"2872f226-42e4-4b29-b649-50184ec128a3","system_id":"levelo_inurba_marseille","lat":43.29985,"lon":5.37172,"is_reserved":false,"is_disabled":false,"rental_uris":{"android":"levelo://app?vid=2872f226-42e4-4b29-b649-50184ec128a3","ios":"levelo://app?vid=2872f226-42e4-4b29-b649-50184ec128a3"},"vehicle_type_id":"4","last_reported":1762528270,"current_range_meters":13600,"station_id":"ce4bgr92rcd13ifvqc7g","pricing_plan_id":"cebpf4jnsgd1na2vs0mg"},{"bike_id":"229a64c2-36ec-4852-8cb5-f293c3f8ebc3","system_id":"levelo_inurba_marseille","lat":43.27374,"lon":5.36267,"is_reserved":false,"is_disabled":false,"rental_uris":{"android":"levelo://app?vid=229a64c2-36ec-4852-8cb5-f293c3f8ebc3","ios":"levelo://app?vid=229a64c2-36ec-4852-8cb5-f293c3f8ebc3"},"vehicle_type_id":"4","last_reported":1762528270,"current_range_meters":13600,"station_id":"ce4bhbh2rcd13ifvqeo0","pricing_plan_id":"cebpf4jnsgd1na2vs0mg"},{"bike_id":"fd56d2bc-6f60-4008-a2cc-ba3081efc60a","system_id":"levelo_inurba_marseille","lat":43.29576,"lon":5.37532,"is_reserved":false,"is_disabled":false,"rental_uris":{"android":"levelo://app?vid=fd56d2bc-6f60-4008-a2cc-ba3081efc60a","ios":"levelo://app?vid=fd56d2bc-6f60-4008-a2cc-ba3081efc60a"},"vehicle_type_id":"4","last_reported":1762528270,"current_range_meters":14000,"station_id":"ce4bgh92rcd13ifvqb50","pricing_plan_id":"cebpf4jnsgd1na2vs0mg"},{"bike_id":"fbe1980c-28b3-44ff-94bc-1a822c9d6de7","system_id":"levelo_inurba_marseille","lat":43.30932,"lon":5.37296,"is_reserved":false,"is_disabled":false,"rental_uris":{"android":"levelo://app?vid=fbe1980c-28b3-44ff-94bc-1a822c9d6de7","ios":"levelo://app?vid=fbe1980c-28b3-44ff-94bc-1a822c9d6de7"},"vehicle_type_id":"4","last_reported":1762528270,"current_range_meters":14000,"station_id":"","pricing_plan_id":"cebpf4jnsgd1na2vs0mg"},{"bike_id":"3a6b939b-8483-4a00-8652-d825cdd856d7","system_id":"levelo_inurba_marseille","lat":43.22547,"lon":5.41635,"is_reserved":false,"is_disabled":false,"rental_uris":{"android":"levelo://app?vid=3a6b939b-8483-4a00-8652-d825cdd856d7","ios":"levelo://app?vid=3a6b939b-8483-4a00-8652-d825cdd856d7"},"vehicle_type_id":"4","last_reported":1762528270,"current_range_meters":14000,"station_id":"st_d2o4gvlbi1j2169b742g","pricing_plan_id":"cebpf4jnsgd1na2vs0mg"},{"bike_id":"dc846c63-d6a4-4adc-81b6-6b323600ac4a","system_id":"levelo_inurba_marseille","lat":43.24663,"lon":5.38163,"is_reserved":false,"is_disabled":false,"rental_uris":{"android":"levelo://app?vid=dc846c63-d6a4-4adc-81b6-6b323600ac4a","ios":"levelo://app?vid=dc846c63-d6a4-4adc-81b6-6b323600ac4a"},"vehicle_type_id":"4","last_reported":1762528270,"current_range_meters":14400,"station_id":"ce4bhih2rcd13ifvqfr0","pricing_plan_id":"cebpf4jnsgd1na2vs0mg"},{"bike_id":"fcc8af05-4727-4300-b39c-bdade5d39ece","system_id":"levelo_inurba_marseille","lat":43.29596,"lon":5.37726,"is_reserved":false,"is_disabled":false,"rental_uris":{"android":"levelo://app?vid=fcc8af05-4727-4300-b39c-bdade5d39ece","ios":"levelo://app?vid=fcc8af05-4727-4300-b39c-bdade5d39ece"},"vehicle_type_id":"4","last_reported":1762528270,"current_range_meters":14400,"station_id":"ce4bgi92rcd13ifvqb90","pricing_plan_id":"cebpf4jnsgd1na2vs0mg"},{"bike_id":"d62c68b7-5b72-49e3-88a5-11bf2eacb654","system_id":"levelo_inurba_marseille","lat":43.310724,"lon":5.400963,"is_reserved":false,"is_disabled":false,"rental_uris":{"android":"levelo://app?vid=d62c68b7-5b72-49e3-88a5-11bf2eacb654","ios":"levelo://app?vid=d62c68b7-5b72-49e3-88a5-11bf2eacb654"},"vehicle_type_id":"4","last_reported":1762528270,"current_range_meters":14400,"station_id":"ce4bh092rcd13ifvqd30","pricing_plan_id":"cebpf4jnsgd1na2vs0mg"},{"bike_id":"a88522c2-7f31-460d-8b59-1c10109fed19","system_id":"levelo_inurba_marseille","lat":43.3144,"lon":5.37593,"is_reserved":false,"is_disabled":false,"rental_uris":{"android":"levelo://app?vid=a88522c2-7f31-460d-8b59-1c10109fed19","ios":"levelo://app?vid=a88522c2-7f31-460d-8b59-1c10109fed19"},"vehicle_type_id":"4","last_reported":1762528270,"current_range_meters":14400,"station_id":"","pricing_plan_id":"cebpf4jnsgd1na2vs0mg"},{"bike_id":"8b34191a-b195-4167-a926-af05957e9f49","system_id":"levelo_inurba_marseille","lat":43.32055,"lon":5.41533,"is_reserved":false,"is_disabled":false,"rental_uris":{"android":"levelo://app?vid=8b34191a-b195-4167-a926-af05957e9f49","ios":"levelo://app?vid=8b34191a-b195-4167-a926-af05957e9f49"},"vehicle_type_id":"4","last_reported":1762528270,"current_range_meters":14400,"station_id":"ce4bhq92rcd13ifvqhkg","pricing_plan_id":"cebpf4jnsgd1na2vs0mg"},{"bike_id":"5895029f-9d34-4649-aaca-dd52f37b48ee","system_id":"levelo_inurba_marseille","lat":43.29605,"lon":5.37702,"is_reserved":false,"is_disabled":false,"rental_uris":{"android":"levelo://app?vid=5895029f-9d34-4649-aaca-dd52f37b48ee","ios":"levelo://app?vid=5895029f-9d34-4649-aaca-dd52f37b48ee"},"vehicle_type_id":"4","last_reported":1762528270,"current_range_meters":14400,"station_id":"ce4bgi92rcd13ifvqb90","pricing_plan_id":"cebpf4jnsgd1na2vs0mg"},{"bike_id":"0bf0d6a0-7317-4c31-b791-1037e518b943","system_id":"levelo_inurba_marseille","lat":43.277193,"lon":5.383517,"is_reserved":false,"is_disabled":false,"rental_uris":{"android":"levelo://app?vid=0bf0d6a0-7317-4c31-b791-1037e518b943","ios":"levelo://app?vid=0bf0d6a0-7317-4c31-b791-1037e518b943"},"vehicle_type_id":"4","last_reported":1762528270,"current_range_meters":14400,"station_id":"ce4bhh92rcd13ifvqfi0","pricing_plan_id":"cebpf4jnsgd1na2vs0mg"},{"bike_id":"8836cb3b-bfd3-4944-ae65-b18005808291","system_id":"levelo_inurba_marseille","lat":43.29521,"lon":5.39023,"is_reserved":false,"is_disabled":false,"rental_uris":{"android":"levelo://app?vid=8836cb3b-bfd3-4944-ae65-b18005808291","ios":"levelo://app?vid=8836cb3b-bfd3-4944-ae65-b18005808291"},"vehicle_type_id":"4","last_reported":1762528270,"current_range_meters":14400,"station_id":"ce4bh3p2rcd13ifvqdp0","pricing_plan_id":"cebpf4jnsgd1na2vs0mg"},{"bike_id":"310115a0-7bf2-4a4a-9d53-56bf6918e4d0","system_id":"levelo_inurba_marseille","lat":43.28477,"lon":5.48419,"is_reserved":false,"is_disabled":false,"rental_uris":{"android":"levelo://app?vid=310115a0-7bf2-4a4a-9d53-56bf6918e4d0","ios":"levelo://app?vid=310115a0-7bf2-4a4a-9d53-56bf6918e4d0"},"vehicle_type_id":"4","last_reported":1762528270,"current_range_meters":14800,"station_id":"st_d3svhcjqgbts73a3dn0g","pricing_plan_id":"cebpf4jnsgd1na2vs0mg"},{"bike_id":"4548bfb3-06f4-4b10-aaa4-465cca5b7e05","system_id":"levelo_inurba_marseille","lat":43.2854,"lon":5.44103,"is_reserved":false,"is_disabled":false,"rental_uris":{"android":"levelo://app?vid=4548bfb3-06f4-4b10-aaa4-465cca5b7e05","ios":"levelo://app?vid=4548bfb3-06f4-4b10-aaa4-465cca5b7e05"},"vehicle_type_id":"4","last_reported":1762528270,"current_range_meters":14800,"station_id":"st_d3j3df2ikq2c7380ej80","pricing_plan_id":"cebpf4jnsgd1na2vs0mg"},{"bike_id":"3771f242-ebc1-4678-84d4-230be10e9f54","system_id":"levelo_inurba_marseille","lat":43.253318,"lon":5.421619,"is_reserved":false,"is_disabled":false,"rental_uris":{"android":"levelo://app?vid=3771f242-ebc1-4678-84d4-230be10e9f54","ios":"levelo://app?vid=3771f242-ebc1-4678-84d4-230be10e9f54"},"vehicle_type_id":"4","last_reported":1762528270,"current_range_meters":14800,"station_id":"st_d2m65c5bi1j21697t3ng","pricing_plan_id":"cebpf4jnsgd1na2vs0mg"},{"bike_id":"43cfab9e-f547-4304-9999-4a8329474751","system_id":"levelo_inurba_marseille","lat":43.211737,"lon":5.350926,"is_reserved":false,"is_disabled":false,"rental_uris":{"android":"levelo://app?vid=43cfab9e-f547-4304-9999-4a8329474751","ios":"levelo://app?vid=43cfab9e-f547-4304-9999-4a8329474751"},"vehicle_type_id":"4","last_reported":1762528270,"current_range_meters":14800,"station_id":"st_cvj6sg6p6f1abm77japg","pricing_plan_id":"cebpf4jnsgd1na2vs0mg"},{"bike_id":"1ecdd307-837b-4b08-a92c-cfed204b1e55","system_id":"levelo_inurba_marseille","lat":43.28351,"lon":5.38103,"is_reserved":false,"is_disabled":false,"rental_uris":{"android":"levelo://app?vid=1ecdd307-837b-4b08-a92c-cfed204b1e55","ios":"levelo://app?vid=1ecdd307-837b-4b08-a92c-cfed204b1e55"},"vehicle_type_id":"4","last_reported":1762528270,"current_range_meters":14800,"station_id":"ce4bh412rcd13ifvqdr0","pricing_plan_id":"cebpf4jnsgd1na2vs0mg"},{"bike_id":"5b03e0a7-e5b7-4bb1-a15f-78dcdc45fd57","system_id":"levelo_inurba_marseille","lat":43.231437,"lon":5.43734,"is_reserved":false,"is_disabled":false,"rental_uris":{"android":"levelo://app?vid=5b03e0a7-e5b7-4bb1-a15f-78dcdc45fd57","ios":"levelo://app?vid=5b03e0a7-e5b7-4bb1-a15f-78dcdc45fd57"},"vehicle_type_id":"4","last_reported":1762528270,"current_range_meters":15200,"station_id":"ce4bhmp2rcd13ifvqgog","pricing_plan_id":"cebpf4jnsgd1na2vs0mg"},{"bike_id":"64181dbc-62f5-467b-8c2e-b220a5f35484","system_id":"levelo_inurba_marseille","lat":43.29004,"lon":5.35609,"is_reserved":false,"is_disabled":false,"rental_uris":{"android":"levelo://app?vid=64181dbc-62f5-467b-8c2e-b220a5f35484","ios":"levelo://app?vid=64181dbc-62f5-467b-8c2e-b220a5f35484"},"vehicle_type_id":"4","last_reported":1762528270,"current_range_meters":15200,"station_id":"ce4bhb92rcd13ifvqen0","pricing_plan_id":"cebpf4jnsgd1na2vs0mg"},{"bike_id":"3d68bfa0-2d3d-4fcd-bd63-f6096b16ab01","system_id":"levelo_inurba_marseille","lat":43.2949,"lon":5.43305,"is_reserved":false,"is_disabled":false,"rental_uris":{"android":"levelo://app?vid=3d68bfa0-2d3d-4fcd-bd63-f6096b16ab01","ios":"levelo://app?vid=3d68bfa0-2d3d-4fcd-bd63-f6096b16ab01"},"vehicle_type_id":"4","last_reported":1762528270,"current_range_meters":15200,"station_id":"st_d3j5ugp08ojc73fj9d10","pricing_plan_id":"cebpf4jnsgd1na2vs0mg"},{"bike_id":"401209f9-1098-407a-9275-182f209531f6","system_id":"levelo_inurba_marseille","lat":43.29549,"lon":5.42286,"is_reserved":false,"is_disabled":false,"rental_uris":{"android":"levelo://app?vid=401209f9-1098-407a-9275-182f209531f6","ios":"levelo://app?vid=401209f9-1098-407a-9275-182f209531f6"},"vehicle_type_id":"4","last_reported":1762528270,"current_range_meters":15200,"station_id":"ce4bhph2rcd13ifvqhdg","pricing_plan_id":"cebpf4jnsgd1na2vs0mg"},{"bike_id":"8d6c7252-7cc4-4bb4-84ea-2c0233996b80","system_id":"levelo_inurba_marseille","lat":43.24176,"lon":5.39729,"is_reserved":false,"is_disabled":false,"rental_uris":{"android":"levelo://app?vid=8d6c7252-7cc4-4bb4-84ea-2c0233996b80","ios":"levelo://app?vid=8d6c7252-7cc4-4bb4-84ea-2c0233996b80"},"vehicle_type_id":"4","last_reported":1762528270,"current_range_meters":16000,"station_id":"ce4bhn12rcd13ifvqgpg","pricing_plan_id":"cebpf4jnsgd1na2vs0mg"},{"bike_id":"05c639a2-6660-40ed-a12f-85b485fe188e","system_id":"levelo_inurba_marseille","lat":43.29205,"lon":5.35778,"is_reserved":false,"is_disabled":false,"rental_uris":{"android":"levelo://app?vid=05c639a2-6660-40ed-a12f-85b485fe188e","ios":"levelo://app?vid=05c639a2-6660-40ed-a12f-85b485fe188e"},"vehicle_type_id":"4","last_reported":1762528270,"current_range_meters":16000,"station_id":"ce4bhb12rcd13ifvqel0","pricing_plan_id":"cebpf4jnsgd1na2vs0mg"},{"bike_id":"22918fb7-a391-4f35-8c21-8eb60e2ab03f","system_id":"levelo_inurba_marseille","lat":43.22553,"lon":5.4163,"is_reserved":false,"is_disabled":false,"rental_uris":{"android":"levelo://app?vid=22918fb7-a391-4f35-8c21-8eb60e2ab03f","ios":"levelo://app?vid=22918fb7-a391-4f35-8c21-8eb60e2ab03f"},"vehicle_type_id":"4","last_reported":1762528270,"current_range_meters":16000,"station_id":"st_d2o4gvlbi1j2169b742g","pricing_plan_id":"cebpf4jnsgd1na2vs0mg"},{"bike_id":"05153f6a-3f70-4bee-8502-3ac69d0aea85","system_id":"levelo_inurba_marseille","lat":43.250092,"lon":5.396034,"is_reserved":false,"is_disabled":false,"rental_uris":{"android":"levelo://app?vid=05153f6a-3f70-4bee-8502-3ac69d0aea85","ios":"levelo://app?vid=05153f6a-3f70-4bee-8502-3ac69d0aea85"},"vehicle_type_id":"4","last_reported":1762528270,"current_range_meters":16000,"station_id":"ce4bhgp2rcd13ifvqfd0","pricing_plan_id":"cebpf4jnsgd1na2vs0mg"},{"bike_id":"ee8d3b02-c1f6-4699-8115-ad5e56d527d4","system_id":"levelo_inurba_marseille","lat":43.29921,"lon":5.37458,"is_reserved":false,"is_disabled":false,"rental_uris":{"android":"levelo://app?vid=ee8d3b02-c1f6-4699-8115-ad5e56d527d4","ios":"levelo://app?vid=ee8d3b02-c1f6-4699-8115-ad5e56d527d4"},"vehicle_type_id":"4","last_reported":1762528270,"current_range_meters":16000,"station_id":"ce4bgjh2rcd13ifvqbg0","pricing_plan_id":"cebpf4jnsgd1na2vs0mg"},{"bike_id":"18a87bcb-16af-47b7-aa09-00e0f6787532","system_id":"levelo_inurba_marseille","lat":43.309247,"lon":5.401477,"is_reserved":false,"is_disabled":false,"rental_uris":{"android":"levelo://app?vid=18a87bcb-16af-47b7-aa09-00e0f6787532","ios":"levelo://app?vid=18a87bcb-16af-47b7-aa09-00e0f6787532"},"vehicle_type_id":"4","last_reported":1762528270,"current_range_meters":16000,"station_id":"ce4bgvp2rcd13ifvqct0","pricing_plan_id":"cebpf4jnsgd1na2vs0mg"},{"bike_id":"3df6bfda-db80-475a-88ab-b10a24ae6e4f","system_id":"levelo_inurba_marseille","lat":43.2319,"lon":5.39989,"is_reserved":false,"is_disabled":false,"rental_uris":{"android":"levelo://app?vid=3df6bfda-db80-475a-88ab-b10a24ae6e4f","ios":"levelo://app?vid=3df6bfda-db80-475a-88ab-b10a24ae6e4f"},"vehicle_type_id":"4","last_reported":1762528270,"current_range_meters":16400,"station_id":"ce4bhn12rcd13ifvqgqg","pricing_plan_id":"cebpf4jnsgd1na2vs0mg"},{"bike_id":"11ed8e0c-e780-4adb-b447-7665753a4a22","system_id":"levelo_inurba_marseille","lat":43.30944,"lon":5.40139,"is_reserved":false,"is_disabled":false,"rental_uris":{"android":"levelo://app?vid=11ed8e0c-e780-4adb-b447-7665753a4a22","ios":"levelo://app?vid=11ed8e0c-e780-4adb-b447-7665753a4a22"},"vehicle_type_id":"4","last_reported":1762528270,"current_range_meters":16400,"station_id":"ce4bgvp2rcd13ifvqct0","pricing_plan_id":"cebpf4jnsgd1na2vs0mg"},{"bike_id":"ef04e2c9-5787-48be-8980-f46754f6163f","system_id":"levelo_inurba_marseille","lat":43.30929,"lon":5.40159,"is_reserved":false,"is_disabled":false,"rental_uris":{"android":"levelo://app?vid=ef04e2c9-5787-48be-8980-f46754f6163f","ios":"levelo://app?vid=ef04e2c9-5787-48be-8980-f46754f6163f"},"vehicle_type_id":"4","last_reported":1762528270,"current_range_meters":16400,"station_id":"ce4bgvp2rcd13ifvqct0","pricing_plan_id":"cebpf4jnsgd1na2vs0mg"},{"bike_id":"7a17ec16-f202-4afc-b220-f82a283a0e2f","system_id":"levelo_inurba_marseille","lat":43.30645,"lon":5.4008,"is_reserved":false,"is_disabled":false,"rental_uris":{"android":"levelo://app?vid=7a17ec16-f202-4afc-b220-f82a283a0e2f","ios":"levelo://app?vid=7a17ec16-f202-4afc-b220-f82a283a0e2f"},"vehicle_type_id":"4","last_reported":1762528270,"current_range_meters":16400,"station_id":"ce4bh112rcd13ifvqda0","pricing_plan_id":"cebpf4jnsgd1na2vs0mg"},{"bike_id":"7bb84820-24de-4ce3-8da1-06a034cf437e","system_id":"levelo_inurba_marseille","lat":43.27049,"lon":5.40264,"is_reserved":false,"is_disabled":false,"rental_uris":{"android":"levelo://app?vid=7bb84820-24de-4ce3-8da1-06a034cf437e","ios":"levelo://app?vid=7bb84820-24de-4ce3-8da1-06a034cf437e"},"vehicle_type_id":"4","last_reported":1762528270,"current_range_meters":16400,"station_id":"ce4bhk92rcd13ifvqgc0","pricing_plan_id":"cebpf4jnsgd1na2vs0mg"},{"bike_id":"a24ecaa7-dc5d-4c8e-a910-6021da3d40da","system_id":"levelo_inurba_marseille","lat":43.22563,"lon":5.41635,"is_reserved":false,"is_disabled":false,"rental_uris":{"android":"levelo://app?vid=a24ecaa7-dc5d-4c8e-a910-6021da3d40da","ios":"levelo://app?vid=a24ecaa7-dc5d-4c8e-a910-6021da3d40da"},"vehicle_type_id":"4","last_reported":1762528270,"current_range_meters":16400,"station_id":"st_d2o4gvlbi1j2169b742g","pricing_plan_id":"cebpf4jnsgd1na2vs0mg"},{"bike_id":"5eb937e8-145a-48e6-8ebf-480b82683fed","system_id":"levelo_inurba_marseille","lat":43.29273,"lon":5.376187,"is_reserved":false,"is_disabled":false,"rental_uris":{"android":"levelo://app?vid=5eb937e8-145a-48e6-8ebf-480b82683fed","ios":"levelo://app?vid=5eb937e8-145a-48e6-8ebf-480b82683fed"},"vehicle_type_id":"4","last_reported":1762528270,"current_range_meters":16400,"station_id":"ce4bgi12rcd13ifvqb80","pricing_plan_id":"cebpf4jnsgd1na2vs0mg"},{"bike_id":"9af0687b-3e79-4e11-b844-dd239618aeba","system_id":"levelo_inurba_marseille","lat":43.28855,"lon":5.42528,"is_reserved":false,"is_disabled":false,"rental_uris":{"android":"levelo://app?vid=9af0687b-3e79-4e11-b844-dd239618aeba","ios":"levelo://app?vid=9af0687b-3e79-4e11-b844-dd239618aeba"},"vehicle_type_id":"4","last_reported":1762528270,"current_range_meters":16400,"station_id":"st_d3b462108ojc7389ooeg","pricing_plan_id":"cebpf4jnsgd1na2vs0mg"},{"bike_id":"71311121-3414-4a68-b95a-d7343d1d4636","system_id":"levelo_inurba_marseille","lat":43.28832,"lon":5.39316,"is_reserved":false,"is_disabled":false,"rental_uris":{"android":"levelo://app?vid=71311121-3414-4a68-b95a-d7343d1d4636","ios":"levelo://app?vid=71311121-3414-4a68-b95a-d7343d1d4636"},"vehicle_type_id":"4","last_reported":1762528270,"current_range_meters":16400,"station_id":"ce4bh2p2rcd13ifvqdi0","pricing_plan_id":"cebpf4jnsgd1na2vs0mg"},{"bike_id":"e5b60406-6050-4895-badc-44260999dd59","system_id":"levelo_inurba_marseille","lat":43.29259,"lon":5.38449,"is_reserved":false,"is_disabled":false,"rental_uris":{"android":"levelo://app?vid=e5b60406-6050-4895-badc-44260999dd59","ios":"levelo://app?vid=e5b60406-6050-4895-badc-44260999dd59"},"vehicle_type_id":"4","last_reported":1762528270,"current_range_meters":16400,"station_id":"ce4bh692rcd13ifvqea0","pricing_plan_id":"cebpf4jnsgd1na2vs0mg"},{"bike_id":"07d4a740-67e7-417b-9820-14faa44cc7d6","system_id":"levelo_inurba_marseille","lat":43.28854,"lon":5.42537,"is_reserved":false,"is_disabled":false,"rental_uris":{"android":"levelo://app?vid=07d4a740-67e7-417b-9820-14faa44cc7d6","ios":"levelo://app?vid=07d4a740-67e7-417b-9820-14faa44cc7d6"},"vehicle_type_id":"4","last_reported":1762528270,"current_range_meters":16400,"station_id":"st_d3b462108ojc7389ooeg","pricing_plan_id":"cebpf4jnsgd1na2vs0mg"},{"bike_id":"33fcdbb0-2f2f-418c-a9e2-8bfbd62dc3a5","system_id":"levelo_inurba_marseille","lat":43.30528,"lon":5.36715,"is_reserved":false,"is_disabled":false,"rental_uris":{"android":"levelo://app?vid=33fcdbb0-2f2f-418c-a9e2-8bfbd62dc3a5","ios":"levelo://app?vid=33fcdbb0-2f2f-418c-a9e2-8bfbd62dc3a5"},"vehicle_type_id":"4","last_reported":1762528270,"current_range_meters":16400,"station_id":"ce4bgrp2rcd13ifvqc9g","pricing_plan_id":"cebpf4jnsgd1na2vs0mg"},{"bike_id":"65d83eaf-428a-43cd-a356-ecaed95948ff","system_id":"levelo_inurba_marseille","lat":43.24854,"lon":5.3982,"is_reserved":false,"is_disabled":false,"rental_uris":{"android":"levelo://app?vid=65d83eaf-428a-43cd-a356-ecaed95948ff","ios":"levelo://app?vid=65d83eaf-428a-43cd-a356-ecaed95948ff"},"vehicle_type_id":"4","last_reported":1762528270,"current_range_meters":16800,"station_id":"","pricing_plan_id":"cebpf4jnsgd1na2vs0mg"},{"bike_id":"f1050a60-f1c0-41eb-b940-270c6031073c","system_id":"levelo_inurba_marseille","lat":43.295167,"lon":5.390363,"is_reserved":false,"is_disabled":false,"rental_uris":{"android":"levelo://app?vid=f1050a60-f1c0-41eb-b940-270c6031073c","ios":"levelo://app?vid=f1050a60-f1c0-41eb-b940-270c6031073c"},"vehicle_type_id":"4","last_reported":1762528270,"current_range_meters":16800,"station_id":"ce4bh3p2rcd13ifvqdp0","pricing_plan_id":"cebpf4jnsgd1na2vs0mg"},{"bike_id":"a4155ede-55e0-40bb-a340-eab53bb69843","system_id":"levelo_inurba_marseille","lat":43.29919,"lon":5.37477,"is_reserved":false,"is_disabled":false,"rental_uris":{"android":"levelo://app?vid=a4155ede-55e0-40bb-a340-eab53bb69843","ios":"levelo://app?vid=a4155ede-55e0-40bb-a340-eab53bb69843"},"vehicle_type_id":"4","last_reported":1762528270,"current_range_meters":16800,"station_id":"ce4bgjh2rcd13ifvqbg0","pricing_plan_id":"cebpf4jnsgd1na2vs0mg"},{"bike_id":"cbaf6e70-be37-4c92-8bb7-677f9be0a37d","system_id":"levelo_inurba_marseille","lat":43.301209,"lon":5.431304,"is_reserved":false,"is_disabled":false,"rental_uris":{"android":"levelo://app?vid=cbaf6e70-be37-4c92-8bb7-677f9be0a37d","ios":"levelo://app?vid=cbaf6e70-be37-4c92-8bb7-677f9be0a37d"},"vehicle_type_id":"4","last_reported":1762528270,"current_range_meters":16800,"station_id":"st_d3js3co5814s73ftftug","pricing_plan_id":"cebpf4jnsgd1na2vs0mg"},{"bike_id":"1bf477b3-55e6-4f59-a7a7-7034928d8403","system_id":"levelo_inurba_marseille","lat":43.25345,"lon":5.42154,"is_reserved":false,"is_disabled":false,"rental_uris":{"android":"levelo://app?vid=1bf477b3-55e6-4f59-a7a7-7034928d8403","ios":"levelo://app?vid=1bf477b3-55e6-4f59-a7a7-7034928d8403"},"vehicle_type_id":"4","last_reported":1762528270,"current_range_meters":16800,"station_id":"st_d2m65c5bi1j21697t3ng","pricing_plan_id":"cebpf4jnsgd1na2vs0mg"},{"bike_id":"9a103953-97c0-4345-a695-9868d392b1e8","system_id":"levelo_inurba_marseille","lat":43.29975,"lon":5.38485,"is_reserved":false,"is_disabled":false,"rental_uris":{"android":"levelo://app?vid=9a103953-97c0-4345-a695-9868d392b1e8","ios":"levelo://app?vid=9a103953-97c0-4345-a695-9868d392b1e8"},"vehicle_type_id":"4","last_reported":1762528270,"current_range_meters":16800,"station_id":"ce4bgj92rcd13ifvqbd0","pricing_plan_id":"cebpf4jnsgd1na2vs0mg"},{"bike_id":"e9a62bfc-965a-49c6-b497-8cea44023470","system_id":"levelo_inurba_marseille","lat":43.31513,"lon":5.37286,"is_reserved":false,"is_disabled":false,"rental_uris":{"android":"levelo://app?vid=e9a62bfc-965a-49c6-b497-8cea44023470","ios":"levelo://app?vid=e9a62bfc-965a-49c6-b497-8cea44023470"},"vehicle_type_id":"4","last_reported":1762528270,"current_range_meters":16800,"station_id":"ce4bgt12rcd13ifvqcd0","pricing_plan_id":"cebpf4jnsgd1na2vs0mg"},{"bike_id":"71363b19-bf5d-43d1-b7c7-f9936f9c7692","system_id":"levelo_inurba_marseille","lat":43.304184,"lon":5.412937,"is_reserved":false,"is_disabled":false,"rental_uris":{"android":"levelo://app?vid=71363b19-bf5d-43d1-b7c7-f9936f9c7692","ios":"levelo://app?vid=71363b19-bf5d-43d1-b7c7-f9936f9c7692"},"vehicle_type_id":"4","last_reported":1762528270,"current_range_meters":16800,"station_id":"ce4bhop2rcd13ifvqh8g","pricing_plan_id":"cebpf4jnsgd1na2vs0mg"},{"bike_id":"026711f1-c640-4e28-8a55-fae57096ee2c","system_id":"levelo_inurba_marseille","lat":43.25929,"lon":5.40853,"is_reserved":false,"is_disabled":false,"rental_uris":{"android":"levelo://app?vid=026711f1-c640-4e28-8a55-fae57096ee2c","ios":"levelo://app?vid=026711f1-c640-4e28-8a55-fae57096ee2c"},"vehicle_type_id":"4","last_reported":1762528270,"current_range_meters":16800,"station_id":"ce4bhm92rcd13ifvqglg","pricing_plan_id":"cebpf4jnsgd1na2vs0mg"},{"bike_id":"9a2454b7-7a4f-4db5-bb79-c4d8e80ce83d","system_id":"levelo_inurba_marseille","lat":43.311828,"lon":5.387197,"is_reserved":false,"is_disabled":false,"rental_uris":{"android":"levelo://app?vid=9a2454b7-7a4f-4db5-bb79-c4d8e80ce83d","ios":"levelo://app?vid=9a2454b7-7a4f-4db5-bb79-c4d8e80ce83d"},"vehicle_type_id":"4","last_reported":1762528270,"current_range_meters":17200,"station_id":"","pricing_plan_id":"cebpf4jnsgd1na2vs0mg"},{"bike_id":"186fcb9d-62b4-469b-aeed-f46bf2dab772","system_id":"levelo_inurba_marseille","lat":43.2986,"lon":5.37496,"is_reserved":false,"is_disabled":false,"rental_uris":{"android":"levelo://app?vid=186fcb9d-62b4-469b-aeed-f46bf2dab772","ios":"levelo://app?vid=186fcb9d-62b4-469b-aeed-f46bf2dab772"},"vehicle_type_id":"4","last_reported":1762528270,"current_range_meters":17200,"station_id":"","pricing_plan_id":"cebpf4jnsgd1na2vs0mg"},{"bike_id":"dc8ed29a-743c-407f-9669-a0d37f9d02b5","system_id":"levelo_inurba_marseille","lat":43.30431,"lon":5.38896,"is_reserved":false,"is_disabled":false,"rental_uris":{"android":"levelo://app?vid=dc8ed29a-743c-407f-9669-a0d37f9d02b5","ios":"levelo://app?vid=dc8ed29a-743c-407f-9669-a0d37f9d02b5"},"vehicle_type_id":"4","last_reported":1762528270,"current_range_meters":17200,"station_id":"ce4bgk12rcd13ifvqbi0","pricing_plan_id":"cebpf4jnsgd1na2vs0mg"},{"bike_id":"6d50bdc0-5f2c-43b6-bf1d-fa91b1758752","system_id":"levelo_inurba_marseille","lat":43.25922,"lon":5.40871,"is_reserved":false,"is_disabled":false,"rental_uris":{"android":"levelo://app?vid=6d50bdc0-5f2c-43b6-bf1d-fa91b1758752","ios":"levelo://app?vid=6d50bdc0-5f2c-43b6-bf1d-fa91b1758752"},"vehicle_type_id":"4","last_reported":1762528270,"current_range_meters":17200,"station_id":"ce4bhm92rcd13ifvqglg","pricing_plan_id":"cebpf4jnsgd1na2vs0mg"},{"bike_id":"a718cc29-6f54-49e3-862a-351d7a32001f","system_id":"levelo_inurba_marseille","lat":43.284887,"lon":5.48412,"is_reserved":false,"is_disabled":false,"rental_uris":{"android":"levelo://app?vid=a718cc29-6f54-49e3-862a-351d7a32001f","ios":"levelo://app?vid=a718cc29-6f54-49e3-862a-351d7a32001f"},"vehicle_type_id":"4","last_reported":1762528270,"current_range_meters":17200,"station_id":"","pricing_plan_id":"cebpf4jnsgd1na2vs0mg"},{"bike_id":"4fda75bb-5bf3-4034-b1e2-7a3b72f369f3","system_id":"levelo_inurba_marseille","lat":43.29275,"lon":5.40144,"is_reserved":false,"is_disabled":false,"rental_uris":{"android":"levelo://app?vid=4fda75bb-5bf3-4034-b1e2-7a3b72f369f3","ios":"levelo://app?vid=4fda75bb-5bf3-4034-b1e2-7a3b72f369f3"},"vehicle_type_id":"4","last_reported":1762528270,"current_range_meters":17600,"station_id":"ce4bh312rcd13ifvqdk0","pricing_plan_id":"cebpf4jnsgd1na2vs0mg"},{"bike_id":"c448769d-72a1-4a2a-80b2-791ccf525608","system_id":"levelo_inurba_marseille","lat":43.25724,"lon":5.41133,"is_reserved":false,"is_disabled":false,"rental_uris":{"android":"levelo://app?vid=c448769d-72a1-4a2a-80b2-791ccf525608","ios":"levelo://app?vid=c448769d-72a1-4a2a-80b2-791ccf525608"},"vehicle_type_id":"4","last_reported":1762528270,"current_range_meters":17600,"station_id":"ce4bhkp2rcd13ifvqgd0","pricing_plan_id":"cebpf4jnsgd1na2vs0mg"},{"bike_id":"03837dd4-9a35-4463-9134-f815a83c59a4","system_id":"levelo_inurba_marseille","lat":43.30254,"lon":5.37318,"is_reserved":false,"is_disabled":false,"rental_uris":{"android":"levelo://app?vid=03837dd4-9a35-4463-9134-f815a83c59a4","ios":"levelo://app?vid=03837dd4-9a35-4463-9134-f815a83c59a4"},"vehicle_type_id":"4","last_reported":1762528270,"current_range_meters":17600,"station_id":"","pricing_plan_id":"cebpf4jnsgd1na2vs0mg"},{"bike_id":"75d7dc47-dceb-471d-8668-ef13189f4f02","system_id":"levelo_inurba_marseille","lat":43.32357,"lon":5.36757,"is_reserved":false,"is_disabled":false,"rental_uris":{"android":"levelo://app?vid=75d7dc47-dceb-471d-8668-ef13189f4f02","ios":"levelo://app?vid=75d7dc47-dceb-471d-8668-ef13189f4f02"},"vehicle_type_id":"4","last_reported":1762528270,"current_range_meters":17600,"station_id":"ce4bhsh2rcd13ifvqi2g","pricing_plan_id":"cebpf4jnsgd1na2vs0mg"},{"bike_id":"fecaee0f-047d-45b0-b02f-8630fb1ab92d","system_id":"levelo_inurba_marseille","lat":43.28574,"lon":5.39511,"is_reserved":false,"is_disabled":false,"rental_uris":{"android":"levelo://app?vid=fecaee0f-047d-45b0-b02f-8630fb1ab92d","ios":"levelo://app?vid=fecaee0f-047d-45b0-b02f-8630fb1ab92d"},"vehicle_type_id":"4","last_reported":1762528270,"current_range_meters":17600,"station_id":"ce4bh292rcd13ifvqdg0","pricing_plan_id":"cebpf4jnsgd1na2vs0mg"},{"bike_id":"7ebd41f0-14ba-41f2-be80-b6741072fa96","system_id":"levelo_inurba_marseille","lat":43.26945,"lon":5.40253,"is_reserved":false,"is_disabled":false,"rental_uris":{"android":"levelo://app?vid=7ebd41f0-14ba-41f2-be80-b6741072fa96","ios":"levelo://app?vid=7ebd41f0-14ba-41f2-be80-b6741072fa96"},"vehicle_type_id":"4","last_reported":1762528270,"current_range_meters":17600,"station_id":"cjm6bp8fraef2m0cb0m0","pricing_plan_id":"cebpf4jnsgd1na2vs0mg"},{"bike_id":"c8695bc6-e68e-4092-9201-167c6acc876b","system_id":"levelo_inurba_marseille","lat":43.23065,"lon":5.35493,"is_reserved":false,"is_disabled":false,"rental_uris":{"android":"levelo://app?vid=c8695bc6-e68e-4092-9201-167c6acc876b","ios":"levelo://app?vid=c8695bc6-e68e-4092-9201-167c6acc876b"},"vehicle_type_id":"4","last_reported":1762528270,"current_range_meters":17600,"station_id":"cpo3342slgdg3j2ifvpg","pricing_plan_id":"cebpf4jnsgd1na2vs0mg"},{"bike_id":"86eb639d-6e69-45fc-a7c8-87aa321cbed3","system_id":"levelo_inurba_marseille","lat":43.30135,"lon":5.37418,"is_reserved":false,"is_disabled":false,"rental_uris":{"android":"levelo://app?vid=86eb639d-6e69-45fc-a7c8-87aa321cbed3","ios":"levelo://app?vid=86eb639d-6e69-45fc-a7c8-87aa321cbed3"},"vehicle_type_id":"4","last_reported":1762528270,"current_range_meters":17600,"station_id":"ce4bgs92rcd13ifvqcc0","pricing_plan_id":"cebpf4jnsgd1na2vs0mg"},{"bike_id":"74bb8ce2-1ec5-4414-94bf-bc4889d1e14c","system_id":"levelo_inurba_marseille","lat":43.3248,"lon":5.39542,"is_reserved":false,"is_disabled":false,"rental_uris":{"android":"levelo://app?vid=74bb8ce2-1ec5-4414-94bf-bc4889d1e14c","ios":"levelo://app?vid=74bb8ce2-1ec5-4414-94bf-bc4889d1e14c"},"vehicle_type_id":"4","last_reported":1762528270,"current_range_meters":17600,"station_id":"","pricing_plan_id":"cebpf4jnsgd1na2vs0mg"},{"bike_id":"819b01ea-e429-401b-994c-15a0900cf40b","system_id":"levelo_inurba_marseille","lat":43.25557,"lon":5.38288,"is_reserved":false,"is_disabled":false,"rental_uris":{"android":"levelo://app?vid=819b01ea-e429-401b-994c-15a0900cf40b","ios":"levelo://app?vid=819b01ea-e429-401b-994c-15a0900cf40b"},"vehicle_type_id":"4","last_reported":1762528270,"current_range_meters":18000,"station_id":"","pricing_plan_id":"cebpf4jnsgd1na2vs0mg"},{"bike_id":"2c601832-3ad7-45cf-8c15-9179e9fef797","system_id":"levelo_inurba_marseille","lat":43.29854,"lon":5.36283,"is_reserved":false,"is_disabled":false,"rental_uris":{"android":"levelo://app?vid=2c601832-3ad7-45cf-8c15-9179e9fef797","ios":"levelo://app?vid=2c601832-3ad7-45cf-8c15-9179e9fef797"},"vehicle_type_id":"4","last_reported":1762528270,"current_range_meters":18000,"station_id":"ce4bgpp2rcd13ifvqc3g","pricing_plan_id":"cebpf4jnsgd1na2vs0mg"},{"bike_id":"6cfa79df-bbf9-4156-bee8-b1c9386967e9","system_id":"levelo_inurba_marseille","lat":43.25866,"lon":5.39903,"is_reserved":false,"is_disabled":false,"rental_uris":{"android":"levelo://app?vid=6cfa79df-bbf9-4156-bee8-b1c9386967e9","ios":"levelo://app?vid=6cfa79df-bbf9-4156-bee8-b1c9386967e9"},"vehicle_type_id":"4","last_reported":1762528270,"current_range_meters":18000,"station_id":"ce4bhl92rcd13ifvqghg","pricing_plan_id":"cebpf4jnsgd1na2vs0mg"},{"bike_id":"9d2aa563-6156-4d97-b3fd-d4b8f3e69240","system_id":"levelo_inurba_marseille","lat":43.27997,"lon":5.41664,"is_reserved":false,"is_disabled":false,"rental_uris":{"android":"levelo://app?vid=9d2aa563-6156-4d97-b3fd-d4b8f3e69240","ios":"levelo://app?vid=9d2aa563-6156-4d97-b3fd-d4b8f3e69240"},"vehicle_type_id":"4","last_reported":1762528270,"current_range_meters":18000,"station_id":"ce4bho12rcd13ifvqh1g","pricing_plan_id":"cebpf4jnsgd1na2vs0mg"},{"bike_id":"a52e199a-b6c0-46a6-81c2-ed40b23c08f7","system_id":"levelo_inurba_marseille","lat":43.242124,"lon":5.367317,"is_reserved":false,"is_disabled":false,"rental_uris":{"android":"levelo://app?vid=a52e199a-b6c0-46a6-81c2-ed40b23c08f7","ios":"levelo://app?vid=a52e199a-b6c0-46a6-81c2-ed40b23c08f7"},"vehicle_type_id":"4","last_reported":1762528270,"current_range_meters":18000,"station_id":"","pricing_plan_id":"cebpf4jnsgd1na2vs0mg"},{"bike_id":"c508dfa6-c4b6-4cea-a4ec-947e346a8310","system_id":"levelo_inurba_marseille","lat":43.33621,"lon":5.41003,"is_reserved":false,"is_disabled":true,"rental_uris":{"android":"levelo://app?vid=c508dfa6-c4b6-4cea-a4ec-947e346a8310","ios":"levelo://app?vid=c508dfa6-c4b6-4cea-a4ec-947e346a8310"},"vehicle_type_id":"4","last_reported":1762528270,"current_range_meters":18000,"station_id":"ce4bhqh2rcd13ifvqhmg","pricing_plan_id":"cebpf4jnsgd1na2vs0mg"},{"bike_id":"5430dbad-1cf4-4aed-b79e-a3de7d44f7f4","system_id":"levelo_inurba_marseille","lat":43.259351,"lon":5.409201,"is_reserved":false,"is_disabled":false,"rental_uris":{"android":"levelo://app?vid=5430dbad-1cf4-4aed-b79e-a3de7d44f7f4","ios":"levelo://app?vid=5430dbad-1cf4-4aed-b79e-a3de7d44f7f4"},"vehicle_type_id":"4","last_reported":1762528270,"current_range_meters":18000,"station_id":"ce4bhm92rcd13ifvqglg","pricing_plan_id":"cebpf4jnsgd1na2vs0mg"},{"bike_id":"9f6ec81b-2246-4666-92ef-add3d889a730","system_id":"levelo_inurba_marseille","lat":43.32349,"lon":5.38522,"is_reserved":false,"is_disabled":false,"rental_uris":{"android":"levelo://app?vid=9f6ec81b-2246-4666-92ef-add3d889a730","ios":"levelo://app?vid=9f6ec81b-2246-4666-92ef-add3d889a730"},"vehicle_type_id":"4","last_reported":1762528270,"current_range_meters":18000,"station_id":"st_d45171o9ee8s73djdqug","pricing_plan_id":"cebpf4jnsgd1na2vs0mg"},{"bike_id":"3fa5a410-a934-45f2-98aa-3e192907514a","system_id":"levelo_inurba_marseille","lat":43.25333,"lon":5.42173,"is_reserved":false,"is_disabled":false,"rental_uris":{"android":"levelo://app?vid=3fa5a410-a934-45f2-98aa-3e192907514a","ios":"levelo://app?vid=3fa5a410-a934-45f2-98aa-3e192907514a"},"vehicle_type_id":"4","last_reported":1762528270,"current_range_meters":18000,"station_id":"st_d2m65c5bi1j21697t3ng","pricing_plan_id":"cebpf4jnsgd1na2vs0mg"},{"bike_id":"58df984d-f6ad-47ef-818a-7818e887c7c9","system_id":"levelo_inurba_marseille","lat":43.30141,"lon":5.43159,"is_reserved":false,"is_disabled":false,"rental_uris":{"android":"levelo://app?vid=58df984d-f6ad-47ef-818a-7818e887c7c9","ios":"levelo://app?vid=58df984d-f6ad-47ef-818a-7818e887c7c9"},"vehicle_type_id":"4","last_reported":1762528270,"current_range_meters":18800,"station_id":"st_d3js3co5814s73ftftug","pricing_plan_id":"cebpf4jnsgd1na2vs0mg"},{"bike_id":"50d66ef6-eee6-446b-89c0-a013e389d618","system_id":"levelo_inurba_marseille","lat":43.299812,"lon":5.384821,"is_reserved":false,"is_disabled":false,"rental_uris":{"android":"levelo://app?vid=50d66ef6-eee6-446b-89c0-a013e389d618","ios":"levelo://app?vid=50d66ef6-eee6-446b-89c0-a013e389d618"},"vehicle_type_id":"4","last_reported":1762528270,"current_range_meters":18800,"station_id":"ce4bgj92rcd13ifvqbd0","pricing_plan_id":"cebpf4jnsgd1na2vs0mg"},{"bike_id":"46545dbe-2a6d-421f-a9de-cf8db169d1ae","system_id":"levelo_inurba_marseille","lat":43.29574,"lon":5.37529,"is_reserved":false,"is_disabled":false,"rental_uris":{"android":"levelo://app?vid=46545dbe-2a6d-421f-a9de-cf8db169d1ae","ios":"levelo://app?vid=46545dbe-2a6d-421f-a9de-cf8db169d1ae"},"vehicle_type_id":"4","last_reported":1762528270,"current_range_meters":18800,"station_id":"ce4bgh92rcd13ifvqb50","pricing_plan_id":"cebpf4jnsgd1na2vs0mg"},{"bike_id":"586b70dd-5ba0-466d-9746-a31ac3aed125","system_id":"levelo_inurba_marseille","lat":43.30435,"lon":5.38883,"is_reserved":false,"is_disabled":false,"rental_uris":{"android":"levelo://app?vid=586b70dd-5ba0-466d-9746-a31ac3aed125","ios":"levelo://app?vid=586b70dd-5ba0-466d-9746-a31ac3aed125"},"vehicle_type_id":"4","last_reported":1762528270,"current_range_meters":18800,"station_id":"ce4bgk12rcd13ifvqbi0","pricing_plan_id":"cebpf4jnsgd1na2vs0mg"},{"bike_id":"106efc4b-3629-4c83-a1c4-3f4ee9d12cb6","system_id":"levelo_inurba_marseille","lat":43.30949,"lon":5.37291,"is_reserved":false,"is_disabled":false,"rental_uris":{"android":"levelo://app?vid=106efc4b-3629-4c83-a1c4-3f4ee9d12cb6","ios":"levelo://app?vid=106efc4b-3629-4c83-a1c4-3f4ee9d12cb6"},"vehicle_type_id":"4","last_reported":1762528270,"current_range_meters":18800,"station_id":"","pricing_plan_id":"cebpf4jnsgd1na2vs0mg"},{"bike_id":"618a4726-5702-4118-be3b-c85332fe096b","system_id":"levelo_inurba_marseille","lat":43.29094,"lon":5.38111,"is_reserved":false,"is_disabled":false,"rental_uris":{"android":"levelo://app?vid=618a4726-5702-4118-be3b-c85332fe096b","ios":"levelo://app?vid=618a4726-5702-4118-be3b-c85332fe096b"},"vehicle_type_id":"4","last_reported":1762528270,"current_range_meters":18800,"station_id":"ce4bh512rcd13ifvqe2g","pricing_plan_id":"cebpf4jnsgd1na2vs0mg"},{"bike_id":"878061ad-be07-4023-9441-7225cc46602a","system_id":"levelo_inurba_marseille","lat":43.292787,"lon":5.401428,"is_reserved":false,"is_disabled":false,"rental_uris":{"android":"levelo://app?vid=878061ad-be07-4023-9441-7225cc46602a","ios":"levelo://app?vid=878061ad-be07-4023-9441-7225cc46602a"},"vehicle_type_id":"4","last_reported":1762528270,"current_range_meters":19200,"station_id":"ce4bh312rcd13ifvqdk0","pricing_plan_id":"cebpf4jnsgd1na2vs0mg"},{"bike_id":"adc728c4-7d88-468c-be89-220c19218372","system_id":"levelo_inurba_marseille","lat":43.311997,"lon":5.37911,"is_reserved":false,"is_disabled":false,"rental_uris":{"android":"levelo://app?vid=adc728c4-7d88-468c-be89-220c19218372","ios":"levelo://app?vid=adc728c4-7d88-468c-be89-220c19218372"},"vehicle_type_id":"4","last_reported":1762528270,"current_range_meters":19200,"station_id":"","pricing_plan_id":"cebpf4jnsgd1na2vs0mg"},{"bike_id":"aca95969-56a5-4b65-a36a-2f4e683e95bf","system_id":"levelo_inurba_marseille","lat":43.304273,"lon":5.388886,"is_reserved":false,"is_disabled":false,"rental_uris":{"android":"levelo://app?vid=aca95969-56a5-4b65-a36a-2f4e683e95bf","ios":"levelo://app?vid=aca95969-56a5-4b65-a36a-2f4e683e95bf"},"vehicle_type_id":"4","last_reported":1762528270,"current_range_meters":19200,"station_id":"ce4bgk12rcd13ifvqbi0","pricing_plan_id":"cebpf4jnsgd1na2vs0mg"},{"bike_id":"5098c842-5e48-40e2-b457-cc6766f8dfac","system_id":"levelo_inurba_marseille","lat":43.25723,"lon":5.41113,"is_reserved":false,"is_disabled":false,"rental_uris":{"android":"levelo://app?vid=5098c842-5e48-40e2-b457-cc6766f8dfac","ios":"levelo://app?vid=5098c842-5e48-40e2-b457-cc6766f8dfac"},"vehicle_type_id":"4","last_reported":1762528270,"current_range_meters":19200,"station_id":"ce4bhkp2rcd13ifvqgd0","pricing_plan_id":"cebpf4jnsgd1na2vs0mg"},{"bike_id":"5ebbfdc4-4988-4f8f-860a-a23e6d29751d","system_id":"levelo_inurba_marseille","lat":43.305338,"lon":5.365316,"is_reserved":false,"is_disabled":false,"rental_uris":{"android":"levelo://app?vid=5ebbfdc4-4988-4f8f-860a-a23e6d29751d","ios":"levelo://app?vid=5ebbfdc4-4988-4f8f-860a-a23e6d29751d"},"vehicle_type_id":"4","last_reported":1762528270,"current_range_meters":19200,"station_id":"ce4bgs12rcd13ifvqcag","pricing_plan_id":"cebpf4jnsgd1na2vs0mg"},{"bike_id":"d2991a60-dcfa-4252-8f9d-bfff4b1dc433","system_id":"levelo_inurba_marseille","lat":43.310485,"lon":5.371379,"is_reserved":false,"is_disabled":false,"rental_uris":{"android":"levelo://app?vid=d2991a60-dcfa-4252-8f9d-bfff4b1dc433","ios":"levelo://app?vid=d2991a60-dcfa-4252-8f9d-bfff4b1dc433"},"vehicle_type_id":"4","last_reported":1762528270,"current_range_meters":19200,"station_id":"","pricing_plan_id":"cebpf4jnsgd1na2vs0mg"},{"bike_id":"4bce02cb-bdba-488a-a39f-eae80d4c7da8","system_id":"levelo_inurba_marseille","lat":43.28229,"lon":5.39047,"is_reserved":false,"is_disabled":true,"rental_uris":{"android":"levelo://app?vid=4bce02cb-bdba-488a-a39f-eae80d4c7da8","ios":"levelo://app?vid=4bce02cb-bdba-488a-a39f-eae80d4c7da8"},"vehicle_type_id":"4","last_reported":1762528270,"current_range_meters":19200,"station_id":"ce4bhn92rcd13ifvqgsg","pricing_plan_id":"cebpf4jnsgd1na2vs0mg"},{"bike_id":"e270f0db-93b9-4456-a5ae-4ac7765b3816","system_id":"levelo_inurba_marseille","lat":43.30494,"lon":5.36506,"is_reserved":false,"is_disabled":false,"rental_uris":{"android":"levelo://app?vid=e270f0db-93b9-4456-a5ae-4ac7765b3816","ios":"levelo://app?vid=e270f0db-93b9-4456-a5ae-4ac7765b3816"},"vehicle_type_id":"4","last_reported":1762528270,"current_range_meters":19600,"station_id":"","pricing_plan_id":"cebpf4jnsgd1na2vs0mg"},{"bike_id":"1412b764-fe23-4e42-aabe-9400f3317768","system_id":"levelo_inurba_marseille","lat":43.27053,"lon":5.40274,"is_reserved":false,"is_disabled":false,"rental_uris":{"android":"levelo://app?vid=1412b764-fe23-4e42-aabe-9400f3317768","ios":"levelo://app?vid=1412b764-fe23-4e42-aabe-9400f3317768"},"vehicle_type_id":"4","last_reported":1762528270,"current_range_meters":19600,"station_id":"ce4bhk92rcd13ifvqgc0","pricing_plan_id":"cebpf4jnsgd1na2vs0mg"},{"bike_id":"37f66d24-38a9-4e48-9ccc-911dcfffe98a","system_id":"levelo_inurba_marseille","lat":43.31318,"lon":5.39701,"is_reserved":false,"is_disabled":false,"rental_uris":{"android":"levelo://app?vid=37f66d24-38a9-4e48-9ccc-911dcfffe98a","ios":"levelo://app?vid=37f66d24-38a9-4e48-9ccc-911dcfffe98a"},"vehicle_type_id":"4","last_reported":1762528270,"current_range_meters":19600,"station_id":"ce4bgvp2rcd13ifvqcu0","pricing_plan_id":"cebpf4jnsgd1na2vs0mg"},{"bike_id":"0459bf9f-ddf9-462d-a5cc-0e51ff37cec4","system_id":"levelo_inurba_marseille","lat":43.304285,"lon":5.388926,"is_reserved":false,"is_disabled":false,"rental_uris":{"android":"levelo://app?vid=0459bf9f-ddf9-462d-a5cc-0e51ff37cec4","ios":"levelo://app?vid=0459bf9f-ddf9-462d-a5cc-0e51ff37cec4"},"vehicle_type_id":"4","last_reported":1762528270,"current_range_meters":19600,"station_id":"ce4bgk12rcd13ifvqbi0","pricing_plan_id":"cebpf4jnsgd1na2vs0mg"},{"bike_id":"a687018a-85a5-4072-8d5f-9857a9f91fac","system_id":"levelo_inurba_marseille","lat":43.249486,"lon":5.404927,"is_reserved":false,"is_disabled":false,"rental_uris":{"android":"levelo://app?vid=a687018a-85a5-4072-8d5f-9857a9f91fac","ios":"levelo://app?vid=a687018a-85a5-4072-8d5f-9857a9f91fac"},"vehicle_type_id":"4","last_reported":1762528270,"current_range_meters":19600,"station_id":"st_d2ngiaodas8pm72gd1h0","pricing_plan_id":"cebpf4jnsgd1na2vs0mg"},{"bike_id":"01b612c9-e2ea-4120-a543-ea80b7d0582c","system_id":"levelo_inurba_marseille","lat":43.32676,"lon":5.39215,"is_reserved":false,"is_disabled":false,"rental_uris":{"android":"levelo://app?vid=01b612c9-e2ea-4120-a543-ea80b7d0582c","ios":"levelo://app?vid=01b612c9-e2ea-4120-a543-ea80b7d0582c"},"vehicle_type_id":"4","last_reported":1762528270,"current_range_meters":19600,"station_id":"","pricing_plan_id":"cebpf4jnsgd1na2vs0mg"},{"bike_id":"1f05e857-ea4f-4c1b-86e8-28c99add47ba","system_id":"levelo_inurba_marseille","lat":43.27546,"lon":5.40911,"is_reserved":false,"is_disabled":false,"rental_uris":{"android":"levelo://app?vid=1f05e857-ea4f-4c1b-86e8-28c99add47ba","ios":"levelo://app?vid=1f05e857-ea4f-4c1b-86e8-28c99add47ba"},"vehicle_type_id":"4","last_reported":1762528270,"current_range_meters":19600,"station_id":"","pricing_plan_id":"cebpf4jnsgd1na2vs0mg"},{"bike_id":"dfb2df2b-d0cd-4100-b1a8-68e18301d8c8","system_id":"levelo_inurba_marseille","lat":43.26569,"lon":5.3901,"is_reserved":false,"is_disabled":false,"rental_uris":{"android":"levelo://app?vid=dfb2df2b-d0cd-4100-b1a8-68e18301d8c8","ios":"levelo://app?vid=dfb2df2b-d0cd-4100-b1a8-68e18301d8c8"},"vehicle_type_id":"4","last_reported":1762528270,"current_range_meters":19600,"station_id":"ce4bhe12rcd13ifvqf30","pricing_plan_id":"cebpf4jnsgd1na2vs0mg"},{"bike_id":"56838a18-a6e8-4ac2-862b-fbfb17c35d52","system_id":"levelo_inurba_marseille","lat":43.3014,"lon":5.37423,"is_reserved":false,"is_disabled":false,"rental_uris":{"android":"levelo://app?vid=56838a18-a6e8-4ac2-862b-fbfb17c35d52","ios":"levelo://app?vid=56838a18-a6e8-4ac2-862b-fbfb17c35d52"},"vehicle_type_id":"4","last_reported":1762528270,"current_range_meters":20000,"station_id":"ce4bgs92rcd13ifvqcc0","pricing_plan_id":"cebpf4jnsgd1na2vs0mg"},{"bike_id":"d9406ae0-a7d7-4070-8130-6f1d39eec4aa","system_id":"levelo_inurba_marseille","lat":43.28607,"lon":5.37066,"is_reserved":false,"is_disabled":false,"rental_uris":{"android":"levelo://app?vid=d9406ae0-a7d7-4070-8130-6f1d39eec4aa","ios":"levelo://app?vid=d9406ae0-a7d7-4070-8130-6f1d39eec4aa"},"vehicle_type_id":"4","last_reported":1762528270,"current_range_meters":20000,"station_id":"ce4bht12rcd13ifvqi60","pricing_plan_id":"cebpf4jnsgd1na2vs0mg"},{"bike_id":"5ae7b0d8-fb9a-4e0b-aa8b-a55d096f306b","system_id":"levelo_inurba_marseille","lat":43.30474,"lon":5.36843,"is_reserved":false,"is_disabled":false,"rental_uris":{"android":"levelo://app?vid=5ae7b0d8-fb9a-4e0b-aa8b-a55d096f306b","ios":"levelo://app?vid=5ae7b0d8-fb9a-4e0b-aa8b-a55d096f306b"},"vehicle_type_id":"4","last_reported":1762528270,"current_range_meters":20000,"station_id":"","pricing_plan_id":"cebpf4jnsgd1na2vs0mg"},{"bike_id":"43142141-5182-4a47-b4b0-210adcec4b5f","system_id":"levelo_inurba_marseille","lat":43.28074,"lon":5.39659,"is_reserved":false,"is_disabled":false,"rental_uris":{"android":"levelo://app?vid=43142141-5182-4a47-b4b0-210adcec4b5f","ios":"levelo://app?vid=43142141-5182-4a47-b4b0-210adcec4b5f"},"vehicle_type_id":"4","last_reported":1762528270,"current_range_meters":20000,"station_id":"ce4bho12rcd13ifvqh2g","pricing_plan_id":"cebpf4jnsgd1na2vs0mg"},