{"last_updated":1700993194,"ttl":30,"version":"2.2","data":{"bikes":[{"bike_id":"9bb3aed6-04a2-416b-91ff-1eea210cf50e","system_id":"levelo_inurba_marseille","lat":43.30597,"lon":5.365663,"is_reserved":false,"is_disabled":false,"rental_uris":{"android":"levelo://app?vid=9bb3aed6-04a2-416b-91ff-1eea210cf50e","ios":"levelo://app?vid=9bb3aed6-04a2-416b-91ff-1eea210cf50e"},"vehicle_type_id":"4","last_reported":1700993194,"current_range_meters":0,"station_id":"ce4bgs12rcd13ifvqcag","pricing_plan_id":"free"},{"bike_id":"658d29b0-08c1-4e20-a094-40c9ebef41ff","system_id":"levelo_inurba_marseille","lat":43.305712,"lon":5.365641,"is_reserved":false,"is_disabled":false,"rental_uris":{"android":"levelo://app?vid=658d29b0-08c1-4e20-a094-40c9ebef41ff","ios":"levelo://app?vid=658d29b0-08c1-4e20-a094-40c9ebef41ff"},"vehicle_type_id":"4","last_reported":1700993194,"current_range_meters":28000,"station_id":"ce4bgs12rcd13ifvqcag","pricing_plan_id":"free"},{"bike_id":"06e3f40f-628b-4768-9fe0-67d208579014","system_id":"levelo_inurba_marseille","lat":43.305712,"lon":5.365641,"is_reserved":false,"is_disabled":false,"rental_uris":{"android":"levelo://app?vid=06e3f40f-628b-4768-9fe0-67d208579014","ios":"levelo://app?vid=06e3f40f-628b-4768-9fe0-67d208579014"},"vehicle_type_id":"4","last_reported":1700993194,"current_range_meters":26800,"station_id":"ce4bgs12rcd13ifvqcag","pricing_plan_id":"free"},{"bike_id":"bdc51e8a-d4d9-414d-83ee-10c3742da7a8","system_id":"levelo_inurba_marseille","lat":43.305712,"lon":5.365641,"is_reserved":false,"is_disabled":false,"rental_uris":{"android":"levelo://app?vid=bdc51e8a-d4d9-414d-83ee-10c3742da7a8","ios":"levelo://app?vid=bdc51e8a-d4d9-414d-83ee-10c3742da7a8"},"vehicle_type_id":"4","last_reported":1700993194,"current_range_meters":26800,"station_id":"ce4bgs12rcd13ifvqcag","pricing_plan_id":"free"},{"bike_id":"80d06449-5422-4d48-a742-df6bc3bf76ee","system_id":"levelo_inurba_marseille","lat":43.305714,"lon":5.365633,"is_reserved":false,"is_disabled":false,"rental_uris":{"android":"levelo://app?vid=80d06449-5422-4d48-a742-df6bc3bf76ee","ios":"levelo://app?vid=80d06449-5422-4d48-a742-df6bc3bf76ee"},"vehicle_type_id":"4","last_reported":1700993194,"current_range_meters":27200,"station_id":"ce4bgs12rcd13ifvqcag","pricing_plan_id":"free"},{"bike_id":"a932a651-3e92-4939-b62e-bcc0502f07b0","system_id":"levelo_inurba_marseille","lat":43.305706,"lon":5.365654,"is_reserved":false,"is_disabled":false,"rental_uris":{"android":"levelo://app?vid=a932a651-3e92-4939-b62e-bcc0502f07b0","ios":"levelo://app?vid=a932a651-3e92-4939-b62e-bcc0502f07b0"},"vehicle_type_id":"4","last_reported":1700993194,"current_range_meters":24000,"station_id":"ce4bgs12rcd13ifvqcag","pricing_plan_id":"free"},{"bike_id":"6513f7a6-9d89-4ce0-b604-777c72f2af23","system_id":"levelo_inurba_marseille","lat":43.305706,"lon":5.365654,"is_reserved":false,"is_disabled":false,"rental_uris":{"android":"levelo://app?vid=6513f7a6-9d89-4ce0-b604-777c72f2af23","ios":"levelo://app?vid=6513f7a6-9d89-4ce0-b604-777c72f2af23"},"vehicle_type_id":"4","last_reported":1700993194,"current_range_meters":27200,"station_id":"ce4bgs12rcd13ifvqcag","pricing_plan_id":"free"},{"bike_id":"2eb2a494-c403-44eb-b9e6-df0e690298e4","system_id":"levelo_inurba_marseille","lat":43.305706,"lon":5.365654,"is_reserved":false,"is_disabled":false,"rental_uris":{"android":"levelo://app?vid=2eb2a494-c403-44eb-b9e6-df0e690298e4","ios":"levelo://app?vid=2eb2a494-c403-44eb-b9e6-df0e690298e4"},"vehicle_type_id":"4","last_reported":1700993194,"current_range_meters":29600,"station_id":"ce4bgs12rcd13ifvqcag","pricing_plan_id":"free"},{"bike_id":"ca0ce7db-d021-4449-8ce6-e64cab0f043b","system_id":"levelo_inurba_marseille","lat":43.305989,"lon":5.37225,"is_reserved":false,"is_disabled":false,"rental_uris":{"android":"levelo://app?vid=ca0ce7db-d021-4449-8ce6-e64cab0f043b","ios":"levelo://app?vid=ca0ce7db-d021-4449-8ce6-e64cab0f043b"},"vehicle_type_id":"4","last_reported":1700993194,"current_range_meters":27200,"station_id":"ce4bgqh2rcd13ifvqc4g","pricing_plan_id":"free"},{"bike_id":"573a870a-b6c4-429d-8587-8103772b84bc","system_id":"levelo_inurba_marseille","lat":43.308166,"lon":5.376609,"is_reserved":false,"is_disabled":false,"rental_uris":{"android":"levelo://app?vid=573a870a-b6c4-429d-8587-8103772b84bc","ios":"levelo://app?vid=573a870a-b6c4-429d-8587-8103772b84bc"},"vehicle_type_id":"4","last_reported":1700993194,"current_range_meters":1200,"station_id":"ce4bgv92rcd13ifvqcq0","pricing_plan_id":"free"},{"bike_id":"844ba463-924b-4262-9802-236136549dc7","system_id":"levelo_inurba_marseille","lat":43.307945,"lon":5.376487,"is_reserved":false,"is_disabled":false,"rental_uris":{"android":"levelo://app?vid=844ba463-924b-4262-9802-236136549dc7","ios":"levelo://app?vid=844ba463-924b-4262-9802-236136549dc7"},"vehicle_type_id":"4","last_reported":1700993194,"current_range_meters":14800,"station_id":"ce4bgv92rcd13ifvqcq0","pricing_plan_id":"free"},{"bike_id":"f427a2c3-6e4a-446b-ae2f-9be8aa7f4122","system_id":"levelo_inurba_marseille","lat":43.31719,"lon":5.376813,"is_reserved":false,"is_disabled":false,"rental_uris":{"android":"levelo://app?vid=f427a2c3-6e4a-446b-ae2f-9be8aa7f4122","ios":"levelo://app?vid=f427a2c3-6e4a-446b-ae2f-9be8aa7f4122"},"vehicle_type_id":"4","last_reported":1700993194,"current_range_meters":21600,"station_id":"ce4bgth2rcd13ifvqch0","pricing_plan_id":"free"},{"bike_id":"b898b018-f57d-4901-bab2-fdd15d391de9","system_id":"levelo_inurba_marseille","lat":43.317168,"lon":5.376883,"is_reserved":false,"is_disabled":false,"rental_uris":{"android":"levelo://app?vid=b898b018-f57d-4901-bab2-fdd15d391de9","ios":"levelo://app?vid=b898b018-f57d-4901-bab2-fdd15d391de9"},"vehicle_type_id":"4","last_reported":1700993194,"current_range_meters":24000,"station_id":"ce4bgth2rcd13ifvqch0","pricing_plan_id":"free"},{"bike_id":"7e827c43-93c9-43ca-97fa-45fab2b71089","system_id":"levelo_inurba_marseille","lat":43.301939,"lon":5.366286,"is_reserved":false,"is_disabled":false,"rental_uris":{"android":"levelo://app?vid=7e827c43-93c9-43ca-97fa-45fab2b71089","ios":"levelo://app?vid=7e827c43-93c9-43ca-97fa-45fab2b71089"},"vehicle_type_id":"4","last_reported":1700993194,"current_range_meters":28800,"station_id":"ce4bgrh2rcd13ifvqc8g","pricing_plan_id":"free"},{"bike_id":"88e997ac-67ed-4b29-b6ae-5b4e1b0ab96c","system_id":"levelo_inurba_marseille","lat":43.304606,"lon":5.379026,"is_reserved":false,"is_disabled":false,"rental_uris":{"android":"levelo://app?vid=88e997ac-67ed-4b29-b6ae-5b4e1b0ab96c","ios":"levelo://app?vid=88e997ac-67ed-4b29-b6ae-5b4e1b0ab96c"},"vehicle_type_id":"4","last_reported":1700993194,"current_range_meters":31200,"station_id":"ce4bgup2rcd13ifvqcn0","pricing_plan_id":"free"},{"bike_id":"37b33645-89d7-4706-ad67-8561aeaa3082","system_id":"levelo_inurba_marseille","lat":43.313616,"lon":5.385023,"is_reserved":false,"is_disabled":false,"rental_uris":{"android":"levelo://app?vid=37b33645-89d7-4706-ad67-8561aeaa3082","ios":"levelo://app?vid=37b33645-89d7-4706-ad67-8561aeaa3082"},"vehicle_type_id":"4","last_reported":1700993194,"current_range_meters":0,"station_id":"ce4bgt92rcd13ifvqcf0","pricing_plan_id":"free"},{"bike_id":"3c0f0e03-19e8-4b31-9bda-a925ec1d2126","system_id":"levelo_inurba_marseille","lat":43.298433,"lon":5.362774,"is_reserved":false,"is_disabled":false,"rental_uris":{"android":"levelo://app?vid=3c0f0e03-19e8-4b31-9bda-a925ec1d2126","ios":"levelo://app?vid=3c0f0e03-19e8-4b31-9bda-a925ec1d2126"},"vehicle_type_id":"4","last_reported":1700993194,"current_range_meters":1600,"station_id":"ce4bgpp2rcd13ifvqc3g","pricing_plan_id":"free"},{"bike_id":"4d1176d8-d007-45e5-b023-1ed1f1fa9ddc","system_id":"levelo_inurba_marseille","lat":43.298433,"lon":5.362774,"is_reserved":false,"is_disabled":false,"rental_uris":{"android":"levelo://app?vid=4d1176d8-d007-45e5-b023-1ed1f1fa9ddc","ios":"levelo://app?vid=4d1176d8-d007-45e5-b023-1ed1f1fa9ddc"},"vehicle_type_id":"4","last_reported":1700993194,"current_range_meters":24000,"station_id":"ce4bgpp2rcd13ifvqc3g","pricing_plan_id":"free"},{"bike_id":"e7f47ecb-a43c-4a16-9ad6-cc6de4f6da1a","system_id":"levelo_inurba_marseille","lat":43.298433,"lon":5.362774,"is_reserved":false,"is_disabled":false,"rental_uris":{"android":"levelo://app?vid=e7f47ecb-a43c-4a16-9ad6-cc6de4f6da1a","ios":"levelo://app?vid=e7f47ecb-a43c-4a16-9ad6-cc6de4f6da1a"},"vehicle_type_id":"4","last_reported":1700993194,"current_range_meters":16800,"station_id":"ce4bgpp2rcd13ifvqc3g","pricing_plan_id":"free"},{"bike_id":"148d2f75-f777-4f2c-bae0-fa6e972ee9d8","system_id":"levelo_inurba_marseille","lat":43.298433,"lon":5.362774,"is_reserved":false,"is_disabled":false,"rental_uris":{"android":"levelo://app?vid=148d2f75-f777-4f2c-bae0-fa6e972ee9d8","ios":"levelo://app?vid=148d2f75-f777-4f2c-bae0-fa6e972ee9d8"},"vehicle_type_id":"4","last_reported":1700993194,"current_range_meters":17200,"station_id":"ce4bgpp2rcd13ifvqc3g","pricing_plan_id":"free"},{"bike_id":"8030f81c-d518-4d48-bae0-5e65620b880d","system_id":"levelo_inurba_marseille","lat":43.298433,"lon":5.362774,"is_reserved":false,"is_disabled":false,"rental_uris":{"android":"levelo://app?vid=8030f81c-d518-4d48-bae0-5e65620b880d","ios":"levelo://app?vid=8030f81c-d518-4d48-bae0-5e65620b880d"},"vehicle_type_id":"4","last_reported":1700993194,"current_range_meters":26800,"station_id":"ce4bgpp2rcd13ifvqc3g","pricing_plan_id":"free"},{"bike_id":"e34abba7-4bb3-462d-9f2a-9c6650390a41","system_id":"levelo_inurba_marseille","lat":43.305364,"lon":5.384119,"is_reserved":false,"is_disabled":false,"rental_uris":{"android":"levelo://app?vid=e34abba7-4bb3-462d-9f2a-9c6650390a41","ios":"levelo://app?vid=e34abba7-4bb3-462d-9f2a-9c6650390a41"},"vehicle_type_id":"4","last_reported":1700993194,"current_range_meters":30000,"station_id":"ce4bgg92rcd13ifvqb30","pricing_plan_id":"free"},{"bike_id":"828e663a-c34d-45d1-849c-ab680196da69","system_id":"levelo_inurba_marseille","lat":43.298433,"lon":5.362774,"is_reserved":false,"is_disabled":false,"rental_uris":{"android":"levelo://app?vid=828e663a-c34d-45d1-849c-ab680196da69","ios":"levelo://app?vid=828e663a-c34d-45d1-849c-ab680196da69"},"vehicle_type_id":"4","last_reported":1700993194,"current_range_meters":27200,"station_id":"ce4bgpp2rcd13ifvqc3g","pricing_plan_id":"free"},{"bike_id":"4084e26a-4a5b-4c30-a290-34faaca8cb02","system_id":"levelo_inurba_marseille","lat":43.298433,"lon":5.362774,"is_reserved":false,"is_disabled":false,"rental_uris":{"android":"levelo://app?vid=4084e26a-4a5b-4c30-a290-34faaca8cb02","ios":"levelo://app?vid=4084e26a-4a5b-4c30-a290-34faaca8cb02"},"vehicle_type_id":"4","last_reported":1700993194,"current_range_meters":29600,"station_id":"ce4bgpp2rcd13ifvqc3g","pricing_plan_id":"free"},{"bike_id":"7af6db02-e034-4701-a80e-f5bc0d145240","system_id":"levelo_inurba_marseille","lat":43.299243,"lon":5.37481,"is_reserved":false,"is_disabled":false,"rental_uris":{"android":"levelo://app?vid=7af6db02-e034-4701-a80e-f5bc0d145240","ios":"levelo://app?vid=7af6db02-e034-4701-a80e-f5bc0d145240"},"vehicle_type_id":"4","last_reported":1700993194,"current_range_meters":30800,"station_id":"ce4bgjh2rcd13ifvqbg0","pricing_plan_id":"free"},{"bike_id":"03c4961a-a76b-4778-9210-9d2dfeae6e75","system_id":"levelo_inurba_marseille","lat":43.299243,"lon":5.374807,"is_reserved":false,"is_disabled":false,"rental_uris":{"android":"levelo://app?vid=03c4961a-a76b-4778-9210-9d2dfeae6e75","ios":"levelo://app?vid=03c4961a-a76b-4778-9210-9d2dfeae6e75"},"vehicle_type_id":"4","last_reported":1700993194,"current_range_meters":7200,"station_id":"ce4bgjh2rcd13ifvqbg0","pricing_plan_id":"free"},{"bike_id":"8767343d-8cea-4c53-932d-334baf310059","system_id":"levelo_inurba_marseille","lat":43.297774,"lon":5.370875,"is_reserved":false,"is_disabled":false,"rental_uris":{"android":"levelo://app?vid=8767343d-8cea-4c53-932d-334baf310059","ios":"levelo://app?vid=8767343d-8cea-4c53-932d-334baf310059"},"vehicle_type_id":"4","last_reported":1700993194,"current_range_meters":28000,"station_id":"ce4bgop2rcd13ifvqc1g","pricing_plan_id":"free"},{"bike_id":"2b2a085b-0ba0-4e47-b8c0-ed9727b31028","system_id":"levelo_inurba_marseille","lat":43.2968,"lon":5.37291,"is_reserved":false,"is_disabled":false,"rental_uris":{"android":"levelo://app?vid=2b2a085b-0ba0-4e47-b8c0-ed9727b31028","ios":"levelo://app?vid=2b2a085b-0ba0-4e47-b8c0-ed9727b31028"},"vehicle_type_id":"4","last_reported":1700993194,"current_range_meters":26000,"station_id":"ce4bgk12rcd13ifvqbj0","pricing_plan_id":"free"},{"bike_id":"6e00c2e6-34a3-49c8-9519-5fcc8881755d","system_id":"levelo_inurba_marseille","lat":43.296131,"lon":5.370791,"is_reserved":false,"is_disabled":false,"rental_uris":{"android":"levelo://app?vid=6e00c2e6-34a3-49c8-9519-5fcc8881755d","ios":"levelo://app?vid=6e00c2e6-34a3-49c8-9519-5fcc8881755d"},"vehicle_type_id":"4","last_reported":1700993194,"current_range_meters":31200,"station_id":"ce4bgnh2rcd13ifvqc0g","pricing_plan_id":"free"},{"bike_id":"74a6eadd-de0a-4852-9bfa-c9dd403c0892","system_id":"levelo_inurba_marseille","lat":43.29573,"lon":5.367355,"is_reserved":false,"is_disabled":false,"rental_uris":{"android":"levelo://app?vid=74a6eadd-de0a-4852-9bfa-c9dd403c0892","ios":"levelo://app?vid=74a6eadd-de0a-4852-9bfa-c9dd403c0892"},"vehicle_type_id":"4","last_reported":1700993194,"current_range_meters":30000,"station_id":"ce4bgph2rcd13ifvqc2g","pricing_plan_id":"free"},{"bike_id":"663d21e8-2e74-4084-92c9-81d38f995fd9","system_id":"levelo_inurba_marseille","lat":43.29573,"lon":5.367355,"is_reserved":false,"is_disabled":false,"rental_uris":{"android":"levelo://app?vid=663d21e8-2e74-4084-92c9-81d38f995fd9","ios":"levelo://app?vid=663d21e8-2e74-4084-92c9-81d38f995fd9"},"vehicle_type_id":"4","last_reported":1700993194,"current_range_meters":31600,"station_id":"ce4bgph2rcd13ifvqc2g","pricing_plan_id":"free"},{"bike_id":"58034286-d764-400c-92dc-17f57034801c","system_id":"levelo_inurba_marseille","lat":43.29573,"lon":5.367355,"is_reserved":false,"is_disabled":false,"rental_uris":{"android":"levelo://app?vid=58034286-d764-400c-92dc-17f57034801c","ios":"levelo://app?vid=58034286-d764-400c-92dc-17f57034801c"},"vehicle_type_id":"4","last_reported":1700993194,"current_range_meters":31600,"station_id":"ce4bgph2rcd13ifvqc2g","pricing_plan_id":"free"},{"bike_id":"b8f8084c-3862-4d7e-96dd-7313cbf34a87","system_id":"levelo_inurba_marseille","lat":43.296131,"lon":5.370791,"is_reserved":false,"is_disabled":false,"rental_uris":{"android":"levelo://app?vid=b8f8084c-3862-4d7e-96dd-7313cbf34a87","ios":"levelo://app?vid=b8f8084c-3862-4d7e-96dd-7313cbf34a87"},"vehicle_type_id":"4","last_reported":1700993194,"current_range_meters":31600,"station_id":"ce4bgnh2rcd13ifvqc0g","pricing_plan_id":"free"},{"bike_id":"995d6062-015c-48cc-ba4f-7e0f5ccd6bcf","system_id":"levelo_inurba_marseille","lat":43.296131,"lon":5.370791,"is_reserved":false,"is_disabled":false,"rental_uris":{"android":"levelo://app?vid=995d6062-015c-48cc-ba4f-7e0f5ccd6bcf","ios":"levelo://app?vid=995d6062-015c-48cc-ba4f-7e0f5ccd6bcf"},"vehicle_type_id":"4","last_reported":1700993194,"current_range_meters":22800,"station_id":"ce4bgnh2rcd13ifvqc0g","pricing_plan_id":"free"},{"bike_id":"2ed359b4-f75c-48f2-a0c8-62dcf4c5ade5","system_id":"levelo_inurba_marseille","lat":43.29573,"lon":5.367355,"is_reserved":false,"is_disabled":false,"rental_uris":{"android":"levelo://app?vid=2ed359b4-f75c-48f2-a0c8-62dcf4c5ade5","ios":"levelo://app?vid=2ed359b4-f75c-48f2-a0c8-62dcf4c5ade5"},"vehicle_type_id":"4","last_reported":1700993194,"current_range_meters":29200,"station_id":"ce4bgph2rcd13ifvqc2g","pricing_plan_id":"free"},{"bike_id":"b1e22c6c-5113-4ef3-a28e-b67cbfef7a27","system_id":"levelo_inurba_marseille","lat":43.29573,"lon":5.367355,"is_reserved":false,"is_disabled":false,"rental_uris":{"android":"levelo://app?vid=b1e22c6c-5113-4ef3-a28e-b67cbfef7a27","ios":"levelo://app?vid=b1e22c6c-5113-4ef3-a28e-b67cbfef7a27"},"vehicle_type_id":"4","last_reported":1700993194,"current_range_meters":22800,"station_id":"ce4bgph2rcd13ifvqc2g","pricing_plan_id":"free"},{"bike_id":"24d56c22-6c01-459b-acc1-6e8225731a8b","system_id":"levelo_inurba_marseille","lat":43.29573,"lon":5.367355,"is_reserved":false,"is_disabled":false,"rental_uris":{"android":"levelo://app?vid=24d56c22-6c01-459b-acc1-6e8225731a8b","ios":"levelo://app?vid=24d56c22-6c01-459b-acc1-6e8225731a8b"},"vehicle_type_id":"4","last_reported":1700993194,"current_range_meters":4000,"station_id":"ce4bgph2rcd13ifvqc2g","pricing_plan_id":"free"},{"bike_id":"8db9fa52-a84f-4b79-873d-a9ae31dde132","system_id":"levelo_inurba_marseille","lat":43.29573,"lon":5.367355,"is_reserved":false,"is_disabled":false,"rental_uris":{"android":"levelo://app?vid=8db9fa52-a84f-4b79-873d-a9ae31dde132","ios":"levelo://app?vid=8db9fa52-a84f-4b79-873d-a9ae31dde132"},"vehicle_type_id":"4","last_reported":1700993194,"current_range_meters":26800,"station_id":"ce4bgph2rcd13ifvqc2g","pricing_plan_id":"free"},{"bike_id":"a29e12f4-b518-4a8a-83e5-3c8a57b4c753","system_id":"levelo_inurba_marseille","lat":43.29573,"lon":5.367355,"is_reserved":false,"is_disabled":false,"rental_uris":{"android":"levelo://app?vid=a29e12f4-b518-4a8a-83e5-3c8a57b4c753","ios":"levelo://app?vid=a29e12f4-b518-4a8a-83e5-3c8a57b4c753"},"vehicle_type_id":"4","last_reported":1700993194,"current_range_meters":31600,"station_id":"ce4bgph2rcd13ifvqc2g","pricing_plan_id":"free"},{"bike_id":"b77d9349-bff7-4efd-8702-284a33bdb9a5","system_id":"levelo_inurba_marseille","lat":43.299028,"lon":5.381509,"is_reserved":false,"is_disabled":false,"rental_uris":{"android":"levelo://app?vid=b77d9349-bff7-4efd-8702-284a33bdb9a5","ios":"levelo://app?vid=b77d9349-bff7-4efd-8702-284a33bdb9a5"},"vehicle_type_id":"4","last_reported":1700993194,"current_range_meters":22800,"station_id":"ce4bgj12rcd13ifvqbc0","pricing_plan_id":"free"},{"bike_id":"6fab0db8-8b4f-4d80-bd31-f029a0512df3","system_id":"levelo_inurba_marseille","lat":43.309589,"lon":5.390258,"is_reserved":false,"is_disabled":false,"rental_uris":{"android":"levelo://app?vid=6fab0db8-8b4f-4d80-bd31-f029a0512df3","ios":"levelo://app?vid=6fab0db8-8b4f-4d80-bd31-f029a0512df3"},"vehicle_type_id":"4","last_reported":1700993194,"current_range_meters":20000,"station_id":"ce4bgup2rcd13ifvqco0","pricing_plan_id":"free"},{"bike_id":"1bc86828-f83e-47df-8ac0-2a5119e89cd8","system_id":"levelo_inurba_marseille","lat":43.309589,"lon":5.390258,"is_reserved":false,"is_disabled":false,"rental_uris":{"android":"levelo://app?vid=1bc86828-f83e-47df-8ac0-2a5119e89cd8","ios":"levelo://app?vid=1bc86828-f83e-47df-8ac0-2a5119e89cd8"},"vehicle_type_id":"4","last_reported":1700993194,"current_range_meters":10400,"station_id":"ce4bgup2rcd13ifvqco0","pricing_plan_id":"free"},{"bike_id":"11899e7d-f7f7-4e71-968c-0189eb365dba","system_id":"levelo_inurba_marseille","lat":43.309589,"lon":5.390258,"is_reserved":false,"is_disabled":false,"rental_uris":{"android":"levelo://app?vid=11899e7d-f7f7-4e71-968c-0189eb365dba","ios":"levelo://app?vid=11899e7d-f7f7-4e71-968c-0189eb365dba"},"vehicle_type_id":"4","last_reported":1700993194,"current_range_meters":25200,"station_id":"ce4bgup2rcd13ifvqco0","pricing_plan_id":"free"},{"bike_id":"59325f66-debe-4977-a696-a4277a1e4ae6","system_id":"levelo_inurba_marseille","lat":43.309589,"lon":5.390258,"is_reserved":false,"is_disabled":false,"rental_uris":{"android":"levelo://app?vid=59325f66-debe-4977-a696-a4277a1e4ae6","ios":"levelo://app?vid=59325f66-debe-4977-a696-a4277a1e4ae6"},"vehicle_type_id":"4","last_reported":1700993194,"current_range_meters":23200,"station_id":"ce4bgup2rcd13ifvqco0","pricing_plan_id":"free"},{"bike_id":"dc248261-1e92-4e31-aed7-98302191d91b","system_id":"levelo_inurba_marseille","lat":43.309589,"lon":5.390258,"is_reserved":false,"is_disabled":false,"rental_uris":{"android":"levelo://app?vid=dc248261-1e92-4e31-aed7-98302191d91b","ios":"levelo://app?vid=dc248261-1e92-4e31-aed7-98302191d91b"},"vehicle_type_id":"4","last_reported":1700993194,"current_range_meters":18400,"station_id":"ce4bgup2rcd13ifvqco0","pricing_plan_id":"free"},{"bike_id":"78f7cadb-d3cd-45cf-94ab-bcb5586ceec2","system_id":"levelo_inurba_marseille","lat":43.295748,"lon":5.37522,"is_reserved":false,"is_disabled":false,"rental_uris":{"android":"levelo://app?vid=78f7cadb-d3cd-45cf-94ab-bcb5586ceec2","ios":"levelo://app?vid=78f7cadb-d3cd-45cf-94ab-bcb5586ceec2"},"vehicle_type_id":"4","last_reported":1700993194,"current_range_meters":10000,"station_id":"ce4bgh92rcd13ifvqb50","pricing_plan_id":"free"},{"bike_id":"85d19023-2734-4dc8-aac8-8aaa325785ea","system_id":"levelo_inurba_marseille","lat":43.295748,"lon":5.37522,"is_reserved":false,"is_disabled":false,"rental_uris":{"android":"levelo://app?vid=85d19023-2734-4dc8-aac8-8aaa325785ea","ios":"levelo://app?vid=85d19023-2734-4dc8-aac8-8aaa325785ea"},"vehicle_type_id":"4","last_reported":1700993194,"current_range_meters":32000,"station_id":"ce4bgh92rcd13ifvqb50","pricing_plan_id":"free"},{"bike_id":"90f2108f-36ba-4dac-a826-290bd27baf0c","system_id":"levelo_inurba_marseille","lat":43.304278,"lon":5.388868,"is_reserved":false,"is_disabled":false,"rental_uris":{"android":"levelo://app?vid=90f2108f-36ba-4dac-a826-290bd27baf0c","ios":"levelo://app?vid=90f2108f-36ba-4dac-a826-290bd27baf0c"},"vehicle_type_id":"4","last_reported":1700993194,"current_range_meters":26800,"station_id":"ce4bgk12rcd13ifvqbi0","pricing_plan_id":"free"},{"bike_id":"3a63beb7-3b36-4a60-a212-e0b2a44a65fd","system_id":"levelo_inurba_marseille","lat":43.295748,"lon":5.37522,"is_reserved":false,"is_disabled":false,"rental_uris":{"android":"levelo://app?vid=3a63beb7-3b36-4a60-a212-e0b2a44a65fd","ios":"levelo://app?vid=3a63beb7-3b36-4a60-a212-e0b2a44a65fd"},"vehicle_type_id":"4","last_reported":1700993194,"current_range_meters":7200,"station_id":"ce4bgh92rcd13ifvqb50","pricing_plan_id":"free"},{"bike_id":"b6302a52-60d4-4855-b89b-3a6a22a9f12b","system_id":"levelo_inurba_marseille","lat":43.304278,"lon":5.388868,"is_reserved":false,"is_disabled":false,"rental_uris":{"android":"levelo://app?vid=b6302a52-60d4-4855-b89b-3a6a22a9f12b","ios":"levelo://app?vid=b6302a52-60d4-4855-b89b-3a6a22a9f12b"},"vehicle_type_id":"4","last_reported":1700993194,"current_range_meters":22800,"station_id":"ce4bgk12rcd13ifvqbi0","pricing_plan_id":"free"},{"bike_id":"6fe2356b-43d2-43af-a5dd-0e9714673a9b","system_id":"levelo_inurba_marseille","lat":43.29611,"lon":5.37715,"is_reserved":false,"is_disabled":false,"rental_uris":{"android":"levelo://app?vid=6fe2356b-43d2-43af-a5dd-0e9714673a9b","ios":"levelo://app?vid=6fe2356b-43d2-43af-a5dd-0e9714673a9b"},"vehicle_type_id":"4","last_reported":1700993194,"current_range_meters":26000,"station_id":"ce4bgi92rcd13ifvqb90","pricing_plan_id":"free"},{"bike_id":"6b621983-5e9e-42f7-990d-ad5a093820d2","system_id":"levelo_inurba_marseille","lat":43.293801,"lon":5.363066,"is_reserved":false,"is_disabled":false,"rental_uris":{"android":"levelo://app?vid=6b621983-5e9e-42f7-990d-ad5a093820d2","ios":"levelo://app?vid=6b621983-5e9e-42f7-990d-ad5a093820d2"},"vehicle_type_id":"4","last_reported":1700993194,"current_range_meters":0,"station_id":"","pricing_plan_id":"free"},{"bike_id":"24052701-90b7-4fec-8ece-9b098a6de4f5","system_id":"levelo_inurba_marseille","lat":43.3237,"lon":5.38887,"is_reserved":false,"is_disabled":false,"rental_uris":{"android":"levelo://app?vid=24052701-90b7-4fec-8ece-9b098a6de4f5","ios":"levelo://app?vid=24052701-90b7-4fec-8ece-9b098a6de4f5"},"vehicle_type_id":"4","last_reported":1700993194,"current_range_meters":25600,"station_id":"ce4bhqp2rcd13ifvqhog","pricing_plan_id":"free"},{"bike_id":"3d45a396-e136-46d2-9d00-697f0943bd32","system_id":"levelo_inurba_marseille","lat":43.29602,"lon":5.381084,"is_reserved":false,"is_disabled":false,"rental_uris":{"android":"levelo://app?vid=3d45a396-e136-46d2-9d00-697f0943bd32","ios":"levelo://app?vid=3d45a396-e136-46d2-9d00-697f0943bd32"},"vehicle_type_id":"4","last_reported":1700993194,"current_range_meters":18000,"station_id":"ce4bgl12rcd13ifvqbo0","pricing_plan_id":"free"},{"bike_id":"1910c58a-3b6b-4122-ba75-0ce90f0c117c","system_id":"levelo_inurba_marseille","lat":43.306,"lon":5.39357,"is_reserved":false,"is_disabled":false,"rental_uris":{"android":"levelo://app?vid=1910c58a-3b6b-4122-ba75-0ce90f0c117c","ios":"levelo://app?vid=1910c58a-3b6b-4122-ba75-0ce90f0c117c"},"vehicle_type_id":"4","last_reported":1700993194,"current_range_meters":0,"station_id":"ce4bh0p2rcd13ifvqd80","pricing_plan_id":"free"},{"bike_id":"bbc43b12-3188-4ab3-a5c1-2aec17fd603a","system_id":"levelo_inurba_marseille","lat":43.293009,"lon":5.374584,"is_reserved":false,"is_disabled":false,"rental_uris":{"android":"levelo://app?vid=bbc43b12-3188-4ab3-a5c1-2aec17fd603a","ios":"levelo://app?vid=bbc43b12-3188-4ab3-a5c1-2aec17fd603a"},"vehicle_type_id":"4","last_reported":1700993194,"current_range_meters":12400,"station_id":"ce4bgi12rcd13ifvqb70","pricing_plan_id":"free"},{"bike_id":"0e39ea76-004f-4e77-9152-2b230bcb6126","system_id":"levelo_inurba_marseille","lat":43.2936,"lon":5.37835,"is_reserved":false,"is_disabled":false,"rental_uris":{"android":"levelo://app?vid=0e39ea76-004f-4e77-9152-2b230bcb6126","ios":"levelo://app?vid=0e39ea76-004f-4e77-9152-2b230bcb6126"},"vehicle_type_id":"4","last_reported":1700993194,"current_range_meters":18000,"station_id":"ce4bgjh2rcd13ifvqbf0","pricing_plan_id":"free"},{"bike_id":"ef56f204-aeb9-4849-a3fa-8543fba8ccee","system_id":"levelo_inurba_marseille","lat":43.292311,"lon":5.360731,"is_reserved":false,"is_disabled":false,"rental_uris":{"android":"levelo://app?vid=ef56f204-aeb9-4849-a3fa-8543fba8ccee","ios":"levelo://app?vid=ef56f204-aeb9-4849-a3fa-8543fba8ccee"},"vehicle_type_id":"4","last_reported":1700993194,"current_range_meters":30400,"station_id":"ce4bhbh2rcd13ifvqeqg","pricing_plan_id":"free"},{"bike_id":"31661090-63f9-4983-adf6-a9974c6b169d","system_id":"levelo_inurba_marseille","lat":43.30085,"lon":5.390856,"is_reserved":false,"is_disabled":false,"rental_uris":{"android":"levelo://app?vid=31661090-63f9-4983-adf6-a9974c6b169d","ios":"levelo://app?vid=31661090-63f9-4983-adf6-a9974c6b169d"},"vehicle_type_id":"4","last_reported":1700993194,"current_range_meters":25200,"station_id":"ce4bh192rcd13ifvqdb0","pricing_plan_id":"free"},{"bike_id":"e100b2da-acd7-442a-996c-32ec66579328","system_id":"levelo_inurba_marseille","lat":43.29217,"lon":5.36041,"is_reserved":false,"is_disabled":false,"rental_uris":{"android":"levelo://app?vid=e100b2da-acd7-442a-996c-32ec66579328","ios":"levelo://app?vid=e100b2da-acd7-442a-996c-32ec66579328"},"vehicle_type_id":"4","last_reported":1700993194,"current_range_meters":30800,"station_id":"ce4bhbh2rcd13ifvqeqg","pricing_plan_id":"free"},{"bike_id":"9c67f148-83a2-4fe6-aa10-ce5db353e46c","system_id":"levelo_inurba_marseille","lat":43.292663,"lon":5.376394,"is_reserved":false,"is_disabled":false,"rental_uris":{"android":"levelo://app?vid=9c67f148-83a2-4fe6-aa10-ce5db353e46c","ios":"levelo://app?vid=9c67f148-83a2-4fe6-aa10-ce5db353e46c"},"vehicle_type_id":"4","last_reported":1700993194,"current_range_meters":25200,"station_id":"ce4bgi12rcd13ifvqb80","pricing_plan_id":"free"},{"bike_id":"cc5688f8-025f-4bd3-a30d-1bf3a8ef4d52","system_id":"levelo_inurba_marseille","lat":43.29875,"lon":5.38897,"is_reserved":false,"is_disabled":false,"rental_uris":{"android":"levelo://app?vid=cc5688f8-025f-4bd3-a30d-1bf3a8ef4d52","ios":"levelo://app?vid=cc5688f8-025f-4bd3-a30d-1bf3a8ef4d52"},"vehicle_type_id":"4","last_reported":1700993194,"current_range_meters":21600,"station_id":"ce4bh392rcd13ifvqdl0","pricing_plan_id":"free"},{"bike_id":"06501957-678d-491d-805a-580dc871d6fe","system_id":"levelo_inurba_marseille","lat":43.291675,"lon":5.371583,"is_reserved":false,"is_disabled":false,"rental_uris":{"android":"levelo://app?vid=06501957-678d-491d-805a-580dc871d6fe","ios":"levelo://app?vid=06501957-678d-491d-805a-580dc871d6fe"},"vehicle_type_id":"4","last_reported":1700993194,"current_range_meters":30000,"station_id":"ce4bha92rcd13ifvqeh0","pricing_plan_id":"free"},{"bike_id":"7a849607-5aad-49cd-b601-8c440ace04c2","system_id":"levelo_inurba_marseille","lat":43.291974,"lon":5.358036,"is_reserved":false,"is_disabled":false,"rental_uris":{"android":"levelo://app?vid=7a849607-5aad-49cd-b601-8c440ace04c2","ios":"levelo://app?vid=7a849607-5aad-49cd-b601-8c440ace04c2"},"vehicle_type_id":"4","last_reported":1700993194,"current_range_meters":11600,"station_id":"ce4bhb12rcd13ifvqel0","pricing_plan_id":"free"},{"bike_id":"be8beb00-f4e4-4b3a-b021-d3c5ca72c974","system_id":"levelo_inurba_marseille","lat":43.3088,"lon":5.396375,"is_reserved":false,"is_disabled":false,"rental_uris":{"android":"levelo://app?vid=be8beb00-f4e4-4b3a-b021-d3c5ca72c974","ios":"levelo://app?vid=be8beb00-f4e4-4b3a-b021-d3c5ca72c974"},"vehicle_type_id":"4","last_reported":1700993194,"current_range_meters":14000,"station_id":"ce4bh012rcd13ifvqcv0","pricing_plan_id":"free"},{"bike_id":"d50accdd-0958-4344-a7b1-99d6174e896a","system_id":"levelo_inurba_marseille","lat":43.309047,"lon":5.396551,"is_reserved":false,"is_disabled":false,"rental_uris":{"android":"levelo://app?vid=d50accdd-0958-4344-a7b1-99d6174e896a","ios":"levelo://app?vid=d50accdd-0958-4344-a7b1-99d6174e896a"},"vehicle_type_id":"4","last_reported":1700993194,"current_range_meters":30800,"station_id":"ce4bh012rcd13ifvqcv0","pricing_plan_id":"free"},{"bike_id":"d004a540-b451-4f1f-a4b2-16e4213cc9bc","system_id":"levelo_inurba_marseille","lat":43.29187,"lon":5.35796,"is_reserved":false,"is_disabled":false,"rental_uris":{"android":"levelo://app?vid=d004a540-b451-4f1f-a4b2-16e4213cc9bc","ios":"levelo://app?vid=d004a540-b451-4f1f-a4b2-16e4213cc9bc"},"vehicle_type_id":"4","last_reported":1700993194,"current_range_meters":29200,"station_id":"ce4bhb12rcd13ifvqel0","pricing_plan_id":"free"},{"bike_id":"c1b37a47-cacb-432a-aeeb-055419b5b849","system_id":"levelo_inurba_marseille","lat":43.29529,"lon":5.385581,"is_reserved":false,"is_disabled":false,"rental_uris":{"android":"levelo://app?vid=c1b37a47-cacb-432a-aeeb-055419b5b849","ios":"levelo://app?vid=c1b37a47-cacb-432a-aeeb-055419b5b849"},"vehicle_type_id":"4","last_reported":1700993194,"current_range_meters":17600,"station_id":"ce4bgih2rcd13ifvqba0","pricing_plan_id":"free"},{"bike_id":"c617f8cd-ed39-49b8-a162-2ea6cf185223","system_id":"levelo_inurba_marseille","lat":43.290624,"lon":5.359245,"is_reserved":false,"is_disabled":false,"rental_uris":{"android":"levelo://app?vid=c617f8cd-ed39-49b8-a162-2ea6cf185223","ios":"levelo://app?vid=c617f8cd-ed39-49b8-a162-2ea6cf185223"},"vehicle_type_id":"4","last_reported":1700993194,"current_range_meters":16800,"station_id":"ce4bha92rcd13ifvqeg0","pricing_plan_id":"free"},{"bike_id":"fe3394af-98cb-4f3e-8480-7681c97beb6e","system_id":"levelo_inurba_marseille","lat":43.290327,"lon":5.375711,"is_reserved":false,"is_disabled":false,"rental_uris":{"android":"levelo://app?vid=fe3394af-98cb-4f3e-8480-7681c97beb6e","ios":"levelo://app?vid=fe3394af-98cb-4f3e-8480-7681c97beb6e"},"vehicle_type_id":"4","last_reported":1700993194,"current_range_meters":19600,"station_id":"ce4bh692rcd13ifvqe90","pricing_plan_id":"free"},{"bike_id":"9dc10cab-270b-4096-99ff-06e9818d81d8","system_id":"levelo_inurba_marseille","lat":43.289468,"lon":5.363719,"is_reserved":false,"is_disabled":false,"rental_uris":{"android":"levelo://app?vid=9dc10cab-270b-4096-99ff-06e9818d81d8","ios":"levelo://app?vid=9dc10cab-270b-4096-99ff-06e9818d81d8"},"vehicle_type_id":"4","last_reported":1700993194,"current_range_meters":0,"station_id":"ce4bhc92rcd13ifvqetg","pricing_plan_id":"free"},{"bike_id":"57edb8d3-2147-4757-8b34-09951bcaa77c","system_id":"levelo_inurba_marseille","lat":43.289468,"lon":5.363719,"is_reserved":false,"is_disabled":false,"rental_uris":{"android":"levelo://app?vid=57edb8d3-2147-4757-8b34-09951bcaa77c","ios":"levelo://app?vid=57edb8d3-2147-4757-8b34-09951bcaa77c"},"vehicle_type_id":"4","last_reported":1700993194,"current_range_meters":24000,"station_id":"ce4bhc92rcd13ifvqetg","pricing_plan_id":"free"},{"bike_id":"961a57de-f628-4e11-9ab5-9f3b503e1628","system_id":"levelo_inurba_marseille","lat":43.292644,"lon":5.384257,"is_reserved":false,"is_disabled":false,"rental_uris":{"android":"levelo://app?vid=961a57de-f628-4e11-9ab5-9f3b503e1628","ios":"levelo://app?vid=961a57de-f628-4e11-9ab5-9f3b503e1628"},"vehicle_type_id":"4","last_reported":1700993194,"current_range_meters":5200,"station_id":"ce4bh692rcd13ifvqea0","pricing_plan_id":"free"},{"bike_id":"eae74115-ec9f-484e-9f5f-5ccd59757bf4","system_id":"levelo_inurba_marseille","lat":43.304274,"lon":5.397513,"is_reserved":false,"is_disabled":false,"rental_uris":{"android":"levelo://app?vid=eae74115-ec9f-484e-9f5f-5ccd59757bf4","ios":"levelo://app?vid=eae74115-ec9f-484e-9f5f-5ccd59757bf4"},"vehicle_type_id":"4","last_reported":1700993194,"current_range_meters":26800,"station_id":"ce4bh092rcd13ifvqd20","pricing_plan_id":"free"},{"bike_id":"077296cb-edeb-4187-bebf-69ea6d8f299b","system_id":"levelo_inurba_marseille","lat":43.290104,"lon":5.356111,"is_reserved":false,"is_disabled":false,"rental_uris":{"android":"levelo://app?vid=077296cb-edeb-4187-bebf-69ea6d8f299b","ios":"levelo://app?vid=077296cb-edeb-4187-bebf-69ea6d8f299b"},"vehicle_type_id":"4","last_reported":1700993194,"current_range_meters":30400,"station_id":"ce4bhb92rcd13ifvqen0","pricing_plan_id":"free"},{"bike_id":"66e9e321-fb5d-4833-9d20-b51fa8d31cbe","system_id":"levelo_inurba_marseille","lat":43.290104,"lon":5.356111,"is_reserved":false,"is_disabled":false,"rental_uris":{"android":"levelo://app?vid=66e9e321-fb5d-4833-9d20-b51fa8d31cbe","ios":"levelo://app?vid=66e9e321-fb5d-4833-9d20-b51fa8d31cbe"},"vehicle_type_id":"4","last_reported":1700993194,"current_range_meters":27200,"station_id":"ce4bhb92rcd13ifvqen0","pricing_plan_id":"free"},{"bike_id":"de8f7486-1e8b-4ee8-a49a-619b558a87ac","system_id":"levelo_inurba_marseille","lat":43.290104,"lon":5.356111,"is_reserved":false,"is_disabled":false,"rental_uris":{"android":"levelo://app?vid=de8f7486-1e8b-4ee8-a49a-619b558a87ac","ios":"levelo://app?vid=de8f7486-1e8b-4ee8-a49a-619b558a87ac"},"vehicle_type_id":"4","last_reported":1700993194,"current_range_meters":22800,"station_id":"ce4bhb92rcd13ifvqen0","pricing_plan_id":"free"},{"bike_id":"f8e63134-b0f0-4d12-a998-7cbe4512c64f","system_id":"levelo_inurba_marseille","lat":43.289741,"lon":5.378306,"is_reserved":false,"is_disabled":false,"rental_uris":{"android":"levelo://app?vid=f8e63134-b0f0-4d12-a998-7cbe4512c64f","ios":"levelo://app?vid=f8e63134-b0f0-4d12-a998-7cbe4512c64f"},"vehicle_type_id":"4","last_reported":1700993194,"current_range_meters":19600,"station_id":"ce4bh9p2rcd13ifvqed0","pricing_plan_id":"free"},{"bike_id":"5dbe552b-fb90-462e-bc6a-4f453a0495a5","system_id":"levelo_inurba_marseille","lat":43.295169,"lon":5.390426,"is_reserved":false,"is_disabled":false,"rental_uris":{"android":"levelo://app?vid=5dbe552b-fb90-462e-bc6a-4f453a0495a5","ios":"levelo://app?vid=5dbe552b-fb90-462e-bc6a-4f453a0495a5"},"vehicle_type_id":"4","last_reported":1700993194,"current_range_meters":3600,"station_id":"ce4bh3p2rcd13ifvqdp0","pricing_plan_id":"free"},{"bike_id":"407ba079-6e03-4142-89bd-de16a0a0f0a4","system_id":"levelo_inurba_marseille","lat":43.289741,"lon":5.378306,"is_reserved":false,"is_disabled":false,"rental_uris":{"android":"levelo://app?vid=407ba079-6e03-4142-89bd-de16a0a0f0a4","ios":"levelo://app?vid=407ba079-6e03-4142-89bd-de16a0a0f0a4"},"vehicle_type_id":"4","last_reported":1700993194,"current_range_meters":27600,"station_id":"ce4bh9p2rcd13ifvqed0","pricing_plan_id":"free"},{"bike_id":"24a16b2d-2fc6-4c08-b01b-e656d45f59ba","system_id":"levelo_inurba_marseille","lat":43.312609,"lon":5.401662,"is_reserved":false,"is_disabled":false,"rental_uris":{"android":"levelo://app?vid=24a16b2d-2fc6-4c08-b01b-e656d45f59ba","ios":"levelo://app?vid=24a16b2d-2fc6-4c08-b01b-e656d45f59ba"},"vehicle_type_id":"4","last_reported":1700993194,"current_range_meters":28800,"station_id":"ce4bh092rcd13ifvqd30","pricing_plan_id":"free"},{"bike_id":"de4934ef-5f8a-47de-aa4e-092ab81beee9","system_id":"levelo_inurba_marseille","lat":43.3127,"lon":5.40164,"is_reserved":false,"is_disabled":false,"rental_uris":{"android":"levelo://app?vid=de4934ef-5f8a-47de-aa4e-092ab81beee9","ios":"levelo://app?vid=de4934ef-5f8a-47de-aa4e-092ab81beee9"},"vehicle_type_id":"4","last_reported":1700993194,"current_range_meters":21200,"station_id":"ce4bh092rcd13ifvqd30","pricing_plan_id":"free"},{"bike_id":"d5085725-bd68-4650-a928-01a2108421f9","system_id":"levelo_inurba_marseille","lat":43.309371,"lon":5.401449,"is_reserved":false,"is_disabled":false,"rental_uris":{"android":"levelo://app?vid=d5085725-bd68-4650-a928-01a2108421f9","ios":"levelo://app?vid=d5085725-bd68-4650-a928-01a2108421f9"},"vehicle_type_id":"4","last_reported":1700993194,"current_range_meters":23200,"station_id":"ce4bgvp2rcd13ifvqct0","pricing_plan_id":"free"},{"bike_id":"8ea5b783-293f-4ce6-b58c-0cff92e0bb7b","system_id":"levelo_inurba_marseille","lat":43.309371,"lon":5.401449,"is_reserved":false,"is_disabled":false,"rental_uris":{"android":"levelo://app?vid=8ea5b783-293f-4ce6-b58c-0cff92e0bb7b","ios":"levelo://app?vid=8ea5b783-293f-4ce6-b58c-0cff92e0bb7b"},"vehicle_type_id":"4","last_reported":1700993194,"current_range_meters":25200,"station_id":"ce4bgvp2rcd13ifvqct0","pricing_plan_id":"free"},{"bike_id":"6e64b53b-1c5e-4ee8-91f2-e70bdea94389","system_id":"levelo_inurba_marseille","lat":43.33755,"lon":5.3744,"is_reserved":false,"is_disabled":false,"rental_uris":{"android":"levelo://app?vid=6e64b53b-1c5e-4ee8-91f2-e70bdea94389","ios":"levelo://app?vid=6e64b53b-1c5e-4ee8-91f2-e70bdea94389"},"vehicle_type_id":"4","last_reported":1700993194,"current_range_meters":19600,"station_id":"","pricing_plan_id":"free"},{"bike_id":"5876e1c8-4dd6-4282-a353-7f7c81c8174d","system_id":"levelo_inurba_marseille","lat":43.29872,"lon":5.39735,"is_reserved":false,"is_disabled":false,"rental_uris":{"android":"levelo://app?vid=5876e1c8-4dd6-4282-a353-7f7c81c8174d","ios":"levelo://app?vid=5876e1c8-4dd6-4282-a353-7f7c81c8174d"},"vehicle_type_id":"4","last_reported":1700993194,"current_range_meters":31200,"station_id":"ce4bh0h2rcd13ifvqd50","pricing_plan_id":"free"},{"bike_id":"28f6c3b3-e557-4e88-9f35-015252b11903","system_id":"levelo_inurba_marseille","lat":43.287185,"lon":5.379373,"is_reserved":false,"is_disabled":false,"rental_uris":{"android":"levelo://app?vid=28f6c3b3-e557-4e88-9f35-015252b11903","ios":"levelo://app?vid=28f6c3b3-e557-4e88-9f35-015252b11903"},"vehicle_type_id":"4","last_reported":1700993194,"current_range_meters":23600,"station_id":"ce4bh9p2rcd13ifvqec0","pricing_plan_id":"free"},{"bike_id":"b92e7fed-e8fc-4db4-91e7-065b937ca199","system_id":"levelo_inurba_marseille","lat":43.31643,"lon":5.40432,"is_reserved":false,"is_disabled":false,"rental_uris":{"android":"levelo://app?vid=b92e7fed-e8fc-4db4-91e7-065b937ca199","ios":"levelo://app?vid=b92e7fed-e8fc-4db4-91e7-065b937ca199"},"vehicle_type_id":"4","last_reported":1700993194,"current_range_meters":0,"station_id":"ce4bh012rcd13ifvqd00","pricing_plan_id":"free"},{"bike_id":"8d8fd114-dda9-4f31-9c51-bd52a98f3b7a","system_id":"levelo_inurba_marseille","lat":43.316517,"lon":5.404375,"is_reserved":false,"is_disabled":false,"rental_uris":{"android":"levelo://app?vid=8d8fd114-dda9-4f31-9c51-bd52a98f3b7a","ios":"levelo://app?vid=8d8fd114-dda9-4f31-9c51-bd52a98f3b7a"},"vehicle_type_id":"4","last_reported":1700993194,"current_range_meters":16400,"station_id":"ce4bh012rcd13ifvqd00","pricing_plan_id":"free"},{"bike_id":"1f3e2e2b-059c-4588-aa19-d83336d6f300","system_id":"levelo_inurba_marseille","lat":43.290104,"lon":5.356111,"is_reserved":false,"is_disabled":false,"rental_uris":{"android":"levelo://app?vid=1f3e2e2b-059c-4588-aa19-d83336d6f300","ios":"levelo://app?vid=1f3e2e2b-059c-4588-aa19-d83336d6f300"},"vehicle_type_id":"4","last_reported":1700993194,"current_range_meters":30800,"station_id":"ce4bhb92rcd13ifvqen0","pricing_plan_id":"free"},{"bike_id":"bf7eb8d2-82c2-4312-a861-005519752972","system_id":"levelo_inurba_marseille","lat":43.283998,"lon":5.375062,"is_reserved":false,"is_disabled":false,"rental_uris":{"android":"levelo://app?vid=bf7eb8d2-82c2-4312-a861-005519752972","ios":"levelo://app?vid=bf7eb8d2-82c2-4312-a861-005519752972"},"vehicle_type_id":"4","last_reported":1700993194,"current_range_meters":29200,"station_id":"ce4bh412rcd13ifvqds0","pricing_plan_id":"free"},{"bike_id":"d7291cda-b47c-4b21-ad1d-adea30d670c7","system_id":"levelo_inurba_marseille","lat":43.319179,"lon":5.407725,"is_reserved":false,"is_disabled":false,"rental_uris":{"android":"levelo://app?vid=d7291cda-b47c-4b21-ad1d-adea30d670c7","ios":"levelo://app?vid=d7291cda-b47c-4b21-ad1d-adea30d670c7"},"vehicle_type_id":"4","last_reported":1700993194,"current_range_meters":9200,"station_id":"ce4bhq12rcd13ifvqhig","pricing_plan_id":"free"},{"bike_id":"c7e84880-1672-4ac5-988a-9376e33a449c","system_id":"levelo_inurba_marseille","lat":43.28481,"lon":5.38408,"is_reserved":false,"is_disabled":false,"rental_uris":{"android":"levelo://app?vid=c7e84880-1672-4ac5-988a-9376e33a449c","ios":"levelo://app?vid=c7e84880-1672-4ac5-988a-9376e33a449c"},"vehicle_type_id":"4","last_reported":1700993194,"current_range_meters":27200,"station_id":"ce4bh512rcd13ifvqe3g","pricing_plan_id":"free"},{"bike_id":"b43bbed6-4e96-4b95-a068-851dc6030968","system_id":"levelo_inurba_marseille","lat":43.288501,"lon":5.393087,"is_reserved":false,"is_disabled":false,"rental_uris":{"android":"levelo://app?vid=b43bbed6-4e96-4b95-a068-851dc6030968","ios":"levelo://app?vid=b43bbed6-4e96-4b95-a068-851dc6030968"},"vehicle_type_id":"4","last_reported":1700993194,"current_range_meters":26400,"station_id":"ce4bh2p2rcd13ifvqdi0","pricing_plan_id":"free"},{"bike_id":"f85ac014-018e-41b0-8060-7c07721444b8","system_id":"levelo_inurba_marseille","lat":43.288501,"lon":5.393087,"is_reserved":false,"is_disabled":false,"rental_uris":{"android":"levelo://app?vid=f85ac014-018e-41b0-8060-7c07721444b8","ios":"levelo://app?vid=f85ac014-018e-41b0-8060-7c07721444b8"},"vehicle_type_id":"4","last_reported":1700993194,"current_range_meters":30000,"station_id":"ce4bh2p2rcd13ifvqdi0","pricing_plan_id":"free"},{"bike_id":"c6819148-99a6-4ea8-8d30-3dc810ac6e76","system_id":"levelo_inurba_marseille","lat":43.28423,"lon":5.34979,"is_reserved":false,"is_disabled":false,"rental_uris":{"android":"levelo://app?vid=c6819148-99a6-4ea8-8d30-3dc810ac6e76","ios":"levelo://app?vid=c6819148-99a6-4ea8-8d30-3dc810ac6e76"},"vehicle_type_id":"4","last_reported":1700993194,"current_range_meters":7600,"station_id":"ce4bhbh2rcd13ifvqepg","pricing_plan_id":"free"},{"bike_id":"053488b5-01c4-4699-afdf-a723b1148933","system_id":"levelo_inurba_marseille","lat":43.284219,"lon":5.3497,"is_reserved":false,"is_disabled":false,"rental_uris":{"android":"levelo://app?vid=053488b5-01c4-4699-afdf-a723b1148933","ios":"levelo://app?vid=053488b5-01c4-4699-afdf-a723b1148933"},"vehicle_type_id":"4","last_reported":1700993194,"current_range_meters":22400,"station_id":"ce4bhbh2rcd13ifvqepg","pricing_plan_id":"free"},{"bike_id":"e2284003-4e46-4e0a-93e7-73d05c3666d9","system_id":"levelo_inurba_marseille","lat":43.33508,"lon":5.397755,"is_reserved":false,"is_disabled":false,"rental_uris":{"android":"levelo://app?vid=e2284003-4e46-4e0a-93e7-73d05c3666d9","ios":"levelo://app?vid=e2284003-4e46-4e0a-93e7-73d05c3666d9"},"vehicle_type_id":"4","last_reported":1700993194,"current_range_meters":19200,"station_id":"","pricing_plan_id":"free"},{"bike_id":"8e88dafc-ea02-4d27-ae28-583029450dc5","system_id":"levelo_inurba_marseille","lat":43.289363,"lon":5.396322,"is_reserved":false,"is_disabled":false,"rental_uris":{"android":"levelo://app?vid=8e88dafc-ea02-4d27-ae28-583029450dc5","ios":"levelo://app?vid=8e88dafc-ea02-4d27-ae28-583029450dc5"},"vehicle_type_id":"4","last_reported":1700993194,"current_range_meters":19600,"station_id":"ce4bh3h2rcd13ifvqdn0","pricing_plan_id":"free"},{"bike_id":"dc15a82d-b1cb-481c-b0b4-51ff1c126069","system_id":"levelo_inurba_marseille","lat":43.282754,"lon":5.350519,"is_reserved":false,"is_disabled":false,"rental_uris":{"android":"levelo://app?vid=dc15a82d-b1cb-481c-b0b4-51ff1c126069","ios":"levelo://app?vid=dc15a82d-b1cb-481c-b0b4-51ff1c126069"},"vehicle_type_id":"4","last_reported":1700993194,"current_range_meters":22800,"station_id":"ce4bhbp2rcd13ifvqerg","pricing_plan_id":"free"},{"bike_id":"de8fded9-f573-42c1-9534-17a1da5d27ff","system_id":"levelo_inurba_marseille","lat":43.282744,"lon":5.350533,"is_reserved":false,"is_disabled":false,"rental_uris":{"android":"levelo://app?vid=de8fded9-f573-42c1-9534-17a1da5d27ff","ios":"levelo://app?vid=de8fded9-f573-42c1-9534-17a1da5d27ff"},"vehicle_type_id":"4","last_reported":1700993194,"current_range_meters":26400,"station_id":"ce4bhbp2rcd13ifvqerg","pricing_plan_id":"free"},{"bike_id":"752db139-02d7-4fc2-b740-46737058f155","system_id":"levelo_inurba_marseille","lat":43.28039,"lon":5.369297,"is_reserved":false,"is_disabled":false,"rental_uris":{"android":"levelo://app?vid=752db139-02d7-4fc2-b740-46737058f155","ios":"levelo://app?vid=752db139-02d7-4fc2-b740-46737058f155"},"vehicle_type_id":"4","last_reported":1700993194,"current_range_meters":16400,"station_id":"ce4bha12rcd13ifvqef0","pricing_plan_id":"free"},{"bike_id":"db9334a0-0093-411c-aac9-d2c04233863c","system_id":"levelo_inurba_marseille","lat":43.28039,"lon":5.369297,"is_reserved":false,"is_disabled":false,"rental_uris":{"android":"levelo://app?vid=db9334a0-0093-411c-aac9-d2c04233863c","ios":"levelo://app?vid=db9334a0-0093-411c-aac9-d2c04233863c"},"vehicle_type_id":"4","last_reported":1700993194,"current_range_meters":29600,"station_id":"ce4bha12rcd13ifvqef0","pricing_plan_id":"free"},{"bike_id":"ec3b3fd1-5bfc-4d6f-bc0e-3062bce32f53","system_id":"levelo_inurba_marseille","lat":43.28039,"lon":5.369297,"is_reserved":false,"is_disabled":false,"rental_uris":{"android":"levelo://app?vid=ec3b3fd1-5bfc-4d6f-bc0e-3062bce32f53","ios":"levelo://app?vid=ec3b3fd1-5bfc-4d6f-bc0e-3062bce32f53"},"vehicle_type_id":"4","last_reported":1700993194,"current_range_meters":31200,"station_id":"ce4bha12rcd13ifvqef0","pricing_plan_id":"free"},{"bike_id":"f64d466b-168b-4373-ae57-618e848fcd94","system_id":"levelo_inurba_marseille","lat":43.29041,"lon":5.399634,"is_reserved":false,"is_disabled":false,"rental_uris":{"android":"levelo://app?vid=f64d466b-168b-4373-ae57-618e848fcd94","ios":"levelo://app?vid=f64d466b-168b-4373-ae57-618e848fcd94"},"vehicle_type_id":"4","last_reported":1700993194,"current_range_meters":1200,"station_id":"ce4bh392rcd13ifvqdm0","pricing_plan_id":"free"},{"bike_id":"14d68bab-bd8f-4d1d-ad7c-f20047f7c7e4","system_id":"levelo_inurba_marseille","lat":43.287123,"lon":5.39977,"is_reserved":false,"is_disabled":false,"rental_uris":{"android":"levelo://app?vid=14d68bab-bd8f-4d1d-ad7c-f20047f7c7e4","ios":"levelo://app?vid=14d68bab-bd8f-4d1d-ad7c-f20047f7c7e4"},"vehicle_type_id":"4","last_reported":1700993194,"current_range_meters":20400,"station_id":"ce4bho92rcd13ifvqh3g","pricing_plan_id":"free"},{"bike_id":"2532c679-1cc7-4268-a49d-9e7b00df2495","system_id":"levelo_inurba_marseille","lat":43.279087,"lon":5.380114,"is_reserved":false,"is_disabled":false,"rental_uris":{"android":"levelo://app?vid=2532c679-1cc7-4268-a49d-9e7b00df2495","ios":"levelo://app?vid=2532c679-1cc7-4268-a49d-9e7b00df2495"},"vehicle_type_id":"4","last_reported":1700993194,"current_range_meters":28400,"station_id":"ce4bhf92rcd13ifvqf50","pricing_plan_id":"free"},{"bike_id":"0842453b-0f15-4116-bee5-9262e1373aa8","system_id":"levelo_inurba_marseille","lat":43.299579,"lon":5.413255,"is_reserved":false,"is_disabled":false,"rental_uris":{"android":"levelo://app?vid=0842453b-0f15-4116-bee5-9262e1373aa8","ios":"levelo://app?vid=0842453b-0f15-4116-bee5-9262e1373aa8"},"vehicle_type_id":"4","last_reported":1700993194,"current_range_meters":23200,"station_id":"ce4bhp12rcd13ifvqh9g","pricing_plan_id":"free"},{"bike_id":"6526cad1-2f4b-4db1-8d6b-ce04bc407b31","system_id":"levelo_inurba_marseille","lat":43.34883,"lon":5.37501,"is_reserved":false,"is_disabled":false,"rental_uris":{"android":"levelo://app?vid=6526cad1-2f4b-4db1-8d6b-ce04bc407b31","ios":"levelo://app?vid=6526cad1-2f4b-4db1-8d6b-ce04bc407b31"},"vehicle_type_id":"4","last_reported":1700993194,"current_range_meters":0,"station_id":"","pricing_plan_id":"free"},{"bike_id":"062d6964-a217-4fd7-b47f-eac665d05b08","system_id":"levelo_inurba_marseille","lat":43.292571,"lon":5.409107,"is_reserved":false,"is_disabled":false,"rental_uris":{"android":"levelo://app?vid=062d6964-a217-4fd7-b47f-eac665d05b08","ios":"levelo://app?vid=062d6964-a217-4fd7-b47f-eac665d05b08"},"vehicle_type_id":"4","last_reported":1700993194,"current_range_meters":28800,"station_id":"ce4bh192rcd13ifvqdc0","pricing_plan_id":"free"},{"bike_id":"af96db3f-8e8a-4f09-9fd5-44ed1b445f15","system_id":"levelo_inurba_marseille","lat":43.27614,"lon":5.36102,"is_reserved":false,"is_disabled":false,"rental_uris":{"android":"levelo://app?vid=af96db3f-8e8a-4f09-9fd5-44ed1b445f15","ios":"levelo://app?vid=af96db3f-8e8a-4f09-9fd5-44ed1b445f15"},"vehicle_type_id":"4","last_reported":1700993194,"current_range_meters":26000,"station_id":"ce4bgj92rcd13ifvqbe0","pricing_plan_id":"free"},{"bike_id":"c25ea147-e804-4786-9d25-91f61a8ed59a","system_id":"levelo_inurba_marseille","lat":43.293651,"lon":5.41268,"is_reserved":false,"is_disabled":false,"rental_uris":{"android":"levelo://app?vid=c25ea147-e804-4786-9d25-91f61a8ed59a","ios":"levelo://app?vid=c25ea147-e804-4786-9d25-91f61a8ed59a"},"vehicle_type_id":"4","last_reported":1700993194,"current_range_meters":0,"station_id":"","pricing_plan_id":"free"},{"bike_id":"9c9d5da5-6b57-4bb8-9b73-166765627ed0","system_id":"levelo_inurba_marseille","lat":43.275625,"lon":5.384392,"is_reserved":false,"is_disabled":false,"rental_uris":{"android":"levelo://app?vid=9c9d5da5-6b57-4bb8-9b73-166765627ed0","ios":"levelo://app?vid=9c9d5da5-6b57-4bb8-9b73-166765627ed0"},"vehicle_type_id":"4","last_reported":1700993194,"current_range_meters":25600,"station_id":"ce4bhh92rcd13ifvqfi0","pricing_plan_id":"free"},{"bike_id":"85d7c314-5bfa-48ae-a5dd-791b01adc86a","system_id":"levelo_inurba_marseille","lat":43.273609,"lon":5.362708,"is_reserved":false,"is_disabled":false,"rental_uris":{"android":"levelo://app?vid=85d7c314-5bfa-48ae-a5dd-791b01adc86a","ios":"levelo://app?vid=85d7c314-5bfa-48ae-a5dd-791b01adc86a"},"vehicle_type_id":"4","last_reported":1700993194,"current_range_meters":23200,"station_id":"ce4bhbh2rcd13ifvqeo0","pricing_plan_id":"free"},{"bike_id":"46692558-8846-4a6d-81d7-552990d88bb6","system_id":"levelo_inurba_marseille","lat":43.273609,"lon":5.362708,"is_reserved":false,"is_disabled":false,"rental_uris":{"android":"levelo://app?vid=46692558-8846-4a6d-81d7-552990d88bb6","ios":"levelo://app?vid=46692558-8846-4a6d-81d7-552990d88bb6"},"vehicle_type_id":"4","last_reported":1700993194,"current_range_meters":29200,"station_id":"ce4bhbh2rcd13ifvqeo0","pricing_plan_id":"free"},{"bike_id":"1168ee67-6676-44e3-8158-09fbed9ad342","system_id":"levelo_inurba_marseille","lat":43.275625,"lon":5.384392,"is_reserved":false,"is_disabled":false,"rental_uris":{"android":"levelo://app?vid=1168ee67-6676-44e3-8158-09fbed9ad342","ios":"levelo://app?vid=1168ee67-6676-44e3-8158-09fbed9ad342"},"vehicle_type_id":"4","last_reported":1700993194,"current_range_meters":27600,"station_id":"ce4bhh92rcd13ifvqfi0","pricing_plan_id":"free"},{"bike_id":"c708e6ad-c4e4-4fa4-a9fb-c61c1eb40cb9","system_id":"levelo_inurba_marseille","lat":43.275625,"lon":5.384392,"is_reserved":false,"is_disabled":false,"rental_uris":{"android":"levelo://app?vid=c708e6ad-c4e4-4fa4-a9fb-c61c1eb40cb9","ios":"levelo://app?vid=c708e6ad-c4e4-4fa4-a9fb-c61c1eb40cb9"},"vehicle_type_id":"4","last_reported":1700993194,"current_range_meters":28400,"station_id":"ce4bhh92rcd13ifvqfi0","pricing_plan_id":"free"},{"bike_id":"2de05027-7797-4106-81c1-0fbaf060e0d4","system_id":"levelo_inurba_marseille","lat":43.31717,"lon":5.42394,"is_reserved":false,"is_disabled":false,"rental_uris":{"android":"levelo://app?vid=2de05027-7797-4106-81c1-0fbaf060e0d4","ios":"levelo://app?vid=2de05027-7797-4106-81c1-0fbaf060e0d4"},"vehicle_type_id":"4","last_reported":1700993194,"current_range_meters":12800,"station_id":"ce4bhp92rcd13ifvqhbg","pricing_plan_id":"free"},{"bike_id":"60395232-e532-4f5a-ae3e-52a22da3b50f","system_id":"levelo_inurba_marseille","lat":43.31084,"lon":5.42426,"is_reserved":false,"is_disabled":false,"rental_uris":{"android":"levelo://app?vid=60395232-e532-4f5a-ae3e-52a22da3b50f","ios":"levelo://app?vid=60395232-e532-4f5a-ae3e-52a22da3b50f"},"vehicle_type_id":"4","last_reported":1700993194,"current_range_meters":31200,"station_id":"ce4bhp92rcd13ifvqhag","pricing_plan_id":"free"},{"bike_id":"2bac63be-2248-4f83-9913-6fa6e719b914","system_id":"levelo_inurba_marseille","lat":43.31082,"lon":5.42427,"is_reserved":false,"is_disabled":false,"rental_uris":{"android":"levelo://app?vid=2bac63be-2248-4f83-9913-6fa6e719b914","ios":"levelo://app?vid=2bac63be-2248-4f83-9913-6fa6e719b914"},"vehicle_type_id":"4","last_reported":1700993194,"current_range_meters":13600,"station_id":"ce4bhp92rcd13ifvqhag","pricing_plan_id":"free"},{"bike_id":"8eb5bdb0-5c9b-4999-93c3-a1a499ccf536","system_id":"levelo_inurba_marseille","lat":43.310785,"lon":5.424305,"is_reserved":false,"is_disabled":false,"rental_uris":{"android":"levelo://app?vid=8eb5bdb0-5c9b-4999-93c3-a1a499ccf536","ios":"levelo://app?vid=8eb5bdb0-5c9b-4999-93c3-a1a499ccf536"},"vehicle_type_id":"4","last_reported":1700993194,"current_range_meters":31200,"station_id":"ce4bhp92rcd13ifvqhag","pricing_plan_id":"free"},{"bike_id":"8e83d630-b16f-41a3-90d0-8bbf3f310135","system_id":"levelo_inurba_marseille","lat":43.273125,"lon":5.390731,"is_reserved":false,"is_disabled":false,"rental_uris":{"android":"levelo://app?vid=8e83d630-b16f-41a3-90d0-8bbf3f310135","ios":"levelo://app?vid=8e83d630-b16f-41a3-90d0-8bbf3f310135"},"vehicle_type_id":"4","last_reported":1700993194,"current_range_meters":11600,"station_id":"ce4bhgp2rcd13ifvqfe0","pricing_plan_id":"free"},{"bike_id":"dc4c9817-850e-4178-9260-7c7bc0756f71","system_id":"levelo_inurba_marseille","lat":43.273125,"lon":5.390731,"is_reserved":false,"is_disabled":false,"rental_uris":{"android":"levelo://app?vid=dc4c9817-850e-4178-9260-7c7bc0756f71","ios":"levelo://app?vid=dc4c9817-850e-4178-9260-7c7bc0756f71"},"vehicle_type_id":"4","last_reported":1700993194,"current_range_meters":28800,"station_id":"ce4bhgp2rcd13ifvqfe0","pricing_plan_id":"free"},{"bike_id":"eb196576-9a17-42cf-83de-361d35a505ce","system_id":"levelo_inurba_marseille","lat":43.273125,"lon":5.390731,"is_reserved":false,"is_disabled":false,"rental_uris":{"android":"levelo://app?vid=eb196576-9a17-42cf-83de-361d35a505ce","ios":"levelo://app?vid=eb196576-9a17-42cf-83de-361d35a505ce"},"vehicle_type_id":"4","last_reported":1700993194,"current_range_meters":30800,"station_id":"ce4bhgp2rcd13ifvqfe0","pricing_plan_id":"free"},{"bike_id":"06a73c60-1a08-4f7a-bd1f-d8bebb6fabcb","system_id":"levelo_inurba_marseille","lat":43.273125,"lon":5.390731,"is_reserved":false,"is_disabled":false,"rental_uris":{"android":"levelo://app?vid=06a73c60-1a08-4f7a-bd1f-d8bebb6fabcb","ios":"levelo://app?vid=06a73c60-1a08-4f7a-bd1f-d8bebb6fabcb"},"vehicle_type_id":"4","last_reported":1700993194,"current_range_meters":29200,"station_id":"ce4bhgp2rcd13ifvqfe0","pricing_plan_id":"free"},{"bike_id":"66c5df28-1bf7-4530-b742-a18a7a53be5e","system_id":"levelo_inurba_marseille","lat":43.274099,"lon":5.394019,"is_reserved":false,"is_disabled":false,"rental_uris":{"android":"levelo://app?vid=66c5df28-1bf7-4530-b742-a18a7a53be5e","ios":"levelo://app?vid=66c5df28-1bf7-4530-b742-a18a7a53be5e"},"vehicle_type_id":"4","last_reported":1700993194,"current_range_meters":28800,"station_id":"ce4bhdp2rcd13ifvqf20","pricing_plan_id":"free"},{"bike_id":"81233ae1-647b-43c8-8f75-836be9aca209","system_id":"levelo_inurba_marseille","lat":43.273129,"lon":5.390725,"is_reserved":false,"is_disabled":false,"rental_uris":{"android":"levelo://app?vid=81233ae1-647b-43c8-8f75-836be9aca209","ios":"levelo://app?vid=81233ae1-647b-43c8-8f75-836be9aca209"},"vehicle_type_id":"4","last_reported":1700993194,"current_range_meters":23600,"station_id":"ce4bhgp2rcd13ifvqfe0","pricing_plan_id":"free"},{"bike_id":"321ce704-3e10-4714-80de-e604258e5e37","system_id":"levelo_inurba_marseille","lat":43.273129,"lon":5.390725,"is_reserved":false,"is_disabled":false,"rental_uris":{"android":"levelo://app?vid=321ce704-3e10-4714-80de-e604258e5e37","ios":"levelo://app?vid=321ce704-3e10-4714-80de-e604258e5e37"},"vehicle_type_id":"4","last_reported":1700993194,"current_range_meters":30000,"station_id":"ce4bhgp2rcd13ifvqfe0","pricing_plan_id":"free"},{"bike_id":"b0d8de64-7d3c-494c-8008-dc5f6b9121ab","system_id":"levelo_inurba_marseille","lat":43.295523,"lon":5.422926,"is_reserved":false,"is_disabled":false,"rental_uris":{"android":"levelo://app?vid=b0d8de64-7d3c-494c-8008-dc5f6b9121ab","ios":"levelo://app?vid=b0d8de64-7d3c-494c-8008-dc5f6b9121ab"},"vehicle_type_id":"4","last_reported":1700993194,"current_range_meters":30000,"station_id":"ce4bhph2rcd13ifvqhdg","pricing_plan_id":"free"},{"bike_id":"9f33e7be-ccf0-4fd5-b04d-f51287063869","system_id":"levelo_inurba_marseille","lat":43.295511,"lon":5.422926,"is_reserved":false,"is_disabled":false,"rental_uris":{"android":"levelo://app?vid=9f33e7be-ccf0-4fd5-b04d-f51287063869","ios":"levelo://app?vid=9f33e7be-ccf0-4fd5-b04d-f51287063869"},"vehicle_type_id":"4","last_reported":1700993194,"current_range_meters":20800,"station_id":"ce4bhph2rcd13ifvqhdg","pricing_plan_id":"free"},{"bike_id":"ec58e845-6810-4045-a9f7-39fad1d40927","system_id":"levelo_inurba_marseille","lat":43.272116,"lon":5.391763,"is_reserved":false,"is_disabled":false,"rental_uris":{"android":"levelo://app?vid=ec58e845-6810-4045-a9f7-39fad1d40927","ios":"levelo://app?vid=ec58e845-6810-4045-a9f7-39fad1d40927"},"vehicle_type_id":"4","last_reported":1700993194,"current_range_meters":8800,"station_id":"ce4bhhp2rcd13ifvqfm0","pricing_plan_id":"free"},{"bike_id":"0390eb5c-9ea5-498b-a62a-628ece2fbf50","system_id":"levelo_inurba_marseille","lat":43.272116,"lon":5.391747,"is_reserved":false,"is_disabled":false,"rental_uris":{"android":"levelo://app?vid=0390eb5c-9ea5-498b-a62a-628ece2fbf50","ios":"levelo://app?vid=0390eb5c-9ea5-498b-a62a-628ece2fbf50"},"vehicle_type_id":"4","last_reported":1700993194,"current_range_meters":26400,"station_id":"ce4bhhp2rcd13ifvqfm0","pricing_plan_id":"free"},{"bike_id":"e4e5672d-241c-44b6-97e0-ed73a38d51e8","system_id":"levelo_inurba_marseille","lat":43.272118,"lon":5.391758,"is_reserved":false,"is_disabled":false,"rental_uris":{"android":"levelo://app?vid=e4e5672d-241c-44b6-97e0-ed73a38d51e8","ios":"levelo://app?vid=e4e5672d-241c-44b6-97e0-ed73a38d51e8"},"vehicle_type_id":"4","last_reported":1700993194,"current_range_meters":19200,"station_id":"ce4bhhp2rcd13ifvqfm0","pricing_plan_id":"free"},{"bike_id":"28cdca6c-20d4-45a5-a5d3-e667af576d43","system_id":"levelo_inurba_marseille","lat":43.272124,"lon":5.391768,"is_reserved":false,"is_disabled":false,"rental_uris":{"android":"levelo://app?vid=28cdca6c-20d4-45a5-a5d3-e667af576d43","ios":"levelo://app?vid=28cdca6c-20d4-45a5-a5d3-e667af576d43"},"vehicle_type_id":"4","last_reported":1700993194,"current_range_meters":26800,"station_id":"ce4bhhp2rcd13ifvqfm0","pricing_plan_id":"free"},{"bike_id":"28778b87-3f32-481b-97d8-ed2c591f6f52","system_id":"levelo_inurba_marseille","lat":43.272124,"lon":5.391768,"is_reserved":false,"is_disabled":false,"rental_uris":{"android":"levelo://app?vid=28778b87-3f32-481b-97d8-ed2c591f6f52","ios":"levelo://app?vid=28778b87-3f32-481b-97d8-ed2c591f6f52"},"vehicle_type_id":"4","last_reported":1700993194,"current_range_meters":24800,"station_id":"ce4bhhp2rcd13ifvqfm0","pricing_plan_id":"free"},{"bike_id":"35ff0fef-0031-4454-b197-36cc197ade8d","system_id":"levelo_inurba_marseille","lat":43.272124,"lon":5.391768,"is_reserved":false,"is_disabled":false,"rental_uris":{"android":"levelo://app?vid=35ff0fef-0031-4454-b197-36cc197ade8d","ios":"levelo://app?vid=35ff0fef-0031-4454-b197-36cc197ade8d"},"vehicle_type_id":"4","last_reported":1700993194,"current_range_meters":31200,"station_id":"ce4bhhp2rcd13ifvqfm0","pricing_plan_id":"free"},{"bike_id":"5c549b9d-9de8-4736-a9c6-e2dbe83c665a","system_id":"levelo_inurba_marseille","lat":43.272116,"lon":5.391747,"is_reserved":false,"is_disabled":false,"rental_uris":{"android":"levelo://app?vid=5c549b9d-9de8-4736-a9c6-e2dbe83c665a","ios":"levelo://app?vid=5c549b9d-9de8-4736-a9c6-e2dbe83c665a"},"vehicle_type_id":"4","last_reported":1700993194,"current_range_meters":25600,"station_id":"ce4bhhp2rcd13ifvqfm0","pricing_plan_id":"free"},{"bike_id":"9da261fa-a2f8-47a9-a879-04935a01c387","system_id":"levelo_inurba_marseille","lat":43.272116,"lon":5.391747,"is_reserved":false,"is_disabled":false,"rental_uris":{"android":"levelo://app?vid=9da261fa-a2f8-47a9-a879-04935a01c387","ios":"levelo://app?vid=9da261fa-a2f8-47a9-a879-04935a01c387"},"vehicle_type_id":"4","last_reported":1700993194,"current_range_meters":17200,"station_id":"ce4bhhp2rcd13ifvqfm0","pricing_plan_id":"free"},{"bike_id":"985e4202-4e81-41d4-8a74-61e35127b0fe","system_id":"levelo_inurba_marseille","lat":43.272116,"lon":5.391747,"is_reserved":false,"is_disabled":false,"rental_uris":{"android":"levelo://app?vid=985e4202-4e81-41d4-8a74-61e35127b0fe","ios":"levelo://app?vid=985e4202-4e81-41d4-8a74-61e35127b0fe"},"vehicle_type_id":"4","last_reported":1700993194,"current_range_meters":30800,"station_id":"ce4bhhp2rcd13ifvqfm0","pricing_plan_id":"free"},{"bike_id":"f6e3326b-867e-4eee-b9b2-89c1f6b9ddf7","system_id":"levelo_inurba_marseille","lat":43.272116,"lon":5.391747,"is_reserved":false,"is_disabled":false,"rental_uris":{"android":"levelo://app?vid=f6e3326b-867e-4eee-b9b2-89c1f6b9ddf7","ios":"levelo://app?vid=f6e3326b-867e-4eee-b9b2-89c1f6b9ddf7"},"vehicle_type_id":"4","last_reported":1700993194,"current_range_meters":23200,"station_id":"ce4bhhp2rcd13ifvqfm0","pricing_plan_id":"free"},{"bike_id":"036def8d-67aa-401b-951f-3fd857264233","system_id":"levelo_inurba_marseille","lat":43.278128,"lon":5.407195,"is_reserved":false,"is_disabled":false,"rental_uris":{"android":"levelo://app?vid=036def8d-67aa-401b-951f-3fd857264233","ios":"levelo://app?vid=036def8d-67aa-401b-951f-3fd857264233"},"vehicle_type_id":"4","last_reported":1700993194,"current_range_meters":10000,"station_id":"ce4bhnh2rcd13ifvqgtg","pricing_plan_id":"free"},{"bike_id":"1484934e-03ff-4d6d-b068-8ca8dcec50fe","system_id":"levelo_inurba_marseille","lat":43.278128,"lon":5.407195,"is_reserved":false,"is_disabled":false,"rental_uris":{"android":"levelo://app?vid=1484934e-03ff-4d6d-b068-8ca8dcec50fe","ios":"levelo://app?vid=1484934e-03ff-4d6d-b068-8ca8dcec50fe"},"vehicle_type_id":"4","last_reported":1700993194,"current_range_meters":27200,"station_id":"ce4bhnh2rcd13ifvqgtg","pricing_plan_id":"free"},{"bike_id":"0966a346-d727-4c66-a0eb-1e01e160b9a9","system_id":"levelo_inurba_marseille","lat":43.27814,"lon":5.40711,"is_reserved":false,"is_disabled":false,"rental_uris":{"android":"levelo://app?vid=0966a346-d727-4c66-a0eb-1e01e160b9a9","ios":"levelo://app?vid=0966a346-d727-4c66-a0eb-1e01e160b9a9"},"vehicle_type_id":"4","last_reported":1700993194,"current_range_meters":26400,"station_id":"ce4bhnh2rcd13ifvqgtg","pricing_plan_id":"free"},{"bike_id":"63c69c80-4769-4886-b594-5faea8169c99","system_id":"levelo_inurba_marseille","lat":43.27813,"lon":5.40713,"is_reserved":false,"is_disabled":false,"rental_uris":{"android":"levelo://app?vid=63c69c80-4769-4886-b594-5faea8169c99","ios":"levelo://app?vid=63c69c80-4769-4886-b594-5faea8169c99"},"vehicle_type_id":"4","last_reported":1700993194,"current_range_meters":29200,"station_id":"ce4bhnh2rcd13ifvqgtg","pricing_plan_id":"free"},{"bike_id":"1eaff505-c87c-40b9-9a4b-2955df4da829","system_id":"levelo_inurba_marseille","lat":43.269319,"lon":5.389397,"is_reserved":false,"is_disabled":false,"rental_uris":{"android":"levelo://app?vid=1eaff505-c87c-40b9-9a4b-2955df4da829","ios":"levelo://app?vid=1eaff505-c87c-40b9-9a4b-2955df4da829"},"vehicle_type_id":"4","last_reported":1700993194,"current_range_meters":27600,"station_id":"ce4bhhh2rcd13ifvqfl0","pricing_plan_id":"free"},{"bike_id":"552b9570-5876-4717-a59e-c90d5a6c1b1a","system_id":"levelo_inurba_marseille","lat":43.26681,"lon":5.382694,"is_reserved":false,"is_disabled":false,"rental_uris":{"android":"levelo://app?vid=552b9570-5876-4717-a59e-c90d5a6c1b1a","ios":"levelo://app?vid=552b9570-5876-4717-a59e-c90d5a6c1b1a"},"vehicle_type_id":"4","last_reported":1700993194,"current_range_meters":31200,"station_id":"ce4bhg92rcd13ifvqf90","pricing_plan_id":"free"},{"bike_id":"5c6ff074-752b-4e7b-b426-7201d9c547af","system_id":"levelo_inurba_marseille","lat":43.26558,"lon":5.37284,"is_reserved":false,"is_disabled":false,"rental_uris":{"android":"levelo://app?vid=5c6ff074-752b-4e7b-b426-7201d9c547af","ios":"levelo://app?vid=5c6ff074-752b-4e7b-b426-7201d9c547af"},"vehicle_type_id":"4","last_reported":1700993194,"current_range_meters":17600,"station_id":"ce4bhg12rcd13ifvqf70","pricing_plan_id":"free"},{"bike_id":"58eb8a06-6d28-4ec6-a188-66edf966b964","system_id":"levelo_inurba_marseille","lat":43.26681,"lon":5.382694,"is_reserved":false,"is_disabled":false,"rental_uris":{"android":"levelo://app?vid=58eb8a06-6d28-4ec6-a188-66edf966b964","ios":"levelo://app?vid=58eb8a06-6d28-4ec6-a188-66edf966b964"},"vehicle_type_id":"4","last_reported":1700993194,"current_range_meters":27200,"station_id":"ce4bhg92rcd13ifvqf90","pricing_plan_id":"free"},{"bike_id":"0d7dd0fe-70fa-4075-8d3d-0c05a3070ec9","system_id":"levelo_inurba_marseille","lat":43.26681,"lon":5.382694,"is_reserved":false,"is_disabled":false,"rental_uris":{"android":"levelo://app?vid=0d7dd0fe-70fa-4075-8d3d-0c05a3070ec9","ios":"levelo://app?vid=0d7dd0fe-70fa-4075-8d3d-0c05a3070ec9"},"vehicle_type_id":"4","last_reported":1700993194,"current_range_meters":28000,"station_id":"ce4bhg92rcd13ifvqf90","pricing_plan_id":"free"},{"bike_id":"1b96608d-092c-42d9-9260-0f317604350b","system_id":"levelo_inurba_marseille","lat":43.265497,"lon":5.372856,"is_reserved":false,"is_disabled":false,"rental_uris":{"android":"levelo://app?vid=1b96608d-092c-42d9-9260-0f317604350b","ios":"levelo://app?vid=1b96608d-092c-42d9-9260-0f317604350b"},"vehicle_type_id":"4","last_reported":1700993194,"current_range_meters":21200,"station_id":"","pricing_plan_id":"free"},{"bike_id":"f23d8119-b478-4639-98c5-6883279f9f84","system_id":"levelo_inurba_marseille","lat":43.32592,"lon":5.43067,"is_reserved":false,"is_disabled":false,"rental_uris":{"android":"levelo://app?vid=f23d8119-b478-4639-98c5-6883279f9f84","ios":"levelo://app?vid=f23d8119-b478-4639-98c5-6883279f9f84"},"vehicle_type_id":"4","last_reported":1700993194,"current_range_meters":23200,"station_id":"","pricing_plan_id":"free"},{"bike_id":"ed30d6a1-b23a-49e5-9c83-5546be72a734","system_id":"levelo_inurba_marseille","lat":43.3259,"lon":5.43075,"is_reserved":false,"is_disabled":false,"rental_uris":{"android":"levelo://app?vid=ed30d6a1-b23a-49e5-9c83-5546be72a734","ios":"levelo://app?vid=ed30d6a1-b23a-49e5-9c83-5546be72a734"},"vehicle_type_id":"4","last_reported":1700993194,"current_range_meters":18000,"station_id":"","pricing_plan_id":"free"},{"bike_id":"d67469ee-5362-4610-a163-fe05ae3cf4f7","system_id":"levelo_inurba_marseille","lat":43.32604,"lon":5.430817,"is_reserved":false,"is_disabled":false,"rental_uris":{"android":"levelo://app?vid=d67469ee-5362-4610-a163-fe05ae3cf4f7","ios":"levelo://app?vid=d67469ee-5362-4610-a163-fe05ae3cf4f7"},"vehicle_type_id":"4","last_reported":1700993194,"current_range_meters":6400,"station_id":"","pricing_plan_id":"free"},{"bike_id":"2ce81b26-2847-48e0-8768-f3be7864a8f7","system_id":"levelo_inurba_marseille","lat":43.27989,"lon":5.416536,"is_reserved":false,"is_disabled":false,"rental_uris":{"android":"levelo://app?vid=2ce81b26-2847-48e0-8768-f3be7864a8f7","ios":"levelo://app?vid=2ce81b26-2847-48e0-8768-f3be7864a8f7"},"vehicle_type_id":"4","last_reported":1700993194,"current_range_meters":26800,"station_id":"ce4bho12rcd13ifvqh1g","pricing_plan_id":"free"},{"bike_id":"05d11fc6-bfad-4336-bbb0-16504370a872","system_id":"levelo_inurba_marseille","lat":43.27987,"lon":5.41656,"is_reserved":false,"is_disabled":false,"rental_uris":{"android":"levelo://app?vid=05d11fc6-bfad-4336-bbb0-16504370a872","ios":"levelo://app?vid=05d11fc6-bfad-4336-bbb0-16504370a872"},"vehicle_type_id":"4","last_reported":1700993194,"current_range_meters":27200,"station_id":"ce4bho12rcd13ifvqh1g","pricing_plan_id":"free"},{"bike_id":"1037b41f-ee53-4d23-8a6e-3ed0ac6bf173","system_id":"levelo_inurba_marseille","lat":43.27984,"lon":5.41654,"is_reserved":false,"is_disabled":false,"rental_uris":{"android":"levelo://app?vid=1037b41f-ee53-4d23-8a6e-3ed0ac6bf173","ios":"levelo://app?vid=1037b41f-ee53-4d23-8a6e-3ed0ac6bf173"},"vehicle_type_id":"4","last_reported":1700993194,"current_range_meters":30000,"station_id":"ce4bho12rcd13ifvqh1g","pricing_plan_id":"free"},{"bike_id":"d8b5098a-ad04-43b0-8016-95d267f393c0","system_id":"levelo_inurba_marseille","lat":43.265714,"lon":5.372891,"is_reserved":false,"is_disabled":false,"rental_uris":{"android":"levelo://app?vid=d8b5098a-ad04-43b0-8016-95d267f393c0","ios":"levelo://app?vid=d8b5098a-ad04-43b0-8016-95d267f393c0"},"vehicle_type_id":"4","last_reported":1700993194,"current_range_meters":29600,"station_id":"ce4bhg12rcd13ifvqf70","pricing_plan_id":"free"},{"bike_id":"58f09646-198a-4784-9b3b-ea4659d37cf6","system_id":"levelo_inurba_marseille","lat":43.267966,"lon":5.393976,"is_reserved":false,"is_disabled":false,"rental_uris":{"android":"levelo://app?vid=58f09646-198a-4784-9b3b-ea4659d37cf6","ios":"levelo://app?vid=58f09646-198a-4784-9b3b-ea4659d37cf6"},"vehicle_type_id":"4","last_reported":1700993194,"current_range_meters":28400,"station_id":"ce4bhh12rcd13ifvqfg0","pricing_plan_id":"free"},{"bike_id":"eae4233e-5c8e-459b-8d14-731ee6c7e4fe","system_id":"levelo_inurba_marseille","lat":43.265714,"lon":5.372891,"is_reserved":false,"is_disabled":false,"rental_uris":{"android":"levelo://app?vid=eae4233e-5c8e-459b-8d14-731ee6c7e4fe","ios":"levelo://app?vid=eae4233e-5c8e-459b-8d14-731ee6c7e4fe"},"vehicle_type_id":"4","last_reported":1700993194,"current_range_meters":27600,"station_id":"ce4bhg12rcd13ifvqf70","pricing_plan_id":"free"},{"bike_id":"f9b42e34-c938-4751-a0ed-542b074e380e","system_id":"levelo_inurba_marseille","lat":43.265714,"lon":5.372891,"is_reserved":false,"is_disabled":false,"rental_uris":{"android":"levelo://app?vid=f9b42e34-c938-4751-a0ed-542b074e380e","ios":"levelo://app?vid=f9b42e34-c938-4751-a0ed-542b074e380e"},"vehicle_type_id":"4","last_reported":1700993194,"current_range_meters":22000,"station_id":"ce4bhg12rcd13ifvqf70","pricing_plan_id":"free"},{"bike_id":"a3f89d76-8a6a-4496-a898-4607c6b46081","system_id":"levelo_inurba_marseille","lat":43.267966,"lon":5.393976,"is_reserved":false,"is_disabled":false,"rental_uris":{"android":"levelo://app?vid=a3f89d76-8a6a-4496-a898-4607c6b46081","ios":"levelo://app?vid=a3f89d76-8a6a-4496-a898-4607c6b46081"},"vehicle_type_id":"4","last_reported":1700993194,"current_range_meters":30800,"station_id":"ce4bhh12rcd13ifvqfg0","pricing_plan_id":"free"},{"bike_id":"4288c862-af4b-433c-bb7c-8fc023ffef48","system_id":"levelo_inurba_marseille","lat":43.267966,"lon":5.393976,"is_reserved":false,"is_disabled":false,"rental_uris":{"android":"levelo://app?vid=4288c862-af4b-433c-bb7c-8fc023ffef48","ios":"levelo://app?vid=4288c862-af4b-433c-bb7c-8fc023ffef48"},"vehicle_type_id":"4","last_reported":1700993194,"current_range_meters":27600,"station_id":"ce4bhh12rcd13ifvqfg0","pricing_plan_id":"free"},{"bike_id":"2b5f0b27-ae58-4e9e-bd76-c585f78e8a73","system_id":"levelo_inurba_marseille","lat":43.26386,"lon":5.37454,"is_reserved":false,"is_disabled":false,"rental_uris":{"android":"levelo://app?vid=2b5f0b27-ae58-4e9e-bd76-c585f78e8a73","ios":"levelo://app?vid=2b5f0b27-ae58-4e9e-bd76-c585f78e8a73"},"vehicle_type_id":"4","last_reported":1700993194,"current_range_meters":7600,"station_id":"","pricing_plan_id":"free"},{"bike_id":"9ae2cda8-ba30-4f57-9aaa-5721cc4b2b5a","system_id":"levelo_inurba_marseille","lat":43.308051,"lon":5.43527,"is_reserved":false,"is_disabled":false,"rental_uris":{"android":"levelo://app?vid=9ae2cda8-ba30-4f57-9aaa-5721cc4b2b5a","ios":"levelo://app?vid=9ae2cda8-ba30-4f57-9aaa-5721cc4b2b5a"},"vehicle_type_id":"4","last_reported":1700993194,"current_range_meters":30000,"station_id":"ce4bhph2rcd13ifvqheg","pricing_plan_id":"free"},{"bike_id":"7566e70d-58e0-4a68-8fd4-b312311835d0","system_id":"levelo_inurba_marseille","lat":43.26567,"lon":5.38991,"is_reserved":false,"is_disabled":false,"rental_uris":{"android":"levelo://app?vid=7566e70d-58e0-4a68-8fd4-b312311835d0","ios":"levelo://app?vid=7566e70d-58e0-4a68-8fd4-b312311835d0"},"vehicle_type_id":"4","last_reported":1700993194,"current_range_meters":14800,"station_id":"ce4bhe12rcd13ifvqf30","pricing_plan_id":"free"},{"bike_id":"0474f6b9-ab1b-4858-b9fc-3a9c52d6b038","system_id":"levelo_inurba_marseille","lat":43.265712,"lon":5.390304,"is_reserved":false,"is_disabled":false,"rental_uris":{"android":"levelo://app?vid=0474f6b9-ab1b-4858-b9fc-3a9c52d6b038","ios":"levelo://app?vid=0474f6b9-ab1b-4858-b9fc-3a9c52d6b038"},"vehicle_type_id":"4","last_reported":1700993194,"current_range_meters":25200,"station_id":"ce4bhe12rcd13ifvqf30","pricing_plan_id":"free"},{"bike_id":"0ef7beb1-0e92-4d9b-ba63-b4b6389025b2","system_id":"levelo_inurba_marseille","lat":43.26937,"lon":5.40252,"is_reserved":false,"is_disabled":false,"rental_uris":{"android":"levelo://app?vid=0ef7beb1-0e92-4d9b-ba63-b4b6389025b2","ios":"levelo://app?vid=0ef7beb1-0e92-4d9b-ba63-b4b6389025b2"},"vehicle_type_id":"4","last_reported":1700993194,"current_range_meters":24800,"station_id":"cjm6bp8fraef2m0cb0m0","pricing_plan_id":"free"},{"bike_id":"ad0caf9b-3837-4c22-a6d6-395e8c37d0a8","system_id":"levelo_inurba_marseille","lat":43.26938,"lon":5.40257,"is_reserved":false,"is_disabled":false,"rental_uris":{"android":"levelo://app?vid=ad0caf9b-3837-4c22-a6d6-395e8c37d0a8","ios":"levelo://app?vid=ad0caf9b-3837-4c22-a6d6-395e8c37d0a8"},"vehicle_type_id":"4","last_reported":1700993194,"current_range_meters":14400,"station_id":"cjm6bp8fraef2m0cb0m0","pricing_plan_id":"free"},{"bike_id":"710172ba-98c0-4d51-b613-749248c8a444","system_id":"levelo_inurba_marseille","lat":43.261782,"lon":5.374515,"is_reserved":false,"is_disabled":false,"rental_uris":{"android":"levelo://app?vid=710172ba-98c0-4d51-b613-749248c8a444","ios":"levelo://app?vid=710172ba-98c0-4d51-b613-749248c8a444"},"vehicle_type_id":"4","last_reported":1700993194,"current_range_meters":28400,"station_id":"ce4bhgp2rcd13ifvqfc0","pricing_plan_id":"free"},{"bike_id":"e6ae5fa6-9435-4ad0-836c-d6e0a81870ce","system_id":"levelo_inurba_marseille","lat":43.317104,"lon":5.436818,"is_reserved":false,"is_disabled":false,"rental_uris":{"android":"levelo://app?vid=e6ae5fa6-9435-4ad0-836c-d6e0a81870ce","ios":"levelo://app?vid=e6ae5fa6-9435-4ad0-836c-d6e0a81870ce"},"vehicle_type_id":"4","last_reported":1700993194,"current_range_meters":22400,"station_id":"ce4bhp92rcd13ifvqhcg","pricing_plan_id":"free"},{"bike_id":"770c01ec-945c-44d7-972a-cd512dd5b9a5","system_id":"levelo_inurba_marseille","lat":43.317104,"lon":5.436818,"is_reserved":false,"is_disabled":false,"rental_uris":{"android":"levelo://app?vid=770c01ec-945c-44d7-972a-cd512dd5b9a5","ios":"levelo://app?vid=770c01ec-945c-44d7-972a-cd512dd5b9a5"},"vehicle_type_id":"4","last_reported":1700993194,"current_range_meters":18000,"station_id":"ce4bhp92rcd13ifvqhcg","pricing_plan_id":"free"},{"bike_id":"ec593df7-85d2-4a7c-a892-75fec147bf75","system_id":"levelo_inurba_marseille","lat":43.317104,"lon":5.436818,"is_reserved":false,"is_disabled":false,"rental_uris":{"android":"levelo://app?vid=ec593df7-85d2-4a7c-a892-75fec147bf75","ios":"levelo://app?vid=ec593df7-85d2-4a7c-a892-75fec147bf75"},"vehicle_type_id":"4","last_reported":1700993194,"current_range_meters":30800,"station_id":"ce4bhp92rcd13ifvqhcg","pricing_plan_id":"free"},{"bike_id":"69c23016-61c2-4c94-9138-5d76dcb062ac","system_id":"levelo_inurba_marseille","lat":43.262012,"lon":5.379307,"is_reserved":false,"is_disabled":false,"rental_uris":{"android":"levelo://app?vid=69c23016-61c2-4c94-9138-5d76dcb062ac","ios":"levelo://app?vid=69c23016-61c2-4c94-9138-5d76dcb062ac"},"vehicle_type_id":"4","last_reported":1700993194,"current_range_meters":24400,"station_id":"ce4bhjp2rcd13ifvqg90","pricing_plan_id":"free"},{"bike_id":"168519a5-1052-47ea-a7cb-3924cbbe4eda","system_id":"levelo_inurba_marseille","lat":43.271388,"lon":5.409269,"is_reserved":false,"is_disabled":false,"rental_uris":{"android":"levelo://app?vid=168519a5-1052-47ea-a7cb-3924cbbe4eda","ios":"levelo://app?vid=168519a5-1052-47ea-a7cb-3924cbbe4eda"},"vehicle_type_id":"4","last_reported":1700993194,"current_range_meters":28400,"station_id":"ce4bhl12rcd13ifvqgf0","pricing_plan_id":"free"},{"bike_id":"9e593d08-8c96-44ca-b16e-7bf16e9cac2f","system_id":"levelo_inurba_marseille","lat":43.271368,"lon":5.40928,"is_reserved":false,"is_disabled":false,"rental_uris":{"android":"levelo://app?vid=9e593d08-8c96-44ca-b16e-7bf16e9cac2f","ios":"levelo://app?vid=9e593d08-8c96-44ca-b16e-7bf16e9cac2f"},"vehicle_type_id":"4","last_reported":1700993194,"current_range_meters":31200,"station_id":"ce4bhl12rcd13ifvqgf0","pricing_plan_id":"free"},{"bike_id":"18f6538e-ace0-449c-9add-ff9f568fd93b","system_id":"levelo_inurba_marseille","lat":43.26202,"lon":5.379299,"is_reserved":false,"is_disabled":false,"rental_uris":{"android":"levelo://app?vid=18f6538e-ace0-449c-9add-ff9f568fd93b","ios":"levelo://app?vid=18f6538e-ace0-449c-9add-ff9f568fd93b"},"vehicle_type_id":"4","last_reported":1700993194,"current_range_meters":29200,"station_id":"ce4bhjp2rcd13ifvqg90","pricing_plan_id":"free"},{"bike_id":"dbf62bfb-d43b-46dc-b301-0e9e00d707fe","system_id":"levelo_inurba_marseille","lat":43.261797,"lon":5.379057,"is_reserved":false,"is_disabled":false,"rental_uris":{"android":"levelo://app?vid=dbf62bfb-d43b-46dc-b301-0e9e00d707fe","ios":"levelo://app?vid=dbf62bfb-d43b-46dc-b301-0e9e00d707fe"},"vehicle_type_id":"4","last_reported":1700993194,"current_range_meters":24800,"station_id":"ce4bhjp2rcd13ifvqg90","pricing_plan_id":"free"},{"bike_id":"7c5a83ac-336c-4b91-a5ea-82b3c6d6127d","system_id":"levelo_inurba_marseille","lat":43.298768,"lon":5.43643,"is_reserved":false,"is_disabled":false,"rental_uris":{"android":"levelo://app?vid=7c5a83ac-336c-4b91-a5ea-82b3c6d6127d","ios":"levelo://app?vid=7c5a83ac-336c-4b91-a5ea-82b3c6d6127d"},"vehicle_type_id":"4","last_reported":1700993194,"current_range_meters":32000,"station_id":"ce4bhpp2rcd13ifvqhfg","pricing_plan_id":"free"},{"bike_id":"d24921c1-8c61-4b91-941a-2e11a6ed2b73","system_id":"levelo_inurba_marseille","lat":43.29893,"lon":5.43665,"is_reserved":false,"is_disabled":false,"rental_uris":{"android":"levelo://app?vid=d24921c1-8c61-4b91-941a-2e11a6ed2b73","ios":"levelo://app?vid=d24921c1-8c61-4b91-941a-2e11a6ed2b73"},"vehicle_type_id":"4","last_reported":1700993194,"current_range_meters":30000,"station_id":"ce4bhpp2rcd13ifvqhfg","pricing_plan_id":"free"},{"bike_id":"7c8beddc-bf54-4862-99ee-1c35c2a2d4aa","system_id":"levelo_inurba_marseille","lat":43.298768,"lon":5.43643,"is_reserved":false,"is_disabled":false,"rental_uris":{"android":"levelo://app?vid=7c8beddc-bf54-4862-99ee-1c35c2a2d4aa","ios":"levelo://app?vid=7c8beddc-bf54-4862-99ee-1c35c2a2d4aa"},"vehicle_type_id":"4","last_reported":1700993194,"current_range_meters":7200,"station_id":"ce4bhpp2rcd13ifvqhfg","pricing_plan_id":"free"},{"bike_id":"8af0d2ed-93d1-485d-9803-40c71e52d0d9","system_id":"levelo_inurba_marseille","lat":43.29901,"lon":5.43673,"is_reserved":false,"is_disabled":false,"rental_uris":{"android":"levelo://app?vid=8af0d2ed-93d1-485d-9803-40c71e52d0d9","ios":"levelo://app?vid=8af0d2ed-93d1-485d-9803-40c71e52d0d9"},"vehicle_type_id":"4","last_reported":1700993194,"current_range_meters":8800,"station_id":"ce4bhpp2rcd13ifvqhfg","pricing_plan_id":"free"},{"bike_id":"f4f2e1d5-dafa-412d-9b3a-3611814786ce","system_id":"levelo_inurba_marseille","lat":43.298768,"lon":5.43643,"is_reserved":false,"is_disabled":false,"rental_uris":{"android":"levelo://app?vid=f4f2e1d5-dafa-412d-9b3a-3611814786ce","ios":"levelo://app?vid=f4f2e1d5-dafa-412d-9b3a-3611814786ce"},"vehicle_type_id":"4","last_reported":1700993194,"current_range_meters":31600,"station_id":"ce4bhpp2rcd13ifvqhfg","pricing_plan_id":"free"},{"bike_id":"5d5e0130-0201-4363-90ab-c8b1595d1b8e","system_id":"levelo_inurba_marseille","lat":43.260225,"lon":5.375455,"is_reserved":false,"is_disabled":false,"rental_uris":{"android":"levelo://app?vid=5d5e0130-0201-4363-90ab-c8b1595d1b8e","ios":"levelo://app?vid=5d5e0130-0201-4363-90ab-c8b1595d1b8e"},"vehicle_type_id":"4","last_reported":1700993194,"current_range_meters":18400,"station_id":"ce4bhgh2rcd13ifvqfa0","pricing_plan_id":"free"},{"bike_id":"4e4b5a0a-5437-447c-8830-6affb90e268b","system_id":"levelo_inurba_marseille","lat":43.260219,"lon":5.37546,"is_reserved":false,"is_disabled":false,"rental_uris":{"android":"levelo://app?vid=4e4b5a0a-5437-447c-8830-6affb90e268b","ios":"levelo://app?vid=4e4b5a0a-5437-447c-8830-6affb90e268b"},"vehicle_type_id":"4","last_reported":1700993194,"current_range_meters":24400,"station_id":"ce4bhgh2rcd13ifvqfa0","pricing_plan_id":"free"},{"bike_id":"2628fb3a-9b3a-4836-8cca-8b1625de82d4","system_id":"levelo_inurba_marseille","lat":43.28153,"lon":5.42631,"is_reserved":false,"is_disabled":false,"rental_uris":{"android":"levelo://app?vid=2628fb3a-9b3a-4836-8cca-8b1625de82d4","ios":"levelo://app?vid=2628fb3a-9b3a-4836-8cca-8b1625de82d4"},"vehicle_type_id":"4","last_reported":1700993194,"current_range_meters":12800,"station_id":"ce4bhnh2rcd13ifvqgug","pricing_plan_id":"free"},{"bike_id":"1c8d74f7-5570-450a-a3f0-692cd9a40004","system_id":"levelo_inurba_marseille","lat":43.281548,"lon":5.42643,"is_reserved":false,"is_disabled":false,"rental_uris":{"android":"levelo://app?vid=1c8d74f7-5570-450a-a3f0-692cd9a40004","ios":"levelo://app?vid=1c8d74f7-5570-450a-a3f0-692cd9a40004"},"vehicle_type_id":"4","last_reported":1700993194,"current_range_meters":30800,"station_id":"ce4bhnh2rcd13ifvqgug","pricing_plan_id":"free"},{"bike_id":"842dcf66-28c7-40dc-af0b-7a3c6c857991","system_id":"levelo_inurba_marseille","lat":43.28154,"lon":5.42636,"is_reserved":false,"is_disabled":false,"rental_uris":{"android":"levelo://app?vid=842dcf66-28c7-40dc-af0b-7a3c6c857991","ios":"levelo://app?vid=842dcf66-28c7-40dc-af0b-7a3c6c857991"},"vehicle_type_id":"4","last_reported":1700993194,"current_range_meters":26000,"station_id":"ce4bhnh2rcd13ifvqgug","pricing_plan_id":"free"},{"bike_id":"f68ee4f6-e3d9-4c3c-8264-f88965d8ef31","system_id":"levelo_inurba_marseille","lat":43.28154,"lon":5.42638,"is_reserved":false,"is_disabled":false,"rental_uris":{"android":"levelo://app?vid=f68ee4f6-e3d9-4c3c-8264-f88965d8ef31","ios":"levelo://app?vid=f68ee4f6-e3d9-4c3c-8264-f88965d8ef31"},"vehicle_type_id":"4","last_reported":1700993194,"current_range_meters":12000,"station_id":"ce4bhnh2rcd13ifvqgug","pricing_plan_id":"free"},{"bike_id":"c87cdef8-d70c-463e-88fd-987162c81837","system_id":"levelo_inurba_marseille","lat":43.281545,"lon":5.42639,"is_reserved":false,"is_disabled":false,"rental_uris":{"android":"levelo://app?vid=c87cdef8-d70c-463e-88fd-987162c81837","ios":"levelo://app?vid=c87cdef8-d70c-463e-88fd-987162c81837"},"vehicle_type_id":"4","last_reported":1700993194,"current_range_meters":16000,"station_id":"ce4bhnh2rcd13ifvqgug","pricing_plan_id":"free"},{"bike_id":"dc0c3350-5dd6-44a3-9302-c3102229fc54","system_id":"levelo_inurba_marseille","lat":43.281548,"lon":5.42643,"is_reserved":false,"is_disabled":false,"rental_uris":{"android":"levelo://app?vid=dc0c3350-5dd6-44a3-9302-c3102229fc54","ios":"levelo://app?vid=dc0c3350-5dd6-44a3-9302-c3102229fc54"},"vehicle_type_id":"4","last_reported":1700993194,"current_range_meters":26400,"station_id":"ce4bhnh2rcd13ifvqgug","pricing_plan_id":"free"},{"bike_id":"bcd24cec-10c7-43f7-a2af-6bd574f1e73e","system_id":"levelo_inurba_marseille","lat":43.28153,"lon":5.42639,"is_reserved":false,"is_disabled":false,"rental_uris":{"android":"levelo://app?vid=bcd24cec-10c7-43f7-a2af-6bd574f1e73e","ios":"levelo://app?vid=bcd24cec-10c7-43f7-a2af-6bd574f1e73e"},"vehicle_type_id":"4","last_reported":1700993194,"current_range_meters":8400,"station_id":"ce4bhnh2rcd13ifvqgug","pricing_plan_id":"free"},{"bike_id":"91b404f7-dd69-4e65-9cf1-9f90fef0012e","system_id":"levelo_inurba_marseille","lat":43.281522,"lon":5.426415,"is_reserved":false,"is_disabled":false,"rental_uris":{"android":"levelo://app?vid=91b404f7-dd69-4e65-9cf1-9f90fef0012e","ios":"levelo://app?vid=91b404f7-dd69-4e65-9cf1-9f90fef0012e"},"vehicle_type_id":"4","last_reported":1700993194,"current_range_meters":29600,"station_id":"ce4bhnh2rcd13ifvqgug","pricing_plan_id":"free"},{"bike_id":"006f1478-b3a1-4c5b-bb58-6b7da0cc1461","system_id":"levelo_inurba_marseille","lat":43.2607,"lon":5.393983,"is_reserved":false,"is_disabled":false,"rental_uris":{"android":"levelo://app?vid=006f1478-b3a1-4c5b-bb58-6b7da0cc1461","ios":"levelo://app?vid=006f1478-b3a1-4c5b-bb58-6b7da0cc1461"},"vehicle_type_id":"4","last_reported":1700993194,"current_range_meters":21600,"station_id":"ce4bhh92rcd13ifvqfj0","pricing_plan_id":"free"},{"bike_id":"25f53fe9-442d-4a6b-bff7-b174c2430662","system_id":"levelo_inurba_marseille","lat":43.2607,"lon":5.393983,"is_reserved":false,"is_disabled":false,"rental_uris":{"android":"levelo://app?vid=25f53fe9-442d-4a6b-bff7-b174c2430662","ios":"levelo://app?vid=25f53fe9-442d-4a6b-bff7-b174c2430662"},"vehicle_type_id":"4","last_reported":1700993194,"current_range_meters":30000,"station_id":"ce4bhh92rcd13ifvqfj0","pricing_plan_id":"free"},{"bike_id":"b65b9c54-d36b-463e-8b4c-ee74997be54e","system_id":"levelo_inurba_marseille","lat":43.2607,"lon":5.393983,"is_reserved":false,"is_disabled":false,"rental_uris":{"android":"levelo://app?vid=b65b9c54-d36b-463e-8b4c-ee74997be54e","ios":"levelo://app?vid=b65b9c54-d36b-463e-8b4c-ee74997be54e"},"vehicle_type_id":"4","last_reported":1700993194,"current_range_meters":14800,"station_id":"ce4bhh92rcd13ifvqfj0","pricing_plan_id":"free"},{"bike_id":"be64daa4-651e-49cc-985e-fc8eb2f1ac5c","system_id":"levelo_inurba_marseille","lat":43.275028,"lon":5.424534,"is_reserved":false,"is_disabled":false,"rental_uris":{"android":"levelo://app?vid=be64daa4-651e-49cc-985e-fc8eb2f1ac5c","ios":"levelo://app?vid=be64daa4-651e-49cc-985e-fc8eb2f1ac5c"},"vehicle_type_id":"4","last_reported":1700993194,"current_range_meters":30000,"station_id":"ce4bhn92rcd13ifvqgrg","pricing_plan_id":"free"},{"bike_id":"c1adb875-0c34-4f35-aefb-e41572323da8","system_id":"levelo_inurba_marseille","lat":43.260884,"lon":5.397558,"is_reserved":false,"is_disabled":false,"rental_uris":{"android":"levelo://app?vid=c1adb875-0c34-4f35-aefb-e41572323da8","ios":"levelo://app?vid=c1adb875-0c34-4f35-aefb-e41572323da8"},"vehicle_type_id":"4","last_reported":1700993194,"current_range_meters":18400,"station_id":"ce4bhi12rcd13ifvqfq0","pricing_plan_id":"free"},{"bike_id":"e2482bab-1eb4-4a6f-b7fd-75767a4a3271","system_id":"levelo_inurba_marseille","lat":43.275028,"lon":5.424534,"is_reserved":false,"is_disabled":false,"rental_uris":{"android":"levelo://app?vid=e2482bab-1eb4-4a6f-b7fd-75767a4a3271","ios":"levelo://app?vid=e2482bab-1eb4-4a6f-b7fd-75767a4a3271"},"vehicle_type_id":"4","last_reported":1700993194,"current_range_meters":29200,"station_id":"ce4bhn92rcd13ifvqgrg","pricing_plan_id":"free"},{"bike_id":"503bbd35-5565-42f7-9e59-5026d025b01e","system_id":"levelo_inurba_marseille","lat":43.274902,"lon":5.424528,"is_reserved":false,"is_disabled":false,"rental_uris":{"android":"levelo://app?vid=503bbd35-5565-42f7-9e59-5026d025b01e","ios":"levelo://app?vid=503bbd35-5565-42f7-9e59-5026d025b01e"},"vehicle_type_id":"4","last_reported":1700993194,"current_range_meters":27200,"station_id":"ce4bhn92rcd13ifvqgrg","pricing_plan_id":"free"},{"bike_id":"9ae83bda-b0aa-4bb6-8db1-9e8551b5d543","system_id":"levelo_inurba_marseille","lat":43.260909,"lon":5.397591,"is_reserved":false,"is_disabled":false,"rental_uris":{"android":"levelo://app?vid=9ae83bda-b0aa-4bb6-8db1-9e8551b5d543","ios":"levelo://app?vid=9ae83bda-b0aa-4bb6-8db1-9e8551b5d543"},"vehicle_type_id":"4","last_reported":1700993194,"current_range_meters":29200,"station_id":"ce4bhi12rcd13ifvqfq0","pricing_plan_id":"free"},{"bike_id":"c85f7616-3a9e-47a4-ae16-28a03e51ab4f","system_id":"levelo_inurba_marseille","lat":43.28929,"lon":5.438754,"is_reserved":false,"is_disabled":false,"rental_uris":{"android":"levelo://app?vid=c85f7616-3a9e-47a4-ae16-28a03e51ab4f","ios":"levelo://app?vid=c85f7616-3a9e-47a4-ae16-28a03e51ab4f"},"vehicle_type_id":"4","last_reported":1700993194,"current_range_meters":9200,"station_id":"","pricing_plan_id":"free"},{"bike_id":"2815230e-bf9b-400c-be93-737a58174572","system_id":"levelo_inurba_marseille","lat":43.258308,"lon":5.394268,"is_reserved":false,"is_disabled":false,"rental_uris":{"android":"levelo://app?vid=2815230e-bf9b-400c-be93-737a58174572","ios":"levelo://app?vid=2815230e-bf9b-400c-be93-737a58174572"},"vehicle_type_id":"4","last_reported":1700993194,"current_range_meters":27200,"station_id":"ce4bhip2rcd13ifvqft0","pricing_plan_id":"free"},{"bike_id":"50212635-4160-4083-b7f4-667edaba123a","system_id":"levelo_inurba_marseille","lat":43.2583,"lon":5.3943,"is_reserved":false,"is_disabled":false,"rental_uris":{"android":"levelo://app?vid=50212635-4160-4083-b7f4-667edaba123a","ios":"levelo://app?vid=50212635-4160-4083-b7f4-667edaba123a"},"vehicle_type_id":"4","last_reported":1700993194,"current_range_meters":11200,"station_id":"ce4bhip2rcd13ifvqft0","pricing_plan_id":"free"},{"bike_id":"cc686c65-7b5e-46ec-ba12-69b28869e277","system_id":"levelo_inurba_marseille","lat":43.25585,"lon":5.38228,"is_reserved":false,"is_disabled":false,"rental_uris":{"android":"levelo://app?vid=cc686c65-7b5e-46ec-ba12-69b28869e277","ios":"levelo://app?vid=cc686c65-7b5e-46ec-ba12-69b28869e277"},"vehicle_type_id":"4","last_reported":1700993194,"current_range_meters":25600,"station_id":"ce4bhih2rcd13ifvqfs0","pricing_plan_id":"free"},{"bike_id":"6f1f1c63-6c26-412d-aaff-6305e92381b7","system_id":"levelo_inurba_marseille","lat":43.25585,"lon":5.38233,"is_reserved":false,"is_disabled":false,"rental_uris":{"android":"levelo://app?vid=6f1f1c63-6c26-412d-aaff-6305e92381b7","ios":"levelo://app?vid=6f1f1c63-6c26-412d-aaff-6305e92381b7"},"vehicle_type_id":"4","last_reported":1700993194,"current_range_meters":22000,"station_id":"ce4bhih2rcd13ifvqfs0","pricing_plan_id":"free"},{"bike_id":"c32181e7-cd0d-465e-9bc3-b5345e6a44e9","system_id":"levelo_inurba_marseille","lat":43.255843,"lon":5.382332,"is_reserved":false,"is_disabled":false,"rental_uris":{"android":"levelo://app?vid=c32181e7-cd0d-465e-9bc3-b5345e6a44e9","ios":"levelo://app?vid=c32181e7-cd0d-465e-9bc3-b5345e6a44e9"},"vehicle_type_id":"4","last_reported":1700993194,"current_range_meters":14800,"station_id":"ce4bhih2rcd13ifvqfs0","pricing_plan_id":"free"},{"bike_id":"e2b8f5c8-9aa0-4d6c-9e5c-3fd125b91252","system_id":"levelo_inurba_marseille","lat":43.255841,"lon":5.382327,"is_reserved":false,"is_disabled":false,"rental_uris":{"android":"levelo://app?vid=e2b8f5c8-9aa0-4d6c-9e5c-3fd125b91252","ios":"levelo://app?vid=e2b8f5c8-9aa0-4d6c-9e5c-3fd125b91252"},"vehicle_type_id":"4","last_reported":1700993194,"current_range_meters":23600,"station_id":"ce4bhih2rcd13ifvqfs0","pricing_plan_id":"free"},{"bike_id":"3fd3c5a3-cb38-4c28-8b35-b565acf956f4","system_id":"levelo_inurba_marseille","lat":43.25584,"lon":5.38236,"is_reserved":false,"is_disabled":false,"rental_uris":{"android":"levelo://app?vid=3fd3c5a3-cb38-4c28-8b35-b565acf956f4","ios":"levelo://app?vid=3fd3c5a3-cb38-4c28-8b35-b565acf956f4"},"vehicle_type_id":"4","last_reported":1700993194,"current_range_meters":26800,"station_id":"ce4bhih2rcd13ifvqfs0","pricing_plan_id":"free"},{"bike_id":"53ae05c5-1664-4ddb-ae58-547f63e25710","system_id":"levelo_inurba_marseille","lat":43.25826,"lon":5.3943,"is_reserved":false,"is_disabled":false,"rental_uris":{"android":"levelo://app?vid=53ae05c5-1664-4ddb-ae58-547f63e25710","ios":"levelo://app?vid=53ae05c5-1664-4ddb-ae58-547f63e25710"},"vehicle_type_id":"4","last_reported":1700993194,"current_range_meters":27200,"station_id":"ce4bhip2rcd13ifvqft0","pricing_plan_id":"free"},{"bike_id":"13675ff3-6c2c-4f19-aa94-1f873f573bf1","system_id":"levelo_inurba_marseille","lat":43.25582,"lon":5.38231,"is_reserved":false,"is_disabled":false,"rental_uris":{"android":"levelo://app?vid=13675ff3-6c2c-4f19-aa94-1f873f573bf1","ios":"levelo://app?vid=13675ff3-6c2c-4f19-aa94-1f873f573bf1"},"vehicle_type_id":"4","last_reported":1700993194,"current_range_meters":28400,"station_id":"ce4bhih2rcd13ifvqfs0","pricing_plan_id":"free"},{"bike_id":"56655657-f3ea-43f5-aaa7-b1dc90cfc208","system_id":"levelo_inurba_marseille","lat":43.25502,"lon":5.37651,"is_reserved":false,"is_disabled":false,"rental_uris":{"android":"levelo://app?vid=56655657-f3ea-43f5-aaa7-b1dc90cfc208","ios":"levelo://app?vid=56655657-f3ea-43f5-aaa7-b1dc90cfc208"},"vehicle_type_id":"4","last_reported":1700993194,"current_range_meters":22800,"station_id":"ce4bhh12rcd13ifvqff0","pricing_plan_id":"free"},{"bike_id":"66c4c4bb-d029-41d1-b91a-0c0922bc45c0","system_id":"levelo_inurba_marseille","lat":43.254947,"lon":5.376454,"is_reserved":false,"is_disabled":false,"rental_uris":{"android":"levelo://app?vid=66c4c4bb-d029-41d1-b91a-0c0922bc45c0","ios":"levelo://app?vid=66c4c4bb-d029-41d1-b91a-0c0922bc45c0"},"vehicle_type_id":"4","last_reported":1700993194,"current_range_meters":22400,"station_id":"ce4bhh12rcd13ifvqff0","pricing_plan_id":"free"},{"bike_id":"5e4358a6-9fee-4f7e-9d89-a4bfe129b7f4","system_id":"levelo_inurba_marseille","lat":43.254947,"lon":5.376454,"is_reserved":false,"is_disabled":false,"rental_uris":{"android":"levelo://app?vid=5e4358a6-9fee-4f7e-9d89-a4bfe129b7f4","ios":"levelo://app?vid=5e4358a6-9fee-4f7e-9d89-a4bfe129b7f4"},"vehicle_type_id":"4","last_reported":1700993194,"current_range_meters":31200,"station_id":"ce4bhh12rcd13ifvqff0","pricing_plan_id":"free"},{"bike_id":"6a016b3a-b2d3-4f01-89cb-938c69fa36d8","system_id":"levelo_inurba_marseille","lat":43.25491,"lon":5.37647,"is_reserved":false,"is_disabled":false,"rental_uris":{"android":"levelo://app?vid=6a016b3a-b2d3-4f01-89cb-938c69fa36d8","ios":"levelo://app?vid=6a016b3a-b2d3-4f01-89cb-938c69fa36d8"},"vehicle_type_id":"4","last_reported":1700993194,"current_range_meters":30400,"station_id":"","pricing_plan_id":"free"},{"bike_id":"f14e1efb-7f95-4b76-a1f3-3242ec7da903","system_id":"levelo_inurba_marseille","lat":43.2549,"lon":5.37646,"is_reserved":false,"is_disabled":false,"rental_uris":{"android":"levelo://app?vid=f14e1efb-7f95-4b76-a1f3-3242ec7da903","ios":"levelo://app?vid=f14e1efb-7f95-4b76-a1f3-3242ec7da903"},"vehicle_type_id":"4","last_reported":1700993194,"current_range_meters":28800,"station_id":"ce4bhh12rcd13ifvqff0","pricing_plan_id":"free"},{"bike_id":"3533a6b9-c640-434b-b433-4e41e36be1b7","system_id":"levelo_inurba_marseille","lat":43.270721,"lon":5.422764,"is_reserved":false,"is_disabled":false,"rental_uris":{"android":"levelo://app?vid=3533a6b9-c640-434b-b433-4e41e36be1b7","ios":"levelo://app?vid=3533a6b9-c640-434b-b433-4e41e36be1b7"},"vehicle_type_id":"4","last_reported":1700993194,"current_range_meters":31200,"station_id":"ce4bhk92rcd13ifvqgb0","pricing_plan_id":"free"},{"bike_id":"052bfd08-e7dd-4dd2-b76f-0c8604502707","system_id":"levelo_inurba_marseille","lat":43.2707,"lon":5.42278,"is_reserved":false,"is_disabled":false,"rental_uris":{"android":"levelo://app?vid=052bfd08-e7dd-4dd2-b76f-0c8604502707","ios":"levelo://app?vid=052bfd08-e7dd-4dd2-b76f-0c8604502707"},"vehicle_type_id":"4","last_reported":1700993194,"current_range_meters":24400,"station_id":"ce4bhk92rcd13ifvqgb0","pricing_plan_id":"free"},{"bike_id":"fa94e1b3-924d-484c-aa3a-070aacbdbbfd","system_id":"levelo_inurba_marseille","lat":43.270692,"lon":5.422783,"is_reserved":false,"is_disabled":false,"rental_uris":{"android":"levelo://app?vid=fa94e1b3-924d-484c-aa3a-070aacbdbbfd","ios":"levelo://app?vid=fa94e1b3-924d-484c-aa3a-070aacbdbbfd"},"vehicle_type_id":"4","last_reported":1700993194,"current_range_meters":30000,"station_id":"ce4bhk92rcd13ifvqgb0","pricing_plan_id":"free"},{"bike_id":"e06a8c78-4d48-491c-8072-84514714cbe8","system_id":"levelo_inurba_marseille","lat":43.270721,"lon":5.422764,"is_reserved":false,"is_disabled":false,"rental_uris":{"android":"levelo://app?vid=e06a8c78-4d48-491c-8072-84514714cbe8","ios":"levelo://app?vid=e06a8c78-4d48-491c-8072-84514714cbe8"},"vehicle_type_id":"4","last_reported":1700993194,"current_range_meters":31200,"station_id":"ce4bhk92rcd13ifvqgb0","pricing_plan_id":"free"},{"bike_id":"3764d48b-8e61-4222-bf2f-e0a7f6536aa8","system_id":"levelo_inurba_marseille","lat":43.27064,"lon":5.42274,"is_reserved":false,"is_disabled":false,"rental_uris":{"android":"levelo://app?vid=3764d48b-8e61-4222-bf2f-e0a7f6536aa8","ios":"levelo://app?vid=3764d48b-8e61-4222-bf2f-e0a7f6536aa8"},"vehicle_type_id":"4","last_reported":1700993194,"current_range_meters":30400,"station_id":"ce4bhk92rcd13ifvqgb0","pricing_plan_id":"free"},{"bike_id":"c683c13a-a9fe-443b-a860-642c2b85e5b7","system_id":"levelo_inurba_marseille","lat":43.27069,"lon":5.42282,"is_reserved":false,"is_disabled":false,"rental_uris":{"android":"levelo://app?vid=c683c13a-a9fe-443b-a860-642c2b85e5b7","ios":"levelo://app?vid=c683c13a-a9fe-443b-a860-642c2b85e5b7"},"vehicle_type_id":"4","last_reported":1700993194,"current_range_meters":11200,"station_id":"ce4bhk92rcd13ifvqgb0","pricing_plan_id":"free"},{"bike_id":"428d60de-228f-4777-b950-10e56fd61025","system_id":"levelo_inurba_marseille","lat":43.259009,"lon":5.40929,"is_reserved":false,"is_disabled":false,"rental_uris":{"android":"levelo://app?vid=428d60de-228f-4777-b950-10e56fd61025","ios":"levelo://app?vid=428d60de-228f-4777-b950-10e56fd61025"},"vehicle_type_id":"4","last_reported":1700993194,"current_range_meters":24000,"station_id":"ce4bhm92rcd13ifvqglg","pricing_plan_id":"free"},{"bike_id":"0b8e004f-c033-4d03-aaed-ee97b6faae0d","system_id":"levelo_inurba_marseille","lat":43.259292,"lon":5.409074,"is_reserved":false,"is_disabled":false,"rental_uris":{"android":"levelo://app?vid=0b8e004f-c033-4d03-aaed-ee97b6faae0d","ios":"levelo://app?vid=0b8e004f-c033-4d03-aaed-ee97b6faae0d"},"vehicle_type_id":"4","last_reported":1700993194,"current_range_meters":20400,"station_id":"ce4bhm92rcd13ifvqglg","pricing_plan_id":"free"},{"bike_id":"22a366ac-5382-4e2c-9fc6-96ed97199718","system_id":"levelo_inurba_marseille","lat":43.25929,"lon":5.4091,"is_reserved":false,"is_disabled":false,"rental_uris":{"android":"levelo://app?vid=22a366ac-5382-4e2c-9fc6-96ed97199718","ios":"levelo://app?vid=22a366ac-5382-4e2c-9fc6-96ed97199718"},"vehicle_type_id":"4","last_reported":1700993194,"current_range_meters":23600,"station_id":"ce4bhm92rcd13ifvqglg","pricing_plan_id":"free"},{"bike_id":"e9b6a1d5-c740-405d-a6f8-282eec5a3660","system_id":"levelo_inurba_marseille","lat":43.25729,"lon":5.41106,"is_reserved":false,"is_disabled":false,"rental_uris":{"android":"levelo://app?vid=e9b6a1d5-c740-405d-a6f8-282eec5a3660","ios":"levelo://app?vid=e9b6a1d5-c740-405d-a6f8-282eec5a3660"},"vehicle_type_id":"4","last_reported":1700993194,"current_range_meters":16800,"station_id":"ce4bhkp2rcd13ifvqgd0","pricing_plan_id":"free"},{"bike_id":"4606ad6c-fa8b-4ebc-addb-ea92d3650051","system_id":"levelo_inurba_marseille","lat":43.250023,"lon":5.38919,"is_reserved":false,"is_disabled":false,"rental_uris":{"android":"levelo://app?vid=4606ad6c-fa8b-4ebc-addb-ea92d3650051","ios":"levelo://app?vid=4606ad6c-fa8b-4ebc-addb-ea92d3650051"},"vehicle_type_id":"4","last_reported":1700993194,"current_range_meters":28800,"station_id":"ce4bhgp2rcd13ifvqfd0","pricing_plan_id":"free"},