{"last_updated":1699718865,"ttl":30,"version":"2.2","data":{"bikes":[{"bike_id":"a303c1eb-c1f9-4f91-8e86-71c806c20ac5","system_id":"levelo_inurba_marseille","lat":43.311649,"lon":5.372457,"is_reserved":false,"is_disabled":false,"rental_uris":{"android":"levelo://app?vid=a303c1eb-c1f9-4f91-8e86-71c806c20ac5","ios":"levelo://app?vid=a303c1eb-c1f9-4f91-8e86-71c806c20ac5"},"vehicle_type_id":"4","last_reported":1699718865,"current_range_meters":28000,"station_id":"","pricing_plan_id":"free"},{"bike_id":"0c807ec8-4bf1-44ef-8d87-e59cd41164e7","system_id":"levelo_inurba_marseille","lat":43.30532,"lon":5.36703,"is_reserved":false,"is_disabled":false,"rental_uris":{"android":"levelo://app?vid=0c807ec8-4bf1-44ef-8d87-e59cd41164e7","ios":"levelo://app?vid=0c807ec8-4bf1-44ef-8d87-e59cd41164e7"},"vehicle_type_id":"4","last_reported":1699718865,"current_range_meters":0,"station_id":"ce4bgrp2rcd13ifvqc9g","pricing_plan_id":"free"},{"bike_id":"25f7adfb-6679-4573-9f9d-f82c0c19e99e","system_id":"levelo_inurba_marseille","lat":43.30538,"lon":5.36554,"is_reserved":false,"is_disabled":false,"rental_uris":{"android":"levelo://app?vid=25f7adfb-6679-4573-9f9d-f82c0c19e99e","ios":"levelo://app?vid=25f7adfb-6679-4573-9f9d-f82c0c19e99e"},"vehicle_type_id":"4","last_reported":1699718865,"current_range_meters":11600,"station_id":"ce4bgs12rcd13ifvqcag","pricing_plan_id":"free"},{"bike_id":"76b359af-c20b-45d0-a1df-78f4c9a6553a","system_id":"levelo_inurba_marseille","lat":43.30531,"lon":5.36544,"is_reserved":false,"is_disabled":false,"rental_uris":{"android":"levelo://app?vid=76b359af-c20b-45d0-a1df-78f4c9a6553a","ios":"levelo://app?vid=76b359af-c20b-45d0-a1df-78f4c9a6553a"},"vehicle_type_id":"4","last_reported":1699718865,"current_range_meters":18800,"station_id":"ce4bgs12rcd13ifvqcag","pricing_plan_id":"free"},{"bike_id":"5c590f75-aa1f-49bb-beb0-4cbfe60c857b","system_id":"levelo_inurba_marseille","lat":43.31698,"lon":5.3765,"is_reserved":false,"is_disabled":false,"rental_uris":{"android":"levelo://app?vid=5c590f75-aa1f-49bb-beb0-4cbfe60c857b","ios":"levelo://app?vid=5c590f75-aa1f-49bb-beb0-4cbfe60c857b"},"vehicle_type_id":"4","last_reported":1699718865,"current_range_meters":29200,"station_id":"","pricing_plan_id":"free"},{"bike_id":"01ac3eb4-b2c4-457d-a5ce-da3d46627fbd","system_id":"levelo_inurba_marseille","lat":43.307945,"lon":5.376487,"is_reserved":false,"is_disabled":false,"rental_uris":{"android":"levelo://app?vid=01ac3eb4-b2c4-457d-a5ce-da3d46627fbd","ios":"levelo://app?vid=01ac3eb4-b2c4-457d-a5ce-da3d46627fbd"},"vehicle_type_id":"4","last_reported":1699718865,"current_range_meters":18800,"station_id":"ce4bgv92rcd13ifvqcq0","pricing_plan_id":"free"},{"bike_id":"57053367-5328-4d78-8951-737f56b37ed9","system_id":"levelo_inurba_marseille","lat":43.319924,"lon":5.373389,"is_reserved":false,"is_disabled":false,"rental_uris":{"android":"levelo://app?vid=57053367-5328-4d78-8951-737f56b37ed9","ios":"levelo://app?vid=57053367-5328-4d78-8951-737f56b37ed9"},"vehicle_type_id":"4","last_reported":1699718865,"current_range_meters":18000,"station_id":"","pricing_plan_id":"free"},{"bike_id":"12491acf-db73-45e6-bc5a-accecb46cf62","system_id":"levelo_inurba_marseille","lat":43.317075,"lon":5.377367,"is_reserved":false,"is_disabled":false,"rental_uris":{"android":"levelo://app?vid=12491acf-db73-45e6-bc5a-accecb46cf62","ios":"levelo://app?vid=12491acf-db73-45e6-bc5a-accecb46cf62"},"vehicle_type_id":"4","last_reported":1699718865,"current_range_meters":5200,"station_id":"ce4bgth2rcd13ifvqch0","pricing_plan_id":"free"},{"bike_id":"c2740663-bef6-4a57-bac7-84d1762c495c","system_id":"levelo_inurba_marseille","lat":43.30183,"lon":5.36625,"is_reserved":false,"is_disabled":false,"rental_uris":{"android":"levelo://app?vid=c2740663-bef6-4a57-bac7-84d1762c495c","ios":"levelo://app?vid=c2740663-bef6-4a57-bac7-84d1762c495c"},"vehicle_type_id":"4","last_reported":1699718865,"current_range_meters":17200,"station_id":"ce4bgrh2rcd13ifvqc8g","pricing_plan_id":"free"},{"bike_id":"697fee07-62df-44e5-861b-24bcc599bc59","system_id":"levelo_inurba_marseille","lat":43.31004,"lon":5.38159,"is_reserved":false,"is_disabled":false,"rental_uris":{"android":"levelo://app?vid=697fee07-62df-44e5-861b-24bcc599bc59","ios":"levelo://app?vid=697fee07-62df-44e5-861b-24bcc599bc59"},"vehicle_type_id":"4","last_reported":1699718865,"current_range_meters":20400,"station_id":"","pricing_plan_id":"free"},{"bike_id":"4544d3fc-e8f8-4571-b035-db997311a1bd","system_id":"levelo_inurba_marseille","lat":43.30804,"lon":5.381505,"is_reserved":false,"is_disabled":false,"rental_uris":{"android":"levelo://app?vid=4544d3fc-e8f8-4571-b035-db997311a1bd","ios":"levelo://app?vid=4544d3fc-e8f8-4571-b035-db997311a1bd"},"vehicle_type_id":"4","last_reported":1699718865,"current_range_meters":3600,"station_id":"ce4bgt12rcd13ifvqce0","pricing_plan_id":"free"},{"bike_id":"5611e1e7-ddda-4a1e-9e13-3b5cc88a4ca3","system_id":"levelo_inurba_marseille","lat":43.308,"lon":5.38156,"is_reserved":false,"is_disabled":false,"rental_uris":{"android":"levelo://app?vid=5611e1e7-ddda-4a1e-9e13-3b5cc88a4ca3","ios":"levelo://app?vid=5611e1e7-ddda-4a1e-9e13-3b5cc88a4ca3"},"vehicle_type_id":"4","last_reported":1699718865,"current_range_meters":0,"station_id":"ce4bgt12rcd13ifvqce0","pricing_plan_id":"free"},{"bike_id":"a26a672c-8f86-40f5-9e8e-9856cf399a24","system_id":"levelo_inurba_marseille","lat":43.307997,"lon":5.38163,"is_reserved":false,"is_disabled":false,"rental_uris":{"android":"levelo://app?vid=a26a672c-8f86-40f5-9e8e-9856cf399a24","ios":"levelo://app?vid=a26a672c-8f86-40f5-9e8e-9856cf399a24"},"vehicle_type_id":"4","last_reported":1699718865,"current_range_meters":26400,"station_id":"ce4bgt12rcd13ifvqce0","pricing_plan_id":"free"},{"bike_id":"8ef52193-4a3c-4256-8c92-d02dc1148f05","system_id":"levelo_inurba_marseille","lat":43.32481,"lon":5.36559,"is_reserved":false,"is_disabled":false,"rental_uris":{"android":"levelo://app?vid=8ef52193-4a3c-4256-8c92-d02dc1148f05","ios":"levelo://app?vid=8ef52193-4a3c-4256-8c92-d02dc1148f05"},"vehicle_type_id":"4","last_reported":1699718865,"current_range_meters":11600,"station_id":"ce4bhs12rcd13ifvqhvg","pricing_plan_id":"free"},{"bike_id":"3dfdc2f4-8851-4848-8441-1e9a9546fe42","system_id":"levelo_inurba_marseille","lat":43.316386,"lon":5.383374,"is_reserved":false,"is_disabled":false,"rental_uris":{"android":"levelo://app?vid=3dfdc2f4-8851-4848-8441-1e9a9546fe42","ios":"levelo://app?vid=3dfdc2f4-8851-4848-8441-1e9a9546fe42"},"vehicle_type_id":"4","last_reported":1699718865,"current_range_meters":18000,"station_id":"ce4bhr12rcd13ifvqhpg","pricing_plan_id":"free"},{"bike_id":"3819deec-fe3d-41c7-8346-2b107cb07054","system_id":"levelo_inurba_marseille","lat":43.315237,"lon":5.383797,"is_reserved":false,"is_disabled":false,"rental_uris":{"android":"levelo://app?vid=3819deec-fe3d-41c7-8346-2b107cb07054","ios":"levelo://app?vid=3819deec-fe3d-41c7-8346-2b107cb07054"},"vehicle_type_id":"4","last_reported":1699718865,"current_range_meters":0,"station_id":"","pricing_plan_id":"free"},{"bike_id":"d77686bd-d946-45ab-93d8-ee8e91a94486","system_id":"levelo_inurba_marseille","lat":43.30138,"lon":5.37419,"is_reserved":false,"is_disabled":false,"rental_uris":{"android":"levelo://app?vid=d77686bd-d946-45ab-93d8-ee8e91a94486","ios":"levelo://app?vid=d77686bd-d946-45ab-93d8-ee8e91a94486"},"vehicle_type_id":"4","last_reported":1699718865,"current_range_meters":0,"station_id":"ce4bgs92rcd13ifvqcc0","pricing_plan_id":"free"},{"bike_id":"69166d53-ec8e-4a0a-864c-7a29f7650dd8","system_id":"levelo_inurba_marseille","lat":43.321148,"lon":5.380054,"is_reserved":false,"is_disabled":false,"rental_uris":{"android":"levelo://app?vid=69166d53-ec8e-4a0a-864c-7a29f7650dd8","ios":"levelo://app?vid=69166d53-ec8e-4a0a-864c-7a29f7650dd8"},"vehicle_type_id":"4","last_reported":1699718865,"current_range_meters":18400,"station_id":"","pricing_plan_id":"free"},{"bike_id":"13d78257-2559-4a10-97b8-aaa7032179bc","system_id":"levelo_inurba_marseille","lat":43.319975,"lon":5.381519,"is_reserved":false,"is_disabled":false,"rental_uris":{"android":"levelo://app?vid=13d78257-2559-4a10-97b8-aaa7032179bc","ios":"levelo://app?vid=13d78257-2559-4a10-97b8-aaa7032179bc"},"vehicle_type_id":"4","last_reported":1699718865,"current_range_meters":4000,"station_id":"","pricing_plan_id":"free"},{"bike_id":"b94b821f-6efb-456a-820a-11f6b2c6b4e8","system_id":"levelo_inurba_marseille","lat":43.313571,"lon":5.384829,"is_reserved":false,"is_disabled":false,"rental_uris":{"android":"levelo://app?vid=b94b821f-6efb-456a-820a-11f6b2c6b4e8","ios":"levelo://app?vid=b94b821f-6efb-456a-820a-11f6b2c6b4e8"},"vehicle_type_id":"4","last_reported":1699718865,"current_range_meters":6800,"station_id":"ce4bgt92rcd13ifvqcf0","pricing_plan_id":"free"},{"bike_id":"6e1ba5a5-2a69-4a11-907c-3184ac80d3a0","system_id":"levelo_inurba_marseille","lat":43.313571,"lon":5.384829,"is_reserved":false,"is_disabled":false,"rental_uris":{"android":"levelo://app?vid=6e1ba5a5-2a69-4a11-907c-3184ac80d3a0","ios":"levelo://app?vid=6e1ba5a5-2a69-4a11-907c-3184ac80d3a0"},"vehicle_type_id":"4","last_reported":1699718865,"current_range_meters":2400,"station_id":"ce4bgt92rcd13ifvqcf0","pricing_plan_id":"free"},{"bike_id":"a9805820-e884-43dd-9982-f6a632a612bb","system_id":"levelo_inurba_marseille","lat":43.313571,"lon":5.384829,"is_reserved":false,"is_disabled":false,"rental_uris":{"android":"levelo://app?vid=a9805820-e884-43dd-9982-f6a632a612bb","ios":"levelo://app?vid=a9805820-e884-43dd-9982-f6a632a612bb"},"vehicle_type_id":"4","last_reported":1699718865,"current_range_meters":15200,"station_id":"ce4bgt92rcd13ifvqcf0","pricing_plan_id":"free"},{"bike_id":"42742173-5ae2-4ec3-9932-162a5f82840c","system_id":"levelo_inurba_marseille","lat":43.313571,"lon":5.384829,"is_reserved":false,"is_disabled":false,"rental_uris":{"android":"levelo://app?vid=42742173-5ae2-4ec3-9932-162a5f82840c","ios":"levelo://app?vid=42742173-5ae2-4ec3-9932-162a5f82840c"},"vehicle_type_id":"4","last_reported":1699718865,"current_range_meters":7200,"station_id":"ce4bgt92rcd13ifvqcf0","pricing_plan_id":"free"},{"bike_id":"1aebe24f-4d43-41ec-b48a-ba4200d3f0ce","system_id":"levelo_inurba_marseille","lat":43.299724,"lon":5.371829,"is_reserved":false,"is_disabled":false,"rental_uris":{"android":"levelo://app?vid=1aebe24f-4d43-41ec-b48a-ba4200d3f0ce","ios":"levelo://app?vid=1aebe24f-4d43-41ec-b48a-ba4200d3f0ce"},"vehicle_type_id":"4","last_reported":1699718865,"current_range_meters":20000,"station_id":"ce4bgr92rcd13ifvqc7g","pricing_plan_id":"free"},{"bike_id":"f0cd0e99-99df-428b-bcc4-5dfc1403c621","system_id":"levelo_inurba_marseille","lat":43.2989,"lon":5.36639,"is_reserved":false,"is_disabled":false,"rental_uris":{"android":"levelo://app?vid=f0cd0e99-99df-428b-bcc4-5dfc1403c621","ios":"levelo://app?vid=f0cd0e99-99df-428b-bcc4-5dfc1403c621"},"vehicle_type_id":"4","last_reported":1699718865,"current_range_meters":21600,"station_id":"","pricing_plan_id":"free"},{"bike_id":"2aa07dbd-abc3-43b6-a1fa-b3b25d3cf066","system_id":"levelo_inurba_marseille","lat":43.32148,"lon":5.38202,"is_reserved":false,"is_disabled":false,"rental_uris":{"android":"levelo://app?vid=2aa07dbd-abc3-43b6-a1fa-b3b25d3cf066","ios":"levelo://app?vid=2aa07dbd-abc3-43b6-a1fa-b3b25d3cf066"},"vehicle_type_id":"4","last_reported":1699718865,"current_range_meters":0,"station_id":"","pricing_plan_id":"free"},{"bike_id":"6b5623c1-13ff-4919-836b-4dae72708354","system_id":"levelo_inurba_marseille","lat":43.298433,"lon":5.362774,"is_reserved":false,"is_disabled":false,"rental_uris":{"android":"levelo://app?vid=6b5623c1-13ff-4919-836b-4dae72708354","ios":"levelo://app?vid=6b5623c1-13ff-4919-836b-4dae72708354"},"vehicle_type_id":"4","last_reported":1699718865,"current_range_meters":18400,"station_id":"ce4bgpp2rcd13ifvqc3g","pricing_plan_id":"free"},{"bike_id":"79378605-7d20-4017-be2e-8545af7ee484","system_id":"levelo_inurba_marseille","lat":43.298433,"lon":5.362774,"is_reserved":false,"is_disabled":false,"rental_uris":{"android":"levelo://app?vid=79378605-7d20-4017-be2e-8545af7ee484","ios":"levelo://app?vid=79378605-7d20-4017-be2e-8545af7ee484"},"vehicle_type_id":"4","last_reported":1699718865,"current_range_meters":0,"station_id":"ce4bgpp2rcd13ifvqc3g","pricing_plan_id":"free"},{"bike_id":"b9264110-dcf0-4091-b03a-276ebe378144","system_id":"levelo_inurba_marseille","lat":43.298433,"lon":5.362774,"is_reserved":false,"is_disabled":false,"rental_uris":{"android":"levelo://app?vid=b9264110-dcf0-4091-b03a-276ebe378144","ios":"levelo://app?vid=b9264110-dcf0-4091-b03a-276ebe378144"},"vehicle_type_id":"4","last_reported":1699718865,"current_range_meters":16000,"station_id":"ce4bgpp2rcd13ifvqc3g","pricing_plan_id":"free"},{"bike_id":"bd628d17-15dd-47cb-83d5-fdf391e01bd9","system_id":"levelo_inurba_marseille","lat":43.298433,"lon":5.362774,"is_reserved":false,"is_disabled":false,"rental_uris":{"android":"levelo://app?vid=bd628d17-15dd-47cb-83d5-fdf391e01bd9","ios":"levelo://app?vid=bd628d17-15dd-47cb-83d5-fdf391e01bd9"},"vehicle_type_id":"4","last_reported":1699718865,"current_range_meters":22000,"station_id":"ce4bgpp2rcd13ifvqc3g","pricing_plan_id":"free"},{"bike_id":"8950f55a-e75d-4fac-9a7c-f529bc0580a5","system_id":"levelo_inurba_marseille","lat":43.320464,"lon":5.384144,"is_reserved":false,"is_disabled":false,"rental_uris":{"android":"levelo://app?vid=8950f55a-e75d-4fac-9a7c-f529bc0580a5","ios":"levelo://app?vid=8950f55a-e75d-4fac-9a7c-f529bc0580a5"},"vehicle_type_id":"4","last_reported":1699718865,"current_range_meters":12800,"station_id":"","pricing_plan_id":"free"},{"bike_id":"47f00c3a-d859-45df-977d-45eea057e8a8","system_id":"levelo_inurba_marseille","lat":43.311722,"lon":5.387247,"is_reserved":false,"is_disabled":false,"rental_uris":{"android":"levelo://app?vid=47f00c3a-d859-45df-977d-45eea057e8a8","ios":"levelo://app?vid=47f00c3a-d859-45df-977d-45eea057e8a8"},"vehicle_type_id":"4","last_reported":1699718865,"current_range_meters":16400,"station_id":"ce4bgv12rcd13ifvqcp0","pricing_plan_id":"free"},{"bike_id":"1c5bf240-9d2b-4251-80cd-820c4820d9cf","system_id":"levelo_inurba_marseille","lat":43.311722,"lon":5.387247,"is_reserved":false,"is_disabled":false,"rental_uris":{"android":"levelo://app?vid=1c5bf240-9d2b-4251-80cd-820c4820d9cf","ios":"levelo://app?vid=1c5bf240-9d2b-4251-80cd-820c4820d9cf"},"vehicle_type_id":"4","last_reported":1699718865,"current_range_meters":25200,"station_id":"ce4bgv12rcd13ifvqcp0","pricing_plan_id":"free"},{"bike_id":"ce9639f8-24a1-4dad-85ac-5d8023ff5208","system_id":"levelo_inurba_marseille","lat":43.311722,"lon":5.387247,"is_reserved":false,"is_disabled":false,"rental_uris":{"android":"levelo://app?vid=ce9639f8-24a1-4dad-85ac-5d8023ff5208","ios":"levelo://app?vid=ce9639f8-24a1-4dad-85ac-5d8023ff5208"},"vehicle_type_id":"4","last_reported":1699718865,"current_range_meters":12400,"station_id":"ce4bgv12rcd13ifvqcp0","pricing_plan_id":"free"},{"bike_id":"3fc29c95-14f8-466b-984e-30e97660fd5f","system_id":"levelo_inurba_marseille","lat":43.32831,"lon":5.36676,"is_reserved":false,"is_disabled":false,"rental_uris":{"android":"levelo://app?vid=3fc29c95-14f8-466b-984e-30e97660fd5f","ios":"levelo://app?vid=3fc29c95-14f8-466b-984e-30e97660fd5f"},"vehicle_type_id":"4","last_reported":1699718865,"current_range_meters":0,"station_id":"ce4bhs92rcd13ifvqi0g","pricing_plan_id":"free"},{"bike_id":"d447991a-59b4-4778-a190-7d2b0920a414","system_id":"levelo_inurba_marseille","lat":43.32215,"lon":5.38613,"is_reserved":false,"is_disabled":false,"rental_uris":{"android":"levelo://app?vid=d447991a-59b4-4778-a190-7d2b0920a414","ios":"levelo://app?vid=d447991a-59b4-4778-a190-7d2b0920a414"},"vehicle_type_id":"4","last_reported":1699718865,"current_range_meters":20000,"station_id":"","pricing_plan_id":"free"},{"bike_id":"408e1bba-ac1b-479c-ad30-32026784c873","system_id":"levelo_inurba_marseille","lat":43.2966,"lon":5.37463,"is_reserved":false,"is_disabled":false,"rental_uris":{"android":"levelo://app?vid=408e1bba-ac1b-479c-ad30-32026784c873","ios":"levelo://app?vid=408e1bba-ac1b-479c-ad30-32026784c873"},"vehicle_type_id":"4","last_reported":1699718865,"current_range_meters":15600,"station_id":"","pricing_plan_id":"free"},{"bike_id":"ce9b2f95-f24f-4bbd-b614-539f0da37cd4","system_id":"levelo_inurba_marseille","lat":43.309589,"lon":5.390258,"is_reserved":false,"is_disabled":false,"rental_uris":{"android":"levelo://app?vid=ce9b2f95-f24f-4bbd-b614-539f0da37cd4","ios":"levelo://app?vid=ce9b2f95-f24f-4bbd-b614-539f0da37cd4"},"vehicle_type_id":"4","last_reported":1699718865,"current_range_meters":18800,"station_id":"ce4bgup2rcd13ifvqco0","pricing_plan_id":"free"},{"bike_id":"7d002a4f-deae-4d6b-8ef7-cbf37536efec","system_id":"levelo_inurba_marseille","lat":43.309589,"lon":5.390258,"is_reserved":false,"is_disabled":false,"rental_uris":{"android":"levelo://app?vid=7d002a4f-deae-4d6b-8ef7-cbf37536efec","ios":"levelo://app?vid=7d002a4f-deae-4d6b-8ef7-cbf37536efec"},"vehicle_type_id":"4","last_reported":1699718865,"current_range_meters":0,"station_id":"ce4bgup2rcd13ifvqco0","pricing_plan_id":"free"},{"bike_id":"f616e376-ada9-424f-9343-51b9dd5c331c","system_id":"levelo_inurba_marseille","lat":43.309589,"lon":5.390258,"is_reserved":false,"is_disabled":false,"rental_uris":{"android":"levelo://app?vid=f616e376-ada9-424f-9343-51b9dd5c331c","ios":"levelo://app?vid=f616e376-ada9-424f-9343-51b9dd5c331c"},"vehicle_type_id":"4","last_reported":1699718865,"current_range_meters":0,"station_id":"ce4bgup2rcd13ifvqco0","pricing_plan_id":"free"},{"bike_id":"b013c2d3-8d60-4e62-a7cf-141a0e09c2b6","system_id":"levelo_inurba_marseille","lat":43.309589,"lon":5.390258,"is_reserved":false,"is_disabled":false,"rental_uris":{"android":"levelo://app?vid=b013c2d3-8d60-4e62-a7cf-141a0e09c2b6","ios":"levelo://app?vid=b013c2d3-8d60-4e62-a7cf-141a0e09c2b6"},"vehicle_type_id":"4","last_reported":1699718865,"current_range_meters":1200,"station_id":"ce4bgup2rcd13ifvqco0","pricing_plan_id":"free"},{"bike_id":"feff7d8e-9456-4b4b-b917-4f91bb23e023","system_id":"levelo_inurba_marseille","lat":43.3175,"lon":5.39022,"is_reserved":false,"is_disabled":false,"rental_uris":{"android":"levelo://app?vid=feff7d8e-9456-4b4b-b917-4f91bb23e023","ios":"levelo://app?vid=feff7d8e-9456-4b4b-b917-4f91bb23e023"},"vehicle_type_id":"4","last_reported":1699718865,"current_range_meters":18400,"station_id":"","pricing_plan_id":"free"},{"bike_id":"9e588716-b81f-44d8-b071-857cbb7449e1","system_id":"levelo_inurba_marseille","lat":43.30018,"lon":5.38432,"is_reserved":false,"is_disabled":false,"rental_uris":{"android":"levelo://app?vid=9e588716-b81f-44d8-b071-857cbb7449e1","ios":"levelo://app?vid=9e588716-b81f-44d8-b071-857cbb7449e1"},"vehicle_type_id":"4","last_reported":1699718865,"current_range_meters":0,"station_id":"","pricing_plan_id":"free"},{"bike_id":"f2349c0a-80e2-48ae-b7fa-f328073a7253","system_id":"levelo_inurba_marseille","lat":43.29582,"lon":5.37526,"is_reserved":false,"is_disabled":false,"rental_uris":{"android":"levelo://app?vid=f2349c0a-80e2-48ae-b7fa-f328073a7253","ios":"levelo://app?vid=f2349c0a-80e2-48ae-b7fa-f328073a7253"},"vehicle_type_id":"4","last_reported":1699718865,"current_range_meters":0,"station_id":"ce4bgh92rcd13ifvqb50","pricing_plan_id":"free"},{"bike_id":"c864ff90-fa6b-42c1-a1ac-7f5c85a66307","system_id":"levelo_inurba_marseille","lat":43.29794,"lon":5.381033,"is_reserved":false,"is_disabled":false,"rental_uris":{"android":"levelo://app?vid=c864ff90-fa6b-42c1-a1ac-7f5c85a66307","ios":"levelo://app?vid=c864ff90-fa6b-42c1-a1ac-7f5c85a66307"},"vehicle_type_id":"4","last_reported":1699718865,"current_range_meters":1600,"station_id":"ce4bgip2rcd13ifvqbb0","pricing_plan_id":"free"},{"bike_id":"4112fa8a-3158-4f0c-84df-b0bb2a9e49b5","system_id":"levelo_inurba_marseille","lat":43.304274,"lon":5.388873,"is_reserved":false,"is_disabled":false,"rental_uris":{"android":"levelo://app?vid=4112fa8a-3158-4f0c-84df-b0bb2a9e49b5","ios":"levelo://app?vid=4112fa8a-3158-4f0c-84df-b0bb2a9e49b5"},"vehicle_type_id":"4","last_reported":1699718865,"current_range_meters":28400,"station_id":"ce4bgk12rcd13ifvqbi0","pricing_plan_id":"free"},{"bike_id":"40ee5cd0-4595-414c-a3bf-dff69f0c90dc","system_id":"levelo_inurba_marseille","lat":43.299785,"lon":5.384549,"is_reserved":false,"is_disabled":false,"rental_uris":{"android":"levelo://app?vid=40ee5cd0-4595-414c-a3bf-dff69f0c90dc","ios":"levelo://app?vid=40ee5cd0-4595-414c-a3bf-dff69f0c90dc"},"vehicle_type_id":"4","last_reported":1699718865,"current_range_meters":0,"station_id":"ce4bgj92rcd13ifvqbd0","pricing_plan_id":"free"},{"bike_id":"dd3c0e0b-d14d-43c6-a50a-9ce831898919","system_id":"levelo_inurba_marseille","lat":43.299724,"lon":5.384848,"is_reserved":false,"is_disabled":false,"rental_uris":{"android":"levelo://app?vid=dd3c0e0b-d14d-43c6-a50a-9ce831898919","ios":"levelo://app?vid=dd3c0e0b-d14d-43c6-a50a-9ce831898919"},"vehicle_type_id":"4","last_reported":1699718865,"current_range_meters":19200,"station_id":"ce4bgj92rcd13ifvqbd0","pricing_plan_id":"free"},{"bike_id":"e8384256-8e55-4547-9c11-9cbd51712cc7","system_id":"levelo_inurba_marseille","lat":43.299724,"lon":5.384848,"is_reserved":false,"is_disabled":false,"rental_uris":{"android":"levelo://app?vid=e8384256-8e55-4547-9c11-9cbd51712cc7","ios":"levelo://app?vid=e8384256-8e55-4547-9c11-9cbd51712cc7"},"vehicle_type_id":"4","last_reported":1699718865,"current_range_meters":0,"station_id":"ce4bgj92rcd13ifvqbd0","pricing_plan_id":"free"},{"bike_id":"74a18b86-9be5-44e1-ae53-59b68cfcc042","system_id":"levelo_inurba_marseille","lat":43.29957,"lon":5.38511,"is_reserved":false,"is_disabled":false,"rental_uris":{"android":"levelo://app?vid=74a18b86-9be5-44e1-ae53-59b68cfcc042","ios":"levelo://app?vid=74a18b86-9be5-44e1-ae53-59b68cfcc042"},"vehicle_type_id":"4","last_reported":1699718865,"current_range_meters":13600,"station_id":"ce4bgj92rcd13ifvqbd0","pricing_plan_id":"free"},{"bike_id":"3f1eef85-8a9f-4ce5-9a2f-ccb76bf11c89","system_id":"levelo_inurba_marseille","lat":43.29601,"lon":5.381084,"is_reserved":false,"is_disabled":false,"rental_uris":{"android":"levelo://app?vid=3f1eef85-8a9f-4ce5-9a2f-ccb76bf11c89","ios":"levelo://app?vid=3f1eef85-8a9f-4ce5-9a2f-ccb76bf11c89"},"vehicle_type_id":"4","last_reported":1699718865,"current_range_meters":30400,"station_id":"ce4bgl12rcd13ifvqbo0","pricing_plan_id":"free"},{"bike_id":"1f2edeec-835f-4188-b75a-b19c37bb1dac","system_id":"levelo_inurba_marseille","lat":43.30109,"lon":5.3894,"is_reserved":false,"is_disabled":false,"rental_uris":{"android":"levelo://app?vid=1f2edeec-835f-4188-b75a-b19c37bb1dac","ios":"levelo://app?vid=1f2edeec-835f-4188-b75a-b19c37bb1dac"},"vehicle_type_id":"4","last_reported":1699718865,"current_range_meters":5600,"station_id":"","pricing_plan_id":"free"},{"bike_id":"40557ab4-6f1a-4f11-b3b4-176bb95f231b","system_id":"levelo_inurba_marseille","lat":43.302992,"lon":5.392136,"is_reserved":false,"is_disabled":false,"rental_uris":{"android":"levelo://app?vid=40557ab4-6f1a-4f11-b3b4-176bb95f231b","ios":"levelo://app?vid=40557ab4-6f1a-4f11-b3b4-176bb95f231b"},"vehicle_type_id":"4","last_reported":1699718865,"current_range_meters":0,"station_id":"ce4bgkh2rcd13ifvqbk0","pricing_plan_id":"free"},{"bike_id":"d5c5e9a6-5b26-44cc-b113-745fff819aec","system_id":"levelo_inurba_marseille","lat":43.303002,"lon":5.392142,"is_reserved":false,"is_disabled":false,"rental_uris":{"android":"levelo://app?vid=d5c5e9a6-5b26-44cc-b113-745fff819aec","ios":"levelo://app?vid=d5c5e9a6-5b26-44cc-b113-745fff819aec"},"vehicle_type_id":"4","last_reported":1699718865,"current_range_meters":0,"station_id":"ce4bgkh2rcd13ifvqbk0","pricing_plan_id":"free"},{"bike_id":"9ac83c76-86ca-4004-a0f8-06635e80a1a9","system_id":"levelo_inurba_marseille","lat":43.2936,"lon":5.37835,"is_reserved":false,"is_disabled":false,"rental_uris":{"android":"levelo://app?vid=9ac83c76-86ca-4004-a0f8-06635e80a1a9","ios":"levelo://app?vid=9ac83c76-86ca-4004-a0f8-06635e80a1a9"},"vehicle_type_id":"4","last_reported":1699718865,"current_range_meters":16800,"station_id":"ce4bgjh2rcd13ifvqbf0","pricing_plan_id":"free"},{"bike_id":"722d9c2a-f8e3-4f26-b450-6cfc23c8713b","system_id":"levelo_inurba_marseille","lat":43.300852,"lon":5.390859,"is_reserved":false,"is_disabled":false,"rental_uris":{"android":"levelo://app?vid=722d9c2a-f8e3-4f26-b450-6cfc23c8713b","ios":"levelo://app?vid=722d9c2a-f8e3-4f26-b450-6cfc23c8713b"},"vehicle_type_id":"4","last_reported":1699718865,"current_range_meters":2000,"station_id":"ce4bh192rcd13ifvqdb0","pricing_plan_id":"free"},{"bike_id":"34e2faf3-c8a8-49b6-b282-6b3d46080f78","system_id":"levelo_inurba_marseille","lat":43.29262,"lon":5.37627,"is_reserved":false,"is_disabled":false,"rental_uris":{"android":"levelo://app?vid=34e2faf3-c8a8-49b6-b282-6b3d46080f78","ios":"levelo://app?vid=34e2faf3-c8a8-49b6-b282-6b3d46080f78"},"vehicle_type_id":"4","last_reported":1699718865,"current_range_meters":0,"station_id":"ce4bgi12rcd13ifvqb80","pricing_plan_id":"free"},{"bike_id":"8e124407-b98f-4207-9b0b-77e436dbb059","system_id":"levelo_inurba_marseille","lat":43.292663,"lon":5.376389,"is_reserved":false,"is_disabled":false,"rental_uris":{"android":"levelo://app?vid=8e124407-b98f-4207-9b0b-77e436dbb059","ios":"levelo://app?vid=8e124407-b98f-4207-9b0b-77e436dbb059"},"vehicle_type_id":"4","last_reported":1699718865,"current_range_meters":4800,"station_id":"ce4bgi12rcd13ifvqb80","pricing_plan_id":"free"},{"bike_id":"69440f9d-d106-4e7a-9f94-a9be59fd0b61","system_id":"levelo_inurba_marseille","lat":43.292663,"lon":5.376389,"is_reserved":false,"is_disabled":false,"rental_uris":{"android":"levelo://app?vid=69440f9d-d106-4e7a-9f94-a9be59fd0b61","ios":"levelo://app?vid=69440f9d-d106-4e7a-9f94-a9be59fd0b61"},"vehicle_type_id":"4","last_reported":1699718865,"current_range_meters":7600,"station_id":"ce4bgi12rcd13ifvqb80","pricing_plan_id":"free"},{"bike_id":"09df0680-dff8-417e-b6f8-bee182d91834","system_id":"levelo_inurba_marseille","lat":43.313285,"lon":5.396995,"is_reserved":false,"is_disabled":false,"rental_uris":{"android":"levelo://app?vid=09df0680-dff8-417e-b6f8-bee182d91834","ios":"levelo://app?vid=09df0680-dff8-417e-b6f8-bee182d91834"},"vehicle_type_id":"4","last_reported":1699718865,"current_range_meters":2000,"station_id":"ce4bgvp2rcd13ifvqcu0","pricing_plan_id":"free"},{"bike_id":"57dd31a0-300f-489d-8ff4-871460d92b7f","system_id":"levelo_inurba_marseille","lat":43.29529,"lon":5.385581,"is_reserved":false,"is_disabled":false,"rental_uris":{"android":"levelo://app?vid=57dd31a0-300f-489d-8ff4-871460d92b7f","ios":"levelo://app?vid=57dd31a0-300f-489d-8ff4-871460d92b7f"},"vehicle_type_id":"4","last_reported":1699718865,"current_range_meters":20000,"station_id":"ce4bgih2rcd13ifvqba0","pricing_plan_id":"free"},{"bike_id":"37960690-2207-4e99-b909-e9c97e6a3764","system_id":"levelo_inurba_marseille","lat":43.29529,"lon":5.385581,"is_reserved":false,"is_disabled":false,"rental_uris":{"android":"levelo://app?vid=37960690-2207-4e99-b909-e9c97e6a3764","ios":"levelo://app?vid=37960690-2207-4e99-b909-e9c97e6a3764"},"vehicle_type_id":"4","last_reported":1699718865,"current_range_meters":16000,"station_id":"ce4bgih2rcd13ifvqba0","pricing_plan_id":"free"},{"bike_id":"7d1e7eec-4fc1-4e0c-96b3-c5d5571f330f","system_id":"levelo_inurba_marseille","lat":43.290779,"lon":5.371482,"is_reserved":false,"is_disabled":false,"rental_uris":{"android":"levelo://app?vid=7d1e7eec-4fc1-4e0c-96b3-c5d5571f330f","ios":"levelo://app?vid=7d1e7eec-4fc1-4e0c-96b3-c5d5571f330f"},"vehicle_type_id":"4","last_reported":1699718865,"current_range_meters":10400,"station_id":"ce4bh5p2rcd13ifvqe4g","pricing_plan_id":"free"},{"bike_id":"d3d8565b-792c-4681-938f-97fe9db3dbdf","system_id":"levelo_inurba_marseille","lat":43.289184,"lon":5.366408,"is_reserved":false,"is_disabled":false,"rental_uris":{"android":"levelo://app?vid=d3d8565b-792c-4681-938f-97fe9db3dbdf","ios":"levelo://app?vid=d3d8565b-792c-4681-938f-97fe9db3dbdf"},"vehicle_type_id":"4","last_reported":1699718865,"current_range_meters":17200,"station_id":"ce4bhap2rcd13ifvqek0","pricing_plan_id":"free"},{"bike_id":"98128fe6-be83-4d73-806e-615791bd9abd","system_id":"levelo_inurba_marseille","lat":43.290327,"lon":5.375711,"is_reserved":false,"is_disabled":false,"rental_uris":{"android":"levelo://app?vid=98128fe6-be83-4d73-806e-615791bd9abd","ios":"levelo://app?vid=98128fe6-be83-4d73-806e-615791bd9abd"},"vehicle_type_id":"4","last_reported":1699718865,"current_range_meters":18000,"station_id":"ce4bh692rcd13ifvqe90","pricing_plan_id":"free"},{"bike_id":"c4e76843-07ae-47c3-995f-ff6da052e35d","system_id":"levelo_inurba_marseille","lat":43.29409,"lon":5.3863,"is_reserved":false,"is_disabled":false,"rental_uris":{"android":"levelo://app?vid=c4e76843-07ae-47c3-995f-ff6da052e35d","ios":"levelo://app?vid=c4e76843-07ae-47c3-995f-ff6da052e35d"},"vehicle_type_id":"4","last_reported":1699718865,"current_range_meters":0,"station_id":"ce4bh2h2rcd13ifvqdh0","pricing_plan_id":"free"},{"bike_id":"fdf16e15-2269-421f-913f-7df0bc610312","system_id":"levelo_inurba_marseille","lat":43.304296,"lon":5.397513,"is_reserved":false,"is_disabled":false,"rental_uris":{"android":"levelo://app?vid=fdf16e15-2269-421f-913f-7df0bc610312","ios":"levelo://app?vid=fdf16e15-2269-421f-913f-7df0bc610312"},"vehicle_type_id":"4","last_reported":1699718865,"current_range_meters":2400,"station_id":"ce4bh092rcd13ifvqd20","pricing_plan_id":"free"},{"bike_id":"407a38c4-f4ed-4202-910a-729a6dcb8b0f","system_id":"levelo_inurba_marseille","lat":43.29004,"lon":5.35622,"is_reserved":false,"is_disabled":false,"rental_uris":{"android":"levelo://app?vid=407a38c4-f4ed-4202-910a-729a6dcb8b0f","ios":"levelo://app?vid=407a38c4-f4ed-4202-910a-729a6dcb8b0f"},"vehicle_type_id":"4","last_reported":1699718865,"current_range_meters":0,"station_id":"ce4bhb92rcd13ifvqen0","pricing_plan_id":"free"},{"bike_id":"31146cce-8c08-4c19-93b0-f8ee6ae03d87","system_id":"levelo_inurba_marseille","lat":43.290103,"lon":5.356114,"is_reserved":false,"is_disabled":false,"rental_uris":{"android":"levelo://app?vid=31146cce-8c08-4c19-93b0-f8ee6ae03d87","ios":"levelo://app?vid=31146cce-8c08-4c19-93b0-f8ee6ae03d87"},"vehicle_type_id":"4","last_reported":1699718865,"current_range_meters":16000,"station_id":"ce4bhb92rcd13ifvqen0","pricing_plan_id":"free"},{"bike_id":"b629e02c-3f16-414b-ab03-30db5c333aeb","system_id":"levelo_inurba_marseille","lat":43.30244,"lon":5.39685,"is_reserved":false,"is_disabled":false,"rental_uris":{"android":"levelo://app?vid=b629e02c-3f16-414b-ab03-30db5c333aeb","ios":"levelo://app?vid=b629e02c-3f16-414b-ab03-30db5c333aeb"},"vehicle_type_id":"4","last_reported":1699718865,"current_range_meters":24400,"station_id":"","pricing_plan_id":"free"},{"bike_id":"2df17dcf-c4f0-4285-b79a-e2365f8ac695","system_id":"levelo_inurba_marseille","lat":43.290995,"lon":5.381361,"is_reserved":false,"is_disabled":false,"rental_uris":{"android":"levelo://app?vid=2df17dcf-c4f0-4285-b79a-e2365f8ac695","ios":"levelo://app?vid=2df17dcf-c4f0-4285-b79a-e2365f8ac695"},"vehicle_type_id":"4","last_reported":1699718865,"current_range_meters":0,"station_id":"ce4bh512rcd13ifvqe2g","pricing_plan_id":"free"},{"bike_id":"83862952-1376-4c12-9b74-3e20e4d6da1e","system_id":"levelo_inurba_marseille","lat":43.2979,"lon":5.3935,"is_reserved":false,"is_disabled":false,"rental_uris":{"android":"levelo://app?vid=83862952-1376-4c12-9b74-3e20e4d6da1e","ios":"levelo://app?vid=83862952-1376-4c12-9b74-3e20e4d6da1e"},"vehicle_type_id":"4","last_reported":1699718865,"current_range_meters":0,"station_id":"chh1huq6cuj3fo74tm60","pricing_plan_id":"free"},{"bike_id":"ef046f3e-97ff-40af-b6a2-85d782817c71","system_id":"levelo_inurba_marseille","lat":43.289741,"lon":5.378306,"is_reserved":false,"is_disabled":false,"rental_uris":{"android":"levelo://app?vid=ef046f3e-97ff-40af-b6a2-85d782817c71","ios":"levelo://app?vid=ef046f3e-97ff-40af-b6a2-85d782817c71"},"vehicle_type_id":"4","last_reported":1699718865,"current_range_meters":0,"station_id":"ce4bh9p2rcd13ifvqed0","pricing_plan_id":"free"},{"bike_id":"802e6534-4182-4228-8561-a8b4446decd9","system_id":"levelo_inurba_marseille","lat":43.2901,"lon":5.381269,"is_reserved":false,"is_disabled":false,"rental_uris":{"android":"levelo://app?vid=802e6534-4182-4228-8561-a8b4446decd9","ios":"levelo://app?vid=802e6534-4182-4228-8561-a8b4446decd9"},"vehicle_type_id":"4","last_reported":1699718865,"current_range_meters":0,"station_id":"ce4bh4p2rcd13ifvqe1g","pricing_plan_id":"free"},{"bike_id":"4d30d830-8373-43e0-8b56-839f181a0c3e","system_id":"levelo_inurba_marseille","lat":43.28852,"lon":5.35841,"is_reserved":false,"is_disabled":false,"rental_uris":{"android":"levelo://app?vid=4d30d830-8373-43e0-8b56-839f181a0c3e","ios":"levelo://app?vid=4d30d830-8373-43e0-8b56-839f181a0c3e"},"vehicle_type_id":"4","last_reported":1699718865,"current_range_meters":12400,"station_id":"ce4bhb12rcd13ifvqem0","pricing_plan_id":"free"},{"bike_id":"61c9606b-5e0c-419f-a3b5-4fe4d535e889","system_id":"levelo_inurba_marseille","lat":43.33037,"lon":5.392367,"is_reserved":false,"is_disabled":false,"rental_uris":{"android":"levelo://app?vid=61c9606b-5e0c-419f-a3b5-4fe4d535e889","ios":"levelo://app?vid=61c9606b-5e0c-419f-a3b5-4fe4d535e889"},"vehicle_type_id":"4","last_reported":1699718865,"current_range_meters":9600,"station_id":"","pricing_plan_id":"free"},{"bike_id":"103d5609-74db-46a4-a3ae-d0ebd2a709c9","system_id":"levelo_inurba_marseille","lat":43.286593,"lon":5.363346,"is_reserved":false,"is_disabled":false,"rental_uris":{"android":"levelo://app?vid=103d5609-74db-46a4-a3ae-d0ebd2a709c9","ios":"levelo://app?vid=103d5609-74db-46a4-a3ae-d0ebd2a709c9"},"vehicle_type_id":"4","last_reported":1699718865,"current_range_meters":0,"station_id":"ce4bhah2rcd13ifvqej0","pricing_plan_id":"free"},{"bike_id":"ab3d1f34-44e1-4c7b-aa21-5d9a98591807","system_id":"levelo_inurba_marseille","lat":43.330627,"lon":5.393414,"is_reserved":false,"is_disabled":false,"rental_uris":{"android":"levelo://app?vid=ab3d1f34-44e1-4c7b-aa21-5d9a98591807","ios":"levelo://app?vid=ab3d1f34-44e1-4c7b-aa21-5d9a98591807"},"vehicle_type_id":"4","last_reported":1699718865,"current_range_meters":4800,"station_id":"","pricing_plan_id":"free"},{"bike_id":"f418f132-98e5-4e59-876f-bdccfea603e3","system_id":"levelo_inurba_marseille","lat":43.286961,"lon":5.373785,"is_reserved":false,"is_disabled":false,"rental_uris":{"android":"levelo://app?vid=f418f132-98e5-4e59-876f-bdccfea603e3","ios":"levelo://app?vid=f418f132-98e5-4e59-876f-bdccfea603e3"},"vehicle_type_id":"4","last_reported":1699718865,"current_range_meters":0,"station_id":"ce4bh3p2rcd13ifvqdq0","pricing_plan_id":"free"},{"bike_id":"17d653ca-ba4f-4a2d-8756-996fb37e6ea3","system_id":"levelo_inurba_marseille","lat":43.28929,"lon":5.38398,"is_reserved":false,"is_disabled":false,"rental_uris":{"android":"levelo://app?vid=17d653ca-ba4f-4a2d-8756-996fb37e6ea3","ios":"levelo://app?vid=17d653ca-ba4f-4a2d-8756-996fb37e6ea3"},"vehicle_type_id":"4","last_reported":1699718865,"current_range_meters":0,"station_id":"ce4bh612rcd13ifvqe6g","pricing_plan_id":"free"},{"bike_id":"d5ed6ddb-e112-46b0-a159-4d4cb8355aef","system_id":"levelo_inurba_marseille","lat":43.289307,"lon":5.38406,"is_reserved":false,"is_disabled":false,"rental_uris":{"android":"levelo://app?vid=d5ed6ddb-e112-46b0-a159-4d4cb8355aef","ios":"levelo://app?vid=d5ed6ddb-e112-46b0-a159-4d4cb8355aef"},"vehicle_type_id":"4","last_reported":1699718865,"current_range_meters":21600,"station_id":"ce4bh612rcd13ifvqe6g","pricing_plan_id":"free"},{"bike_id":"ce3c2ac4-1e0b-478f-8626-24c7c409ded0","system_id":"levelo_inurba_marseille","lat":43.286039,"lon":5.370679,"is_reserved":false,"is_disabled":false,"rental_uris":{"android":"levelo://app?vid=ce3c2ac4-1e0b-478f-8626-24c7c409ded0","ios":"levelo://app?vid=ce3c2ac4-1e0b-478f-8626-24c7c409ded0"},"vehicle_type_id":"4","last_reported":1699718865,"current_range_meters":5600,"station_id":"ce4bht12rcd13ifvqi60","pricing_plan_id":"free"},{"bike_id":"db559049-b4d8-4826-9392-ffaf185309c5","system_id":"levelo_inurba_marseille","lat":43.286039,"lon":5.370681,"is_reserved":false,"is_disabled":false,"rental_uris":{"android":"levelo://app?vid=db559049-b4d8-4826-9392-ffaf185309c5","ios":"levelo://app?vid=db559049-b4d8-4826-9392-ffaf185309c5"},"vehicle_type_id":"4","last_reported":1699718865,"current_range_meters":10000,"station_id":"ce4bht12rcd13ifvqi60","pricing_plan_id":"free"},{"bike_id":"29676a66-9e62-4587-af97-558172d0f812","system_id":"levelo_inurba_marseille","lat":43.286039,"lon":5.370679,"is_reserved":false,"is_disabled":false,"rental_uris":{"android":"levelo://app?vid=29676a66-9e62-4587-af97-558172d0f812","ios":"levelo://app?vid=29676a66-9e62-4587-af97-558172d0f812"},"vehicle_type_id":"4","last_reported":1699718865,"current_range_meters":25200,"station_id":"ce4bht12rcd13ifvqi60","pricing_plan_id":"free"},{"bike_id":"a4fdafd8-89f5-4820-a244-ea60b102834d","system_id":"levelo_inurba_marseille","lat":43.286039,"lon":5.370681,"is_reserved":false,"is_disabled":false,"rental_uris":{"android":"levelo://app?vid=a4fdafd8-89f5-4820-a244-ea60b102834d","ios":"levelo://app?vid=a4fdafd8-89f5-4820-a244-ea60b102834d"},"vehicle_type_id":"4","last_reported":1699718865,"current_range_meters":6000,"station_id":"ce4bht12rcd13ifvqi60","pricing_plan_id":"free"},{"bike_id":"e57449c2-d088-47cf-8bf2-271593713c89","system_id":"levelo_inurba_marseille","lat":43.328576,"lon":5.398841,"is_reserved":false,"is_disabled":false,"rental_uris":{"android":"levelo://app?vid=e57449c2-d088-47cf-8bf2-271593713c89","ios":"levelo://app?vid=e57449c2-d088-47cf-8bf2-271593713c89"},"vehicle_type_id":"4","last_reported":1699718865,"current_range_meters":7600,"station_id":"","pricing_plan_id":"free"},{"bike_id":"9f3cc0cc-d7a2-49fd-b834-176b54d9323a","system_id":"levelo_inurba_marseille","lat":43.316762,"lon":5.405216,"is_reserved":false,"is_disabled":false,"rental_uris":{"android":"levelo://app?vid=9f3cc0cc-d7a2-49fd-b834-176b54d9323a","ios":"levelo://app?vid=9f3cc0cc-d7a2-49fd-b834-176b54d9323a"},"vehicle_type_id":"4","last_reported":1699718865,"current_range_meters":0,"station_id":"","pricing_plan_id":"free"},{"bike_id":"e236aa7d-c4df-4f2a-bff8-0398ae5ae7e4","system_id":"levelo_inurba_marseille","lat":43.286039,"lon":5.370681,"is_reserved":false,"is_disabled":false,"rental_uris":{"android":"levelo://app?vid=e236aa7d-c4df-4f2a-bff8-0398ae5ae7e4","ios":"levelo://app?vid=e236aa7d-c4df-4f2a-bff8-0398ae5ae7e4"},"vehicle_type_id":"4","last_reported":1699718865,"current_range_meters":22000,"station_id":"ce4bht12rcd13ifvqi60","pricing_plan_id":"free"},{"bike_id":"9b814b04-94b2-4f4f-9564-237edaa8024b","system_id":"levelo_inurba_marseille","lat":43.283998,"lon":5.375062,"is_reserved":false,"is_disabled":false,"rental_uris":{"android":"levelo://app?vid=9b814b04-94b2-4f4f-9564-237edaa8024b","ios":"levelo://app?vid=9b814b04-94b2-4f4f-9564-237edaa8024b"},"vehicle_type_id":"4","last_reported":1699718865,"current_range_meters":24000,"station_id":"ce4bh412rcd13ifvqds0","pricing_plan_id":"free"},{"bike_id":"ddde5152-dea5-4f88-a16c-3ba4205d283e","system_id":"levelo_inurba_marseille","lat":43.286467,"lon":5.385593,"is_reserved":false,"is_disabled":false,"rental_uris":{"android":"levelo://app?vid=ddde5152-dea5-4f88-a16c-3ba4205d283e","ios":"levelo://app?vid=ddde5152-dea5-4f88-a16c-3ba4205d283e"},"vehicle_type_id":"4","last_reported":1699718865,"current_range_meters":0,"station_id":"","pricing_plan_id":"free"},{"bike_id":"9ad7ac6f-eca8-440d-b36a-7c66378b53ac","system_id":"levelo_inurba_marseille","lat":43.298681,"lon":5.397225,"is_reserved":false,"is_disabled":false,"rental_uris":{"android":"levelo://app?vid=9ad7ac6f-eca8-440d-b36a-7c66378b53ac","ios":"levelo://app?vid=9ad7ac6f-eca8-440d-b36a-7c66378b53ac"},"vehicle_type_id":"4","last_reported":1699718865,"current_range_meters":23600,"station_id":"ce4bh0h2rcd13ifvqd50","pricing_plan_id":"free"},{"bike_id":"030625bd-f8ba-4389-9944-df2973894a22","system_id":"levelo_inurba_marseille","lat":43.325731,"lon":5.404186,"is_reserved":false,"is_disabled":false,"rental_uris":{"android":"levelo://app?vid=030625bd-f8ba-4389-9944-df2973894a22","ios":"levelo://app?vid=030625bd-f8ba-4389-9944-df2973894a22"},"vehicle_type_id":"4","last_reported":1699718865,"current_range_meters":3200,"station_id":"","pricing_plan_id":"free"},{"bike_id":"b13b7efa-ef0d-4d27-903b-19ec76f7eb8d","system_id":"levelo_inurba_marseille","lat":43.319179,"lon":5.407725,"is_reserved":false,"is_disabled":false,"rental_uris":{"android":"levelo://app?vid=b13b7efa-ef0d-4d27-903b-19ec76f7eb8d","ios":"levelo://app?vid=b13b7efa-ef0d-4d27-903b-19ec76f7eb8d"},"vehicle_type_id":"4","last_reported":1699718865,"current_range_meters":30000,"station_id":"ce4bhq12rcd13ifvqhig","pricing_plan_id":"free"},{"bike_id":"0b083c6d-d1d4-4abb-84f8-baa4bad07eff","system_id":"levelo_inurba_marseille","lat":43.28723,"lon":5.38918,"is_reserved":false,"is_disabled":false,"rental_uris":{"android":"levelo://app?vid=0b083c6d-d1d4-4abb-84f8-baa4bad07eff","ios":"levelo://app?vid=0b083c6d-d1d4-4abb-84f8-baa4bad07eff"},"vehicle_type_id":"4","last_reported":1699718865,"current_range_meters":3200,"station_id":"","pricing_plan_id":"free"},{"bike_id":"8f73f349-a272-4ad6-b8fd-7b017ee1ab31","system_id":"levelo_inurba_marseille","lat":43.337168,"lon":5.391825,"is_reserved":false,"is_disabled":false,"rental_uris":{"android":"levelo://app?vid=8f73f349-a272-4ad6-b8fd-7b017ee1ab31","ios":"levelo://app?vid=8f73f349-a272-4ad6-b8fd-7b017ee1ab31"},"vehicle_type_id":"4","last_reported":1699718865,"current_range_meters":29200,"station_id":"ce4bhr92rcd13ifvqhsg","pricing_plan_id":"free"},{"bike_id":"86b76808-d77b-4546-989e-170c4eabe598","system_id":"levelo_inurba_marseille","lat":43.29795,"lon":5.404086,"is_reserved":false,"is_disabled":false,"rental_uris":{"android":"levelo://app?vid=86b76808-d77b-4546-989e-170c4eabe598","ios":"levelo://app?vid=86b76808-d77b-4546-989e-170c4eabe598"},"vehicle_type_id":"4","last_reported":1699718865,"current_range_meters":12800,"station_id":"ce4bh112rcd13ifvqd90","pricing_plan_id":"free"},{"bike_id":"ab1a59ee-d95e-438b-8991-66f1302058cd","system_id":"levelo_inurba_marseille","lat":43.283498,"lon":5.380948,"is_reserved":false,"is_disabled":false,"rental_uris":{"android":"levelo://app?vid=ab1a59ee-d95e-438b-8991-66f1302058cd","ios":"levelo://app?vid=ab1a59ee-d95e-438b-8991-66f1302058cd"},"vehicle_type_id":"4","last_reported":1699718865,"current_range_meters":25200,"station_id":"ce4bh412rcd13ifvqdr0","pricing_plan_id":"free"},{"bike_id":"694cc18d-6823-481a-9d09-67d990c2d197","system_id":"levelo_inurba_marseille","lat":43.324289,"lon":5.407562,"is_reserved":false,"is_disabled":false,"rental_uris":{"android":"levelo://app?vid=694cc18d-6823-481a-9d09-67d990c2d197","ios":"levelo://app?vid=694cc18d-6823-481a-9d09-67d990c2d197"},"vehicle_type_id":"4","last_reported":1699718865,"current_range_meters":0,"station_id":"","pricing_plan_id":"free"},{"bike_id":"ff079b59-a67a-4842-85de-57fb86f0a090","system_id":"levelo_inurba_marseille","lat":43.28272,"lon":5.35081,"is_reserved":false,"is_disabled":false,"rental_uris":{"android":"levelo://app?vid=ff079b59-a67a-4842-85de-57fb86f0a090","ios":"levelo://app?vid=ff079b59-a67a-4842-85de-57fb86f0a090"},"vehicle_type_id":"4","last_reported":1699718865,"current_range_meters":0,"station_id":"ce4bhbp2rcd13ifvqerg","pricing_plan_id":"free"},{"bike_id":"ae60c336-11f8-4ac0-be45-ef683e6d9b58","system_id":"levelo_inurba_marseille","lat":43.28266,"lon":5.3507,"is_reserved":false,"is_disabled":false,"rental_uris":{"android":"levelo://app?vid=ae60c336-11f8-4ac0-be45-ef683e6d9b58","ios":"levelo://app?vid=ae60c336-11f8-4ac0-be45-ef683e6d9b58"},"vehicle_type_id":"4","last_reported":1699718865,"current_range_meters":0,"station_id":"ce4bhbp2rcd13ifvqerg","pricing_plan_id":"free"},{"bike_id":"8ec64e22-a998-416d-9d5a-2f67f2d18b6e","system_id":"levelo_inurba_marseille","lat":43.282744,"lon":5.350533,"is_reserved":false,"is_disabled":false,"rental_uris":{"android":"levelo://app?vid=8ec64e22-a998-416d-9d5a-2f67f2d18b6e","ios":"levelo://app?vid=8ec64e22-a998-416d-9d5a-2f67f2d18b6e"},"vehicle_type_id":"4","last_reported":1699718865,"current_range_meters":0,"station_id":"ce4bhbp2rcd13ifvqerg","pricing_plan_id":"free"},{"bike_id":"3c9c78e9-149a-4836-b379-4609d575068d","system_id":"levelo_inurba_marseille","lat":43.280382,"lon":5.369291,"is_reserved":false,"is_disabled":false,"rental_uris":{"android":"levelo://app?vid=3c9c78e9-149a-4836-b379-4609d575068d","ios":"levelo://app?vid=3c9c78e9-149a-4836-b379-4609d575068d"},"vehicle_type_id":"4","last_reported":1699718865,"current_range_meters":0,"station_id":"ce4bha12rcd13ifvqef0","pricing_plan_id":"free"},{"bike_id":"0dc877f2-36a3-488d-ad1c-36a9e8b9222c","system_id":"levelo_inurba_marseille","lat":43.290412,"lon":5.399633,"is_reserved":false,"is_disabled":false,"rental_uris":{"android":"levelo://app?vid=0dc877f2-36a3-488d-ad1c-36a9e8b9222c","ios":"levelo://app?vid=0dc877f2-36a3-488d-ad1c-36a9e8b9222c"},"vehicle_type_id":"4","last_reported":1699718865,"current_range_meters":8400,"station_id":"ce4bh392rcd13ifvqdm0","pricing_plan_id":"free"},{"bike_id":"753431fb-30e9-4e84-8f93-44662002ecbb","system_id":"levelo_inurba_marseille","lat":43.28099,"lon":5.37845,"is_reserved":false,"is_disabled":false,"rental_uris":{"android":"levelo://app?vid=753431fb-30e9-4e84-8f93-44662002ecbb","ios":"levelo://app?vid=753431fb-30e9-4e84-8f93-44662002ecbb"},"vehicle_type_id":"4","last_reported":1699718865,"current_range_meters":4400,"station_id":"ce4bha12rcd13ifvqee0","pricing_plan_id":"free"},{"bike_id":"b4873894-30b2-4e0e-b820-d6df36aecf90","system_id":"levelo_inurba_marseille","lat":43.281044,"lon":5.378308,"is_reserved":false,"is_disabled":false,"rental_uris":{"android":"levelo://app?vid=b4873894-30b2-4e0e-b820-d6df36aecf90","ios":"levelo://app?vid=b4873894-30b2-4e0e-b820-d6df36aecf90"},"vehicle_type_id":"4","last_reported":1699718865,"current_range_meters":0,"station_id":"ce4bha12rcd13ifvqee0","pricing_plan_id":"free"},{"bike_id":"f6069450-8071-4484-95c4-5a5b06961bbb","system_id":"levelo_inurba_marseille","lat":43.28097,"lon":5.37855,"is_reserved":false,"is_disabled":false,"rental_uris":{"android":"levelo://app?vid=f6069450-8071-4484-95c4-5a5b06961bbb","ios":"levelo://app?vid=f6069450-8071-4484-95c4-5a5b06961bbb"},"vehicle_type_id":"4","last_reported":1699718865,"current_range_meters":23200,"station_id":"ce4bha12rcd13ifvqee0","pricing_plan_id":"free"},{"bike_id":"c5269fde-c094-4163-a2ac-a6350e774e3c","system_id":"levelo_inurba_marseille","lat":43.323447,"lon":5.41003,"is_reserved":false,"is_disabled":false,"rental_uris":{"android":"levelo://app?vid=c5269fde-c094-4163-a2ac-a6350e774e3c","ios":"levelo://app?vid=c5269fde-c094-4163-a2ac-a6350e774e3c"},"vehicle_type_id":"4","last_reported":1699718865,"current_range_meters":4800,"station_id":"","pricing_plan_id":"free"},{"bike_id":"a010dc03-3e1d-4133-974d-b62eb63fbb55","system_id":"levelo_inurba_marseille","lat":43.326605,"lon":5.409903,"is_reserved":false,"is_disabled":false,"rental_uris":{"android":"levelo://app?vid=a010dc03-3e1d-4133-974d-b62eb63fbb55","ios":"levelo://app?vid=a010dc03-3e1d-4133-974d-b62eb63fbb55"},"vehicle_type_id":"4","last_reported":1699718865,"current_range_meters":26000,"station_id":"ce4bhpp2rcd13ifvqhgg","pricing_plan_id":"free"},{"bike_id":"0c509bba-366e-47ba-a2d4-1f5e88a7b496","system_id":"levelo_inurba_marseille","lat":43.304188,"lon":5.412904,"is_reserved":false,"is_disabled":false,"rental_uris":{"android":"levelo://app?vid=0c509bba-366e-47ba-a2d4-1f5e88a7b496","ios":"levelo://app?vid=0c509bba-366e-47ba-a2d4-1f5e88a7b496"},"vehicle_type_id":"4","last_reported":1699718865,"current_range_meters":3600,"station_id":"ce4bhop2rcd13ifvqh8g","pricing_plan_id":"free"},{"bike_id":"e9c84bef-61b1-46b1-a005-93cc81588e68","system_id":"levelo_inurba_marseille","lat":43.279087,"lon":5.380114,"is_reserved":false,"is_disabled":false,"rental_uris":{"android":"levelo://app?vid=e9c84bef-61b1-46b1-a005-93cc81588e68","ios":"levelo://app?vid=e9c84bef-61b1-46b1-a005-93cc81588e68"},"vehicle_type_id":"4","last_reported":1699718865,"current_range_meters":29600,"station_id":"ce4bhf92rcd13ifvqf50","pricing_plan_id":"free"},{"bike_id":"62c4109e-1522-4847-b8e9-9152e22a65a3","system_id":"levelo_inurba_marseille","lat":43.279087,"lon":5.380114,"is_reserved":false,"is_disabled":false,"rental_uris":{"android":"levelo://app?vid=62c4109e-1522-4847-b8e9-9152e22a65a3","ios":"levelo://app?vid=62c4109e-1522-4847-b8e9-9152e22a65a3"},"vehicle_type_id":"4","last_reported":1699718865,"current_range_meters":14800,"station_id":"ce4bhf92rcd13ifvqf50","pricing_plan_id":"free"},{"bike_id":"c23ac6b3-47a7-4c76-b67e-8a7e6ea69c46","system_id":"levelo_inurba_marseille","lat":43.279087,"lon":5.380114,"is_reserved":false,"is_disabled":false,"rental_uris":{"android":"levelo://app?vid=c23ac6b3-47a7-4c76-b67e-8a7e6ea69c46","ios":"levelo://app?vid=c23ac6b3-47a7-4c76-b67e-8a7e6ea69c46"},"vehicle_type_id":"4","last_reported":1699718865,"current_range_meters":15600,"station_id":"ce4bhf92rcd13ifvqf50","pricing_plan_id":"free"},{"bike_id":"feca28d2-7019-4e39-96be-d7938cc29597","system_id":"levelo_inurba_marseille","lat":43.32435,"lon":5.4137,"is_reserved":false,"is_disabled":false,"rental_uris":{"android":"levelo://app?vid=feca28d2-7019-4e39-96be-d7938cc29597","ios":"levelo://app?vid=feca28d2-7019-4e39-96be-d7938cc29597"},"vehicle_type_id":"4","last_reported":1699718865,"current_range_meters":20800,"station_id":"","pricing_plan_id":"free"},{"bike_id":"25e9bb7a-4e0b-4012-a951-db74a4381b95","system_id":"levelo_inurba_marseille","lat":43.299579,"lon":5.413255,"is_reserved":false,"is_disabled":false,"rental_uris":{"android":"levelo://app?vid=25e9bb7a-4e0b-4012-a951-db74a4381b95","ios":"levelo://app?vid=25e9bb7a-4e0b-4012-a951-db74a4381b95"},"vehicle_type_id":"4","last_reported":1699718865,"current_range_meters":28400,"station_id":"ce4bhp12rcd13ifvqh9g","pricing_plan_id":"free"},{"bike_id":"87a398f2-1658-44ee-906e-e1c580c38904","system_id":"levelo_inurba_marseille","lat":43.320045,"lon":5.415046,"is_reserved":false,"is_disabled":false,"rental_uris":{"android":"levelo://app?vid=87a398f2-1658-44ee-906e-e1c580c38904","ios":"levelo://app?vid=87a398f2-1658-44ee-906e-e1c580c38904"},"vehicle_type_id":"4","last_reported":1699718865,"current_range_meters":13600,"station_id":"ce4bhq92rcd13ifvqhkg","pricing_plan_id":"free"},{"bike_id":"91335753-c683-4aeb-94a3-dfc8f74bde7f","system_id":"levelo_inurba_marseille","lat":43.320045,"lon":5.415048,"is_reserved":false,"is_disabled":false,"rental_uris":{"android":"levelo://app?vid=91335753-c683-4aeb-94a3-dfc8f74bde7f","ios":"levelo://app?vid=91335753-c683-4aeb-94a3-dfc8f74bde7f"},"vehicle_type_id":"4","last_reported":1699718865,"current_range_meters":28400,"station_id":"ce4bhq92rcd13ifvqhkg","pricing_plan_id":"free"},{"bike_id":"ea260225-dee7-413b-be1c-20daf5a1ed65","system_id":"levelo_inurba_marseille","lat":43.27979,"lon":5.38756,"is_reserved":false,"is_disabled":false,"rental_uris":{"android":"levelo://app?vid=ea260225-dee7-413b-be1c-20daf5a1ed65","ios":"levelo://app?vid=ea260225-dee7-413b-be1c-20daf5a1ed65"},"vehicle_type_id":"4","last_reported":1699718865,"current_range_meters":30800,"station_id":"ce4bhg12rcd13ifvqf80","pricing_plan_id":"free"},{"bike_id":"699fde4e-2a32-4a7c-8e92-ed21be26b963","system_id":"levelo_inurba_marseille","lat":43.281044,"lon":5.378308,"is_reserved":false,"is_disabled":false,"rental_uris":{"android":"levelo://app?vid=699fde4e-2a32-4a7c-8e92-ed21be26b963","ios":"levelo://app?vid=699fde4e-2a32-4a7c-8e92-ed21be26b963"},"vehicle_type_id":"4","last_reported":1699718865,"current_range_meters":10800,"station_id":"ce4bha12rcd13ifvqee0","pricing_plan_id":"free"},{"bike_id":"3e75e756-f7a3-4bff-b00e-8686b1fd122d","system_id":"levelo_inurba_marseille","lat":43.27917,"lon":5.387833,"is_reserved":false,"is_disabled":false,"rental_uris":{"android":"levelo://app?vid=3e75e756-f7a3-4bff-b00e-8686b1fd122d","ios":"levelo://app?vid=3e75e756-f7a3-4bff-b00e-8686b1fd122d"},"vehicle_type_id":"4","last_reported":1699718865,"current_range_meters":0,"station_id":"","pricing_plan_id":"free"},{"bike_id":"8e4bdcc4-457c-4ab0-bf4a-82dacadfedcd","system_id":"levelo_inurba_marseille","lat":43.27894,"lon":5.39176,"is_reserved":false,"is_disabled":false,"rental_uris":{"android":"levelo://app?vid=8e4bdcc4-457c-4ab0-bf4a-82dacadfedcd","ios":"levelo://app?vid=8e4bdcc4-457c-4ab0-bf4a-82dacadfedcd"},"vehicle_type_id":"4","last_reported":1699718865,"current_range_meters":16400,"station_id":"","pricing_plan_id":"free"},{"bike_id":"0ab63087-976f-4d1a-b40d-5378ea80b07f","system_id":"levelo_inurba_marseille","lat":43.2738,"lon":5.36256,"is_reserved":false,"is_disabled":false,"rental_uris":{"android":"levelo://app?vid=0ab63087-976f-4d1a-b40d-5378ea80b07f","ios":"levelo://app?vid=0ab63087-976f-4d1a-b40d-5378ea80b07f"},"vehicle_type_id":"4","last_reported":1699718865,"current_range_meters":31200,"station_id":"ce4bhbh2rcd13ifvqeo0","pricing_plan_id":"free"},{"bike_id":"984bca77-0c7f-42a0-9821-7788f129b4f2","system_id":"levelo_inurba_marseille","lat":43.273613,"lon":5.362705,"is_reserved":false,"is_disabled":false,"rental_uris":{"android":"levelo://app?vid=984bca77-0c7f-42a0-9821-7788f129b4f2","ios":"levelo://app?vid=984bca77-0c7f-42a0-9821-7788f129b4f2"},"vehicle_type_id":"4","last_reported":1699718865,"current_range_meters":10400,"station_id":"ce4bhbh2rcd13ifvqeo0","pricing_plan_id":"free"},{"bike_id":"486322d1-fcb4-4736-a009-65f783d96042","system_id":"levelo_inurba_marseille","lat":43.273613,"lon":5.362705,"is_reserved":false,"is_disabled":false,"rental_uris":{"android":"levelo://app?vid=486322d1-fcb4-4736-a009-65f783d96042","ios":"levelo://app?vid=486322d1-fcb4-4736-a009-65f783d96042"},"vehicle_type_id":"4","last_reported":1699718865,"current_range_meters":31200,"station_id":"ce4bhbh2rcd13ifvqeo0","pricing_plan_id":"free"},{"bike_id":"7d1e0573-70ae-4ac2-9c10-953e4fc9841f","system_id":"levelo_inurba_marseille","lat":43.273613,"lon":5.362705,"is_reserved":false,"is_disabled":false,"rental_uris":{"android":"levelo://app?vid=7d1e0573-70ae-4ac2-9c10-953e4fc9841f","ios":"levelo://app?vid=7d1e0573-70ae-4ac2-9c10-953e4fc9841f"},"vehicle_type_id":"4","last_reported":1699718865,"current_range_meters":0,"station_id":"ce4bhbh2rcd13ifvqeo0","pricing_plan_id":"free"},{"bike_id":"487c877a-2b13-4028-87a9-d725c59731dd","system_id":"levelo_inurba_marseille","lat":43.273613,"lon":5.362705,"is_reserved":false,"is_disabled":false,"rental_uris":{"android":"levelo://app?vid=487c877a-2b13-4028-87a9-d725c59731dd","ios":"levelo://app?vid=487c877a-2b13-4028-87a9-d725c59731dd"},"vehicle_type_id":"4","last_reported":1699718865,"current_range_meters":15200,"station_id":"ce4bhbh2rcd13ifvqeo0","pricing_plan_id":"free"},{"bike_id":"c7a0f05c-0da9-4f4c-b65d-6b2c00abdaf4","system_id":"levelo_inurba_marseille","lat":43.273613,"lon":5.362705,"is_reserved":false,"is_disabled":false,"rental_uris":{"android":"levelo://app?vid=c7a0f05c-0da9-4f4c-b65d-6b2c00abdaf4","ios":"levelo://app?vid=c7a0f05c-0da9-4f4c-b65d-6b2c00abdaf4"},"vehicle_type_id":"4","last_reported":1699718865,"current_range_meters":29600,"station_id":"ce4bhbh2rcd13ifvqeo0","pricing_plan_id":"free"},{"bike_id":"58fdf5d7-481b-4444-a403-2d3b3ddb8a7a","system_id":"levelo_inurba_marseille","lat":43.273609,"lon":5.362708,"is_reserved":false,"is_disabled":false,"rental_uris":{"android":"levelo://app?vid=58fdf5d7-481b-4444-a403-2d3b3ddb8a7a","ios":"levelo://app?vid=58fdf5d7-481b-4444-a403-2d3b3ddb8a7a"},"vehicle_type_id":"4","last_reported":1699718865,"current_range_meters":31200,"station_id":"ce4bhbh2rcd13ifvqeo0","pricing_plan_id":"free"},{"bike_id":"916da35d-e210-4eac-861a-a005c4f2e098","system_id":"levelo_inurba_marseille","lat":43.273613,"lon":5.362705,"is_reserved":false,"is_disabled":false,"rental_uris":{"android":"levelo://app?vid=916da35d-e210-4eac-861a-a005c4f2e098","ios":"levelo://app?vid=916da35d-e210-4eac-861a-a005c4f2e098"},"vehicle_type_id":"4","last_reported":1699718865,"current_range_meters":4000,"station_id":"ce4bhbh2rcd13ifvqeo0","pricing_plan_id":"free"},{"bike_id":"6ed260bf-daa3-4f6d-a283-7fe90b5856dc","system_id":"levelo_inurba_marseille","lat":43.275625,"lon":5.384392,"is_reserved":false,"is_disabled":false,"rental_uris":{"android":"levelo://app?vid=6ed260bf-daa3-4f6d-a283-7fe90b5856dc","ios":"levelo://app?vid=6ed260bf-daa3-4f6d-a283-7fe90b5856dc"},"vehicle_type_id":"4","last_reported":1699718865,"current_range_meters":26400,"station_id":"ce4bhh92rcd13ifvqfi0","pricing_plan_id":"free"},{"bike_id":"e6dec4a5-3977-4d49-b130-bb08b498ddc5","system_id":"levelo_inurba_marseille","lat":43.3361,"lon":5.41036,"is_reserved":false,"is_disabled":false,"rental_uris":{"android":"levelo://app?vid=e6dec4a5-3977-4d49-b130-bb08b498ddc5","ios":"levelo://app?vid=e6dec4a5-3977-4d49-b130-bb08b498ddc5"},"vehicle_type_id":"4","last_reported":1699718865,"current_range_meters":24000,"station_id":"ce4bhqh2rcd13ifvqhmg","pricing_plan_id":"free"},{"bike_id":"f1bf558d-ac7d-4957-9d8c-1b4924746d02","system_id":"levelo_inurba_marseille","lat":43.276771,"lon":5.388799,"is_reserved":false,"is_disabled":false,"rental_uris":{"android":"levelo://app?vid=f1bf558d-ac7d-4957-9d8c-1b4924746d02","ios":"levelo://app?vid=f1bf558d-ac7d-4957-9d8c-1b4924746d02"},"vehicle_type_id":"4","last_reported":1699718865,"current_range_meters":26000,"station_id":"ce4bhi12rcd13ifvqfo0","pricing_plan_id":"free"},{"bike_id":"68ffca5c-f92e-4d2b-b812-3edfa190d5ea","system_id":"levelo_inurba_marseille","lat":43.278275,"lon":5.396505,"is_reserved":false,"is_disabled":false,"rental_uris":{"android":"levelo://app?vid=68ffca5c-f92e-4d2b-b812-3edfa190d5ea","ios":"levelo://app?vid=68ffca5c-f92e-4d2b-b812-3edfa190d5ea"},"vehicle_type_id":"4","last_reported":1699718865,"current_range_meters":8400,"station_id":"","pricing_plan_id":"free"},{"bike_id":"7f4c3c4d-b6e2-4b7c-be0d-d02bfa9e673c","system_id":"levelo_inurba_marseille","lat":43.317121,"lon":5.423936,"is_reserved":false,"is_disabled":false,"rental_uris":{"android":"levelo://app?vid=7f4c3c4d-b6e2-4b7c-be0d-d02bfa9e673c","ios":"levelo://app?vid=7f4c3c4d-b6e2-4b7c-be0d-d02bfa9e673c"},"vehicle_type_id":"4","last_reported":1699718865,"current_range_meters":26400,"station_id":"ce4bhp92rcd13ifvqhbg","pricing_plan_id":"free"},{"bike_id":"a65a7f67-7c24-4c20-93bb-323926b438c2","system_id":"levelo_inurba_marseille","lat":43.310785,"lon":5.424305,"is_reserved":false,"is_disabled":false,"rental_uris":{"android":"levelo://app?vid=a65a7f67-7c24-4c20-93bb-323926b438c2","ios":"levelo://app?vid=a65a7f67-7c24-4c20-93bb-323926b438c2"},"vehicle_type_id":"4","last_reported":1699718865,"current_range_meters":29200,"station_id":"ce4bhp92rcd13ifvqhag","pricing_plan_id":"free"},{"bike_id":"1bfe5d8a-7a5a-4bba-a2a3-6e36635a0cd3","system_id":"levelo_inurba_marseille","lat":43.310785,"lon":5.424305,"is_reserved":false,"is_disabled":false,"rental_uris":{"android":"levelo://app?vid=1bfe5d8a-7a5a-4bba-a2a3-6e36635a0cd3","ios":"levelo://app?vid=1bfe5d8a-7a5a-4bba-a2a3-6e36635a0cd3"},"vehicle_type_id":"4","last_reported":1699718865,"current_range_meters":30400,"station_id":"ce4bhp92rcd13ifvqhag","pricing_plan_id":"free"},{"bike_id":"7f7029a1-fbb1-49c4-a3b6-097f36482fc1","system_id":"levelo_inurba_marseille","lat":43.295523,"lon":5.422926,"is_reserved":false,"is_disabled":false,"rental_uris":{"android":"levelo://app?vid=7f7029a1-fbb1-49c4-a3b6-097f36482fc1","ios":"levelo://app?vid=7f7029a1-fbb1-49c4-a3b6-097f36482fc1"},"vehicle_type_id":"4","last_reported":1699718865,"current_range_meters":31200,"station_id":"ce4bhph2rcd13ifvqhdg","pricing_plan_id":"free"},{"bike_id":"fea03e83-2672-4901-b739-2fbff174dd7e","system_id":"levelo_inurba_marseille","lat":43.27216,"lon":5.39252,"is_reserved":false,"is_disabled":false,"rental_uris":{"android":"levelo://app?vid=fea03e83-2672-4901-b739-2fbff174dd7e","ios":"levelo://app?vid=fea03e83-2672-4901-b739-2fbff174dd7e"},"vehicle_type_id":"4","last_reported":1699718865,"current_range_meters":5200,"station_id":"","pricing_plan_id":"free"},{"bike_id":"622fc4f4-4ed5-4ca4-abb9-16f7389596a3","system_id":"levelo_inurba_marseille","lat":43.271947,"lon":5.392601,"is_reserved":false,"is_disabled":false,"rental_uris":{"android":"levelo://app?vid=622fc4f4-4ed5-4ca4-abb9-16f7389596a3","ios":"levelo://app?vid=622fc4f4-4ed5-4ca4-abb9-16f7389596a3"},"vehicle_type_id":"4","last_reported":1699718865,"current_range_meters":6000,"station_id":"","pricing_plan_id":"free"},{"bike_id":"71e768a2-9b49-49d8-bb9b-827044bbb7f7","system_id":"levelo_inurba_marseille","lat":43.27203,"lon":5.39295,"is_reserved":false,"is_disabled":false,"rental_uris":{"android":"levelo://app?vid=71e768a2-9b49-49d8-bb9b-827044bbb7f7","ios":"levelo://app?vid=71e768a2-9b49-49d8-bb9b-827044bbb7f7"},"vehicle_type_id":"4","last_reported":1699718865,"current_range_meters":18400,"station_id":"","pricing_plan_id":"free"},{"bike_id":"a795fa4f-056d-4ad9-a419-37f50ae9e62c","system_id":"levelo_inurba_marseille","lat":43.27809,"lon":5.4071,"is_reserved":false,"is_disabled":false,"rental_uris":{"android":"levelo://app?vid=a795fa4f-056d-4ad9-a419-37f50ae9e62c","ios":"levelo://app?vid=a795fa4f-056d-4ad9-a419-37f50ae9e62c"},"vehicle_type_id":"4","last_reported":1699718865,"current_range_meters":1600,"station_id":"ce4bhnh2rcd13ifvqgtg","pricing_plan_id":"free"},{"bike_id":"3c3ea3b3-81d6-4fcd-9bb1-0e6f5e5d9c00","system_id":"levelo_inurba_marseille","lat":43.27813,"lon":5.40717,"is_reserved":false,"is_disabled":false,"rental_uris":{"android":"levelo://app?vid=3c3ea3b3-81d6-4fcd-9bb1-0e6f5e5d9c00","ios":"levelo://app?vid=3c3ea3b3-81d6-4fcd-9bb1-0e6f5e5d9c00"},"vehicle_type_id":"4","last_reported":1699718865,"current_range_meters":23600,"station_id":"ce4bhnh2rcd13ifvqgtg","pricing_plan_id":"free"},{"bike_id":"94960eb6-734d-4c16-83f8-bc518fd4a811","system_id":"levelo_inurba_marseille","lat":43.27807,"lon":5.4072,"is_reserved":false,"is_disabled":false,"rental_uris":{"android":"levelo://app?vid=94960eb6-734d-4c16-83f8-bc518fd4a811","ios":"levelo://app?vid=94960eb6-734d-4c16-83f8-bc518fd4a811"},"vehicle_type_id":"4","last_reported":1699718865,"current_range_meters":23600,"station_id":"ce4bhnh2rcd13ifvqgtg","pricing_plan_id":"free"},{"bike_id":"1cd3e561-6dcd-4cb2-ac3e-b30a4b454baf","system_id":"levelo_inurba_marseille","lat":43.27136,"lon":5.39333,"is_reserved":false,"is_disabled":false,"rental_uris":{"android":"levelo://app?vid=1cd3e561-6dcd-4cb2-ac3e-b30a4b454baf","ios":"levelo://app?vid=1cd3e561-6dcd-4cb2-ac3e-b30a4b454baf"},"vehicle_type_id":"4","last_reported":1699718865,"current_range_meters":16800,"station_id":"","pricing_plan_id":"free"},{"bike_id":"1e0c48bc-081c-4d60-96be-abd1fa7bb407","system_id":"levelo_inurba_marseille","lat":43.27936,"lon":5.41049,"is_reserved":false,"is_disabled":false,"rental_uris":{"android":"levelo://app?vid=1e0c48bc-081c-4d60-96be-abd1fa7bb407","ios":"levelo://app?vid=1e0c48bc-081c-4d60-96be-abd1fa7bb407"},"vehicle_type_id":"4","last_reported":1699718865,"current_range_meters":9200,"station_id":"ce4bhnp2rcd13ifvqh0g","pricing_plan_id":"free"},{"bike_id":"9c2e35fe-3565-4306-b833-896e71830310","system_id":"levelo_inurba_marseille","lat":43.231793,"lon":5.400044,"is_reserved":false,"is_disabled":false,"rental_uris":{"android":"levelo://app?vid=9c2e35fe-3565-4306-b833-896e71830310","ios":"levelo://app?vid=9c2e35fe-3565-4306-b833-896e71830310"},"vehicle_type_id":"4","last_reported":1699718865,"current_range_meters":24400,"station_id":"ce4bhn12rcd13ifvqgqg","pricing_plan_id":"free"},{"bike_id":"feea6f18-648f-4a9d-8bc5-3c02ec68e358","system_id":"levelo_inurba_marseille","lat":43.26688,"lon":5.38276,"is_reserved":false,"is_disabled":false,"rental_uris":{"android":"levelo://app?vid=feea6f18-648f-4a9d-8bc5-3c02ec68e358","ios":"levelo://app?vid=feea6f18-648f-4a9d-8bc5-3c02ec68e358"},"vehicle_type_id":"4","last_reported":1699718865,"current_range_meters":31600,"station_id":"ce4bhg92rcd13ifvqf90","pricing_plan_id":"free"},{"bike_id":"c7c8c10f-30e1-49fb-bfcc-3c4905de517b","system_id":"levelo_inurba_marseille","lat":43.26687,"lon":5.38277,"is_reserved":false,"is_disabled":false,"rental_uris":{"android":"levelo://app?vid=c7c8c10f-30e1-49fb-bfcc-3c4905de517b","ios":"levelo://app?vid=c7c8c10f-30e1-49fb-bfcc-3c4905de517b"},"vehicle_type_id":"4","last_reported":1699718865,"current_range_meters":31600,"station_id":"ce4bhg92rcd13ifvqf90","pricing_plan_id":"free"},{"bike_id":"1eebfeb7-398b-4a9e-9f9a-744a6ff6f8a7","system_id":"levelo_inurba_marseille","lat":43.265714,"lon":5.372891,"is_reserved":false,"is_disabled":false,"rental_uris":{"android":"levelo://app?vid=1eebfeb7-398b-4a9e-9f9a-744a6ff6f8a7","ios":"levelo://app?vid=1eebfeb7-398b-4a9e-9f9a-744a6ff6f8a7"},"vehicle_type_id":"4","last_reported":1699718865,"current_range_meters":9600,"station_id":"ce4bhg12rcd13ifvqf70","pricing_plan_id":"free"},{"bike_id":"afdf8ac8-9ffb-4f9f-9c8f-6cb3735e6eb9","system_id":"levelo_inurba_marseille","lat":43.26549,"lon":5.37284,"is_reserved":false,"is_disabled":false,"rental_uris":{"android":"levelo://app?vid=afdf8ac8-9ffb-4f9f-9c8f-6cb3735e6eb9","ios":"levelo://app?vid=afdf8ac8-9ffb-4f9f-9c8f-6cb3735e6eb9"},"vehicle_type_id":"4","last_reported":1699718865,"current_range_meters":0,"station_id":"ce4bhg12rcd13ifvqf70","pricing_plan_id":"free"},{"bike_id":"4221bc7f-880d-4817-8ec1-d51f5883c835","system_id":"levelo_inurba_marseille","lat":43.27987,"lon":5.41657,"is_reserved":false,"is_disabled":false,"rental_uris":{"android":"levelo://app?vid=4221bc7f-880d-4817-8ec1-d51f5883c835","ios":"levelo://app?vid=4221bc7f-880d-4817-8ec1-d51f5883c835"},"vehicle_type_id":"4","last_reported":1699718865,"current_range_meters":26400,"station_id":"ce4bho12rcd13ifvqh1g","pricing_plan_id":"free"},{"bike_id":"54977d38-948d-4d5d-bf17-2ac08a208c19","system_id":"levelo_inurba_marseille","lat":43.27995,"lon":5.41667,"is_reserved":false,"is_disabled":false,"rental_uris":{"android":"levelo://app?vid=54977d38-948d-4d5d-bf17-2ac08a208c19","ios":"levelo://app?vid=54977d38-948d-4d5d-bf17-2ac08a208c19"},"vehicle_type_id":"4","last_reported":1699718865,"current_range_meters":12400,"station_id":"ce4bho12rcd13ifvqh1g","pricing_plan_id":"free"},{"bike_id":"9b3232c5-9487-4e9a-a165-6f944c2b2286","system_id":"levelo_inurba_marseille","lat":43.27998,"lon":5.41671,"is_reserved":false,"is_disabled":false,"rental_uris":{"android":"levelo://app?vid=9b3232c5-9487-4e9a-a165-6f944c2b2286","ios":"levelo://app?vid=9b3232c5-9487-4e9a-a165-6f944c2b2286"},"vehicle_type_id":"4","last_reported":1699718865,"current_range_meters":20000,"station_id":"ce4bho12rcd13ifvqh1g","pricing_plan_id":"free"},{"bike_id":"9ad9746e-5568-461e-9e08-9a1140ac60a4","system_id":"levelo_inurba_marseille","lat":43.267966,"lon":5.393976,"is_reserved":false,"is_disabled":false,"rental_uris":{"android":"levelo://app?vid=9ad9746e-5568-461e-9e08-9a1140ac60a4","ios":"levelo://app?vid=9ad9746e-5568-461e-9e08-9a1140ac60a4"},"vehicle_type_id":"4","last_reported":1699718865,"current_range_meters":16800,"station_id":"ce4bhh12rcd13ifvqfg0","pricing_plan_id":"free"},{"bike_id":"1e21099f-abf7-44ff-9dda-247fa0a8cc66","system_id":"levelo_inurba_marseille","lat":43.26568,"lon":5.3901,"is_reserved":false,"is_disabled":false,"rental_uris":{"android":"levelo://app?vid=1e21099f-abf7-44ff-9dda-247fa0a8cc66","ios":"levelo://app?vid=1e21099f-abf7-44ff-9dda-247fa0a8cc66"},"vehicle_type_id":"4","last_reported":1699718865,"current_range_meters":0,"station_id":"ce4bhe12rcd13ifvqf30","pricing_plan_id":"free"},{"bike_id":"f619fc2f-becb-4cce-8e7e-6b23f2cf4d7e","system_id":"levelo_inurba_marseille","lat":43.265569,"lon":5.390047,"is_reserved":false,"is_disabled":false,"rental_uris":{"android":"levelo://app?vid=f619fc2f-becb-4cce-8e7e-6b23f2cf4d7e","ios":"levelo://app?vid=f619fc2f-becb-4cce-8e7e-6b23f2cf4d7e"},"vehicle_type_id":"4","last_reported":1699718865,"current_range_meters":30800,"station_id":"ce4bhe12rcd13ifvqf30","pricing_plan_id":"free"},{"bike_id":"758a7d76-f1a9-4f2a-b35d-c28bd967697a","system_id":"levelo_inurba_marseille","lat":43.26941,"lon":5.40253,"is_reserved":false,"is_disabled":false,"rental_uris":{"android":"levelo://app?vid=758a7d76-f1a9-4f2a-b35d-c28bd967697a","ios":"levelo://app?vid=758a7d76-f1a9-4f2a-b35d-c28bd967697a"},"vehicle_type_id":"4","last_reported":1699718865,"current_range_meters":0,"station_id":"cjm6bp8fraef2m0cb0m0","pricing_plan_id":"free"},{"bike_id":"99d1910d-a84d-4eaf-bf7a-e5a15d325b53","system_id":"levelo_inurba_marseille","lat":43.331823,"lon":5.431664,"is_reserved":false,"is_disabled":false,"rental_uris":{"android":"levelo://app?vid=99d1910d-a84d-4eaf-bf7a-e5a15d325b53","ios":"levelo://app?vid=99d1910d-a84d-4eaf-bf7a-e5a15d325b53"},"vehicle_type_id":"4","last_reported":1699718865,"current_range_meters":0,"station_id":"","pricing_plan_id":"free"},{"bike_id":"58c9683e-4ee8-42e9-aed5-3a6fb8f33877","system_id":"levelo_inurba_marseille","lat":43.261782,"lon":5.374515,"is_reserved":false,"is_disabled":false,"rental_uris":{"android":"levelo://app?vid=58c9683e-4ee8-42e9-aed5-3a6fb8f33877","ios":"levelo://app?vid=58c9683e-4ee8-42e9-aed5-3a6fb8f33877"},"vehicle_type_id":"4","last_reported":1699718865,"current_range_meters":3600,"station_id":"ce4bhgp2rcd13ifvqfc0","pricing_plan_id":"free"},{"bike_id":"95731d1b-1325-456a-8700-83d72dbaf979","system_id":"levelo_inurba_marseille","lat":43.31724,"lon":5.43691,"is_reserved":false,"is_disabled":false,"rental_uris":{"android":"levelo://app?vid=95731d1b-1325-456a-8700-83d72dbaf979","ios":"levelo://app?vid=95731d1b-1325-456a-8700-83d72dbaf979"},"vehicle_type_id":"4","last_reported":1699718865,"current_range_meters":24800,"station_id":"ce4bhp92rcd13ifvqhcg","pricing_plan_id":"free"},{"bike_id":"25fa0bdc-ead4-4271-87e1-d70b6eb9d2a9","system_id":"levelo_inurba_marseille","lat":43.31711,"lon":5.43697,"is_reserved":false,"is_disabled":false,"rental_uris":{"android":"levelo://app?vid=25fa0bdc-ead4-4271-87e1-d70b6eb9d2a9","ios":"levelo://app?vid=25fa0bdc-ead4-4271-87e1-d70b6eb9d2a9"},"vehicle_type_id":"4","last_reported":1699718865,"current_range_meters":29200,"station_id":"ce4bhp92rcd13ifvqhcg","pricing_plan_id":"free"},{"bike_id":"16f17151-fe60-4a21-be1c-c787ed957961","system_id":"levelo_inurba_marseille","lat":43.31717,"lon":5.43705,"is_reserved":false,"is_disabled":false,"rental_uris":{"android":"levelo://app?vid=16f17151-fe60-4a21-be1c-c787ed957961","ios":"levelo://app?vid=16f17151-fe60-4a21-be1c-c787ed957961"},"vehicle_type_id":"4","last_reported":1699718865,"current_range_meters":0,"station_id":"ce4bhp92rcd13ifvqhcg","pricing_plan_id":"free"},{"bike_id":"ab8345da-04dd-474a-b3ec-54d96a884a08","system_id":"levelo_inurba_marseille","lat":43.317104,"lon":5.436818,"is_reserved":false,"is_disabled":false,"rental_uris":{"android":"levelo://app?vid=ab8345da-04dd-474a-b3ec-54d96a884a08","ios":"levelo://app?vid=ab8345da-04dd-474a-b3ec-54d96a884a08"},"vehicle_type_id":"4","last_reported":1699718865,"current_range_meters":29200,"station_id":"ce4bhp92rcd13ifvqhcg","pricing_plan_id":"free"},{"bike_id":"5b2f28de-7458-4ce2-9272-7a2f611d2357","system_id":"levelo_inurba_marseille","lat":43.271368,"lon":5.40928,"is_reserved":false,"is_disabled":false,"rental_uris":{"android":"levelo://app?vid=5b2f28de-7458-4ce2-9272-7a2f611d2357","ios":"levelo://app?vid=5b2f28de-7458-4ce2-9272-7a2f611d2357"},"vehicle_type_id":"4","last_reported":1699718865,"current_range_meters":24400,"station_id":"ce4bhl12rcd13ifvqgf0","pricing_plan_id":"free"},{"bike_id":"ce448ed7-2906-4fbc-b6ea-f397b9d1a00e","system_id":"levelo_inurba_marseille","lat":43.267959,"lon":5.402687,"is_reserved":false,"is_disabled":false,"rental_uris":{"android":"levelo://app?vid=ce448ed7-2906-4fbc-b6ea-f397b9d1a00e","ios":"levelo://app?vid=ce448ed7-2906-4fbc-b6ea-f397b9d1a00e"},"vehicle_type_id":"4","last_reported":1699718865,"current_range_meters":13600,"station_id":"ce501612rcd8frsf0b60","pricing_plan_id":"free"},{"bike_id":"8a4087ee-eb27-456c-aa78-99b81d1568ae","system_id":"levelo_inurba_marseille","lat":43.298961,"lon":5.436687,"is_reserved":false,"is_disabled":false,"rental_uris":{"android":"levelo://app?vid=8a4087ee-eb27-456c-aa78-99b81d1568ae","ios":"levelo://app?vid=8a4087ee-eb27-456c-aa78-99b81d1568ae"},"vehicle_type_id":"4","last_reported":1699718865,"current_range_meters":0,"station_id":"ce4bhpp2rcd13ifvqhfg","pricing_plan_id":"free"},{"bike_id":"c48c9371-7c30-4897-8647-06790164a180","system_id":"levelo_inurba_marseille","lat":43.26501,"lon":5.39732,"is_reserved":false,"is_disabled":false,"rental_uris":{"android":"levelo://app?vid=c48c9371-7c30-4897-8647-06790164a180","ios":"levelo://app?vid=c48c9371-7c30-4897-8647-06790164a180"},"vehicle_type_id":"4","last_reported":1699718865,"current_range_meters":0,"station_id":"","pricing_plan_id":"free"},{"bike_id":"3b5bfcfe-b7e3-4624-abf7-d21c0c861046","system_id":"levelo_inurba_marseille","lat":43.281819,"lon":5.425608,"is_reserved":false,"is_disabled":false,"rental_uris":{"android":"levelo://app?vid=3b5bfcfe-b7e3-4624-abf7-d21c0c861046","ios":"levelo://app?vid=3b5bfcfe-b7e3-4624-abf7-d21c0c861046"},"vehicle_type_id":"4","last_reported":1699718865,"current_range_meters":3600,"station_id":"","pricing_plan_id":"free"},{"bike_id":"a7ce2977-02df-4f85-bc85-7f59b1ce2d21","system_id":"levelo_inurba_marseille","lat":43.260225,"lon":5.375455,"is_reserved":false,"is_disabled":false,"rental_uris":{"android":"levelo://app?vid=a7ce2977-02df-4f85-bc85-7f59b1ce2d21","ios":"levelo://app?vid=a7ce2977-02df-4f85-bc85-7f59b1ce2d21"},"vehicle_type_id":"4","last_reported":1699718865,"current_range_meters":19600,"station_id":"ce4bhgh2rcd13ifvqfa0","pricing_plan_id":"free"},{"bike_id":"4f6880f4-3164-4fc2-9cf7-3c1358040f10","system_id":"levelo_inurba_marseille","lat":43.290501,"lon":5.433305,"is_reserved":false,"is_disabled":false,"rental_uris":{"android":"levelo://app?vid=4f6880f4-3164-4fc2-9cf7-3c1358040f10","ios":"levelo://app?vid=4f6880f4-3164-4fc2-9cf7-3c1358040f10"},"vehicle_type_id":"4","last_reported":1699718865,"current_range_meters":19200,"station_id":"","pricing_plan_id":"free"},{"bike_id":"32e78574-28d9-4487-9f62-47d69a328992","system_id":"levelo_inurba_marseille","lat":43.281548,"lon":5.42643,"is_reserved":false,"is_disabled":false,"rental_uris":{"android":"levelo://app?vid=32e78574-28d9-4487-9f62-47d69a328992","ios":"levelo://app?vid=32e78574-28d9-4487-9f62-47d69a328992"},"vehicle_type_id":"4","last_reported":1699718865,"current_range_meters":28400,"station_id":"ce4bhnh2rcd13ifvqgug","pricing_plan_id":"free"},{"bike_id":"1ed73a19-67b5-4669-8526-685c80708e99","system_id":"levelo_inurba_marseille","lat":43.281548,"lon":5.42643,"is_reserved":false,"is_disabled":false,"rental_uris":{"android":"levelo://app?vid=1ed73a19-67b5-4669-8526-685c80708e99","ios":"levelo://app?vid=1ed73a19-67b5-4669-8526-685c80708e99"},"vehicle_type_id":"4","last_reported":1699718865,"current_range_meters":26800,"station_id":"ce4bhnh2rcd13ifvqgug","pricing_plan_id":"free"},{"bike_id":"12f62096-4f34-4772-8387-86e0222f3b18","system_id":"levelo_inurba_marseille","lat":43.281548,"lon":5.42643,"is_reserved":false,"is_disabled":false,"rental_uris":{"android":"levelo://app?vid=12f62096-4f34-4772-8387-86e0222f3b18","ios":"levelo://app?vid=12f62096-4f34-4772-8387-86e0222f3b18"},"vehicle_type_id":"4","last_reported":1699718865,"current_range_meters":8400,"station_id":"ce4bhnh2rcd13ifvqgug","pricing_plan_id":"free"},{"bike_id":"88cfa07d-3765-44c5-aeab-7c57f381a273","system_id":"levelo_inurba_marseille","lat":43.2607,"lon":5.393983,"is_reserved":false,"is_disabled":false,"rental_uris":{"android":"levelo://app?vid=88cfa07d-3765-44c5-aeab-7c57f381a273","ios":"levelo://app?vid=88cfa07d-3765-44c5-aeab-7c57f381a273"},"vehicle_type_id":"4","last_reported":1699718865,"current_range_meters":16000,"station_id":"ce4bhh92rcd13ifvqfj0","pricing_plan_id":"free"},{"bike_id":"11d6695e-d5f7-4e8b-9915-061d61e29589","system_id":"levelo_inurba_marseille","lat":43.2607,"lon":5.393983,"is_reserved":false,"is_disabled":false,"rental_uris":{"android":"levelo://app?vid=11d6695e-d5f7-4e8b-9915-061d61e29589","ios":"levelo://app?vid=11d6695e-d5f7-4e8b-9915-061d61e29589"},"vehicle_type_id":"4","last_reported":1699718865,"current_range_meters":13600,"station_id":"ce4bhh92rcd13ifvqfj0","pricing_plan_id":"free"},{"bike_id":"7929fe62-478b-45ed-a32f-4cee63794674","system_id":"levelo_inurba_marseille","lat":43.275005,"lon":5.424511,"is_reserved":false,"is_disabled":false,"rental_uris":{"android":"levelo://app?vid=7929fe62-478b-45ed-a32f-4cee63794674","ios":"levelo://app?vid=7929fe62-478b-45ed-a32f-4cee63794674"},"vehicle_type_id":"4","last_reported":1699718865,"current_range_meters":17200,"station_id":"","pricing_plan_id":"free"},{"bike_id":"d5014823-3968-40af-ba19-6e1e44802278","system_id":"levelo_inurba_marseille","lat":43.275028,"lon":5.424534,"is_reserved":false,"is_disabled":false,"rental_uris":{"android":"levelo://app?vid=d5014823-3968-40af-ba19-6e1e44802278","ios":"levelo://app?vid=d5014823-3968-40af-ba19-6e1e44802278"},"vehicle_type_id":"4","last_reported":1699718865,"current_range_meters":26400,"station_id":"ce4bhn92rcd13ifvqgrg","pricing_plan_id":"free"},{"bike_id":"08516e65-842d-4838-8aa5-a2a9ed2b8bf0","system_id":"levelo_inurba_marseille","lat":43.26091,"lon":5.39761,"is_reserved":false,"is_disabled":false,"rental_uris":{"android":"levelo://app?vid=08516e65-842d-4838-8aa5-a2a9ed2b8bf0","ios":"levelo://app?vid=08516e65-842d-4838-8aa5-a2a9ed2b8bf0"},"vehicle_type_id":"4","last_reported":1699718865,"current_range_meters":21600,"station_id":"ce4bhi12rcd13ifvqfq0","pricing_plan_id":"free"},{"bike_id":"4be46446-e7b6-4c75-9198-868321eda932","system_id":"levelo_inurba_marseille","lat":43.275028,"lon":5.424534,"is_reserved":false,"is_disabled":false,"rental_uris":{"android":"levelo://app?vid=4be46446-e7b6-4c75-9198-868321eda932","ios":"levelo://app?vid=4be46446-e7b6-4c75-9198-868321eda932"},"vehicle_type_id":"4","last_reported":1699718865,"current_range_meters":31600,"station_id":"ce4bhn92rcd13ifvqgrg","pricing_plan_id":"free"},{"bike_id":"2a14e35b-b819-4a95-a5b4-8f022e428f37","system_id":"levelo_inurba_marseille","lat":43.275028,"lon":5.424534,"is_reserved":false,"is_disabled":false,"rental_uris":{"android":"levelo://app?vid=2a14e35b-b819-4a95-a5b4-8f022e428f37","ios":"levelo://app?vid=2a14e35b-b819-4a95-a5b4-8f022e428f37"},"vehicle_type_id":"4","last_reported":1699718865,"current_range_meters":2800,"station_id":"ce4bhn92rcd13ifvqgrg","pricing_plan_id":"free"},{"bike_id":"eaf50d44-2493-494b-9c1a-116aa1538e7e","system_id":"levelo_inurba_marseille","lat":43.275028,"lon":5.424534,"is_reserved":false,"is_disabled":false,"rental_uris":{"android":"levelo://app?vid=eaf50d44-2493-494b-9c1a-116aa1538e7e","ios":"levelo://app?vid=eaf50d44-2493-494b-9c1a-116aa1538e7e"},"vehicle_type_id":"4","last_reported":1699718865,"current_range_meters":27200,"station_id":"ce4bhn92rcd13ifvqgrg","pricing_plan_id":"free"},{"bike_id":"2aa6c4b1-a67d-43b7-9eb1-fe5b5bec91bf","system_id":"levelo_inurba_marseille","lat":43.333244,"lon":5.441446,"is_reserved":false,"is_disabled":false,"rental_uris":{"android":"levelo://app?vid=2aa6c4b1-a67d-43b7-9eb1-fe5b5bec91bf","ios":"levelo://app?vid=2aa6c4b1-a67d-43b7-9eb1-fe5b5bec91bf"},"vehicle_type_id":"4","last_reported":1699718865,"current_range_meters":9600,"station_id":"","pricing_plan_id":"free"},{"bike_id":"6733c60e-5a01-41f4-8cd2-3aa18ae7da79","system_id":"levelo_inurba_marseille","lat":43.25583,"lon":5.38237,"is_reserved":false,"is_disabled":false,"rental_uris":{"android":"levelo://app?vid=6733c60e-5a01-41f4-8cd2-3aa18ae7da79","ios":"levelo://app?vid=6733c60e-5a01-41f4-8cd2-3aa18ae7da79"},"vehicle_type_id":"4","last_reported":1699718865,"current_range_meters":19200,"station_id":"ce4bhih2rcd13ifvqfs0","pricing_plan_id":"free"},{"bike_id":"bf035b6c-5d28-443b-ac30-41d8358c0a85","system_id":"levelo_inurba_marseille","lat":43.255087,"lon":5.376158,"is_reserved":false,"is_disabled":false,"rental_uris":{"android":"levelo://app?vid=bf035b6c-5d28-443b-ac30-41d8358c0a85","ios":"levelo://app?vid=bf035b6c-5d28-443b-ac30-41d8358c0a85"},"vehicle_type_id":"4","last_reported":1699718865,"current_range_meters":2400,"station_id":"ce4bhh12rcd13ifvqff0","pricing_plan_id":"free"},{"bike_id":"7c6605e8-248d-44b3-a40f-82d4d152b51e","system_id":"levelo_inurba_marseille","lat":43.25578,"lon":5.38235,"is_reserved":false,"is_disabled":false,"rental_uris":{"android":"levelo://app?vid=7c6605e8-248d-44b3-a40f-82d4d152b51e","ios":"levelo://app?vid=7c6605e8-248d-44b3-a40f-82d4d152b51e"},"vehicle_type_id":"4","last_reported":1699718865,"current_range_meters":28000,"station_id":"ce4bhih2rcd13ifvqfs0","pricing_plan_id":"free"},{"bike_id":"82c7606c-4168-4258-b337-1d8554bf2e18","system_id":"levelo_inurba_marseille","lat":43.25572,"lon":5.38236,"is_reserved":false,"is_disabled":false,"rental_uris":{"android":"levelo://app?vid=82c7606c-4168-4258-b337-1d8554bf2e18","ios":"levelo://app?vid=82c7606c-4168-4258-b337-1d8554bf2e18"},"vehicle_type_id":"4","last_reported":1699718865,"current_range_meters":2000,"station_id":"ce4bhih2rcd13ifvqfs0","pricing_plan_id":"free"},{"bike_id":"9d61f607-fd82-4e8f-9b58-4ec29c969e8d","system_id":"levelo_inurba_marseille","lat":43.254947,"lon":5.376454,"is_reserved":false,"is_disabled":false,"rental_uris":{"android":"levelo://app?vid=9d61f607-fd82-4e8f-9b58-4ec29c969e8d","ios":"levelo://app?vid=9d61f607-fd82-4e8f-9b58-4ec29c969e8d"},"vehicle_type_id":"4","last_reported":1699718865,"current_range_meters":1200,"station_id":"ce4bhh12rcd13ifvqff0","pricing_plan_id":"free"},{"bike_id":"d1be4948-3db8-46c6-a0e9-4eb9877553a6","system_id":"levelo_inurba_marseille","lat":43.25497,"lon":5.3765,"is_reserved":false,"is_disabled":false,"rental_uris":{"android":"levelo://app?vid=d1be4948-3db8-46c6-a0e9-4eb9877553a6","ios":"levelo://app?vid=d1be4948-3db8-46c6-a0e9-4eb9877553a6"},"vehicle_type_id":"4","last_reported":1699718865,"current_range_meters":23600,"station_id":"ce4bhh12rcd13ifvqff0","pricing_plan_id":"free"},{"bike_id":"d8599002-1e4e-4a9f-9e22-da9f812e154c","system_id":"levelo_inurba_marseille","lat":43.25489,"lon":5.37646,"is_reserved":false,"is_disabled":false,"rental_uris":{"android":"levelo://app?vid=d8599002-1e4e-4a9f-9e22-da9f812e154c","ios":"levelo://app?vid=d8599002-1e4e-4a9f-9e22-da9f812e154c"},"vehicle_type_id":"4","last_reported":1699718865,"current_range_meters":15600,"station_id":"ce4bhh12rcd13ifvqff0","pricing_plan_id":"free"},{"bike_id":"4878e5a5-36f4-4406-8723-e905821b2c58","system_id":"levelo_inurba_marseille","lat":43.25488,"lon":5.37648,"is_reserved":false,"is_disabled":false,"rental_uris":{"android":"levelo://app?vid=4878e5a5-36f4-4406-8723-e905821b2c58","ios":"levelo://app?vid=4878e5a5-36f4-4406-8723-e905821b2c58"},"vehicle_type_id":"4","last_reported":1699718865,"current_range_meters":30400,"station_id":"ce4bhh12rcd13ifvqff0","pricing_plan_id":"free"},{"bike_id":"f25a4baa-9ab6-4151-8e16-1c36c37b78b4","system_id":"levelo_inurba_marseille","lat":43.25486,"lon":5.37648,"is_reserved":false,"is_disabled":false,"rental_uris":{"android":"levelo://app?vid=f25a4baa-9ab6-4151-8e16-1c36c37b78b4","ios":"levelo://app?vid=f25a4baa-9ab6-4151-8e16-1c36c37b78b4"},"vehicle_type_id":"4","last_reported":1699718865,"current_range_meters":18400,"station_id":"ce4bhh12rcd13ifvqff0","pricing_plan_id":"free"},{"bike_id":"a3637572-6156-48da-b407-180d755b4b7f","system_id":"levelo_inurba_marseille","lat":43.270721,"lon":5.422764,"is_reserved":false,"is_disabled":false,"rental_uris":{"android":"levelo://app?vid=a3637572-6156-48da-b407-180d755b4b7f","ios":"levelo://app?vid=a3637572-6156-48da-b407-180d755b4b7f"},"vehicle_type_id":"4","last_reported":1699718865,"current_range_meters":19600,"station_id":"ce4bhk92rcd13ifvqgb0","pricing_plan_id":"free"},{"bike_id":"44390b9c-67db-4d9d-b523-11efba851141","system_id":"levelo_inurba_marseille","lat":43.27067,"lon":5.42279,"is_reserved":false,"is_disabled":false,"rental_uris":{"android":"levelo://app?vid=44390b9c-67db-4d9d-b523-11efba851141","ios":"levelo://app?vid=44390b9c-67db-4d9d-b523-11efba851141"},"vehicle_type_id":"4","last_reported":1699718865,"current_range_meters":12000,"station_id":"ce4bhk92rcd13ifvqgb0","pricing_plan_id":"free"},{"bike_id":"bdad9b84-32e8-4ec5-a53b-de6891e0e76f","system_id":"levelo_inurba_marseille","lat":43.258658,"lon":5.398935,"is_reserved":false,"is_disabled":false,"rental_uris":{"android":"levelo://app?vid=bdad9b84-32e8-4ec5-a53b-de6891e0e76f","ios":"levelo://app?vid=bdad9b84-32e8-4ec5-a53b-de6891e0e76f"},"vehicle_type_id":"4","last_reported":1699718865,"current_range_meters":27200,"station_id":"ce4bhl92rcd13ifvqghg","pricing_plan_id":"free"},{"bike_id":"4e40d249-8a36-4ef3-89ba-123d51976098","system_id":"levelo_inurba_marseille","lat":43.25927,"lon":5.4091,"is_reserved":false,"is_disabled":false,"rental_uris":{"android":"levelo://app?vid=4e40d249-8a36-4ef3-89ba-123d51976098","ios":"levelo://app?vid=4e40d249-8a36-4ef3-89ba-123d51976098"},"vehicle_type_id":"4","last_reported":1699718865,"current_range_meters":0,"station_id":"ce4bhm92rcd13ifvqglg","pricing_plan_id":"free"},{"bike_id":"32f164ca-0f8d-47b4-b141-3b01d043da1d","system_id":"levelo_inurba_marseille","lat":43.257079,"lon":5.411051,"is_reserved":false,"is_disabled":false,"rental_uris":{"android":"levelo://app?vid=32f164ca-0f8d-47b4-b141-3b01d043da1d","ios":"levelo://app?vid=32f164ca-0f8d-47b4-b141-3b01d043da1d"},"vehicle_type_id":"4","last_reported":1699718865,"current_range_meters":25600,"station_id":"ce4bhkp2rcd13ifvqgd0","pricing_plan_id":"free"},{"bike_id":"5ffa79d3-4496-4372-99ac-0c5f839af2bb","system_id":"levelo_inurba_marseille","lat":43.257079,"lon":5.411051,"is_reserved":false,"is_disabled":false,"rental_uris":{"android":"levelo://app?vid=5ffa79d3-4496-4372-99ac-0c5f839af2bb","ios":"levelo://app?vid=5ffa79d3-4496-4372-99ac-0c5f839af2bb"},"vehicle_type_id":"4","last_reported":1699718865,"current_range_meters":7200,"station_id":"ce4bhkp2rcd13ifvqgd0","pricing_plan_id":"free"},{"bike_id":"045f0f92-905b-48bc-8e1d-2b5492122b1f","system_id":"levelo_inurba_marseille","lat":43.257079,"lon":5.411051,"is_reserved":false,"is_disabled":false,"rental_uris":{"android":"levelo://app?vid=045f0f92-905b-48bc-8e1d-2b5492122b1f","ios":"levelo://app?vid=045f0f92-905b-48bc-8e1d-2b5492122b1f"},"vehicle_type_id":"4","last_reported":1699718865,"current_range_meters":13200,"station_id":"ce4bhkp2rcd13ifvqgd0","pricing_plan_id":"free"},{"bike_id":"c77dc11a-ab9c-4cc4-bf60-7da98e98df5a","system_id":"levelo_inurba_marseille","lat":43.25008,"lon":5.38915,"is_reserved":false,"is_disabled":false,"rental_uris":{"android":"levelo://app?vid=c77dc11a-ab9c-4cc4-bf60-7da98e98df5a","ios":"levelo://app?vid=c77dc11a-ab9c-4cc4-bf60-7da98e98df5a"},"vehicle_type_id":"4","last_reported":1699718865,"current_range_meters":9600,"station_id":"ce4bhgp2rcd13ifvqfd0","pricing_plan_id":"free"},{"bike_id":"4c495466-e9cf-4455-9ae6-80f612cba431","system_id":"levelo_inurba_marseille","lat":43.250009,"lon":5.389195,"is_reserved":false,"is_disabled":false,"rental_uris":{"android":"levelo://app?vid=4c495466-e9cf-4455-9ae6-80f612cba431","ios":"levelo://app?vid=4c495466-e9cf-4455-9ae6-80f612cba431"},"vehicle_type_id":"4","last_reported":1699718865,"current_range_meters":30400,"station_id":"ce4bhgp2rcd13ifvqfd0","pricing_plan_id":"free"},{"bike_id":"bea1e0d8-1de2-4210-addd-c009cad976ad","system_id":"levelo_inurba_marseille","lat":43.250009,"lon":5.389195,"is_reserved":false,"is_disabled":false,"rental_uris":{"android":"levelo://app?vid=bea1e0d8-1de2-4210-addd-c009cad976ad","ios":"levelo://app?vid=bea1e0d8-1de2-4210-addd-c009cad976ad"},"vehicle_type_id":"4","last_reported":1699718865,"current_range_meters":31200,"station_id":"ce4bhgp2rcd13ifvqfd0","pricing_plan_id":"free"},{"bike_id":"878b00ac-2602-4ad9-bf93-93d2cf44313f","system_id":"levelo_inurba_marseille","lat":43.250009,"lon":5.389195,"is_reserved":false,"is_disabled":false,"rental_uris":{"android":"levelo://app?vid=878b00ac-2602-4ad9-bf93-93d2cf44313f","ios":"levelo://app?vid=878b00ac-2602-4ad9-bf93-93d2cf44313f"},"vehicle_type_id":"4","last_reported":1699718865,"current_range_meters":31200,"station_id":"ce4bhgp2rcd13ifvqfd0","pricing_plan_id":"free"},{"bike_id":"c70b55b3-86c9-4446-83d0-302c2ea2e52b","system_id":"levelo_inurba_marseille","lat":43.248151,"lon":5.374621,"is_reserved":false,"is_disabled":false,"rental_uris":{"android":"levelo://app?vid=c70b55b3-86c9-4446-83d0-302c2ea2e52b","ios":"levelo://app?vid=c70b55b3-86c9-4446-83d0-302c2ea2e52b"},"vehicle_type_id":"4","last_reported":1699718865,"current_range_meters":31200,"station_id":"ce4bhgh2rcd13ifvqfb0","pricing_plan_id":"free"},{"bike_id":"84439e3d-4e75-4119-8a53-e76e66bc1ba9","system_id":"levelo_inurba_marseille","lat":43.2479,"lon":5.374457,"is_reserved":false,"is_disabled":false,"rental_uris":{"android":"levelo://app?vid=84439e3d-4e75-4119-8a53-e76e66bc1ba9","ios":"levelo://app?vid=84439e3d-4e75-4119-8a53-e76e66bc1ba9"},"vehicle_type_id":"4","last_reported":1699718865,"current_range_meters":16000,"station_id":"ce4bhgh2rcd13ifvqfb0","pricing_plan_id":"free"},{"bike_id":"117f8247-c7a1-4bdc-82ec-a6885bad1e28","system_id":"levelo_inurba_marseille","lat":43.2479,"lon":5.374457,"is_reserved":false,"is_disabled":false,"rental_uris":{"android":"levelo://app?vid=117f8247-c7a1-4bdc-82ec-a6885bad1e28","ios":"levelo://app?vid=117f8247-c7a1-4bdc-82ec-a6885bad1e28"},"vehicle_type_id":"4","last_reported":1699718865,"current_range_meters":24800,"station_id":"ce4bhgh2rcd13ifvqfb0","pricing_plan_id":"free"},{"bike_id":"e87d01a5-bec1-417e-b6d0-0b9a60de459e","system_id":"levelo_inurba_marseille","lat":43.2479,"lon":5.374457,"is_reserved":false,"is_disabled":false,"rental_uris":{"android":"levelo://app?vid=e87d01a5-bec1-417e-b6d0-0b9a60de459e","ios":"levelo://app?vid=e87d01a5-bec1-417e-b6d0-0b9a60de459e"},"vehicle_type_id":"4","last_reported":1699718865,"current_range_meters":16800,"station_id":"ce4bhgh2rcd13ifvqfb0","pricing_plan_id":"free"},{"bike_id":"5000350d-028e-4539-9961-17f0c02b0269","system_id":"levelo_inurba_marseille","lat":43.2479,"lon":5.374457,"is_reserved":false,"is_disabled":false,"rental_uris":{"android":"levelo://app?vid=5000350d-028e-4539-9961-17f0c02b0269","ios":"levelo://app?vid=5000350d-028e-4539-9961-17f0c02b0269"},"vehicle_type_id":"4","last_reported":1699718865,"current_range_meters":22000,"station_id":"ce4bhgh2rcd13ifvqfb0","pricing_plan_id":"free"},{"bike_id":"a1ae4b5b-b399-4828-849c-4fd6c80c7002","system_id":"levelo_inurba_marseille","lat":43.250009,"lon":5.389195,"is_reserved":false,"is_disabled":false,"rental_uris":{"android":"levelo://app?vid=a1ae4b5b-b399-4828-849c-4fd6c80c7002","ios":"levelo://app?vid=a1ae4b5b-b399-4828-849c-4fd6c80c7002"},"vehicle_type_id":"4","last_reported":1699718865,"current_range_meters":31600,"station_id":"ce4bhgp2rcd13ifvqfd0","pricing_plan_id":"free"},{"bike_id":"41ad63ab-7902-49b0-b95c-701d8d688b19","system_id":"levelo_inurba_marseille","lat":43.2479,"lon":5.374457,"is_reserved":false,"is_disabled":false,"rental_uris":{"android":"levelo://app?vid=41ad63ab-7902-49b0-b95c-701d8d688b19","ios":"levelo://app?vid=41ad63ab-7902-49b0-b95c-701d8d688b19"},"vehicle_type_id":"4","last_reported":1699718865,"current_range_meters":16000,"station_id":"ce4bhgh2rcd13ifvqfb0","pricing_plan_id":"free"},{"bike_id":"bc7fc931-ed5d-44d8-832c-2cffc9edf698","system_id":"levelo_inurba_marseille","lat":43.2479,"lon":5.374457,"is_reserved":false,"is_disabled":false,"rental_uris":{"android":"levelo://app?vid=bc7fc931-ed5d-44d8-832c-2cffc9edf698","ios":"levelo://app?vid=bc7fc931-ed5d-44d8-832c-2cffc9edf698"},"vehicle_type_id":"4","last_reported":1699718865,"current_range_meters":32000,"station_id":"ce4bhgh2rcd13ifvqfb0","pricing_plan_id":"free"},{"bike_id":"753af7ce-931f-49c9-9f4f-f22872e361af","system_id":"levelo_inurba_marseille","lat":43.24803,"lon":5.3745,"is_reserved":false,"is_disabled":false,"rental_uris":{"android":"levelo://app?vid=753af7ce-931f-49c9-9f4f-f22872e361af","ios":"levelo://app?vid=753af7ce-931f-49c9-9f4f-f22872e361af"},"vehicle_type_id":"4","last_reported":1699718865,"current_range_meters":22000,"station_id":"ce4bhgh2rcd13ifvqfb0","pricing_plan_id":"free"},{"bike_id":"e938bec8-c01e-4b2b-8854-8b564e5e5c1e","system_id":"levelo_inurba_marseille","lat":43.2479,"lon":5.374457,"is_reserved":false,"is_disabled":false,"rental_uris":{"android":"levelo://app?vid=e938bec8-c01e-4b2b-8854-8b564e5e5c1e","ios":"levelo://app?vid=e938bec8-c01e-4b2b-8854-8b564e5e5c1e"},"vehicle_type_id":"4","last_reported":1699718865,"current_range_meters":22800,"station_id":"ce4bhgh2rcd13ifvqfb0","pricing_plan_id":"free"},{"bike_id":"5b80814e-8a47-4b25-9257-8319e829b2bc","system_id":"levelo_inurba_marseille","lat":43.24802,"lon":5.37451,"is_reserved":false,"is_disabled":false,"rental_uris":{"android":"levelo://app?vid=5b80814e-8a47-4b25-9257-8319e829b2bc","ios":"levelo://app?vid=5b80814e-8a47-4b25-9257-8319e829b2bc"},"vehicle_type_id":"4","last_reported":1699718865,"current_range_meters":9600,"station_id":"ce4bhgh2rcd13ifvqfb0","pricing_plan_id":"free"},{"bike_id":"cebea0d8-1a5d-4ad1-a965-1afa9e2399b5","system_id":"levelo_inurba_marseille","lat":43.24802,"lon":5.37452,"is_reserved":false,"is_disabled":false,"rental_uris":{"android":"levelo://app?vid=cebea0d8-1a5d-4ad1-a965-1afa9e2399b5","ios":"levelo://app?vid=cebea0d8-1a5d-4ad1-a965-1afa9e2399b5"},"vehicle_type_id":"4","last_reported":1699718865,"current_range_meters":15600,"station_id":"ce4bhgh2rcd13ifvqfb0","pricing_plan_id":"free"},{"bike_id":"015efbad-17b7-46fb-9b90-1fed546b27be","system_id":"levelo_inurba_marseille","lat":43.24798,"lon":5.37452,"is_reserved":false,"is_disabled":false,"rental_uris":{"android":"levelo://app?vid=015efbad-17b7-46fb-9b90-1fed546b27be","ios":"levelo://app?vid=015efbad-17b7-46fb-9b90-1fed546b27be"},"vehicle_type_id":"4","last_reported":1699718865,"current_range_meters":25200,"station_id":"ce4bhgh2rcd13ifvqfb0","pricing_plan_id":"free"},{"bike_id":"5e15f887-d780-4f4a-afb5-5032e9aa3dac","system_id":"levelo_inurba_marseille","lat":43.2479,"lon":5.374457,"is_reserved":false,"is_disabled":false,"rental_uris":{"android":"levelo://app?vid=5e15f887-d780-4f4a-afb5-5032e9aa3dac","ios":"levelo://app?vid=5e15f887-d780-4f4a-afb5-5032e9aa3dac"},"vehicle_type_id":"4","last_reported":1699718865,"current_range_meters":0,"station_id":"ce4bhgh2rcd13ifvqfb0","pricing_plan_id":"free"},{"bike_id":"4d45c0ee-83f3-4acd-b1e4-7a9a153cff09","system_id":"levelo_inurba_marseille","lat":43.250966,"lon":5.395186,"is_reserved":false,"is_disabled":false,"rental_uris":{"android":"levelo://app?vid=4d45c0ee-83f3-4acd-b1e4-7a9a153cff09","ios":"levelo://app?vid=4d45c0ee-83f3-4acd-b1e4-7a9a153cff09"},"vehicle_type_id":"4","last_reported":1699718865,"current_range_meters":4800,"station_id":"ce4bhm12rcd13ifvqgkg","pricing_plan_id":"free"},{"bike_id":"c1680ccb-0744-4887-baa5-521800a5f008","system_id":"levelo_inurba_marseille","lat":43.24693,"lon":5.382096,"is_reserved":false,"is_disabled":false,"rental_uris":{"android":"levelo://app?vid=c1680ccb-0744-4887-baa5-521800a5f008","ios":"levelo://app?vid=c1680ccb-0744-4887-baa5-521800a5f008"},"vehicle_type_id":"4","last_reported":1699718865,"current_range_meters":13200,"station_id":"ce4bhih2rcd13ifvqfr0","pricing_plan_id":"free"},{"bike_id":"ff8360e5-874f-4a8d-a928-c20c3079e4ac","system_id":"levelo_inurba_marseille","lat":43.24693,"lon":5.382096,"is_reserved":false,"is_disabled":false,"rental_uris":{"android":"levelo://app?vid=ff8360e5-874f-4a8d-a928-c20c3079e4ac","ios":"levelo://app?vid=ff8360e5-874f-4a8d-a928-c20c3079e4ac"},"vehicle_type_id":"4","last_reported":1699718865,"current_range_meters":21200,"station_id":"ce4bhih2rcd13ifvqfr0","pricing_plan_id":"free"},{"bike_id":"23d6ecb7-8468-4f47-bcdb-c6327c8ceddc","system_id":"levelo_inurba_marseille","lat":43.24693,"lon":5.382096,"is_reserved":false,"is_disabled":false,"rental_uris":{"android":"levelo://app?vid=23d6ecb7-8468-4f47-bcdb-c6327c8ceddc","ios":"levelo://app?vid=23d6ecb7-8468-4f47-bcdb-c6327c8ceddc"},"vehicle_type_id":"4","last_reported":1699718865,"current_range_meters":30800,"station_id":"ce4bhih2rcd13ifvqfr0","pricing_plan_id":"free"},{"bike_id":"849a21ac-14e3-401d-b39c-35ce0567711a","system_id":"levelo_inurba_marseille","lat":43.24693,"lon":5.382096,"is_reserved":false,"is_disabled":false,"rental_uris":{"android":"levelo://app?vid=849a21ac-14e3-401d-b39c-35ce0567711a","ios":"levelo://app?vid=849a21ac-14e3-401d-b39c-35ce0567711a"},"vehicle_type_id":"4","last_reported":1699718865,"current_range_meters":27200,"station_id":"ce4bhih2rcd13ifvqfr0","pricing_plan_id":"free"},{"bike_id":"65b26ada-3761-46f4-8157-46f830e1f5f0","system_id":"levelo_inurba_marseille","lat":43.25102,"lon":5.403214,"is_reserved":false,"is_disabled":false,"rental_uris":{"android":"levelo://app?vid=65b26ada-3761-46f4-8157-46f830e1f5f0","ios":"levelo://app?vid=65b26ada-3761-46f4-8157-46f830e1f5f0"},"vehicle_type_id":"4","last_reported":1699718865,"current_range_meters":28400,"station_id":"ce4bhlh2rcd13ifvqgig","pricing_plan_id":"free"},{"bike_id":"6f750682-5cc6-45a1-bf29-b9336d3a5842","system_id":"levelo_inurba_marseille","lat":43.25116,"lon":5.40325,"is_reserved":false,"is_disabled":false,"rental_uris":{"android":"levelo://app?vid=6f750682-5cc6-45a1-bf29-b9336d3a5842","ios":"levelo://app?vid=6f750682-5cc6-45a1-bf29-b9336d3a5842"},"vehicle_type_id":"4","last_reported":1699718865,"current_range_meters":28800,"station_id":"ce4bhlh2rcd13ifvqgig","pricing_plan_id":"free"},{"bike_id":"3f8dbe60-19b3-4b6c-819b-561d1485db5e","system_id":"levelo_inurba_marseille","lat":43.24693,"lon":5.382096,"is_reserved":false,"is_disabled":false,"rental_uris":{"android":"levelo://app?vid=3f8dbe60-19b3-4b6c-819b-561d1485db5e","ios":"levelo://app?vid=3f8dbe60-19b3-4b6c-819b-561d1485db5e"},"vehicle_type_id":"4","last_reported":1699718865,"current_range_meters":28800,"station_id":"ce4bhih2rcd13ifvqfr0","pricing_plan_id":"free"},{"bike_id":"21305e1a-dfab-4dae-9095-fc87e45e7849","system_id":"levelo_inurba_marseille","lat":43.246467,"lon":5.388984,"is_reserved":false,"is_disabled":false,"rental_uris":{"android":"levelo://app?vid=21305e1a-dfab-4dae-9095-fc87e45e7849","ios":"levelo://app?vid=21305e1a-dfab-4dae-9095-fc87e45e7849"},"vehicle_type_id":"4","last_reported":1699718865,"current_range_meters":31200,"station_id":"ce4bhg12rcd13ifvqf60","pricing_plan_id":"free"},{"bike_id":"c2e0cf5c-b515-4a2c-ac06-1f8fe671561c","system_id":"levelo_inurba_marseille","lat":43.24549,"lon":5.3952,"is_reserved":false,"is_disabled":false,"rental_uris":{"android":"levelo://app?vid=c2e0cf5c-b515-4a2c-ac06-1f8fe671561c","ios":"levelo://app?vid=c2e0cf5c-b515-4a2c-ac06-1f8fe671561c"},"vehicle_type_id":"4","last_reported":1699718865,"current_range_meters":13600,"station_id":"ce4bhlp2rcd13ifvqgjg","pricing_plan_id":"free"},{"bike_id":"b076b5f1-1523-46b9-b59a-22a3afe06958","system_id":"levelo_inurba_marseille","lat":43.245581,"lon":5.395069,"is_reserved":false,"is_disabled":false,"rental_uris":{"android":"levelo://app?vid=b076b5f1-1523-46b9-b59a-22a3afe06958","ios":"levelo://app?vid=b076b5f1-1523-46b9-b59a-22a3afe06958"},"vehicle_type_id":"4","last_reported":1699718865,"current_range_meters":28000,"station_id":"ce4bhlp2rcd13ifvqgjg","pricing_plan_id":"free"},{"bike_id":"42a92fd4-a595-46ac-8683-395aa407caf3","system_id":"levelo_inurba_marseille","lat":43.245581,"lon":5.395069,"is_reserved":false,"is_disabled":false,"rental_uris":{"android":"levelo://app?vid=42a92fd4-a595-46ac-8683-395aa407caf3","ios":"levelo://app?vid=42a92fd4-a595-46ac-8683-395aa407caf3"},"vehicle_type_id":"4","last_reported":1699718865,"current_range_meters":14800,"station_id":"ce4bhlp2rcd13ifvqgjg","pricing_plan_id":"free"},{"bike_id":"ff92a715-5fbb-4ac9-a157-23ea22833ee2","system_id":"levelo_inurba_marseille","lat":43.245581,"lon":5.395069,"is_reserved":false,"is_disabled":false,"rental_uris":{"android":"levelo://app?vid=ff92a715-5fbb-4ac9-a157-23ea22833ee2","ios":"levelo://app?vid=ff92a715-5fbb-4ac9-a157-23ea22833ee2"},"vehicle_type_id":"4","last_reported":1699718865,"current_range_meters":32000,"station_id":"ce4bhlp2rcd13ifvqgjg","pricing_plan_id":"free"},