{"last_updated":1702980459,"ttl":30,"version":"2.2","data":{"bikes":[{"bike_id":"2be214aa-d228-498e-8f9a-b728cc90bc44","system_id":"levelo_inurba_marseille","lat":43.313391,"lon":5.36706,"is_reserved":false,"is_disabled":false,"rental_uris":{"android":"levelo://app?vid=2be214aa-d228-498e-8f9a-b728cc90bc44","ios":"levelo://app?vid=2be214aa-d228-498e-8f9a-b728cc90bc44"},"vehicle_type_id":"4","last_reported":1702980459,"current_range_meters":30800,"station_id":"ce4bgr92rcd13ifvqc6g","pricing_plan_id":"free"},{"bike_id":"20b9a23e-e8dc-45a6-ba34-652c0fc08184","system_id":"levelo_inurba_marseille","lat":43.31341,"lon":5.367098,"is_reserved":false,"is_disabled":false,"rental_uris":{"android":"levelo://app?vid=20b9a23e-e8dc-45a6-ba34-652c0fc08184","ios":"levelo://app?vid=20b9a23e-e8dc-45a6-ba34-652c0fc08184"},"vehicle_type_id":"4","last_reported":1702980459,"current_range_meters":31600,"station_id":"ce4bgr92rcd13ifvqc6g","pricing_plan_id":"free"},{"bike_id":"7fc660bf-00b2-475b-896a-d19bf7596e33","system_id":"levelo_inurba_marseille","lat":43.312239,"lon":5.368562,"is_reserved":false,"is_disabled":false,"rental_uris":{"android":"levelo://app?vid=7fc660bf-00b2-475b-896a-d19bf7596e33","ios":"levelo://app?vid=7fc660bf-00b2-475b-896a-d19bf7596e33"},"vehicle_type_id":"4","last_reported":1702980459,"current_range_meters":28400,"station_id":"ce4bgl92rcd13ifvqbq0","pricing_plan_id":"free"},{"bike_id":"08b630a1-c332-4042-9566-0dcfa263e3f6","system_id":"levelo_inurba_marseille","lat":43.312239,"lon":5.368562,"is_reserved":false,"is_disabled":false,"rental_uris":{"android":"levelo://app?vid=08b630a1-c332-4042-9566-0dcfa263e3f6","ios":"levelo://app?vid=08b630a1-c332-4042-9566-0dcfa263e3f6"},"vehicle_type_id":"4","last_reported":1702980459,"current_range_meters":28800,"station_id":"ce4bgl92rcd13ifvqbq0","pricing_plan_id":"free"},{"bike_id":"c715b015-30fc-402b-bf0c-c1cade3ce502","system_id":"levelo_inurba_marseille","lat":43.312239,"lon":5.368562,"is_reserved":false,"is_disabled":false,"rental_uris":{"android":"levelo://app?vid=c715b015-30fc-402b-bf0c-c1cade3ce502","ios":"levelo://app?vid=c715b015-30fc-402b-bf0c-c1cade3ce502"},"vehicle_type_id":"4","last_reported":1702980459,"current_range_meters":18400,"station_id":"ce4bgl92rcd13ifvqbq0","pricing_plan_id":"free"},{"bike_id":"0959ee72-75c4-44db-9b97-0ce0b9ddb9c2","system_id":"levelo_inurba_marseille","lat":43.312239,"lon":5.368562,"is_reserved":false,"is_disabled":false,"rental_uris":{"android":"levelo://app?vid=0959ee72-75c4-44db-9b97-0ce0b9ddb9c2","ios":"levelo://app?vid=0959ee72-75c4-44db-9b97-0ce0b9ddb9c2"},"vehicle_type_id":"4","last_reported":1702980459,"current_range_meters":27600,"station_id":"ce4bgl92rcd13ifvqbq0","pricing_plan_id":"free"},{"bike_id":"65cf7538-beb8-49e0-8e37-450fc8be71a7","system_id":"levelo_inurba_marseille","lat":43.312239,"lon":5.368562,"is_reserved":false,"is_disabled":false,"rental_uris":{"android":"levelo://app?vid=65cf7538-beb8-49e0-8e37-450fc8be71a7","ios":"levelo://app?vid=65cf7538-beb8-49e0-8e37-450fc8be71a7"},"vehicle_type_id":"4","last_reported":1702980459,"current_range_meters":31200,"station_id":"ce4bgl92rcd13ifvqbq0","pricing_plan_id":"free"},{"bike_id":"21fcc476-574b-4298-84a7-b531a16acac0","system_id":"levelo_inurba_marseille","lat":43.312239,"lon":5.368562,"is_reserved":false,"is_disabled":false,"rental_uris":{"android":"levelo://app?vid=21fcc476-574b-4298-84a7-b531a16acac0","ios":"levelo://app?vid=21fcc476-574b-4298-84a7-b531a16acac0"},"vehicle_type_id":"4","last_reported":1702980459,"current_range_meters":25600,"station_id":"ce4bgl92rcd13ifvqbq0","pricing_plan_id":"free"},{"bike_id":"faef1354-2906-47c4-9b47-28fccd65652d","system_id":"levelo_inurba_marseille","lat":43.312239,"lon":5.368562,"is_reserved":false,"is_disabled":false,"rental_uris":{"android":"levelo://app?vid=faef1354-2906-47c4-9b47-28fccd65652d","ios":"levelo://app?vid=faef1354-2906-47c4-9b47-28fccd65652d"},"vehicle_type_id":"4","last_reported":1702980459,"current_range_meters":31200,"station_id":"ce4bgl92rcd13ifvqbq0","pricing_plan_id":"free"},{"bike_id":"c6fa8f52-4c81-4ee7-903f-6c94dbeb9953","system_id":"levelo_inurba_marseille","lat":43.309076,"lon":5.368465,"is_reserved":false,"is_disabled":false,"rental_uris":{"android":"levelo://app?vid=c6fa8f52-4c81-4ee7-903f-6c94dbeb9953","ios":"levelo://app?vid=c6fa8f52-4c81-4ee7-903f-6c94dbeb9953"},"vehicle_type_id":"4","last_reported":1702980459,"current_range_meters":27600,"station_id":"ce4bgn92rcd13ifvqbvg","pricing_plan_id":"free"},{"bike_id":"41d65d69-db9c-410b-b29d-fe2b3a028e9f","system_id":"levelo_inurba_marseille","lat":43.309076,"lon":5.368465,"is_reserved":false,"is_disabled":false,"rental_uris":{"android":"levelo://app?vid=41d65d69-db9c-410b-b29d-fe2b3a028e9f","ios":"levelo://app?vid=41d65d69-db9c-410b-b29d-fe2b3a028e9f"},"vehicle_type_id":"4","last_reported":1702980459,"current_range_meters":31200,"station_id":"ce4bgn92rcd13ifvqbvg","pricing_plan_id":"free"},{"bike_id":"70113bc6-f4b5-4546-91e9-ad8865fea9b8","system_id":"levelo_inurba_marseille","lat":43.309076,"lon":5.368465,"is_reserved":false,"is_disabled":false,"rental_uris":{"android":"levelo://app?vid=70113bc6-f4b5-4546-91e9-ad8865fea9b8","ios":"levelo://app?vid=70113bc6-f4b5-4546-91e9-ad8865fea9b8"},"vehicle_type_id":"4","last_reported":1702980459,"current_range_meters":26400,"station_id":"ce4bgn92rcd13ifvqbvg","pricing_plan_id":"free"},{"bike_id":"b564ba57-2f8d-4f45-b4f3-ed32f9f69b8f","system_id":"levelo_inurba_marseille","lat":43.309039,"lon":5.371797,"is_reserved":false,"is_disabled":false,"rental_uris":{"android":"levelo://app?vid=b564ba57-2f8d-4f45-b4f3-ed32f9f69b8f","ios":"levelo://app?vid=b564ba57-2f8d-4f45-b4f3-ed32f9f69b8f"},"vehicle_type_id":"4","last_reported":1702980459,"current_range_meters":31200,"station_id":"ce4bguh2rcd13ifvqckg","pricing_plan_id":"free"},{"bike_id":"a2494202-3dab-48dc-9aa0-89157b3cab2f","system_id":"levelo_inurba_marseille","lat":43.309039,"lon":5.371797,"is_reserved":false,"is_disabled":false,"rental_uris":{"android":"levelo://app?vid=a2494202-3dab-48dc-9aa0-89157b3cab2f","ios":"levelo://app?vid=a2494202-3dab-48dc-9aa0-89157b3cab2f"},"vehicle_type_id":"4","last_reported":1702980459,"current_range_meters":9200,"station_id":"ce4bguh2rcd13ifvqckg","pricing_plan_id":"free"},{"bike_id":"8fc6340a-f43b-4287-b890-012085a6264d","system_id":"levelo_inurba_marseille","lat":43.309039,"lon":5.371797,"is_reserved":false,"is_disabled":false,"rental_uris":{"android":"levelo://app?vid=8fc6340a-f43b-4287-b890-012085a6264d","ios":"levelo://app?vid=8fc6340a-f43b-4287-b890-012085a6264d"},"vehicle_type_id":"4","last_reported":1702980459,"current_range_meters":19200,"station_id":"ce4bguh2rcd13ifvqckg","pricing_plan_id":"free"},{"bike_id":"ffaf1b68-1f49-416c-88e8-4483787775c7","system_id":"levelo_inurba_marseille","lat":43.305712,"lon":5.365641,"is_reserved":false,"is_disabled":false,"rental_uris":{"android":"levelo://app?vid=ffaf1b68-1f49-416c-88e8-4483787775c7","ios":"levelo://app?vid=ffaf1b68-1f49-416c-88e8-4483787775c7"},"vehicle_type_id":"4","last_reported":1702980459,"current_range_meters":20400,"station_id":"ce4bgs12rcd13ifvqcag","pricing_plan_id":"free"},{"bike_id":"81a92fd7-ee18-40d0-a3e2-cc270f4b09f1","system_id":"levelo_inurba_marseille","lat":43.305712,"lon":5.365641,"is_reserved":false,"is_disabled":false,"rental_uris":{"android":"levelo://app?vid=81a92fd7-ee18-40d0-a3e2-cc270f4b09f1","ios":"levelo://app?vid=81a92fd7-ee18-40d0-a3e2-cc270f4b09f1"},"vehicle_type_id":"4","last_reported":1702980459,"current_range_meters":30800,"station_id":"ce4bgs12rcd13ifvqcag","pricing_plan_id":"free"},{"bike_id":"293e8745-e127-4333-85dd-fa0fb52fbf36","system_id":"levelo_inurba_marseille","lat":43.305712,"lon":5.365641,"is_reserved":false,"is_disabled":false,"rental_uris":{"android":"levelo://app?vid=293e8745-e127-4333-85dd-fa0fb52fbf36","ios":"levelo://app?vid=293e8745-e127-4333-85dd-fa0fb52fbf36"},"vehicle_type_id":"4","last_reported":1702980459,"current_range_meters":23200,"station_id":"ce4bgs12rcd13ifvqcag","pricing_plan_id":"free"},{"bike_id":"1116e87c-ffc1-4009-a215-2b1e00e745f2","system_id":"levelo_inurba_marseille","lat":43.30546,"lon":5.36691,"is_reserved":false,"is_disabled":false,"rental_uris":{"android":"levelo://app?vid=1116e87c-ffc1-4009-a215-2b1e00e745f2","ios":"levelo://app?vid=1116e87c-ffc1-4009-a215-2b1e00e745f2"},"vehicle_type_id":"4","last_reported":1702980459,"current_range_meters":26400,"station_id":"","pricing_plan_id":"free"},{"bike_id":"85db37dc-19a7-4473-8f50-fe00d18c535c","system_id":"levelo_inurba_marseille","lat":43.30546,"lon":5.36695,"is_reserved":false,"is_disabled":false,"rental_uris":{"android":"levelo://app?vid=85db37dc-19a7-4473-8f50-fe00d18c535c","ios":"levelo://app?vid=85db37dc-19a7-4473-8f50-fe00d18c535c"},"vehicle_type_id":"4","last_reported":1702980459,"current_range_meters":22000,"station_id":"ce4bgrp2rcd13ifvqc9g","pricing_plan_id":"free"},{"bike_id":"39ff088a-68cb-4dc4-aa61-51995e813043","system_id":"levelo_inurba_marseille","lat":43.30537,"lon":5.367345,"is_reserved":false,"is_disabled":false,"rental_uris":{"android":"levelo://app?vid=39ff088a-68cb-4dc4-aa61-51995e813043","ios":"levelo://app?vid=39ff088a-68cb-4dc4-aa61-51995e813043"},"vehicle_type_id":"4","last_reported":1702980459,"current_range_meters":22000,"station_id":"ce4bgrp2rcd13ifvqc9g","pricing_plan_id":"free"},{"bike_id":"2d8cc8c5-0d89-4b61-88d5-a541a830bc2c","system_id":"levelo_inurba_marseille","lat":43.30537,"lon":5.367345,"is_reserved":false,"is_disabled":false,"rental_uris":{"android":"levelo://app?vid=2d8cc8c5-0d89-4b61-88d5-a541a830bc2c","ios":"levelo://app?vid=2d8cc8c5-0d89-4b61-88d5-a541a830bc2c"},"vehicle_type_id":"4","last_reported":1702980459,"current_range_meters":29600,"station_id":"ce4bgrp2rcd13ifvqc9g","pricing_plan_id":"free"},{"bike_id":"56f8a1ac-127d-4b5b-aca5-08afffa8effd","system_id":"levelo_inurba_marseille","lat":43.30537,"lon":5.367345,"is_reserved":false,"is_disabled":false,"rental_uris":{"android":"levelo://app?vid=56f8a1ac-127d-4b5b-aca5-08afffa8effd","ios":"levelo://app?vid=56f8a1ac-127d-4b5b-aca5-08afffa8effd"},"vehicle_type_id":"4","last_reported":1702980459,"current_range_meters":25200,"station_id":"ce4bgrp2rcd13ifvqc9g","pricing_plan_id":"free"},{"bike_id":"190bb94a-8dd4-4249-8948-cef756ef4849","system_id":"levelo_inurba_marseille","lat":43.305712,"lon":5.365641,"is_reserved":false,"is_disabled":false,"rental_uris":{"android":"levelo://app?vid=190bb94a-8dd4-4249-8948-cef756ef4849","ios":"levelo://app?vid=190bb94a-8dd4-4249-8948-cef756ef4849"},"vehicle_type_id":"4","last_reported":1702980459,"current_range_meters":31600,"station_id":"ce4bgs12rcd13ifvqcag","pricing_plan_id":"free"},{"bike_id":"d3b97062-8fd7-46c4-a27c-46444171065a","system_id":"levelo_inurba_marseille","lat":43.305368,"lon":5.367343,"is_reserved":false,"is_disabled":false,"rental_uris":{"android":"levelo://app?vid=d3b97062-8fd7-46c4-a27c-46444171065a","ios":"levelo://app?vid=d3b97062-8fd7-46c4-a27c-46444171065a"},"vehicle_type_id":"4","last_reported":1702980459,"current_range_meters":20400,"station_id":"ce4bgrp2rcd13ifvqc9g","pricing_plan_id":"free"},{"bike_id":"7aeb448b-1750-4e30-9524-3a9ec2ea6519","system_id":"levelo_inurba_marseille","lat":43.305714,"lon":5.365633,"is_reserved":false,"is_disabled":false,"rental_uris":{"android":"levelo://app?vid=7aeb448b-1750-4e30-9524-3a9ec2ea6519","ios":"levelo://app?vid=7aeb448b-1750-4e30-9524-3a9ec2ea6519"},"vehicle_type_id":"4","last_reported":1702980459,"current_range_meters":28000,"station_id":"ce4bgs12rcd13ifvqcag","pricing_plan_id":"free"},{"bike_id":"daac3644-21e2-4179-a1c8-1302acbeb72c","system_id":"levelo_inurba_marseille","lat":43.30543,"lon":5.36543,"is_reserved":false,"is_disabled":false,"rental_uris":{"android":"levelo://app?vid=daac3644-21e2-4179-a1c8-1302acbeb72c","ios":"levelo://app?vid=daac3644-21e2-4179-a1c8-1302acbeb72c"},"vehicle_type_id":"4","last_reported":1702980459,"current_range_meters":6000,"station_id":"ce4bgs12rcd13ifvqcag","pricing_plan_id":"free"},{"bike_id":"e337dd13-0617-4111-8a63-d9b552c5df70","system_id":"levelo_inurba_marseille","lat":43.305714,"lon":5.365633,"is_reserved":false,"is_disabled":false,"rental_uris":{"android":"levelo://app?vid=e337dd13-0617-4111-8a63-d9b552c5df70","ios":"levelo://app?vid=e337dd13-0617-4111-8a63-d9b552c5df70"},"vehicle_type_id":"4","last_reported":1702980459,"current_range_meters":14400,"station_id":"ce4bgs12rcd13ifvqcag","pricing_plan_id":"free"},{"bike_id":"cd4eed59-f7a6-440f-8411-7d2d07547176","system_id":"levelo_inurba_marseille","lat":43.305706,"lon":5.365654,"is_reserved":false,"is_disabled":false,"rental_uris":{"android":"levelo://app?vid=cd4eed59-f7a6-440f-8411-7d2d07547176","ios":"levelo://app?vid=cd4eed59-f7a6-440f-8411-7d2d07547176"},"vehicle_type_id":"4","last_reported":1702980459,"current_range_meters":7200,"station_id":"ce4bgs12rcd13ifvqcag","pricing_plan_id":"free"},{"bike_id":"274dcdb0-d28c-4362-960b-f13b02ff3ff8","system_id":"levelo_inurba_marseille","lat":43.305706,"lon":5.365654,"is_reserved":false,"is_disabled":false,"rental_uris":{"android":"levelo://app?vid=274dcdb0-d28c-4362-960b-f13b02ff3ff8","ios":"levelo://app?vid=274dcdb0-d28c-4362-960b-f13b02ff3ff8"},"vehicle_type_id":"4","last_reported":1702980459,"current_range_meters":30800,"station_id":"ce4bgs12rcd13ifvqcag","pricing_plan_id":"free"},{"bike_id":"ef654af0-4965-4832-9831-2e8e5b6af509","system_id":"levelo_inurba_marseille","lat":43.305706,"lon":5.365654,"is_reserved":false,"is_disabled":false,"rental_uris":{"android":"levelo://app?vid=ef654af0-4965-4832-9831-2e8e5b6af509","ios":"levelo://app?vid=ef654af0-4965-4832-9831-2e8e5b6af509"},"vehicle_type_id":"4","last_reported":1702980459,"current_range_meters":0,"station_id":"ce4bgs12rcd13ifvqcag","pricing_plan_id":"free"},{"bike_id":"7bd256cf-ac99-45f8-934a-6d72a53556dd","system_id":"levelo_inurba_marseille","lat":43.305706,"lon":5.365654,"is_reserved":false,"is_disabled":false,"rental_uris":{"android":"levelo://app?vid=7bd256cf-ac99-45f8-934a-6d72a53556dd","ios":"levelo://app?vid=7bd256cf-ac99-45f8-934a-6d72a53556dd"},"vehicle_type_id":"4","last_reported":1702980459,"current_range_meters":10800,"station_id":"ce4bgs12rcd13ifvqcag","pricing_plan_id":"free"},{"bike_id":"57fb8f5b-e00a-497d-93fd-6736f87a05bc","system_id":"levelo_inurba_marseille","lat":43.30304,"lon":5.368987,"is_reserved":false,"is_disabled":false,"rental_uris":{"android":"levelo://app?vid=57fb8f5b-e00a-497d-93fd-6736f87a05bc","ios":"levelo://app?vid=57fb8f5b-e00a-497d-93fd-6736f87a05bc"},"vehicle_type_id":"4","last_reported":1702980459,"current_range_meters":28000,"station_id":"ce4bgqh2rcd13ifvqc5g","pricing_plan_id":"free"},{"bike_id":"0b9db145-8b77-4867-a9c6-aa5e08343f5f","system_id":"levelo_inurba_marseille","lat":43.301939,"lon":5.366286,"is_reserved":false,"is_disabled":false,"rental_uris":{"android":"levelo://app?vid=0b9db145-8b77-4867-a9c6-aa5e08343f5f","ios":"levelo://app?vid=0b9db145-8b77-4867-a9c6-aa5e08343f5f"},"vehicle_type_id":"4","last_reported":1702980459,"current_range_meters":19600,"station_id":"ce4bgrh2rcd13ifvqc8g","pricing_plan_id":"free"},{"bike_id":"4f5fda3b-a233-466e-accc-ca4498e528ae","system_id":"levelo_inurba_marseille","lat":43.301939,"lon":5.366286,"is_reserved":false,"is_disabled":false,"rental_uris":{"android":"levelo://app?vid=4f5fda3b-a233-466e-accc-ca4498e528ae","ios":"levelo://app?vid=4f5fda3b-a233-466e-accc-ca4498e528ae"},"vehicle_type_id":"4","last_reported":1702980459,"current_range_meters":11200,"station_id":"ce4bgrh2rcd13ifvqc8g","pricing_plan_id":"free"},{"bike_id":"edc6328f-72a9-49d7-8ad5-71ed18b32afa","system_id":"levelo_inurba_marseille","lat":43.324771,"lon":5.36557,"is_reserved":false,"is_disabled":false,"rental_uris":{"android":"levelo://app?vid=edc6328f-72a9-49d7-8ad5-71ed18b32afa","ios":"levelo://app?vid=edc6328f-72a9-49d7-8ad5-71ed18b32afa"},"vehicle_type_id":"4","last_reported":1702980459,"current_range_meters":22000,"station_id":"ce4bhs12rcd13ifvqhvg","pricing_plan_id":"free"},{"bike_id":"33f0b5e6-70ed-4e2e-a102-21e0d9571c2c","system_id":"levelo_inurba_marseille","lat":43.324771,"lon":5.36557,"is_reserved":false,"is_disabled":false,"rental_uris":{"android":"levelo://app?vid=33f0b5e6-70ed-4e2e-a102-21e0d9571c2c","ios":"levelo://app?vid=33f0b5e6-70ed-4e2e-a102-21e0d9571c2c"},"vehicle_type_id":"4","last_reported":1702980459,"current_range_meters":12800,"station_id":"ce4bhs12rcd13ifvqhvg","pricing_plan_id":"free"},{"bike_id":"2b58bf50-356e-4d40-bda8-a2be25040aa2","system_id":"levelo_inurba_marseille","lat":43.302784,"lon":5.377158,"is_reserved":false,"is_disabled":false,"rental_uris":{"android":"levelo://app?vid=2b58bf50-356e-4d40-bda8-a2be25040aa2","ios":"levelo://app?vid=2b58bf50-356e-4d40-bda8-a2be25040aa2"},"vehicle_type_id":"4","last_reported":1702980459,"current_range_meters":28000,"station_id":"ce4bguh2rcd13ifvqcj0","pricing_plan_id":"free"},{"bike_id":"4fbb90fd-8787-4a2f-bee5-871a5a1c19a8","system_id":"levelo_inurba_marseille","lat":43.302784,"lon":5.377158,"is_reserved":false,"is_disabled":false,"rental_uris":{"android":"levelo://app?vid=4fbb90fd-8787-4a2f-bee5-871a5a1c19a8","ios":"levelo://app?vid=4fbb90fd-8787-4a2f-bee5-871a5a1c19a8"},"vehicle_type_id":"4","last_reported":1702980459,"current_range_meters":21600,"station_id":"ce4bguh2rcd13ifvqcj0","pricing_plan_id":"free"},{"bike_id":"2841e346-5268-4bdc-acb5-75234090fb7b","system_id":"levelo_inurba_marseille","lat":43.302784,"lon":5.377158,"is_reserved":false,"is_disabled":false,"rental_uris":{"android":"levelo://app?vid=2841e346-5268-4bdc-acb5-75234090fb7b","ios":"levelo://app?vid=2841e346-5268-4bdc-acb5-75234090fb7b"},"vehicle_type_id":"4","last_reported":1702980459,"current_range_meters":19200,"station_id":"ce4bguh2rcd13ifvqcj0","pricing_plan_id":"free"},{"bike_id":"126a5ca1-7a16-4283-a5e7-600e3c957491","system_id":"levelo_inurba_marseille","lat":43.30141,"lon":5.37406,"is_reserved":false,"is_disabled":false,"rental_uris":{"android":"levelo://app?vid=126a5ca1-7a16-4283-a5e7-600e3c957491","ios":"levelo://app?vid=126a5ca1-7a16-4283-a5e7-600e3c957491"},"vehicle_type_id":"4","last_reported":1702980459,"current_range_meters":24400,"station_id":"ce4bgs92rcd13ifvqcc0","pricing_plan_id":"free"},{"bike_id":"242d3970-15e0-4463-9f0a-902581b3522a","system_id":"levelo_inurba_marseille","lat":43.30141,"lon":5.3741,"is_reserved":false,"is_disabled":false,"rental_uris":{"android":"levelo://app?vid=242d3970-15e0-4463-9f0a-902581b3522a","ios":"levelo://app?vid=242d3970-15e0-4463-9f0a-902581b3522a"},"vehicle_type_id":"4","last_reported":1702980459,"current_range_meters":22800,"station_id":"ce4bgs92rcd13ifvqcc0","pricing_plan_id":"free"},{"bike_id":"c2e4c9a0-68f0-4f31-b3e7-889be6c1e0de","system_id":"levelo_inurba_marseille","lat":43.30141,"lon":5.37411,"is_reserved":false,"is_disabled":false,"rental_uris":{"android":"levelo://app?vid=c2e4c9a0-68f0-4f31-b3e7-889be6c1e0de","ios":"levelo://app?vid=c2e4c9a0-68f0-4f31-b3e7-889be6c1e0de"},"vehicle_type_id":"4","last_reported":1702980459,"current_range_meters":5200,"station_id":"ce4bgs92rcd13ifvqcc0","pricing_plan_id":"free"},{"bike_id":"7e2dadc9-b095-49b8-8a6e-4c37229b8003","system_id":"levelo_inurba_marseille","lat":43.30143,"lon":5.37413,"is_reserved":false,"is_disabled":false,"rental_uris":{"android":"levelo://app?vid=7e2dadc9-b095-49b8-8a6e-4c37229b8003","ios":"levelo://app?vid=7e2dadc9-b095-49b8-8a6e-4c37229b8003"},"vehicle_type_id":"4","last_reported":1702980459,"current_range_meters":25600,"station_id":"ce4bgs92rcd13ifvqcc0","pricing_plan_id":"free"},{"bike_id":"d881cd7f-8df8-43e8-af3b-b8f60eea9e81","system_id":"levelo_inurba_marseille","lat":43.30132,"lon":5.37391,"is_reserved":false,"is_disabled":false,"rental_uris":{"android":"levelo://app?vid=d881cd7f-8df8-43e8-af3b-b8f60eea9e81","ios":"levelo://app?vid=d881cd7f-8df8-43e8-af3b-b8f60eea9e81"},"vehicle_type_id":"4","last_reported":1702980459,"current_range_meters":22800,"station_id":"ce4bgs92rcd13ifvqcc0","pricing_plan_id":"free"},{"bike_id":"d75605e7-261d-4811-bda9-9427769b961a","system_id":"levelo_inurba_marseille","lat":43.30141,"lon":5.374219,"is_reserved":false,"is_disabled":false,"rental_uris":{"android":"levelo://app?vid=d75605e7-261d-4811-bda9-9427769b961a","ios":"levelo://app?vid=d75605e7-261d-4811-bda9-9427769b961a"},"vehicle_type_id":"4","last_reported":1702980459,"current_range_meters":28400,"station_id":"ce4bgs92rcd13ifvqcc0","pricing_plan_id":"free"},{"bike_id":"264e3760-c068-4f74-aeea-c67a790faa96","system_id":"levelo_inurba_marseille","lat":43.301373,"lon":5.374305,"is_reserved":false,"is_disabled":false,"rental_uris":{"android":"levelo://app?vid=264e3760-c068-4f74-aeea-c67a790faa96","ios":"levelo://app?vid=264e3760-c068-4f74-aeea-c67a790faa96"},"vehicle_type_id":"4","last_reported":1702980459,"current_range_meters":7600,"station_id":"ce4bgs92rcd13ifvqcc0","pricing_plan_id":"free"},{"bike_id":"c3c40d24-a2fd-43e1-aeb5-2e8f0393e1d9","system_id":"levelo_inurba_marseille","lat":43.313571,"lon":5.384829,"is_reserved":false,"is_disabled":false,"rental_uris":{"android":"levelo://app?vid=c3c40d24-a2fd-43e1-aeb5-2e8f0393e1d9","ios":"levelo://app?vid=c3c40d24-a2fd-43e1-aeb5-2e8f0393e1d9"},"vehicle_type_id":"4","last_reported":1702980459,"current_range_meters":26000,"station_id":"ce4bgt92rcd13ifvqcf0","pricing_plan_id":"free"},{"bike_id":"dee260d6-3bbc-4aba-9dc3-76ad09b3b3e1","system_id":"levelo_inurba_marseille","lat":43.299222,"lon":5.365554,"is_reserved":false,"is_disabled":false,"rental_uris":{"android":"levelo://app?vid=dee260d6-3bbc-4aba-9dc3-76ad09b3b3e1","ios":"levelo://app?vid=dee260d6-3bbc-4aba-9dc3-76ad09b3b3e1"},"vehicle_type_id":"4","last_reported":1702980459,"current_range_meters":20800,"station_id":"ce4bgm92rcd13ifvqbr0","pricing_plan_id":"free"},{"bike_id":"ca0834b0-077b-48e5-8d61-d563b65c06e3","system_id":"levelo_inurba_marseille","lat":43.305443,"lon":5.384324,"is_reserved":false,"is_disabled":false,"rental_uris":{"android":"levelo://app?vid=ca0834b0-077b-48e5-8d61-d563b65c06e3","ios":"levelo://app?vid=ca0834b0-077b-48e5-8d61-d563b65c06e3"},"vehicle_type_id":"4","last_reported":1702980459,"current_range_meters":4000,"station_id":"ce4bgg92rcd13ifvqb30","pricing_plan_id":"free"},{"bike_id":"38c5728e-4f76-4abe-a917-4dd4ea218d32","system_id":"levelo_inurba_marseille","lat":43.298433,"lon":5.362774,"is_reserved":false,"is_disabled":false,"rental_uris":{"android":"levelo://app?vid=38c5728e-4f76-4abe-a917-4dd4ea218d32","ios":"levelo://app?vid=38c5728e-4f76-4abe-a917-4dd4ea218d32"},"vehicle_type_id":"4","last_reported":1702980459,"current_range_meters":29600,"station_id":"ce4bgpp2rcd13ifvqc3g","pricing_plan_id":"free"},{"bike_id":"48d7b5cf-628a-4266-b946-cdd0ae69e862","system_id":"levelo_inurba_marseille","lat":43.311722,"lon":5.387247,"is_reserved":false,"is_disabled":false,"rental_uris":{"android":"levelo://app?vid=48d7b5cf-628a-4266-b946-cdd0ae69e862","ios":"levelo://app?vid=48d7b5cf-628a-4266-b946-cdd0ae69e862"},"vehicle_type_id":"4","last_reported":1702980459,"current_range_meters":17600,"station_id":"ce4bgv12rcd13ifvqcp0","pricing_plan_id":"free"},{"bike_id":"52536130-1d10-4d45-9f51-e2de52e8e12e","system_id":"levelo_inurba_marseille","lat":43.297794,"lon":5.370888,"is_reserved":false,"is_disabled":false,"rental_uris":{"android":"levelo://app?vid=52536130-1d10-4d45-9f51-e2de52e8e12e","ios":"levelo://app?vid=52536130-1d10-4d45-9f51-e2de52e8e12e"},"vehicle_type_id":"4","last_reported":1702980459,"current_range_meters":17200,"station_id":"ce4bgop2rcd13ifvqc1g","pricing_plan_id":"free"},{"bike_id":"81aa0a5f-8343-4237-81ff-3c4613a63298","system_id":"levelo_inurba_marseille","lat":43.328371,"lon":5.366909,"is_reserved":false,"is_disabled":false,"rental_uris":{"android":"levelo://app?vid=81aa0a5f-8343-4237-81ff-3c4613a63298","ios":"levelo://app?vid=81aa0a5f-8343-4237-81ff-3c4613a63298"},"vehicle_type_id":"4","last_reported":1702980459,"current_range_meters":13200,"station_id":"ce4bhs92rcd13ifvqi0g","pricing_plan_id":"free"},{"bike_id":"d83fbae2-5f8f-42f4-8ccf-5b712fffb999","system_id":"levelo_inurba_marseille","lat":43.328371,"lon":5.366909,"is_reserved":false,"is_disabled":false,"rental_uris":{"android":"levelo://app?vid=d83fbae2-5f8f-42f4-8ccf-5b712fffb999","ios":"levelo://app?vid=d83fbae2-5f8f-42f4-8ccf-5b712fffb999"},"vehicle_type_id":"4","last_reported":1702980459,"current_range_meters":27600,"station_id":"ce4bhs92rcd13ifvqi0g","pricing_plan_id":"free"},{"bike_id":"26a3b4a2-3431-4354-9a3d-c6cd2d1ab7e5","system_id":"levelo_inurba_marseille","lat":43.297163,"lon":5.365866,"is_reserved":false,"is_disabled":false,"rental_uris":{"android":"levelo://app?vid=26a3b4a2-3431-4354-9a3d-c6cd2d1ab7e5","ios":"levelo://app?vid=26a3b4a2-3431-4354-9a3d-c6cd2d1ab7e5"},"vehicle_type_id":"4","last_reported":1702980459,"current_range_meters":20400,"station_id":"ce4bgn12rcd13ifvqbt0","pricing_plan_id":"free"},{"bike_id":"9e0ff6e7-a6e1-4b90-9224-4ab2622ecb6c","system_id":"levelo_inurba_marseille","lat":43.296131,"lon":5.370791,"is_reserved":false,"is_disabled":false,"rental_uris":{"android":"levelo://app?vid=9e0ff6e7-a6e1-4b90-9224-4ab2622ecb6c","ios":"levelo://app?vid=9e0ff6e7-a6e1-4b90-9224-4ab2622ecb6c"},"vehicle_type_id":"4","last_reported":1702980459,"current_range_meters":9200,"station_id":"ce4bgnh2rcd13ifvqc0g","pricing_plan_id":"free"},{"bike_id":"a16a7caa-1986-47ec-bb97-e184cca805f3","system_id":"levelo_inurba_marseille","lat":43.296129,"lon":5.370777,"is_reserved":false,"is_disabled":false,"rental_uris":{"android":"levelo://app?vid=a16a7caa-1986-47ec-bb97-e184cca805f3","ios":"levelo://app?vid=a16a7caa-1986-47ec-bb97-e184cca805f3"},"vehicle_type_id":"4","last_reported":1702980459,"current_range_meters":30000,"station_id":"ce4bgnh2rcd13ifvqc0g","pricing_plan_id":"free"},{"bike_id":"79d1e48e-bcbe-44cd-9f0a-5f07fedbc5ba","system_id":"levelo_inurba_marseille","lat":43.296129,"lon":5.370777,"is_reserved":false,"is_disabled":false,"rental_uris":{"android":"levelo://app?vid=79d1e48e-bcbe-44cd-9f0a-5f07fedbc5ba","ios":"levelo://app?vid=79d1e48e-bcbe-44cd-9f0a-5f07fedbc5ba"},"vehicle_type_id":"4","last_reported":1702980459,"current_range_meters":26400,"station_id":"ce4bgnh2rcd13ifvqc0g","pricing_plan_id":"free"},{"bike_id":"5b9affcc-ac7b-4fe3-8098-1ad2c2db8ba7","system_id":"levelo_inurba_marseille","lat":43.296131,"lon":5.370791,"is_reserved":false,"is_disabled":false,"rental_uris":{"android":"levelo://app?vid=5b9affcc-ac7b-4fe3-8098-1ad2c2db8ba7","ios":"levelo://app?vid=5b9affcc-ac7b-4fe3-8098-1ad2c2db8ba7"},"vehicle_type_id":"4","last_reported":1702980459,"current_range_meters":27600,"station_id":"ce4bgnh2rcd13ifvqc0g","pricing_plan_id":"free"},{"bike_id":"964500fa-6e08-4131-8de7-a48dbca37617","system_id":"levelo_inurba_marseille","lat":43.29573,"lon":5.367355,"is_reserved":false,"is_disabled":false,"rental_uris":{"android":"levelo://app?vid=964500fa-6e08-4131-8de7-a48dbca37617","ios":"levelo://app?vid=964500fa-6e08-4131-8de7-a48dbca37617"},"vehicle_type_id":"4","last_reported":1702980459,"current_range_meters":21600,"station_id":"ce4bgph2rcd13ifvqc2g","pricing_plan_id":"free"},{"bike_id":"8b27a4e9-0d4e-45b6-b498-8790e0d6cf31","system_id":"levelo_inurba_marseille","lat":43.296131,"lon":5.370791,"is_reserved":false,"is_disabled":false,"rental_uris":{"android":"levelo://app?vid=8b27a4e9-0d4e-45b6-b498-8790e0d6cf31","ios":"levelo://app?vid=8b27a4e9-0d4e-45b6-b498-8790e0d6cf31"},"vehicle_type_id":"4","last_reported":1702980459,"current_range_meters":32000,"station_id":"ce4bgnh2rcd13ifvqc0g","pricing_plan_id":"free"},{"bike_id":"e9a6b6df-c5b7-4454-ac9b-971491287155","system_id":"levelo_inurba_marseille","lat":43.296129,"lon":5.370777,"is_reserved":false,"is_disabled":false,"rental_uris":{"android":"levelo://app?vid=e9a6b6df-c5b7-4454-ac9b-971491287155","ios":"levelo://app?vid=e9a6b6df-c5b7-4454-ac9b-971491287155"},"vehicle_type_id":"4","last_reported":1702980459,"current_range_meters":24000,"station_id":"ce4bgnh2rcd13ifvqc0g","pricing_plan_id":"free"},{"bike_id":"2aef4e94-c396-416d-b46b-8fe9ba22ff3e","system_id":"levelo_inurba_marseille","lat":43.296131,"lon":5.370791,"is_reserved":false,"is_disabled":false,"rental_uris":{"android":"levelo://app?vid=2aef4e94-c396-416d-b46b-8fe9ba22ff3e","ios":"levelo://app?vid=2aef4e94-c396-416d-b46b-8fe9ba22ff3e"},"vehicle_type_id":"4","last_reported":1702980459,"current_range_meters":23200,"station_id":"ce4bgnh2rcd13ifvqc0g","pricing_plan_id":"free"},{"bike_id":"178f78e4-1f0f-4014-8edc-6c08a2b60a11","system_id":"levelo_inurba_marseille","lat":43.29573,"lon":5.367355,"is_reserved":false,"is_disabled":false,"rental_uris":{"android":"levelo://app?vid=178f78e4-1f0f-4014-8edc-6c08a2b60a11","ios":"levelo://app?vid=178f78e4-1f0f-4014-8edc-6c08a2b60a11"},"vehicle_type_id":"4","last_reported":1702980459,"current_range_meters":29600,"station_id":"ce4bgph2rcd13ifvqc2g","pricing_plan_id":"free"},{"bike_id":"c0fb2a03-b0fe-4feb-bf33-c0be5ded5cd9","system_id":"levelo_inurba_marseille","lat":43.29573,"lon":5.367355,"is_reserved":false,"is_disabled":false,"rental_uris":{"android":"levelo://app?vid=c0fb2a03-b0fe-4feb-bf33-c0be5ded5cd9","ios":"levelo://app?vid=c0fb2a03-b0fe-4feb-bf33-c0be5ded5cd9"},"vehicle_type_id":"4","last_reported":1702980459,"current_range_meters":23200,"station_id":"ce4bgph2rcd13ifvqc2g","pricing_plan_id":"free"},{"bike_id":"8a66d47a-4ef3-45bd-b73e-6a008547fc2f","system_id":"levelo_inurba_marseille","lat":43.29581,"lon":5.36732,"is_reserved":false,"is_disabled":false,"rental_uris":{"android":"levelo://app?vid=8a66d47a-4ef3-45bd-b73e-6a008547fc2f","ios":"levelo://app?vid=8a66d47a-4ef3-45bd-b73e-6a008547fc2f"},"vehicle_type_id":"4","last_reported":1702980459,"current_range_meters":20400,"station_id":"ce4bgph2rcd13ifvqc2g","pricing_plan_id":"free"},{"bike_id":"aca62c6d-f373-41e8-9f45-10e4ac9d22be","system_id":"levelo_inurba_marseille","lat":43.29573,"lon":5.367355,"is_reserved":false,"is_disabled":false,"rental_uris":{"android":"levelo://app?vid=aca62c6d-f373-41e8-9f45-10e4ac9d22be","ios":"levelo://app?vid=aca62c6d-f373-41e8-9f45-10e4ac9d22be"},"vehicle_type_id":"4","last_reported":1702980459,"current_range_meters":30800,"station_id":"ce4bgph2rcd13ifvqc2g","pricing_plan_id":"free"},{"bike_id":"e36a4bb1-feec-4e1c-8511-3e9756a59dcc","system_id":"levelo_inurba_marseille","lat":43.29573,"lon":5.367355,"is_reserved":false,"is_disabled":false,"rental_uris":{"android":"levelo://app?vid=e36a4bb1-feec-4e1c-8511-3e9756a59dcc","ios":"levelo://app?vid=e36a4bb1-feec-4e1c-8511-3e9756a59dcc"},"vehicle_type_id":"4","last_reported":1702980459,"current_range_meters":28400,"station_id":"ce4bgph2rcd13ifvqc2g","pricing_plan_id":"free"},{"bike_id":"221289eb-3605-46ba-9f15-7a8691cd5c38","system_id":"levelo_inurba_marseille","lat":43.309589,"lon":5.390258,"is_reserved":false,"is_disabled":false,"rental_uris":{"android":"levelo://app?vid=221289eb-3605-46ba-9f15-7a8691cd5c38","ios":"levelo://app?vid=221289eb-3605-46ba-9f15-7a8691cd5c38"},"vehicle_type_id":"4","last_reported":1702980459,"current_range_meters":29600,"station_id":"ce4bgup2rcd13ifvqco0","pricing_plan_id":"free"},{"bike_id":"0a2af442-6269-4c4a-b090-a0ee3f2c8aca","system_id":"levelo_inurba_marseille","lat":43.309589,"lon":5.390258,"is_reserved":false,"is_disabled":false,"rental_uris":{"android":"levelo://app?vid=0a2af442-6269-4c4a-b090-a0ee3f2c8aca","ios":"levelo://app?vid=0a2af442-6269-4c4a-b090-a0ee3f2c8aca"},"vehicle_type_id":"4","last_reported":1702980459,"current_range_meters":29200,"station_id":"ce4bgup2rcd13ifvqco0","pricing_plan_id":"free"},{"bike_id":"40554fe8-87bf-41d5-b75a-7fd0e2ec929c","system_id":"levelo_inurba_marseille","lat":43.317618,"lon":5.390214,"is_reserved":false,"is_disabled":false,"rental_uris":{"android":"levelo://app?vid=40554fe8-87bf-41d5-b75a-7fd0e2ec929c","ios":"levelo://app?vid=40554fe8-87bf-41d5-b75a-7fd0e2ec929c"},"vehicle_type_id":"4","last_reported":1702980459,"current_range_meters":30400,"station_id":"ce4bhqp2rcd13ifvqhng","pricing_plan_id":"free"},{"bike_id":"027f642c-cab5-42d0-9951-095228f3d0c4","system_id":"levelo_inurba_marseille","lat":43.297862,"lon":5.381116,"is_reserved":false,"is_disabled":false,"rental_uris":{"android":"levelo://app?vid=027f642c-cab5-42d0-9951-095228f3d0c4","ios":"levelo://app?vid=027f642c-cab5-42d0-9951-095228f3d0c4"},"vehicle_type_id":"4","last_reported":1702980459,"current_range_meters":12400,"station_id":"","pricing_plan_id":"free"},{"bike_id":"a771da31-9b01-4f13-b931-8d8a571f6c98","system_id":"levelo_inurba_marseille","lat":43.299717,"lon":5.384845,"is_reserved":false,"is_disabled":false,"rental_uris":{"android":"levelo://app?vid=a771da31-9b01-4f13-b931-8d8a571f6c98","ios":"levelo://app?vid=a771da31-9b01-4f13-b931-8d8a571f6c98"},"vehicle_type_id":"4","last_reported":1702980459,"current_range_meters":27600,"station_id":"ce4bgj92rcd13ifvqbd0","pricing_plan_id":"free"},{"bike_id":"555e72ff-6e18-4272-8e93-8bff72f6466a","system_id":"levelo_inurba_marseille","lat":43.32367,"lon":5.388836,"is_reserved":false,"is_disabled":false,"rental_uris":{"android":"levelo://app?vid=555e72ff-6e18-4272-8e93-8bff72f6466a","ios":"levelo://app?vid=555e72ff-6e18-4272-8e93-8bff72f6466a"},"vehicle_type_id":"4","last_reported":1702980459,"current_range_meters":15600,"station_id":"ce4bhqp2rcd13ifvqhog","pricing_plan_id":"free"},{"bike_id":"67a579e1-4bf9-4fa1-bfdd-d0c6cfc4791a","system_id":"levelo_inurba_marseille","lat":43.32367,"lon":5.388836,"is_reserved":false,"is_disabled":false,"rental_uris":{"android":"levelo://app?vid=67a579e1-4bf9-4fa1-bfdd-d0c6cfc4791a","ios":"levelo://app?vid=67a579e1-4bf9-4fa1-bfdd-d0c6cfc4791a"},"vehicle_type_id":"4","last_reported":1702980459,"current_range_meters":4400,"station_id":"ce4bhqp2rcd13ifvqhog","pricing_plan_id":"free"},{"bike_id":"ee5c0e2c-4f04-481f-838e-b1ede6632684","system_id":"levelo_inurba_marseille","lat":43.2938,"lon":5.37419,"is_reserved":false,"is_disabled":false,"rental_uris":{"android":"levelo://app?vid=ee5c0e2c-4f04-481f-838e-b1ede6632684","ios":"levelo://app?vid=ee5c0e2c-4f04-481f-838e-b1ede6632684"},"vehicle_type_id":"4","last_reported":1702980459,"current_range_meters":28000,"station_id":"","pricing_plan_id":"free"},{"bike_id":"203ccf9d-d45a-4d8f-9dc1-5faac8a137a6","system_id":"levelo_inurba_marseille","lat":43.29377,"lon":5.37419,"is_reserved":false,"is_disabled":false,"rental_uris":{"android":"levelo://app?vid=203ccf9d-d45a-4d8f-9dc1-5faac8a137a6","ios":"levelo://app?vid=203ccf9d-d45a-4d8f-9dc1-5faac8a137a6"},"vehicle_type_id":"4","last_reported":1702980459,"current_range_meters":22400,"station_id":"","pricing_plan_id":"free"},{"bike_id":"144bc9f1-c6a4-48d7-b8fd-f6acca0e1a84","system_id":"levelo_inurba_marseille","lat":43.293009,"lon":5.374584,"is_reserved":false,"is_disabled":false,"rental_uris":{"android":"levelo://app?vid=144bc9f1-c6a4-48d7-b8fd-f6acca0e1a84","ios":"levelo://app?vid=144bc9f1-c6a4-48d7-b8fd-f6acca0e1a84"},"vehicle_type_id":"4","last_reported":1702980459,"current_range_meters":29600,"station_id":"ce4bgi12rcd13ifvqb70","pricing_plan_id":"free"},{"bike_id":"05d6f30a-91d3-46f1-8c3c-8d6f904a86c3","system_id":"levelo_inurba_marseille","lat":43.29372,"lon":5.37839,"is_reserved":false,"is_disabled":false,"rental_uris":{"android":"levelo://app?vid=05d6f30a-91d3-46f1-8c3c-8d6f904a86c3","ios":"levelo://app?vid=05d6f30a-91d3-46f1-8c3c-8d6f904a86c3"},"vehicle_type_id":"4","last_reported":1702980459,"current_range_meters":29200,"station_id":"ce4bgjh2rcd13ifvqbf0","pricing_plan_id":"free"},{"bike_id":"460e7fa8-ca26-4800-9797-07cf8e61751f","system_id":"levelo_inurba_marseille","lat":43.2937,"lon":5.37839,"is_reserved":false,"is_disabled":false,"rental_uris":{"android":"levelo://app?vid=460e7fa8-ca26-4800-9797-07cf8e61751f","ios":"levelo://app?vid=460e7fa8-ca26-4800-9797-07cf8e61751f"},"vehicle_type_id":"4","last_reported":1702980459,"current_range_meters":16000,"station_id":"ce4bgjh2rcd13ifvqbf0","pricing_plan_id":"free"},{"bike_id":"2a07e3b9-5114-40ea-a3de-a116c1a3d6ff","system_id":"levelo_inurba_marseille","lat":43.2936,"lon":5.37835,"is_reserved":false,"is_disabled":false,"rental_uris":{"android":"levelo://app?vid=2a07e3b9-5114-40ea-a3de-a116c1a3d6ff","ios":"levelo://app?vid=2a07e3b9-5114-40ea-a3de-a116c1a3d6ff"},"vehicle_type_id":"4","last_reported":1702980459,"current_range_meters":31200,"station_id":"ce4bgjh2rcd13ifvqbf0","pricing_plan_id":"free"},{"bike_id":"240c4187-2f3d-4efc-ad6e-3cfc3b414f70","system_id":"levelo_inurba_marseille","lat":43.29369,"lon":5.37841,"is_reserved":false,"is_disabled":false,"rental_uris":{"android":"levelo://app?vid=240c4187-2f3d-4efc-ad6e-3cfc3b414f70","ios":"levelo://app?vid=240c4187-2f3d-4efc-ad6e-3cfc3b414f70"},"vehicle_type_id":"4","last_reported":1702980459,"current_range_meters":15600,"station_id":"ce4bgjh2rcd13ifvqbf0","pricing_plan_id":"free"},{"bike_id":"a89c29ea-ccb0-4907-9973-ab5fde10b467","system_id":"levelo_inurba_marseille","lat":43.29364,"lon":5.37826,"is_reserved":false,"is_disabled":false,"rental_uris":{"android":"levelo://app?vid=a89c29ea-ccb0-4907-9973-ab5fde10b467","ios":"levelo://app?vid=a89c29ea-ccb0-4907-9973-ab5fde10b467"},"vehicle_type_id":"4","last_reported":1702980459,"current_range_meters":24000,"station_id":"ce4bgjh2rcd13ifvqbf0","pricing_plan_id":"free"},{"bike_id":"0c1b3797-1947-447f-9dbf-326aae477ac1","system_id":"levelo_inurba_marseille","lat":43.29365,"lon":5.37851,"is_reserved":false,"is_disabled":false,"rental_uris":{"android":"levelo://app?vid=0c1b3797-1947-447f-9dbf-326aae477ac1","ios":"levelo://app?vid=0c1b3797-1947-447f-9dbf-326aae477ac1"},"vehicle_type_id":"4","last_reported":1702980459,"current_range_meters":0,"station_id":"ce4bgjh2rcd13ifvqbf0","pricing_plan_id":"free"},{"bike_id":"521dfe58-d2a9-40e9-b615-12280b8f6b26","system_id":"levelo_inurba_marseille","lat":43.30095,"lon":5.39062,"is_reserved":false,"is_disabled":false,"rental_uris":{"android":"levelo://app?vid=521dfe58-d2a9-40e9-b615-12280b8f6b26","ios":"levelo://app?vid=521dfe58-d2a9-40e9-b615-12280b8f6b26"},"vehicle_type_id":"4","last_reported":1702980459,"current_range_meters":26000,"station_id":"ce4bh192rcd13ifvqdb0","pricing_plan_id":"free"},{"bike_id":"c6c2e409-89ef-45ee-a14f-3a31d87f8c47","system_id":"levelo_inurba_marseille","lat":43.300961,"lon":5.390836,"is_reserved":false,"is_disabled":false,"rental_uris":{"android":"levelo://app?vid=c6c2e409-89ef-45ee-a14f-3a31d87f8c47","ios":"levelo://app?vid=c6c2e409-89ef-45ee-a14f-3a31d87f8c47"},"vehicle_type_id":"4","last_reported":1702980459,"current_range_meters":29200,"station_id":"","pricing_plan_id":"free"},{"bike_id":"8f0ee310-6b0f-4266-818e-359b24777bde","system_id":"levelo_inurba_marseille","lat":43.29885,"lon":5.389,"is_reserved":false,"is_disabled":false,"rental_uris":{"android":"levelo://app?vid=8f0ee310-6b0f-4266-818e-359b24777bde","ios":"levelo://app?vid=8f0ee310-6b0f-4266-818e-359b24777bde"},"vehicle_type_id":"4","last_reported":1702980459,"current_range_meters":25200,"station_id":"","pricing_plan_id":"free"},{"bike_id":"04be7c39-8a24-4733-bed3-ea2dc64209f0","system_id":"levelo_inurba_marseille","lat":43.291675,"lon":5.371583,"is_reserved":false,"is_disabled":false,"rental_uris":{"android":"levelo://app?vid=04be7c39-8a24-4733-bed3-ea2dc64209f0","ios":"levelo://app?vid=04be7c39-8a24-4733-bed3-ea2dc64209f0"},"vehicle_type_id":"4","last_reported":1702980459,"current_range_meters":24000,"station_id":"ce4bha92rcd13ifvqeh0","pricing_plan_id":"free"},{"bike_id":"25316a88-7dca-484d-a1be-38f3e58c4dd1","system_id":"levelo_inurba_marseille","lat":43.298744,"lon":5.389162,"is_reserved":false,"is_disabled":false,"rental_uris":{"android":"levelo://app?vid=25316a88-7dca-484d-a1be-38f3e58c4dd1","ios":"levelo://app?vid=25316a88-7dca-484d-a1be-38f3e58c4dd1"},"vehicle_type_id":"4","last_reported":1702980459,"current_range_meters":18000,"station_id":"","pricing_plan_id":"free"},{"bike_id":"43eef167-cbcb-4d04-8260-b73836be5291","system_id":"levelo_inurba_marseille","lat":43.313291,"lon":5.396838,"is_reserved":false,"is_disabled":false,"rental_uris":{"android":"levelo://app?vid=43eef167-cbcb-4d04-8260-b73836be5291","ios":"levelo://app?vid=43eef167-cbcb-4d04-8260-b73836be5291"},"vehicle_type_id":"4","last_reported":1702980459,"current_range_meters":28400,"station_id":"ce4bgvp2rcd13ifvqcu0","pricing_plan_id":"free"},{"bike_id":"f6bf24ce-a755-47db-ad99-7e56e7228fdb","system_id":"levelo_inurba_marseille","lat":43.29529,"lon":5.385581,"is_reserved":false,"is_disabled":false,"rental_uris":{"android":"levelo://app?vid=f6bf24ce-a755-47db-ad99-7e56e7228fdb","ios":"levelo://app?vid=f6bf24ce-a755-47db-ad99-7e56e7228fdb"},"vehicle_type_id":"4","last_reported":1702980459,"current_range_meters":22800,"station_id":"ce4bgih2rcd13ifvqba0","pricing_plan_id":"free"},{"bike_id":"f16a7363-728e-46ee-bfc7-dae640cce21b","system_id":"levelo_inurba_marseille","lat":43.2947,"lon":5.38523,"is_reserved":false,"is_disabled":false,"rental_uris":{"android":"levelo://app?vid=f16a7363-728e-46ee-bfc7-dae640cce21b","ios":"levelo://app?vid=f16a7363-728e-46ee-bfc7-dae640cce21b"},"vehicle_type_id":"4","last_reported":1702980459,"current_range_meters":28400,"station_id":"","pricing_plan_id":"free"},{"bike_id":"7fedc87b-e9fd-434c-9f6b-b5f670545fe0","system_id":"levelo_inurba_marseille","lat":43.289184,"lon":5.366408,"is_reserved":false,"is_disabled":false,"rental_uris":{"android":"levelo://app?vid=7fedc87b-e9fd-434c-9f6b-b5f670545fe0","ios":"levelo://app?vid=7fedc87b-e9fd-434c-9f6b-b5f670545fe0"},"vehicle_type_id":"4","last_reported":1702980459,"current_range_meters":0,"station_id":"ce4bhap2rcd13ifvqek0","pricing_plan_id":"free"},{"bike_id":"549f20c7-e694-4409-88f8-e9c1555d154b","system_id":"levelo_inurba_marseille","lat":43.330442,"lon":5.389148,"is_reserved":false,"is_disabled":false,"rental_uris":{"android":"levelo://app?vid=549f20c7-e694-4409-88f8-e9c1555d154b","ios":"levelo://app?vid=549f20c7-e694-4409-88f8-e9c1555d154b"},"vehicle_type_id":"4","last_reported":1702980459,"current_range_meters":22400,"station_id":"ce4bhr92rcd13ifvqhrg","pricing_plan_id":"free"},{"bike_id":"740199c8-5ac0-46ed-b92b-d92c9dcdeddd","system_id":"levelo_inurba_marseille","lat":43.290104,"lon":5.356111,"is_reserved":false,"is_disabled":false,"rental_uris":{"android":"levelo://app?vid=740199c8-5ac0-46ed-b92b-d92c9dcdeddd","ios":"levelo://app?vid=740199c8-5ac0-46ed-b92b-d92c9dcdeddd"},"vehicle_type_id":"4","last_reported":1702980459,"current_range_meters":18800,"station_id":"ce4bhb92rcd13ifvqen0","pricing_plan_id":"free"},{"bike_id":"fb541042-ca34-42cc-9403-1629f61ffdf5","system_id":"levelo_inurba_marseille","lat":43.33045,"lon":5.38918,"is_reserved":false,"is_disabled":false,"rental_uris":{"android":"levelo://app?vid=fb541042-ca34-42cc-9403-1629f61ffdf5","ios":"levelo://app?vid=fb541042-ca34-42cc-9403-1629f61ffdf5"},"vehicle_type_id":"4","last_reported":1702980459,"current_range_meters":29200,"station_id":"ce4bhr92rcd13ifvqhrg","pricing_plan_id":"free"},{"bike_id":"9ac73550-3e90-432f-ba07-d986526fddd0","system_id":"levelo_inurba_marseille","lat":43.290104,"lon":5.356111,"is_reserved":false,"is_disabled":false,"rental_uris":{"android":"levelo://app?vid=9ac73550-3e90-432f-ba07-d986526fddd0","ios":"levelo://app?vid=9ac73550-3e90-432f-ba07-d986526fddd0"},"vehicle_type_id":"4","last_reported":1702980459,"current_range_meters":7200,"station_id":"ce4bhb92rcd13ifvqen0","pricing_plan_id":"free"},{"bike_id":"03f28615-3267-4cdb-8569-97e856fe76d5","system_id":"levelo_inurba_marseille","lat":43.289743,"lon":5.378304,"is_reserved":false,"is_disabled":false,"rental_uris":{"android":"levelo://app?vid=03f28615-3267-4cdb-8569-97e856fe76d5","ios":"levelo://app?vid=03f28615-3267-4cdb-8569-97e856fe76d5"},"vehicle_type_id":"4","last_reported":1702980459,"current_range_meters":10400,"station_id":"ce4bh9p2rcd13ifvqed0","pricing_plan_id":"free"},{"bike_id":"765ce0c5-ce6b-41fe-8cdd-af8319f5fd61","system_id":"levelo_inurba_marseille","lat":43.29526,"lon":5.39042,"is_reserved":false,"is_disabled":false,"rental_uris":{"android":"levelo://app?vid=765ce0c5-ce6b-41fe-8cdd-af8319f5fd61","ios":"levelo://app?vid=765ce0c5-ce6b-41fe-8cdd-af8319f5fd61"},"vehicle_type_id":"4","last_reported":1702980459,"current_range_meters":29200,"station_id":"ce4bh3p2rcd13ifvqdp0","pricing_plan_id":"free"},{"bike_id":"2a778efb-8a64-4e38-8a0c-7a23a13b4336","system_id":"levelo_inurba_marseille","lat":43.28795,"lon":5.37268,"is_reserved":false,"is_disabled":false,"rental_uris":{"android":"levelo://app?vid=2a778efb-8a64-4e38-8a0c-7a23a13b4336","ios":"levelo://app?vid=2a778efb-8a64-4e38-8a0c-7a23a13b4336"},"vehicle_type_id":"4","last_reported":1702980459,"current_range_meters":24400,"station_id":"ce4bh412rcd13ifvqds0","pricing_plan_id":"free"},{"bike_id":"c3c3cbbb-aa08-4874-94d9-d40777882ceb","system_id":"levelo_inurba_marseille","lat":43.337612,"lon":5.374375,"is_reserved":false,"is_disabled":false,"rental_uris":{"android":"levelo://app?vid=c3c3cbbb-aa08-4874-94d9-d40777882ceb","ios":"levelo://app?vid=c3c3cbbb-aa08-4874-94d9-d40777882ceb"},"vehicle_type_id":"4","last_reported":1702980459,"current_range_meters":9600,"station_id":"","pricing_plan_id":"free"},{"bike_id":"48853714-9f16-4e2c-958b-7282c8c942aa","system_id":"levelo_inurba_marseille","lat":43.301117,"lon":5.398795,"is_reserved":false,"is_disabled":false,"rental_uris":{"android":"levelo://app?vid=48853714-9f16-4e2c-958b-7282c8c942aa","ios":"levelo://app?vid=48853714-9f16-4e2c-958b-7282c8c942aa"},"vehicle_type_id":"4","last_reported":1702980459,"current_range_meters":27600,"station_id":"ce4bh0h2rcd13ifvqd40","pricing_plan_id":"free"},{"bike_id":"79e66907-0d78-46a9-b55e-8a479a34682c","system_id":"levelo_inurba_marseille","lat":43.301117,"lon":5.398795,"is_reserved":false,"is_disabled":false,"rental_uris":{"android":"levelo://app?vid=79e66907-0d78-46a9-b55e-8a479a34682c","ios":"levelo://app?vid=79e66907-0d78-46a9-b55e-8a479a34682c"},"vehicle_type_id":"4","last_reported":1702980459,"current_range_meters":26400,"station_id":"ce4bh0h2rcd13ifvqd40","pricing_plan_id":"free"},{"bike_id":"a3471cde-b2d0-4c99-a7aa-01e82a978512","system_id":"levelo_inurba_marseille","lat":43.298681,"lon":5.397225,"is_reserved":false,"is_disabled":false,"rental_uris":{"android":"levelo://app?vid=a3471cde-b2d0-4c99-a7aa-01e82a978512","ios":"levelo://app?vid=a3471cde-b2d0-4c99-a7aa-01e82a978512"},"vehicle_type_id":"4","last_reported":1702980459,"current_range_meters":30400,"station_id":"ce4bh0h2rcd13ifvqd50","pricing_plan_id":"free"},{"bike_id":"eedc3f8b-7506-4ef2-bff0-ec6f640b99ea","system_id":"levelo_inurba_marseille","lat":43.286961,"lon":5.373785,"is_reserved":false,"is_disabled":false,"rental_uris":{"android":"levelo://app?vid=eedc3f8b-7506-4ef2-bff0-ec6f640b99ea","ios":"levelo://app?vid=eedc3f8b-7506-4ef2-bff0-ec6f640b99ea"},"vehicle_type_id":"4","last_reported":1702980459,"current_range_meters":28000,"station_id":"ce4bh3p2rcd13ifvqdq0","pricing_plan_id":"free"},{"bike_id":"5b8d6b3c-5ba1-47d8-ad7e-b9eb1fd2cdc4","system_id":"levelo_inurba_marseille","lat":43.286961,"lon":5.373785,"is_reserved":false,"is_disabled":false,"rental_uris":{"android":"levelo://app?vid=5b8d6b3c-5ba1-47d8-ad7e-b9eb1fd2cdc4","ios":"levelo://app?vid=5b8d6b3c-5ba1-47d8-ad7e-b9eb1fd2cdc4"},"vehicle_type_id":"4","last_reported":1702980459,"current_range_meters":28400,"station_id":"ce4bh3p2rcd13ifvqdq0","pricing_plan_id":"free"},{"bike_id":"7d68eac5-1bca-4a09-bf11-b2dfc85d8675","system_id":"levelo_inurba_marseille","lat":43.29027,"lon":5.386518,"is_reserved":false,"is_disabled":false,"rental_uris":{"android":"levelo://app?vid=7d68eac5-1bca-4a09-bf11-b2dfc85d8675","ios":"levelo://app?vid=7d68eac5-1bca-4a09-bf11-b2dfc85d8675"},"vehicle_type_id":"4","last_reported":1702980459,"current_range_meters":0,"station_id":"","pricing_plan_id":"free"},{"bike_id":"41501bbc-b034-45ad-b316-c32409342290","system_id":"levelo_inurba_marseille","lat":43.286039,"lon":5.370679,"is_reserved":false,"is_disabled":false,"rental_uris":{"android":"levelo://app?vid=41501bbc-b034-45ad-b316-c32409342290","ios":"levelo://app?vid=41501bbc-b034-45ad-b316-c32409342290"},"vehicle_type_id":"4","last_reported":1702980459,"current_range_meters":30000,"station_id":"ce4bht12rcd13ifvqi60","pricing_plan_id":"free"},{"bike_id":"041e8ef1-7c4a-49dd-89c2-4a69bdfcd042","system_id":"levelo_inurba_marseille","lat":43.286039,"lon":5.370679,"is_reserved":false,"is_disabled":false,"rental_uris":{"android":"levelo://app?vid=041e8ef1-7c4a-49dd-89c2-4a69bdfcd042","ios":"levelo://app?vid=041e8ef1-7c4a-49dd-89c2-4a69bdfcd042"},"vehicle_type_id":"4","last_reported":1702980459,"current_range_meters":18400,"station_id":"ce4bht12rcd13ifvqi60","pricing_plan_id":"free"},{"bike_id":"efe886f7-d33d-4f1e-b23f-75726f4a6a9f","system_id":"levelo_inurba_marseille","lat":43.287185,"lon":5.379373,"is_reserved":false,"is_disabled":false,"rental_uris":{"android":"levelo://app?vid=efe886f7-d33d-4f1e-b23f-75726f4a6a9f","ios":"levelo://app?vid=efe886f7-d33d-4f1e-b23f-75726f4a6a9f"},"vehicle_type_id":"4","last_reported":1702980459,"current_range_meters":23200,"station_id":"ce4bh9p2rcd13ifvqec0","pricing_plan_id":"free"},{"bike_id":"0e132a50-97af-456f-a072-2e02b755bf0f","system_id":"levelo_inurba_marseille","lat":43.28928,"lon":5.39049,"is_reserved":false,"is_disabled":false,"rental_uris":{"android":"levelo://app?vid=0e132a50-97af-456f-a072-2e02b755bf0f","ios":"levelo://app?vid=0e132a50-97af-456f-a072-2e02b755bf0f"},"vehicle_type_id":"4","last_reported":1702980459,"current_range_meters":17600,"station_id":"","pricing_plan_id":"free"},{"bike_id":"8538e6dd-dbef-4a5a-a119-9a857fd021ad","system_id":"levelo_inurba_marseille","lat":43.33218,"lon":5.397067,"is_reserved":false,"is_disabled":false,"rental_uris":{"android":"levelo://app?vid=8538e6dd-dbef-4a5a-a119-9a857fd021ad","ios":"levelo://app?vid=8538e6dd-dbef-4a5a-a119-9a857fd021ad"},"vehicle_type_id":"4","last_reported":1702980459,"current_range_meters":2000,"station_id":"","pricing_plan_id":"free"},{"bike_id":"96bf667b-fc7a-4276-8634-e50a2d06e943","system_id":"levelo_inurba_marseille","lat":43.33717,"lon":5.391857,"is_reserved":false,"is_disabled":false,"rental_uris":{"android":"levelo://app?vid=96bf667b-fc7a-4276-8634-e50a2d06e943","ios":"levelo://app?vid=96bf667b-fc7a-4276-8634-e50a2d06e943"},"vehicle_type_id":"4","last_reported":1702980459,"current_range_meters":0,"station_id":"ce4bhr92rcd13ifvqhsg","pricing_plan_id":"free"},{"bike_id":"cb8da506-0c61-4efc-a37a-fcf8db806d53","system_id":"levelo_inurba_marseille","lat":43.337103,"lon":5.39209,"is_reserved":false,"is_disabled":false,"rental_uris":{"android":"levelo://app?vid=cb8da506-0c61-4efc-a37a-fcf8db806d53","ios":"levelo://app?vid=cb8da506-0c61-4efc-a37a-fcf8db806d53"},"vehicle_type_id":"4","last_reported":1702980459,"current_range_meters":27600,"station_id":"ce4bhr92rcd13ifvqhsg","pricing_plan_id":"free"},{"bike_id":"6ef61fad-a186-4f16-b238-060b73663567","system_id":"levelo_inurba_marseille","lat":43.323464,"lon":5.406297,"is_reserved":false,"is_disabled":false,"rental_uris":{"android":"levelo://app?vid=6ef61fad-a186-4f16-b238-060b73663567","ios":"levelo://app?vid=6ef61fad-a186-4f16-b238-060b73663567"},"vehicle_type_id":"4","last_reported":1702980459,"current_range_meters":31200,"station_id":"ce4bhq92rcd13ifvqhjg","pricing_plan_id":"free"},{"bike_id":"836b9d28-e887-4e99-8264-d9906b920159","system_id":"levelo_inurba_marseille","lat":43.284793,"lon":5.384119,"is_reserved":false,"is_disabled":false,"rental_uris":{"android":"levelo://app?vid=836b9d28-e887-4e99-8264-d9906b920159","ios":"levelo://app?vid=836b9d28-e887-4e99-8264-d9906b920159"},"vehicle_type_id":"4","last_reported":1702980459,"current_range_meters":25200,"station_id":"ce4bh512rcd13ifvqe3g","pricing_plan_id":"free"},{"bike_id":"b016f593-e207-4d4b-8a04-f24cb23bf525","system_id":"levelo_inurba_marseille","lat":43.284793,"lon":5.384113,"is_reserved":false,"is_disabled":false,"rental_uris":{"android":"levelo://app?vid=b016f593-e207-4d4b-8a04-f24cb23bf525","ios":"levelo://app?vid=b016f593-e207-4d4b-8a04-f24cb23bf525"},"vehicle_type_id":"4","last_reported":1702980459,"current_range_meters":27600,"station_id":"ce4bh512rcd13ifvqe3g","pricing_plan_id":"free"},{"bike_id":"08fd7405-f0ee-4f4f-8a8b-089e1b1c5a25","system_id":"levelo_inurba_marseille","lat":43.284793,"lon":5.384119,"is_reserved":false,"is_disabled":false,"rental_uris":{"android":"levelo://app?vid=08fd7405-f0ee-4f4f-8a8b-089e1b1c5a25","ios":"levelo://app?vid=08fd7405-f0ee-4f4f-8a8b-089e1b1c5a25"},"vehicle_type_id":"4","last_reported":1702980459,"current_range_meters":11600,"station_id":"ce4bh512rcd13ifvqe3g","pricing_plan_id":"free"},{"bike_id":"ee4eb5d8-1f9e-4110-80ff-1c9666dc8343","system_id":"levelo_inurba_marseille","lat":43.284793,"lon":5.384119,"is_reserved":false,"is_disabled":false,"rental_uris":{"android":"levelo://app?vid=ee4eb5d8-1f9e-4110-80ff-1c9666dc8343","ios":"levelo://app?vid=ee4eb5d8-1f9e-4110-80ff-1c9666dc8343"},"vehicle_type_id":"4","last_reported":1702980459,"current_range_meters":26000,"station_id":"ce4bh512rcd13ifvqe3g","pricing_plan_id":"free"},{"bike_id":"f5332b34-8259-4323-952e-7bd465eb247c","system_id":"levelo_inurba_marseille","lat":43.29795,"lon":5.404086,"is_reserved":false,"is_disabled":false,"rental_uris":{"android":"levelo://app?vid=f5332b34-8259-4323-952e-7bd465eb247c","ios":"levelo://app?vid=f5332b34-8259-4323-952e-7bd465eb247c"},"vehicle_type_id":"4","last_reported":1702980459,"current_range_meters":1200,"station_id":"ce4bh112rcd13ifvqd90","pricing_plan_id":"free"},{"bike_id":"164026bc-314f-45e1-8c89-bc0c96e53144","system_id":"levelo_inurba_marseille","lat":43.283494,"lon":5.380945,"is_reserved":false,"is_disabled":false,"rental_uris":{"android":"levelo://app?vid=164026bc-314f-45e1-8c89-bc0c96e53144","ios":"levelo://app?vid=164026bc-314f-45e1-8c89-bc0c96e53144"},"vehicle_type_id":"4","last_reported":1702980459,"current_range_meters":24800,"station_id":"ce4bh412rcd13ifvqdr0","pricing_plan_id":"free"},{"bike_id":"369f2986-08b1-4715-884d-85dd0594bfe8","system_id":"levelo_inurba_marseille","lat":43.284217,"lon":5.349697,"is_reserved":false,"is_disabled":false,"rental_uris":{"android":"levelo://app?vid=369f2986-08b1-4715-884d-85dd0594bfe8","ios":"levelo://app?vid=369f2986-08b1-4715-884d-85dd0594bfe8"},"vehicle_type_id":"4","last_reported":1702980459,"current_range_meters":17600,"station_id":"ce4bhbh2rcd13ifvqepg","pricing_plan_id":"free"},{"bike_id":"7229c5b2-0c72-43d0-a6a1-966ad0f3200c","system_id":"levelo_inurba_marseille","lat":43.284219,"lon":5.3497,"is_reserved":false,"is_disabled":false,"rental_uris":{"android":"levelo://app?vid=7229c5b2-0c72-43d0-a6a1-966ad0f3200c","ios":"levelo://app?vid=7229c5b2-0c72-43d0-a6a1-966ad0f3200c"},"vehicle_type_id":"4","last_reported":1702980459,"current_range_meters":21600,"station_id":"ce4bhbh2rcd13ifvqepg","pricing_plan_id":"free"},{"bike_id":"35e5c977-c3ec-4302-85e4-7f44ba15ca6f","system_id":"levelo_inurba_marseille","lat":43.306412,"lon":5.401035,"is_reserved":false,"is_disabled":false,"rental_uris":{"android":"levelo://app?vid=35e5c977-c3ec-4302-85e4-7f44ba15ca6f","ios":"levelo://app?vid=35e5c977-c3ec-4302-85e4-7f44ba15ca6f"},"vehicle_type_id":"4","last_reported":1702980459,"current_range_meters":23600,"station_id":"ce4bh112rcd13ifvqda0","pricing_plan_id":"free"},{"bike_id":"042a5212-e3eb-4cc4-8927-0aa4e5a51d2d","system_id":"levelo_inurba_marseille","lat":43.289363,"lon":5.396322,"is_reserved":false,"is_disabled":false,"rental_uris":{"android":"levelo://app?vid=042a5212-e3eb-4cc4-8927-0aa4e5a51d2d","ios":"levelo://app?vid=042a5212-e3eb-4cc4-8927-0aa4e5a51d2d"},"vehicle_type_id":"4","last_reported":1702980459,"current_range_meters":25200,"station_id":"ce4bh3h2rcd13ifvqdn0","pricing_plan_id":"free"},{"bike_id":"db7d5bb9-17d7-4210-b3c1-223929729f66","system_id":"levelo_inurba_marseille","lat":43.28039,"lon":5.369297,"is_reserved":false,"is_disabled":false,"rental_uris":{"android":"levelo://app?vid=db7d5bb9-17d7-4210-b3c1-223929729f66","ios":"levelo://app?vid=db7d5bb9-17d7-4210-b3c1-223929729f66"},"vehicle_type_id":"4","last_reported":1702980459,"current_range_meters":23200,"station_id":"ce4bha12rcd13ifvqef0","pricing_plan_id":"free"},{"bike_id":"7e8a0965-2e26-498d-981b-d8eb7ac32fc4","system_id":"levelo_inurba_marseille","lat":43.28039,"lon":5.369297,"is_reserved":false,"is_disabled":false,"rental_uris":{"android":"levelo://app?vid=7e8a0965-2e26-498d-981b-d8eb7ac32fc4","ios":"levelo://app?vid=7e8a0965-2e26-498d-981b-d8eb7ac32fc4"},"vehicle_type_id":"4","last_reported":1702980459,"current_range_meters":9200,"station_id":"ce4bha12rcd13ifvqef0","pricing_plan_id":"free"},{"bike_id":"1e76f530-84e7-4786-8580-a2ed5595a4ab","system_id":"levelo_inurba_marseille","lat":43.28039,"lon":5.369297,"is_reserved":false,"is_disabled":false,"rental_uris":{"android":"levelo://app?vid=1e76f530-84e7-4786-8580-a2ed5595a4ab","ios":"levelo://app?vid=1e76f530-84e7-4786-8580-a2ed5595a4ab"},"vehicle_type_id":"4","last_reported":1702980459,"current_range_meters":22400,"station_id":"ce4bha12rcd13ifvqef0","pricing_plan_id":"free"},{"bike_id":"6cb7dc2e-18cd-4a70-89bc-51f3cd2bc089","system_id":"levelo_inurba_marseille","lat":43.28221,"lon":5.38623,"is_reserved":false,"is_disabled":false,"rental_uris":{"android":"levelo://app?vid=6cb7dc2e-18cd-4a70-89bc-51f3cd2bc089","ios":"levelo://app?vid=6cb7dc2e-18cd-4a70-89bc-51f3cd2bc089"},"vehicle_type_id":"4","last_reported":1702980459,"current_range_meters":0,"station_id":"","pricing_plan_id":"free"},{"bike_id":"a6e0b3e4-3bb0-4b21-ba3b-272390c7ed60","system_id":"levelo_inurba_marseille","lat":43.284487,"lon":5.392003,"is_reserved":false,"is_disabled":false,"rental_uris":{"android":"levelo://app?vid=a6e0b3e4-3bb0-4b21-ba3b-272390c7ed60","ios":"levelo://app?vid=a6e0b3e4-3bb0-4b21-ba3b-272390c7ed60"},"vehicle_type_id":"4","last_reported":1702980459,"current_range_meters":12400,"station_id":"ce4bhoh2rcd13ifvqh5g","pricing_plan_id":"free"},{"bike_id":"17ba3008-de70-4cce-bc61-a8da4bb2b22b","system_id":"levelo_inurba_marseille","lat":43.284462,"lon":5.392121,"is_reserved":false,"is_disabled":false,"rental_uris":{"android":"levelo://app?vid=17ba3008-de70-4cce-bc61-a8da4bb2b22b","ios":"levelo://app?vid=17ba3008-de70-4cce-bc61-a8da4bb2b22b"},"vehicle_type_id":"4","last_reported":1702980459,"current_range_meters":14000,"station_id":"ce4bhoh2rcd13ifvqh5g","pricing_plan_id":"free"},{"bike_id":"87a0a020-4334-4f4e-a4ca-c1ee7ccfd6a9","system_id":"levelo_inurba_marseille","lat":43.284462,"lon":5.392121,"is_reserved":false,"is_disabled":false,"rental_uris":{"android":"levelo://app?vid=87a0a020-4334-4f4e-a4ca-c1ee7ccfd6a9","ios":"levelo://app?vid=87a0a020-4334-4f4e-a4ca-c1ee7ccfd6a9"},"vehicle_type_id":"4","last_reported":1702980459,"current_range_meters":15200,"station_id":"ce4bhoh2rcd13ifvqh5g","pricing_plan_id":"free"},{"bike_id":"84409f2b-ac4d-44ea-8ee3-45bd4b89b49d","system_id":"levelo_inurba_marseille","lat":43.284462,"lon":5.392121,"is_reserved":false,"is_disabled":false,"rental_uris":{"android":"levelo://app?vid=84409f2b-ac4d-44ea-8ee3-45bd4b89b49d","ios":"levelo://app?vid=84409f2b-ac4d-44ea-8ee3-45bd4b89b49d"},"vehicle_type_id":"4","last_reported":1702980459,"current_range_meters":12800,"station_id":"ce4bhoh2rcd13ifvqh5g","pricing_plan_id":"free"},{"bike_id":"475607d4-96f7-44c0-b230-ac28e3cb872c","system_id":"levelo_inurba_marseille","lat":43.28573,"lon":5.394992,"is_reserved":false,"is_disabled":false,"rental_uris":{"android":"levelo://app?vid=475607d4-96f7-44c0-b230-ac28e3cb872c","ios":"levelo://app?vid=475607d4-96f7-44c0-b230-ac28e3cb872c"},"vehicle_type_id":"4","last_reported":1702980459,"current_range_meters":18400,"station_id":"ce4bh292rcd13ifvqdg0","pricing_plan_id":"free"},{"bike_id":"d8b7b949-b0d8-445f-9212-69c958b16861","system_id":"levelo_inurba_marseille","lat":43.279087,"lon":5.380114,"is_reserved":false,"is_disabled":false,"rental_uris":{"android":"levelo://app?vid=d8b7b949-b0d8-445f-9212-69c958b16861","ios":"levelo://app?vid=d8b7b949-b0d8-445f-9212-69c958b16861"},"vehicle_type_id":"4","last_reported":1702980459,"current_range_meters":30400,"station_id":"ce4bhf92rcd13ifvqf50","pricing_plan_id":"free"},{"bike_id":"080495fd-2091-4640-a6dd-8d3ab562632b","system_id":"levelo_inurba_marseille","lat":43.287154,"lon":5.399979,"is_reserved":false,"is_disabled":false,"rental_uris":{"android":"levelo://app?vid=080495fd-2091-4640-a6dd-8d3ab562632b","ios":"levelo://app?vid=080495fd-2091-4640-a6dd-8d3ab562632b"},"vehicle_type_id":"4","last_reported":1702980459,"current_range_meters":27600,"station_id":"ce4bho92rcd13ifvqh3g","pricing_plan_id":"free"},{"bike_id":"41c08875-8a55-48ad-b235-c4afdb9f675d","system_id":"levelo_inurba_marseille","lat":43.279742,"lon":5.38744,"is_reserved":false,"is_disabled":false,"rental_uris":{"android":"levelo://app?vid=41c08875-8a55-48ad-b235-c4afdb9f675d","ios":"levelo://app?vid=41c08875-8a55-48ad-b235-c4afdb9f675d"},"vehicle_type_id":"4","last_reported":1702980459,"current_range_meters":22400,"station_id":"ce4bhg12rcd13ifvqf80","pricing_plan_id":"free"},{"bike_id":"1ba8f0db-d671-4915-9b88-7ec7fabbc36b","system_id":"levelo_inurba_marseille","lat":43.320045,"lon":5.415048,"is_reserved":false,"is_disabled":false,"rental_uris":{"android":"levelo://app?vid=1ba8f0db-d671-4915-9b88-7ec7fabbc36b","ios":"levelo://app?vid=1ba8f0db-d671-4915-9b88-7ec7fabbc36b"},"vehicle_type_id":"4","last_reported":1702980459,"current_range_meters":22000,"station_id":"ce4bhq92rcd13ifvqhkg","pricing_plan_id":"free"},{"bike_id":"89508d0f-e74e-43de-9316-936ef4bd1896","system_id":"levelo_inurba_marseille","lat":43.299579,"lon":5.413255,"is_reserved":false,"is_disabled":false,"rental_uris":{"android":"levelo://app?vid=89508d0f-e74e-43de-9316-936ef4bd1896","ios":"levelo://app?vid=89508d0f-e74e-43de-9316-936ef4bd1896"},"vehicle_type_id":"4","last_reported":1702980459,"current_range_meters":30800,"station_id":"ce4bhp12rcd13ifvqh9g","pricing_plan_id":"free"},{"bike_id":"f6d31ae4-ab24-4b94-af15-3a08542fbaa3","system_id":"levelo_inurba_marseille","lat":43.325243,"lon":5.414326,"is_reserved":false,"is_disabled":false,"rental_uris":{"android":"levelo://app?vid=f6d31ae4-ab24-4b94-af15-3a08542fbaa3","ios":"levelo://app?vid=f6d31ae4-ab24-4b94-af15-3a08542fbaa3"},"vehicle_type_id":"4","last_reported":1702980459,"current_range_meters":24000,"station_id":"ce4bhq12rcd13ifvqhhg","pricing_plan_id":"free"},{"bike_id":"ed71d5f9-6cc6-4d00-bea0-c804e97bb284","system_id":"levelo_inurba_marseille","lat":43.325233,"lon":5.414318,"is_reserved":false,"is_disabled":false,"rental_uris":{"android":"levelo://app?vid=ed71d5f9-6cc6-4d00-bea0-c804e97bb284","ios":"levelo://app?vid=ed71d5f9-6cc6-4d00-bea0-c804e97bb284"},"vehicle_type_id":"4","last_reported":1702980459,"current_range_meters":18800,"station_id":"ce4bhq12rcd13ifvqhhg","pricing_plan_id":"free"},{"bike_id":"0782afe0-0e9d-4c32-ba17-a19fed66c39e","system_id":"levelo_inurba_marseille","lat":43.325233,"lon":5.414318,"is_reserved":false,"is_disabled":false,"rental_uris":{"android":"levelo://app?vid=0782afe0-0e9d-4c32-ba17-a19fed66c39e","ios":"levelo://app?vid=0782afe0-0e9d-4c32-ba17-a19fed66c39e"},"vehicle_type_id":"4","last_reported":1702980459,"current_range_meters":24400,"station_id":"ce4bhq12rcd13ifvqhhg","pricing_plan_id":"free"},{"bike_id":"93695149-d79c-4a2e-9810-75db932f2218","system_id":"levelo_inurba_marseille","lat":43.325233,"lon":5.414318,"is_reserved":false,"is_disabled":false,"rental_uris":{"android":"levelo://app?vid=93695149-d79c-4a2e-9810-75db932f2218","ios":"levelo://app?vid=93695149-d79c-4a2e-9810-75db932f2218"},"vehicle_type_id":"4","last_reported":1702980459,"current_range_meters":10000,"station_id":"ce4bhq12rcd13ifvqhhg","pricing_plan_id":"free"},{"bike_id":"bdec3685-3e7c-43e5-9a07-26a2ada5ac26","system_id":"levelo_inurba_marseille","lat":43.325233,"lon":5.414318,"is_reserved":false,"is_disabled":false,"rental_uris":{"android":"levelo://app?vid=bdec3685-3e7c-43e5-9a07-26a2ada5ac26","ios":"levelo://app?vid=bdec3685-3e7c-43e5-9a07-26a2ada5ac26"},"vehicle_type_id":"4","last_reported":1702980459,"current_range_meters":18000,"station_id":"ce4bhq12rcd13ifvqhhg","pricing_plan_id":"free"},{"bike_id":"ff73b79f-5550-4404-9505-a518a3ca2a8a","system_id":"levelo_inurba_marseille","lat":43.325233,"lon":5.414318,"is_reserved":false,"is_disabled":false,"rental_uris":{"android":"levelo://app?vid=ff73b79f-5550-4404-9505-a518a3ca2a8a","ios":"levelo://app?vid=ff73b79f-5550-4404-9505-a518a3ca2a8a"},"vehicle_type_id":"4","last_reported":1702980459,"current_range_meters":12800,"station_id":"ce4bhq12rcd13ifvqhhg","pricing_plan_id":"free"},{"bike_id":"40686c10-84a4-405a-9cd7-375127e2b02d","system_id":"levelo_inurba_marseille","lat":43.325233,"lon":5.414318,"is_reserved":false,"is_disabled":false,"rental_uris":{"android":"levelo://app?vid=40686c10-84a4-405a-9cd7-375127e2b02d","ios":"levelo://app?vid=40686c10-84a4-405a-9cd7-375127e2b02d"},"vehicle_type_id":"4","last_reported":1702980459,"current_range_meters":23600,"station_id":"ce4bhq12rcd13ifvqhhg","pricing_plan_id":"free"},{"bike_id":"032ab50a-e8ed-46eb-a784-ec24434ca4e9","system_id":"levelo_inurba_marseille","lat":43.325233,"lon":5.414318,"is_reserved":false,"is_disabled":false,"rental_uris":{"android":"levelo://app?vid=032ab50a-e8ed-46eb-a784-ec24434ca4e9","ios":"levelo://app?vid=032ab50a-e8ed-46eb-a784-ec24434ca4e9"},"vehicle_type_id":"4","last_reported":1702980459,"current_range_meters":26800,"station_id":"ce4bhq12rcd13ifvqhhg","pricing_plan_id":"free"},{"bike_id":"c56ff55c-8635-4931-8b08-4cbc1bcd04da","system_id":"levelo_inurba_marseille","lat":43.325233,"lon":5.414318,"is_reserved":false,"is_disabled":false,"rental_uris":{"android":"levelo://app?vid=c56ff55c-8635-4931-8b08-4cbc1bcd04da","ios":"levelo://app?vid=c56ff55c-8635-4931-8b08-4cbc1bcd04da"},"vehicle_type_id":"4","last_reported":1702980459,"current_range_meters":17200,"station_id":"ce4bhq12rcd13ifvqhhg","pricing_plan_id":"free"},{"bike_id":"b17036d7-f6cc-4478-9cbd-c21adf17ee99","system_id":"levelo_inurba_marseille","lat":43.325243,"lon":5.414326,"is_reserved":false,"is_disabled":false,"rental_uris":{"android":"levelo://app?vid=b17036d7-f6cc-4478-9cbd-c21adf17ee99","ios":"levelo://app?vid=b17036d7-f6cc-4478-9cbd-c21adf17ee99"},"vehicle_type_id":"4","last_reported":1702980459,"current_range_meters":27200,"station_id":"ce4bhq12rcd13ifvqhhg","pricing_plan_id":"free"},{"bike_id":"b73b1dc9-66f1-4f8b-9dc1-65b99e7137a5","system_id":"levelo_inurba_marseille","lat":43.325233,"lon":5.414318,"is_reserved":false,"is_disabled":false,"rental_uris":{"android":"levelo://app?vid=b73b1dc9-66f1-4f8b-9dc1-65b99e7137a5","ios":"levelo://app?vid=b73b1dc9-66f1-4f8b-9dc1-65b99e7137a5"},"vehicle_type_id":"4","last_reported":1702980459,"current_range_meters":31200,"station_id":"ce4bhq12rcd13ifvqhhg","pricing_plan_id":"free"},{"bike_id":"32dfd40d-17c1-44b1-a867-8203bfbd9088","system_id":"levelo_inurba_marseille","lat":43.276179,"lon":5.361009,"is_reserved":false,"is_disabled":false,"rental_uris":{"android":"levelo://app?vid=32dfd40d-17c1-44b1-a867-8203bfbd9088","ios":"levelo://app?vid=32dfd40d-17c1-44b1-a867-8203bfbd9088"},"vehicle_type_id":"4","last_reported":1702980459,"current_range_meters":16000,"station_id":"ce4bgj92rcd13ifvqbe0","pricing_plan_id":"free"},{"bike_id":"175508af-eec8-4668-bae1-1bdc4eea0891","system_id":"levelo_inurba_marseille","lat":43.303837,"lon":5.418724,"is_reserved":false,"is_disabled":false,"rental_uris":{"android":"levelo://app?vid=175508af-eec8-4668-bae1-1bdc4eea0891","ios":"levelo://app?vid=175508af-eec8-4668-bae1-1bdc4eea0891"},"vehicle_type_id":"4","last_reported":1702980459,"current_range_meters":6400,"station_id":"ce4bhop2rcd13ifvqh7g","pricing_plan_id":"free"},{"bike_id":"25a677bd-a92f-4c0b-907d-bef233396afb","system_id":"levelo_inurba_marseille","lat":43.278401,"lon":5.392152,"is_reserved":false,"is_disabled":false,"rental_uris":{"android":"levelo://app?vid=25a677bd-a92f-4c0b-907d-bef233396afb","ios":"levelo://app?vid=25a677bd-a92f-4c0b-907d-bef233396afb"},"vehicle_type_id":"4","last_reported":1702980459,"current_range_meters":3200,"station_id":"ce4bhjp2rcd13ifvqga0","pricing_plan_id":"free"},{"bike_id":"6e22788f-a40f-4199-b9de-25e7d4c4abf8","system_id":"levelo_inurba_marseille","lat":43.278399,"lon":5.392139,"is_reserved":false,"is_disabled":false,"rental_uris":{"android":"levelo://app?vid=6e22788f-a40f-4199-b9de-25e7d4c4abf8","ios":"levelo://app?vid=6e22788f-a40f-4199-b9de-25e7d4c4abf8"},"vehicle_type_id":"4","last_reported":1702980459,"current_range_meters":9600,"station_id":"ce4bhjp2rcd13ifvqga0","pricing_plan_id":"free"},{"bike_id":"03938582-37be-4145-be06-33b64dc45c66","system_id":"levelo_inurba_marseille","lat":43.275625,"lon":5.384392,"is_reserved":false,"is_disabled":false,"rental_uris":{"android":"levelo://app?vid=03938582-37be-4145-be06-33b64dc45c66","ios":"levelo://app?vid=03938582-37be-4145-be06-33b64dc45c66"},"vehicle_type_id":"4","last_reported":1702980459,"current_range_meters":28000,"station_id":"ce4bhh92rcd13ifvqfi0","pricing_plan_id":"free"},{"bike_id":"85357234-8798-48fb-b4cc-8a1b7b0d464f","system_id":"levelo_inurba_marseille","lat":43.273613,"lon":5.362705,"is_reserved":false,"is_disabled":false,"rental_uris":{"android":"levelo://app?vid=85357234-8798-48fb-b4cc-8a1b7b0d464f","ios":"levelo://app?vid=85357234-8798-48fb-b4cc-8a1b7b0d464f"},"vehicle_type_id":"4","last_reported":1702980459,"current_range_meters":22000,"station_id":"ce4bhbh2rcd13ifvqeo0","pricing_plan_id":"free"},{"bike_id":"ead7d26f-f599-442b-af00-bef9bca986bc","system_id":"levelo_inurba_marseille","lat":43.336148,"lon":5.410349,"is_reserved":false,"is_disabled":false,"rental_uris":{"android":"levelo://app?vid=ead7d26f-f599-442b-af00-bef9bca986bc","ios":"levelo://app?vid=ead7d26f-f599-442b-af00-bef9bca986bc"},"vehicle_type_id":"4","last_reported":1702980459,"current_range_meters":21600,"station_id":"ce4bhqh2rcd13ifvqhmg","pricing_plan_id":"free"},{"bike_id":"caa47a55-c9dc-4a2e-81f8-11961b89c7ff","system_id":"levelo_inurba_marseille","lat":43.279952,"lon":5.400085,"is_reserved":false,"is_disabled":false,"rental_uris":{"android":"levelo://app?vid=caa47a55-c9dc-4a2e-81f8-11961b89c7ff","ios":"levelo://app?vid=caa47a55-c9dc-4a2e-81f8-11961b89c7ff"},"vehicle_type_id":"4","last_reported":1702980459,"current_range_meters":27200,"station_id":"ce4bho92rcd13ifvqh4g","pricing_plan_id":"free"},{"bike_id":"7d7af902-848c-49ee-93ed-e5f9352444cd","system_id":"levelo_inurba_marseille","lat":43.279952,"lon":5.400085,"is_reserved":false,"is_disabled":false,"rental_uris":{"android":"levelo://app?vid=7d7af902-848c-49ee-93ed-e5f9352444cd","ios":"levelo://app?vid=7d7af902-848c-49ee-93ed-e5f9352444cd"},"vehicle_type_id":"4","last_reported":1702980459,"current_range_meters":27600,"station_id":"ce4bho92rcd13ifvqh4g","pricing_plan_id":"free"},{"bike_id":"e2c24c56-9d8f-46ce-a6c8-1041ef786684","system_id":"levelo_inurba_marseille","lat":43.317121,"lon":5.423936,"is_reserved":false,"is_disabled":false,"rental_uris":{"android":"levelo://app?vid=e2c24c56-9d8f-46ce-a6c8-1041ef786684","ios":"levelo://app?vid=e2c24c56-9d8f-46ce-a6c8-1041ef786684"},"vehicle_type_id":"4","last_reported":1702980459,"current_range_meters":30000,"station_id":"ce4bhp92rcd13ifvqhbg","pricing_plan_id":"free"},{"bike_id":"974dc7db-ff3c-4554-8964-132f9db52d9b","system_id":"levelo_inurba_marseille","lat":43.276092,"lon":5.395289,"is_reserved":false,"is_disabled":false,"rental_uris":{"android":"levelo://app?vid=974dc7db-ff3c-4554-8964-132f9db52d9b","ios":"levelo://app?vid=974dc7db-ff3c-4554-8964-132f9db52d9b"},"vehicle_type_id":"4","last_reported":1702980459,"current_range_meters":8000,"station_id":"","pricing_plan_id":"free"},{"bike_id":"60af85f0-ca03-4a42-ba4d-852c22fd1e3c","system_id":"levelo_inurba_marseille","lat":43.273129,"lon":5.390725,"is_reserved":false,"is_disabled":false,"rental_uris":{"android":"levelo://app?vid=60af85f0-ca03-4a42-ba4d-852c22fd1e3c","ios":"levelo://app?vid=60af85f0-ca03-4a42-ba4d-852c22fd1e3c"},"vehicle_type_id":"4","last_reported":1702980459,"current_range_meters":27600,"station_id":"ce4bhgp2rcd13ifvqfe0","pricing_plan_id":"free"},{"bike_id":"c2d01cf4-416b-479a-8195-73cfbf290ea6","system_id":"levelo_inurba_marseille","lat":43.304096,"lon":5.425385,"is_reserved":false,"is_disabled":false,"rental_uris":{"android":"levelo://app?vid=c2d01cf4-416b-479a-8195-73cfbf290ea6","ios":"levelo://app?vid=c2d01cf4-416b-479a-8195-73cfbf290ea6"},"vehicle_type_id":"4","last_reported":1702980459,"current_range_meters":30000,"station_id":"ce4bhoh2rcd13ifvqh6g","pricing_plan_id":"free"},{"bike_id":"bbc1dded-28d0-40d2-98b9-c718a84b2b55","system_id":"levelo_inurba_marseille","lat":43.304096,"lon":5.425385,"is_reserved":false,"is_disabled":false,"rental_uris":{"android":"levelo://app?vid=bbc1dded-28d0-40d2-98b9-c718a84b2b55","ios":"levelo://app?vid=bbc1dded-28d0-40d2-98b9-c718a84b2b55"},"vehicle_type_id":"4","last_reported":1702980459,"current_range_meters":17600,"station_id":"ce4bhoh2rcd13ifvqh6g","pricing_plan_id":"free"},{"bike_id":"3cfccba8-f3c6-422f-bec0-1d7a4825ad24","system_id":"levelo_inurba_marseille","lat":43.304096,"lon":5.425385,"is_reserved":false,"is_disabled":false,"rental_uris":{"android":"levelo://app?vid=3cfccba8-f3c6-422f-bec0-1d7a4825ad24","ios":"levelo://app?vid=3cfccba8-f3c6-422f-bec0-1d7a4825ad24"},"vehicle_type_id":"4","last_reported":1702980459,"current_range_meters":30400,"station_id":"ce4bhoh2rcd13ifvqh6g","pricing_plan_id":"free"},{"bike_id":"f0d927f9-4d81-4a61-9e75-257d4a0281cb","system_id":"levelo_inurba_marseille","lat":43.29552,"lon":5.42277,"is_reserved":false,"is_disabled":false,"rental_uris":{"android":"levelo://app?vid=f0d927f9-4d81-4a61-9e75-257d4a0281cb","ios":"levelo://app?vid=f0d927f9-4d81-4a61-9e75-257d4a0281cb"},"vehicle_type_id":"4","last_reported":1702980459,"current_range_meters":24000,"station_id":"ce4bhph2rcd13ifvqhdg","pricing_plan_id":"free"},{"bike_id":"ca314493-3848-477b-95b3-e1722a7aef04","system_id":"levelo_inurba_marseille","lat":43.295177,"lon":5.422632,"is_reserved":false,"is_disabled":false,"rental_uris":{"android":"levelo://app?vid=ca314493-3848-477b-95b3-e1722a7aef04","ios":"levelo://app?vid=ca314493-3848-477b-95b3-e1722a7aef04"},"vehicle_type_id":"4","last_reported":1702980459,"current_range_meters":16400,"station_id":"ce4bhph2rcd13ifvqhdg","pricing_plan_id":"free"},{"bike_id":"1aaeade2-16f7-4c2d-b598-dfecd6c04985","system_id":"levelo_inurba_marseille","lat":43.29552,"lon":5.42288,"is_reserved":false,"is_disabled":false,"rental_uris":{"android":"levelo://app?vid=1aaeade2-16f7-4c2d-b598-dfecd6c04985","ios":"levelo://app?vid=1aaeade2-16f7-4c2d-b598-dfecd6c04985"},"vehicle_type_id":"4","last_reported":1702980459,"current_range_meters":19600,"station_id":"ce4bhph2rcd13ifvqhdg","pricing_plan_id":"free"},{"bike_id":"b52ed3b8-5e6b-469c-9a28-752d38c3f626","system_id":"levelo_inurba_marseille","lat":43.295523,"lon":5.422926,"is_reserved":false,"is_disabled":false,"rental_uris":{"android":"levelo://app?vid=b52ed3b8-5e6b-469c-9a28-752d38c3f626","ios":"levelo://app?vid=b52ed3b8-5e6b-469c-9a28-752d38c3f626"},"vehicle_type_id":"4","last_reported":1702980459,"current_range_meters":29200,"station_id":"ce4bhph2rcd13ifvqhdg","pricing_plan_id":"free"},{"bike_id":"f7b7688e-f114-4cf1-aff3-84e634fb26aa","system_id":"levelo_inurba_marseille","lat":43.272124,"lon":5.391768,"is_reserved":false,"is_disabled":false,"rental_uris":{"android":"levelo://app?vid=f7b7688e-f114-4cf1-aff3-84e634fb26aa","ios":"levelo://app?vid=f7b7688e-f114-4cf1-aff3-84e634fb26aa"},"vehicle_type_id":"4","last_reported":1702980459,"current_range_meters":23200,"station_id":"ce4bhhp2rcd13ifvqfm0","pricing_plan_id":"free"},{"bike_id":"3f3cdd1b-b9f0-4844-8dd1-aaec6b825417","system_id":"levelo_inurba_marseille","lat":43.272116,"lon":5.391763,"is_reserved":false,"is_disabled":false,"rental_uris":{"android":"levelo://app?vid=3f3cdd1b-b9f0-4844-8dd1-aaec6b825417","ios":"levelo://app?vid=3f3cdd1b-b9f0-4844-8dd1-aaec6b825417"},"vehicle_type_id":"4","last_reported":1702980459,"current_range_meters":4800,"station_id":"ce4bhhp2rcd13ifvqfm0","pricing_plan_id":"free"},{"bike_id":"1ff594c3-2b01-4265-abdd-50b0cc53756e","system_id":"levelo_inurba_marseille","lat":43.272116,"lon":5.391747,"is_reserved":false,"is_disabled":false,"rental_uris":{"android":"levelo://app?vid=1ff594c3-2b01-4265-abdd-50b0cc53756e","ios":"levelo://app?vid=1ff594c3-2b01-4265-abdd-50b0cc53756e"},"vehicle_type_id":"4","last_reported":1702980459,"current_range_meters":26400,"station_id":"ce4bhhp2rcd13ifvqfm0","pricing_plan_id":"free"},{"bike_id":"8134bdea-97d9-45ed-a62e-7aa6b1295011","system_id":"levelo_inurba_marseille","lat":43.27188,"lon":5.39224,"is_reserved":false,"is_disabled":false,"rental_uris":{"android":"levelo://app?vid=8134bdea-97d9-45ed-a62e-7aa6b1295011","ios":"levelo://app?vid=8134bdea-97d9-45ed-a62e-7aa6b1295011"},"vehicle_type_id":"4","last_reported":1702980459,"current_range_meters":10800,"station_id":"ce4bhhp2rcd13ifvqfm0","pricing_plan_id":"free"},{"bike_id":"658fa6f7-c40e-4c0f-9456-b9431783b964","system_id":"levelo_inurba_marseille","lat":43.278128,"lon":5.407195,"is_reserved":false,"is_disabled":false,"rental_uris":{"android":"levelo://app?vid=658fa6f7-c40e-4c0f-9456-b9431783b964","ios":"levelo://app?vid=658fa6f7-c40e-4c0f-9456-b9431783b964"},"vehicle_type_id":"4","last_reported":1702980459,"current_range_meters":28400,"station_id":"ce4bhnh2rcd13ifvqgtg","pricing_plan_id":"free"},{"bike_id":"942b092c-a1f1-4fce-8c52-690f9d1330c2","system_id":"levelo_inurba_marseille","lat":43.27815,"lon":5.40713,"is_reserved":false,"is_disabled":false,"rental_uris":{"android":"levelo://app?vid=942b092c-a1f1-4fce-8c52-690f9d1330c2","ios":"levelo://app?vid=942b092c-a1f1-4fce-8c52-690f9d1330c2"},"vehicle_type_id":"4","last_reported":1702980459,"current_range_meters":24800,"station_id":"ce4bhnh2rcd13ifvqgtg","pricing_plan_id":"free"},{"bike_id":"9516b638-b510-4b7a-900d-e7b8c20d2532","system_id":"levelo_inurba_marseille","lat":43.269467,"lon":5.386439,"is_reserved":false,"is_disabled":false,"rental_uris":{"android":"levelo://app?vid=9516b638-b510-4b7a-900d-e7b8c20d2532","ios":"levelo://app?vid=9516b638-b510-4b7a-900d-e7b8c20d2532"},"vehicle_type_id":"4","last_reported":1702980459,"current_range_meters":30400,"station_id":"ce4bhh92rcd13ifvqfh0","pricing_plan_id":"free"},{"bike_id":"f74f6476-5769-4f76-90c6-85eb6a5871d5","system_id":"levelo_inurba_marseille","lat":43.26957,"lon":5.3863,"is_reserved":false,"is_disabled":false,"rental_uris":{"android":"levelo://app?vid=f74f6476-5769-4f76-90c6-85eb6a5871d5","ios":"levelo://app?vid=f74f6476-5769-4f76-90c6-85eb6a5871d5"},"vehicle_type_id":"4","last_reported":1702980459,"current_range_meters":23200,"station_id":"ce4bhh92rcd13ifvqfh0","pricing_plan_id":"free"},{"bike_id":"66965875-1225-4db1-902b-6342e8074330","system_id":"levelo_inurba_marseille","lat":43.269467,"lon":5.386439,"is_reserved":false,"is_disabled":false,"rental_uris":{"android":"levelo://app?vid=66965875-1225-4db1-902b-6342e8074330","ios":"levelo://app?vid=66965875-1225-4db1-902b-6342e8074330"},"vehicle_type_id":"4","last_reported":1702980459,"current_range_meters":0,"station_id":"ce4bhh92rcd13ifvqfh0","pricing_plan_id":"free"},{"bike_id":"3c799b4a-34d2-4a91-a4fe-05bd8c0c0236","system_id":"levelo_inurba_marseille","lat":43.269467,"lon":5.386439,"is_reserved":false,"is_disabled":false,"rental_uris":{"android":"levelo://app?vid=3c799b4a-34d2-4a91-a4fe-05bd8c0c0236","ios":"levelo://app?vid=3c799b4a-34d2-4a91-a4fe-05bd8c0c0236"},"vehicle_type_id":"4","last_reported":1702980459,"current_range_meters":13200,"station_id":"ce4bhh92rcd13ifvqfh0","pricing_plan_id":"free"},{"bike_id":"af34b4d7-2562-4121-b9bd-f6791bf377fc","system_id":"levelo_inurba_marseille","lat":43.26955,"lon":5.3863,"is_reserved":false,"is_disabled":false,"rental_uris":{"android":"levelo://app?vid=af34b4d7-2562-4121-b9bd-f6791bf377fc","ios":"levelo://app?vid=af34b4d7-2562-4121-b9bd-f6791bf377fc"},"vehicle_type_id":"4","last_reported":1702980459,"current_range_meters":20000,"station_id":"ce4bhh92rcd13ifvqfh0","pricing_plan_id":"free"},{"bike_id":"633aacc7-068b-4bd9-9a72-c0992b8660c5","system_id":"levelo_inurba_marseille","lat":43.269467,"lon":5.386439,"is_reserved":false,"is_disabled":false,"rental_uris":{"android":"levelo://app?vid=633aacc7-068b-4bd9-9a72-c0992b8660c5","ios":"levelo://app?vid=633aacc7-068b-4bd9-9a72-c0992b8660c5"},"vehicle_type_id":"4","last_reported":1702980459,"current_range_meters":27200,"station_id":"ce4bhh92rcd13ifvqfh0","pricing_plan_id":"free"},{"bike_id":"b1b50d40-2d4b-457a-8b7d-e3a4af2190c3","system_id":"levelo_inurba_marseille","lat":43.269467,"lon":5.386439,"is_reserved":false,"is_disabled":false,"rental_uris":{"android":"levelo://app?vid=b1b50d40-2d4b-457a-8b7d-e3a4af2190c3","ios":"levelo://app?vid=b1b50d40-2d4b-457a-8b7d-e3a4af2190c3"},"vehicle_type_id":"4","last_reported":1702980459,"current_range_meters":22800,"station_id":"ce4bhh92rcd13ifvqfh0","pricing_plan_id":"free"},{"bike_id":"d96c01fd-a919-4da7-ac5e-da61aeffa6d8","system_id":"levelo_inurba_marseille","lat":43.26949,"lon":5.3863,"is_reserved":false,"is_disabled":false,"rental_uris":{"android":"levelo://app?vid=d96c01fd-a919-4da7-ac5e-da61aeffa6d8","ios":"levelo://app?vid=d96c01fd-a919-4da7-ac5e-da61aeffa6d8"},"vehicle_type_id":"4","last_reported":1702980459,"current_range_meters":30000,"station_id":"ce4bhh92rcd13ifvqfh0","pricing_plan_id":"free"},{"bike_id":"a8246e0b-77ae-4381-b0b4-6f31eced4fb3","system_id":"levelo_inurba_marseille","lat":43.269467,"lon":5.386439,"is_reserved":false,"is_disabled":false,"rental_uris":{"android":"levelo://app?vid=a8246e0b-77ae-4381-b0b4-6f31eced4fb3","ios":"levelo://app?vid=a8246e0b-77ae-4381-b0b4-6f31eced4fb3"},"vehicle_type_id":"4","last_reported":1702980459,"current_range_meters":26000,"station_id":"ce4bhh92rcd13ifvqfh0","pricing_plan_id":"free"},{"bike_id":"0ab9359b-4a84-4f5e-877e-67d4583fcec1","system_id":"levelo_inurba_marseille","lat":43.26948,"lon":5.38635,"is_reserved":false,"is_disabled":false,"rental_uris":{"android":"levelo://app?vid=0ab9359b-4a84-4f5e-877e-67d4583fcec1","ios":"levelo://app?vid=0ab9359b-4a84-4f5e-877e-67d4583fcec1"},"vehicle_type_id":"4","last_reported":1702980459,"current_range_meters":29600,"station_id":"ce4bhh92rcd13ifvqfh0","pricing_plan_id":"free"},{"bike_id":"d3083e8e-5e29-43bb-b79c-8e63241ad9f2","system_id":"levelo_inurba_marseille","lat":43.279465,"lon":5.410561,"is_reserved":false,"is_disabled":false,"rental_uris":{"android":"levelo://app?vid=d3083e8e-5e29-43bb-b79c-8e63241ad9f2","ios":"levelo://app?vid=d3083e8e-5e29-43bb-b79c-8e63241ad9f2"},"vehicle_type_id":"4","last_reported":1702980459,"current_range_meters":26800,"station_id":"ce4bhnp2rcd13ifvqh0g","pricing_plan_id":"free"},{"bike_id":"978b7d74-a254-4b15-b161-6f739bcc0e22","system_id":"levelo_inurba_marseille","lat":43.269319,"lon":5.389397,"is_reserved":false,"is_disabled":false,"rental_uris":{"android":"levelo://app?vid=978b7d74-a254-4b15-b161-6f739bcc0e22","ios":"levelo://app?vid=978b7d74-a254-4b15-b161-6f739bcc0e22"},"vehicle_type_id":"4","last_reported":1702980459,"current_range_meters":24800,"station_id":"ce4bhhh2rcd13ifvqfl0","pricing_plan_id":"free"},{"bike_id":"c6eab633-e206-40c8-9187-9ea22d3ad7a9","system_id":"levelo_inurba_marseille","lat":43.269319,"lon":5.389397,"is_reserved":false,"is_disabled":false,"rental_uris":{"android":"levelo://app?vid=c6eab633-e206-40c8-9187-9ea22d3ad7a9","ios":"levelo://app?vid=c6eab633-e206-40c8-9187-9ea22d3ad7a9"},"vehicle_type_id":"4","last_reported":1702980459,"current_range_meters":18800,"station_id":"ce4bhhh2rcd13ifvqfl0","pricing_plan_id":"free"},{"bike_id":"53d37eec-24f8-4192-a229-9f60791c182d","system_id":"levelo_inurba_marseille","lat":43.26934,"lon":5.38912,"is_reserved":false,"is_disabled":false,"rental_uris":{"android":"levelo://app?vid=53d37eec-24f8-4192-a229-9f60791c182d","ios":"levelo://app?vid=53d37eec-24f8-4192-a229-9f60791c182d"},"vehicle_type_id":"4","last_reported":1702980459,"current_range_meters":17200,"station_id":"ce4bhhh2rcd13ifvqfl0","pricing_plan_id":"free"},{"bike_id":"432f29d2-ece2-46d3-b857-9ef0fe027373","system_id":"levelo_inurba_marseille","lat":43.269319,"lon":5.389397,"is_reserved":false,"is_disabled":false,"rental_uris":{"android":"levelo://app?vid=432f29d2-ece2-46d3-b857-9ef0fe027373","ios":"levelo://app?vid=432f29d2-ece2-46d3-b857-9ef0fe027373"},"vehicle_type_id":"4","last_reported":1702980459,"current_range_meters":27200,"station_id":"ce4bhhh2rcd13ifvqfl0","pricing_plan_id":"free"},{"bike_id":"d2e6b07c-f29c-4b72-b80c-458ad57954f1","system_id":"levelo_inurba_marseille","lat":43.26681,"lon":5.382694,"is_reserved":false,"is_disabled":false,"rental_uris":{"android":"levelo://app?vid=d2e6b07c-f29c-4b72-b80c-458ad57954f1","ios":"levelo://app?vid=d2e6b07c-f29c-4b72-b80c-458ad57954f1"},"vehicle_type_id":"4","last_reported":1702980459,"current_range_meters":4800,"station_id":"ce4bhg92rcd13ifvqf90","pricing_plan_id":"free"},{"bike_id":"a30270aa-6149-4043-bdb5-78431470d13d","system_id":"levelo_inurba_marseille","lat":43.26681,"lon":5.382694,"is_reserved":false,"is_disabled":false,"rental_uris":{"android":"levelo://app?vid=a30270aa-6149-4043-bdb5-78431470d13d","ios":"levelo://app?vid=a30270aa-6149-4043-bdb5-78431470d13d"},"vehicle_type_id":"4","last_reported":1702980459,"current_range_meters":19200,"station_id":"ce4bhg92rcd13ifvqf90","pricing_plan_id":"free"},{"bike_id":"ea1e624c-1c65-4876-907b-dfab7dc64823","system_id":"levelo_inurba_marseille","lat":43.26681,"lon":5.382694,"is_reserved":false,"is_disabled":false,"rental_uris":{"android":"levelo://app?vid=ea1e624c-1c65-4876-907b-dfab7dc64823","ios":"levelo://app?vid=ea1e624c-1c65-4876-907b-dfab7dc64823"},"vehicle_type_id":"4","last_reported":1702980459,"current_range_meters":16800,"station_id":"ce4bhg92rcd13ifvqf90","pricing_plan_id":"free"},{"bike_id":"02b1d3f0-c498-44d6-93a0-0a038898d815","system_id":"levelo_inurba_marseille","lat":43.26681,"lon":5.382694,"is_reserved":false,"is_disabled":false,"rental_uris":{"android":"levelo://app?vid=02b1d3f0-c498-44d6-93a0-0a038898d815","ios":"levelo://app?vid=02b1d3f0-c498-44d6-93a0-0a038898d815"},"vehicle_type_id":"4","last_reported":1702980459,"current_range_meters":31600,"station_id":"ce4bhg92rcd13ifvqf90","pricing_plan_id":"free"},{"bike_id":"414560b1-f0ba-4575-8cb2-76f272e8ab22","system_id":"levelo_inurba_marseille","lat":43.26681,"lon":5.382694,"is_reserved":false,"is_disabled":false,"rental_uris":{"android":"levelo://app?vid=414560b1-f0ba-4575-8cb2-76f272e8ab22","ios":"levelo://app?vid=414560b1-f0ba-4575-8cb2-76f272e8ab22"},"vehicle_type_id":"4","last_reported":1702980459,"current_range_meters":22800,"station_id":"ce4bhg92rcd13ifvqf90","pricing_plan_id":"free"},{"bike_id":"4332ea30-0649-4a88-a8f9-46d7928b6f43","system_id":"levelo_inurba_marseille","lat":43.26681,"lon":5.382694,"is_reserved":false,"is_disabled":false,"rental_uris":{"android":"levelo://app?vid=4332ea30-0649-4a88-a8f9-46d7928b6f43","ios":"levelo://app?vid=4332ea30-0649-4a88-a8f9-46d7928b6f43"},"vehicle_type_id":"4","last_reported":1702980459,"current_range_meters":31200,"station_id":"ce4bhg92rcd13ifvqf90","pricing_plan_id":"free"},{"bike_id":"06b7b265-d935-43f7-a456-7363db57abf8","system_id":"levelo_inurba_marseille","lat":43.26681,"lon":5.382694,"is_reserved":false,"is_disabled":false,"rental_uris":{"android":"levelo://app?vid=06b7b265-d935-43f7-a456-7363db57abf8","ios":"levelo://app?vid=06b7b265-d935-43f7-a456-7363db57abf8"},"vehicle_type_id":"4","last_reported":1702980459,"current_range_meters":22800,"station_id":"ce4bhg92rcd13ifvqf90","pricing_plan_id":"free"},{"bike_id":"81bcf634-dc0c-4104-980b-2d893f59e14a","system_id":"levelo_inurba_marseille","lat":43.26681,"lon":5.382694,"is_reserved":false,"is_disabled":false,"rental_uris":{"android":"levelo://app?vid=81bcf634-dc0c-4104-980b-2d893f59e14a","ios":"levelo://app?vid=81bcf634-dc0c-4104-980b-2d893f59e14a"},"vehicle_type_id":"4","last_reported":1702980459,"current_range_meters":22800,"station_id":"ce4bhg92rcd13ifvqf90","pricing_plan_id":"free"},{"bike_id":"b2b1f3ac-cb36-4abf-b35b-81035c4fb25d","system_id":"levelo_inurba_marseille","lat":43.265714,"lon":5.372891,"is_reserved":false,"is_disabled":false,"rental_uris":{"android":"levelo://app?vid=b2b1f3ac-cb36-4abf-b35b-81035c4fb25d","ios":"levelo://app?vid=b2b1f3ac-cb36-4abf-b35b-81035c4fb25d"},"vehicle_type_id":"4","last_reported":1702980459,"current_range_meters":23200,"station_id":"ce4bhg12rcd13ifvqf70","pricing_plan_id":"free"},{"bike_id":"d040d53f-bf65-407f-9276-ca3609a61713","system_id":"levelo_inurba_marseille","lat":43.26681,"lon":5.382694,"is_reserved":false,"is_disabled":false,"rental_uris":{"android":"levelo://app?vid=d040d53f-bf65-407f-9276-ca3609a61713","ios":"levelo://app?vid=d040d53f-bf65-407f-9276-ca3609a61713"},"vehicle_type_id":"4","last_reported":1702980459,"current_range_meters":31200,"station_id":"ce4bhg92rcd13ifvqf90","pricing_plan_id":"free"},{"bike_id":"b950f563-3343-4457-945c-ecab4bac138f","system_id":"levelo_inurba_marseille","lat":43.265714,"lon":5.372891,"is_reserved":false,"is_disabled":false,"rental_uris":{"android":"levelo://app?vid=b950f563-3343-4457-945c-ecab4bac138f","ios":"levelo://app?vid=b950f563-3343-4457-945c-ecab4bac138f"},"vehicle_type_id":"4","last_reported":1702980459,"current_range_meters":24400,"station_id":"ce4bhg12rcd13ifvqf70","pricing_plan_id":"free"},{"bike_id":"ac8d2520-91cc-4adc-97cd-0b51dabb02dc","system_id":"levelo_inurba_marseille","lat":43.265714,"lon":5.372891,"is_reserved":false,"is_disabled":false,"rental_uris":{"android":"levelo://app?vid=ac8d2520-91cc-4adc-97cd-0b51dabb02dc","ios":"levelo://app?vid=ac8d2520-91cc-4adc-97cd-0b51dabb02dc"},"vehicle_type_id":"4","last_reported":1702980459,"current_range_meters":16400,"station_id":"ce4bhg12rcd13ifvqf70","pricing_plan_id":"free"},{"bike_id":"2e0f466e-7dd3-4249-99d6-34d9bc73946d","system_id":"levelo_inurba_marseille","lat":43.27996,"lon":5.416624,"is_reserved":false,"is_disabled":false,"rental_uris":{"android":"levelo://app?vid=2e0f466e-7dd3-4249-99d6-34d9bc73946d","ios":"levelo://app?vid=2e0f466e-7dd3-4249-99d6-34d9bc73946d"},"vehicle_type_id":"4","last_reported":1702980459,"current_range_meters":30000,"station_id":"ce4bho12rcd13ifvqh1g","pricing_plan_id":"free"},{"bike_id":"6f5d1cd3-ef46-444c-b529-4c4dbc78925f","system_id":"levelo_inurba_marseille","lat":43.265571,"lon":5.390032,"is_reserved":false,"is_disabled":false,"rental_uris":{"android":"levelo://app?vid=6f5d1cd3-ef46-444c-b529-4c4dbc78925f","ios":"levelo://app?vid=6f5d1cd3-ef46-444c-b529-4c4dbc78925f"},"vehicle_type_id":"4","last_reported":1702980459,"current_range_meters":14000,"station_id":"ce4bhe12rcd13ifvqf30","pricing_plan_id":"free"},{"bike_id":"982a2668-8eed-4af6-8bde-2c353c40ba51","system_id":"levelo_inurba_marseille","lat":43.265571,"lon":5.390032,"is_reserved":false,"is_disabled":false,"rental_uris":{"android":"levelo://app?vid=982a2668-8eed-4af6-8bde-2c353c40ba51","ios":"levelo://app?vid=982a2668-8eed-4af6-8bde-2c353c40ba51"},"vehicle_type_id":"4","last_reported":1702980459,"current_range_meters":19600,"station_id":"ce4bhe12rcd13ifvqf30","pricing_plan_id":"free"},{"bike_id":"d81d979c-3ff2-4af2-b73f-384a6a63b028","system_id":"levelo_inurba_marseille","lat":43.265571,"lon":5.390032,"is_reserved":false,"is_disabled":false,"rental_uris":{"android":"levelo://app?vid=d81d979c-3ff2-4af2-b73f-384a6a63b028","ios":"levelo://app?vid=d81d979c-3ff2-4af2-b73f-384a6a63b028"},"vehicle_type_id":"4","last_reported":1702980459,"current_range_meters":9600,"station_id":"ce4bhe12rcd13ifvqf30","pricing_plan_id":"free"},{"bike_id":"19dfa9a1-187f-4b49-94d1-093bd35e585e","system_id":"levelo_inurba_marseille","lat":43.265571,"lon":5.390032,"is_reserved":false,"is_disabled":false,"rental_uris":{"android":"levelo://app?vid=19dfa9a1-187f-4b49-94d1-093bd35e585e","ios":"levelo://app?vid=19dfa9a1-187f-4b49-94d1-093bd35e585e"},"vehicle_type_id":"4","last_reported":1702980459,"current_range_meters":16800,"station_id":"ce4bhe12rcd13ifvqf30","pricing_plan_id":"free"},{"bike_id":"7374ef88-6f05-482f-89c0-c8bd213ca304","system_id":"levelo_inurba_marseille","lat":43.26193,"lon":5.3744,"is_reserved":false,"is_disabled":false,"rental_uris":{"android":"levelo://app?vid=7374ef88-6f05-482f-89c0-c8bd213ca304","ios":"levelo://app?vid=7374ef88-6f05-482f-89c0-c8bd213ca304"},"vehicle_type_id":"4","last_reported":1702980459,"current_range_meters":30400,"station_id":"ce4bhgp2rcd13ifvqfc0","pricing_plan_id":"free"},{"bike_id":"7ff8ad28-d7f6-45d2-8bef-ef8e4f332996","system_id":"levelo_inurba_marseille","lat":43.261782,"lon":5.374515,"is_reserved":false,"is_disabled":false,"rental_uris":{"android":"levelo://app?vid=7ff8ad28-d7f6-45d2-8bef-ef8e4f332996","ios":"levelo://app?vid=7ff8ad28-d7f6-45d2-8bef-ef8e4f332996"},"vehicle_type_id":"4","last_reported":1702980459,"current_range_meters":14800,"station_id":"ce4bhgp2rcd13ifvqfc0","pricing_plan_id":"free"},{"bike_id":"067df923-1955-42a0-8ba4-79c36454123d","system_id":"levelo_inurba_marseille","lat":43.261782,"lon":5.374515,"is_reserved":false,"is_disabled":false,"rental_uris":{"android":"levelo://app?vid=067df923-1955-42a0-8ba4-79c36454123d","ios":"levelo://app?vid=067df923-1955-42a0-8ba4-79c36454123d"},"vehicle_type_id":"4","last_reported":1702980459,"current_range_meters":22800,"station_id":"ce4bhgp2rcd13ifvqfc0","pricing_plan_id":"free"},{"bike_id":"80910aa8-0b36-46c5-b32e-6fd4fcf175d5","system_id":"levelo_inurba_marseille","lat":43.261782,"lon":5.374515,"is_reserved":false,"is_disabled":false,"rental_uris":{"android":"levelo://app?vid=80910aa8-0b36-46c5-b32e-6fd4fcf175d5","ios":"levelo://app?vid=80910aa8-0b36-46c5-b32e-6fd4fcf175d5"},"vehicle_type_id":"4","last_reported":1702980459,"current_range_meters":31200,"station_id":"ce4bhgp2rcd13ifvqfc0","pricing_plan_id":"free"},{"bike_id":"d9946238-8a56-44ae-a6b0-689cec9fb42b","system_id":"levelo_inurba_marseille","lat":43.271368,"lon":5.40928,"is_reserved":false,"is_disabled":false,"rental_uris":{"android":"levelo://app?vid=d9946238-8a56-44ae-a6b0-689cec9fb42b","ios":"levelo://app?vid=d9946238-8a56-44ae-a6b0-689cec9fb42b"},"vehicle_type_id":"4","last_reported":1702980459,"current_range_meters":31200,"station_id":"ce4bhl12rcd13ifvqgf0","pricing_plan_id":"free"},{"bike_id":"af773fba-0514-4085-aaa6-9a24022684ec","system_id":"levelo_inurba_marseille","lat":43.271388,"lon":5.409269,"is_reserved":false,"is_disabled":false,"rental_uris":{"android":"levelo://app?vid=af773fba-0514-4085-aaa6-9a24022684ec","ios":"levelo://app?vid=af773fba-0514-4085-aaa6-9a24022684ec"},"vehicle_type_id":"4","last_reported":1702980459,"current_range_meters":31200,"station_id":"ce4bhl12rcd13ifvqgf0","pricing_plan_id":"free"},{"bike_id":"2177bc73-907b-4508-94ac-ac23516a52e3","system_id":"levelo_inurba_marseille","lat":43.298768,"lon":5.43643,"is_reserved":false,"is_disabled":false,"rental_uris":{"android":"levelo://app?vid=2177bc73-907b-4508-94ac-ac23516a52e3","ios":"levelo://app?vid=2177bc73-907b-4508-94ac-ac23516a52e3"},"vehicle_type_id":"4","last_reported":1702980459,"current_range_meters":22800,"station_id":"ce4bhpp2rcd13ifvqhfg","pricing_plan_id":"free"},{"bike_id":"3f1f1e7d-4ff2-49fd-85bf-4cb4257e3933","system_id":"levelo_inurba_marseille","lat":43.298768,"lon":5.43643,"is_reserved":false,"is_disabled":false,"rental_uris":{"android":"levelo://app?vid=3f1f1e7d-4ff2-49fd-85bf-4cb4257e3933","ios":"levelo://app?vid=3f1f1e7d-4ff2-49fd-85bf-4cb4257e3933"},"vehicle_type_id":"4","last_reported":1702980459,"current_range_meters":31200,"station_id":"ce4bhpp2rcd13ifvqhfg","pricing_plan_id":"free"},{"bike_id":"b328f603-749e-41e5-80d8-8c652f40eb62","system_id":"levelo_inurba_marseille","lat":43.298768,"lon":5.43643,"is_reserved":false,"is_disabled":false,"rental_uris":{"android":"levelo://app?vid=b328f603-749e-41e5-80d8-8c652f40eb62","ios":"levelo://app?vid=b328f603-749e-41e5-80d8-8c652f40eb62"},"vehicle_type_id":"4","last_reported":1702980459,"current_range_meters":28400,"station_id":"ce4bhpp2rcd13ifvqhfg","pricing_plan_id":"free"},{"bike_id":"473ad542-d152-44a0-8b05-a545ac18d3ff","system_id":"levelo_inurba_marseille","lat":43.260219,"lon":5.37546,"is_reserved":false,"is_disabled":false,"rental_uris":{"android":"levelo://app?vid=473ad542-d152-44a0-8b05-a545ac18d3ff","ios":"levelo://app?vid=473ad542-d152-44a0-8b05-a545ac18d3ff"},"vehicle_type_id":"4","last_reported":1702980459,"current_range_meters":18000,"station_id":"ce4bhgh2rcd13ifvqfa0","pricing_plan_id":"free"},{"bike_id":"01d52fe5-e724-4d3f-8d25-930773ddd944","system_id":"levelo_inurba_marseille","lat":43.281548,"lon":5.42643,"is_reserved":false,"is_disabled":false,"rental_uris":{"android":"levelo://app?vid=01d52fe5-e724-4d3f-8d25-930773ddd944","ios":"levelo://app?vid=01d52fe5-e724-4d3f-8d25-930773ddd944"},"vehicle_type_id":"4","last_reported":1702980459,"current_range_meters":22800,"station_id":"ce4bhnh2rcd13ifvqgug","pricing_plan_id":"free"},{"bike_id":"f17e4890-ea95-4741-8982-be112139a49e","system_id":"levelo_inurba_marseille","lat":43.2607,"lon":5.393983,"is_reserved":false,"is_disabled":false,"rental_uris":{"android":"levelo://app?vid=f17e4890-ea95-4741-8982-be112139a49e","ios":"levelo://app?vid=f17e4890-ea95-4741-8982-be112139a49e"},"vehicle_type_id":"4","last_reported":1702980459,"current_range_meters":29200,"station_id":"ce4bhh92rcd13ifvqfj0","pricing_plan_id":"free"},{"bike_id":"f27de55b-24dc-49f6-a978-077789efb37d","system_id":"levelo_inurba_marseille","lat":43.274985,"lon":5.42447,"is_reserved":false,"is_disabled":false,"rental_uris":{"android":"levelo://app?vid=f27de55b-24dc-49f6-a978-077789efb37d","ios":"levelo://app?vid=f27de55b-24dc-49f6-a978-077789efb37d"},"vehicle_type_id":"4","last_reported":1702980459,"current_range_meters":28400,"station_id":"ce4bhn92rcd13ifvqgrg","pricing_plan_id":"free"},{"bike_id":"c0304c10-42b7-4fa4-b6c8-caae3b7a8e3e","system_id":"levelo_inurba_marseille","lat":43.275028,"lon":5.424534,"is_reserved":false,"is_disabled":false,"rental_uris":{"android":"levelo://app?vid=c0304c10-42b7-4fa4-b6c8-caae3b7a8e3e","ios":"levelo://app?vid=c0304c10-42b7-4fa4-b6c8-caae3b7a8e3e"},"vehicle_type_id":"4","last_reported":1702980459,"current_range_meters":31200,"station_id":"ce4bhn92rcd13ifvqgrg","pricing_plan_id":"free"},{"bike_id":"3b3f4c5c-2522-4a5c-a457-891155ce9028","system_id":"levelo_inurba_marseille","lat":43.27497,"lon":5.42446,"is_reserved":false,"is_disabled":false,"rental_uris":{"android":"levelo://app?vid=3b3f4c5c-2522-4a5c-a457-891155ce9028","ios":"levelo://app?vid=3b3f4c5c-2522-4a5c-a457-891155ce9028"},"vehicle_type_id":"4","last_reported":1702980459,"current_range_meters":21200,"station_id":"ce4bhn92rcd13ifvqgrg","pricing_plan_id":"free"},{"bike_id":"e5c0e845-5529-4741-88ec-85be98a6be97","system_id":"levelo_inurba_marseille","lat":43.275028,"lon":5.424534,"is_reserved":false,"is_disabled":false,"rental_uris":{"android":"levelo://app?vid=e5c0e845-5529-4741-88ec-85be98a6be97","ios":"levelo://app?vid=e5c0e845-5529-4741-88ec-85be98a6be97"},"vehicle_type_id":"4","last_reported":1702980459,"current_range_meters":24800,"station_id":"ce4bhn92rcd13ifvqgrg","pricing_plan_id":"free"},{"bike_id":"8dbc6cb1-e83e-4f58-be99-bea93c26cda5","system_id":"levelo_inurba_marseille","lat":43.27497,"lon":5.42448,"is_reserved":false,"is_disabled":false,"rental_uris":{"android":"levelo://app?vid=8dbc6cb1-e83e-4f58-be99-bea93c26cda5","ios":"levelo://app?vid=8dbc6cb1-e83e-4f58-be99-bea93c26cda5"},"vehicle_type_id":"4","last_reported":1702980459,"current_range_meters":22000,"station_id":"ce4bhn92rcd13ifvqgrg","pricing_plan_id":"free"},{"bike_id":"ff337f60-e3c1-479e-9850-09ad5e0221a6","system_id":"levelo_inurba_marseille","lat":43.275028,"lon":5.424534,"is_reserved":false,"is_disabled":false,"rental_uris":{"android":"levelo://app?vid=ff337f60-e3c1-479e-9850-09ad5e0221a6","ios":"levelo://app?vid=ff337f60-e3c1-479e-9850-09ad5e0221a6"},"vehicle_type_id":"4","last_reported":1702980459,"current_range_meters":25600,"station_id":"ce4bhn92rcd13ifvqgrg","pricing_plan_id":"free"},