{"last_updated":1737130236,"ttl":60,"version":"2.2","data":{"bikes":[{"bike_id":"3d3bc2d8-e193-4fcc-9675-c69322a68c4f","system_id":"levelo_inurba_marseille","lat":43.29282,"lon":5.37459,"is_reserved":false,"is_disabled":false,"rental_uris":{"android":"levelo://app?vid=3d3bc2d8-e193-4fcc-9675-c69322a68c4f","ios":"levelo://app?vid=3d3bc2d8-e193-4fcc-9675-c69322a68c4f"},"vehicle_type_id":"4","last_reported":1737130236,"current_range_meters":25600,"station_id":"ce4bgi12rcd13ifvqb70","pricing_plan_id":"cebpf4jnsgd1na2vs0mg"},{"bike_id":"dd03d761-348f-49b9-b0f1-147813bbe2a5","system_id":"levelo_inurba_marseille","lat":43.23173,"lon":5.39997,"is_reserved":false,"is_disabled":false,"rental_uris":{"android":"levelo://app?vid=dd03d761-348f-49b9-b0f1-147813bbe2a5","ios":"levelo://app?vid=dd03d761-348f-49b9-b0f1-147813bbe2a5"},"vehicle_type_id":"4","last_reported":1737130236,"current_range_meters":26800,"station_id":"ce4bhn12rcd13ifvqgqg","pricing_plan_id":"cebpf4jnsgd1na2vs0mg"},{"bike_id":"b6cb8185-7959-4808-a0ad-cdaa9210073d","system_id":"levelo_inurba_marseille","lat":43.27621,"lon":5.36112,"is_reserved":false,"is_disabled":false,"rental_uris":{"android":"levelo://app?vid=b6cb8185-7959-4808-a0ad-cdaa9210073d","ios":"levelo://app?vid=b6cb8185-7959-4808-a0ad-cdaa9210073d"},"vehicle_type_id":"4","last_reported":1737130236,"current_range_meters":39200,"station_id":"ce4bgj92rcd13ifvqbe0","pricing_plan_id":"cebpf4jnsgd1na2vs0mg"},{"bike_id":"63944c13-1dbc-4b8e-892d-53ea6e8c8f43","system_id":"levelo_inurba_marseille","lat":43.2818,"lon":5.4024,"is_reserved":false,"is_disabled":false,"rental_uris":{"android":"levelo://app?vid=63944c13-1dbc-4b8e-892d-53ea6e8c8f43","ios":"levelo://app?vid=63944c13-1dbc-4b8e-892d-53ea6e8c8f43"},"vehicle_type_id":"4","last_reported":1737130236,"current_range_meters":2800,"station_id":"ce4bho92rcd13ifvqh4g","pricing_plan_id":"cebpf4jnsgd1na2vs0mg"},{"bike_id":"736aa54d-b902-4630-8a90-71e7dee03587","system_id":"levelo_inurba_marseille","lat":43.26067,"lon":5.39378,"is_reserved":false,"is_disabled":false,"rental_uris":{"android":"levelo://app?vid=736aa54d-b902-4630-8a90-71e7dee03587","ios":"levelo://app?vid=736aa54d-b902-4630-8a90-71e7dee03587"},"vehicle_type_id":"4","last_reported":1737130236,"current_range_meters":38000,"station_id":"ce4bhh92rcd13ifvqfj0","pricing_plan_id":"cebpf4jnsgd1na2vs0mg"},{"bike_id":"5ff1c1c1-92c2-43f7-8f5e-7f9a3f2cf9a0","system_id":"levelo_inurba_marseille","lat":43.24183,"lon":5.39726,"is_reserved":false,"is_disabled":true,"rental_uris":{"android":"levelo://app?vid=5ff1c1c1-92c2-43f7-8f5e-7f9a3f2cf9a0","ios":"levelo://app?vid=5ff1c1c1-92c2-43f7-8f5e-7f9a3f2cf9a0"},"vehicle_type_id":"4","last_reported":1737130236,"current_range_meters":0,"station_id":"ce4bhn12rcd13ifvqgpg","pricing_plan_id":"cebpf4jnsgd1na2vs0mg"},{"bike_id":"378ac751-93d1-4e05-9fe9-2173ac0ae093","system_id":"levelo_inurba_marseille","lat":43.29853,"lon":5.36265,"is_reserved":false,"is_disabled":false,"rental_uris":{"android":"levelo://app?vid=378ac751-93d1-4e05-9fe9-2173ac0ae093","ios":"levelo://app?vid=378ac751-93d1-4e05-9fe9-2173ac0ae093"},"vehicle_type_id":"4","last_reported":1737130236,"current_range_meters":24400,"station_id":"ce4bgpp2rcd13ifvqc3g","pricing_plan_id":"cebpf4jnsgd1na2vs0mg"},{"bike_id":"b28d1ca3-d48b-4441-ae5a-b75c14a441e8","system_id":"levelo_inurba_marseille","lat":43.29522,"lon":5.37501,"is_reserved":false,"is_disabled":false,"rental_uris":{"android":"levelo://app?vid=b28d1ca3-d48b-4441-ae5a-b75c14a441e8","ios":"levelo://app?vid=b28d1ca3-d48b-4441-ae5a-b75c14a441e8"},"vehicle_type_id":"4","last_reported":1737130236,"current_range_meters":22000,"station_id":"ce4bgkp2rcd13ifvqbmg","pricing_plan_id":"cebpf4jnsgd1na2vs0mg"},{"bike_id":"acd95981-8745-4a8e-9dce-9e76fae8f3d0","system_id":"levelo_inurba_marseille","lat":43.30139,"lon":5.39881,"is_reserved":false,"is_disabled":false,"rental_uris":{"android":"levelo://app?vid=acd95981-8745-4a8e-9dce-9e76fae8f3d0","ios":"levelo://app?vid=acd95981-8745-4a8e-9dce-9e76fae8f3d0"},"vehicle_type_id":"4","last_reported":1737130236,"current_range_meters":26000,"station_id":"ce4bh0h2rcd13ifvqd40","pricing_plan_id":"cebpf4jnsgd1na2vs0mg"},{"bike_id":"f12c255f-8d0d-4c76-9d02-6125866fb0b3","system_id":"levelo_inurba_marseille","lat":43.27375,"lon":5.36253,"is_reserved":false,"is_disabled":false,"rental_uris":{"android":"levelo://app?vid=f12c255f-8d0d-4c76-9d02-6125866fb0b3","ios":"levelo://app?vid=f12c255f-8d0d-4c76-9d02-6125866fb0b3"},"vehicle_type_id":"4","last_reported":1737130236,"current_range_meters":8800,"station_id":"ce4bhbh2rcd13ifvqeo0","pricing_plan_id":"cebpf4jnsgd1na2vs0mg"},{"bike_id":"a4607759-bc6a-4b88-a0dc-6331eb2acc8c","system_id":"levelo_inurba_marseille","lat":43.29224,"lon":5.36071,"is_reserved":false,"is_disabled":false,"rental_uris":{"android":"levelo://app?vid=a4607759-bc6a-4b88-a0dc-6331eb2acc8c","ios":"levelo://app?vid=a4607759-bc6a-4b88-a0dc-6331eb2acc8c"},"vehicle_type_id":"4","last_reported":1737130236,"current_range_meters":32400,"station_id":"ce4bhbh2rcd13ifvqeqg","pricing_plan_id":"cebpf4jnsgd1na2vs0mg"},{"bike_id":"d2d6574b-5381-473d-b854-c732c5e07e5d","system_id":"levelo_inurba_marseille","lat":43.276197,"lon":5.36109,"is_reserved":false,"is_disabled":false,"rental_uris":{"android":"levelo://app?vid=d2d6574b-5381-473d-b854-c732c5e07e5d","ios":"levelo://app?vid=d2d6574b-5381-473d-b854-c732c5e07e5d"},"vehicle_type_id":"4","last_reported":1737130236,"current_range_meters":31200,"station_id":"ce4bgj92rcd13ifvqbe0","pricing_plan_id":"cebpf4jnsgd1na2vs0mg"},{"bike_id":"8b6a8b78-4966-4fb6-9b29-4d80005f6d28","system_id":"levelo_inurba_marseille","lat":43.2841,"lon":5.37513,"is_reserved":false,"is_disabled":false,"rental_uris":{"android":"levelo://app?vid=8b6a8b78-4966-4fb6-9b29-4d80005f6d28","ios":"levelo://app?vid=8b6a8b78-4966-4fb6-9b29-4d80005f6d28"},"vehicle_type_id":"4","last_reported":1737130236,"current_range_meters":3200,"station_id":"ce4bh412rcd13ifvqds0","pricing_plan_id":"cebpf4jnsgd1na2vs0mg"},{"bike_id":"173bd717-be9b-4bbf-b86f-34ad80bfec41","system_id":"levelo_inurba_marseille","lat":43.26955,"lon":5.38632,"is_reserved":false,"is_disabled":false,"rental_uris":{"android":"levelo://app?vid=173bd717-be9b-4bbf-b86f-34ad80bfec41","ios":"levelo://app?vid=173bd717-be9b-4bbf-b86f-34ad80bfec41"},"vehicle_type_id":"4","last_reported":1737130236,"current_range_meters":38800,"station_id":"ce4bhh92rcd13ifvqfh0","pricing_plan_id":"cebpf4jnsgd1na2vs0mg"},{"bike_id":"c4fc9679-1008-473b-9e9b-26f1ed62312e","system_id":"levelo_inurba_marseille","lat":43.22945,"lon":5.35371,"is_reserved":false,"is_disabled":false,"rental_uris":{"android":"levelo://app?vid=c4fc9679-1008-473b-9e9b-26f1ed62312e","ios":"levelo://app?vid=c4fc9679-1008-473b-9e9b-26f1ed62312e"},"vehicle_type_id":"4","last_reported":1737130236,"current_range_meters":17600,"station_id":"cpo3532slgdg3j2ikp40","pricing_plan_id":"cebpf4jnsgd1na2vs0mg"},{"bike_id":"3aacdb16-627b-499d-ae2b-4cd2cd392dad","system_id":"levelo_inurba_marseille","lat":43.3013,"lon":5.39868,"is_reserved":false,"is_disabled":false,"rental_uris":{"android":"levelo://app?vid=3aacdb16-627b-499d-ae2b-4cd2cd392dad","ios":"levelo://app?vid=3aacdb16-627b-499d-ae2b-4cd2cd392dad"},"vehicle_type_id":"4","last_reported":1737130236,"current_range_meters":16800,"station_id":"ce4bh0h2rcd13ifvqd40","pricing_plan_id":"cebpf4jnsgd1na2vs0mg"},{"bike_id":"d5cae11e-b3dd-49b3-a2b0-368895b2adf7","system_id":"levelo_inurba_marseille","lat":43.29568,"lon":5.39965,"is_reserved":false,"is_disabled":false,"rental_uris":{"android":"levelo://app?vid=d5cae11e-b3dd-49b3-a2b0-368895b2adf7","ios":"levelo://app?vid=d5cae11e-b3dd-49b3-a2b0-368895b2adf7"},"vehicle_type_id":"4","last_reported":1737130236,"current_range_meters":36800,"station_id":"ce4bh312rcd13ifvqdj0","pricing_plan_id":"cebpf4jnsgd1na2vs0mg"},{"bike_id":"c6e723d3-0b88-4608-8b8e-5bb7fffa11f4","system_id":"levelo_inurba_marseille","lat":43.30898,"lon":5.37169,"is_reserved":false,"is_disabled":false,"rental_uris":{"android":"levelo://app?vid=c6e723d3-0b88-4608-8b8e-5bb7fffa11f4","ios":"levelo://app?vid=c6e723d3-0b88-4608-8b8e-5bb7fffa11f4"},"vehicle_type_id":"4","last_reported":1737130236,"current_range_meters":38800,"station_id":"ce4bguh2rcd13ifvqckg","pricing_plan_id":"cebpf4jnsgd1na2vs0mg"},{"bike_id":"b41597f0-30e4-4731-a821-d808d1574cbb","system_id":"levelo_inurba_marseille","lat":43.33017,"lon":5.39038,"is_reserved":false,"is_disabled":false,"rental_uris":{"android":"levelo://app?vid=b41597f0-30e4-4731-a821-d808d1574cbb","ios":"levelo://app?vid=b41597f0-30e4-4731-a821-d808d1574cbb"},"vehicle_type_id":"4","last_reported":1737130236,"current_range_meters":38800,"station_id":"ce4bhr92rcd13ifvqhrg","pricing_plan_id":"cebpf4jnsgd1na2vs0mg"},{"bike_id":"88f5dbd0-5095-470c-9345-6a35673836c6","system_id":"levelo_inurba_marseille","lat":43.26207,"lon":5.37929,"is_reserved":false,"is_disabled":true,"rental_uris":{"android":"levelo://app?vid=88f5dbd0-5095-470c-9345-6a35673836c6","ios":"levelo://app?vid=88f5dbd0-5095-470c-9345-6a35673836c6"},"vehicle_type_id":"4","last_reported":1737130236,"current_range_meters":1200,"station_id":"ce4bhjp2rcd13ifvqg90","pricing_plan_id":"cebpf4jnsgd1na2vs0mg"},{"bike_id":"33a27f13-5f23-4984-8323-e12bba922a06","system_id":"levelo_inurba_marseille","lat":43.29045,"lon":5.35921,"is_reserved":false,"is_disabled":false,"rental_uris":{"android":"levelo://app?vid=33a27f13-5f23-4984-8323-e12bba922a06","ios":"levelo://app?vid=33a27f13-5f23-4984-8323-e12bba922a06"},"vehicle_type_id":"4","last_reported":1737130236,"current_range_meters":16400,"station_id":"ce4bha92rcd13ifvqeg0","pricing_plan_id":"cebpf4jnsgd1na2vs0mg"},{"bike_id":"766e49bc-4f4c-48c2-bf75-3b2856717198","system_id":"levelo_inurba_marseille","lat":43.29569,"lon":5.37522,"is_reserved":false,"is_disabled":false,"rental_uris":{"android":"levelo://app?vid=766e49bc-4f4c-48c2-bf75-3b2856717198","ios":"levelo://app?vid=766e49bc-4f4c-48c2-bf75-3b2856717198"},"vehicle_type_id":"4","last_reported":1737130236,"current_range_meters":39200,"station_id":"ce4bgh92rcd13ifvqb50","pricing_plan_id":"cebpf4jnsgd1na2vs0mg"},{"bike_id":"835db956-1cf0-49b1-b7c0-a9f7cb79e4cc","system_id":"levelo_inurba_marseille","lat":43.28726,"lon":5.360797,"is_reserved":false,"is_disabled":false,"rental_uris":{"android":"levelo://app?vid=835db956-1cf0-49b1-b7c0-a9f7cb79e4cc","ios":"levelo://app?vid=835db956-1cf0-49b1-b7c0-a9f7cb79e4cc"},"vehicle_type_id":"4","last_reported":1737130236,"current_range_meters":27200,"station_id":"cki0cbj6b192h4jlfktg","pricing_plan_id":"cebpf4jnsgd1na2vs0mg"},{"bike_id":"c65c224b-fbca-4665-aeda-d8fef6bcf8f6","system_id":"levelo_inurba_marseille","lat":43.29516,"lon":5.39043,"is_reserved":false,"is_disabled":false,"rental_uris":{"android":"levelo://app?vid=c65c224b-fbca-4665-aeda-d8fef6bcf8f6","ios":"levelo://app?vid=c65c224b-fbca-4665-aeda-d8fef6bcf8f6"},"vehicle_type_id":"4","last_reported":1737130236,"current_range_meters":28000,"station_id":"ce4bh3p2rcd13ifvqdp0","pricing_plan_id":"cebpf4jnsgd1na2vs0mg"},{"bike_id":"66ec8711-3dbc-48f7-b091-25773ac6b77c","system_id":"levelo_inurba_marseille","lat":43.281873,"lon":5.4425,"is_reserved":false,"is_disabled":true,"rental_uris":{"android":"levelo://app?vid=66ec8711-3dbc-48f7-b091-25773ac6b77c","ios":"levelo://app?vid=66ec8711-3dbc-48f7-b091-25773ac6b77c"},"vehicle_type_id":"4","last_reported":1737130236,"current_range_meters":0,"station_id":"","pricing_plan_id":"cebpf4jnsgd1na2vs0mg"},{"bike_id":"e1084a1e-102d-4161-b63c-312e2377f975","system_id":"levelo_inurba_marseille","lat":43.26201,"lon":5.37924,"is_reserved":false,"is_disabled":false,"rental_uris":{"android":"levelo://app?vid=e1084a1e-102d-4161-b63c-312e2377f975","ios":"levelo://app?vid=e1084a1e-102d-4161-b63c-312e2377f975"},"vehicle_type_id":"4","last_reported":1737130236,"current_range_meters":18800,"station_id":"ce4bhjp2rcd13ifvqg90","pricing_plan_id":"cebpf4jnsgd1na2vs0mg"},{"bike_id":"f514412c-5f4d-420b-98a3-da1c8f6abea2","system_id":"levelo_inurba_marseille","lat":43.26566,"lon":5.39015,"is_reserved":false,"is_disabled":false,"rental_uris":{"android":"levelo://app?vid=f514412c-5f4d-420b-98a3-da1c8f6abea2","ios":"levelo://app?vid=f514412c-5f4d-420b-98a3-da1c8f6abea2"},"vehicle_type_id":"4","last_reported":1737130236,"current_range_meters":34800,"station_id":"ce4bhe12rcd13ifvqf30","pricing_plan_id":"cebpf4jnsgd1na2vs0mg"},{"bike_id":"1a8b4e36-6bdf-492d-a3a5-f72b657962e0","system_id":"levelo_inurba_marseille","lat":43.31326,"lon":5.39689,"is_reserved":false,"is_disabled":false,"rental_uris":{"android":"levelo://app?vid=1a8b4e36-6bdf-492d-a3a5-f72b657962e0","ios":"levelo://app?vid=1a8b4e36-6bdf-492d-a3a5-f72b657962e0"},"vehicle_type_id":"4","last_reported":1737130236,"current_range_meters":9600,"station_id":"ce4bgvp2rcd13ifvqcu0","pricing_plan_id":"cebpf4jnsgd1na2vs0mg"},{"bike_id":"0b353c55-66e6-4ea4-94c9-b2435c25900d","system_id":"levelo_inurba_marseille","lat":43.28107,"lon":5.3784,"is_reserved":false,"is_disabled":false,"rental_uris":{"android":"levelo://app?vid=0b353c55-66e6-4ea4-94c9-b2435c25900d","ios":"levelo://app?vid=0b353c55-66e6-4ea4-94c9-b2435c25900d"},"vehicle_type_id":"4","last_reported":1737130236,"current_range_meters":32800,"station_id":"ce4bha12rcd13ifvqee0","pricing_plan_id":"cebpf4jnsgd1na2vs0mg"},{"bike_id":"4d14ea16-2504-4b5c-bffd-958a7b439d7f","system_id":"levelo_inurba_marseille","lat":43.31487,"lon":5.37297,"is_reserved":false,"is_disabled":false,"rental_uris":{"android":"levelo://app?vid=4d14ea16-2504-4b5c-bffd-958a7b439d7f","ios":"levelo://app?vid=4d14ea16-2504-4b5c-bffd-958a7b439d7f"},"vehicle_type_id":"4","last_reported":1737130236,"current_range_meters":4800,"station_id":"ce4bgt12rcd13ifvqcd0","pricing_plan_id":"cebpf4jnsgd1na2vs0mg"},{"bike_id":"c0761eff-368b-462f-a990-6347083446fa","system_id":"levelo_inurba_marseille","lat":43.22936,"lon":5.35376,"is_reserved":false,"is_disabled":false,"rental_uris":{"android":"levelo://app?vid=c0761eff-368b-462f-a990-6347083446fa","ios":"levelo://app?vid=c0761eff-368b-462f-a990-6347083446fa"},"vehicle_type_id":"4","last_reported":1737130236,"current_range_meters":20400,"station_id":"cpo3532slgdg3j2ikp40","pricing_plan_id":"cebpf4jnsgd1na2vs0mg"},{"bike_id":"242ce156-004f-44a4-999c-5530f5da8c4e","system_id":"levelo_inurba_marseille","lat":43.28646,"lon":5.40388,"is_reserved":false,"is_disabled":false,"rental_uris":{"android":"levelo://app?vid=242ce156-004f-44a4-999c-5530f5da8c4e","ios":"levelo://app?vid=242ce156-004f-44a4-999c-5530f5da8c4e"},"vehicle_type_id":"4","last_reported":1737130236,"current_range_meters":33600,"station_id":"","pricing_plan_id":"cebpf4jnsgd1na2vs0mg"},{"bike_id":"a81ea5b1-9317-453a-bcfd-4915654f0b73","system_id":"levelo_inurba_marseille","lat":43.32487,"lon":5.36563,"is_reserved":false,"is_disabled":false,"rental_uris":{"android":"levelo://app?vid=a81ea5b1-9317-453a-bcfd-4915654f0b73","ios":"levelo://app?vid=a81ea5b1-9317-453a-bcfd-4915654f0b73"},"vehicle_type_id":"4","last_reported":1737130236,"current_range_meters":38800,"station_id":"ce4bhs12rcd13ifvqhvg","pricing_plan_id":"cebpf4jnsgd1na2vs0mg"},{"bike_id":"70d37169-decc-47c9-b464-0478012cb526","system_id":"levelo_inurba_marseille","lat":43.27811,"lon":5.40707,"is_reserved":false,"is_disabled":false,"rental_uris":{"android":"levelo://app?vid=70d37169-decc-47c9-b464-0478012cb526","ios":"levelo://app?vid=70d37169-decc-47c9-b464-0478012cb526"},"vehicle_type_id":"4","last_reported":1737130236,"current_range_meters":3600,"station_id":"ce4bhnh2rcd13ifvqgtg","pricing_plan_id":"cebpf4jnsgd1na2vs0mg"},{"bike_id":"84ce54be-a8fd-4da8-97fd-174c81fd4e80","system_id":"levelo_inurba_marseille","lat":43.29215,"lon":5.36068,"is_reserved":false,"is_disabled":false,"rental_uris":{"android":"levelo://app?vid=84ce54be-a8fd-4da8-97fd-174c81fd4e80","ios":"levelo://app?vid=84ce54be-a8fd-4da8-97fd-174c81fd4e80"},"vehicle_type_id":"4","last_reported":1737130236,"current_range_meters":28000,"station_id":"ce4bhbh2rcd13ifvqeqg","pricing_plan_id":"cebpf4jnsgd1na2vs0mg"},{"bike_id":"3e3ba74b-11b7-4485-9098-2c3f96d619ff","system_id":"levelo_inurba_marseille","lat":43.29572,"lon":5.37514,"is_reserved":false,"is_disabled":false,"rental_uris":{"android":"levelo://app?vid=3e3ba74b-11b7-4485-9098-2c3f96d619ff","ios":"levelo://app?vid=3e3ba74b-11b7-4485-9098-2c3f96d619ff"},"vehicle_type_id":"4","last_reported":1737130236,"current_range_meters":30000,"station_id":"ce4bgh92rcd13ifvqb50","pricing_plan_id":"cebpf4jnsgd1na2vs0mg"},{"bike_id":"fa53afd0-c3c0-46c2-be7e-d056eb14f6b8","system_id":"levelo_inurba_marseille","lat":43.26098,"lon":5.39358,"is_reserved":false,"is_disabled":false,"rental_uris":{"android":"levelo://app?vid=fa53afd0-c3c0-46c2-be7e-d056eb14f6b8","ios":"levelo://app?vid=fa53afd0-c3c0-46c2-be7e-d056eb14f6b8"},"vehicle_type_id":"4","last_reported":1737130236,"current_range_meters":36000,"station_id":"ce4bhh92rcd13ifvqfj0","pricing_plan_id":"cebpf4jnsgd1na2vs0mg"},{"bike_id":"a0020e87-f021-47c3-9f76-ad458e7049f0","system_id":"levelo_inurba_marseille","lat":43.28271,"lon":5.35074,"is_reserved":false,"is_disabled":false,"rental_uris":{"android":"levelo://app?vid=a0020e87-f021-47c3-9f76-ad458e7049f0","ios":"levelo://app?vid=a0020e87-f021-47c3-9f76-ad458e7049f0"},"vehicle_type_id":"4","last_reported":1737130236,"current_range_meters":38800,"station_id":"ce4bhbp2rcd13ifvqerg","pricing_plan_id":"cebpf4jnsgd1na2vs0mg"},{"bike_id":"080cdd45-89f5-4852-8345-bc7d1f9ccc1a","system_id":"levelo_inurba_marseille","lat":43.29606,"lon":5.3771,"is_reserved":false,"is_disabled":false,"rental_uris":{"android":"levelo://app?vid=080cdd45-89f5-4852-8345-bc7d1f9ccc1a","ios":"levelo://app?vid=080cdd45-89f5-4852-8345-bc7d1f9ccc1a"},"vehicle_type_id":"4","last_reported":1737130236,"current_range_meters":38800,"station_id":"ce4bgi92rcd13ifvqb90","pricing_plan_id":"cebpf4jnsgd1na2vs0mg"},{"bike_id":"e15788f7-d2c1-4368-9bef-a76751232bcb","system_id":"levelo_inurba_marseille","lat":43.25114,"lon":5.40319,"is_reserved":false,"is_disabled":true,"rental_uris":{"android":"levelo://app?vid=e15788f7-d2c1-4368-9bef-a76751232bcb","ios":"levelo://app?vid=e15788f7-d2c1-4368-9bef-a76751232bcb"},"vehicle_type_id":"4","last_reported":1737130236,"current_range_meters":1600,"station_id":"ce4bhlh2rcd13ifvqgig","pricing_plan_id":"cebpf4jnsgd1na2vs0mg"},{"bike_id":"b481a069-add0-4d6b-b2dc-255c08074828","system_id":"levelo_inurba_marseille","lat":43.27913,"lon":5.39586,"is_reserved":false,"is_disabled":false,"rental_uris":{"android":"levelo://app?vid=b481a069-add0-4d6b-b2dc-255c08074828","ios":"levelo://app?vid=b481a069-add0-4d6b-b2dc-255c08074828"},"vehicle_type_id":"4","last_reported":1737130236,"current_range_meters":22000,"station_id":"ce4bhf92rcd13ifvqf40","pricing_plan_id":"cebpf4jnsgd1na2vs0mg"},{"bike_id":"30579412-b6f8-4825-8642-ca471e06d7d6","system_id":"levelo_inurba_marseille","lat":43.28665,"lon":5.36354,"is_reserved":false,"is_disabled":false,"rental_uris":{"android":"levelo://app?vid=30579412-b6f8-4825-8642-ca471e06d7d6","ios":"levelo://app?vid=30579412-b6f8-4825-8642-ca471e06d7d6"},"vehicle_type_id":"4","last_reported":1737130236,"current_range_meters":39200,"station_id":"ce4bhah2rcd13ifvqej0","pricing_plan_id":"cebpf4jnsgd1na2vs0mg"},{"bike_id":"ed05d91e-075f-4457-9cea-1cc457a72937","system_id":"levelo_inurba_marseille","lat":43.27366,"lon":5.36266,"is_reserved":false,"is_disabled":false,"rental_uris":{"android":"levelo://app?vid=ed05d91e-075f-4457-9cea-1cc457a72937","ios":"levelo://app?vid=ed05d91e-075f-4457-9cea-1cc457a72937"},"vehicle_type_id":"4","last_reported":1737130236,"current_range_meters":38800,"station_id":"ce4bhbh2rcd13ifvqeo0","pricing_plan_id":"cebpf4jnsgd1na2vs0mg"},{"bike_id":"94339a91-1380-4ff2-8f0e-ccc0d08795da","system_id":"levelo_inurba_marseille","lat":43.27367,"lon":5.36244,"is_reserved":false,"is_disabled":false,"rental_uris":{"android":"levelo://app?vid=94339a91-1380-4ff2-8f0e-ccc0d08795da","ios":"levelo://app?vid=94339a91-1380-4ff2-8f0e-ccc0d08795da"},"vehicle_type_id":"4","last_reported":1737130236,"current_range_meters":20800,"station_id":"ce4bhbh2rcd13ifvqeo0","pricing_plan_id":"cebpf4jnsgd1na2vs0mg"},{"bike_id":"e155dc60-5198-4d48-b1b3-0c54d5e1b4ad","system_id":"levelo_inurba_marseille","lat":43.29956,"lon":5.41329,"is_reserved":false,"is_disabled":false,"rental_uris":{"android":"levelo://app?vid=e155dc60-5198-4d48-b1b3-0c54d5e1b4ad","ios":"levelo://app?vid=e155dc60-5198-4d48-b1b3-0c54d5e1b4ad"},"vehicle_type_id":"4","last_reported":1737130236,"current_range_meters":32400,"station_id":"ce4bhp12rcd13ifvqh9g","pricing_plan_id":"cebpf4jnsgd1na2vs0mg"},{"bike_id":"2621ede8-bbba-4609-8bc2-749fe0ecf760","system_id":"levelo_inurba_marseille","lat":43.31272,"lon":5.40165,"is_reserved":false,"is_disabled":false,"rental_uris":{"android":"levelo://app?vid=2621ede8-bbba-4609-8bc2-749fe0ecf760","ios":"levelo://app?vid=2621ede8-bbba-4609-8bc2-749fe0ecf760"},"vehicle_type_id":"4","last_reported":1737130236,"current_range_meters":24400,"station_id":"ce4bh092rcd13ifvqd30","pricing_plan_id":"cebpf4jnsgd1na2vs0mg"},{"bike_id":"68b16402-cc45-4968-8f9d-dc1934439d60","system_id":"levelo_inurba_marseille","lat":43.28724,"lon":5.36092,"is_reserved":false,"is_disabled":false,"rental_uris":{"android":"levelo://app?vid=68b16402-cc45-4968-8f9d-dc1934439d60","ios":"levelo://app?vid=68b16402-cc45-4968-8f9d-dc1934439d60"},"vehicle_type_id":"4","last_reported":1737130236,"current_range_meters":9600,"station_id":"cki0cbj6b192h4jlfktg","pricing_plan_id":"cebpf4jnsgd1na2vs0mg"},{"bike_id":"b6b15eac-0d9c-4583-b37f-0f4d649fd5db","system_id":"levelo_inurba_marseille","lat":43.29866,"lon":5.39733,"is_reserved":false,"is_disabled":false,"rental_uris":{"android":"levelo://app?vid=b6b15eac-0d9c-4583-b37f-0f4d649fd5db","ios":"levelo://app?vid=b6b15eac-0d9c-4583-b37f-0f4d649fd5db"},"vehicle_type_id":"4","last_reported":1737130236,"current_range_meters":30400,"station_id":"ce4bh0h2rcd13ifvqd50","pricing_plan_id":"cebpf4jnsgd1na2vs0mg"},{"bike_id":"6ea4d259-06b8-4e0f-9494-4eae2040b46d","system_id":"levelo_inurba_marseille","lat":43.24183,"lon":5.39717,"is_reserved":false,"is_disabled":false,"rental_uris":{"android":"levelo://app?vid=6ea4d259-06b8-4e0f-9494-4eae2040b46d","ios":"levelo://app?vid=6ea4d259-06b8-4e0f-9494-4eae2040b46d"},"vehicle_type_id":"4","last_reported":1737130236,"current_range_meters":28000,"station_id":"ce4bhn12rcd13ifvqgpg","pricing_plan_id":"cebpf4jnsgd1na2vs0mg"},{"bike_id":"9fa313c1-3803-4f82-9336-0f6c26f892dc","system_id":"levelo_inurba_marseille","lat":43.27581,"lon":5.38438,"is_reserved":false,"is_disabled":false,"rental_uris":{"android":"levelo://app?vid=9fa313c1-3803-4f82-9336-0f6c26f892dc","ios":"levelo://app?vid=9fa313c1-3803-4f82-9336-0f6c26f892dc"},"vehicle_type_id":"4","last_reported":1737130236,"current_range_meters":14400,"station_id":"ce4bhh92rcd13ifvqfi0","pricing_plan_id":"cebpf4jnsgd1na2vs0mg"},{"bike_id":"ca226e4d-296a-4720-8e60-cfd383ce3ec7","system_id":"levelo_inurba_marseille","lat":43.26205,"lon":5.37419,"is_reserved":false,"is_disabled":false,"rental_uris":{"android":"levelo://app?vid=ca226e4d-296a-4720-8e60-cfd383ce3ec7","ios":"levelo://app?vid=ca226e4d-296a-4720-8e60-cfd383ce3ec7"},"vehicle_type_id":"4","last_reported":1737130236,"current_range_meters":38800,"station_id":"ce4bhgp2rcd13ifvqfc0","pricing_plan_id":"cebpf4jnsgd1na2vs0mg"},{"bike_id":"779c7544-8008-45b4-90ab-5090e6438dd4","system_id":"levelo_inurba_marseille","lat":43.24385,"lon":5.37058,"is_reserved":false,"is_disabled":false,"rental_uris":{"android":"levelo://app?vid=779c7544-8008-45b4-90ab-5090e6438dd4","ios":"levelo://app?vid=779c7544-8008-45b4-90ab-5090e6438dd4"},"vehicle_type_id":"4","last_reported":1737130236,"current_range_meters":17200,"station_id":"ce4bhhh2rcd13ifvqfk0","pricing_plan_id":"cebpf4jnsgd1na2vs0mg"},{"bike_id":"811a1ec0-366e-4fd8-8f3c-3e594a31f929","system_id":"levelo_inurba_marseille","lat":43.25577,"lon":5.38235,"is_reserved":false,"is_disabled":false,"rental_uris":{"android":"levelo://app?vid=811a1ec0-366e-4fd8-8f3c-3e594a31f929","ios":"levelo://app?vid=811a1ec0-366e-4fd8-8f3c-3e594a31f929"},"vehicle_type_id":"4","last_reported":1737130236,"current_range_meters":33200,"station_id":"ce4bhih2rcd13ifvqfs0","pricing_plan_id":"cebpf4jnsgd1na2vs0mg"},{"bike_id":"cb72cf41-6af3-4b45-a4e9-1c7a7f95efa1","system_id":"levelo_inurba_marseille","lat":43.31998,"lon":5.38107,"is_reserved":false,"is_disabled":false,"rental_uris":{"android":"levelo://app?vid=cb72cf41-6af3-4b45-a4e9-1c7a7f95efa1","ios":"levelo://app?vid=cb72cf41-6af3-4b45-a4e9-1c7a7f95efa1"},"vehicle_type_id":"4","last_reported":1737130236,"current_range_meters":38000,"station_id":"ce4bhr12rcd13ifvqhpg","pricing_plan_id":"cebpf4jnsgd1na2vs0mg"},{"bike_id":"891d5aa4-b1b0-4e0c-90ac-49e97bf9c382","system_id":"levelo_inurba_marseille","lat":43.23193,"lon":5.39998,"is_reserved":false,"is_disabled":false,"rental_uris":{"android":"levelo://app?vid=891d5aa4-b1b0-4e0c-90ac-49e97bf9c382","ios":"levelo://app?vid=891d5aa4-b1b0-4e0c-90ac-49e97bf9c382"},"vehicle_type_id":"4","last_reported":1737130236,"current_range_meters":33200,"station_id":"ce4bhn12rcd13ifvqgqg","pricing_plan_id":"cebpf4jnsgd1na2vs0mg"},{"bike_id":"aa243bc1-e860-4bbe-8f08-9cd6efc66578","system_id":"levelo_inurba_marseille","lat":43.27916,"lon":5.39583,"is_reserved":false,"is_disabled":false,"rental_uris":{"android":"levelo://app?vid=aa243bc1-e860-4bbe-8f08-9cd6efc66578","ios":"levelo://app?vid=aa243bc1-e860-4bbe-8f08-9cd6efc66578"},"vehicle_type_id":"4","last_reported":1737130236,"current_range_meters":24000,"station_id":"ce4bhf92rcd13ifvqf40","pricing_plan_id":"cebpf4jnsgd1na2vs0mg"},{"bike_id":"357eaeda-fef2-41f2-9ad0-621ae2cc5c09","system_id":"levelo_inurba_marseille","lat":43.33768,"lon":5.37496,"is_reserved":false,"is_disabled":false,"rental_uris":{"android":"levelo://app?vid=357eaeda-fef2-41f2-9ad0-621ae2cc5c09","ios":"levelo://app?vid=357eaeda-fef2-41f2-9ad0-621ae2cc5c09"},"vehicle_type_id":"4","last_reported":1737130236,"current_range_meters":35600,"station_id":"","pricing_plan_id":"cebpf4jnsgd1na2vs0mg"},{"bike_id":"2dba1e66-f604-4698-a5a5-97ce47ce5aaa","system_id":"levelo_inurba_marseille","lat":43.29073,"lon":5.38147,"is_reserved":false,"is_disabled":false,"rental_uris":{"android":"levelo://app?vid=2dba1e66-f604-4698-a5a5-97ce47ce5aaa","ios":"levelo://app?vid=2dba1e66-f604-4698-a5a5-97ce47ce5aaa"},"vehicle_type_id":"4","last_reported":1737130236,"current_range_meters":30400,"station_id":"ce4bh512rcd13ifvqe2g","pricing_plan_id":"cebpf4jnsgd1na2vs0mg"},{"bike_id":"7d7c6e4f-5aec-45d6-b067-405535de62de","system_id":"levelo_inurba_marseille","lat":43.2804,"lon":5.36946,"is_reserved":false,"is_disabled":false,"rental_uris":{"android":"levelo://app?vid=7d7c6e4f-5aec-45d6-b067-405535de62de","ios":"levelo://app?vid=7d7c6e4f-5aec-45d6-b067-405535de62de"},"vehicle_type_id":"4","last_reported":1737130236,"current_range_meters":29600,"station_id":"ce4bha12rcd13ifvqef0","pricing_plan_id":"cebpf4jnsgd1na2vs0mg"},{"bike_id":"44e46cfe-d758-4aea-8e6f-7526a7276d83","system_id":"levelo_inurba_marseille","lat":43.30528,"lon":5.38432,"is_reserved":false,"is_disabled":false,"rental_uris":{"android":"levelo://app?vid=44e46cfe-d758-4aea-8e6f-7526a7276d83","ios":"levelo://app?vid=44e46cfe-d758-4aea-8e6f-7526a7276d83"},"vehicle_type_id":"4","last_reported":1737130236,"current_range_meters":13600,"station_id":"ce4bgg92rcd13ifvqb30","pricing_plan_id":"cebpf4jnsgd1na2vs0mg"},{"bike_id":"bbd73dac-e0d6-4fae-ba50-910a0e4499d1","system_id":"levelo_inurba_marseille","lat":43.25514,"lon":5.3764,"is_reserved":false,"is_disabled":false,"rental_uris":{"android":"levelo://app?vid=bbd73dac-e0d6-4fae-ba50-910a0e4499d1","ios":"levelo://app?vid=bbd73dac-e0d6-4fae-ba50-910a0e4499d1"},"vehicle_type_id":"4","last_reported":1737130236,"current_range_meters":38800,"station_id":"ce4bhh12rcd13ifvqff0","pricing_plan_id":"cebpf4jnsgd1na2vs0mg"},{"bike_id":"c5f1b8f4-b8b7-498b-b7f3-f8d34fc55749","system_id":"levelo_inurba_marseille","lat":43.25496,"lon":5.37653,"is_reserved":false,"is_disabled":false,"rental_uris":{"android":"levelo://app?vid=c5f1b8f4-b8b7-498b-b7f3-f8d34fc55749","ios":"levelo://app?vid=c5f1b8f4-b8b7-498b-b7f3-f8d34fc55749"},"vehicle_type_id":"4","last_reported":1737130236,"current_range_meters":15200,"station_id":"ce4bhh12rcd13ifvqff0","pricing_plan_id":"cebpf4jnsgd1na2vs0mg"},{"bike_id":"a3481508-ce2e-4c76-9a11-8afdc3faeca9","system_id":"levelo_inurba_marseille","lat":43.30557,"lon":5.36525,"is_reserved":false,"is_disabled":false,"rental_uris":{"android":"levelo://app?vid=a3481508-ce2e-4c76-9a11-8afdc3faeca9","ios":"levelo://app?vid=a3481508-ce2e-4c76-9a11-8afdc3faeca9"},"vehicle_type_id":"4","last_reported":1737130236,"current_range_meters":38800,"station_id":"ce4bgs12rcd13ifvqcag","pricing_plan_id":"cebpf4jnsgd1na2vs0mg"},{"bike_id":"07ef5ecd-212f-4453-bb7a-be715a102807","system_id":"levelo_inurba_marseille","lat":43.30132,"lon":5.38792,"is_reserved":false,"is_disabled":false,"rental_uris":{"android":"levelo://app?vid=07ef5ecd-212f-4453-bb7a-be715a102807","ios":"levelo://app?vid=07ef5ecd-212f-4453-bb7a-be715a102807"},"vehicle_type_id":"4","last_reported":1737130236,"current_range_meters":16400,"station_id":"ce4bhoh2rcd13ifvqh6g","pricing_plan_id":"cebpf4jnsgd1na2vs0mg"},{"bike_id":"610aa476-15ab-4590-9b53-9001ce034d4b","system_id":"levelo_inurba_marseille","lat":43.28622,"lon":5.35102,"is_reserved":false,"is_disabled":false,"rental_uris":{"android":"levelo://app?vid=610aa476-15ab-4590-9b53-9001ce034d4b","ios":"levelo://app?vid=610aa476-15ab-4590-9b53-9001ce034d4b"},"vehicle_type_id":"4","last_reported":1737130236,"current_range_meters":24800,"station_id":"ce4bhch2rcd13ifvqeug","pricing_plan_id":"cebpf4jnsgd1na2vs0mg"},{"bike_id":"2a4a06c1-1f75-40c1-99b1-c5f88271337a","system_id":"levelo_inurba_marseille","lat":43.29927,"lon":5.3654,"is_reserved":false,"is_disabled":false,"rental_uris":{"android":"levelo://app?vid=2a4a06c1-1f75-40c1-99b1-c5f88271337a","ios":"levelo://app?vid=2a4a06c1-1f75-40c1-99b1-c5f88271337a"},"vehicle_type_id":"4","last_reported":1737130236,"current_range_meters":36800,"station_id":"ce4bgm92rcd13ifvqbr0","pricing_plan_id":"cebpf4jnsgd1na2vs0mg"},{"bike_id":"9be957d2-26d1-49a4-9f85-b06ee3432064","system_id":"levelo_inurba_marseille","lat":43.33734,"lon":5.39195,"is_reserved":false,"is_disabled":false,"rental_uris":{"android":"levelo://app?vid=9be957d2-26d1-49a4-9f85-b06ee3432064","ios":"levelo://app?vid=9be957d2-26d1-49a4-9f85-b06ee3432064"},"vehicle_type_id":"4","last_reported":1737130236,"current_range_meters":29600,"station_id":"ce4bhr92rcd13ifvqhsg","pricing_plan_id":"cebpf4jnsgd1na2vs0mg"},{"bike_id":"7b3f726a-e89c-4fb5-ae69-65cda632a0f4","system_id":"levelo_inurba_marseille","lat":43.33723,"lon":5.39189,"is_reserved":false,"is_disabled":false,"rental_uris":{"android":"levelo://app?vid=7b3f726a-e89c-4fb5-ae69-65cda632a0f4","ios":"levelo://app?vid=7b3f726a-e89c-4fb5-ae69-65cda632a0f4"},"vehicle_type_id":"4","last_reported":1737130236,"current_range_meters":27600,"station_id":"ce4bhr92rcd13ifvqhsg","pricing_plan_id":"cebpf4jnsgd1na2vs0mg"},{"bike_id":"835e4257-46ea-477e-bf87-856e8c43e7a0","system_id":"levelo_inurba_marseille","lat":43.32351,"lon":5.40599,"is_reserved":false,"is_disabled":false,"rental_uris":{"android":"levelo://app?vid=835e4257-46ea-477e-bf87-856e8c43e7a0","ios":"levelo://app?vid=835e4257-46ea-477e-bf87-856e8c43e7a0"},"vehicle_type_id":"4","last_reported":1737130236,"current_range_meters":38800,"station_id":"ce4bhq92rcd13ifvqhjg","pricing_plan_id":"cebpf4jnsgd1na2vs0mg"},{"bike_id":"93eaaa03-9c47-4080-88a3-408e4b6ee6c4","system_id":"levelo_inurba_marseille","lat":43.30893,"lon":5.37227,"is_reserved":false,"is_disabled":true,"rental_uris":{"android":"levelo://app?vid=93eaaa03-9c47-4080-88a3-408e4b6ee6c4","ios":"levelo://app?vid=93eaaa03-9c47-4080-88a3-408e4b6ee6c4"},"vehicle_type_id":"4","last_reported":1737130236,"current_range_meters":2000,"station_id":"ce4bguh2rcd13ifvqckg","pricing_plan_id":"cebpf4jnsgd1na2vs0mg"},{"bike_id":"4f2b33bf-5340-41d8-832a-14d80612ba43","system_id":"levelo_inurba_marseille","lat":43.25084,"lon":5.39513,"is_reserved":false,"is_disabled":false,"rental_uris":{"android":"levelo://app?vid=4f2b33bf-5340-41d8-832a-14d80612ba43","ios":"levelo://app?vid=4f2b33bf-5340-41d8-832a-14d80612ba43"},"vehicle_type_id":"4","last_reported":1737130236,"current_range_meters":38800,"station_id":"ce4bhm12rcd13ifvqgkg","pricing_plan_id":"cebpf4jnsgd1na2vs0mg"},{"bike_id":"cc880e0d-6f87-4de7-8b8a-eeaf9408ac92","system_id":"levelo_inurba_marseille","lat":43.27558,"lon":5.38408,"is_reserved":false,"is_disabled":false,"rental_uris":{"android":"levelo://app?vid=cc880e0d-6f87-4de7-8b8a-eeaf9408ac92","ios":"levelo://app?vid=cc880e0d-6f87-4de7-8b8a-eeaf9408ac92"},"vehicle_type_id":"4","last_reported":1737130236,"current_range_meters":35200,"station_id":"ce4bhh92rcd13ifvqfi0","pricing_plan_id":"cebpf4jnsgd1na2vs0mg"},{"bike_id":"6c8f3bc5-2a28-4b20-bc99-fbe5e581640c","system_id":"levelo_inurba_marseille","lat":43.28706,"lon":5.37383,"is_reserved":false,"is_disabled":false,"rental_uris":{"android":"levelo://app?vid=6c8f3bc5-2a28-4b20-bc99-fbe5e581640c","ios":"levelo://app?vid=6c8f3bc5-2a28-4b20-bc99-fbe5e581640c"},"vehicle_type_id":"4","last_reported":1737130236,"current_range_meters":36400,"station_id":"ce4bh3p2rcd13ifvqdq0","pricing_plan_id":"cebpf4jnsgd1na2vs0mg"},{"bike_id":"8af820f0-f534-4db6-8f72-ecc33e8fcd33","system_id":"levelo_inurba_marseille","lat":43.30793,"lon":5.37651,"is_reserved":false,"is_disabled":false,"rental_uris":{"android":"levelo://app?vid=8af820f0-f534-4db6-8f72-ecc33e8fcd33","ios":"levelo://app?vid=8af820f0-f534-4db6-8f72-ecc33e8fcd33"},"vehicle_type_id":"4","last_reported":1737130236,"current_range_meters":34000,"station_id":"ce4bgv92rcd13ifvqcq0","pricing_plan_id":"cebpf4jnsgd1na2vs0mg"},{"bike_id":"2bab2656-2273-47b4-807d-8584afd68d60","system_id":"levelo_inurba_marseille","lat":43.31362,"lon":5.38499,"is_reserved":false,"is_disabled":false,"rental_uris":{"android":"levelo://app?vid=2bab2656-2273-47b4-807d-8584afd68d60","ios":"levelo://app?vid=2bab2656-2273-47b4-807d-8584afd68d60"},"vehicle_type_id":"4","last_reported":1737130236,"current_range_meters":39200,"station_id":"ce4bgt92rcd13ifvqcf0","pricing_plan_id":"cebpf4jnsgd1na2vs0mg"},{"bike_id":"8850e6e9-607c-4707-a35e-396796b7213c","system_id":"levelo_inurba_marseille","lat":43.25577,"lon":5.38235,"is_reserved":false,"is_disabled":true,"rental_uris":{"android":"levelo://app?vid=8850e6e9-607c-4707-a35e-396796b7213c","ios":"levelo://app?vid=8850e6e9-607c-4707-a35e-396796b7213c"},"vehicle_type_id":"4","last_reported":1737130236,"current_range_meters":0,"station_id":"ce4bhih2rcd13ifvqfs0","pricing_plan_id":"cebpf4jnsgd1na2vs0mg"},{"bike_id":"2f4bf420-3325-488b-a54b-1f6887aa9595","system_id":"levelo_inurba_marseille","lat":43.28642,"lon":5.4039,"is_reserved":false,"is_disabled":false,"rental_uris":{"android":"levelo://app?vid=2f4bf420-3325-488b-a54b-1f6887aa9595","ios":"levelo://app?vid=2f4bf420-3325-488b-a54b-1f6887aa9595"},"vehicle_type_id":"4","last_reported":1737130236,"current_range_meters":29600,"station_id":"","pricing_plan_id":"cebpf4jnsgd1na2vs0mg"},{"bike_id":"72ee35ea-34ee-4b89-a819-27a2e564f7ec","system_id":"levelo_inurba_marseille","lat":43.25829,"lon":5.39432,"is_reserved":false,"is_disabled":false,"rental_uris":{"android":"levelo://app?vid=72ee35ea-34ee-4b89-a819-27a2e564f7ec","ios":"levelo://app?vid=72ee35ea-34ee-4b89-a819-27a2e564f7ec"},"vehicle_type_id":"4","last_reported":1737130236,"current_range_meters":16800,"station_id":"ce4bhip2rcd13ifvqft0","pricing_plan_id":"cebpf4jnsgd1na2vs0mg"},{"bike_id":"dabaa9ed-d73a-4f65-a26e-437d029e622e","system_id":"levelo_inurba_marseille","lat":43.3067,"lon":5.40078,"is_reserved":false,"is_disabled":false,"rental_uris":{"android":"levelo://app?vid=dabaa9ed-d73a-4f65-a26e-437d029e622e","ios":"levelo://app?vid=dabaa9ed-d73a-4f65-a26e-437d029e622e"},"vehicle_type_id":"4","last_reported":1737130236,"current_range_meters":11200,"station_id":"ce4bh112rcd13ifvqda0","pricing_plan_id":"cebpf4jnsgd1na2vs0mg"},{"bike_id":"4e396b93-4dd7-4cda-8395-278f5c5c4f46","system_id":"levelo_inurba_marseille","lat":43.2953,"lon":5.38547,"is_reserved":false,"is_disabled":false,"rental_uris":{"android":"levelo://app?vid=4e396b93-4dd7-4cda-8395-278f5c5c4f46","ios":"levelo://app?vid=4e396b93-4dd7-4cda-8395-278f5c5c4f46"},"vehicle_type_id":"4","last_reported":1737130236,"current_range_meters":2800,"station_id":"ce4bgih2rcd13ifvqba0","pricing_plan_id":"cebpf4jnsgd1na2vs0mg"},{"bike_id":"b2269802-94da-4df1-a94f-c0120e22dfba","system_id":"levelo_inurba_marseille","lat":43.23066,"lon":5.35496,"is_reserved":false,"is_disabled":false,"rental_uris":{"android":"levelo://app?vid=b2269802-94da-4df1-a94f-c0120e22dfba","ios":"levelo://app?vid=b2269802-94da-4df1-a94f-c0120e22dfba"},"vehicle_type_id":"4","last_reported":1737130236,"current_range_meters":20400,"station_id":"cpo3342slgdg3j2ifvpg","pricing_plan_id":"cebpf4jnsgd1na2vs0mg"},{"bike_id":"f2550af3-25a7-4872-a652-0f167a56785d","system_id":"levelo_inurba_marseille","lat":43.279093,"lon":5.380063,"is_reserved":false,"is_disabled":false,"rental_uris":{"android":"levelo://app?vid=f2550af3-25a7-4872-a652-0f167a56785d","ios":"levelo://app?vid=f2550af3-25a7-4872-a652-0f167a56785d"},"vehicle_type_id":"4","last_reported":1737130236,"current_range_meters":36000,"station_id":"ce4bhf92rcd13ifvqf50","pricing_plan_id":"cebpf4jnsgd1na2vs0mg"},{"bike_id":"f4a4a406-b0a5-42fc-9236-32e93ac6f6b2","system_id":"levelo_inurba_marseille","lat":43.23159,"lon":5.43701,"is_reserved":false,"is_disabled":true,"rental_uris":{"android":"levelo://app?vid=f4a4a406-b0a5-42fc-9236-32e93ac6f6b2","ios":"levelo://app?vid=f4a4a406-b0a5-42fc-9236-32e93ac6f6b2"},"vehicle_type_id":"4","last_reported":1737130236,"current_range_meters":33200,"station_id":"ce4bhmp2rcd13ifvqgog","pricing_plan_id":"cebpf4jnsgd1na2vs0mg"},{"bike_id":"e9f88ade-a4c7-4862-9e4b-788e4d7ba7b7","system_id":"levelo_inurba_marseille","lat":43.31721,"lon":5.42396,"is_reserved":false,"is_disabled":false,"rental_uris":{"android":"levelo://app?vid=e9f88ade-a4c7-4862-9e4b-788e4d7ba7b7","ios":"levelo://app?vid=e9f88ade-a4c7-4862-9e4b-788e4d7ba7b7"},"vehicle_type_id":"4","last_reported":1737130236,"current_range_meters":28000,"station_id":"ce4bhp92rcd13ifvqhbg","pricing_plan_id":"cebpf4jnsgd1na2vs0mg"},{"bike_id":"5d44b428-73f2-4318-acb1-07f87cea294f","system_id":"levelo_inurba_marseille","lat":43.29717,"lon":5.37688,"is_reserved":false,"is_disabled":false,"rental_uris":{"android":"levelo://app?vid=5d44b428-73f2-4318-acb1-07f87cea294f","ios":"levelo://app?vid=5d44b428-73f2-4318-acb1-07f87cea294f"},"vehicle_type_id":"4","last_reported":1737130236,"current_range_meters":16400,"station_id":"ce4bgkh2rcd13ifvqbl0","pricing_plan_id":"cebpf4jnsgd1na2vs0mg"},{"bike_id":"10d4a44b-4ac4-4905-b7ec-86d014e96ec1","system_id":"levelo_inurba_marseille","lat":43.32475,"lon":5.3657,"is_reserved":false,"is_disabled":false,"rental_uris":{"android":"levelo://app?vid=10d4a44b-4ac4-4905-b7ec-86d014e96ec1","ios":"levelo://app?vid=10d4a44b-4ac4-4905-b7ec-86d014e96ec1"},"vehicle_type_id":"4","last_reported":1737130236,"current_range_meters":29600,"station_id":"ce4bhs12rcd13ifvqhvg","pricing_plan_id":"cebpf4jnsgd1na2vs0mg"},{"bike_id":"1aba7640-b263-49c3-8156-b6c98d8edd68","system_id":"levelo_inurba_marseille","lat":43.2907,"lon":5.3717,"is_reserved":false,"is_disabled":false,"rental_uris":{"android":"levelo://app?vid=1aba7640-b263-49c3-8156-b6c98d8edd68","ios":"levelo://app?vid=1aba7640-b263-49c3-8156-b6c98d8edd68"},"vehicle_type_id":"4","last_reported":1737130236,"current_range_meters":11600,"station_id":"ce4bh5p2rcd13ifvqe4g","pricing_plan_id":"cebpf4jnsgd1na2vs0mg"},{"bike_id":"9fd6c1c3-8362-4be1-b3ce-b4fbafe9d57e","system_id":"levelo_inurba_marseille","lat":43.25581,"lon":5.38228,"is_reserved":false,"is_disabled":false,"rental_uris":{"android":"levelo://app?vid=9fd6c1c3-8362-4be1-b3ce-b4fbafe9d57e","ios":"levelo://app?vid=9fd6c1c3-8362-4be1-b3ce-b4fbafe9d57e"},"vehicle_type_id":"4","last_reported":1737130236,"current_range_meters":26000,"station_id":"ce4bhih2rcd13ifvqfs0","pricing_plan_id":"cebpf4jnsgd1na2vs0mg"},{"bike_id":"678e6c21-ae33-4211-9534-682ad57c39c7","system_id":"levelo_inurba_marseille","lat":43.23189,"lon":5.39997,"is_reserved":false,"is_disabled":false,"rental_uris":{"android":"levelo://app?vid=678e6c21-ae33-4211-9534-682ad57c39c7","ios":"levelo://app?vid=678e6c21-ae33-4211-9534-682ad57c39c7"},"vehicle_type_id":"4","last_reported":1737130236,"current_range_meters":13600,"station_id":"ce4bhn12rcd13ifvqgqg","pricing_plan_id":"cebpf4jnsgd1na2vs0mg"},{"bike_id":"67c549d5-ce81-408a-a146-d43915340e7f","system_id":"levelo_inurba_marseille","lat":43.33723,"lon":5.39184,"is_reserved":false,"is_disabled":false,"rental_uris":{"android":"levelo://app?vid=67c549d5-ce81-408a-a146-d43915340e7f","ios":"levelo://app?vid=67c549d5-ce81-408a-a146-d43915340e7f"},"vehicle_type_id":"4","last_reported":1737130236,"current_range_meters":38800,"station_id":"ce4bhr92rcd13ifvqhsg","pricing_plan_id":"cebpf4jnsgd1na2vs0mg"},{"bike_id":"fa546e5c-a68a-4a86-a5bb-1d856af38d7e","system_id":"levelo_inurba_marseille","lat":43.23564,"lon":5.43619,"is_reserved":false,"is_disabled":true,"rental_uris":{"android":"levelo://app?vid=fa546e5c-a68a-4a86-a5bb-1d856af38d7e","ios":"levelo://app?vid=fa546e5c-a68a-4a86-a5bb-1d856af38d7e"},"vehicle_type_id":"4","last_reported":1737130236,"current_range_meters":0,"station_id":"","pricing_plan_id":"cebpf4jnsgd1na2vs0mg"},{"bike_id":"f7e656a6-8194-49aa-92c5-4a13188e4018","system_id":"levelo_inurba_marseille","lat":43.31325,"lon":5.39701,"is_reserved":false,"is_disabled":false,"rental_uris":{"android":"levelo://app?vid=f7e656a6-8194-49aa-92c5-4a13188e4018","ios":"levelo://app?vid=f7e656a6-8194-49aa-92c5-4a13188e4018"},"vehicle_type_id":"4","last_reported":1737130236,"current_range_meters":32400,"station_id":"ce4bgvp2rcd13ifvqcu0","pricing_plan_id":"cebpf4jnsgd1na2vs0mg"},{"bike_id":"811c3102-f3c9-45b6-94de-c3c061fda0d3","system_id":"levelo_inurba_marseille","lat":43.29781,"lon":5.37094,"is_reserved":false,"is_disabled":false,"rental_uris":{"android":"levelo://app?vid=811c3102-f3c9-45b6-94de-c3c061fda0d3","ios":"levelo://app?vid=811c3102-f3c9-45b6-94de-c3c061fda0d3"},"vehicle_type_id":"4","last_reported":1737130236,"current_range_meters":25600,"station_id":"ce4bgop2rcd13ifvqc1g","pricing_plan_id":"cebpf4jnsgd1na2vs0mg"},{"bike_id":"a2632480-574f-49d3-a0a6-57f27301ead8","system_id":"levelo_inurba_marseille","lat":43.30789,"lon":5.37662,"is_reserved":false,"is_disabled":false,"rental_uris":{"android":"levelo://app?vid=a2632480-574f-49d3-a0a6-57f27301ead8","ios":"levelo://app?vid=a2632480-574f-49d3-a0a6-57f27301ead8"},"vehicle_type_id":"4","last_reported":1737130236,"current_range_meters":38400,"station_id":"ce4bgv92rcd13ifvqcq0","pricing_plan_id":"cebpf4jnsgd1na2vs0mg"},{"bike_id":"77783784-6590-47af-8a98-6a097470bc1c","system_id":"levelo_inurba_marseille","lat":43.30429,"lon":5.38905,"is_reserved":false,"is_disabled":true,"rental_uris":{"android":"levelo://app?vid=77783784-6590-47af-8a98-6a097470bc1c","ios":"levelo://app?vid=77783784-6590-47af-8a98-6a097470bc1c"},"vehicle_type_id":"4","last_reported":1737130236,"current_range_meters":1200,"station_id":"ce4bgk12rcd13ifvqbi0","pricing_plan_id":"cebpf4jnsgd1na2vs0mg"},{"bike_id":"34709e64-d1c8-4538-88a5-33805792c0a5","system_id":"levelo_inurba_marseille","lat":43.25837,"lon":5.3943,"is_reserved":false,"is_disabled":false,"rental_uris":{"android":"levelo://app?vid=34709e64-d1c8-4538-88a5-33805792c0a5","ios":"levelo://app?vid=34709e64-d1c8-4538-88a5-33805792c0a5"},"vehicle_type_id":"4","last_reported":1737130236,"current_range_meters":38000,"station_id":"ce4bhip2rcd13ifvqft0","pricing_plan_id":"cebpf4jnsgd1na2vs0mg"},{"bike_id":"d4c5158e-511e-4c0e-af6f-6a3bbf5cc0e5","system_id":"levelo_inurba_marseille","lat":43.271255,"lon":5.422335,"is_reserved":false,"is_disabled":true,"rental_uris":{"android":"levelo://app?vid=d4c5158e-511e-4c0e-af6f-6a3bbf5cc0e5","ios":"levelo://app?vid=d4c5158e-511e-4c0e-af6f-6a3bbf5cc0e5"},"vehicle_type_id":"4","last_reported":1737130236,"current_range_meters":0,"station_id":"","pricing_plan_id":"cebpf4jnsgd1na2vs0mg"},{"bike_id":"8067e2c8-91e1-4b01-955b-cb47a104e7dc","system_id":"levelo_inurba_marseille","lat":43.24175,"lon":5.39722,"is_reserved":false,"is_disabled":false,"rental_uris":{"android":"levelo://app?vid=8067e2c8-91e1-4b01-955b-cb47a104e7dc","ios":"levelo://app?vid=8067e2c8-91e1-4b01-955b-cb47a104e7dc"},"vehicle_type_id":"4","last_reported":1737130236,"current_range_meters":26800,"station_id":"ce4bhn12rcd13ifvqgpg","pricing_plan_id":"cebpf4jnsgd1na2vs0mg"},{"bike_id":"a54a8cbb-0561-422b-8a0e-7e66bd035e42","system_id":"levelo_inurba_marseille","lat":43.295677,"lon":5.375167,"is_reserved":false,"is_disabled":false,"rental_uris":{"android":"levelo://app?vid=a54a8cbb-0561-422b-8a0e-7e66bd035e42","ios":"levelo://app?vid=a54a8cbb-0561-422b-8a0e-7e66bd035e42"},"vehicle_type_id":"4","last_reported":1737130236,"current_range_meters":25600,"station_id":"ce4bgh92rcd13ifvqb50","pricing_plan_id":"cebpf4jnsgd1na2vs0mg"},{"bike_id":"cdf3fd72-4a63-43b4-9bc1-d38460457b8f","system_id":"levelo_inurba_marseille","lat":43.29574,"lon":5.39973,"is_reserved":false,"is_disabled":false,"rental_uris":{"android":"levelo://app?vid=cdf3fd72-4a63-43b4-9bc1-d38460457b8f","ios":"levelo://app?vid=cdf3fd72-4a63-43b4-9bc1-d38460457b8f"},"vehicle_type_id":"4","last_reported":1737130236,"current_range_meters":17200,"station_id":"ce4bh312rcd13ifvqdj0","pricing_plan_id":"cebpf4jnsgd1na2vs0mg"},{"bike_id":"f1a999be-1a78-4477-a9d1-a2eb96d2a93d","system_id":"levelo_inurba_marseille","lat":43.27944,"lon":5.4105,"is_reserved":false,"is_disabled":false,"rental_uris":{"android":"levelo://app?vid=f1a999be-1a78-4477-a9d1-a2eb96d2a93d","ios":"levelo://app?vid=f1a999be-1a78-4477-a9d1-a2eb96d2a93d"},"vehicle_type_id":"4","last_reported":1737130236,"current_range_meters":6800,"station_id":"ce4bhnp2rcd13ifvqh0g","pricing_plan_id":"cebpf4jnsgd1na2vs0mg"},{"bike_id":"f8aad85d-54d6-4ca2-81ac-46c1a831eb57","system_id":"levelo_inurba_marseille","lat":43.28081,"lon":5.39651,"is_reserved":false,"is_disabled":false,"rental_uris":{"android":"levelo://app?vid=f8aad85d-54d6-4ca2-81ac-46c1a831eb57","ios":"levelo://app?vid=f8aad85d-54d6-4ca2-81ac-46c1a831eb57"},"vehicle_type_id":"4","last_reported":1737130236,"current_range_meters":38800,"station_id":"ce4bho12rcd13ifvqh2g","pricing_plan_id":"cebpf4jnsgd1na2vs0mg"},{"bike_id":"3aeca082-adf3-4ec9-b818-f3e76ca43c75","system_id":"levelo_inurba_marseille","lat":43.28609,"lon":5.35112,"is_reserved":false,"is_disabled":false,"rental_uris":{"android":"levelo://app?vid=3aeca082-adf3-4ec9-b818-f3e76ca43c75","ios":"levelo://app?vid=3aeca082-adf3-4ec9-b818-f3e76ca43c75"},"vehicle_type_id":"4","last_reported":1737130236,"current_range_meters":38800,"station_id":"ce4bhch2rcd13ifvqeug","pricing_plan_id":"cebpf4jnsgd1na2vs0mg"},{"bike_id":"e6982ea7-1cbf-4fe7-852d-b74aa8fc048d","system_id":"levelo_inurba_marseille","lat":43.27941,"lon":5.41044,"is_reserved":false,"is_disabled":false,"rental_uris":{"android":"levelo://app?vid=e6982ea7-1cbf-4fe7-852d-b74aa8fc048d","ios":"levelo://app?vid=e6982ea7-1cbf-4fe7-852d-b74aa8fc048d"},"vehicle_type_id":"4","last_reported":1737130236,"current_range_meters":36400,"station_id":"ce4bhnp2rcd13ifvqh0g","pricing_plan_id":"cebpf4jnsgd1na2vs0mg"},{"bike_id":"56b8e9bc-f750-4815-bc98-9098414d16db","system_id":"levelo_inurba_marseille","lat":43.23183,"lon":5.35537,"is_reserved":false,"is_disabled":true,"rental_uris":{"android":"levelo://app?vid=56b8e9bc-f750-4815-bc98-9098414d16db","ios":"levelo://app?vid=56b8e9bc-f750-4815-bc98-9098414d16db"},"vehicle_type_id":"4","last_reported":1737130236,"current_range_meters":0,"station_id":"ce4bhu92rcd13ifvqi70","pricing_plan_id":"cebpf4jnsgd1na2vs0mg"},{"bike_id":"24204782-0002-49d4-adad-45f261d8e197","system_id":"levelo_inurba_marseille","lat":43.3064,"lon":5.40102,"is_reserved":false,"is_disabled":false,"rental_uris":{"android":"levelo://app?vid=24204782-0002-49d4-adad-45f261d8e197","ios":"levelo://app?vid=24204782-0002-49d4-adad-45f261d8e197"},"vehicle_type_id":"4","last_reported":1737130236,"current_range_meters":34000,"station_id":"ce4bh112rcd13ifvqda0","pricing_plan_id":"cebpf4jnsgd1na2vs0mg"},{"bike_id":"6ce30937-3502-4d73-b430-5e6f85caaa1f","system_id":"levelo_inurba_marseille","lat":43.28941,"lon":5.36641,"is_reserved":false,"is_disabled":false,"rental_uris":{"android":"levelo://app?vid=6ce30937-3502-4d73-b430-5e6f85caaa1f","ios":"levelo://app?vid=6ce30937-3502-4d73-b430-5e6f85caaa1f"},"vehicle_type_id":"4","last_reported":1737130236,"current_range_meters":30000,"station_id":"ce4bhap2rcd13ifvqek0","pricing_plan_id":"cebpf4jnsgd1na2vs0mg"},{"bike_id":"fe61bab4-2147-46ac-96bc-5b15a0832ed3","system_id":"levelo_inurba_marseille","lat":43.23156,"lon":5.43709,"is_reserved":false,"is_disabled":true,"rental_uris":{"android":"levelo://app?vid=fe61bab4-2147-46ac-96bc-5b15a0832ed3","ios":"levelo://app?vid=fe61bab4-2147-46ac-96bc-5b15a0832ed3"},"vehicle_type_id":"4","last_reported":1737130236,"current_range_meters":0,"station_id":"ce4bhmp2rcd13ifvqgog","pricing_plan_id":"cebpf4jnsgd1na2vs0mg"},{"bike_id":"89f094a3-84a6-4a3f-a7be-368eadfc0b2d","system_id":"levelo_inurba_marseille","lat":43.25726,"lon":5.41106,"is_reserved":false,"is_disabled":true,"rental_uris":{"android":"levelo://app?vid=89f094a3-84a6-4a3f-a7be-368eadfc0b2d","ios":"levelo://app?vid=89f094a3-84a6-4a3f-a7be-368eadfc0b2d"},"vehicle_type_id":"4","last_reported":1737130236,"current_range_meters":1600,"station_id":"ce4bhkp2rcd13ifvqgd0","pricing_plan_id":"cebpf4jnsgd1na2vs0mg"},{"bike_id":"1b0abdf0-ebc9-477b-9a5c-20d604bc88e3","system_id":"levelo_inurba_marseille","lat":43.25083,"lon":5.39508,"is_reserved":false,"is_disabled":false,"rental_uris":{"android":"levelo://app?vid=1b0abdf0-ebc9-477b-9a5c-20d604bc88e3","ios":"levelo://app?vid=1b0abdf0-ebc9-477b-9a5c-20d604bc88e3"},"vehicle_type_id":"4","last_reported":1737130236,"current_range_meters":39200,"station_id":"ce4bhm12rcd13ifvqgkg","pricing_plan_id":"cebpf4jnsgd1na2vs0mg"},{"bike_id":"8b843e76-bd96-4595-ab72-80ffcae76728","system_id":"levelo_inurba_marseille","lat":43.30553,"lon":5.36537,"is_reserved":false,"is_disabled":false,"rental_uris":{"android":"levelo://app?vid=8b843e76-bd96-4595-ab72-80ffcae76728","ios":"levelo://app?vid=8b843e76-bd96-4595-ab72-80ffcae76728"},"vehicle_type_id":"4","last_reported":1737130236,"current_range_meters":16800,"station_id":"ce4bgs12rcd13ifvqcag","pricing_plan_id":"cebpf4jnsgd1na2vs0mg"},{"bike_id":"06e0e151-f6f8-48f7-a8db-8d62a3b6f9ea","system_id":"levelo_inurba_marseille","lat":43.30895,"lon":5.37178,"is_reserved":false,"is_disabled":false,"rental_uris":{"android":"levelo://app?vid=06e0e151-f6f8-48f7-a8db-8d62a3b6f9ea","ios":"levelo://app?vid=06e0e151-f6f8-48f7-a8db-8d62a3b6f9ea"},"vehicle_type_id":"4","last_reported":1737130236,"current_range_meters":38800,"station_id":"ce4bguh2rcd13ifvqckg","pricing_plan_id":"cebpf4jnsgd1na2vs0mg"},{"bike_id":"c064221e-b2fb-40f3-9ad5-a63631d24a75","system_id":"levelo_inurba_marseille","lat":43.32662,"lon":5.40988,"is_reserved":false,"is_disabled":false,"rental_uris":{"android":"levelo://app?vid=c064221e-b2fb-40f3-9ad5-a63631d24a75","ios":"levelo://app?vid=c064221e-b2fb-40f3-9ad5-a63631d24a75"},"vehicle_type_id":"4","last_reported":1737130236,"current_range_meters":12400,"station_id":"ce4bhpp2rcd13ifvqhgg","pricing_plan_id":"cebpf4jnsgd1na2vs0mg"},{"bike_id":"22465212-93af-4e0b-b803-6ee82bba56d5","system_id":"levelo_inurba_marseille","lat":43.33763,"lon":5.37492,"is_reserved":false,"is_disabled":false,"rental_uris":{"android":"levelo://app?vid=22465212-93af-4e0b-b803-6ee82bba56d5","ios":"levelo://app?vid=22465212-93af-4e0b-b803-6ee82bba56d5"},"vehicle_type_id":"4","last_reported":1737130236,"current_range_meters":32800,"station_id":"","pricing_plan_id":"cebpf4jnsgd1na2vs0mg"},{"bike_id":"57d28b69-a629-4d00-8952-ad3637220644","system_id":"levelo_inurba_marseille","lat":43.29654,"lon":5.37119,"is_reserved":false,"is_disabled":false,"rental_uris":{"android":"levelo://app?vid=57d28b69-a629-4d00-8952-ad3637220644","ios":"levelo://app?vid=57d28b69-a629-4d00-8952-ad3637220644"},"vehicle_type_id":"4","last_reported":1737130236,"current_range_meters":38800,"station_id":"","pricing_plan_id":"cebpf4jnsgd1na2vs0mg"},{"bike_id":"979d7a5c-00ce-4dcf-a15c-0fc9c9e35c10","system_id":"levelo_inurba_marseille","lat":43.33783,"lon":5.37456,"is_reserved":false,"is_disabled":false,"rental_uris":{"android":"levelo://app?vid=979d7a5c-00ce-4dcf-a15c-0fc9c9e35c10","ios":"levelo://app?vid=979d7a5c-00ce-4dcf-a15c-0fc9c9e35c10"},"vehicle_type_id":"4","last_reported":1737130236,"current_range_meters":28800,"station_id":"","pricing_plan_id":"cebpf4jnsgd1na2vs0mg"},{"bike_id":"730df4ba-4772-4a0e-9e4a-bb6bde6caaeb","system_id":"levelo_inurba_marseille","lat":43.301179,"lon":5.398699,"is_reserved":false,"is_disabled":true,"rental_uris":{"android":"levelo://app?vid=730df4ba-4772-4a0e-9e4a-bb6bde6caaeb","ios":"levelo://app?vid=730df4ba-4772-4a0e-9e4a-bb6bde6caaeb"},"vehicle_type_id":"4","last_reported":1737130236,"current_range_meters":38000,"station_id":"ce4bh0h2rcd13ifvqd40","pricing_plan_id":"cebpf4jnsgd1na2vs0mg"},{"bike_id":"492bb2a4-bb26-45e4-9edc-d3f9691e28d1","system_id":"levelo_inurba_marseille","lat":43.31759,"lon":5.3902,"is_reserved":false,"is_disabled":false,"rental_uris":{"android":"levelo://app?vid=492bb2a4-bb26-45e4-9edc-d3f9691e28d1","ios":"levelo://app?vid=492bb2a4-bb26-45e4-9edc-d3f9691e28d1"},"vehicle_type_id":"4","last_reported":1737130236,"current_range_meters":38800,"station_id":"ce4bhqp2rcd13ifvqhng","pricing_plan_id":"cebpf4jnsgd1na2vs0mg"},{"bike_id":"2852113b-49ee-4cbf-9a16-ea68797906c2","system_id":"levelo_inurba_marseille","lat":43.3376,"lon":5.37465,"is_reserved":false,"is_disabled":false,"rental_uris":{"android":"levelo://app?vid=2852113b-49ee-4cbf-9a16-ea68797906c2","ios":"levelo://app?vid=2852113b-49ee-4cbf-9a16-ea68797906c2"},"vehicle_type_id":"4","last_reported":1737130236,"current_range_meters":37600,"station_id":"","pricing_plan_id":"cebpf4jnsgd1na2vs0mg"},{"bike_id":"7f5ffd08-b165-41c6-a98b-d658eec18904","system_id":"levelo_inurba_marseille","lat":43.29425,"lon":5.38627,"is_reserved":false,"is_disabled":false,"rental_uris":{"android":"levelo://app?vid=7f5ffd08-b165-41c6-a98b-d658eec18904","ios":"levelo://app?vid=7f5ffd08-b165-41c6-a98b-d658eec18904"},"vehicle_type_id":"4","last_reported":1737130236,"current_range_meters":14400,"station_id":"ce4bh2h2rcd13ifvqdh0","pricing_plan_id":"cebpf4jnsgd1na2vs0mg"},{"bike_id":"4bc87b52-1a4d-49c6-afbd-02ade80e6618","system_id":"levelo_inurba_marseille","lat":43.272106,"lon":5.391906,"is_reserved":false,"is_disabled":true,"rental_uris":{"android":"levelo://app?vid=4bc87b52-1a4d-49c6-afbd-02ade80e6618","ios":"levelo://app?vid=4bc87b52-1a4d-49c6-afbd-02ade80e6618"},"vehicle_type_id":"4","last_reported":1737130236,"current_range_meters":0,"station_id":"ce4bhhp2rcd13ifvqfm0","pricing_plan_id":"cebpf4jnsgd1na2vs0mg"},{"bike_id":"f188d865-25b0-4901-bca2-85f18e950202","system_id":"levelo_inurba_marseille","lat":43.29529,"lon":5.38539,"is_reserved":false,"is_disabled":false,"rental_uris":{"android":"levelo://app?vid=f188d865-25b0-4901-bca2-85f18e950202","ios":"levelo://app?vid=f188d865-25b0-4901-bca2-85f18e950202"},"vehicle_type_id":"4","last_reported":1737130236,"current_range_meters":10800,"station_id":"ce4bgih2rcd13ifvqba0","pricing_plan_id":"cebpf4jnsgd1na2vs0mg"},{"bike_id":"cefc250c-1baa-4a78-8fed-eb20c7fbb95c","system_id":"levelo_inurba_marseille","lat":43.2319,"lon":5.35559,"is_reserved":false,"is_disabled":true,"rental_uris":{"android":"levelo://app?vid=cefc250c-1baa-4a78-8fed-eb20c7fbb95c","ios":"levelo://app?vid=cefc250c-1baa-4a78-8fed-eb20c7fbb95c"},"vehicle_type_id":"4","last_reported":1737130236,"current_range_meters":0,"station_id":"ce4bhu92rcd13ifvqi70","pricing_plan_id":"cebpf4jnsgd1na2vs0mg"},{"bike_id":"6a7366d7-ed8c-4629-bf0c-70c2abcda36d","system_id":"levelo_inurba_marseille","lat":43.23197,"lon":5.35555,"is_reserved":false,"is_disabled":false,"rental_uris":{"android":"levelo://app?vid=6a7366d7-ed8c-4629-bf0c-70c2abcda36d","ios":"levelo://app?vid=6a7366d7-ed8c-4629-bf0c-70c2abcda36d"},"vehicle_type_id":"4","last_reported":1737130236,"current_range_meters":8000,"station_id":"ce4bhu92rcd13ifvqi70","pricing_plan_id":"cebpf4jnsgd1na2vs0mg"},{"bike_id":"2d7f3353-743b-41e1-85f2-e32181d4ae48","system_id":"levelo_inurba_marseille","lat":43.32009,"lon":5.38162,"is_reserved":false,"is_disabled":false,"rental_uris":{"android":"levelo://app?vid=2d7f3353-743b-41e1-85f2-e32181d4ae48","ios":"levelo://app?vid=2d7f3353-743b-41e1-85f2-e32181d4ae48"},"vehicle_type_id":"4","last_reported":1737130236,"current_range_meters":28000,"station_id":"ce4bhr12rcd13ifvqhpg","pricing_plan_id":"cebpf4jnsgd1na2vs0mg"},{"bike_id":"cdb32490-46fd-4ee0-947c-b9b2129a99fc","system_id":"levelo_inurba_marseille","lat":43.26029,"lon":5.37551,"is_reserved":false,"is_disabled":false,"rental_uris":{"android":"levelo://app?vid=cdb32490-46fd-4ee0-947c-b9b2129a99fc","ios":"levelo://app?vid=cdb32490-46fd-4ee0-947c-b9b2129a99fc"},"vehicle_type_id":"4","last_reported":1737130236,"current_range_meters":38000,"station_id":"ce4bhgh2rcd13ifvqfa0","pricing_plan_id":"cebpf4jnsgd1na2vs0mg"},{"bike_id":"0aca818e-c42c-4593-b268-e6aed1d4fa86","system_id":"levelo_inurba_marseille","lat":43.30077,"lon":5.37298,"is_reserved":false,"is_disabled":false,"rental_uris":{"android":"levelo://app?vid=0aca818e-c42c-4593-b268-e6aed1d4fa86","ios":"levelo://app?vid=0aca818e-c42c-4593-b268-e6aed1d4fa86"},"vehicle_type_id":"4","last_reported":1737130236,"current_range_meters":10800,"station_id":"","pricing_plan_id":"cebpf4jnsgd1na2vs0mg"},{"bike_id":"35deb437-7ef2-4ee7-9ea5-27ce0001ca7b","system_id":"levelo_inurba_marseille","lat":43.260603,"lon":5.39389,"is_reserved":false,"is_disabled":false,"rental_uris":{"android":"levelo://app?vid=35deb437-7ef2-4ee7-9ea5-27ce0001ca7b","ios":"levelo://app?vid=35deb437-7ef2-4ee7-9ea5-27ce0001ca7b"},"vehicle_type_id":"4","last_reported":1737130236,"current_range_meters":38800,"station_id":"ce4bhh92rcd13ifvqfj0","pricing_plan_id":"cebpf4jnsgd1na2vs0mg"},{"bike_id":"8950ad97-12b3-4231-a25a-a92e6e418d6d","system_id":"levelo_inurba_marseille","lat":43.28603,"lon":5.37073,"is_reserved":false,"is_disabled":false,"rental_uris":{"android":"levelo://app?vid=8950ad97-12b3-4231-a25a-a92e6e418d6d","ios":"levelo://app?vid=8950ad97-12b3-4231-a25a-a92e6e418d6d"},"vehicle_type_id":"4","last_reported":1737130236,"current_range_meters":19200,"station_id":"ce4bht12rcd13ifvqi60","pricing_plan_id":"cebpf4jnsgd1na2vs0mg"},{"bike_id":"e72fc95b-f7c2-4064-ad0a-dad723a24655","system_id":"levelo_inurba_marseille","lat":43.2922,"lon":5.36069,"is_reserved":false,"is_disabled":false,"rental_uris":{"android":"levelo://app?vid=e72fc95b-f7c2-4064-ad0a-dad723a24655","ios":"levelo://app?vid=e72fc95b-f7c2-4064-ad0a-dad723a24655"},"vehicle_type_id":"4","last_reported":1737130236,"current_range_meters":27600,"station_id":"ce4bhbh2rcd13ifvqeqg","pricing_plan_id":"cebpf4jnsgd1na2vs0mg"},{"bike_id":"d6b22d9e-2b41-4a7d-9ffd-a329d4d5005b","system_id":"levelo_inurba_marseille","lat":43.28277,"lon":5.35067,"is_reserved":false,"is_disabled":false,"rental_uris":{"android":"levelo://app?vid=d6b22d9e-2b41-4a7d-9ffd-a329d4d5005b","ios":"levelo://app?vid=d6b22d9e-2b41-4a7d-9ffd-a329d4d5005b"},"vehicle_type_id":"4","last_reported":1737130236,"current_range_meters":38400,"station_id":"ce4bhbp2rcd13ifvqerg","pricing_plan_id":"cebpf4jnsgd1na2vs0mg"},{"bike_id":"5b28d1b1-8822-48e0-9121-121854736622","system_id":"levelo_inurba_marseille","lat":43.29184,"lon":5.39332,"is_reserved":false,"is_disabled":false,"rental_uris":{"android":"levelo://app?vid=5b28d1b1-8822-48e0-9121-121854736622","ios":"levelo://app?vid=5b28d1b1-8822-48e0-9121-121854736622"},"vehicle_type_id":"4","last_reported":1737130236,"current_range_meters":33200,"station_id":"ce4bh192rcd13ifvqdd0","pricing_plan_id":"cebpf4jnsgd1na2vs0mg"},{"bike_id":"ebd9e941-b2dc-420e-a6db-e189bc6bd45d","system_id":"levelo_inurba_marseille","lat":43.2649,"lon":5.39547,"is_reserved":false,"is_disabled":false,"rental_uris":{"android":"levelo://app?vid=ebd9e941-b2dc-420e-a6db-e189bc6bd45d","ios":"levelo://app?vid=ebd9e941-b2dc-420e-a6db-e189bc6bd45d"},"vehicle_type_id":"4","last_reported":1737130236,"current_range_meters":20000,"station_id":"ce4bhi12rcd13ifvqfq0","pricing_plan_id":"cebpf4jnsgd1na2vs0mg"},{"bike_id":"1c01fcbb-5301-49a0-a175-1a8485ee1daf","system_id":"levelo_inurba_marseille","lat":43.30081,"lon":5.39088,"is_reserved":false,"is_disabled":false,"rental_uris":{"android":"levelo://app?vid=1c01fcbb-5301-49a0-a175-1a8485ee1daf","ios":"levelo://app?vid=1c01fcbb-5301-49a0-a175-1a8485ee1daf"},"vehicle_type_id":"4","last_reported":1737130236,"current_range_meters":38800,"station_id":"ce4bh192rcd13ifvqdb0","pricing_plan_id":"cebpf4jnsgd1na2vs0mg"},{"bike_id":"f2c13a84-f0d8-48fa-89cc-42c37d8a63bd","system_id":"levelo_inurba_marseille","lat":43.26933,"lon":5.3892,"is_reserved":false,"is_disabled":false,"rental_uris":{"android":"levelo://app?vid=f2c13a84-f0d8-48fa-89cc-42c37d8a63bd","ios":"levelo://app?vid=f2c13a84-f0d8-48fa-89cc-42c37d8a63bd"},"vehicle_type_id":"4","last_reported":1737130236,"current_range_meters":28000,"station_id":"ce4bhhh2rcd13ifvqfl0","pricing_plan_id":"cebpf4jnsgd1na2vs0mg"},{"bike_id":"f97513ed-1870-4414-9ba2-371df5e87a4f","system_id":"levelo_inurba_marseille","lat":43.28448,"lon":5.39212,"is_reserved":false,"is_disabled":false,"rental_uris":{"android":"levelo://app?vid=f97513ed-1870-4414-9ba2-371df5e87a4f","ios":"levelo://app?vid=f97513ed-1870-4414-9ba2-371df5e87a4f"},"vehicle_type_id":"4","last_reported":1737130236,"current_range_meters":32400,"station_id":"ce4bhoh2rcd13ifvqh5g","pricing_plan_id":"cebpf4jnsgd1na2vs0mg"},{"bike_id":"d60479e6-98ee-480e-bc82-d76b72d43880","system_id":"levelo_inurba_marseille","lat":43.26804,"lon":5.39409,"is_reserved":false,"is_disabled":false,"rental_uris":{"android":"levelo://app?vid=d60479e6-98ee-480e-bc82-d76b72d43880","ios":"levelo://app?vid=d60479e6-98ee-480e-bc82-d76b72d43880"},"vehicle_type_id":"4","last_reported":1737130236,"current_range_meters":32000,"station_id":"ce4bhh12rcd13ifvqfg0","pricing_plan_id":"cebpf4jnsgd1na2vs0mg"},{"bike_id":"02df92ca-bc39-46ce-9f24-a041d776d92b","system_id":"levelo_inurba_marseille","lat":43.29525,"lon":5.39044,"is_reserved":false,"is_disabled":false,"rental_uris":{"android":"levelo://app?vid=02df92ca-bc39-46ce-9f24-a041d776d92b","ios":"levelo://app?vid=02df92ca-bc39-46ce-9f24-a041d776d92b"},"vehicle_type_id":"4","last_reported":1737130236,"current_range_meters":38800,"station_id":"ce4bh3p2rcd13ifvqdp0","pricing_plan_id":"cebpf4jnsgd1na2vs0mg"},{"bike_id":"72ca0742-1df6-4026-87cc-098e9e8db1ab","system_id":"levelo_inurba_marseille","lat":43.23967,"lon":5.36632,"is_reserved":false,"is_disabled":false,"rental_uris":{"android":"levelo://app?vid=72ca0742-1df6-4026-87cc-098e9e8db1ab","ios":"levelo://app?vid=72ca0742-1df6-4026-87cc-098e9e8db1ab"},"vehicle_type_id":"4","last_reported":1737130236,"current_range_meters":28000,"station_id":"ce4bhi12rcd13ifvqfp0","pricing_plan_id":"cebpf4jnsgd1na2vs0mg"},{"bike_id":"131ab114-88cf-4de9-b741-98b56b4aee9c","system_id":"levelo_inurba_marseille","lat":43.31685,"lon":5.40476,"is_reserved":false,"is_disabled":false,"rental_uris":{"android":"levelo://app?vid=131ab114-88cf-4de9-b741-98b56b4aee9c","ios":"levelo://app?vid=131ab114-88cf-4de9-b741-98b56b4aee9c"},"vehicle_type_id":"4","last_reported":1737130236,"current_range_meters":36000,"station_id":"ce4bh012rcd13ifvqd00","pricing_plan_id":"cebpf4jnsgd1na2vs0mg"},{"bike_id":"9370995a-0faf-41aa-bfba-e8f18c48b388","system_id":"levelo_inurba_marseille","lat":43.27372,"lon":5.36257,"is_reserved":false,"is_disabled":false,"rental_uris":{"android":"levelo://app?vid=9370995a-0faf-41aa-bfba-e8f18c48b388","ios":"levelo://app?vid=9370995a-0faf-41aa-bfba-e8f18c48b388"},"vehicle_type_id":"4","last_reported":1737130236,"current_range_meters":28400,"station_id":"ce4bhbh2rcd13ifvqeo0","pricing_plan_id":"cebpf4jnsgd1na2vs0mg"},{"bike_id":"f8a989c7-2c5b-481d-99f1-7312319de8e9","system_id":"levelo_inurba_marseille","lat":43.29018,"lon":5.38137,"is_reserved":false,"is_disabled":false,"rental_uris":{"android":"levelo://app?vid=f8a989c7-2c5b-481d-99f1-7312319de8e9","ios":"levelo://app?vid=f8a989c7-2c5b-481d-99f1-7312319de8e9"},"vehicle_type_id":"4","last_reported":1737130236,"current_range_meters":38400,"station_id":"ce4bh4p2rcd13ifvqe1g","pricing_plan_id":"cebpf4jnsgd1na2vs0mg"},{"bike_id":"5ed39e30-6df6-4cb7-b9e5-8eddd4f008ab","system_id":"levelo_inurba_marseille","lat":43.30358,"lon":5.3909,"is_reserved":false,"is_disabled":true,"rental_uris":{"android":"levelo://app?vid=5ed39e30-6df6-4cb7-b9e5-8eddd4f008ab","ios":"levelo://app?vid=5ed39e30-6df6-4cb7-b9e5-8eddd4f008ab"},"vehicle_type_id":"4","last_reported":1737130236,"current_range_meters":0,"station_id":"ce4bgkh2rcd13ifvqbk0","pricing_plan_id":"cebpf4jnsgd1na2vs0mg"},{"bike_id":"0968e770-3187-4cba-bb8f-c262e25e38e3","system_id":"levelo_inurba_marseille","lat":43.27831,"lon":5.39212,"is_reserved":false,"is_disabled":false,"rental_uris":{"android":"levelo://app?vid=0968e770-3187-4cba-bb8f-c262e25e38e3","ios":"levelo://app?vid=0968e770-3187-4cba-bb8f-c262e25e38e3"},"vehicle_type_id":"4","last_reported":1737130236,"current_range_meters":33600,"station_id":"ce4bhjp2rcd13ifvqga0","pricing_plan_id":"cebpf4jnsgd1na2vs0mg"},{"bike_id":"7383474c-b45a-4438-837c-99d7ae866fe7","system_id":"levelo_inurba_marseille","lat":43.26056,"lon":5.39391,"is_reserved":false,"is_disabled":false,"rental_uris":{"android":"levelo://app?vid=7383474c-b45a-4438-837c-99d7ae866fe7","ios":"levelo://app?vid=7383474c-b45a-4438-837c-99d7ae866fe7"},"vehicle_type_id":"4","last_reported":1737130236,"current_range_meters":38800,"station_id":"ce4bhh92rcd13ifvqfj0","pricing_plan_id":"cebpf4jnsgd1na2vs0mg"},{"bike_id":"9ab976b2-2273-4a2b-bfaf-135c8444686b","system_id":"levelo_inurba_marseille","lat":43.29579,"lon":5.36742,"is_reserved":false,"is_disabled":false,"rental_uris":{"android":"levelo://app?vid=9ab976b2-2273-4a2b-bfaf-135c8444686b","ios":"levelo://app?vid=9ab976b2-2273-4a2b-bfaf-135c8444686b"},"vehicle_type_id":"4","last_reported":1737130236,"current_range_meters":8400,"station_id":"ce4bgph2rcd13ifvqc2g","pricing_plan_id":"cebpf4jnsgd1na2vs0mg"},{"bike_id":"1c84ca9e-f68c-4a22-88dd-f8cfa991482c","system_id":"levelo_inurba_marseille","lat":43.297651,"lon":5.370975,"is_reserved":false,"is_disabled":false,"rental_uris":{"android":"levelo://app?vid=1c84ca9e-f68c-4a22-88dd-f8cfa991482c","ios":"levelo://app?vid=1c84ca9e-f68c-4a22-88dd-f8cfa991482c"},"vehicle_type_id":"4","last_reported":1737130236,"current_range_meters":13600,"station_id":"ce4bgop2rcd13ifvqc1g","pricing_plan_id":"cebpf4jnsgd1na2vs0mg"},{"bike_id":"363173d0-c25e-4379-a691-ec4891c940b4","system_id":"levelo_inurba_marseille","lat":43.28485,"lon":5.38535,"is_reserved":false,"is_disabled":false,"rental_uris":{"android":"levelo://app?vid=363173d0-c25e-4379-a691-ec4891c940b4","ios":"levelo://app?vid=363173d0-c25e-4379-a691-ec4891c940b4"},"vehicle_type_id":"4","last_reported":1737130236,"current_range_meters":28800,"station_id":"ce4bh8p2rcd13ifvqeb0","pricing_plan_id":"cebpf4jnsgd1na2vs0mg"},{"bike_id":"bf43374e-1830-4f3b-9852-0c4c91e32c2c","system_id":"levelo_inurba_marseille","lat":43.2737,"lon":5.3625,"is_reserved":false,"is_disabled":false,"rental_uris":{"android":"levelo://app?vid=bf43374e-1830-4f3b-9852-0c4c91e32c2c","ios":"levelo://app?vid=bf43374e-1830-4f3b-9852-0c4c91e32c2c"},"vehicle_type_id":"4","last_reported":1737130236,"current_range_meters":23200,"station_id":"ce4bhbh2rcd13ifvqeo0","pricing_plan_id":"cebpf4jnsgd1na2vs0mg"},{"bike_id":"44721705-52d0-4eba-b0b2-b41ea9586411","system_id":"levelo_inurba_marseille","lat":43.23189,"lon":5.35561,"is_reserved":false,"is_disabled":false,"rental_uris":{"android":"levelo://app?vid=44721705-52d0-4eba-b0b2-b41ea9586411","ios":"levelo://app?vid=44721705-52d0-4eba-b0b2-b41ea9586411"},"vehicle_type_id":"4","last_reported":1737130236,"current_range_meters":30000,"station_id":"ce4bhu92rcd13ifvqi70","pricing_plan_id":"cebpf4jnsgd1na2vs0mg"},{"bike_id":"df5b02fa-0139-4c1f-8652-0d932541e9b8","system_id":"levelo_inurba_marseille","lat":43.30417,"lon":5.41281,"is_reserved":false,"is_disabled":false,"rental_uris":{"android":"levelo://app?vid=df5b02fa-0139-4c1f-8652-0d932541e9b8","ios":"levelo://app?vid=df5b02fa-0139-4c1f-8652-0d932541e9b8"},"vehicle_type_id":"4","last_reported":1737130236,"current_range_meters":28800,"station_id":"ce4bhop2rcd13ifvqh8g","pricing_plan_id":"cebpf4jnsgd1na2vs0mg"},{"bike_id":"96a2c5d0-d37c-4f88-8485-324febd508fb","system_id":"levelo_inurba_marseille","lat":43.29427,"lon":5.38636,"is_reserved":false,"is_disabled":false,"rental_uris":{"android":"levelo://app?vid=96a2c5d0-d37c-4f88-8485-324febd508fb","ios":"levelo://app?vid=96a2c5d0-d37c-4f88-8485-324febd508fb"},"vehicle_type_id":"4","last_reported":1737130236,"current_range_meters":33200,"station_id":"ce4bh2h2rcd13ifvqdh0","pricing_plan_id":"cebpf4jnsgd1na2vs0mg"},{"bike_id":"08fdc998-176c-44d2-b20a-10d4aee33c0b","system_id":"levelo_inurba_marseille","lat":43.27379,"lon":5.36255,"is_reserved":false,"is_disabled":false,"rental_uris":{"android":"levelo://app?vid=08fdc998-176c-44d2-b20a-10d4aee33c0b","ios":"levelo://app?vid=08fdc998-176c-44d2-b20a-10d4aee33c0b"},"vehicle_type_id":"4","last_reported":1737130236,"current_range_meters":38800,"station_id":"ce4bhbh2rcd13ifvqeo0","pricing_plan_id":"cebpf4jnsgd1na2vs0mg"},{"bike_id":"fe8bb3f2-0e5b-46b1-97fd-203b2d9b744d","system_id":"levelo_inurba_marseille","lat":43.27621,"lon":5.3611,"is_reserved":false,"is_disabled":false,"rental_uris":{"android":"levelo://app?vid=fe8bb3f2-0e5b-46b1-97fd-203b2d9b744d","ios":"levelo://app?vid=fe8bb3f2-0e5b-46b1-97fd-203b2d9b744d"},"vehicle_type_id":"4","last_reported":1737130236,"current_range_meters":38400,"station_id":"ce4bgj92rcd13ifvqbe0","pricing_plan_id":"cebpf4jnsgd1na2vs0mg"},{"bike_id":"dbc84289-e424-421f-8922-80495ae94fa1","system_id":"levelo_inurba_marseille","lat":43.306,"lon":5.39343,"is_reserved":false,"is_disabled":true,"rental_uris":{"android":"levelo://app?vid=dbc84289-e424-421f-8922-80495ae94fa1","ios":"levelo://app?vid=dbc84289-e424-421f-8922-80495ae94fa1"},"vehicle_type_id":"4","last_reported":1737130236,"current_range_meters":25600,"station_id":"ce4bh0p2rcd13ifvqd80","pricing_plan_id":"cebpf4jnsgd1na2vs0mg"},{"bike_id":"278eb61d-b350-44ac-9690-2cc5f459e46f","system_id":"levelo_inurba_marseille","lat":43.30301,"lon":5.39213,"is_reserved":false,"is_disabled":false,"rental_uris":{"android":"levelo://app?vid=278eb61d-b350-44ac-9690-2cc5f459e46f","ios":"levelo://app?vid=278eb61d-b350-44ac-9690-2cc5f459e46f"},"vehicle_type_id":"4","last_reported":1737130236,"current_range_meters":6400,"station_id":"ce4bgkh2rcd13ifvqbk0","pricing_plan_id":"cebpf4jnsgd1na2vs0mg"},{"bike_id":"a9a0e60f-8e94-490a-988c-5a9cfc45d626","system_id":"levelo_inurba_marseille","lat":43.24163,"lon":5.36398,"is_reserved":false,"is_disabled":false,"rental_uris":{"android":"levelo://app?vid=a9a0e60f-8e94-490a-988c-5a9cfc45d626","ios":"levelo://app?vid=a9a0e60f-8e94-490a-988c-5a9cfc45d626"},"vehicle_type_id":"4","last_reported":1737130236,"current_range_meters":16000,"station_id":"cpo36qri1sfpv3e86is0","pricing_plan_id":"cebpf4jnsgd1na2vs0mg"},{"bike_id":"f5909a3d-dd6b-41d1-a63b-7052c940d4c3","system_id":"levelo_inurba_marseille","lat":43.30097,"lon":5.3904,"is_reserved":false,"is_disabled":false,"rental_uris":{"android":"levelo://app?vid=f5909a3d-dd6b-41d1-a63b-7052c940d4c3","ios":"levelo://app?vid=f5909a3d-dd6b-41d1-a63b-7052c940d4c3"},"vehicle_type_id":"4","last_reported":1737130236,"current_range_meters":15200,"station_id":"ce4bgs12rcd13ifvqcag","pricing_plan_id":"cebpf4jnsgd1na2vs0mg"},{"bike_id":"2d1d0325-36ae-4e0c-8ea2-8b7285a8325f","system_id":"levelo_inurba_marseille","lat":43.30479,"lon":5.36573,"is_reserved":false,"is_disabled":false,"rental_uris":{"android":"levelo://app?vid=2d1d0325-36ae-4e0c-8ea2-8b7285a8325f","ios":"levelo://app?vid=2d1d0325-36ae-4e0c-8ea2-8b7285a8325f"},"vehicle_type_id":"4","last_reported":1737130236,"current_range_meters":38800,"station_id":"ce4bgs12rcd13ifvqcag","pricing_plan_id":"cebpf4jnsgd1na2vs0mg"},{"bike_id":"5068fd27-4ebe-4012-99b6-ecbc8bf0aeca","system_id":"levelo_inurba_marseille","lat":43.30267,"lon":5.37716,"is_reserved":false,"is_disabled":false,"rental_uris":{"android":"levelo://app?vid=5068fd27-4ebe-4012-99b6-ecbc8bf0aeca","ios":"levelo://app?vid=5068fd27-4ebe-4012-99b6-ecbc8bf0aeca"},"vehicle_type_id":"4","last_reported":1737130236,"current_range_meters":33200,"station_id":"ce4bguh2rcd13ifvqcj0","pricing_plan_id":"cebpf4jnsgd1na2vs0mg"},{"bike_id":"a366fda9-fd00-415b-811b-ab458339ae00","system_id":"levelo_inurba_marseille","lat":43.25495,"lon":5.37657,"is_reserved":false,"is_disabled":false,"rental_uris":{"android":"levelo://app?vid=a366fda9-fd00-415b-811b-ab458339ae00","ios":"levelo://app?vid=a366fda9-fd00-415b-811b-ab458339ae00"},"vehicle_type_id":"4","last_reported":1737130236,"current_range_meters":36400,"station_id":"ce4bhh12rcd13ifvqff0","pricing_plan_id":"cebpf4jnsgd1na2vs0mg"},{"bike_id":"e5877823-3ff3-4494-831d-4ac88f0e2e48","system_id":"levelo_inurba_marseille","lat":43.24661,"lon":5.38164,"is_reserved":false,"is_disabled":false,"rental_uris":{"android":"levelo://app?vid=e5877823-3ff3-4494-831d-4ac88f0e2e48","ios":"levelo://app?vid=e5877823-3ff3-4494-831d-4ac88f0e2e48"},"vehicle_type_id":"4","last_reported":1737130236,"current_range_meters":12800,"station_id":"ce4bhih2rcd13ifvqfr0","pricing_plan_id":"cebpf4jnsgd1na2vs0mg"},{"bike_id":"2aa98a8e-265a-4dfa-baae-3da013df4e11","system_id":"levelo_inurba_marseille","lat":43.27368,"lon":5.36254,"is_reserved":false,"is_disabled":false,"rental_uris":{"android":"levelo://app?vid=2aa98a8e-265a-4dfa-baae-3da013df4e11","ios":"levelo://app?vid=2aa98a8e-265a-4dfa-baae-3da013df4e11"},"vehicle_type_id":"4","last_reported":1737130236,"current_range_meters":24800,"station_id":"ce4bhbh2rcd13ifvqeo0","pricing_plan_id":"cebpf4jnsgd1na2vs0mg"},{"bike_id":"17fe4045-3081-4c43-a833-13dea74aa916","system_id":"levelo_inurba_marseille","lat":43.28869,"lon":5.39299,"is_reserved":false,"is_disabled":false,"rental_uris":{"android":"levelo://app?vid=17fe4045-3081-4c43-a833-13dea74aa916","ios":"levelo://app?vid=17fe4045-3081-4c43-a833-13dea74aa916"},"vehicle_type_id":"4","last_reported":1737130236,"current_range_meters":39200,"station_id":"ce4bh2p2rcd13ifvqdi0","pricing_plan_id":"cebpf4jnsgd1na2vs0mg"},{"bike_id":"f752f287-e505-40cd-bddd-d033d3215f4b","system_id":"levelo_inurba_marseille","lat":43.28153,"lon":5.42639,"is_reserved":false,"is_disabled":false,"rental_uris":{"android":"levelo://app?vid=f752f287-e505-40cd-bddd-d033d3215f4b","ios":"levelo://app?vid=f752f287-e505-40cd-bddd-d033d3215f4b"},"vehicle_type_id":"4","last_reported":1737130236,"current_range_meters":14800,"station_id":"ce4bhnh2rcd13ifvqgug","pricing_plan_id":"cebpf4jnsgd1na2vs0mg"},{"bike_id":"9c16d8a3-4cd5-49f9-8f32-5cd2e6ee4485","system_id":"levelo_inurba_marseille","lat":43.3372,"lon":5.39189,"is_reserved":false,"is_disabled":false,"rental_uris":{"android":"levelo://app?vid=9c16d8a3-4cd5-49f9-8f32-5cd2e6ee4485","ios":"levelo://app?vid=9c16d8a3-4cd5-49f9-8f32-5cd2e6ee4485"},"vehicle_type_id":"4","last_reported":1737130236,"current_range_meters":26000,"station_id":"ce4bhr92rcd13ifvqhsg","pricing_plan_id":"cebpf4jnsgd1na2vs0mg"},{"bike_id":"2fbab566-2e16-430f-9782-754ade2c96f4","system_id":"levelo_inurba_marseille","lat":43.28151,"lon":5.42643,"is_reserved":false,"is_disabled":false,"rental_uris":{"android":"levelo://app?vid=2fbab566-2e16-430f-9782-754ade2c96f4","ios":"levelo://app?vid=2fbab566-2e16-430f-9782-754ade2c96f4"},"vehicle_type_id":"4","last_reported":1737130236,"current_range_meters":16400,"station_id":"ce4bhnh2rcd13ifvqgug","pricing_plan_id":"cebpf4jnsgd1na2vs0mg"},{"bike_id":"f5863b18-13a1-4c6e-92de-5668ea912ad3","system_id":"levelo_inurba_marseille","lat":43.26226,"lon":5.40462,"is_reserved":false,"is_disabled":true,"rental_uris":{"android":"levelo://app?vid=f5863b18-13a1-4c6e-92de-5668ea912ad3","ios":"levelo://app?vid=f5863b18-13a1-4c6e-92de-5668ea912ad3"},"vehicle_type_id":"4","last_reported":1737130236,"current_range_meters":0,"station_id":"","pricing_plan_id":"cebpf4jnsgd1na2vs0mg"},{"bike_id":"b271a723-d584-414a-87a2-72daef563be9","system_id":"levelo_inurba_marseille","lat":43.30131,"lon":5.38785,"is_reserved":false,"is_disabled":false,"rental_uris":{"android":"levelo://app?vid=b271a723-d584-414a-87a2-72daef563be9","ios":"levelo://app?vid=b271a723-d584-414a-87a2-72daef563be9"},"vehicle_type_id":"4","last_reported":1737130236,"current_range_meters":35600,"station_id":"ce4bghh2rcd13ifvqb60","pricing_plan_id":"cebpf4jnsgd1na2vs0mg"},{"bike_id":"a8fad254-19bb-48fe-801d-9e93d4767cef","system_id":"levelo_inurba_marseille","lat":43.31415,"lon":5.37416,"is_reserved":false,"is_disabled":true,"rental_uris":{"android":"levelo://app?vid=a8fad254-19bb-48fe-801d-9e93d4767cef","ios":"levelo://app?vid=a8fad254-19bb-48fe-801d-9e93d4767cef"},"vehicle_type_id":"4","last_reported":1737130236,"current_range_meters":0,"station_id":"","pricing_plan_id":"cebpf4jnsgd1na2vs0mg"},{"bike_id":"56874992-f1cb-442b-9e9f-4de95f41fbed","system_id":"levelo_inurba_marseille","lat":43.29797,"lon":5.40414,"is_reserved":false,"is_disabled":true,"rental_uris":{"android":"levelo://app?vid=56874992-f1cb-442b-9e9f-4de95f41fbed","ios":"levelo://app?vid=56874992-f1cb-442b-9e9f-4de95f41fbed"},"vehicle_type_id":"4","last_reported":1737130236,"current_range_meters":0,"station_id":"ce4bh112rcd13ifvqd90","pricing_plan_id":"cebpf4jnsgd1na2vs0mg"},{"bike_id":"746a8983-c8fb-4f74-839f-560054ccfd2e","system_id":"levelo_inurba_marseille","lat":43.30532,"lon":5.36532,"is_reserved":false,"is_disabled":false,"rental_uris":{"android":"levelo://app?vid=746a8983-c8fb-4f74-839f-560054ccfd2e","ios":"levelo://app?vid=746a8983-c8fb-4f74-839f-560054ccfd2e"},"vehicle_type_id":"4","last_reported":1737130236,"current_range_meters":19600,"station_id":"ce4bgs12rcd13ifvqcag","pricing_plan_id":"cebpf4jnsgd1na2vs0mg"},{"bike_id":"e5f71037-c3e2-4a5c-b185-51bcddd625d8","system_id":"levelo_inurba_marseille","lat":43.23064,"lon":5.35492,"is_reserved":false,"is_disabled":false,"rental_uris":{"android":"levelo://app?vid=e5f71037-c3e2-4a5c-b185-51bcddd625d8","ios":"levelo://app?vid=e5f71037-c3e2-4a5c-b185-51bcddd625d8"},"vehicle_type_id":"4","last_reported":1737130236,"current_range_meters":3600,"station_id":"cpo3342slgdg3j2ifvpg","pricing_plan_id":"cebpf4jnsgd1na2vs0mg"},{"bike_id":"46686b70-f375-4947-b209-2f4548c2edcf","system_id":"levelo_inurba_marseille","lat":43.28875,"lon":5.39457,"is_reserved":false,"is_disabled":true,"rental_uris":{"android":"levelo://app?vid=46686b70-f375-4947-b209-2f4548c2edcf","ios":"levelo://app?vid=46686b70-f375-4947-b209-2f4548c2edcf"},"vehicle_type_id":"4","last_reported":1737130236,"current_range_meters":0,"station_id":"","pricing_plan_id":"cebpf4jnsgd1na2vs0mg"},{"bike_id":"b8881e87-393b-483e-8a44-485f1135cedc","system_id":"levelo_inurba_marseille","lat":43.2873,"lon":5.36082,"is_reserved":false,"is_disabled":false,"rental_uris":{"android":"levelo://app?vid=b8881e87-393b-483e-8a44-485f1135cedc","ios":"levelo://app?vid=b8881e87-393b-483e-8a44-485f1135cedc"},"vehicle_type_id":"4","last_reported":1737130236,"current_range_meters":11600,"station_id":"cki0cbj6b192h4jlfktg","pricing_plan_id":"cebpf4jnsgd1na2vs0mg"},{"bike_id":"c3dcdf4d-5280-4d62-9cd4-44d537c8279d","system_id":"levelo_inurba_marseille","lat":43.31283,"lon":5.37306,"is_reserved":false,"is_disabled":false,"rental_uris":{"android":"levelo://app?vid=c3dcdf4d-5280-4d62-9cd4-44d537c8279d","ios":"levelo://app?vid=c3dcdf4d-5280-4d62-9cd4-44d537c8279d"},"vehicle_type_id":"4","last_reported":1737130236,"current_range_meters":25600,"station_id":"","pricing_plan_id":"cebpf4jnsgd1na2vs0mg"},{"bike_id":"0c6244e5-54f7-4bb7-afee-7e8bf682ad00","system_id":"levelo_inurba_marseille","lat":43.30309,"lon":5.36905,"is_reserved":false,"is_disabled":false,"rental_uris":{"android":"levelo://app?vid=0c6244e5-54f7-4bb7-afee-7e8bf682ad00","ios":"levelo://app?vid=0c6244e5-54f7-4bb7-afee-7e8bf682ad00"},"vehicle_type_id":"4","last_reported":1737130236,"current_range_meters":21600,"station_id":"ce4bgqh2rcd13ifvqc5g","pricing_plan_id":"cebpf4jnsgd1na2vs0mg"},{"bike_id":"59de3887-f28c-42d2-90d2-a2168d5462c0","system_id":"levelo_inurba_marseille","lat":43.31701,"lon":5.37774,"is_reserved":false,"is_disabled":false,"rental_uris":{"android":"levelo://app?vid=59de3887-f28c-42d2-90d2-a2168d5462c0","ios":"levelo://app?vid=59de3887-f28c-42d2-90d2-a2168d5462c0"},"vehicle_type_id":"4","last_reported":1737130236,"current_range_meters":38800,"station_id":"ce4bgth2rcd13ifvqch0","pricing_plan_id":"cebpf4jnsgd1na2vs0mg"},{"bike_id":"e7b9adb4-aa2b-4c1d-8202-e52596ca6ccb","system_id":"levelo_inurba_marseille","lat":43.29609,"lon":5.3811,"is_reserved":false,"is_disabled":false,"rental_uris":{"android":"levelo://app?vid=e7b9adb4-aa2b-4c1d-8202-e52596ca6ccb","ios":"levelo://app?vid=e7b9adb4-aa2b-4c1d-8202-e52596ca6ccb"},"vehicle_type_id":"4","last_reported":1737130236,"current_range_meters":14800,"station_id":"ce4bgl12rcd13ifvqbo0","pricing_plan_id":"cebpf4jnsgd1na2vs0mg"},{"bike_id":"2874a690-165b-44fd-8e13-25e018b4bcda","system_id":"levelo_inurba_marseille","lat":43.28613,"lon":5.35101,"is_reserved":false,"is_disabled":false,"rental_uris":{"android":"levelo://app?vid=2874a690-165b-44fd-8e13-25e018b4bcda","ios":"levelo://app?vid=2874a690-165b-44fd-8e13-25e018b4bcda"},"vehicle_type_id":"4","last_reported":1737130236,"current_range_meters":32400,"station_id":"ce4bhch2rcd13ifvqeug","pricing_plan_id":"cebpf4jnsgd1na2vs0mg"},{"bike_id":"162e74e4-7cde-4983-afbf-6133953791de","system_id":"levelo_inurba_marseille","lat":43.27366,"lon":5.36265,"is_reserved":false,"is_disabled":false,"rental_uris":{"android":"levelo://app?vid=162e74e4-7cde-4983-afbf-6133953791de","ios":"levelo://app?vid=162e74e4-7cde-4983-afbf-6133953791de"},"vehicle_type_id":"4","last_reported":1737130236,"current_range_meters":38800,"station_id":"ce4bhbh2rcd13ifvqeo0","pricing_plan_id":"cebpf4jnsgd1na2vs0mg"},{"bike_id":"53c26170-756a-4ffa-a56a-36d0d287c54c","system_id":"levelo_inurba_marseille","lat":43.31083,"lon":5.424419,"is_reserved":false,"is_disabled":false,"rental_uris":{"android":"levelo://app?vid=53c26170-756a-4ffa-a56a-36d0d287c54c","ios":"levelo://app?vid=53c26170-756a-4ffa-a56a-36d0d287c54c"},"vehicle_type_id":"4","last_reported":1737130236,"current_range_meters":39200,"station_id":"ce4bhp92rcd13ifvqhag","pricing_plan_id":"cebpf4jnsgd1na2vs0mg"},{"bike_id":"e9551ecf-abd6-48a7-bf1b-f599f85c8d35","system_id":"levelo_inurba_marseille","lat":43.304741,"lon":5.36562,"is_reserved":false,"is_disabled":false,"rental_uris":{"android":"levelo://app?vid=e9551ecf-abd6-48a7-bf1b-f599f85c8d35","ios":"levelo://app?vid=e9551ecf-abd6-48a7-bf1b-f599f85c8d35"},"vehicle_type_id":"4","last_reported":1737130236,"current_range_meters":30400,"station_id":"ce4bgs12rcd13ifvqcag","pricing_plan_id":"cebpf4jnsgd1na2vs0mg"},{"bike_id":"0dbeb0b2-e019-4335-8a33-9d8aca4ccee8","system_id":"levelo_inurba_marseille","lat":43.2987,"lon":5.39731,"is_reserved":false,"is_disabled":false,"rental_uris":{"android":"levelo://app?vid=0dbeb0b2-e019-4335-8a33-9d8aca4ccee8","ios":"levelo://app?vid=0dbeb0b2-e019-4335-8a33-9d8aca4ccee8"},"vehicle_type_id":"4","last_reported":1737130236,"current_range_meters":27600,"station_id":"ce4bh0h2rcd13ifvqd50","pricing_plan_id":"cebpf4jnsgd1na2vs0mg"},{"bike_id":"dfacd599-5918-4352-b7cf-fe3270433c68","system_id":"levelo_inurba_marseille","lat":43.26557,"lon":5.37284,"is_reserved":false,"is_disabled":true,"rental_uris":{"android":"levelo://app?vid=dfacd599-5918-4352-b7cf-fe3270433c68","ios":"levelo://app?vid=dfacd599-5918-4352-b7cf-fe3270433c68"},"vehicle_type_id":"4","last_reported":1737130236,"current_range_meters":1600,"station_id":"ce4bhg12rcd13ifvqf70","pricing_plan_id":"cebpf4jnsgd1na2vs0mg"},{"bike_id":"ce20c374-b7ea-4011-b694-65593fbbbbcd","system_id":"levelo_inurba_marseille","lat":43.29079,"lon":5.37156,"is_reserved":false,"is_disabled":false,"rental_uris":{"android":"levelo://app?vid=ce20c374-b7ea-4011-b694-65593fbbbbcd","ios":"levelo://app?vid=ce20c374-b7ea-4011-b694-65593fbbbbcd"},"vehicle_type_id":"4","last_reported":1737130236,"current_range_meters":9200,"station_id":"ce4bh5p2rcd13ifvqe4g","pricing_plan_id":"cebpf4jnsgd1na2vs0mg"},{"bike_id":"8cad2851-e998-4eb5-8223-c3ac6bd85827","system_id":"levelo_inurba_marseille","lat":43.28619,"lon":5.35097,"is_reserved":false,"is_disabled":false,"rental_uris":{"android":"levelo://app?vid=8cad2851-e998-4eb5-8223-c3ac6bd85827","ios":"levelo://app?vid=8cad2851-e998-4eb5-8223-c3ac6bd85827"},"vehicle_type_id":"4","last_reported":1737130236,"current_range_meters":38800,"station_id":"ce4bhch2rcd13ifvqeug","pricing_plan_id":"cebpf4jnsgd1na2vs0mg"},{"bike_id":"6f92aae4-1534-4c56-8e79-7976d0e56640","system_id":"levelo_inurba_marseille","lat":43.28265,"lon":5.35062,"is_reserved":false,"is_disabled":false,"rental_uris":{"android":"levelo://app?vid=6f92aae4-1534-4c56-8e79-7976d0e56640","ios":"levelo://app?vid=6f92aae4-1534-4c56-8e79-7976d0e56640"},"vehicle_type_id":"4","last_reported":1737130236,"current_range_meters":38800,"station_id":"ce4bhbp2rcd13ifvqerg","pricing_plan_id":"cebpf4jnsgd1na2vs0mg"},{"bike_id":"bd86c314-9d5d-4d3a-b4d2-1f66c0bb81b3","system_id":"levelo_inurba_marseille","lat":43.28708,"lon":5.37389,"is_reserved":false,"is_disabled":false,"rental_uris":{"android":"levelo://app?vid=bd86c314-9d5d-4d3a-b4d2-1f66c0bb81b3","ios":"levelo://app?vid=bd86c314-9d5d-4d3a-b4d2-1f66c0bb81b3"},"vehicle_type_id":"4","last_reported":1737130236,"current_range_meters":16000,"station_id":"ce4bh3p2rcd13ifvqdq0","pricing_plan_id":"cebpf4jnsgd1na2vs0mg"},{"bike_id":"9cea3eb5-82fc-4a30-b6fa-8db3776d1f5f","system_id":"levelo_inurba_marseille","lat":43.286254,"lon":5.38347,"is_reserved":false,"is_disabled":false,"rental_uris":{"android":"levelo://app?vid=9cea3eb5-82fc-4a30-b6fa-8db3776d1f5f","ios":"levelo://app?vid=9cea3eb5-82fc-4a30-b6fa-8db3776d1f5f"},"vehicle_type_id":"4","last_reported":1737130236,"current_range_meters":20400,"station_id":"ce4bhgp2rcd13ifvqfe0","pricing_plan_id":"cebpf4jnsgd1na2vs0mg"},{"bike_id":"25ae4e31-3947-45ce-97e5-87ef8fba0ac8","system_id":"levelo_inurba_marseille","lat":43.29166,"lon":5.37151,"is_reserved":false,"is_disabled":false,"rental_uris":{"android":"levelo://app?vid=25ae4e31-3947-45ce-97e5-87ef8fba0ac8","ios":"levelo://app?vid=25ae4e31-3947-45ce-97e5-87ef8fba0ac8"},"vehicle_type_id":"4","last_reported":1737130236,"current_range_meters":38400,"station_id":"ce4bha92rcd13ifvqeh0","pricing_plan_id":"cebpf4jnsgd1na2vs0mg"},{"bike_id":"1c983939-b3fb-4468-b54b-9e1e9b0e35bc","system_id":"levelo_inurba_marseille","lat":43.29523,"lon":5.3904,"is_reserved":false,"is_disabled":false,"rental_uris":{"android":"levelo://app?vid=1c983939-b3fb-4468-b54b-9e1e9b0e35bc","ios":"levelo://app?vid=1c983939-b3fb-4468-b54b-9e1e9b0e35bc"},"vehicle_type_id":"4","last_reported":1737130236,"current_range_meters":26000,"station_id":"ce4bh3p2rcd13ifvqdp0","pricing_plan_id":"cebpf4jnsgd1na2vs0mg"},{"bike_id":"7b095187-6dee-4f8a-869d-470718b7a0b4","system_id":"levelo_inurba_marseille","lat":43.30529,"lon":5.36538,"is_reserved":false,"is_disabled":false,"rental_uris":{"android":"levelo://app?vid=7b095187-6dee-4f8a-869d-470718b7a0b4","ios":"levelo://app?vid=7b095187-6dee-4f8a-869d-470718b7a0b4"},"vehicle_type_id":"4","last_reported":1737130236,"current_range_meters":12800,"station_id":"ce4bgs12rcd13ifvqcag","pricing_plan_id":"cebpf4jnsgd1na2vs0mg"},{"bike_id":"e0465de2-1648-4504-9618-59b63e2acad8","system_id":"levelo_inurba_marseille","lat":43.32105,"lon":5.36782,"is_reserved":false,"is_disabled":false,"rental_uris":{"android":"levelo://app?vid=e0465de2-1648-4504-9618-59b63e2acad8","ios":"levelo://app?vid=e0465de2-1648-4504-9618-59b63e2acad8"},"vehicle_type_id":"4","last_reported":1737130236,"current_range_meters":35200,"station_id":"ce4bhrh2rcd13ifvqhug","pricing_plan_id":"cebpf4jnsgd1na2vs0mg"},{"bike_id":"aee46743-f0f7-4648-88e1-fa3d3a7aa9c0","system_id":"levelo_inurba_marseille","lat":43.25081,"lon":5.39522,"is_reserved":false,"is_disabled":false,"rental_uris":{"android":"levelo://app?vid=aee46743-f0f7-4648-88e1-fa3d3a7aa9c0","ios":"levelo://app?vid=aee46743-f0f7-4648-88e1-fa3d3a7aa9c0"},"vehicle_type_id":"4","last_reported":1737130236,"current_range_meters":25200,"station_id":"ce4bhm12rcd13ifvqgkg","pricing_plan_id":"cebpf4jnsgd1na2vs0mg"},{"bike_id":"d839e313-82d8-402c-8332-5c9ccc0e9b9f","system_id":"levelo_inurba_marseille","lat":43.29713,"lon":5.37701,"is_reserved":false,"is_disabled":false,"rental_uris":{"android":"levelo://app?vid=d839e313-82d8-402c-8332-5c9ccc0e9b9f","ios":"levelo://app?vid=d839e313-82d8-402c-8332-5c9ccc0e9b9f"},"vehicle_type_id":"4","last_reported":1737130236,"current_range_meters":28400,"station_id":"ce4bgkh2rcd13ifvqbl0","pricing_plan_id":"cebpf4jnsgd1na2vs0mg"},{"bike_id":"61f6d027-7bbe-4f2a-8da9-204164873693","system_id":"levelo_inurba_marseille","lat":43.2558,"lon":5.38239,"is_reserved":false,"is_disabled":false,"rental_uris":{"android":"levelo://app?vid=61f6d027-7bbe-4f2a-8da9-204164873693","ios":"levelo://app?vid=61f6d027-7bbe-4f2a-8da9-204164873693"},"vehicle_type_id":"4","last_reported":1737130236,"current_range_meters":38800,"station_id":"ce4bhih2rcd13ifvqfs0","pricing_plan_id":"cebpf4jnsgd1na2vs0mg"},{"bike_id":"426c6dbb-f325-4738-906d-29242f82afb0","system_id":"levelo_inurba_marseille","lat":43.31241,"lon":5.38142,"is_reserved":false,"is_disabled":false,"rental_uris":{"android":"levelo://app?vid=426c6dbb-f325-4738-906d-29242f82afb0","ios":"levelo://app?vid=426c6dbb-f325-4738-906d-29242f82afb0"},"vehicle_type_id":"4","last_reported":1737130236,"current_range_meters":8400,"station_id":"","pricing_plan_id":"cebpf4jnsgd1na2vs0mg"},{"bike_id":"de69f287-cba2-4b97-b49c-162d809cd2bb","system_id":"levelo_inurba_marseille","lat":43.28708,"lon":5.39986,"is_reserved":false,"is_disabled":true,"rental_uris":{"android":"levelo://app?vid=de69f287-cba2-4b97-b49c-162d809cd2bb","ios":"levelo://app?vid=de69f287-cba2-4b97-b49c-162d809cd2bb"},"vehicle_type_id":"4","last_reported":1737130236,"current_range_meters":0,"station_id":"ce4bho92rcd13ifvqh3g","pricing_plan_id":"cebpf4jnsgd1na2vs0mg"},{"bike_id":"4e899928-603c-48ae-bc1d-3ea4ed315f13","system_id":"levelo_inurba_marseille","lat":43.30302,"lon":5.39197,"is_reserved":false,"is_disabled":true,"rental_uris":{"android":"levelo://app?vid=4e899928-603c-48ae-bc1d-3ea4ed315f13","ios":"levelo://app?vid=4e899928-603c-48ae-bc1d-3ea4ed315f13"},"vehicle_type_id":"4","last_reported":1737130236,"current_range_meters":27200,"station_id":"ce4bgkh2rcd13ifvqbk0","pricing_plan_id":"cebpf4jnsgd1na2vs0mg"},{"bike_id":"c965c02f-10c1-43f9-8f96-d0879f8b00fb","system_id":"levelo_inurba_marseille","lat":43.30142,"lon":5.38056,"is_reserved":false,"is_disabled":false,"rental_uris":{"android":"levelo://app?vid=c965c02f-10c1-43f9-8f96-d0879f8b00fb","ios":"levelo://app?vid=c965c02f-10c1-43f9-8f96-d0879f8b00fb"},"vehicle_type_id":"4","last_reported":1737130236,"current_range_meters":15200,"station_id":"ce4bgjp2rcd13ifvqbh0","pricing_plan_id":"cebpf4jnsgd1na2vs0mg"},{"bike_id":"bd8c4ed4-a0a8-4241-a912-65465df9f18f","system_id":"levelo_inurba_marseille","lat":43.29577,"lon":5.39976,"is_reserved":false,"is_disabled":false,"rental_uris":{"android":"levelo://app?vid=bd8c4ed4-a0a8-4241-a912-65465df9f18f","ios":"levelo://app?vid=bd8c4ed4-a0a8-4241-a912-65465df9f18f"},"vehicle_type_id":"4","last_reported":1737130236,"current_range_meters":28000,"station_id":"ce4bh312rcd13ifvqdj0","pricing_plan_id":"cebpf4jnsgd1na2vs0mg"},{"bike_id":"b24a2576-89c3-4aa5-90e3-ac68bb357c04","system_id":"levelo_inurba_marseille","lat":43.31721,"lon":5.42405,"is_reserved":false,"is_disabled":false,"rental_uris":{"android":"levelo://app?vid=b24a2576-89c3-4aa5-90e3-ac68bb357c04","ios":"levelo://app?vid=b24a2576-89c3-4aa5-90e3-ac68bb357c04"},"vehicle_type_id":"4","last_reported":1737130236,"current_range_meters":30800,"station_id":"ce4bhp92rcd13ifvqhbg","pricing_plan_id":"cebpf4jnsgd1na2vs0mg"},{"bike_id":"c2dd5557-e003-4bf0-ab67-cf3d3a83b76c","system_id":"levelo_inurba_marseille","lat":43.29697,"lon":5.42194,"is_reserved":false,"is_disabled":true,"rental_uris":{"android":"levelo://app?vid=c2dd5557-e003-4bf0-ab67-cf3d3a83b76c","ios":"levelo://app?vid=c2dd5557-e003-4bf0-ab67-cf3d3a83b76c"},"vehicle_type_id":"4","last_reported":1737130236,"current_range_meters":800,"station_id":"","pricing_plan_id":"cebpf4jnsgd1na2vs0mg"},{"bike_id":"44f0f855-9054-4aba-b306-11da2f934a39","system_id":"levelo_inurba_marseille","lat":43.28453,"lon":5.35903,"is_reserved":false,"is_disabled":false,"rental_uris":{"android":"levelo://app?vid=44f0f855-9054-4aba-b306-11da2f934a39","ios":"levelo://app?vid=44f0f855-9054-4aba-b306-11da2f934a39"},"vehicle_type_id":"4","last_reported":1737130236,"current_range_meters":38800,"station_id":"ce4bhah2rcd13ifvqei0","pricing_plan_id":"cebpf4jnsgd1na2vs0mg"},{"bike_id":"7a965ff0-7950-4a05-a546-7c6edb99f6a4","system_id":"levelo_inurba_marseille","lat":43.31373,"lon":5.38503,"is_reserved":false,"is_disabled":false,"rental_uris":{"android":"levelo://app?vid=7a965ff0-7950-4a05-a546-7c6edb99f6a4","ios":"levelo://app?vid=7a965ff0-7950-4a05-a546-7c6edb99f6a4"},"vehicle_type_id":"4","last_reported":1737130236,"current_range_meters":21600,"station_id":"ce4bgt92rcd13ifvqcf0","pricing_plan_id":"cebpf4jnsgd1na2vs0mg"},{"bike_id":"00a4d52f-f224-458c-a4a0-bbfba7cd6a2a","system_id":"levelo_inurba_marseille","lat":43.2841,"lon":5.34983,"is_reserved":false,"is_disabled":false,"rental_uris":{"android":"levelo://app?vid=00a4d52f-f224-458c-a4a0-bbfba7cd6a2a","ios":"levelo://app?vid=00a4d52f-f224-458c-a4a0-bbfba7cd6a2a"},"vehicle_type_id":"4","last_reported":1737130236,"current_range_meters":38800,"station_id":"ce4bhbh2rcd13ifvqepg","pricing_plan_id":"cebpf4jnsgd1na2vs0mg"},{"bike_id":"ff934638-0993-4105-b3d4-b9c07a1a6b53","system_id":"levelo_inurba_marseille","lat":43.30141,"lon":5.37416,"is_reserved":false,"is_disabled":false,"rental_uris":{"android":"levelo://app?vid=ff934638-0993-4105-b3d4-b9c07a1a6b53","ios":"levelo://app?vid=ff934638-0993-4105-b3d4-b9c07a1a6b53"},"vehicle_type_id":"4","last_reported":1737130236,"current_range_meters":37600,"station_id":"ce4bgs92rcd13ifvqcc0","pricing_plan_id":"cebpf4jnsgd1na2vs0mg"},{"bike_id":"2edd7109-a662-40c0-b9d6-9039fe48b4cb","system_id":"levelo_inurba_marseille","lat":43.32451,"lon":5.3654,"is_reserved":false,"is_disabled":false,"rental_uris":{"android":"levelo://app?vid=2edd7109-a662-40c0-b9d6-9039fe48b4cb","ios":"levelo://app?vid=2edd7109-a662-40c0-b9d6-9039fe48b4cb"},"vehicle_type_id":"4","last_reported":1737130236,"current_range_meters":32400,"station_id":"ce4bhs12rcd13ifvqhvg","pricing_plan_id":"cebpf4jnsgd1na2vs0mg"},{"bike_id":"95b81bfc-d409-4d3a-a1dd-ad7b5ab93435","system_id":"levelo_inurba_marseille","lat":43.25727,"lon":5.41106,"is_reserved":false,"is_disabled":false,"rental_uris":{"android":"levelo://app?vid=95b81bfc-d409-4d3a-a1dd-ad7b5ab93435","ios":"levelo://app?vid=95b81bfc-d409-4d3a-a1dd-ad7b5ab93435"},"vehicle_type_id":"4","last_reported":1737130236,"current_range_meters":6400,"station_id":"ce4bhkp2rcd13ifvqgd0","pricing_plan_id":"cebpf4jnsgd1na2vs0mg"},{"bike_id":"c8eb5688-10c0-42af-885e-bd72d5ee4321","system_id":"levelo_inurba_marseille","lat":43.29955,"lon":5.41335,"is_reserved":false,"is_disabled":false,"rental_uris":{"android":"levelo://app?vid=c8eb5688-10c0-42af-885e-bd72d5ee4321","ios":"levelo://app?vid=c8eb5688-10c0-42af-885e-bd72d5ee4321"},"vehicle_type_id":"4","last_reported":1737130236,"current_range_meters":36800,"station_id":"ce4bhp12rcd13ifvqh9g","pricing_plan_id":"cebpf4jnsgd1na2vs0mg"},{"bike_id":"76f6b38f-ae8b-4891-a5ac-43454c56a967","system_id":"levelo_inurba_marseille","lat":43.30574,"lon":5.36507,"is_reserved":false,"is_disabled":false,"rental_uris":{"android":"levelo://app?vid=76f6b38f-ae8b-4891-a5ac-43454c56a967","ios":"levelo://app?vid=76f6b38f-ae8b-4891-a5ac-43454c56a967"},"vehicle_type_id":"4","last_reported":1737130236,"current_range_meters":38800,"station_id":"ce4bgs12rcd13ifvqcag","pricing_plan_id":"cebpf4jnsgd1na2vs0mg"},{"bike_id":"3573cf18-facc-45c7-8ca4-04700b372c80","system_id":"levelo_inurba_marseille","lat":43.27948,"lon":5.41044,"is_reserved":false,"is_disabled":false,"rental_uris":{"android":"levelo://app?vid=3573cf18-facc-45c7-8ca4-04700b372c80","ios":"levelo://app?vid=3573cf18-facc-45c7-8ca4-04700b372c80"},"vehicle_type_id":"4","last_reported":1737130236,"current_range_meters":3600,"station_id":"ce4bhnp2rcd13ifvqh0g","pricing_plan_id":"cebpf4jnsgd1na2vs0mg"},{"bike_id":"102cdc21-d489-4f0b-8321-d8ab1647ae0c","system_id":"levelo_inurba_marseille","lat":43.29812,"lon":5.38086,"is_reserved":false,"is_disabled":true,"rental_uris":{"android":"levelo://app?vid=102cdc21-d489-4f0b-8321-d8ab1647ae0c","ios":"levelo://app?vid=102cdc21-d489-4f0b-8321-d8ab1647ae0c"},"vehicle_type_id":"4","last_reported":1737130236,"current_range_meters":1200,"station_id":"ce4bgip2rcd13ifvqbb0","pricing_plan_id":"cebpf4jnsgd1na2vs0mg"},{"bike_id":"bc7bb99b-5bb8-4857-bbc7-3d8d4f862dde","system_id":"levelo_inurba_marseille","lat":43.30419,"lon":5.41275,"is_reserved":false,"is_disabled":false,"rental_uris":{"android":"levelo://app?vid=bc7bb99b-5bb8-4857-bbc7-3d8d4f862dde","ios":"levelo://app?vid=bc7bb99b-5bb8-4857-bbc7-3d8d4f862dde"},"vehicle_type_id":"4","last_reported":1737130236,"current_range_meters":26000,"station_id":"ce4bhop2rcd13ifvqh8g","pricing_plan_id":"cebpf4jnsgd1na2vs0mg"},{"bike_id":"4f4b8403-6ce4-433c-b2de-d1d3524e345e","system_id":"levelo_inurba_marseille","lat":43.25496,"lon":5.37651,"is_reserved":false,"is_disabled":false,"rental_uris":{"android":"levelo://app?vid=4f4b8403-6ce4-433c-b2de-d1d3524e345e","ios":"levelo://app?vid=4f4b8403-6ce4-433c-b2de-d1d3524e345e"},"vehicle_type_id":"4","last_reported":1737130236,"current_range_meters":29600,"station_id":"ce4bhh12rcd13ifvqff0","pricing_plan_id":"cebpf4jnsgd1na2vs0mg"},{"bike_id":"412cf22f-402a-44f2-8fc9-ae19d360d5fd","system_id":"levelo_inurba_marseille","lat":43.25723,"lon":5.41118,"is_reserved":false,"is_disabled":false,"rental_uris":{"android":"levelo://app?vid=412cf22f-402a-44f2-8fc9-ae19d360d5fd","ios":"levelo://app?vid=412cf22f-402a-44f2-8fc9-ae19d360d5fd"},"vehicle_type_id":"4","last_reported":1737130236,"current_range_meters":28000,"station_id":"ce4bhkp2rcd13ifvqgd0","pricing_plan_id":"cebpf4jnsgd1na2vs0mg"},{"bike_id":"05f8cc78-38da-45a2-b258-6c4522050075","system_id":"levelo_inurba_marseille","lat":43.24344,"lon":5.41192,"is_reserved":false,"is_disabled":false,"rental_uris":{"android":"levelo://app?vid=05f8cc78-38da-45a2-b258-6c4522050075","ios":"levelo://app?vid=05f8cc78-38da-45a2-b258-6c4522050075"},"vehicle_type_id":"4","last_reported":1737130236,"current_range_meters":11200,"station_id":"","pricing_plan_id":"cebpf4jnsgd1na2vs0mg"},{"bike_id":"32d271b4-2eb0-4f5c-a29b-3a605efe2cb6","system_id":"levelo_inurba_marseille","lat":43.25084,"lon":5.39527,"is_reserved":false,"is_disabled":false,"rental_uris":{"android":"levelo://app?vid=32d271b4-2eb0-4f5c-a29b-3a605efe2cb6","ios":"levelo://app?vid=32d271b4-2eb0-4f5c-a29b-3a605efe2cb6"},"vehicle_type_id":"4","last_reported":1737130236,"current_range_meters":24000,"station_id":"ce4bhm12rcd13ifvqgkg","pricing_plan_id":"cebpf4jnsgd1na2vs0mg"},{"bike_id":"d2748268-28cd-4f71-a9f0-bfe33ada2f11","system_id":"levelo_inurba_marseille","lat":43.22912,"lon":5.35402,"is_reserved":false,"is_disabled":false,"rental_uris":{"android":"levelo://app?vid=d2748268-28cd-4f71-a9f0-bfe33ada2f11","ios":"levelo://app?vid=d2748268-28cd-4f71-a9f0-bfe33ada2f11"},