{"last_updated":1744985353,"ttl":60,"version":"2.2","data":{"bikes":[{"bike_id":"30e25a95-2e24-402a-acd6-1f690431a53c","system_id":"levelo_inurba_marseille","lat":43.29915,"lon":5.37484,"is_reserved":false,"is_disabled":false,"rental_uris":{"android":"levelo://app?vid=30e25a95-2e24-402a-acd6-1f690431a53c","ios":"levelo://app?vid=30e25a95-2e24-402a-acd6-1f690431a53c"},"vehicle_type_id":"4","last_reported":1744985353,"current_range_meters":2800,"station_id":"ce4bgjh2rcd13ifvqbg0","pricing_plan_id":"cebpf4jnsgd1na2vs0mg"},{"bike_id":"c2a87533-e205-4049-b6c0-8f3e626282bb","system_id":"levelo_inurba_marseille","lat":43.25499,"lon":5.37659,"is_reserved":false,"is_disabled":false,"rental_uris":{"android":"levelo://app?vid=c2a87533-e205-4049-b6c0-8f3e626282bb","ios":"levelo://app?vid=c2a87533-e205-4049-b6c0-8f3e626282bb"},"vehicle_type_id":"4","last_reported":1744985353,"current_range_meters":2800,"station_id":"ce4bhh12rcd13ifvqff0","pricing_plan_id":"cebpf4jnsgd1na2vs0mg"},{"bike_id":"7c8fe496-80c4-4800-b3fb-eac000557111","system_id":"levelo_inurba_marseille","lat":43.24163,"lon":5.36395,"is_reserved":false,"is_disabled":false,"rental_uris":{"android":"levelo://app?vid=7c8fe496-80c4-4800-b3fb-eac000557111","ios":"levelo://app?vid=7c8fe496-80c4-4800-b3fb-eac000557111"},"vehicle_type_id":"4","last_reported":1744985353,"current_range_meters":2800,"station_id":"cpo36qri1sfpv3e86is0","pricing_plan_id":"cebpf4jnsgd1na2vs0mg"},{"bike_id":"3721a1ad-232e-4c92-8b59-02516665d12f","system_id":"levelo_inurba_marseille","lat":43.28124,"lon":5.3787,"is_reserved":false,"is_disabled":false,"rental_uris":{"android":"levelo://app?vid=3721a1ad-232e-4c92-8b59-02516665d12f","ios":"levelo://app?vid=3721a1ad-232e-4c92-8b59-02516665d12f"},"vehicle_type_id":"4","last_reported":1744985353,"current_range_meters":2800,"station_id":"ce4bha12rcd13ifvqee0","pricing_plan_id":"cebpf4jnsgd1na2vs0mg"},{"bike_id":"0f0040b2-34e7-47e8-8898-d71c827e5dfe","system_id":"levelo_inurba_marseille","lat":43.29489,"lon":5.38371,"is_reserved":false,"is_disabled":false,"rental_uris":{"android":"levelo://app?vid=0f0040b2-34e7-47e8-8898-d71c827e5dfe","ios":"levelo://app?vid=0f0040b2-34e7-47e8-8898-d71c827e5dfe"},"vehicle_type_id":"4","last_reported":1744985353,"current_range_meters":3200,"station_id":"","pricing_plan_id":"cebpf4jnsgd1na2vs0mg"},{"bike_id":"10102e70-9bba-46be-a07c-30a3bb710f0e","system_id":"levelo_inurba_marseille","lat":43.24371,"lon":5.37083,"is_reserved":false,"is_disabled":false,"rental_uris":{"android":"levelo://app?vid=10102e70-9bba-46be-a07c-30a3bb710f0e","ios":"levelo://app?vid=10102e70-9bba-46be-a07c-30a3bb710f0e"},"vehicle_type_id":"4","last_reported":1744985353,"current_range_meters":3200,"station_id":"ce4bhhh2rcd13ifvqfk0","pricing_plan_id":"cebpf4jnsgd1na2vs0mg"},{"bike_id":"593f200f-acc6-4515-9b2c-377663e6c433","system_id":"levelo_inurba_marseille","lat":43.217448,"lon":5.346038,"is_reserved":false,"is_disabled":true,"rental_uris":{"android":"levelo://app?vid=593f200f-acc6-4515-9b2c-377663e6c433","ios":"levelo://app?vid=593f200f-acc6-4515-9b2c-377663e6c433"},"vehicle_type_id":"4","last_reported":1744985353,"current_range_meters":3200,"station_id":"st_cvj6r9ubvosntc0bgbag","pricing_plan_id":"cebpf4jnsgd1na2vs0mg"},{"bike_id":"f409b9ba-dab8-4c43-acd6-79ca8e6a6cc0","system_id":"levelo_inurba_marseille","lat":43.28914,"lon":5.38367,"is_reserved":false,"is_disabled":false,"rental_uris":{"android":"levelo://app?vid=f409b9ba-dab8-4c43-acd6-79ca8e6a6cc0","ios":"levelo://app?vid=f409b9ba-dab8-4c43-acd6-79ca8e6a6cc0"},"vehicle_type_id":"4","last_reported":1744985353,"current_range_meters":3200,"station_id":"ce4bh612rcd13ifvqe6g","pricing_plan_id":"cebpf4jnsgd1na2vs0mg"},{"bike_id":"e7661a49-e91c-47d3-b5d9-e1b70f140fb5","system_id":"levelo_inurba_marseille","lat":43.24163,"lon":5.3639,"is_reserved":false,"is_disabled":false,"rental_uris":{"android":"levelo://app?vid=e7661a49-e91c-47d3-b5d9-e1b70f140fb5","ios":"levelo://app?vid=e7661a49-e91c-47d3-b5d9-e1b70f140fb5"},"vehicle_type_id":"4","last_reported":1744985353,"current_range_meters":3200,"station_id":"cpo36qri1sfpv3e86is0","pricing_plan_id":"cebpf4jnsgd1na2vs0mg"},{"bike_id":"5e776340-62c0-47d2-a954-53b14a6448b4","system_id":"levelo_inurba_marseille","lat":43.28265,"lon":5.35053,"is_reserved":false,"is_disabled":false,"rental_uris":{"android":"levelo://app?vid=5e776340-62c0-47d2-a954-53b14a6448b4","ios":"levelo://app?vid=5e776340-62c0-47d2-a954-53b14a6448b4"},"vehicle_type_id":"4","last_reported":1744985353,"current_range_meters":3600,"station_id":"ce4bhbp2rcd13ifvqerg","pricing_plan_id":"cebpf4jnsgd1na2vs0mg"},{"bike_id":"e0d24ab0-14f1-4297-b8ae-6563bfdafbba","system_id":"levelo_inurba_marseille","lat":43.27862,"lon":5.38025,"is_reserved":false,"is_disabled":false,"rental_uris":{"android":"levelo://app?vid=e0d24ab0-14f1-4297-b8ae-6563bfdafbba","ios":"levelo://app?vid=e0d24ab0-14f1-4297-b8ae-6563bfdafbba"},"vehicle_type_id":"4","last_reported":1744985353,"current_range_meters":3600,"station_id":"","pricing_plan_id":"cebpf4jnsgd1na2vs0mg"},{"bike_id":"6dc0e360-6e9e-4d79-bf9e-abf3d9028b79","system_id":"levelo_inurba_marseille","lat":43.2319,"lon":5.35555,"is_reserved":false,"is_disabled":false,"rental_uris":{"android":"levelo://app?vid=6dc0e360-6e9e-4d79-bf9e-abf3d9028b79","ios":"levelo://app?vid=6dc0e360-6e9e-4d79-bf9e-abf3d9028b79"},"vehicle_type_id":"4","last_reported":1744985353,"current_range_meters":3600,"station_id":"ce4bhu92rcd13ifvqi70","pricing_plan_id":"cebpf4jnsgd1na2vs0mg"},{"bike_id":"2e93ca96-4d48-4800-ba61-feaf760b88c5","system_id":"levelo_inurba_marseille","lat":43.21744,"lon":5.34606,"is_reserved":false,"is_disabled":false,"rental_uris":{"android":"levelo://app?vid=2e93ca96-4d48-4800-ba61-feaf760b88c5","ios":"levelo://app?vid=2e93ca96-4d48-4800-ba61-feaf760b88c5"},"vehicle_type_id":"4","last_reported":1744985353,"current_range_meters":3600,"station_id":"st_cvj6r9ubvosntc0bgbag","pricing_plan_id":"cebpf4jnsgd1na2vs0mg"},{"bike_id":"125cd386-c11e-4f86-9c1b-1d2dc267d57a","system_id":"levelo_inurba_marseille","lat":43.23185,"lon":5.39985,"is_reserved":false,"is_disabled":false,"rental_uris":{"android":"levelo://app?vid=125cd386-c11e-4f86-9c1b-1d2dc267d57a","ios":"levelo://app?vid=125cd386-c11e-4f86-9c1b-1d2dc267d57a"},"vehicle_type_id":"4","last_reported":1744985353,"current_range_meters":3200,"station_id":"ce4bhn12rcd13ifvqgqg","pricing_plan_id":"cebpf4jnsgd1na2vs0mg"},{"bike_id":"7449751d-b68a-489e-9d6c-47401a23544d","system_id":"levelo_inurba_marseille","lat":43.3014,"lon":5.38786,"is_reserved":false,"is_disabled":false,"rental_uris":{"android":"levelo://app?vid=7449751d-b68a-489e-9d6c-47401a23544d","ios":"levelo://app?vid=7449751d-b68a-489e-9d6c-47401a23544d"},"vehicle_type_id":"4","last_reported":1744985353,"current_range_meters":3600,"station_id":"ce4bghh2rcd13ifvqb60","pricing_plan_id":"cebpf4jnsgd1na2vs0mg"},{"bike_id":"fe53a86d-b6d5-42fa-bdf7-361dab50232c","system_id":"levelo_inurba_marseille","lat":43.27619,"lon":5.36108,"is_reserved":false,"is_disabled":false,"rental_uris":{"android":"levelo://app?vid=fe53a86d-b6d5-42fa-bdf7-361dab50232c","ios":"levelo://app?vid=fe53a86d-b6d5-42fa-bdf7-361dab50232c"},"vehicle_type_id":"4","last_reported":1744985353,"current_range_meters":3600,"station_id":"ce4bgj92rcd13ifvqbe0","pricing_plan_id":"cebpf4jnsgd1na2vs0mg"},{"bike_id":"df566e2f-3613-4eea-8307-3a2c0cec525a","system_id":"levelo_inurba_marseille","lat":43.290087,"lon":5.356181,"is_reserved":false,"is_disabled":false,"rental_uris":{"android":"levelo://app?vid=df566e2f-3613-4eea-8307-3a2c0cec525a","ios":"levelo://app?vid=df566e2f-3613-4eea-8307-3a2c0cec525a"},"vehicle_type_id":"4","last_reported":1744985353,"current_range_meters":3600,"station_id":"ce4bgih2rcd13ifvqba0","pricing_plan_id":"cebpf4jnsgd1na2vs0mg"},{"bike_id":"8513fbff-ad59-4147-bd8a-38d6b31d06e7","system_id":"levelo_inurba_marseille","lat":43.27209,"lon":5.39181,"is_reserved":false,"is_disabled":false,"rental_uris":{"android":"levelo://app?vid=8513fbff-ad59-4147-bd8a-38d6b31d06e7","ios":"levelo://app?vid=8513fbff-ad59-4147-bd8a-38d6b31d06e7"},"vehicle_type_id":"4","last_reported":1744985353,"current_range_meters":3600,"station_id":"ce4bhhp2rcd13ifvqfm0","pricing_plan_id":"cebpf4jnsgd1na2vs0mg"},{"bike_id":"8877ccd4-3e72-4768-9fe2-90b4d0c50480","system_id":"levelo_inurba_marseille","lat":43.28282,"lon":5.35076,"is_reserved":false,"is_disabled":false,"rental_uris":{"android":"levelo://app?vid=8877ccd4-3e72-4768-9fe2-90b4d0c50480","ios":"levelo://app?vid=8877ccd4-3e72-4768-9fe2-90b4d0c50480"},"vehicle_type_id":"4","last_reported":1744985353,"current_range_meters":3600,"station_id":"ce4bhbp2rcd13ifvqerg","pricing_plan_id":"cebpf4jnsgd1na2vs0mg"},{"bike_id":"3ca26b5b-53e3-48b8-a256-f9f0ba6142dc","system_id":"levelo_inurba_marseille","lat":43.28277,"lon":5.35077,"is_reserved":false,"is_disabled":false,"rental_uris":{"android":"levelo://app?vid=3ca26b5b-53e3-48b8-a256-f9f0ba6142dc","ios":"levelo://app?vid=3ca26b5b-53e3-48b8-a256-f9f0ba6142dc"},"vehicle_type_id":"4","last_reported":1744985353,"current_range_meters":4000,"station_id":"ce4bhbp2rcd13ifvqerg","pricing_plan_id":"cebpf4jnsgd1na2vs0mg"},{"bike_id":"cfb7ffc7-bcdd-4a4e-974d-a5fcb646f6d1","system_id":"levelo_inurba_marseille","lat":43.23073,"lon":5.35483,"is_reserved":false,"is_disabled":false,"rental_uris":{"android":"levelo://app?vid=cfb7ffc7-bcdd-4a4e-974d-a5fcb646f6d1","ios":"levelo://app?vid=cfb7ffc7-bcdd-4a4e-974d-a5fcb646f6d1"},"vehicle_type_id":"4","last_reported":1744985353,"current_range_meters":4000,"station_id":"cpo3342slgdg3j2ifvpg","pricing_plan_id":"cebpf4jnsgd1na2vs0mg"},{"bike_id":"206e6eed-90ee-4177-ab5a-4bcb1810ce02","system_id":"levelo_inurba_marseille","lat":43.32381,"lon":5.36731,"is_reserved":false,"is_disabled":false,"rental_uris":{"android":"levelo://app?vid=206e6eed-90ee-4177-ab5a-4bcb1810ce02","ios":"levelo://app?vid=206e6eed-90ee-4177-ab5a-4bcb1810ce02"},"vehicle_type_id":"4","last_reported":1744985353,"current_range_meters":4400,"station_id":"","pricing_plan_id":"cebpf4jnsgd1na2vs0mg"},{"bike_id":"1a735045-e478-4411-bf91-7d97671a0a1f","system_id":"levelo_inurba_marseille","lat":43.30144,"lon":5.38072,"is_reserved":false,"is_disabled":false,"rental_uris":{"android":"levelo://app?vid=1a735045-e478-4411-bf91-7d97671a0a1f","ios":"levelo://app?vid=1a735045-e478-4411-bf91-7d97671a0a1f"},"vehicle_type_id":"4","last_reported":1744985353,"current_range_meters":4000,"station_id":"ce4bgjp2rcd13ifvqbh0","pricing_plan_id":"cebpf4jnsgd1na2vs0mg"},{"bike_id":"50dc23ed-5e19-46ee-92cf-f2ca4c445852","system_id":"levelo_inurba_marseille","lat":43.33734,"lon":5.3918,"is_reserved":false,"is_disabled":false,"rental_uris":{"android":"levelo://app?vid=50dc23ed-5e19-46ee-92cf-f2ca4c445852","ios":"levelo://app?vid=50dc23ed-5e19-46ee-92cf-f2ca4c445852"},"vehicle_type_id":"4","last_reported":1744985353,"current_range_meters":4000,"station_id":"ce4bhr92rcd13ifvqhsg","pricing_plan_id":"cebpf4jnsgd1na2vs0mg"},{"bike_id":"6c4961fd-5ef8-4543-a79c-0cf3084317c1","system_id":"levelo_inurba_marseille","lat":43.301544,"lon":5.380926,"is_reserved":false,"is_disabled":false,"rental_uris":{"android":"levelo://app?vid=6c4961fd-5ef8-4543-a79c-0cf3084317c1","ios":"levelo://app?vid=6c4961fd-5ef8-4543-a79c-0cf3084317c1"},"vehicle_type_id":"4","last_reported":1744985353,"current_range_meters":4400,"station_id":"","pricing_plan_id":"cebpf4jnsgd1na2vs0mg"},{"bike_id":"7b1b0ae4-b10c-4ba1-94f3-d8b1ad070f0c","system_id":"levelo_inurba_marseille","lat":43.29871,"lon":5.3973,"is_reserved":false,"is_disabled":false,"rental_uris":{"android":"levelo://app?vid=7b1b0ae4-b10c-4ba1-94f3-d8b1ad070f0c","ios":"levelo://app?vid=7b1b0ae4-b10c-4ba1-94f3-d8b1ad070f0c"},"vehicle_type_id":"4","last_reported":1744985353,"current_range_meters":4000,"station_id":"ce4bh0h2rcd13ifvqd50","pricing_plan_id":"cebpf4jnsgd1na2vs0mg"},{"bike_id":"4b5f8fc0-70ee-4af6-9db0-346d8338cb42","system_id":"levelo_inurba_marseille","lat":43.2721,"lon":5.39174,"is_reserved":false,"is_disabled":false,"rental_uris":{"android":"levelo://app?vid=4b5f8fc0-70ee-4af6-9db0-346d8338cb42","ios":"levelo://app?vid=4b5f8fc0-70ee-4af6-9db0-346d8338cb42"},"vehicle_type_id":"4","last_reported":1744985353,"current_range_meters":4000,"station_id":"ce4bhhp2rcd13ifvqfm0","pricing_plan_id":"cebpf4jnsgd1na2vs0mg"},{"bike_id":"3a37a416-1b06-464a-86b2-71549241c584","system_id":"levelo_inurba_marseille","lat":43.26574,"lon":5.39004,"is_reserved":false,"is_disabled":false,"rental_uris":{"android":"levelo://app?vid=3a37a416-1b06-464a-86b2-71549241c584","ios":"levelo://app?vid=3a37a416-1b06-464a-86b2-71549241c584"},"vehicle_type_id":"4","last_reported":1744985353,"current_range_meters":4800,"station_id":"ce4bhe12rcd13ifvqf30","pricing_plan_id":"cebpf4jnsgd1na2vs0mg"},{"bike_id":"659c75f7-d02e-422c-9885-b3e7a172500c","system_id":"levelo_inurba_marseille","lat":43.26195,"lon":5.37447,"is_reserved":false,"is_disabled":false,"rental_uris":{"android":"levelo://app?vid=659c75f7-d02e-422c-9885-b3e7a172500c","ios":"levelo://app?vid=659c75f7-d02e-422c-9885-b3e7a172500c"},"vehicle_type_id":"4","last_reported":1744985353,"current_range_meters":4800,"station_id":"ce4bhgp2rcd13ifvqfc0","pricing_plan_id":"cebpf4jnsgd1na2vs0mg"},{"bike_id":"d3455303-ad12-477a-98fb-6b1ea11029e4","system_id":"levelo_inurba_marseille","lat":43.303803,"lon":5.424801,"is_reserved":false,"is_disabled":false,"rental_uris":{"android":"levelo://app?vid=d3455303-ad12-477a-98fb-6b1ea11029e4","ios":"levelo://app?vid=d3455303-ad12-477a-98fb-6b1ea11029e4"},"vehicle_type_id":"4","last_reported":1744985353,"current_range_meters":4800,"station_id":"ce4bhoh2rcd13ifvqh6g","pricing_plan_id":"cebpf4jnsgd1na2vs0mg"},{"bike_id":"822cb734-614e-452b-82b3-e2bd9e0dd401","system_id":"levelo_inurba_marseille","lat":43.30377,"lon":5.42483,"is_reserved":false,"is_disabled":false,"rental_uris":{"android":"levelo://app?vid=822cb734-614e-452b-82b3-e2bd9e0dd401","ios":"levelo://app?vid=822cb734-614e-452b-82b3-e2bd9e0dd401"},"vehicle_type_id":"4","last_reported":1744985353,"current_range_meters":4800,"station_id":"ce4bhoh2rcd13ifvqh6g","pricing_plan_id":"cebpf4jnsgd1na2vs0mg"},{"bike_id":"5296dfd6-b810-4928-90d6-7cc3f4e55abd","system_id":"levelo_inurba_marseille","lat":43.24383,"lon":5.37047,"is_reserved":false,"is_disabled":false,"rental_uris":{"android":"levelo://app?vid=5296dfd6-b810-4928-90d6-7cc3f4e55abd","ios":"levelo://app?vid=5296dfd6-b810-4928-90d6-7cc3f4e55abd"},"vehicle_type_id":"4","last_reported":1744985353,"current_range_meters":4800,"station_id":"ce4bhhh2rcd13ifvqfk0","pricing_plan_id":"cebpf4jnsgd1na2vs0mg"},{"bike_id":"34f4d084-7dbf-48de-af21-fde5b485ab46","system_id":"levelo_inurba_marseille","lat":43.24666,"lon":5.38166,"is_reserved":false,"is_disabled":false,"rental_uris":{"android":"levelo://app?vid=34f4d084-7dbf-48de-af21-fde5b485ab46","ios":"levelo://app?vid=34f4d084-7dbf-48de-af21-fde5b485ab46"},"vehicle_type_id":"4","last_reported":1744985353,"current_range_meters":4800,"station_id":"ce4bhih2rcd13ifvqfr0","pricing_plan_id":"cebpf4jnsgd1na2vs0mg"},{"bike_id":"a7afb4a2-f90c-4384-b169-84891b055f20","system_id":"levelo_inurba_marseille","lat":43.25506,"lon":5.37651,"is_reserved":false,"is_disabled":false,"rental_uris":{"android":"levelo://app?vid=a7afb4a2-f90c-4384-b169-84891b055f20","ios":"levelo://app?vid=a7afb4a2-f90c-4384-b169-84891b055f20"},"vehicle_type_id":"4","last_reported":1744985353,"current_range_meters":5600,"station_id":"ce4bhh12rcd13ifvqff0","pricing_plan_id":"cebpf4jnsgd1na2vs0mg"},{"bike_id":"2df22311-bac1-4b8f-abff-11893969de63","system_id":"levelo_inurba_marseille","lat":43.31092,"lon":5.37845,"is_reserved":false,"is_disabled":false,"rental_uris":{"android":"levelo://app?vid=2df22311-bac1-4b8f-abff-11893969de63","ios":"levelo://app?vid=2df22311-bac1-4b8f-abff-11893969de63"},"vehicle_type_id":"4","last_reported":1744985353,"current_range_meters":5600,"station_id":"","pricing_plan_id":"cebpf4jnsgd1na2vs0mg"},{"bike_id":"cad8bc16-97dd-4703-98af-9e3ac07efb65","system_id":"levelo_inurba_marseille","lat":43.258648,"lon":5.398917,"is_reserved":false,"is_disabled":false,"rental_uris":{"android":"levelo://app?vid=cad8bc16-97dd-4703-98af-9e3ac07efb65","ios":"levelo://app?vid=cad8bc16-97dd-4703-98af-9e3ac07efb65"},"vehicle_type_id":"4","last_reported":1744985353,"current_range_meters":5600,"station_id":"ce4bhl92rcd13ifvqghg","pricing_plan_id":"cebpf4jnsgd1na2vs0mg"},{"bike_id":"67525b75-3855-4677-9ed8-889da1b15e89","system_id":"levelo_inurba_marseille","lat":43.29985,"lon":5.37172,"is_reserved":false,"is_disabled":false,"rental_uris":{"android":"levelo://app?vid=67525b75-3855-4677-9ed8-889da1b15e89","ios":"levelo://app?vid=67525b75-3855-4677-9ed8-889da1b15e89"},"vehicle_type_id":"4","last_reported":1744985353,"current_range_meters":5600,"station_id":"ce4bgr92rcd13ifvqc7g","pricing_plan_id":"cebpf4jnsgd1na2vs0mg"},{"bike_id":"46d9e359-47ea-41c6-adcf-d807b766ba69","system_id":"levelo_inurba_marseille","lat":43.24072,"lon":5.37748,"is_reserved":false,"is_disabled":false,"rental_uris":{"android":"levelo://app?vid=46d9e359-47ea-41c6-adcf-d807b766ba69","ios":"levelo://app?vid=46d9e359-47ea-41c6-adcf-d807b766ba69"},"vehicle_type_id":"4","last_reported":1744985353,"current_range_meters":6000,"station_id":"ce4bhnp2rcd13ifvqgvg","pricing_plan_id":"cebpf4jnsgd1na2vs0mg"},{"bike_id":"c6b90d65-5291-4d8a-8c5b-51efc2cc67f4","system_id":"levelo_inurba_marseille","lat":43.26786,"lon":5.39413,"is_reserved":false,"is_disabled":false,"rental_uris":{"android":"levelo://app?vid=c6b90d65-5291-4d8a-8c5b-51efc2cc67f4","ios":"levelo://app?vid=c6b90d65-5291-4d8a-8c5b-51efc2cc67f4"},"vehicle_type_id":"4","last_reported":1744985353,"current_range_meters":6000,"station_id":"ce4bhh12rcd13ifvqfg0","pricing_plan_id":"cebpf4jnsgd1na2vs0mg"},{"bike_id":"b89e84e8-e6fa-495f-b853-cb44832fd17c","system_id":"levelo_inurba_marseille","lat":43.30137,"lon":5.38774,"is_reserved":false,"is_disabled":false,"rental_uris":{"android":"levelo://app?vid=b89e84e8-e6fa-495f-b853-cb44832fd17c","ios":"levelo://app?vid=b89e84e8-e6fa-495f-b853-cb44832fd17c"},"vehicle_type_id":"4","last_reported":1744985353,"current_range_meters":1600,"station_id":"ce4bghh2rcd13ifvqb60","pricing_plan_id":"cebpf4jnsgd1na2vs0mg"},{"bike_id":"7269e049-739d-406e-b327-617ba68be9dd","system_id":"levelo_inurba_marseille","lat":43.28271,"lon":5.35058,"is_reserved":false,"is_disabled":false,"rental_uris":{"android":"levelo://app?vid=7269e049-739d-406e-b327-617ba68be9dd","ios":"levelo://app?vid=7269e049-739d-406e-b327-617ba68be9dd"},"vehicle_type_id":"4","last_reported":1744985353,"current_range_meters":6000,"station_id":"ce4bhbp2rcd13ifvqerg","pricing_plan_id":"cebpf4jnsgd1na2vs0mg"},{"bike_id":"2a297b53-e6c9-4a44-8832-a1535085da75","system_id":"levelo_inurba_marseille","lat":43.32003,"lon":5.38152,"is_reserved":false,"is_disabled":true,"rental_uris":{"android":"levelo://app?vid=2a297b53-e6c9-4a44-8832-a1535085da75","ios":"levelo://app?vid=2a297b53-e6c9-4a44-8832-a1535085da75"},"vehicle_type_id":"4","last_reported":1744985353,"current_range_meters":6400,"station_id":"ce4bhr12rcd13ifvqhpg","pricing_plan_id":"cebpf4jnsgd1na2vs0mg"},{"bike_id":"3c0de5fe-f054-4419-a554-a4bf0b8e0fa9","system_id":"levelo_inurba_marseille","lat":43.23056,"lon":5.35502,"is_reserved":false,"is_disabled":false,"rental_uris":{"android":"levelo://app?vid=3c0de5fe-f054-4419-a554-a4bf0b8e0fa9","ios":"levelo://app?vid=3c0de5fe-f054-4419-a554-a4bf0b8e0fa9"},"vehicle_type_id":"4","last_reported":1744985353,"current_range_meters":6400,"station_id":"cpo3342slgdg3j2ifvpg","pricing_plan_id":"cebpf4jnsgd1na2vs0mg"},{"bike_id":"2b8b0071-1ac9-4824-88e6-5705b7826618","system_id":"levelo_inurba_marseille","lat":43.2315,"lon":5.43716,"is_reserved":false,"is_disabled":false,"rental_uris":{"android":"levelo://app?vid=2b8b0071-1ac9-4824-88e6-5705b7826618","ios":"levelo://app?vid=2b8b0071-1ac9-4824-88e6-5705b7826618"},"vehicle_type_id":"4","last_reported":1744985353,"current_range_meters":6400,"station_id":"ce4bhmp2rcd13ifvqgog","pricing_plan_id":"cebpf4jnsgd1na2vs0mg"},{"bike_id":"05aeadf4-ce10-4215-bb47-b7c02c967d9e","system_id":"levelo_inurba_marseille","lat":43.29635,"lon":5.40597,"is_reserved":false,"is_disabled":false,"rental_uris":{"android":"levelo://app?vid=05aeadf4-ce10-4215-bb47-b7c02c967d9e","ios":"levelo://app?vid=05aeadf4-ce10-4215-bb47-b7c02c967d9e"},"vehicle_type_id":"4","last_reported":1744985353,"current_range_meters":6400,"station_id":"ce4bh0h2rcd13ifvqd60","pricing_plan_id":"cebpf4jnsgd1na2vs0mg"},{"bike_id":"683727aa-af5c-4a30-b620-923da0da034b","system_id":"levelo_inurba_marseille","lat":43.26857,"lon":5.40471,"is_reserved":false,"is_disabled":false,"rental_uris":{"android":"levelo://app?vid=683727aa-af5c-4a30-b620-923da0da034b","ios":"levelo://app?vid=683727aa-af5c-4a30-b620-923da0da034b"},"vehicle_type_id":"4","last_reported":1744985353,"current_range_meters":6400,"station_id":"cjm6bp8fraef2m0cb0m0","pricing_plan_id":"cebpf4jnsgd1na2vs0mg"},{"bike_id":"f10e76a3-02e9-4734-abea-7e5dee43a616","system_id":"levelo_inurba_marseille","lat":43.27617,"lon":5.36106,"is_reserved":false,"is_disabled":false,"rental_uris":{"android":"levelo://app?vid=f10e76a3-02e9-4734-abea-7e5dee43a616","ios":"levelo://app?vid=f10e76a3-02e9-4734-abea-7e5dee43a616"},"vehicle_type_id":"4","last_reported":1744985353,"current_range_meters":6400,"station_id":"ce4bgj92rcd13ifvqbe0","pricing_plan_id":"cebpf4jnsgd1na2vs0mg"},{"bike_id":"369c2b3c-bfe2-469a-a20d-c34e7fa10c29","system_id":"levelo_inurba_marseille","lat":43.26806,"lon":5.40266,"is_reserved":false,"is_disabled":false,"rental_uris":{"android":"levelo://app?vid=369c2b3c-bfe2-469a-a20d-c34e7fa10c29","ios":"levelo://app?vid=369c2b3c-bfe2-469a-a20d-c34e7fa10c29"},"vehicle_type_id":"4","last_reported":1744985353,"current_range_meters":6800,"station_id":"ce501612rcd8frsf0b60","pricing_plan_id":"cebpf4jnsgd1na2vs0mg"},{"bike_id":"cd7c0f3c-bf7b-4237-95c9-bf55d78fccb8","system_id":"levelo_inurba_marseille","lat":43.27373,"lon":5.36249,"is_reserved":false,"is_disabled":false,"rental_uris":{"android":"levelo://app?vid=cd7c0f3c-bf7b-4237-95c9-bf55d78fccb8","ios":"levelo://app?vid=cd7c0f3c-bf7b-4237-95c9-bf55d78fccb8"},"vehicle_type_id":"4","last_reported":1744985353,"current_range_meters":6800,"station_id":"ce4bhbh2rcd13ifvqeo0","pricing_plan_id":"cebpf4jnsgd1na2vs0mg"},{"bike_id":"7098cc40-e1ea-4abe-9154-ccfd7a191c65","system_id":"levelo_inurba_marseille","lat":43.30128,"lon":5.39857,"is_reserved":false,"is_disabled":false,"rental_uris":{"android":"levelo://app?vid=7098cc40-e1ea-4abe-9154-ccfd7a191c65","ios":"levelo://app?vid=7098cc40-e1ea-4abe-9154-ccfd7a191c65"},"vehicle_type_id":"4","last_reported":1744985353,"current_range_meters":6400,"station_id":"ce4bh0h2rcd13ifvqd40","pricing_plan_id":"cebpf4jnsgd1na2vs0mg"},{"bike_id":"bff8c1c1-2384-4932-82b7-bdbd5693d153","system_id":"levelo_inurba_marseille","lat":43.23153,"lon":5.43713,"is_reserved":false,"is_disabled":false,"rental_uris":{"android":"levelo://app?vid=bff8c1c1-2384-4932-82b7-bdbd5693d153","ios":"levelo://app?vid=bff8c1c1-2384-4932-82b7-bdbd5693d153"},"vehicle_type_id":"4","last_reported":1744985353,"current_range_meters":6800,"station_id":"ce4bhmp2rcd13ifvqgog","pricing_plan_id":"cebpf4jnsgd1na2vs0mg"},{"bike_id":"b710fbb1-b765-492e-8cff-58a86822a607","system_id":"levelo_inurba_marseille","lat":43.23196,"lon":5.35558,"is_reserved":false,"is_disabled":false,"rental_uris":{"android":"levelo://app?vid=b710fbb1-b765-492e-8cff-58a86822a607","ios":"levelo://app?vid=b710fbb1-b765-492e-8cff-58a86822a607"},"vehicle_type_id":"4","last_reported":1744985353,"current_range_meters":6800,"station_id":"ce4bhu92rcd13ifvqi70","pricing_plan_id":"cebpf4jnsgd1na2vs0mg"},{"bike_id":"94903b39-b6eb-4b4b-ad7c-5c0e33099e31","system_id":"levelo_inurba_marseille","lat":43.28705,"lon":5.37384,"is_reserved":false,"is_disabled":false,"rental_uris":{"android":"levelo://app?vid=94903b39-b6eb-4b4b-ad7c-5c0e33099e31","ios":"levelo://app?vid=94903b39-b6eb-4b4b-ad7c-5c0e33099e31"},"vehicle_type_id":"4","last_reported":1744985353,"current_range_meters":6800,"station_id":"ce4bh3p2rcd13ifvqdq0","pricing_plan_id":"cebpf4jnsgd1na2vs0mg"},{"bike_id":"ff7aa651-97a5-4dbb-9712-2d1b4144da17","system_id":"levelo_inurba_marseille","lat":43.28419,"lon":5.34981,"is_reserved":false,"is_disabled":false,"rental_uris":{"android":"levelo://app?vid=ff7aa651-97a5-4dbb-9712-2d1b4144da17","ios":"levelo://app?vid=ff7aa651-97a5-4dbb-9712-2d1b4144da17"},"vehicle_type_id":"4","last_reported":1744985353,"current_range_meters":6800,"station_id":"ce4bhbh2rcd13ifvqepg","pricing_plan_id":"cebpf4jnsgd1na2vs0mg"},{"bike_id":"bf692896-5dcb-463d-868d-3927833374e1","system_id":"levelo_inurba_marseille","lat":43.28618,"lon":5.35102,"is_reserved":false,"is_disabled":false,"rental_uris":{"android":"levelo://app?vid=bf692896-5dcb-463d-868d-3927833374e1","ios":"levelo://app?vid=bf692896-5dcb-463d-868d-3927833374e1"},"vehicle_type_id":"4","last_reported":1744985353,"current_range_meters":6800,"station_id":"ce4bhch2rcd13ifvqeug","pricing_plan_id":"cebpf4jnsgd1na2vs0mg"},{"bike_id":"9d8b11c2-1c63-4ecc-889b-73c59fedb4b8","system_id":"levelo_inurba_marseille","lat":43.27616,"lon":5.36112,"is_reserved":false,"is_disabled":false,"rental_uris":{"android":"levelo://app?vid=9d8b11c2-1c63-4ecc-889b-73c59fedb4b8","ios":"levelo://app?vid=9d8b11c2-1c63-4ecc-889b-73c59fedb4b8"},"vehicle_type_id":"4","last_reported":1744985353,"current_range_meters":7200,"station_id":"ce4bgj92rcd13ifvqbe0","pricing_plan_id":"cebpf4jnsgd1na2vs0mg"},{"bike_id":"46435382-b8be-4862-a80e-8300a0d00edd","system_id":"levelo_inurba_marseille","lat":43.29273,"lon":5.38438,"is_reserved":false,"is_disabled":false,"rental_uris":{"android":"levelo://app?vid=46435382-b8be-4862-a80e-8300a0d00edd","ios":"levelo://app?vid=46435382-b8be-4862-a80e-8300a0d00edd"},"vehicle_type_id":"4","last_reported":1744985353,"current_range_meters":7200,"station_id":"ce4bh692rcd13ifvqea0","pricing_plan_id":"cebpf4jnsgd1na2vs0mg"},{"bike_id":"3c085b94-accc-4168-b079-4d9f500e9be1","system_id":"levelo_inurba_marseille","lat":43.27679,"lon":5.38878,"is_reserved":false,"is_disabled":false,"rental_uris":{"android":"levelo://app?vid=3c085b94-accc-4168-b079-4d9f500e9be1","ios":"levelo://app?vid=3c085b94-accc-4168-b079-4d9f500e9be1"},"vehicle_type_id":"4","last_reported":1744985353,"current_range_meters":6800,"station_id":"ce4bhi12rcd13ifvqfo0","pricing_plan_id":"cebpf4jnsgd1na2vs0mg"},{"bike_id":"fc1db3d0-4f0b-41b5-948f-1f755aba50ce","system_id":"levelo_inurba_marseille","lat":43.290922,"lon":5.381317,"is_reserved":false,"is_disabled":false,"rental_uris":{"android":"levelo://app?vid=fc1db3d0-4f0b-41b5-948f-1f755aba50ce","ios":"levelo://app?vid=fc1db3d0-4f0b-41b5-948f-1f755aba50ce"},"vehicle_type_id":"4","last_reported":1744985353,"current_range_meters":8000,"station_id":"ce4bh512rcd13ifvqe2g","pricing_plan_id":"cebpf4jnsgd1na2vs0mg"},{"bike_id":"263ccb4c-fff7-485b-9adc-e46b8cba0f7c","system_id":"levelo_inurba_marseille","lat":43.30187,"lon":5.36606,"is_reserved":false,"is_disabled":false,"rental_uris":{"android":"levelo://app?vid=263ccb4c-fff7-485b-9adc-e46b8cba0f7c","ios":"levelo://app?vid=263ccb4c-fff7-485b-9adc-e46b8cba0f7c"},"vehicle_type_id":"4","last_reported":1744985353,"current_range_meters":8000,"station_id":"ce4bgrh2rcd13ifvqc8g","pricing_plan_id":"cebpf4jnsgd1na2vs0mg"},{"bike_id":"91cbc6af-d17d-46eb-9b9d-7fd15a6c1bcb","system_id":"levelo_inurba_marseille","lat":43.28264,"lon":5.35074,"is_reserved":false,"is_disabled":false,"rental_uris":{"android":"levelo://app?vid=91cbc6af-d17d-46eb-9b9d-7fd15a6c1bcb","ios":"levelo://app?vid=91cbc6af-d17d-46eb-9b9d-7fd15a6c1bcb"},"vehicle_type_id":"4","last_reported":1744985353,"current_range_meters":8000,"station_id":"ce4bhbp2rcd13ifvqerg","pricing_plan_id":"cebpf4jnsgd1na2vs0mg"},{"bike_id":"1a2eea39-a419-498b-8340-174c0c51a46e","system_id":"levelo_inurba_marseille","lat":43.23064,"lon":5.35502,"is_reserved":false,"is_disabled":false,"rental_uris":{"android":"levelo://app?vid=1a2eea39-a419-498b-8340-174c0c51a46e","ios":"levelo://app?vid=1a2eea39-a419-498b-8340-174c0c51a46e"},"vehicle_type_id":"4","last_reported":1744985353,"current_range_meters":8000,"station_id":"cpo3342slgdg3j2ifvpg","pricing_plan_id":"cebpf4jnsgd1na2vs0mg"},{"bike_id":"b84f3187-08c8-4319-8d18-04bb6833cb36","system_id":"levelo_inurba_marseille","lat":43.29715,"lon":5.37696,"is_reserved":false,"is_disabled":false,"rental_uris":{"android":"levelo://app?vid=b84f3187-08c8-4319-8d18-04bb6833cb36","ios":"levelo://app?vid=b84f3187-08c8-4319-8d18-04bb6833cb36"},"vehicle_type_id":"4","last_reported":1744985353,"current_range_meters":7200,"station_id":"ce4bgkh2rcd13ifvqbl0","pricing_plan_id":"cebpf4jnsgd1na2vs0mg"},{"bike_id":"cbc5f54a-1112-4bc5-9ae4-7398defc9b90","system_id":"levelo_inurba_marseille","lat":43.25009,"lon":5.38943,"is_reserved":false,"is_disabled":false,"rental_uris":{"android":"levelo://app?vid=cbc5f54a-1112-4bc5-9ae4-7398defc9b90","ios":"levelo://app?vid=cbc5f54a-1112-4bc5-9ae4-7398defc9b90"},"vehicle_type_id":"4","last_reported":1744985353,"current_range_meters":8000,"station_id":"ce4bhgp2rcd13ifvqfd0","pricing_plan_id":"cebpf4jnsgd1na2vs0mg"},{"bike_id":"5916c32c-64ac-4b7a-9497-ec28d11f36b9","system_id":"levelo_inurba_marseille","lat":43.27378,"lon":5.36249,"is_reserved":false,"is_disabled":false,"rental_uris":{"android":"levelo://app?vid=5916c32c-64ac-4b7a-9497-ec28d11f36b9","ios":"levelo://app?vid=5916c32c-64ac-4b7a-9497-ec28d11f36b9"},"vehicle_type_id":"4","last_reported":1744985353,"current_range_meters":8000,"station_id":"ce4bhbh2rcd13ifvqeo0","pricing_plan_id":"cebpf4jnsgd1na2vs0mg"},{"bike_id":"f4379c6c-5366-4845-838a-d74bd27939c9","system_id":"levelo_inurba_marseille","lat":43.29711,"lon":5.3768,"is_reserved":false,"is_disabled":false,"rental_uris":{"android":"levelo://app?vid=f4379c6c-5366-4845-838a-d74bd27939c9","ios":"levelo://app?vid=f4379c6c-5366-4845-838a-d74bd27939c9"},"vehicle_type_id":"4","last_reported":1744985353,"current_range_meters":8400,"station_id":"ce4bgkh2rcd13ifvqbl0","pricing_plan_id":"cebpf4jnsgd1na2vs0mg"},{"bike_id":"264f486a-bdc5-49f1-b791-cf1177dde2f8","system_id":"levelo_inurba_marseille","lat":43.28273,"lon":5.35081,"is_reserved":false,"is_disabled":false,"rental_uris":{"android":"levelo://app?vid=264f486a-bdc5-49f1-b791-cf1177dde2f8","ios":"levelo://app?vid=264f486a-bdc5-49f1-b791-cf1177dde2f8"},"vehicle_type_id":"4","last_reported":1744985353,"current_range_meters":8400,"station_id":"ce4bhbp2rcd13ifvqerg","pricing_plan_id":"cebpf4jnsgd1na2vs0mg"},{"bike_id":"956a0f51-6849-47a4-a9f0-bfe89c1de48d","system_id":"levelo_inurba_marseille","lat":43.3117,"lon":5.38722,"is_reserved":false,"is_disabled":false,"rental_uris":{"android":"levelo://app?vid=956a0f51-6849-47a4-a9f0-bfe89c1de48d","ios":"levelo://app?vid=956a0f51-6849-47a4-a9f0-bfe89c1de48d"},"vehicle_type_id":"4","last_reported":1744985353,"current_range_meters":8800,"station_id":"ce4bgv12rcd13ifvqcp0","pricing_plan_id":"cebpf4jnsgd1na2vs0mg"},{"bike_id":"404274a5-02e3-4e42-84c1-e0135dcef345","system_id":"levelo_inurba_marseille","lat":43.29624,"lon":5.37733,"is_reserved":false,"is_disabled":false,"rental_uris":{"android":"levelo://app?vid=404274a5-02e3-4e42-84c1-e0135dcef345","ios":"levelo://app?vid=404274a5-02e3-4e42-84c1-e0135dcef345"},"vehicle_type_id":"4","last_reported":1744985353,"current_range_meters":8800,"station_id":"ce4bgi92rcd13ifvqb90","pricing_plan_id":"cebpf4jnsgd1na2vs0mg"},{"bike_id":"41fb0398-f2fe-4abb-ae37-a38f47615ea9","system_id":"levelo_inurba_marseille","lat":43.32361,"lon":5.36754,"is_reserved":false,"is_disabled":false,"rental_uris":{"android":"levelo://app?vid=41fb0398-f2fe-4abb-ae37-a38f47615ea9","ios":"levelo://app?vid=41fb0398-f2fe-4abb-ae37-a38f47615ea9"},"vehicle_type_id":"4","last_reported":1744985353,"current_range_meters":8800,"station_id":"ce4bhsh2rcd13ifvqi2g","pricing_plan_id":"cebpf4jnsgd1na2vs0mg"},{"bike_id":"ae812195-2ced-40a8-8b4a-afac86b5b3f4","system_id":"levelo_inurba_marseille","lat":43.23193,"lon":5.39974,"is_reserved":false,"is_disabled":false,"rental_uris":{"android":"levelo://app?vid=ae812195-2ced-40a8-8b4a-afac86b5b3f4","ios":"levelo://app?vid=ae812195-2ced-40a8-8b4a-afac86b5b3f4"},"vehicle_type_id":"4","last_reported":1744985353,"current_range_meters":8800,"station_id":"ce4bhn12rcd13ifvqgqg","pricing_plan_id":"cebpf4jnsgd1na2vs0mg"},{"bike_id":"1c24e379-54d5-46e8-b68d-00e977431710","system_id":"levelo_inurba_marseille","lat":43.31075,"lon":5.38354,"is_reserved":false,"is_disabled":false,"rental_uris":{"android":"levelo://app?vid=1c24e379-54d5-46e8-b68d-00e977431710","ios":"levelo://app?vid=1c24e379-54d5-46e8-b68d-00e977431710"},"vehicle_type_id":"4","last_reported":1744985353,"current_range_meters":8800,"station_id":"ce4bgv92rcd13ifvqcr0","pricing_plan_id":"cebpf4jnsgd1na2vs0mg"},{"bike_id":"e46d8cb6-2daf-4d30-bb45-ba0d0aaa2fa0","system_id":"levelo_inurba_marseille","lat":43.28414,"lon":5.34977,"is_reserved":false,"is_disabled":false,"rental_uris":{"android":"levelo://app?vid=e46d8cb6-2daf-4d30-bb45-ba0d0aaa2fa0","ios":"levelo://app?vid=e46d8cb6-2daf-4d30-bb45-ba0d0aaa2fa0"},"vehicle_type_id":"4","last_reported":1744985353,"current_range_meters":8800,"station_id":"ce4bhbh2rcd13ifvqepg","pricing_plan_id":"cebpf4jnsgd1na2vs0mg"},{"bike_id":"b5b63578-b481-49a4-b00b-0ef6e250d030","system_id":"levelo_inurba_marseille","lat":43.29788,"lon":5.38107,"is_reserved":false,"is_disabled":false,"rental_uris":{"android":"levelo://app?vid=b5b63578-b481-49a4-b00b-0ef6e250d030","ios":"levelo://app?vid=b5b63578-b481-49a4-b00b-0ef6e250d030"},"vehicle_type_id":"4","last_reported":1744985353,"current_range_meters":8400,"station_id":"ce4bgip2rcd13ifvqbb0","pricing_plan_id":"cebpf4jnsgd1na2vs0mg"},{"bike_id":"b64031ae-494e-4de4-910d-358810195657","system_id":"levelo_inurba_marseille","lat":43.30805,"lon":5.3815,"is_reserved":false,"is_disabled":false,"rental_uris":{"android":"levelo://app?vid=b64031ae-494e-4de4-910d-358810195657","ios":"levelo://app?vid=b64031ae-494e-4de4-910d-358810195657"},"vehicle_type_id":"4","last_reported":1744985353,"current_range_meters":8800,"station_id":"ce4bgt12rcd13ifvqce0","pricing_plan_id":"cebpf4jnsgd1na2vs0mg"},{"bike_id":"221b01dc-3eb1-45db-8729-31d6e7ab636b","system_id":"levelo_inurba_marseille","lat":43.28731,"lon":5.36081,"is_reserved":false,"is_disabled":false,"rental_uris":{"android":"levelo://app?vid=221b01dc-3eb1-45db-8729-31d6e7ab636b","ios":"levelo://app?vid=221b01dc-3eb1-45db-8729-31d6e7ab636b"},"vehicle_type_id":"4","last_reported":1744985353,"current_range_meters":9200,"station_id":"cki0cbj6b192h4jlfktg","pricing_plan_id":"cebpf4jnsgd1na2vs0mg"},{"bike_id":"473ff92b-f6b8-4d0e-b944-16c033f4e07c","system_id":"levelo_inurba_marseille","lat":43.29025,"lon":5.38644,"is_reserved":false,"is_disabled":false,"rental_uris":{"android":"levelo://app?vid=473ff92b-f6b8-4d0e-b944-16c033f4e07c","ios":"levelo://app?vid=473ff92b-f6b8-4d0e-b944-16c033f4e07c"},"vehicle_type_id":"4","last_reported":1744985353,"current_range_meters":9200,"station_id":"ce4bh4p2rcd13ifvqe0g","pricing_plan_id":"cebpf4jnsgd1na2vs0mg"},{"bike_id":"3f60182c-c5c8-40ca-9437-efb52505c052","system_id":"levelo_inurba_marseille","lat":43.26801,"lon":5.40262,"is_reserved":false,"is_disabled":false,"rental_uris":{"android":"levelo://app?vid=3f60182c-c5c8-40ca-9437-efb52505c052","ios":"levelo://app?vid=3f60182c-c5c8-40ca-9437-efb52505c052"},"vehicle_type_id":"4","last_reported":1744985353,"current_range_meters":9200,"station_id":"ce501612rcd8frsf0b60","pricing_plan_id":"cebpf4jnsgd1na2vs0mg"},{"bike_id":"22209dda-afa5-4a31-9c25-a5d94a331926","system_id":"levelo_inurba_marseille","lat":43.24067,"lon":5.37736,"is_reserved":false,"is_disabled":true,"rental_uris":{"android":"levelo://app?vid=22209dda-afa5-4a31-9c25-a5d94a331926","ios":"levelo://app?vid=22209dda-afa5-4a31-9c25-a5d94a331926"},"vehicle_type_id":"4","last_reported":1744985353,"current_range_meters":9200,"station_id":"ce4bhnp2rcd13ifvqgvg","pricing_plan_id":"cebpf4jnsgd1na2vs0mg"},{"bike_id":"a836461e-46f5-444f-889b-59666986b6a7","system_id":"levelo_inurba_marseille","lat":43.32357,"lon":5.36747,"is_reserved":false,"is_disabled":false,"rental_uris":{"android":"levelo://app?vid=a836461e-46f5-444f-889b-59666986b6a7","ios":"levelo://app?vid=a836461e-46f5-444f-889b-59666986b6a7"},"vehicle_type_id":"4","last_reported":1744985353,"current_range_meters":9200,"station_id":"ce4bhsh2rcd13ifvqi2g","pricing_plan_id":"cebpf4jnsgd1na2vs0mg"},{"bike_id":"c0d1c9b6-22b7-4d1b-9554-f6765df29dd3","system_id":"levelo_inurba_marseille","lat":43.245477,"lon":5.423456,"is_reserved":false,"is_disabled":false,"rental_uris":{"android":"levelo://app?vid=c0d1c9b6-22b7-4d1b-9554-f6765df29dd3","ios":"levelo://app?vid=c0d1c9b6-22b7-4d1b-9554-f6765df29dd3"},"vehicle_type_id":"4","last_reported":1744985353,"current_range_meters":9200,"station_id":"ce4bhlh2rcd13ifvqgig","pricing_plan_id":"cebpf4jnsgd1na2vs0mg"},{"bike_id":"ec8c9ac7-1e95-4171-97f3-226ce1e3c951","system_id":"levelo_inurba_marseille","lat":43.32097,"lon":5.36814,"is_reserved":false,"is_disabled":false,"rental_uris":{"android":"levelo://app?vid=ec8c9ac7-1e95-4171-97f3-226ce1e3c951","ios":"levelo://app?vid=ec8c9ac7-1e95-4171-97f3-226ce1e3c951"},"vehicle_type_id":"4","last_reported":1744985353,"current_range_meters":9600,"station_id":"ce4bhrh2rcd13ifvqhug","pricing_plan_id":"cebpf4jnsgd1na2vs0mg"},{"bike_id":"72b7c42f-80ab-4789-a351-b5684e2d1056","system_id":"levelo_inurba_marseille","lat":43.304657,"lon":5.379075,"is_reserved":false,"is_disabled":false,"rental_uris":{"android":"levelo://app?vid=72b7c42f-80ab-4789-a351-b5684e2d1056","ios":"levelo://app?vid=72b7c42f-80ab-4789-a351-b5684e2d1056"},"vehicle_type_id":"4","last_reported":1744985353,"current_range_meters":9600,"station_id":"","pricing_plan_id":"cebpf4jnsgd1na2vs0mg"},{"bike_id":"89ea661e-cef4-4248-9a60-f1d00d8e67d3","system_id":"levelo_inurba_marseille","lat":43.28411,"lon":5.34978,"is_reserved":false,"is_disabled":false,"rental_uris":{"android":"levelo://app?vid=89ea661e-cef4-4248-9a60-f1d00d8e67d3","ios":"levelo://app?vid=89ea661e-cef4-4248-9a60-f1d00d8e67d3"},"vehicle_type_id":"4","last_reported":1744985353,"current_range_meters":9600,"station_id":"ce4bhbh2rcd13ifvqepg","pricing_plan_id":"cebpf4jnsgd1na2vs0mg"},{"bike_id":"27eb1257-4756-46a2-a0e8-dca5aac91640","system_id":"levelo_inurba_marseille","lat":43.28272,"lon":5.35059,"is_reserved":false,"is_disabled":false,"rental_uris":{"android":"levelo://app?vid=27eb1257-4756-46a2-a0e8-dca5aac91640","ios":"levelo://app?vid=27eb1257-4756-46a2-a0e8-dca5aac91640"},"vehicle_type_id":"4","last_reported":1744985353,"current_range_meters":9600,"station_id":"ce4bhbp2rcd13ifvqerg","pricing_plan_id":"cebpf4jnsgd1na2vs0mg"},{"bike_id":"da27821e-aff3-4003-8bcf-ba9226fe9ae7","system_id":"levelo_inurba_marseille","lat":43.262038,"lon":5.379242,"is_reserved":false,"is_disabled":false,"rental_uris":{"android":"levelo://app?vid=da27821e-aff3-4003-8bcf-ba9226fe9ae7","ios":"levelo://app?vid=da27821e-aff3-4003-8bcf-ba9226fe9ae7"},"vehicle_type_id":"4","last_reported":1744985353,"current_range_meters":9200,"station_id":"ce4bhjp2rcd13ifvqg90","pricing_plan_id":"cebpf4jnsgd1na2vs0mg"},{"bike_id":"4fa7469b-0735-40af-8574-6dc2541bdb30","system_id":"levelo_inurba_marseille","lat":43.239624,"lon":5.366248,"is_reserved":false,"is_disabled":false,"rental_uris":{"android":"levelo://app?vid=4fa7469b-0735-40af-8574-6dc2541bdb30","ios":"levelo://app?vid=4fa7469b-0735-40af-8574-6dc2541bdb30"},"vehicle_type_id":"4","last_reported":1744985353,"current_range_meters":9600,"station_id":"ce4bhi12rcd13ifvqfp0","pricing_plan_id":"cebpf4jnsgd1na2vs0mg"},{"bike_id":"f434e487-fdec-4add-83b7-73c4f57c07fc","system_id":"levelo_inurba_marseille","lat":43.2861,"lon":5.35106,"is_reserved":false,"is_disabled":false,"rental_uris":{"android":"levelo://app?vid=f434e487-fdec-4add-83b7-73c4f57c07fc","ios":"levelo://app?vid=f434e487-fdec-4add-83b7-73c4f57c07fc"},"vehicle_type_id":"4","last_reported":1744985353,"current_range_meters":9600,"station_id":"ce4bhch2rcd13ifvqeug","pricing_plan_id":"cebpf4jnsgd1na2vs0mg"},{"bike_id":"70b6b133-6705-4dfd-b4a7-6e88067904e8","system_id":"levelo_inurba_marseille","lat":43.241728,"lon":5.363986,"is_reserved":false,"is_disabled":false,"rental_uris":{"android":"levelo://app?vid=70b6b133-6705-4dfd-b4a7-6e88067904e8","ios":"levelo://app?vid=70b6b133-6705-4dfd-b4a7-6e88067904e8"},"vehicle_type_id":"4","last_reported":1744985353,"current_range_meters":9600,"station_id":"cpo36qri1sfpv3e86is0","pricing_plan_id":"cebpf4jnsgd1na2vs0mg"},{"bike_id":"5fddd535-ab4d-402f-9080-0ad0b96c0735","system_id":"levelo_inurba_marseille","lat":43.30908,"lon":5.36697,"is_reserved":false,"is_disabled":false,"rental_uris":{"android":"levelo://app?vid=5fddd535-ab4d-402f-9080-0ad0b96c0735","ios":"levelo://app?vid=5fddd535-ab4d-402f-9080-0ad0b96c0735"},"vehicle_type_id":"4","last_reported":1744985353,"current_range_meters":9600,"station_id":"","pricing_plan_id":"cebpf4jnsgd1na2vs0mg"},{"bike_id":"8952280e-3951-4245-88b4-35eff032b69c","system_id":"levelo_inurba_marseille","lat":43.26033,"lon":5.3755,"is_reserved":false,"is_disabled":false,"rental_uris":{"android":"levelo://app?vid=8952280e-3951-4245-88b4-35eff032b69c","ios":"levelo://app?vid=8952280e-3951-4245-88b4-35eff032b69c"},"vehicle_type_id":"4","last_reported":1744985353,"current_range_meters":9600,"station_id":"ce4bhgh2rcd13ifvqfa0","pricing_plan_id":"cebpf4jnsgd1na2vs0mg"},{"bike_id":"3dd437ae-8bd8-42e5-bc81-8fa6ac95e444","system_id":"levelo_inurba_marseille","lat":43.27377,"lon":5.36252,"is_reserved":false,"is_disabled":false,"rental_uris":{"android":"levelo://app?vid=3dd437ae-8bd8-42e5-bc81-8fa6ac95e444","ios":"levelo://app?vid=3dd437ae-8bd8-42e5-bc81-8fa6ac95e444"},"vehicle_type_id":"4","last_reported":1744985353,"current_range_meters":9600,"station_id":"ce4bhbh2rcd13ifvqeo0","pricing_plan_id":"cebpf4jnsgd1na2vs0mg"},{"bike_id":"271c8c79-7ca6-4367-80fb-8a0efc84181c","system_id":"levelo_inurba_marseille","lat":43.23196,"lon":5.35554,"is_reserved":false,"is_disabled":false,"rental_uris":{"android":"levelo://app?vid=271c8c79-7ca6-4367-80fb-8a0efc84181c","ios":"levelo://app?vid=271c8c79-7ca6-4367-80fb-8a0efc84181c"},"vehicle_type_id":"4","last_reported":1744985353,"current_range_meters":9600,"station_id":"ce4bhu92rcd13ifvqi70","pricing_plan_id":"cebpf4jnsgd1na2vs0mg"},{"bike_id":"faf6f6f9-3884-46b8-87cd-5a5e53e99bef","system_id":"levelo_inurba_marseille","lat":43.21192,"lon":5.35069,"is_reserved":false,"is_disabled":false,"rental_uris":{"android":"levelo://app?vid=faf6f6f9-3884-46b8-87cd-5a5e53e99bef","ios":"levelo://app?vid=faf6f6f9-3884-46b8-87cd-5a5e53e99bef"},"vehicle_type_id":"4","last_reported":1744985353,"current_range_meters":10000,"station_id":"st_cvj6sg6p6f1abm77japg","pricing_plan_id":"cebpf4jnsgd1na2vs0mg"},{"bike_id":"84f0ef0a-39fa-4a87-8ba8-f87950ba9b35","system_id":"levelo_inurba_marseille","lat":43.21191,"lon":5.35072,"is_reserved":false,"is_disabled":false,"rental_uris":{"android":"levelo://app?vid=84f0ef0a-39fa-4a87-8ba8-f87950ba9b35","ios":"levelo://app?vid=84f0ef0a-39fa-4a87-8ba8-f87950ba9b35"},"vehicle_type_id":"4","last_reported":1744985353,"current_range_meters":10000,"station_id":"st_cvj6sg6p6f1abm77japg","pricing_plan_id":"cebpf4jnsgd1na2vs0mg"},{"bike_id":"8211c9ee-eb16-4fbb-b5ea-af738873ea50","system_id":"levelo_inurba_marseille","lat":43.25502,"lon":5.37651,"is_reserved":false,"is_disabled":false,"rental_uris":{"android":"levelo://app?vid=8211c9ee-eb16-4fbb-b5ea-af738873ea50","ios":"levelo://app?vid=8211c9ee-eb16-4fbb-b5ea-af738873ea50"},"vehicle_type_id":"4","last_reported":1744985353,"current_range_meters":10000,"station_id":"ce4bhh12rcd13ifvqff0","pricing_plan_id":"cebpf4jnsgd1na2vs0mg"},{"bike_id":"3882e440-b2b3-4a92-b655-56ff789fb111","system_id":"levelo_inurba_marseille","lat":43.26803,"lon":5.4027,"is_reserved":false,"is_disabled":false,"rental_uris":{"android":"levelo://app?vid=3882e440-b2b3-4a92-b655-56ff789fb111","ios":"levelo://app?vid=3882e440-b2b3-4a92-b655-56ff789fb111"},"vehicle_type_id":"4","last_reported":1744985353,"current_range_meters":10000,"station_id":"ce501612rcd8frsf0b60","pricing_plan_id":"cebpf4jnsgd1na2vs0mg"},{"bike_id":"47842841-33d6-4c98-a73b-55be371f38b5","system_id":"levelo_inurba_marseille","lat":43.28258,"lon":5.350708,"is_reserved":false,"is_disabled":false,"rental_uris":{"android":"levelo://app?vid=47842841-33d6-4c98-a73b-55be371f38b5","ios":"levelo://app?vid=47842841-33d6-4c98-a73b-55be371f38b5"},"vehicle_type_id":"4","last_reported":1744985353,"current_range_meters":10000,"station_id":"ce4bhbp2rcd13ifvqerg","pricing_plan_id":"cebpf4jnsgd1na2vs0mg"},{"bike_id":"eb5d468f-0aac-4c19-9e49-c2e39478b3bb","system_id":"levelo_inurba_marseille","lat":43.24388,"lon":5.37054,"is_reserved":false,"is_disabled":false,"rental_uris":{"android":"levelo://app?vid=eb5d468f-0aac-4c19-9e49-c2e39478b3bb","ios":"levelo://app?vid=eb5d468f-0aac-4c19-9e49-c2e39478b3bb"},"vehicle_type_id":"4","last_reported":1744985353,"current_range_meters":9600,"station_id":"ce4bhhh2rcd13ifvqfk0","pricing_plan_id":"cebpf4jnsgd1na2vs0mg"},{"bike_id":"e53ae5ef-f9ed-4c74-a22b-a475e886965c","system_id":"levelo_inurba_marseille","lat":43.26791,"lon":5.39407,"is_reserved":false,"is_disabled":false,"rental_uris":{"android":"levelo://app?vid=e53ae5ef-f9ed-4c74-a22b-a475e886965c","ios":"levelo://app?vid=e53ae5ef-f9ed-4c74-a22b-a475e886965c"},"vehicle_type_id":"4","last_reported":1744985353,"current_range_meters":9600,"station_id":"ce4bhh12rcd13ifvqfg0","pricing_plan_id":"cebpf4jnsgd1na2vs0mg"},{"bike_id":"6edae6e8-68d1-447b-bc9a-f33f449be267","system_id":"levelo_inurba_marseille","lat":43.23958,"lon":5.36615,"is_reserved":false,"is_disabled":false,"rental_uris":{"android":"levelo://app?vid=6edae6e8-68d1-447b-bc9a-f33f449be267","ios":"levelo://app?vid=6edae6e8-68d1-447b-bc9a-f33f449be267"},"vehicle_type_id":"4","last_reported":1744985353,"current_range_meters":10000,"station_id":"ce4bhi12rcd13ifvqfp0","pricing_plan_id":"cebpf4jnsgd1na2vs0mg"},{"bike_id":"3737cb74-761b-429f-9d2d-1c31624faab3","system_id":"levelo_inurba_marseille","lat":43.229233,"lon":5.353833,"is_reserved":false,"is_disabled":false,"rental_uris":{"android":"levelo://app?vid=3737cb74-761b-429f-9d2d-1c31624faab3","ios":"levelo://app?vid=3737cb74-761b-429f-9d2d-1c31624faab3"},"vehicle_type_id":"4","last_reported":1744985353,"current_range_meters":10800,"station_id":"cpo3532slgdg3j2ikp40","pricing_plan_id":"cebpf4jnsgd1na2vs0mg"},{"bike_id":"63b1a93d-35ff-411c-8bf8-e6613fe2af22","system_id":"levelo_inurba_marseille","lat":43.25504,"lon":5.3765,"is_reserved":false,"is_disabled":false,"rental_uris":{"android":"levelo://app?vid=63b1a93d-35ff-411c-8bf8-e6613fe2af22","ios":"levelo://app?vid=63b1a93d-35ff-411c-8bf8-e6613fe2af22"},"vehicle_type_id":"4","last_reported":1744985353,"current_range_meters":10800,"station_id":"ce4bhh12rcd13ifvqff0","pricing_plan_id":"cebpf4jnsgd1na2vs0mg"},{"bike_id":"1210dc72-37b8-49f7-b249-6faa54daba28","system_id":"levelo_inurba_marseille","lat":43.32317,"lon":5.36721,"is_reserved":false,"is_disabled":false,"rental_uris":{"android":"levelo://app?vid=1210dc72-37b8-49f7-b249-6faa54daba28","ios":"levelo://app?vid=1210dc72-37b8-49f7-b249-6faa54daba28"},"vehicle_type_id":"4","last_reported":1744985353,"current_range_meters":10800,"station_id":"ce4bhsh2rcd13ifvqi2g","pricing_plan_id":"cebpf4jnsgd1na2vs0mg"},{"bike_id":"cf4db056-d3f7-4001-aa54-c43d57090a49","system_id":"levelo_inurba_marseille","lat":43.23192,"lon":5.355557,"is_reserved":false,"is_disabled":false,"rental_uris":{"android":"levelo://app?vid=cf4db056-d3f7-4001-aa54-c43d57090a49","ios":"levelo://app?vid=cf4db056-d3f7-4001-aa54-c43d57090a49"},"vehicle_type_id":"4","last_reported":1744985353,"current_range_meters":10800,"station_id":"ce4bhu92rcd13ifvqi70","pricing_plan_id":"cebpf4jnsgd1na2vs0mg"},{"bike_id":"e4a3f346-357a-4a84-aaba-0cd5fdf83085","system_id":"levelo_inurba_marseille","lat":43.32364,"lon":5.38885,"is_reserved":false,"is_disabled":false,"rental_uris":{"android":"levelo://app?vid=e4a3f346-357a-4a84-aaba-0cd5fdf83085","ios":"levelo://app?vid=e4a3f346-357a-4a84-aaba-0cd5fdf83085"},"vehicle_type_id":"4","last_reported":1744985353,"current_range_meters":10800,"station_id":"ce4bhqp2rcd13ifvqhog","pricing_plan_id":"cebpf4jnsgd1na2vs0mg"},{"bike_id":"1bc65a6a-1582-43bc-b810-5aaf88415a8a","system_id":"levelo_inurba_marseille","lat":43.2397,"lon":5.36636,"is_reserved":false,"is_disabled":false,"rental_uris":{"android":"levelo://app?vid=1bc65a6a-1582-43bc-b810-5aaf88415a8a","ios":"levelo://app?vid=1bc65a6a-1582-43bc-b810-5aaf88415a8a"},"vehicle_type_id":"4","last_reported":1744985353,"current_range_meters":10800,"station_id":"ce4bhi12rcd13ifvqfp0","pricing_plan_id":"cebpf4jnsgd1na2vs0mg"},{"bike_id":"34a7e25d-57ff-4735-9b3c-65a61673f8ae","system_id":"levelo_inurba_marseille","lat":43.29914,"lon":5.38147,"is_reserved":false,"is_disabled":false,"rental_uris":{"android":"levelo://app?vid=34a7e25d-57ff-4735-9b3c-65a61673f8ae","ios":"levelo://app?vid=34a7e25d-57ff-4735-9b3c-65a61673f8ae"},"vehicle_type_id":"4","last_reported":1744985353,"current_range_meters":10800,"station_id":"ce4bgj12rcd13ifvqbc0","pricing_plan_id":"cebpf4jnsgd1na2vs0mg"},{"bike_id":"cbfa7b4c-7aeb-44e6-9c60-bf4b5fcf37ea","system_id":"levelo_inurba_marseille","lat":43.28923,"lon":5.38361,"is_reserved":false,"is_disabled":false,"rental_uris":{"android":"levelo://app?vid=cbfa7b4c-7aeb-44e6-9c60-bf4b5fcf37ea","ios":"levelo://app?vid=cbfa7b4c-7aeb-44e6-9c60-bf4b5fcf37ea"},"vehicle_type_id":"4","last_reported":1744985353,"current_range_meters":10000,"station_id":"ce4bh612rcd13ifvqe6g","pricing_plan_id":"cebpf4jnsgd1na2vs0mg"},{"bike_id":"8af9083f-40cd-4479-9aff-b06462b56f05","system_id":"levelo_inurba_marseille","lat":43.28423,"lon":5.34985,"is_reserved":false,"is_disabled":false,"rental_uris":{"android":"levelo://app?vid=8af9083f-40cd-4479-9aff-b06462b56f05","ios":"levelo://app?vid=8af9083f-40cd-4479-9aff-b06462b56f05"},"vehicle_type_id":"4","last_reported":1744985353,"current_range_meters":11200,"station_id":"ce4bhbh2rcd13ifvqepg","pricing_plan_id":"cebpf4jnsgd1na2vs0mg"},{"bike_id":"91b0f96d-1a6e-4e28-98b9-2c86f2485aee","system_id":"levelo_inurba_marseille","lat":43.32416,"lon":5.39048,"is_reserved":false,"is_disabled":false,"rental_uris":{"android":"levelo://app?vid=91b0f96d-1a6e-4e28-98b9-2c86f2485aee","ios":"levelo://app?vid=91b0f96d-1a6e-4e28-98b9-2c86f2485aee"},"vehicle_type_id":"4","last_reported":1744985353,"current_range_meters":11200,"station_id":"","pricing_plan_id":"cebpf4jnsgd1na2vs0mg"},{"bike_id":"94a52313-aa5a-4b63-aa0c-2eda511aa0f7","system_id":"levelo_inurba_marseille","lat":43.22934,"lon":5.35358,"is_reserved":false,"is_disabled":false,"rental_uris":{"android":"levelo://app?vid=94a52313-aa5a-4b63-aa0c-2eda511aa0f7","ios":"levelo://app?vid=94a52313-aa5a-4b63-aa0c-2eda511aa0f7"},"vehicle_type_id":"4","last_reported":1744985353,"current_range_meters":11200,"station_id":"cpo3532slgdg3j2ikp40","pricing_plan_id":"cebpf4jnsgd1na2vs0mg"},{"bike_id":"b6449b60-5c4c-410c-8521-97242bacf8f2","system_id":"levelo_inurba_marseille","lat":43.27371,"lon":5.36244,"is_reserved":false,"is_disabled":false,"rental_uris":{"android":"levelo://app?vid=b6449b60-5c4c-410c-8521-97242bacf8f2","ios":"levelo://app?vid=b6449b60-5c4c-410c-8521-97242bacf8f2"},"vehicle_type_id":"4","last_reported":1744985353,"current_range_meters":11200,"station_id":"ce4bhbh2rcd13ifvqeo0","pricing_plan_id":"cebpf4jnsgd1na2vs0mg"},{"bike_id":"397aa98a-9e95-44d5-b872-9acc43faf340","system_id":"levelo_inurba_marseille","lat":43.28614,"lon":5.35102,"is_reserved":false,"is_disabled":false,"rental_uris":{"android":"levelo://app?vid=397aa98a-9e95-44d5-b872-9acc43faf340","ios":"levelo://app?vid=397aa98a-9e95-44d5-b872-9acc43faf340"},"vehicle_type_id":"4","last_reported":1744985353,"current_range_meters":11200,"station_id":"ce4bhch2rcd13ifvqeug","pricing_plan_id":"cebpf4jnsgd1na2vs0mg"},{"bike_id":"d90f1740-ac3e-4975-b42b-0c5f4f55b4c8","system_id":"levelo_inurba_marseille","lat":43.27371,"lon":5.36236,"is_reserved":false,"is_disabled":false,"rental_uris":{"android":"levelo://app?vid=d90f1740-ac3e-4975-b42b-0c5f4f55b4c8","ios":"levelo://app?vid=d90f1740-ac3e-4975-b42b-0c5f4f55b4c8"},"vehicle_type_id":"4","last_reported":1744985353,"current_range_meters":11200,"station_id":"ce4bhbh2rcd13ifvqeo0","pricing_plan_id":"cebpf4jnsgd1na2vs0mg"},{"bike_id":"82de70ea-5dd1-4bf4-b40e-cc8188bf3607","system_id":"levelo_inurba_marseille","lat":43.28273,"lon":5.35079,"is_reserved":false,"is_disabled":false,"rental_uris":{"android":"levelo://app?vid=82de70ea-5dd1-4bf4-b40e-cc8188bf3607","ios":"levelo://app?vid=82de70ea-5dd1-4bf4-b40e-cc8188bf3607"},"vehicle_type_id":"4","last_reported":1744985353,"current_range_meters":11600,"station_id":"ce4bhbp2rcd13ifvqerg","pricing_plan_id":"cebpf4jnsgd1na2vs0mg"},{"bike_id":"7ed91d22-3d5b-4254-83bf-64eb2a7d5481","system_id":"levelo_inurba_marseille","lat":43.22499,"lon":5.34781,"is_reserved":false,"is_disabled":false,"rental_uris":{"android":"levelo://app?vid=7ed91d22-3d5b-4254-83bf-64eb2a7d5481","ios":"levelo://app?vid=7ed91d22-3d5b-4254-83bf-64eb2a7d5481"},"vehicle_type_id":"4","last_reported":1744985353,"current_range_meters":11600,"station_id":"","pricing_plan_id":"cebpf4jnsgd1na2vs0mg"},{"bike_id":"a93401f8-86a1-4ce0-a38c-910179eecef4","system_id":"levelo_inurba_marseille","lat":43.27374,"lon":5.36256,"is_reserved":false,"is_disabled":false,"rental_uris":{"android":"levelo://app?vid=a93401f8-86a1-4ce0-a38c-910179eecef4","ios":"levelo://app?vid=a93401f8-86a1-4ce0-a38c-910179eecef4"},"vehicle_type_id":"4","last_reported":1744985353,"current_range_meters":11600,"station_id":"ce4bhbh2rcd13ifvqeo0","pricing_plan_id":"cebpf4jnsgd1na2vs0mg"},{"bike_id":"9ccc1250-0ff6-4acc-bd2f-67431ef76582","system_id":"levelo_inurba_marseille","lat":43.28413,"lon":5.34983,"is_reserved":false,"is_disabled":false,"rental_uris":{"android":"levelo://app?vid=9ccc1250-0ff6-4acc-bd2f-67431ef76582","ios":"levelo://app?vid=9ccc1250-0ff6-4acc-bd2f-67431ef76582"},"vehicle_type_id":"4","last_reported":1744985353,"current_range_meters":11600,"station_id":"ce4bhbh2rcd13ifvqepg","pricing_plan_id":"cebpf4jnsgd1na2vs0mg"},{"bike_id":"5b52e083-6d20-401a-b784-b7028215fd80","system_id":"levelo_inurba_marseille","lat":43.27826,"lon":5.39205,"is_reserved":false,"is_disabled":false,"rental_uris":{"android":"levelo://app?vid=5b52e083-6d20-401a-b784-b7028215fd80","ios":"levelo://app?vid=5b52e083-6d20-401a-b784-b7028215fd80"},"vehicle_type_id":"4","last_reported":1744985353,"current_range_meters":11600,"station_id":"ce4bhjp2rcd13ifvqga0","pricing_plan_id":"cebpf4jnsgd1na2vs0mg"},{"bike_id":"35c0761b-13d0-491a-9c54-a6b1f28f69bf","system_id":"levelo_inurba_marseille","lat":43.280373,"lon":5.369452,"is_reserved":false,"is_disabled":false,"rental_uris":{"android":"levelo://app?vid=35c0761b-13d0-491a-9c54-a6b1f28f69bf","ios":"levelo://app?vid=35c0761b-13d0-491a-9c54-a6b1f28f69bf"},"vehicle_type_id":"4","last_reported":1744985353,"current_range_meters":11600,"station_id":"ce4bha12rcd13ifvqef0","pricing_plan_id":"cebpf4jnsgd1na2vs0mg"},{"bike_id":"e282939b-78df-47a6-92af-3b0c3fe9bc56","system_id":"levelo_inurba_marseille","lat":43.23118,"lon":5.43689,"is_reserved":false,"is_disabled":false,"rental_uris":{"android":"levelo://app?vid=e282939b-78df-47a6-92af-3b0c3fe9bc56","ios":"levelo://app?vid=e282939b-78df-47a6-92af-3b0c3fe9bc56"},"vehicle_type_id":"4","last_reported":1744985353,"current_range_meters":12000,"station_id":"ce4bhmp2rcd13ifvqgog","pricing_plan_id":"cebpf4jnsgd1na2vs0mg"},{"bike_id":"85ae211f-d006-4562-a861-7fe6362a42e8","system_id":"levelo_inurba_marseille","lat":43.21752,"lon":5.34605,"is_reserved":false,"is_disabled":false,"rental_uris":{"android":"levelo://app?vid=85ae211f-d006-4562-a861-7fe6362a42e8","ios":"levelo://app?vid=85ae211f-d006-4562-a861-7fe6362a42e8"},"vehicle_type_id":"4","last_reported":1744985353,"current_range_meters":12000,"station_id":"st_cvj6r9ubvosntc0bgbag","pricing_plan_id":"cebpf4jnsgd1na2vs0mg"},{"bike_id":"4bc41d9b-514e-4000-9eae-6ce45a535ece","system_id":"levelo_inurba_marseille","lat":43.2762,"lon":5.36124,"is_reserved":false,"is_disabled":false,"rental_uris":{"android":"levelo://app?vid=4bc41d9b-514e-4000-9eae-6ce45a535ece","ios":"levelo://app?vid=4bc41d9b-514e-4000-9eae-6ce45a535ece"},"vehicle_type_id":"4","last_reported":1744985353,"current_range_meters":12000,"station_id":"ce4bgj92rcd13ifvqbe0","pricing_plan_id":"cebpf4jnsgd1na2vs0mg"},{"bike_id":"8a4b7e72-0bed-4c8f-a520-9a2c154c398e","system_id":"levelo_inurba_marseille","lat":43.29709,"lon":5.36613,"is_reserved":false,"is_disabled":false,"rental_uris":{"android":"levelo://app?vid=8a4b7e72-0bed-4c8f-a520-9a2c154c398e","ios":"levelo://app?vid=8a4b7e72-0bed-4c8f-a520-9a2c154c398e"},"vehicle_type_id":"4","last_reported":1744985353,"current_range_meters":12000,"station_id":"ce4bgn12rcd13ifvqbt0","pricing_plan_id":"cebpf4jnsgd1na2vs0mg"},{"bike_id":"1eaca8f5-0017-418a-9bfc-52185bf67513","system_id":"levelo_inurba_marseille","lat":43.33737,"lon":5.39173,"is_reserved":false,"is_disabled":false,"rental_uris":{"android":"levelo://app?vid=1eaca8f5-0017-418a-9bfc-52185bf67513","ios":"levelo://app?vid=1eaca8f5-0017-418a-9bfc-52185bf67513"},"vehicle_type_id":"4","last_reported":1744985353,"current_range_meters":12400,"station_id":"ce4bhr92rcd13ifvqhsg","pricing_plan_id":"cebpf4jnsgd1na2vs0mg"},{"bike_id":"effb955a-fc18-4ef6-a97e-9417186c15b9","system_id":"levelo_inurba_marseille","lat":43.22933,"lon":5.3537,"is_reserved":false,"is_disabled":false,"rental_uris":{"android":"levelo://app?vid=effb955a-fc18-4ef6-a97e-9417186c15b9","ios":"levelo://app?vid=effb955a-fc18-4ef6-a97e-9417186c15b9"},"vehicle_type_id":"4","last_reported":1744985353,"current_range_meters":12400,"station_id":"cpo3532slgdg3j2ikp40","pricing_plan_id":"cebpf4jnsgd1na2vs0mg"},{"bike_id":"2f3b9a80-26be-492f-8f76-289f448dcf0e","system_id":"levelo_inurba_marseille","lat":43.28616,"lon":5.351,"is_reserved":false,"is_disabled":false,"rental_uris":{"android":"levelo://app?vid=2f3b9a80-26be-492f-8f76-289f448dcf0e","ios":"levelo://app?vid=2f3b9a80-26be-492f-8f76-289f448dcf0e"},"vehicle_type_id":"4","last_reported":1744985353,"current_range_meters":12800,"station_id":"ce4bhch2rcd13ifvqeug","pricing_plan_id":"cebpf4jnsgd1na2vs0mg"},{"bike_id":"c09b1ff6-1e1f-4cd6-9ee9-4e1b23955bbc","system_id":"levelo_inurba_marseille","lat":43.231965,"lon":5.355517,"is_reserved":false,"is_disabled":true,"rental_uris":{"android":"levelo://app?vid=c09b1ff6-1e1f-4cd6-9ee9-4e1b23955bbc","ios":"levelo://app?vid=c09b1ff6-1e1f-4cd6-9ee9-4e1b23955bbc"},"vehicle_type_id":"4","last_reported":1744985353,"current_range_meters":12800,"station_id":"ce4bhu92rcd13ifvqi70","pricing_plan_id":"cebpf4jnsgd1na2vs0mg"},{"bike_id":"1fa23628-d2d2-4f17-b4f1-bdb968627fdc","system_id":"levelo_inurba_marseille","lat":43.24813,"lon":5.3746,"is_reserved":false,"is_disabled":false,"rental_uris":{"android":"levelo://app?vid=1fa23628-d2d2-4f17-b4f1-bdb968627fdc","ios":"levelo://app?vid=1fa23628-d2d2-4f17-b4f1-bdb968627fdc"},"vehicle_type_id":"4","last_reported":1744985353,"current_range_meters":12800,"station_id":"ce4bhgh2rcd13ifvqfb0","pricing_plan_id":"cebpf4jnsgd1na2vs0mg"},{"bike_id":"0412a1ca-4def-4ac7-bfaa-effc8cbb5510","system_id":"levelo_inurba_marseille","lat":43.229296,"lon":5.353814,"is_reserved":false,"is_disabled":false,"rental_uris":{"android":"levelo://app?vid=0412a1ca-4def-4ac7-bfaa-effc8cbb5510","ios":"levelo://app?vid=0412a1ca-4def-4ac7-bfaa-effc8cbb5510"},"vehicle_type_id":"4","last_reported":1744985353,"current_range_meters":12800,"station_id":"cpo3532slgdg3j2ikp40","pricing_plan_id":"cebpf4jnsgd1na2vs0mg"},{"bike_id":"934a8fc0-98f8-4aaf-a145-d485dee937c7","system_id":"levelo_inurba_marseille","lat":43.32285,"lon":5.36764,"is_reserved":false,"is_disabled":false,"rental_uris":{"android":"levelo://app?vid=934a8fc0-98f8-4aaf-a145-d485dee937c7","ios":"levelo://app?vid=934a8fc0-98f8-4aaf-a145-d485dee937c7"},"vehicle_type_id":"4","last_reported":1744985353,"current_range_meters":12800,"station_id":"ce4bhsh2rcd13ifvqi2g","pricing_plan_id":"cebpf4jnsgd1na2vs0mg"},{"bike_id":"a0ddb0a5-f7f0-4281-aa27-9e82747cc573","system_id":"levelo_inurba_marseille","lat":43.33754,"lon":5.37491,"is_reserved":false,"is_disabled":false,"rental_uris":{"android":"levelo://app?vid=a0ddb0a5-f7f0-4281-aa27-9e82747cc573","ios":"levelo://app?vid=a0ddb0a5-f7f0-4281-aa27-9e82747cc573"},"vehicle_type_id":"4","last_reported":1744985353,"current_range_meters":12800,"station_id":"","pricing_plan_id":"cebpf4jnsgd1na2vs0mg"},{"bike_id":"3d48f6f2-161b-4037-9ca6-b1a220e72e09","system_id":"levelo_inurba_marseille","lat":43.27364,"lon":5.3624,"is_reserved":false,"is_disabled":false,"rental_uris":{"android":"levelo://app?vid=3d48f6f2-161b-4037-9ca6-b1a220e72e09","ios":"levelo://app?vid=3d48f6f2-161b-4037-9ca6-b1a220e72e09"},"vehicle_type_id":"4","last_reported":1744985353,"current_range_meters":13600,"station_id":"ce4bhbh2rcd13ifvqeo0","pricing_plan_id":"cebpf4jnsgd1na2vs0mg"},{"bike_id":"bd492354-2d79-4427-82ee-84e4a12dea30","system_id":"levelo_inurba_marseille","lat":43.21192,"lon":5.35071,"is_reserved":false,"is_disabled":false,"rental_uris":{"android":"levelo://app?vid=bd492354-2d79-4427-82ee-84e4a12dea30","ios":"levelo://app?vid=bd492354-2d79-4427-82ee-84e4a12dea30"},"vehicle_type_id":"4","last_reported":1744985353,"current_range_meters":13600,"station_id":"st_cvj6sg6p6f1abm77japg","pricing_plan_id":"cebpf4jnsgd1na2vs0mg"},{"bike_id":"6c7fbf5d-f1b2-4340-9ca8-f93c44a601e5","system_id":"levelo_inurba_marseille","lat":43.27763,"lon":5.393159,"is_reserved":false,"is_disabled":false,"rental_uris":{"android":"levelo://app?vid=6c7fbf5d-f1b2-4340-9ca8-f93c44a601e5","ios":"levelo://app?vid=6c7fbf5d-f1b2-4340-9ca8-f93c44a601e5"},"vehicle_type_id":"4","last_reported":1744985353,"current_range_meters":13600,"station_id":"ce4bhjp2rcd13ifvqga0","pricing_plan_id":"cebpf4jnsgd1na2vs0mg"},{"bike_id":"f52bbc2e-7689-46ab-b62d-f68b748de8c1","system_id":"levelo_inurba_marseille","lat":43.282745,"lon":5.350664,"is_reserved":false,"is_disabled":false,"rental_uris":{"android":"levelo://app?vid=f52bbc2e-7689-46ab-b62d-f68b748de8c1","ios":"levelo://app?vid=f52bbc2e-7689-46ab-b62d-f68b748de8c1"},"vehicle_type_id":"4","last_reported":1744985353,"current_range_meters":14000,"station_id":"ce4bhbp2rcd13ifvqerg","pricing_plan_id":"cebpf4jnsgd1na2vs0mg"},{"bike_id":"4a0f415a-7167-481b-a8a8-3a14ba8204d4","system_id":"levelo_inurba_marseille","lat":43.28464,"lon":5.35876,"is_reserved":false,"is_disabled":false,"rental_uris":{"android":"levelo://app?vid=4a0f415a-7167-481b-a8a8-3a14ba8204d4","ios":"levelo://app?vid=4a0f415a-7167-481b-a8a8-3a14ba8204d4"},"vehicle_type_id":"4","last_reported":1744985353,"current_range_meters":14000,"station_id":"ce4bhah2rcd13ifvqei0","pricing_plan_id":"cebpf4jnsgd1na2vs0mg"},{"bike_id":"c027ddfb-32b7-445d-8bf6-34869da1c0f1","system_id":"levelo_inurba_marseille","lat":43.28714,"lon":5.39993,"is_reserved":false,"is_disabled":false,"rental_uris":{"android":"levelo://app?vid=c027ddfb-32b7-445d-8bf6-34869da1c0f1","ios":"levelo://app?vid=c027ddfb-32b7-445d-8bf6-34869da1c0f1"},"vehicle_type_id":"4","last_reported":1744985353,"current_range_meters":14000,"station_id":"ce4bho92rcd13ifvqh3g","pricing_plan_id":"cebpf4jnsgd1na2vs0mg"},{"bike_id":"0d5d7404-98dd-4d53-8fde-1b51985dd2d0","system_id":"levelo_inurba_marseille","lat":43.21754,"lon":5.34599,"is_reserved":false,"is_disabled":false,"rental_uris":{"android":"levelo://app?vid=0d5d7404-98dd-4d53-8fde-1b51985dd2d0","ios":"levelo://app?vid=0d5d7404-98dd-4d53-8fde-1b51985dd2d0"},"vehicle_type_id":"4","last_reported":1744985353,"current_range_meters":14000,"station_id":"st_cvj6r9ubvosntc0bgbag","pricing_plan_id":"cebpf4jnsgd1na2vs0mg"},{"bike_id":"33efbe4e-e642-4271-be29-4926b421ca5b","system_id":"levelo_inurba_marseille","lat":43.24175,"lon":5.36394,"is_reserved":false,"is_disabled":false,"rental_uris":{"android":"levelo://app?vid=33efbe4e-e642-4271-be29-4926b421ca5b","ios":"levelo://app?vid=33efbe4e-e642-4271-be29-4926b421ca5b"},"vehicle_type_id":"4","last_reported":1744985353,"current_range_meters":14000,"station_id":"cpo36qri1sfpv3e86is0","pricing_plan_id":"cebpf4jnsgd1na2vs0mg"},{"bike_id":"84e21080-60ba-403c-bbc7-dc051dcc2e3f","system_id":"levelo_inurba_marseille","lat":43.28464,"lon":5.3589,"is_reserved":false,"is_disabled":false,"rental_uris":{"android":"levelo://app?vid=84e21080-60ba-403c-bbc7-dc051dcc2e3f","ios":"levelo://app?vid=84e21080-60ba-403c-bbc7-dc051dcc2e3f"},"vehicle_type_id":"4","last_reported":1744985353,"current_range_meters":13600,"station_id":"ce4bhah2rcd13ifvqei0","pricing_plan_id":"cebpf4jnsgd1na2vs0mg"},{"bike_id":"e4e3b38d-6a05-4651-9b02-52c7201e11e2","system_id":"levelo_inurba_marseille","lat":43.27377,"lon":5.36247,"is_reserved":false,"is_disabled":false,"rental_uris":{"android":"levelo://app?vid=e4e3b38d-6a05-4651-9b02-52c7201e11e2","ios":"levelo://app?vid=e4e3b38d-6a05-4651-9b02-52c7201e11e2"},"vehicle_type_id":"4","last_reported":1744985353,"current_range_meters":14000,"station_id":"","pricing_plan_id":"cebpf4jnsgd1na2vs0mg"},{"bike_id":"36ab45f2-4fe6-46ca-be07-c254b02b64ef","system_id":"levelo_inurba_marseille","lat":43.28419,"lon":5.34989,"is_reserved":false,"is_disabled":false,"rental_uris":{"android":"levelo://app?vid=36ab45f2-4fe6-46ca-be07-c254b02b64ef","ios":"levelo://app?vid=36ab45f2-4fe6-46ca-be07-c254b02b64ef"},"vehicle_type_id":"4","last_reported":1744985353,"current_range_meters":14800,"station_id":"ce4bhbh2rcd13ifvqepg","pricing_plan_id":"cebpf4jnsgd1na2vs0mg"},{"bike_id":"11e34f81-5b1f-413c-9aef-2ec832c8774c","system_id":"levelo_inurba_marseille","lat":43.30305,"lon":5.39217,"is_reserved":false,"is_disabled":false,"rental_uris":{"android":"levelo://app?vid=11e34f81-5b1f-413c-9aef-2ec832c8774c","ios":"levelo://app?vid=11e34f81-5b1f-413c-9aef-2ec832c8774c"},"vehicle_type_id":"4","last_reported":1744985353,"current_range_meters":14400,"station_id":"ce4bgkh2rcd13ifvqbk0","pricing_plan_id":"cebpf4jnsgd1na2vs0mg"},{"bike_id":"3470030f-0ea9-4cf0-9c90-38c75c51bedb","system_id":"levelo_inurba_marseille","lat":43.28277,"lon":5.3507,"is_reserved":false,"is_disabled":false,"rental_uris":{"android":"levelo://app?vid=3470030f-0ea9-4cf0-9c90-38c75c51bedb","ios":"levelo://app?vid=3470030f-0ea9-4cf0-9c90-38c75c51bedb"},"vehicle_type_id":"4","last_reported":1744985353,"current_range_meters":14400,"station_id":"ce4bhbp2rcd13ifvqerg","pricing_plan_id":"cebpf4jnsgd1na2vs0mg"},{"bike_id":"50d4a2c6-4a96-473e-8d34-d513024f852d","system_id":"levelo_inurba_marseille","lat":43.23966,"lon":5.36618,"is_reserved":false,"is_disabled":false,"rental_uris":{"android":"levelo://app?vid=50d4a2c6-4a96-473e-8d34-d513024f852d","ios":"levelo://app?vid=50d4a2c6-4a96-473e-8d34-d513024f852d"},"vehicle_type_id":"4","last_reported":1744985353,"current_range_meters":14400,"station_id":"ce4bhi12rcd13ifvqfp0","pricing_plan_id":"cebpf4jnsgd1na2vs0mg"},{"bike_id":"0f2c595e-9b43-4607-8378-f0d8fca51133","system_id":"levelo_inurba_marseille","lat":43.299,"lon":5.43672,"is_reserved":false,"is_disabled":false,"rental_uris":{"android":"levelo://app?vid=0f2c595e-9b43-4607-8378-f0d8fca51133","ios":"levelo://app?vid=0f2c595e-9b43-4607-8378-f0d8fca51133"},"vehicle_type_id":"4","last_reported":1744985353,"current_range_meters":14400,"station_id":"ce4bhpp2rcd13ifvqhfg","pricing_plan_id":"cebpf4jnsgd1na2vs0mg"},{"bike_id":"ef6e9c6f-8f69-4fcf-9727-b556a001e5bc","system_id":"levelo_inurba_marseille","lat":43.29558,"lon":5.42291,"is_reserved":false,"is_disabled":false,"rental_uris":{"android":"levelo://app?vid=ef6e9c6f-8f69-4fcf-9727-b556a001e5bc","ios":"levelo://app?vid=ef6e9c6f-8f69-4fcf-9727-b556a001e5bc"},"vehicle_type_id":"4","last_reported":1744985353,"current_range_meters":14400,"station_id":"ce4bhph2rcd13ifvqhdg","pricing_plan_id":"cebpf4jnsgd1na2vs0mg"},{"bike_id":"1bc8f792-2eab-4561-a9b4-6922077fd1ac","system_id":"levelo_inurba_marseille","lat":43.28097,"lon":5.37833,"is_reserved":false,"is_disabled":false,"rental_uris":{"android":"levelo://app?vid=1bc8f792-2eab-4561-a9b4-6922077fd1ac","ios":"levelo://app?vid=1bc8f792-2eab-4561-a9b4-6922077fd1ac"},"vehicle_type_id":"4","last_reported":1744985353,"current_range_meters":14000,"station_id":"ce4bha12rcd13ifvqee0","pricing_plan_id":"cebpf4jnsgd1na2vs0mg"},{"bike_id":"f9d3fbe6-73e5-424e-af02-f446d5b07152","system_id":"levelo_inurba_marseille","lat":43.21757,"lon":5.34609,"is_reserved":false,"is_disabled":false,"rental_uris":{"android":"levelo://app?vid=f9d3fbe6-73e5-424e-af02-f446d5b07152","ios":"levelo://app?vid=f9d3fbe6-73e5-424e-af02-f446d5b07152"},"vehicle_type_id":"4","last_reported":1744985353,"current_range_meters":14400,"station_id":"st_cvj6r9ubvosntc0bgbag","pricing_plan_id":"cebpf4jnsgd1na2vs0mg"},{"bike_id":"68342d9f-f0b6-47e7-b690-b27078e67a77","system_id":"levelo_inurba_marseille","lat":43.24168,"lon":5.36383,"is_reserved":false,"is_disabled":false,"rental_uris":{"android":"levelo://app?vid=68342d9f-f0b6-47e7-b690-b27078e67a77","ios":"levelo://app?vid=68342d9f-f0b6-47e7-b690-b27078e67a77"},"vehicle_type_id":"4","last_reported":1744985353,"current_range_meters":14800,"station_id":"cpo36qri1sfpv3e86is0","pricing_plan_id":"cebpf4jnsgd1na2vs0mg"},{"bike_id":"81508fd7-d1e2-49f6-b651-2fc1d1ae5af9","system_id":"levelo_inurba_marseille","lat":43.301839,"lon":5.36706,"is_reserved":false,"is_disabled":false,"rental_uris":{"android":"levelo://app?vid=81508fd7-d1e2-49f6-b651-2fc1d1ae5af9","ios":"levelo://app?vid=81508fd7-d1e2-49f6-b651-2fc1d1ae5af9"},"vehicle_type_id":"4","last_reported":1744985353,"current_range_meters":14400,"station_id":"ce4bgrh2rcd13ifvqc8g","pricing_plan_id":"cebpf4jnsgd1na2vs0mg"},{"bike_id":"7eb8853e-3665-40f5-8308-1299f0674652","system_id":"levelo_inurba_marseille","lat":43.30374,"lon":5.42485,"is_reserved":false,"is_disabled":false,"rental_uris":{"android":"levelo://app?vid=7eb8853e-3665-40f5-8308-1299f0674652","ios":"levelo://app?vid=7eb8853e-3665-40f5-8308-1299f0674652"},"vehicle_type_id":"4","last_reported":1744985353,"current_range_meters":14800,"station_id":"ce4bhoh2rcd13ifvqh6g","pricing_plan_id":"cebpf4jnsgd1na2vs0mg"},{"bike_id":"45d3a127-db90-42a8-ae04-34a544c52a79","system_id":"levelo_inurba_marseille","lat":43.22923,"lon":5.35374,"is_reserved":false,"is_disabled":false,"rental_uris":{"android":"levelo://app?vid=45d3a127-db90-42a8-ae04-34a544c52a79","ios":"levelo://app?vid=45d3a127-db90-42a8-ae04-34a544c52a79"},"vehicle_type_id":"4","last_reported":1744985353,"current_range_meters":14800,"station_id":"cpo3532slgdg3j2ikp40","pricing_plan_id":"cebpf4jnsgd1na2vs0mg"},{"bike_id":"e1ccb82f-c2dc-4af4-8ea7-13f9fb741ddf","system_id":"levelo_inurba_marseille","lat":43.292634,"lon":5.376242,"is_reserved":false,"is_disabled":false,"rental_uris":{"android":"levelo://app?vid=e1ccb82f-c2dc-4af4-8ea7-13f9fb741ddf","ios":"levelo://app?vid=e1ccb82f-c2dc-4af4-8ea7-13f9fb741ddf"},"vehicle_type_id":"4","last_reported":1744985353,"current_range_meters":15200,"station_id":"ce4bgkp2rcd13ifvqbmg","pricing_plan_id":"cebpf4jnsgd1na2vs0mg"},{"bike_id":"4e8b253b-decb-4b63-9c28-1277f13435db","system_id":"levelo_inurba_marseille","lat":43.28467,"lon":5.35881,"is_reserved":false,"is_disabled":false,"rental_uris":{"android":"levelo://app?vid=4e8b253b-decb-4b63-9c28-1277f13435db","ios":"levelo://app?vid=4e8b253b-decb-4b63-9c28-1277f13435db"},"vehicle_type_id":"4","last_reported":1744985353,"current_range_meters":15200,"station_id":"ce4bhah2rcd13ifvqei0","pricing_plan_id":"cebpf4jnsgd1na2vs0mg"},{"bike_id":"96b6a56c-7814-4fe8-bc57-ea35a0230c47","system_id":"levelo_inurba_marseille","lat":43.29624,"lon":5.37166,"is_reserved":false,"is_disabled":false,"rental_uris":{"android":"levelo://app?vid=96b6a56c-7814-4fe8-bc57-ea35a0230c47","ios":"levelo://app?vid=96b6a56c-7814-4fe8-bc57-ea35a0230c47"},"vehicle_type_id":"4","last_reported":1744985353,"current_range_meters":15200,"station_id":"ce4bgnh2rcd13ifvqc0g","pricing_plan_id":"cebpf4jnsgd1na2vs0mg"},{"bike_id":"371cbf55-9086-47cc-97d3-c0894be9d5e2","system_id":"levelo_inurba_marseille","lat":43.29211,"lon":5.3932,"is_reserved":false,"is_disabled":false,"rental_uris":{"android":"levelo://app?vid=371cbf55-9086-47cc-97d3-c0894be9d5e2","ios":"levelo://app?vid=371cbf55-9086-47cc-97d3-c0894be9d5e2"},"vehicle_type_id":"4","last_reported":1744985353,"current_range_meters":15200,"station_id":"ce4bh192rcd13ifvqdd0","pricing_plan_id":"cebpf4jnsgd1na2vs0mg"},{"bike_id":"782db3f8-bdab-4544-8575-27ef42251d0b","system_id":"levelo_inurba_marseille","lat":43.2417,"lon":5.3639,"is_reserved":false,"is_disabled":false,"rental_uris":{"android":"levelo://app?vid=782db3f8-bdab-4544-8575-27ef42251d0b","ios":"levelo://app?vid=782db3f8-bdab-4544-8575-27ef42251d0b"},"vehicle_type_id":"4","last_reported":1744985353,"current_range_meters":15200,"station_id":"cpo36qri1sfpv3e86is0","pricing_plan_id":"cebpf4jnsgd1na2vs0mg"},{"bike_id":"132ff306-e92b-4b03-aa73-a77f243accbe","system_id":"levelo_inurba_marseille","lat":43.29005,"lon":5.35602,"is_reserved":false,"is_disabled":false,"rental_uris":{"android":"levelo://app?vid=132ff306-e92b-4b03-aa73-a77f243accbe","ios":"levelo://app?vid=132ff306-e92b-4b03-aa73-a77f243accbe"},"vehicle_type_id":"4","last_reported":1744985353,"current_range_meters":15200,"station_id":"ce4bhb92rcd13ifvqen0","pricing_plan_id":"cebpf4jnsgd1na2vs0mg"},{"bike_id":"110c4abb-ffb8-4fd0-ba35-0e68e73379e5","system_id":"levelo_inurba_marseille","lat":43.22929,"lon":5.35398,"is_reserved":false,"is_disabled":false,"rental_uris":{"android":"levelo://app?vid=110c4abb-ffb8-4fd0-ba35-0e68e73379e5","ios":"levelo://app?vid=110c4abb-ffb8-4fd0-ba35-0e68e73379e5"},"vehicle_type_id":"4","last_reported":1744985353,"current_range_meters":15200,"station_id":"cpo3532slgdg3j2ikp40","pricing_plan_id":"cebpf4jnsgd1na2vs0mg"},{"bike_id":"ab4e966f-4349-4f52-9c64-866e427fd425","system_id":"levelo_inurba_marseille","lat":43.29715,"lon":5.37691,"is_reserved":false,"is_disabled":false,"rental_uris":{"android":"levelo://app?vid=ab4e966f-4349-4f52-9c64-866e427fd425","ios":"levelo://app?vid=ab4e966f-4349-4f52-9c64-866e427fd425"},"vehicle_type_id":"4","last_reported":1744985353,"current_range_meters":15200,"station_id":"ce4bgkh2rcd13ifvqbl0","pricing_plan_id":"cebpf4jnsgd1na2vs0mg"},{"bike_id":"be09bd14-33f4-4a56-b848-6c34e19dbf40","system_id":"levelo_inurba_marseille","lat":43.24387,"lon":5.37062,"is_reserved":false,"is_disabled":false,"rental_uris":{"android":"levelo://app?vid=be09bd14-33f4-4a56-b848-6c34e19dbf40","ios":"levelo://app?vid=be09bd14-33f4-4a56-b848-6c34e19dbf40"},"vehicle_type_id":"4","last_reported":1744985353,"current_range_meters":15200,"station_id":"ce4bhhh2rcd13ifvqfk0","pricing_plan_id":"cebpf4jnsgd1na2vs0mg"},{"bike_id":"079180a4-17a3-46c3-80d9-fe5f8b091fda","system_id":"levelo_inurba_marseille","lat":43.24162,"lon":5.36394,"is_reserved":false,"is_disabled":false,"rental_uris":{"android":"levelo://app?vid=079180a4-17a3-46c3-80d9-fe5f8b091fda","ios":"levelo://app?vid=079180a4-17a3-46c3-80d9-fe5f8b091fda"},"vehicle_type_id":"4","last_reported":1744985353,"current_range_meters":16000,"station_id":"cpo36qri1sfpv3e86is0","pricing_plan_id":"cebpf4jnsgd1na2vs0mg"},{"bike_id":"988fc324-495d-4a9e-9d1a-55b4a2882264","system_id":"levelo_inurba_marseille","lat":43.28264,"lon":5.35071,"is_reserved":false,"is_disabled":false,"rental_uris":{"android":"levelo://app?vid=988fc324-495d-4a9e-9d1a-55b4a2882264","ios":"levelo://app?vid=988fc324-495d-4a9e-9d1a-55b4a2882264"},"vehicle_type_id":"4","last_reported":1744985353,"current_range_meters":16000,"station_id":"ce4bhbp2rcd13ifvqerg","pricing_plan_id":"cebpf4jnsgd1na2vs0mg"},{"bike_id":"51b95633-670a-4c09-bc14-2b0f1e6f6a22","system_id":"levelo_inurba_marseille","lat":43.288556,"lon":5.358475,"is_reserved":false,"is_disabled":false,"rental_uris":{"android":"levelo://app?vid=51b95633-670a-4c09-bc14-2b0f1e6f6a22","ios":"levelo://app?vid=51b95633-670a-4c09-bc14-2b0f1e6f6a22"},"vehicle_type_id":"4","last_reported":1744985353,"current_range_meters":16000,"station_id":"ce4bhb12rcd13ifvqem0","pricing_plan_id":"cebpf4jnsgd1na2vs0mg"},{"bike_id":"b7ca5fc5-fd45-4e3b-afbb-55ab3620a77a","system_id":"levelo_inurba_marseille","lat":43.29255,"lon":5.38441,"is_reserved":false,"is_disabled":false,"rental_uris":{"android":"levelo://app?vid=b7ca5fc5-fd45-4e3b-afbb-55ab3620a77a","ios":"levelo://app?vid=b7ca5fc5-fd45-4e3b-afbb-55ab3620a77a"},"vehicle_type_id":"4","last_reported":1744985353,"current_range_meters":16000,"station_id":"ce4bh692rcd13ifvqea0","pricing_plan_id":"cebpf4jnsgd1na2vs0mg"},{"bike_id":"a1183122-2c11-405c-8c55-e035bd8761a2","system_id":"levelo_inurba_marseille","lat":43.27366,"lon":5.36248,"is_reserved":false,"is_disabled":false,"rental_uris":{"android":"levelo://app?vid=a1183122-2c11-405c-8c55-e035bd8761a2","ios":"levelo://app?vid=a1183122-2c11-405c-8c55-e035bd8761a2"},"vehicle_type_id":"4","last_reported":1744985353,"current_range_meters":16000,"station_id":"ce4bhbh2rcd13ifvqeo0","pricing_plan_id":"cebpf4jnsgd1na2vs0mg"},{"bike_id":"b3db7714-dbf3-4bc4-a6f1-64ff1086c08f","system_id":"levelo_inurba_marseille","lat":43.21758,"lon":5.34602,"is_reserved":false,"is_disabled":false,"rental_uris":{"android":"levelo://app?vid=b3db7714-dbf3-4bc4-a6f1-64ff1086c08f","ios":"levelo://app?vid=b3db7714-dbf3-4bc4-a6f1-64ff1086c08f"},"vehicle_type_id":"4","last_reported":1744985353,"current_range_meters":16000,"station_id":"st_cvj6r9ubvosntc0bgbag","pricing_plan_id":"cebpf4jnsgd1na2vs0mg"},{"bike_id":"691fc563-2043-48e3-bcb0-0c950507c3af","system_id":"levelo_inurba_marseille","lat":43.2761,"lon":5.36112,"is_reserved":false,"is_disabled":false,"rental_uris":{"android":"levelo://app?vid=691fc563-2043-48e3-bcb0-0c950507c3af","ios":"levelo://app?vid=691fc563-2043-48e3-bcb0-0c950507c3af"},"vehicle_type_id":"4","last_reported":1744985353,"current_range_meters":16000,"station_id":"ce4bgj92rcd13ifvqbe0","pricing_plan_id":"cebpf4jnsgd1na2vs0mg"},{"bike_id":"f11c1877-2531-4187-8a4e-82f9bf9c66d8","system_id":"levelo_inurba_marseille","lat":43.24995,"lon":5.38918,"is_reserved":false,"is_disabled":false,"rental_uris":{"android":"levelo://app?vid=f11c1877-2531-4187-8a4e-82f9bf9c66d8","ios":"levelo://app?vid=f11c1877-2531-4187-8a4e-82f9bf9c66d8"},"vehicle_type_id":"4","last_reported":1744985353,"current_range_meters":16400,"station_id":"ce4bhgp2rcd13ifvqfd0","pricing_plan_id":"cebpf4jnsgd1na2vs0mg"},{"bike_id":"9f45b2bf-53d1-4e39-9a64-fb391bdbd395","system_id":"levelo_inurba_marseille","lat":43.3372,"lon":5.39186,"is_reserved":false,"is_disabled":false,"rental_uris":{"android":"levelo://app?vid=9f45b2bf-53d1-4e39-9a64-fb391bdbd395","ios":"levelo://app?vid=9f45b2bf-53d1-4e39-9a64-fb391bdbd395"},"vehicle_type_id":"4","last_reported":1744985353,"current_range_meters":16400,"station_id":"ce4bhr92rcd13ifvqhsg","pricing_plan_id":"cebpf4jnsgd1na2vs0mg"},{"bike_id":"91aa591a-3e56-4092-a295-ecb6aebe69eb","system_id":"levelo_inurba_marseille","lat":43.22503,"lon":5.34786,"is_reserved":false,"is_disabled":false,"rental_uris":{"android":"levelo://app?vid=91aa591a-3e56-4092-a295-ecb6aebe69eb","ios":"levelo://app?vid=91aa591a-3e56-4092-a295-ecb6aebe69eb"},"vehicle_type_id":"4","last_reported":1744985353,"current_range_meters":16400,"station_id":"st_cvj5dfep6f1abm77gieg","pricing_plan_id":"cebpf4jnsgd1na2vs0mg"},{"bike_id":"789c3822-56ca-4769-bcd4-8845bdea2fda","system_id":"levelo_inurba_marseille","lat":43.24162,"lon":5.36389,"is_reserved":false,"is_disabled":false,"rental_uris":{"android":"levelo://app?vid=789c3822-56ca-4769-bcd4-8845bdea2fda","ios":"levelo://app?vid=789c3822-56ca-4769-bcd4-8845bdea2fda"},"vehicle_type_id":"4","last_reported":1744985353,"current_range_meters":16400,"station_id":"cpo36qri1sfpv3e86is0","pricing_plan_id":"cebpf4jnsgd1na2vs0mg"},{"bike_id":"82ccb6ba-b577-4bf4-8cbe-8aa14bb95c87","system_id":"levelo_inurba_marseille","lat":43.27386,"lon":5.36247,"is_reserved":false,"is_disabled":false,"rental_uris":{"android":"levelo://app?vid=82ccb6ba-b577-4bf4-8cbe-8aa14bb95c87","ios":"levelo://app?vid=82ccb6ba-b577-4bf4-8cbe-8aa14bb95c87"},"vehicle_type_id":"4","last_reported":1744985353,"current_range_meters":16400,"station_id":"ce4bhbh2rcd13ifvqeo0","pricing_plan_id":"cebpf4jnsgd1na2vs0mg"},{"bike_id":"776a90a6-5938-4552-8bf0-6525860353b0","system_id":"levelo_inurba_marseille","lat":43.30425,"lon":5.38879,"is_reserved":false,"is_disabled":false,"rental_uris":{"android":"levelo://app?vid=776a90a6-5938-4552-8bf0-6525860353b0","ios":"levelo://app?vid=776a90a6-5938-4552-8bf0-6525860353b0"},"vehicle_type_id":"4","last_reported":1744985353,"current_range_meters":16400,"station_id":"ce4bgk12rcd13ifvqbi0","pricing_plan_id":"cebpf4jnsgd1na2vs0mg"},{"bike_id":"ad044492-750a-47d8-807e-0d7e61d500ec","system_id":"levelo_inurba_marseille","lat":43.31265,"lon":5.40162,"is_reserved":false,"is_disabled":false,"rental_uris":{"android":"levelo://app?vid=ad044492-750a-47d8-807e-0d7e61d500ec","ios":"levelo://app?vid=ad044492-750a-47d8-807e-0d7e61d500ec"},"vehicle_type_id":"4","last_reported":1744985353,"current_range_meters":16400,"station_id":"ce4bh092rcd13ifvqd30","pricing_plan_id":"cebpf4jnsgd1na2vs0mg"},{"bike_id":"186380b9-3dab-457b-b648-71d123fa0368","system_id":"levelo_inurba_marseille","lat":43.25115,"lon":5.40343,"is_reserved":false,"is_disabled":true,"rental_uris":{"android":"levelo://app?vid=186380b9-3dab-457b-b648-71d123fa0368","ios":"levelo://app?vid=186380b9-3dab-457b-b648-71d123fa0368"},"vehicle_type_id":"4","last_reported":1744985353,"current_range_meters":16400,"station_id":"ce4bhlh2rcd13ifvqgig","pricing_plan_id":"cebpf4jnsgd1na2vs0mg"},{"bike_id":"738e5624-557c-427e-ba1e-49a888b447e3","system_id":"levelo_inurba_marseille","lat":43.28274,"lon":5.35059,"is_reserved":false,"is_disabled":false,"rental_uris":{"android":"levelo://app?vid=738e5624-557c-427e-ba1e-49a888b447e3","ios":"levelo://app?vid=738e5624-557c-427e-ba1e-49a888b447e3"},"vehicle_type_id":"4","last_reported":1744985353,"current_range_meters":16400,"station_id":"ce4bhbp2rcd13ifvqerg","pricing_plan_id":"cebpf4jnsgd1na2vs0mg"},{"bike_id":"8bffca6c-7751-4f66-ab59-ab6c8e60b419","system_id":"levelo_inurba_marseille","lat":43.21196,"lon":5.35071,"is_reserved":false,"is_disabled":false,"rental_uris":{"android":"levelo://app?vid=8bffca6c-7751-4f66-ab59-ab6c8e60b419","ios":"levelo://app?vid=8bffca6c-7751-4f66-ab59-ab6c8e60b419"},"vehicle_type_id":"4","last_reported":1744985353,"current_range_meters":16800,"station_id":"st_cvj6sg6p6f1abm77japg","pricing_plan_id":"cebpf4jnsgd1na2vs0mg"},{"bike_id":"6ec916c7-b026-4bb1-8a49-d7f731143b83","system_id":"levelo_inurba_marseille","lat":43.28442,"lon":5.39195,"is_reserved":false,"is_disabled":false,"rental_uris":{"android":"levelo://app?vid=6ec916c7-b026-4bb1-8a49-d7f731143b83","ios":"levelo://app?vid=6ec916c7-b026-4bb1-8a49-d7f731143b83"},"vehicle_type_id":"4","last_reported":1744985353,"current_range_meters":16800,"station_id":"ce4bhoh2rcd13ifvqh5g","pricing_plan_id":"cebpf4jnsgd1na2vs0mg"},{"bike_id":"73d349a3-8a77-4d4a-b28b-f340f5d4413e","system_id":"levelo_inurba_marseille","lat":43.33742,"lon":5.39149,"is_reserved":false,"is_disabled":false,"rental_uris":{"android":"levelo://app?vid=73d349a3-8a77-4d4a-b28b-f340f5d4413e","ios":"levelo://app?vid=73d349a3-8a77-4d4a-b28b-f340f5d4413e"},"vehicle_type_id":"4","last_reported":1744985353,"current_range_meters":16800,"station_id":"ce4bhr92rcd13ifvqhsg","pricing_plan_id":"cebpf4jnsgd1na2vs0mg"},{"bike_id":"4755e580-9f77-45ee-9108-beab285665ef","system_id":"levelo_inurba_marseille","lat":43.25579,"lon":5.38232,"is_reserved":false,"is_disabled":true,"rental_uris":{"android":"levelo://app?vid=4755e580-9f77-45ee-9108-beab285665ef","ios":"levelo://app?vid=4755e580-9f77-45ee-9108-beab285665ef"},"vehicle_type_id":"4","last_reported":1744985353,"current_range_meters":16800,"station_id":"ce4bhih2rcd13ifvqfs0","pricing_plan_id":"cebpf4jnsgd1na2vs0mg"},{"bike_id":"8a101ecd-7298-4c83-9c34-97872931b509","system_id":"levelo_inurba_marseille","lat":43.28614,"lon":5.35104,"is_reserved":false,"is_disabled":false,"rental_uris":{"android":"levelo://app?vid=8a101ecd-7298-4c83-9c34-97872931b509","ios":"levelo://app?vid=8a101ecd-7298-4c83-9c34-97872931b509"},"vehicle_type_id":"4","last_reported":1744985353,"current_range_meters":16800,"station_id":"ce4bhch2rcd13ifvqeug","pricing_plan_id":"cebpf4jnsgd1na2vs0mg"},{"bike_id":"32114de9-c526-480f-98c0-6ffe2345af1c","system_id":"levelo_inurba_marseille","lat":43.290137,"lon":5.356227,"is_reserved":false,"is_disabled":false,"rental_uris":{"android":"levelo://app?vid=32114de9-c526-480f-98c0-6ffe2345af1c","ios":"levelo://app?vid=32114de9-c526-480f-98c0-6ffe2345af1c"},"vehicle_type_id":"4","last_reported":1744985353,"current_range_meters":16800,"station_id":"ce4bhb92rcd13ifvqen0","pricing_plan_id":"cebpf4jnsgd1na2vs0mg"},{"bike_id":"f1d513e7-93f2-472b-b840-4c42490aad95","system_id":"levelo_inurba_marseille","lat":43.24167,"lon":5.36393,"is_reserved":false,"is_disabled":false,"rental_uris":{"android":"levelo://app?vid=f1d513e7-93f2-472b-b840-4c42490aad95","ios":"levelo://app?vid=f1d513e7-93f2-472b-b840-4c42490aad95"},"vehicle_type_id":"4","last_reported":1744985353,"current_range_meters":16800,"station_id":"cpo36qri1sfpv3e86is0","pricing_plan_id":"cebpf4jnsgd1na2vs0mg"},{"bike_id":"379b2d5b-0533-4837-b93d-586a3a73b77a","system_id":"levelo_inurba_marseille","lat":43.2467,"lon":5.38154,"is_reserved":false,"is_disabled":false,"rental_uris":{"android":"levelo://app?vid=379b2d5b-0533-4837-b93d-586a3a73b77a","ios":"levelo://app?vid=379b2d5b-0533-4837-b93d-586a3a73b77a"},"vehicle_type_id":"4","last_reported":1744985353,"current_range_meters":16800,"station_id":"ce4bhih2rcd13ifvqfr0","pricing_plan_id":"cebpf4jnsgd1na2vs0mg"},{"bike_id":"23cc3c21-39d5-401a-998d-6365ef24751a","system_id":"levelo_inurba_marseille","lat":43.229368,"lon":5.353808,"is_reserved":false,"is_disabled":false,"rental_uris":{"android":"levelo://app?vid=23cc3c21-39d5-401a-998d-6365ef24751a","ios":"levelo://app?vid=23cc3c21-39d5-401a-998d-6365ef24751a"},"vehicle_type_id":"4","last_reported":1744985353,"current_range_meters":16800,"station_id":"cpo3532slgdg3j2ikp40","pricing_plan_id":"cebpf4jnsgd1na2vs0mg"},{"bike_id":"1c6b405e-a6e9-4388-9a5d-d49acd0edafe","system_id":"levelo_inurba_marseille","lat":43.28622,"lon":5.35098,"is_reserved":false,"is_disabled":false,"rental_uris":{"android":"levelo://app?vid=1c6b405e-a6e9-4388-9a5d-d49acd0edafe","ios":"levelo://app?vid=1c6b405e-a6e9-4388-9a5d-d49acd0edafe"},"vehicle_type_id":"4","last_reported":1744985353,"current_range_meters":16800,"station_id":"ce4bhch2rcd13ifvqeug","pricing_plan_id":"cebpf4jnsgd1na2vs0mg"},{"bike_id":"3b4b2fa0-18dd-4f1b-a170-9839751538d5","system_id":"levelo_inurba_marseille","lat":43.27369,"lon":5.36225,"is_reserved":false,"is_disabled":false,"rental_uris":{"android":"levelo://app?vid=3b4b2fa0-18dd-4f1b-a170-9839751538d5","ios":"levelo://app?vid=3b4b2fa0-18dd-4f1b-a170-9839751538d5"},"vehicle_type_id":"4","last_reported":1744985353,"current_range_meters":17200,"station_id":"ce4bhbh2rcd13ifvqeo0","pricing_plan_id":"cebpf4jnsgd1na2vs0mg"},{"bike_id":"aadd93db-a7e7-4498-9c97-ed3facc37e3b","system_id":"levelo_inurba_marseille","lat":43.29578,"lon":5.36738,"is_reserved":false,"is_disabled":false,"rental_uris":{"android":"levelo://app?vid=aadd93db-a7e7-4498-9c97-ed3facc37e3b","ios":"levelo://app?vid=aadd93db-a7e7-4498-9c97-ed3facc37e3b"},"vehicle_type_id":"4","last_reported":1744985353,"current_range_meters":16800,"station_id":"ce4bgph2rcd13ifvqc2g","pricing_plan_id":"cebpf4jnsgd1na2vs0mg"},{"bike_id":"3dd440f0-8f26-4e14-9f07-bea35f7b998b","system_id":"levelo_inurba_marseille","lat":43.295234,"lon":5.374518,"is_reserved":false,"is_disabled":false,"rental_uris":{"android":"levelo://app?vid=3dd440f0-8f26-4e14-9f07-bea35f7b998b","ios":"levelo://app?vid=3dd440f0-8f26-4e14-9f07-bea35f7b998b"},"vehicle_type_id":"4","last_reported":1744985353,"current_range_meters":17200,"station_id":"ce4bgkh2rcd13ifvqbl0","pricing_plan_id":"cebpf4jnsgd1na2vs0mg"},{"bike_id":"00180857-beb7-4386-8dbc-c6d7377a56a8","system_id":"levelo_inurba_marseille","lat":43.27369,"lon":5.36236,"is_reserved":false,"is_disabled":false,"rental_uris":{"android":"levelo://app?vid=00180857-beb7-4386-8dbc-c6d7377a56a8","ios":"levelo://app?vid=00180857-beb7-4386-8dbc-c6d7377a56a8"},"vehicle_type_id":"4","last_reported":1744985353,"current_range_meters":17200,"station_id":"ce4bhbh2rcd13ifvqeo0","pricing_plan_id":"cebpf4jnsgd1na2vs0mg"},{"bike_id":"78c9f646-91fc-4110-b962-0fd81971f348","system_id":"levelo_inurba_marseille","lat":43.26495,"lon":5.3954,"is_reserved":false,"is_disabled":true,"rental_uris":{"android":"levelo://app?vid=78c9f646-91fc-4110-b962-0fd81971f348","ios":"levelo://app?vid=78c9f646-91fc-4110-b962-0fd81971f348"},"vehicle_type_id":"4","last_reported":1744985353,"current_range_meters":17200,"station_id":"ce4bhi12rcd13ifvqfq0","pricing_plan_id":"cebpf4jnsgd1na2vs0mg"},{"bike_id":"9eb6738d-486c-4d0a-88f4-70b8d81983d1","system_id":"levelo_inurba_marseille","lat":43.21753,"lon":5.34596,"is_reserved":false,"is_disabled":false,"rental_uris":{"android":"levelo://app?vid=9eb6738d-486c-4d0a-88f4-70b8d81983d1","ios":"levelo://app?vid=9eb6738d-486c-4d0a-88f4-70b8d81983d1"},"vehicle_type_id":"4","last_reported":1744985353,"current_range_meters":17200,"station_id":"st_cvj6r9ubvosntc0bgbag","pricing_plan_id":"cebpf4jnsgd1na2vs0mg"},{"bike_id":"4c2621dd-d0f9-483c-ac9e-25f78824d1cf","system_id":"levelo_inurba_marseille","lat":43.32295,"lon":5.38261,"is_reserved":false,"is_disabled":false,"rental_uris":{"android":"levelo://app?vid=4c2621dd-d0f9-483c-ac9e-25f78824d1cf","ios":"levelo://app?vid=4c2621dd-d0f9-483c-ac9e-25f78824d1cf"},"vehicle_type_id":"4","last_reported":1744985353,"current_range_meters":17200,"station_id":"ce4bhr12rcd13ifvqhqg","pricing_plan_id":"cebpf4jnsgd1na2vs0mg"},{"bike_id":"59a3749f-f32e-467f-903e-59fc01831bd8","system_id":"levelo_inurba_marseille","lat":43.29041,"lon":5.35913,"is_reserved":false,"is_disabled":false,"rental_uris":{"android":"levelo://app?vid=59a3749f-f32e-467f-903e-59fc01831bd8","ios":"levelo://app?vid=59a3749f-f32e-467f-903e-59fc01831bd8"},"vehicle_type_id":"4","last_reported":1744985353,"current_range_meters":17200,"station_id":"ce4bha92rcd13ifvqeg0","pricing_plan_id":"cebpf4jnsgd1na2vs0mg"},{"bike_id":"4d36db51-c12a-48f1-a5a0-0721a8a4e613","system_id":"levelo_inurba_marseille","lat":43.311572,"lon":5.387296,"is_reserved":false,"is_disabled":false,"rental_uris":{"android":"levelo://app?vid=4d36db51-c12a-48f1-a5a0-0721a8a4e613","ios":"levelo://app?vid=4d36db51-c12a-48f1-a5a0-0721a8a4e613"},"vehicle_type_id":"4","last_reported":1744985353,"current_range_meters":17600,"station_id":"ce4bgv12rcd13ifvqcp0","pricing_plan_id":"cebpf4jnsgd1na2vs0mg"},{"bike_id":"303dceb1-c53f-4f44-bc76-56399ec3bb64","system_id":"levelo_inurba_marseille","lat":43.29075,"lon":5.37166,"is_reserved":false,"is_disabled":false,"rental_uris":{"android":"levelo://app?vid=303dceb1-c53f-4f44-bc76-56399ec3bb64","ios":"levelo://app?vid=303dceb1-c53f-4f44-bc76-56399ec3bb64"},"vehicle_type_id":"4","last_reported":1744985353,"current_range_meters":17600,"station_id":"ce4bh5p2rcd13ifvqe4g","pricing_plan_id":"cebpf4jnsgd1na2vs0mg"},{"bike_id":"a6f66633-ac5e-4faa-88be-0d46a83a9724","system_id":"levelo_inurba_marseille","lat":43.23194,"lon":5.35554,"is_reserved":false,"is_disabled":false,"rental_uris":{"android":"levelo://app?vid=a6f66633-ac5e-4faa-88be-0d46a83a9724","ios":"levelo://app?vid=a6f66633-ac5e-4faa-88be-0d46a83a9724"},"vehicle_type_id":"4","last_reported":1744985353,"current_range_meters":17600,"station_id":"ce4bhu92rcd13ifvqi70","pricing_plan_id":"cebpf4jnsgd1na2vs0mg"},{"bike_id":"aea2afb6-112e-4c3a-968a-5eb5aa77e9be","system_id":"levelo_inurba_marseille","lat":43.21191,"lon":5.35065,"is_reserved":false,"is_disabled":false,"rental_uris":{"android":"levelo://app?vid=aea2afb6-112e-4c3a-968a-5eb5aa77e9be","ios":"levelo://app?vid=aea2afb6-112e-4c3a-968a-5eb5aa77e9be"},"vehicle_type_id":"4","last_reported":1744985353,"current_range_meters":17600,"station_id":"st_cvj6sg6p6f1abm77japg","pricing_plan_id":"cebpf4jnsgd1na2vs0mg"},{"bike_id":"82a001e1-327f-4a58-b355-bcf2e1a86bf6","system_id":"levelo_inurba_marseille","lat":43.30932,"lon":5.36704,"is_reserved":false,"is_disabled":false,"rental_uris":{"android":"levelo://app?vid=82a001e1-327f-4a58-b355-bcf2e1a86bf6","ios":"levelo://app?vid=82a001e1-327f-4a58-b355-bcf2e1a86bf6"},"vehicle_type_id":"4","last_reported":1744985353,"current_range_meters":17600,"station_id":"","pricing_plan_id":"cebpf4jnsgd1na2vs0mg"},{"bike_id":"5a006567-376a-4b87-a5f2-673369123e53","system_id":"levelo_inurba_marseille","lat":43.29004,"lon":5.35613,"is_reserved":false,"is_disabled":false,"rental_uris":{"android":"levelo://app?vid=5a006567-376a-4b87-a5f2-673369123e53","ios":"levelo://app?vid=5a006567-376a-4b87-a5f2-673369123e53"},"vehicle_type_id":"4","last_reported":1744985353,"current_range_meters":17600,"station_id":"ce4bhb92rcd13ifvqen0","pricing_plan_id":"cebpf4jnsgd1na2vs0mg"},{"bike_id":"47ac335a-36e2-49e7-abe4-1428c8083e35","system_id":"levelo_inurba_marseille","lat":43.22926,"lon":5.35374,"is_reserved":false,"is_disabled":false,"rental_uris":{"android":"levelo://app?vid=47ac335a-36e2-49e7-abe4-1428c8083e35","ios":"levelo://app?vid=47ac335a-36e2-49e7-abe4-1428c8083e35"},"vehicle_type_id":"4","last_reported":1744985353,"current_range_meters":17600,"station_id":"cpo3532slgdg3j2ikp40","pricing_plan_id":"cebpf4jnsgd1na2vs0mg"},{"bike_id":"c87d635f-e9a2-4df8-98cf-fab65d13a88b","system_id":"levelo_inurba_marseille","lat":43.3106,"lon":5.40096,"is_reserved":false,"is_disabled":false,"rental_uris":{"android":"levelo://app?vid=c87d635f-e9a2-4df8-98cf-fab65d13a88b","ios":"levelo://app?vid=c87d635f-e9a2-4df8-98cf-fab65d13a88b"},"vehicle_type_id":"4","last_reported":1744985353,"current_range_meters":17600,"station_id":"","pricing_plan_id":"cebpf4jnsgd1na2vs0mg"},{"bike_id":"846231f6-6953-4ff8-b8a5-3a085f1dbb55","system_id":"levelo_inurba_marseille","lat":43.29898,"lon":5.43685,"is_reserved":false,"is_disabled":false,"rental_uris":{"android":"levelo://app?vid=846231f6-6953-4ff8-b8a5-3a085f1dbb55","ios":"levelo://app?vid=846231f6-6953-4ff8-b8a5-3a085f1dbb55"},"vehicle_type_id":"4","last_reported":1744985353,"current_range_meters":17600,"station_id":"ce4bhpp2rcd13ifvqhfg","pricing_plan_id":"cebpf4jnsgd1na2vs0mg"},{"bike_id":"bb9cc5b6-0c7a-4871-8383-15ba04455dec","system_id":"levelo_inurba_marseille","lat":43.29907,"lon":5.43674,"is_reserved":false,"is_disabled":false,"rental_uris":{"android":"levelo://app?vid=bb9cc5b6-0c7a-4871-8383-15ba04455dec","ios":"levelo://app?vid=bb9cc5b6-0c7a-4871-8383-15ba04455dec"},"vehicle_type_id":"4","last_reported":1744985353,"current_range_meters":18000,"station_id":"ce4bhpp2rcd13ifvqhfg","pricing_plan_id":"cebpf4jnsgd1na2vs0mg"},{"bike_id":"cba1cfd7-db8b-4aa7-900c-704dea9f7f07","system_id":"levelo_inurba_marseille","lat":43.30306,"lon":5.36888,"is_reserved":false,"is_disabled":false,"rental_uris":{"android":"levelo://app?vid=cba1cfd7-db8b-4aa7-900c-704dea9f7f07","ios":"levelo://app?vid=cba1cfd7-db8b-4aa7-900c-704dea9f7f07"},"vehicle_type_id":"4","last_reported":1744985353,"current_range_meters":17600,"station_id":"ce4bgqh2rcd13ifvqc5g","pricing_plan_id":"cebpf4jnsgd1na2vs0mg"},{"bike_id":"57e4bf49-afd3-40be-be28-f9c625a8dbad","system_id":"levelo_inurba_marseille","lat":43.2737,"lon":5.36243,"is_reserved":false,"is_disabled":true,"rental_uris":{"android":"levelo://app?vid=57e4bf49-afd3-40be-be28-f9c625a8dbad","ios":"levelo://app?vid=57e4bf49-afd3-40be-be28-f9c625a8dbad"},"vehicle_type_id":"4","last_reported":1744985353,"current_range_meters":18000,"station_id":"ce4bhbh2rcd13ifvqeo0","pricing_plan_id":"cebpf4jnsgd1na2vs0mg"},{"bike_id":"f1e9fe1d-b2ae-4601-a945-bda69df1ddd2","system_id":"levelo_inurba_marseille","lat":43.31761,"lon":5.39014,"is_reserved":false,"is_disabled":false,"rental_uris":{"android":"levelo://app?vid=f1e9fe1d-b2ae-4601-a945-bda69df1ddd2","ios":"levelo://app?vid=f1e9fe1d-b2ae-4601-a945-bda69df1ddd2"},"vehicle_type_id":"4","last_reported":1744985353,"current_range_meters":18000,"station_id":"ce4bhqp2rcd13ifvqhng","pricing_plan_id":"cebpf4jnsgd1na2vs0mg"},{"bike_id":"b8bfb595-172f-42e2-b2a5-1025644ba64a","system_id":"levelo_inurba_marseille","lat":43.30146,"lon":5.3989,"is_reserved":false,"is_disabled":false,"rental_uris":{"android":"levelo://app?vid=b8bfb595-172f-42e2-b2a5-1025644ba64a","ios":"levelo://app?vid=b8bfb595-172f-42e2-b2a5-1025644ba64a"},"vehicle_type_id":"4","last_reported":1744985353,"current_range_meters":18000,"station_id":"ce4bh0h2rcd13ifvqd40","pricing_plan_id":"cebpf4jnsgd1na2vs0mg"},{"bike_id":"343406d9-08d9-46fe-b35a-6f875b542c07","system_id":"levelo_inurba_marseille","lat":43.23051,"lon":5.35492,"is_reserved":false,"is_disabled":true,"rental_uris":{"android":"levelo://app?vid=343406d9-08d9-46fe-b35a-6f875b542c07","ios":"levelo://app?vid=343406d9-08d9-46fe-b35a-6f875b542c07"},"vehicle_type_id":"4","last_reported":1744985353,"current_range_meters":18000,"station_id":"cpo3342slgdg3j2ifvpg","pricing_plan_id":"cebpf4jnsgd1na2vs0mg"},{"bike_id":"8e3a627a-3446-48ab-b116-d405a8a4f38e","system_id":"levelo_inurba_marseille","lat":43.28422,"lon":5.34983,"is_reserved":false,"is_disabled":false,"rental_uris":{"android":"levelo://app?vid=8e3a627a-3446-48ab-b116-d405a8a4f38e","ios":"levelo://app?vid=8e3a627a-3446-48ab-b116-d405a8a4f38e"},"vehicle_type_id":"4","last_reported":1744985353,"current_range_meters":18000,"station_id":"ce4bhbh2rcd13ifvqepg","pricing_plan_id":"cebpf4jnsgd1na2vs0mg"},{"bike_id":"24213b37-b766-4d9c-a174-f6bf34920497","system_id":"levelo_inurba_marseille","lat":43.28469,"lon":5.384178,"is_reserved":false,"is_disabled":false,"rental_uris":{"android":"levelo://app?vid=24213b37-b766-4d9c-a174-f6bf34920497","ios":"levelo://app?vid=24213b37-b766-4d9c-a174-f6bf34920497"},"vehicle_type_id":"4","last_reported":1744985353,"current_range_meters":18000,"station_id":"ce4bh512rcd13ifvqe3g","pricing_plan_id":"cebpf4jnsgd1na2vs0mg"},{"bike_id":"17de6571-3c1c-4621-995b-d445cb9c6f14","system_id":"levelo_inurba_marseille","lat":43.211938,"lon":5.350742,"is_reserved":false,"is_disabled":false,"rental_uris":{"android":"levelo://app?vid=17de6571-3c1c-4621-995b-d445cb9c6f14","ios":"levelo://app?vid=17de6571-3c1c-4621-995b-d445cb9c6f14"},"vehicle_type_id":"4","last_reported":1744985353,"current_range_meters":18000,"station_id":"st_cvj6sg6p6f1abm77japg","pricing_plan_id":"cebpf4jnsgd1na2vs0mg"},{"bike_id":"8f94de41-9f21-4c20-9e59-851434d7d4fe","system_id":"levelo_inurba_marseille","lat":43.27378,"lon":5.3625,"is_reserved":false,"is_disabled":false,"rental_uris":{"android":"levelo://app?vid=8f94de41-9f21-4c20-9e59-851434d7d4fe","ios":"levelo://app?vid=8f94de41-9f21-4c20-9e59-851434d7d4fe"},"vehicle_type_id":"4","last_reported":1744985353,"current_range_meters":18000,"station_id":"ce4bhbh2rcd13ifvqeo0","pricing_plan_id":"cebpf4jnsgd1na2vs0mg"},{"bike_id":"21ff558f-8aba-4412-8c77-cd7ffa40b0ad","system_id":"levelo_inurba_marseille","lat":43.25496,"lon":5.37648,"is_reserved":false,"is_disabled":false,"rental_uris":{"android":"levelo://app?vid=21ff558f-8aba-4412-8c77-cd7ffa40b0ad","ios":"levelo://app?vid=21ff558f-8aba-4412-8c77-cd7ffa40b0ad"},"vehicle_type_id":"4","last_reported":1744985353,"current_range_meters":18000,"station_id":"ce4bhh12rcd13ifvqff0","pricing_plan_id":"cebpf4jnsgd1na2vs0mg"},{"bike_id":"5c87a66e-a468-4c06-bf6a-016059f2b476","system_id":"levelo_inurba_marseille","lat":43.22932,"lon":5.35375,"is_reserved":false,"is_disabled":false,"rental_uris":{"android":"levelo://app?vid=5c87a66e-a468-4c06-bf6a-016059f2b476","ios":"levelo://app?vid=5c87a66e-a468-4c06-bf6a-016059f2b476"},"vehicle_type_id":"4","last_reported":1744985353,"current_range_meters":18000,"station_id":"cpo3532slgdg3j2ikp40","pricing_plan_id":"cebpf4jnsgd1na2vs0mg"},