{"last_updated":1773822944,"ttl":60,"version":"2.2","data":{"bikes":[{"bike_id":"a9ab5a39-2731-4734-97ce-71106411e1b9","system_id":"levelo_inurba_marseille","lat":43.21759,"lon":5.34608,"is_reserved":false,"is_disabled":false,"rental_uris":{"android":"levelo://app?vid=a9ab5a39-2731-4734-97ce-71106411e1b9","ios":"levelo://app?vid=a9ab5a39-2731-4734-97ce-71106411e1b9"},"vehicle_type_id":"4","last_reported":1773822944,"current_range_meters":2000,"station_id":"st_cvj6r9ubvosntc0bgbag","pricing_plan_id":"cebpf4jnsgd1na2vs0mg"},{"bike_id":"feaf2e83-6bc7-46d3-b8dc-e52b9fc8cf3e","system_id":"levelo_inurba_marseille","lat":43.22566,"lon":5.41619,"is_reserved":false,"is_disabled":false,"rental_uris":{"android":"levelo://app?vid=feaf2e83-6bc7-46d3-b8dc-e52b9fc8cf3e","ios":"levelo://app?vid=feaf2e83-6bc7-46d3-b8dc-e52b9fc8cf3e"},"vehicle_type_id":"4","last_reported":1773822944,"current_range_meters":2800,"station_id":"st_d2o4gvlbi1j2169b742g","pricing_plan_id":"cebpf4jnsgd1na2vs0mg"},{"bike_id":"55ad6576-3c79-4a6b-881b-323a7e8b70a1","system_id":"levelo_inurba_marseille","lat":43.24993,"lon":5.38935,"is_reserved":false,"is_disabled":false,"rental_uris":{"android":"levelo://app?vid=55ad6576-3c79-4a6b-881b-323a7e8b70a1","ios":"levelo://app?vid=55ad6576-3c79-4a6b-881b-323a7e8b70a1"},"vehicle_type_id":"4","last_reported":1773822944,"current_range_meters":2800,"station_id":"ce4bhgp2rcd13ifvqfd0","pricing_plan_id":"cebpf4jnsgd1na2vs0mg"},{"bike_id":"fcc16676-bdcc-453d-943e-a6082336e83f","system_id":"levelo_inurba_marseille","lat":43.29817,"lon":5.44051,"is_reserved":false,"is_disabled":false,"rental_uris":{"android":"levelo://app?vid=fcc16676-bdcc-453d-943e-a6082336e83f","ios":"levelo://app?vid=fcc16676-bdcc-453d-943e-a6082336e83f"},"vehicle_type_id":"4","last_reported":1773822944,"current_range_meters":2800,"station_id":"st_d3jp68qikq2c7381ktn0","pricing_plan_id":"cebpf4jnsgd1na2vs0mg"},{"bike_id":"70dc4d05-aae3-4732-b154-15fa01d1cd08","system_id":"levelo_inurba_marseille","lat":43.27832,"lon":5.40729,"is_reserved":false,"is_disabled":true,"rental_uris":{"android":"levelo://app?vid=70dc4d05-aae3-4732-b154-15fa01d1cd08","ios":"levelo://app?vid=70dc4d05-aae3-4732-b154-15fa01d1cd08"},"vehicle_type_id":"4","last_reported":1773822944,"current_range_meters":2800,"station_id":"ce4bhnh2rcd13ifvqgtg","pricing_plan_id":"cebpf4jnsgd1na2vs0mg"},{"bike_id":"3aa3d11b-ad41-4898-aa7f-dcaaf47f06cb","system_id":"levelo_inurba_marseille","lat":43.33546,"lon":5.37472,"is_reserved":false,"is_disabled":false,"rental_uris":{"android":"levelo://app?vid=3aa3d11b-ad41-4898-aa7f-dcaaf47f06cb","ios":"levelo://app?vid=3aa3d11b-ad41-4898-aa7f-dcaaf47f06cb"},"vehicle_type_id":"4","last_reported":1773822944,"current_range_meters":2800,"station_id":"st_d46tts09ee8s73dlu43g","pricing_plan_id":"cebpf4jnsgd1na2vs0mg"},{"bike_id":"83fa5f68-0bcd-46f8-836f-b22a94918858","system_id":"levelo_inurba_marseille","lat":43.29092,"lon":5.38161,"is_reserved":false,"is_disabled":false,"rental_uris":{"android":"levelo://app?vid=83fa5f68-0bcd-46f8-836f-b22a94918858","ios":"levelo://app?vid=83fa5f68-0bcd-46f8-836f-b22a94918858"},"vehicle_type_id":"4","last_reported":1773822944,"current_range_meters":2800,"station_id":"ce4bh512rcd13ifvqe2g","pricing_plan_id":"cebpf4jnsgd1na2vs0mg"},{"bike_id":"bc8899e8-628d-4959-b604-21461341e264","system_id":"levelo_inurba_marseille","lat":43.24165,"lon":5.39746,"is_reserved":false,"is_disabled":false,"rental_uris":{"android":"levelo://app?vid=bc8899e8-628d-4959-b604-21461341e264","ios":"levelo://app?vid=bc8899e8-628d-4959-b604-21461341e264"},"vehicle_type_id":"4","last_reported":1773822944,"current_range_meters":2800,"station_id":"ce4bhn12rcd13ifvqgpg","pricing_plan_id":"cebpf4jnsgd1na2vs0mg"},{"bike_id":"2a394174-fa6b-4212-913a-1ddaad9b7087","system_id":"levelo_inurba_marseille","lat":43.22924,"lon":5.35383,"is_reserved":false,"is_disabled":false,"rental_uris":{"android":"levelo://app?vid=2a394174-fa6b-4212-913a-1ddaad9b7087","ios":"levelo://app?vid=2a394174-fa6b-4212-913a-1ddaad9b7087"},"vehicle_type_id":"4","last_reported":1773822944,"current_range_meters":2800,"station_id":"cpo3532slgdg3j2ikp40","pricing_plan_id":"cebpf4jnsgd1na2vs0mg"},{"bike_id":"d6f4fcc9-529e-44c9-8ab1-66a46ec0a2d7","system_id":"levelo_inurba_marseille","lat":43.29658,"lon":5.37461,"is_reserved":false,"is_disabled":false,"rental_uris":{"android":"levelo://app?vid=d6f4fcc9-529e-44c9-8ab1-66a46ec0a2d7","ios":"levelo://app?vid=d6f4fcc9-529e-44c9-8ab1-66a46ec0a2d7"},"vehicle_type_id":"4","last_reported":1773822944,"current_range_meters":2800,"station_id":"","pricing_plan_id":"cebpf4jnsgd1na2vs0mg"},{"bike_id":"c120406e-119d-4789-8519-a9cd3f8a0c7b","system_id":"levelo_inurba_marseille","lat":43.33521,"lon":5.37493,"is_reserved":false,"is_disabled":false,"rental_uris":{"android":"levelo://app?vid=c120406e-119d-4789-8519-a9cd3f8a0c7b","ios":"levelo://app?vid=c120406e-119d-4789-8519-a9cd3f8a0c7b"},"vehicle_type_id":"4","last_reported":1773822944,"current_range_meters":2800,"station_id":"st_d46tts09ee8s73dlu43g","pricing_plan_id":"cebpf4jnsgd1na2vs0mg"},{"bike_id":"4f78558b-b892-4ea7-a6c8-5a553fa9f098","system_id":"levelo_inurba_marseille","lat":43.28997,"lon":5.37838,"is_reserved":false,"is_disabled":false,"rental_uris":{"android":"levelo://app?vid=4f78558b-b892-4ea7-a6c8-5a553fa9f098","ios":"levelo://app?vid=4f78558b-b892-4ea7-a6c8-5a553fa9f098"},"vehicle_type_id":"4","last_reported":1773822944,"current_range_meters":2800,"station_id":"ce4bh9p2rcd13ifvqed0","pricing_plan_id":"cebpf4jnsgd1na2vs0mg"},{"bike_id":"88858f89-fe21-45f8-acbb-9ce67472ddb3","system_id":"levelo_inurba_marseille","lat":43.22923,"lon":5.35386,"is_reserved":false,"is_disabled":false,"rental_uris":{"android":"levelo://app?vid=88858f89-fe21-45f8-acbb-9ce67472ddb3","ios":"levelo://app?vid=88858f89-fe21-45f8-acbb-9ce67472ddb3"},"vehicle_type_id":"4","last_reported":1773822944,"current_range_meters":2800,"station_id":"cpo3532slgdg3j2ikp40","pricing_plan_id":"cebpf4jnsgd1na2vs0mg"},{"bike_id":"b629acf9-0c07-4fb6-abfc-b78fcc2931be","system_id":"levelo_inurba_marseille","lat":43.31061,"lon":5.37191,"is_reserved":false,"is_disabled":false,"rental_uris":{"android":"levelo://app?vid=b629acf9-0c07-4fb6-abfc-b78fcc2931be","ios":"levelo://app?vid=b629acf9-0c07-4fb6-abfc-b78fcc2931be"},"vehicle_type_id":"4","last_reported":1773822944,"current_range_meters":2800,"station_id":"st_d4kl2rp97mjs73e7tdfg","pricing_plan_id":"cebpf4jnsgd1na2vs0mg"},{"bike_id":"56998bac-8291-4fcc-839f-5c15c2a94292","system_id":"levelo_inurba_marseille","lat":43.26948,"lon":5.38639,"is_reserved":false,"is_disabled":false,"rental_uris":{"android":"levelo://app?vid=56998bac-8291-4fcc-839f-5c15c2a94292","ios":"levelo://app?vid=56998bac-8291-4fcc-839f-5c15c2a94292"},"vehicle_type_id":"4","last_reported":1773822944,"current_range_meters":2800,"station_id":"ce4bhh92rcd13ifvqfh0","pricing_plan_id":"cebpf4jnsgd1na2vs0mg"},{"bike_id":"b3e3399c-3837-42b8-afac-39674642005e","system_id":"levelo_inurba_marseille","lat":43.29754,"lon":5.42762,"is_reserved":false,"is_disabled":false,"rental_uris":{"android":"levelo://app?vid=b3e3399c-3837-42b8-afac-39674642005e","ios":"levelo://app?vid=b3e3399c-3837-42b8-afac-39674642005e"},"vehicle_type_id":"4","last_reported":1773822944,"current_range_meters":2800,"station_id":"st_d3md5207bmas73dh9klg","pricing_plan_id":"cebpf4jnsgd1na2vs0mg"},{"bike_id":"8a996dde-7484-41f6-9f4a-ee9ed4d00477","system_id":"levelo_inurba_marseille","lat":43.29068,"lon":5.37161,"is_reserved":false,"is_disabled":false,"rental_uris":{"android":"levelo://app?vid=8a996dde-7484-41f6-9f4a-ee9ed4d00477","ios":"levelo://app?vid=8a996dde-7484-41f6-9f4a-ee9ed4d00477"},"vehicle_type_id":"4","last_reported":1773822944,"current_range_meters":2800,"station_id":"ce4bh5p2rcd13ifvqe4g","pricing_plan_id":"cebpf4jnsgd1na2vs0mg"},{"bike_id":"e4b515b3-5a64-4f24-8a63-3407e3500a15","system_id":"levelo_inurba_marseille","lat":43.24323,"lon":5.40223,"is_reserved":false,"is_disabled":false,"rental_uris":{"android":"levelo://app?vid=e4b515b3-5a64-4f24-8a63-3407e3500a15","ios":"levelo://app?vid=e4b515b3-5a64-4f24-8a63-3407e3500a15"},"vehicle_type_id":"4","last_reported":1773822944,"current_range_meters":2800,"station_id":"","pricing_plan_id":"cebpf4jnsgd1na2vs0mg"},{"bike_id":"7a9d73de-2380-493c-8aac-f7476422b0ab","system_id":"levelo_inurba_marseille","lat":43.28424,"lon":5.39167,"is_reserved":false,"is_disabled":false,"rental_uris":{"android":"levelo://app?vid=7a9d73de-2380-493c-8aac-f7476422b0ab","ios":"levelo://app?vid=7a9d73de-2380-493c-8aac-f7476422b0ab"},"vehicle_type_id":"4","last_reported":1773822944,"current_range_meters":3200,"station_id":"ce4bhoh2rcd13ifvqh5g","pricing_plan_id":"cebpf4jnsgd1na2vs0mg"},{"bike_id":"7138d584-ac6a-4689-8759-a454c6ada4aa","system_id":"levelo_inurba_marseille","lat":43.26676,"lon":5.3828,"is_reserved":false,"is_disabled":false,"rental_uris":{"android":"levelo://app?vid=7138d584-ac6a-4689-8759-a454c6ada4aa","ios":"levelo://app?vid=7138d584-ac6a-4689-8759-a454c6ada4aa"},"vehicle_type_id":"4","last_reported":1773822944,"current_range_meters":3200,"station_id":"ce4bhg92rcd13ifvqf90","pricing_plan_id":"cebpf4jnsgd1na2vs0mg"},{"bike_id":"6adf7219-f6cb-4246-925c-a53fcba852de","system_id":"levelo_inurba_marseille","lat":43.28941,"lon":5.39624,"is_reserved":false,"is_disabled":false,"rental_uris":{"android":"levelo://app?vid=6adf7219-f6cb-4246-925c-a53fcba852de","ios":"levelo://app?vid=6adf7219-f6cb-4246-925c-a53fcba852de"},"vehicle_type_id":"4","last_reported":1773822944,"current_range_meters":3200,"station_id":"ce4bh3h2rcd13ifvqdn0","pricing_plan_id":"cebpf4jnsgd1na2vs0mg"},{"bike_id":"437ad771-7ec6-4e71-b382-4f5805d22a5a","system_id":"levelo_inurba_marseille","lat":43.27313,"lon":5.39086,"is_reserved":false,"is_disabled":false,"rental_uris":{"android":"levelo://app?vid=437ad771-7ec6-4e71-b382-4f5805d22a5a","ios":"levelo://app?vid=437ad771-7ec6-4e71-b382-4f5805d22a5a"},"vehicle_type_id":"4","last_reported":1773822944,"current_range_meters":3200,"station_id":"ce4bhgp2rcd13ifvqfe0","pricing_plan_id":"cebpf4jnsgd1na2vs0mg"},{"bike_id":"ac955b52-0039-4c68-b4e8-9ab956f51e5e","system_id":"levelo_inurba_marseille","lat":43.312535,"lon":5.368701,"is_reserved":false,"is_disabled":false,"rental_uris":{"android":"levelo://app?vid=ac955b52-0039-4c68-b4e8-9ab956f51e5e","ios":"levelo://app?vid=ac955b52-0039-4c68-b4e8-9ab956f51e5e"},"vehicle_type_id":"4","last_reported":1773822944,"current_range_meters":3200,"station_id":"ce4bgl92rcd13ifvqbq0","pricing_plan_id":"cebpf4jnsgd1na2vs0mg"},{"bike_id":"f00fcd39-d458-47f2-97b4-5462c5c8dab5","system_id":"levelo_inurba_marseille","lat":43.25492,"lon":5.37652,"is_reserved":false,"is_disabled":false,"rental_uris":{"android":"levelo://app?vid=f00fcd39-d458-47f2-97b4-5462c5c8dab5","ios":"levelo://app?vid=f00fcd39-d458-47f2-97b4-5462c5c8dab5"},"vehicle_type_id":"4","last_reported":1773822944,"current_range_meters":3200,"station_id":"ce4bhh12rcd13ifvqff0","pricing_plan_id":"cebpf4jnsgd1na2vs0mg"},{"bike_id":"f9fcd0e4-64a8-49e7-b1c7-7c4d0ac98b5d","system_id":"levelo_inurba_marseille","lat":43.31477,"lon":5.37278,"is_reserved":false,"is_disabled":false,"rental_uris":{"android":"levelo://app?vid=f9fcd0e4-64a8-49e7-b1c7-7c4d0ac98b5d","ios":"levelo://app?vid=f9fcd0e4-64a8-49e7-b1c7-7c4d0ac98b5d"},"vehicle_type_id":"4","last_reported":1773822944,"current_range_meters":3200,"station_id":"ce4bgt12rcd13ifvqcd0","pricing_plan_id":"cebpf4jnsgd1na2vs0mg"},{"bike_id":"e96a044f-2ef6-488d-9ecd-a61e027bbb5c","system_id":"levelo_inurba_marseille","lat":43.32656,"lon":5.40985,"is_reserved":false,"is_disabled":false,"rental_uris":{"android":"levelo://app?vid=e96a044f-2ef6-488d-9ecd-a61e027bbb5c","ios":"levelo://app?vid=e96a044f-2ef6-488d-9ecd-a61e027bbb5c"},"vehicle_type_id":"4","last_reported":1773822944,"current_range_meters":3200,"station_id":"ce4bhpp2rcd13ifvqhgg","pricing_plan_id":"cebpf4jnsgd1na2vs0mg"},{"bike_id":"817f9749-27c3-4408-822a-09ab0d843e83","system_id":"levelo_inurba_marseille","lat":43.29302,"lon":5.37478,"is_reserved":false,"is_disabled":false,"rental_uris":{"android":"levelo://app?vid=817f9749-27c3-4408-822a-09ab0d843e83","ios":"levelo://app?vid=817f9749-27c3-4408-822a-09ab0d843e83"},"vehicle_type_id":"4","last_reported":1773822944,"current_range_meters":3200,"station_id":"ce4bgi12rcd13ifvqb70","pricing_plan_id":"cebpf4jnsgd1na2vs0mg"},{"bike_id":"ebd201db-6b0d-4b0b-afef-9306224c354d","system_id":"levelo_inurba_marseille","lat":43.29508,"lon":5.39039,"is_reserved":false,"is_disabled":true,"rental_uris":{"android":"levelo://app?vid=ebd201db-6b0d-4b0b-afef-9306224c354d","ios":"levelo://app?vid=ebd201db-6b0d-4b0b-afef-9306224c354d"},"vehicle_type_id":"4","last_reported":1773822944,"current_range_meters":3200,"station_id":"ce4bh3p2rcd13ifvqdp0","pricing_plan_id":"cebpf4jnsgd1na2vs0mg"},{"bike_id":"f6c860f4-9c2e-4a13-b509-50fb1709859b","system_id":"levelo_inurba_marseille","lat":43.21183,"lon":5.35068,"is_reserved":false,"is_disabled":false,"rental_uris":{"android":"levelo://app?vid=f6c860f4-9c2e-4a13-b509-50fb1709859b","ios":"levelo://app?vid=f6c860f4-9c2e-4a13-b509-50fb1709859b"},"vehicle_type_id":"4","last_reported":1773822944,"current_range_meters":3600,"station_id":"st_cvj6sg6p6f1abm77japg","pricing_plan_id":"cebpf4jnsgd1na2vs0mg"},{"bike_id":"02069907-22a3-4b54-8d6a-4533b0f28256","system_id":"levelo_inurba_marseille","lat":43.30592,"lon":5.37217,"is_reserved":false,"is_disabled":false,"rental_uris":{"android":"levelo://app?vid=02069907-22a3-4b54-8d6a-4533b0f28256","ios":"levelo://app?vid=02069907-22a3-4b54-8d6a-4533b0f28256"},"vehicle_type_id":"4","last_reported":1773822944,"current_range_meters":3600,"station_id":"ce4bgqh2rcd13ifvqc4g","pricing_plan_id":"cebpf4jnsgd1na2vs0mg"},{"bike_id":"28934219-7bc1-494b-8007-d3749b5ec108","system_id":"levelo_inurba_marseille","lat":43.25944,"lon":5.40891,"is_reserved":false,"is_disabled":false,"rental_uris":{"android":"levelo://app?vid=28934219-7bc1-494b-8007-d3749b5ec108","ios":"levelo://app?vid=28934219-7bc1-494b-8007-d3749b5ec108"},"vehicle_type_id":"4","last_reported":1773822944,"current_range_meters":3600,"station_id":"ce4bhm92rcd13ifvqglg","pricing_plan_id":"cebpf4jnsgd1na2vs0mg"},{"bike_id":"ece33332-c9c7-4886-9a59-ebf38c4535a5","system_id":"levelo_inurba_marseille","lat":43.25863,"lon":5.39908,"is_reserved":false,"is_disabled":false,"rental_uris":{"android":"levelo://app?vid=ece33332-c9c7-4886-9a59-ebf38c4535a5","ios":"levelo://app?vid=ece33332-c9c7-4886-9a59-ebf38c4535a5"},"vehicle_type_id":"4","last_reported":1773822944,"current_range_meters":3600,"station_id":"ce4bhl92rcd13ifvqghg","pricing_plan_id":"cebpf4jnsgd1na2vs0mg"},{"bike_id":"4eeecf6d-6108-42a0-b77f-fc0c0b55b73c","system_id":"levelo_inurba_marseille","lat":43.2991,"lon":5.37494,"is_reserved":false,"is_disabled":true,"rental_uris":{"android":"levelo://app?vid=4eeecf6d-6108-42a0-b77f-fc0c0b55b73c","ios":"levelo://app?vid=4eeecf6d-6108-42a0-b77f-fc0c0b55b73c"},"vehicle_type_id":"4","last_reported":1773822944,"current_range_meters":3600,"station_id":"ce4bgjh2rcd13ifvqbg0","pricing_plan_id":"cebpf4jnsgd1na2vs0mg"},{"bike_id":"e3903187-46ad-47f1-91c6-98d42f719495","system_id":"levelo_inurba_marseille","lat":43.27498,"lon":5.42466,"is_reserved":false,"is_disabled":false,"rental_uris":{"android":"levelo://app?vid=e3903187-46ad-47f1-91c6-98d42f719495","ios":"levelo://app?vid=e3903187-46ad-47f1-91c6-98d42f719495"},"vehicle_type_id":"4","last_reported":1773822944,"current_range_meters":3600,"station_id":"","pricing_plan_id":"cebpf4jnsgd1na2vs0mg"},{"bike_id":"d44e10fb-6d97-4c2b-8ab3-e3d4038e2dcf","system_id":"levelo_inurba_marseille","lat":43.31353,"lon":5.36738,"is_reserved":false,"is_disabled":false,"rental_uris":{"android":"levelo://app?vid=d44e10fb-6d97-4c2b-8ab3-e3d4038e2dcf","ios":"levelo://app?vid=d44e10fb-6d97-4c2b-8ab3-e3d4038e2dcf"},"vehicle_type_id":"4","last_reported":1773822944,"current_range_meters":3600,"station_id":"ce4bgr92rcd13ifvqc6g","pricing_plan_id":"cebpf4jnsgd1na2vs0mg"},{"bike_id":"01a3571c-e8a5-4291-abe2-290bb44b75ab","system_id":"levelo_inurba_marseille","lat":43.29666,"lon":5.38707,"is_reserved":false,"is_disabled":false,"rental_uris":{"android":"levelo://app?vid=01a3571c-e8a5-4291-abe2-290bb44b75ab","ios":"levelo://app?vid=01a3571c-e8a5-4291-abe2-290bb44b75ab"},"vehicle_type_id":"4","last_reported":1773822944,"current_range_meters":3600,"station_id":"","pricing_plan_id":"cebpf4jnsgd1na2vs0mg"},{"bike_id":"8518de49-644f-4a85-a5da-d0adbb5a3cc8","system_id":"levelo_inurba_marseille","lat":43.31506,"lon":5.3731,"is_reserved":false,"is_disabled":false,"rental_uris":{"android":"levelo://app?vid=8518de49-644f-4a85-a5da-d0adbb5a3cc8","ios":"levelo://app?vid=8518de49-644f-4a85-a5da-d0adbb5a3cc8"},"vehicle_type_id":"4","last_reported":1773822944,"current_range_meters":3600,"station_id":"ce4bgt12rcd13ifvqcd0","pricing_plan_id":"cebpf4jnsgd1na2vs0mg"},{"bike_id":"58df6535-2746-4ca5-8ec4-a2736cc7519f","system_id":"levelo_inurba_marseille","lat":43.21192,"lon":5.3507,"is_reserved":false,"is_disabled":false,"rental_uris":{"android":"levelo://app?vid=58df6535-2746-4ca5-8ec4-a2736cc7519f","ios":"levelo://app?vid=58df6535-2746-4ca5-8ec4-a2736cc7519f"},"vehicle_type_id":"4","last_reported":1773822944,"current_range_meters":3600,"station_id":"st_cvj6sg6p6f1abm77japg","pricing_plan_id":"cebpf4jnsgd1na2vs0mg"},{"bike_id":"9581202a-9f0b-4e3d-8ba8-487d1612fe8d","system_id":"levelo_inurba_marseille","lat":43.29861,"lon":5.37991,"is_reserved":false,"is_disabled":false,"rental_uris":{"android":"levelo://app?vid=9581202a-9f0b-4e3d-8ba8-487d1612fe8d","ios":"levelo://app?vid=9581202a-9f0b-4e3d-8ba8-487d1612fe8d"},"vehicle_type_id":"4","last_reported":1773822944,"current_range_meters":3600,"station_id":"","pricing_plan_id":"cebpf4jnsgd1na2vs0mg"},{"bike_id":"0d33946c-dda7-4b3f-9757-2c7ef637d9ab","system_id":"levelo_inurba_marseille","lat":43.29255,"lon":5.40907,"is_reserved":false,"is_disabled":true,"rental_uris":{"android":"levelo://app?vid=0d33946c-dda7-4b3f-9757-2c7ef637d9ab","ios":"levelo://app?vid=0d33946c-dda7-4b3f-9757-2c7ef637d9ab"},"vehicle_type_id":"4","last_reported":1773822944,"current_range_meters":3600,"station_id":"ce4bh192rcd13ifvqdc0","pricing_plan_id":"cebpf4jnsgd1na2vs0mg"},{"bike_id":"83c09154-3f7e-4f70-8eba-2c0ee91d39c7","system_id":"levelo_inurba_marseille","lat":43.26209,"lon":5.37442,"is_reserved":false,"is_disabled":false,"rental_uris":{"android":"levelo://app?vid=83c09154-3f7e-4f70-8eba-2c0ee91d39c7","ios":"levelo://app?vid=83c09154-3f7e-4f70-8eba-2c0ee91d39c7"},"vehicle_type_id":"4","last_reported":1773822944,"current_range_meters":3600,"station_id":"ce4bhgp2rcd13ifvqfc0","pricing_plan_id":"cebpf4jnsgd1na2vs0mg"},{"bike_id":"8e172d94-3782-4a03-be7a-2a9235039fe0","system_id":"levelo_inurba_marseille","lat":43.28941,"lon":5.39627,"is_reserved":false,"is_disabled":false,"rental_uris":{"android":"levelo://app?vid=8e172d94-3782-4a03-be7a-2a9235039fe0","ios":"levelo://app?vid=8e172d94-3782-4a03-be7a-2a9235039fe0"},"vehicle_type_id":"4","last_reported":1773822944,"current_range_meters":3600,"station_id":"ce4bh3h2rcd13ifvqdn0","pricing_plan_id":"cebpf4jnsgd1na2vs0mg"},{"bike_id":"4edc1e69-f919-4c2f-a6b8-66257e87a54f","system_id":"levelo_inurba_marseille","lat":43.28481,"lon":5.484,"is_reserved":false,"is_disabled":false,"rental_uris":{"android":"levelo://app?vid=4edc1e69-f919-4c2f-a6b8-66257e87a54f","ios":"levelo://app?vid=4edc1e69-f919-4c2f-a6b8-66257e87a54f"},"vehicle_type_id":"4","last_reported":1773822944,"current_range_meters":3600,"station_id":"","pricing_plan_id":"cebpf4jnsgd1na2vs0mg"},{"bike_id":"319bfe05-7afc-47db-af7b-e3b30df81eed","system_id":"levelo_inurba_marseille","lat":43.32364,"lon":5.38892,"is_reserved":false,"is_disabled":false,"rental_uris":{"android":"levelo://app?vid=319bfe05-7afc-47db-af7b-e3b30df81eed","ios":"levelo://app?vid=319bfe05-7afc-47db-af7b-e3b30df81eed"},"vehicle_type_id":"4","last_reported":1773822944,"current_range_meters":3600,"station_id":"ce4bhqp2rcd13ifvqhog","pricing_plan_id":"cebpf4jnsgd1na2vs0mg"},{"bike_id":"a0c5c5f8-8fc8-49f2-af86-114516413325","system_id":"levelo_inurba_marseille","lat":43.32118,"lon":5.36765,"is_reserved":false,"is_disabled":false,"rental_uris":{"android":"levelo://app?vid=a0c5c5f8-8fc8-49f2-af86-114516413325","ios":"levelo://app?vid=a0c5c5f8-8fc8-49f2-af86-114516413325"},"vehicle_type_id":"4","last_reported":1773822944,"current_range_meters":3600,"station_id":"ce4bhrh2rcd13ifvqhug","pricing_plan_id":"cebpf4jnsgd1na2vs0mg"},{"bike_id":"c7a19c3c-98d3-4e4e-af58-36ddb7720ff6","system_id":"levelo_inurba_marseille","lat":43.25933,"lon":5.40899,"is_reserved":false,"is_disabled":false,"rental_uris":{"android":"levelo://app?vid=c7a19c3c-98d3-4e4e-af58-36ddb7720ff6","ios":"levelo://app?vid=c7a19c3c-98d3-4e4e-af58-36ddb7720ff6"},"vehicle_type_id":"4","last_reported":1773822944,"current_range_meters":3600,"station_id":"ce4bhm92rcd13ifvqglg","pricing_plan_id":"cebpf4jnsgd1na2vs0mg"},{"bike_id":"1c30f3b3-9020-4525-95d9-80b9cfccfbcc","system_id":"levelo_inurba_marseille","lat":43.31054,"lon":5.3718,"is_reserved":false,"is_disabled":false,"rental_uris":{"android":"levelo://app?vid=1c30f3b3-9020-4525-95d9-80b9cfccfbcc","ios":"levelo://app?vid=1c30f3b3-9020-4525-95d9-80b9cfccfbcc"},"vehicle_type_id":"4","last_reported":1773822944,"current_range_meters":4000,"station_id":"st_d4kl2rp97mjs73e7tdfg","pricing_plan_id":"cebpf4jnsgd1na2vs0mg"},{"bike_id":"cbd9339d-6b5d-45fe-8986-e925f0446131","system_id":"levelo_inurba_marseille","lat":43.26548,"lon":5.3729,"is_reserved":false,"is_disabled":false,"rental_uris":{"android":"levelo://app?vid=cbd9339d-6b5d-45fe-8986-e925f0446131","ios":"levelo://app?vid=cbd9339d-6b5d-45fe-8986-e925f0446131"},"vehicle_type_id":"4","last_reported":1773822944,"current_range_meters":4000,"station_id":"ce4bhg12rcd13ifvqf70","pricing_plan_id":"cebpf4jnsgd1na2vs0mg"},{"bike_id":"82c1b462-2cd9-4f42-9e5c-98713dcf09a1","system_id":"levelo_inurba_marseille","lat":43.29298,"lon":5.37456,"is_reserved":false,"is_disabled":false,"rental_uris":{"android":"levelo://app?vid=82c1b462-2cd9-4f42-9e5c-98713dcf09a1","ios":"levelo://app?vid=82c1b462-2cd9-4f42-9e5c-98713dcf09a1"},"vehicle_type_id":"4","last_reported":1773822944,"current_range_meters":4000,"station_id":"ce4bgi12rcd13ifvqb70","pricing_plan_id":"cebpf4jnsgd1na2vs0mg"},{"bike_id":"57f59ea7-9661-484b-ab62-8930e39b76a3","system_id":"levelo_inurba_marseille","lat":43.23796,"lon":5.36638,"is_reserved":false,"is_disabled":false,"rental_uris":{"android":"levelo://app?vid=57f59ea7-9661-484b-ab62-8930e39b76a3","ios":"levelo://app?vid=57f59ea7-9661-484b-ab62-8930e39b76a3"},"vehicle_type_id":"4","last_reported":1773822944,"current_range_meters":4000,"station_id":"st_d3nk18o9ro0c73en2l3g","pricing_plan_id":"cebpf4jnsgd1na2vs0mg"},{"bike_id":"7a73b128-6eb2-47bb-8ea6-432d8e929d53","system_id":"levelo_inurba_marseille","lat":43.2997,"lon":5.41327,"is_reserved":false,"is_disabled":false,"rental_uris":{"android":"levelo://app?vid=7a73b128-6eb2-47bb-8ea6-432d8e929d53","ios":"levelo://app?vid=7a73b128-6eb2-47bb-8ea6-432d8e929d53"},"vehicle_type_id":"4","last_reported":1773822944,"current_range_meters":4000,"station_id":"ce4bhp12rcd13ifvqh9g","pricing_plan_id":"cebpf4jnsgd1na2vs0mg"},{"bike_id":"36933889-678d-4cd5-8ee2-ec803e63bcef","system_id":"levelo_inurba_marseille","lat":43.29043,"lon":5.37568,"is_reserved":false,"is_disabled":true,"rental_uris":{"android":"levelo://app?vid=36933889-678d-4cd5-8ee2-ec803e63bcef","ios":"levelo://app?vid=36933889-678d-4cd5-8ee2-ec803e63bcef"},"vehicle_type_id":"4","last_reported":1773822944,"current_range_meters":4000,"station_id":"ce4bh692rcd13ifvqe90","pricing_plan_id":"cebpf4jnsgd1na2vs0mg"},{"bike_id":"1d851264-6ba3-48c2-86f6-b84e8d5a0c62","system_id":"levelo_inurba_marseille","lat":43.29192,"lon":5.35804,"is_reserved":false,"is_disabled":true,"rental_uris":{"android":"levelo://app?vid=1d851264-6ba3-48c2-86f6-b84e8d5a0c62","ios":"levelo://app?vid=1d851264-6ba3-48c2-86f6-b84e8d5a0c62"},"vehicle_type_id":"4","last_reported":1773822944,"current_range_meters":4000,"station_id":"ce4bhb12rcd13ifvqel0","pricing_plan_id":"cebpf4jnsgd1na2vs0mg"},{"bike_id":"006d2628-7ab3-4889-b939-d16b97ba51d9","system_id":"levelo_inurba_marseille","lat":43.30181,"lon":5.36611,"is_reserved":false,"is_disabled":false,"rental_uris":{"android":"levelo://app?vid=006d2628-7ab3-4889-b939-d16b97ba51d9","ios":"levelo://app?vid=006d2628-7ab3-4889-b939-d16b97ba51d9"},"vehicle_type_id":"4","last_reported":1773822944,"current_range_meters":4000,"station_id":"ce4bgrh2rcd13ifvqc8g","pricing_plan_id":"cebpf4jnsgd1na2vs0mg"},{"bike_id":"53336338-5141-44ec-bb59-6df2460b79a8","system_id":"levelo_inurba_marseille","lat":43.30211,"lon":5.39456,"is_reserved":false,"is_disabled":true,"rental_uris":{"android":"levelo://app?vid=53336338-5141-44ec-bb59-6df2460b79a8","ios":"levelo://app?vid=53336338-5141-44ec-bb59-6df2460b79a8"},"vehicle_type_id":"4","last_reported":1773822944,"current_range_meters":4000,"station_id":"ce4bh0p2rcd13ifvqd70","pricing_plan_id":"cebpf4jnsgd1na2vs0mg"},{"bike_id":"eec28030-444f-453d-8b8c-212b77bfd9d2","system_id":"levelo_inurba_marseille","lat":43.29041,"lon":5.40007,"is_reserved":false,"is_disabled":false,"rental_uris":{"android":"levelo://app?vid=eec28030-444f-453d-8b8c-212b77bfd9d2","ios":"levelo://app?vid=eec28030-444f-453d-8b8c-212b77bfd9d2"},"vehicle_type_id":"4","last_reported":1773822944,"current_range_meters":4000,"station_id":"ce4bh392rcd13ifvqdm0","pricing_plan_id":"cebpf4jnsgd1na2vs0mg"},{"bike_id":"4af15d60-b5e6-4a55-9404-2793b6d7cc47","system_id":"levelo_inurba_marseille","lat":43.2464,"lon":5.4316,"is_reserved":false,"is_disabled":false,"rental_uris":{"android":"levelo://app?vid=4af15d60-b5e6-4a55-9404-2793b6d7cc47","ios":"levelo://app?vid=4af15d60-b5e6-4a55-9404-2793b6d7cc47"},"vehicle_type_id":"4","last_reported":1773822944,"current_range_meters":4000,"station_id":"","pricing_plan_id":"cebpf4jnsgd1na2vs0mg"},{"bike_id":"6fcf7c49-b6bb-45e1-9930-a5299113d376","system_id":"levelo_inurba_marseille","lat":43.27207,"lon":5.39187,"is_reserved":false,"is_disabled":false,"rental_uris":{"android":"levelo://app?vid=6fcf7c49-b6bb-45e1-9930-a5299113d376","ios":"levelo://app?vid=6fcf7c49-b6bb-45e1-9930-a5299113d376"},"vehicle_type_id":"4","last_reported":1773822944,"current_range_meters":4000,"station_id":"ce4bhhp2rcd13ifvqfm0","pricing_plan_id":"cebpf4jnsgd1na2vs0mg"},{"bike_id":"0edc70b6-d69b-4a82-b984-b6dcbfbcb380","system_id":"levelo_inurba_marseille","lat":43.32922,"lon":5.37513,"is_reserved":false,"is_disabled":false,"rental_uris":{"android":"levelo://app?vid=0edc70b6-d69b-4a82-b984-b6dcbfbcb380","ios":"levelo://app?vid=0edc70b6-d69b-4a82-b984-b6dcbfbcb380"},"vehicle_type_id":"4","last_reported":1773822944,"current_range_meters":4000,"station_id":"","pricing_plan_id":"cebpf4jnsgd1na2vs0mg"},{"bike_id":"392f043d-d43d-489a-a773-76d7c2cd8c4f","system_id":"levelo_inurba_marseille","lat":43.29962,"lon":5.38502,"is_reserved":false,"is_disabled":false,"rental_uris":{"android":"levelo://app?vid=392f043d-d43d-489a-a773-76d7c2cd8c4f","ios":"levelo://app?vid=392f043d-d43d-489a-a773-76d7c2cd8c4f"},"vehicle_type_id":"4","last_reported":1773822944,"current_range_meters":4400,"station_id":"ce4bgj92rcd13ifvqbd0","pricing_plan_id":"cebpf4jnsgd1na2vs0mg"},{"bike_id":"842a1dc3-a662-44aa-821a-15a772efb683","system_id":"levelo_inurba_marseille","lat":43.31061,"lon":5.37166,"is_reserved":false,"is_disabled":false,"rental_uris":{"android":"levelo://app?vid=842a1dc3-a662-44aa-821a-15a772efb683","ios":"levelo://app?vid=842a1dc3-a662-44aa-821a-15a772efb683"},"vehicle_type_id":"4","last_reported":1773822944,"current_range_meters":4400,"station_id":"st_d4kl2rp97mjs73e7tdfg","pricing_plan_id":"cebpf4jnsgd1na2vs0mg"},{"bike_id":"724e1d4c-0ad7-41e8-8218-f01e607cb0ee","system_id":"levelo_inurba_marseille","lat":43.28565,"lon":5.39506,"is_reserved":false,"is_disabled":false,"rental_uris":{"android":"levelo://app?vid=724e1d4c-0ad7-41e8-8218-f01e607cb0ee","ios":"levelo://app?vid=724e1d4c-0ad7-41e8-8218-f01e607cb0ee"},"vehicle_type_id":"4","last_reported":1773822944,"current_range_meters":4400,"station_id":"ce4bh292rcd13ifvqdg0","pricing_plan_id":"cebpf4jnsgd1na2vs0mg"},{"bike_id":"847d4693-77d7-4471-b991-ce5127a5399e","system_id":"levelo_inurba_marseille","lat":43.336042,"lon":5.410352,"is_reserved":false,"is_disabled":false,"rental_uris":{"android":"levelo://app?vid=847d4693-77d7-4471-b991-ce5127a5399e","ios":"levelo://app?vid=847d4693-77d7-4471-b991-ce5127a5399e"},"vehicle_type_id":"4","last_reported":1773822944,"current_range_meters":4400,"station_id":"ce4bhqh2rcd13ifvqhmg","pricing_plan_id":"cebpf4jnsgd1na2vs0mg"},{"bike_id":"4e4ba8f7-60dc-4959-9a01-6da668abb084","system_id":"levelo_inurba_marseille","lat":43.2119,"lon":5.35075,"is_reserved":false,"is_disabled":false,"rental_uris":{"android":"levelo://app?vid=4e4ba8f7-60dc-4959-9a01-6da668abb084","ios":"levelo://app?vid=4e4ba8f7-60dc-4959-9a01-6da668abb084"},"vehicle_type_id":"4","last_reported":1773822944,"current_range_meters":4400,"station_id":"st_cvj6sg6p6f1abm77japg","pricing_plan_id":"cebpf4jnsgd1na2vs0mg"},{"bike_id":"ab2125f0-f477-425b-9c9a-e4231f7f002b","system_id":"levelo_inurba_marseille","lat":43.21758,"lon":5.34609,"is_reserved":false,"is_disabled":true,"rental_uris":{"android":"levelo://app?vid=ab2125f0-f477-425b-9c9a-e4231f7f002b","ios":"levelo://app?vid=ab2125f0-f477-425b-9c9a-e4231f7f002b"},"vehicle_type_id":"4","last_reported":1773822944,"current_range_meters":4400,"station_id":"st_cvj6r9ubvosntc0bgbag","pricing_plan_id":"cebpf4jnsgd1na2vs0mg"},{"bike_id":"a1cfb408-da52-4413-a934-9b5c4a9189a4","system_id":"levelo_inurba_marseille","lat":43.29584,"lon":5.37524,"is_reserved":false,"is_disabled":false,"rental_uris":{"android":"levelo://app?vid=a1cfb408-da52-4413-a934-9b5c4a9189a4","ios":"levelo://app?vid=a1cfb408-da52-4413-a934-9b5c4a9189a4"},"vehicle_type_id":"4","last_reported":1773822944,"current_range_meters":4400,"station_id":"ce4bgh92rcd13ifvqb50","pricing_plan_id":"cebpf4jnsgd1na2vs0mg"},{"bike_id":"9492034a-044d-4bc3-9de8-c734d52ccd60","system_id":"levelo_inurba_marseille","lat":43.30464,"lon":5.37913,"is_reserved":false,"is_disabled":false,"rental_uris":{"android":"levelo://app?vid=9492034a-044d-4bc3-9de8-c734d52ccd60","ios":"levelo://app?vid=9492034a-044d-4bc3-9de8-c734d52ccd60"},"vehicle_type_id":"4","last_reported":1773822944,"current_range_meters":4400,"station_id":"","pricing_plan_id":"cebpf4jnsgd1na2vs0mg"},{"bike_id":"71c30836-8452-4c21-8418-a8421c0c6708","system_id":"levelo_inurba_marseille","lat":43.33601,"lon":5.41037,"is_reserved":false,"is_disabled":false,"rental_uris":{"android":"levelo://app?vid=71c30836-8452-4c21-8418-a8421c0c6708","ios":"levelo://app?vid=71c30836-8452-4c21-8418-a8421c0c6708"},"vehicle_type_id":"4","last_reported":1773822944,"current_range_meters":4400,"station_id":"ce4bhqh2rcd13ifvqhmg","pricing_plan_id":"cebpf4jnsgd1na2vs0mg"},{"bike_id":"58f889a6-4f36-4958-bc49-a141e20fed88","system_id":"levelo_inurba_marseille","lat":43.264913,"lon":5.39539,"is_reserved":false,"is_disabled":false,"rental_uris":{"android":"levelo://app?vid=58f889a6-4f36-4958-bc49-a141e20fed88","ios":"levelo://app?vid=58f889a6-4f36-4958-bc49-a141e20fed88"},"vehicle_type_id":"4","last_reported":1773822944,"current_range_meters":4800,"station_id":"ce4bhi12rcd13ifvqfq0","pricing_plan_id":"cebpf4jnsgd1na2vs0mg"},{"bike_id":"0b4f2083-08f5-4948-8cc8-8bf28f499d5c","system_id":"levelo_inurba_marseille","lat":43.31127,"lon":5.37764,"is_reserved":false,"is_disabled":false,"rental_uris":{"android":"levelo://app?vid=0b4f2083-08f5-4948-8cc8-8bf28f499d5c","ios":"levelo://app?vid=0b4f2083-08f5-4948-8cc8-8bf28f499d5c"},"vehicle_type_id":"4","last_reported":1773822944,"current_range_meters":4800,"station_id":"ce4bgt92rcd13ifvqcg0","pricing_plan_id":"cebpf4jnsgd1na2vs0mg"},{"bike_id":"7bd419bf-7063-4648-840f-e4e63ac8cb30","system_id":"levelo_inurba_marseille","lat":43.27979,"lon":5.40033,"is_reserved":false,"is_disabled":true,"rental_uris":{"android":"levelo://app?vid=7bd419bf-7063-4648-840f-e4e63ac8cb30","ios":"levelo://app?vid=7bd419bf-7063-4648-840f-e4e63ac8cb30"},"vehicle_type_id":"4","last_reported":1773822944,"current_range_meters":4800,"station_id":"ce4bho92rcd13ifvqh4g","pricing_plan_id":"cebpf4jnsgd1na2vs0mg"},{"bike_id":"f7e79517-161a-451a-8a95-bb710b1b4d21","system_id":"levelo_inurba_marseille","lat":43.29586,"lon":5.3675,"is_reserved":false,"is_disabled":true,"rental_uris":{"android":"levelo://app?vid=f7e79517-161a-451a-8a95-bb710b1b4d21","ios":"levelo://app?vid=f7e79517-161a-451a-8a95-bb710b1b4d21"},"vehicle_type_id":"4","last_reported":1773822944,"current_range_meters":4800,"station_id":"ce4bgph2rcd13ifvqc2g","pricing_plan_id":"cebpf4jnsgd1na2vs0mg"},{"bike_id":"41c76712-3ff3-4a7f-a7f6-f18491e46a56","system_id":"levelo_inurba_marseille","lat":43.29774,"lon":5.37103,"is_reserved":false,"is_disabled":false,"rental_uris":{"android":"levelo://app?vid=41c76712-3ff3-4a7f-a7f6-f18491e46a56","ios":"levelo://app?vid=41c76712-3ff3-4a7f-a7f6-f18491e46a56"},"vehicle_type_id":"4","last_reported":1773822944,"current_range_meters":4800,"station_id":"ce4bgop2rcd13ifvqc1g","pricing_plan_id":"cebpf4jnsgd1na2vs0mg"},{"bike_id":"cfb2e14b-73a8-4466-83b0-51755dfd9dbb","system_id":"levelo_inurba_marseille","lat":43.23194,"lon":5.39969,"is_reserved":false,"is_disabled":true,"rental_uris":{"android":"levelo://app?vid=cfb2e14b-73a8-4466-83b0-51755dfd9dbb","ios":"levelo://app?vid=cfb2e14b-73a8-4466-83b0-51755dfd9dbb"},"vehicle_type_id":"4","last_reported":1773822944,"current_range_meters":4800,"station_id":"ce4bhn12rcd13ifvqgqg","pricing_plan_id":"cebpf4jnsgd1na2vs0mg"},{"bike_id":"2134a193-4b3a-4038-a280-1a0ba6458570","system_id":"levelo_inurba_marseille","lat":43.29817,"lon":5.42125,"is_reserved":false,"is_disabled":false,"rental_uris":{"android":"levelo://app?vid=2134a193-4b3a-4038-a280-1a0ba6458570","ios":"levelo://app?vid=2134a193-4b3a-4038-a280-1a0ba6458570"},"vehicle_type_id":"4","last_reported":1773822944,"current_range_meters":4800,"station_id":"","pricing_plan_id":"cebpf4jnsgd1na2vs0mg"},{"bike_id":"292abd82-4146-466f-9e34-79bd05209e5a","system_id":"levelo_inurba_marseille","lat":43.29949,"lon":5.38521,"is_reserved":false,"is_disabled":false,"rental_uris":{"android":"levelo://app?vid=292abd82-4146-466f-9e34-79bd05209e5a","ios":"levelo://app?vid=292abd82-4146-466f-9e34-79bd05209e5a"},"vehicle_type_id":"4","last_reported":1773822944,"current_range_meters":4800,"station_id":"ce4bgj92rcd13ifvqbd0","pricing_plan_id":"cebpf4jnsgd1na2vs0mg"},{"bike_id":"a18019be-9926-451e-a60e-dde1ca335577","system_id":"levelo_inurba_marseille","lat":43.25927,"lon":5.40859,"is_reserved":false,"is_disabled":false,"rental_uris":{"android":"levelo://app?vid=a18019be-9926-451e-a60e-dde1ca335577","ios":"levelo://app?vid=a18019be-9926-451e-a60e-dde1ca335577"},"vehicle_type_id":"4","last_reported":1773822944,"current_range_meters":4800,"station_id":"ce4bhm92rcd13ifvqglg","pricing_plan_id":"cebpf4jnsgd1na2vs0mg"},{"bike_id":"bf249f81-2ef0-45f9-a595-8436dd14fe0c","system_id":"levelo_inurba_marseille","lat":43.32104,"lon":5.36779,"is_reserved":false,"is_disabled":true,"rental_uris":{"android":"levelo://app?vid=bf249f81-2ef0-45f9-a595-8436dd14fe0c","ios":"levelo://app?vid=bf249f81-2ef0-45f9-a595-8436dd14fe0c"},"vehicle_type_id":"4","last_reported":1773822944,"current_range_meters":4800,"station_id":"ce4bhrh2rcd13ifvqhug","pricing_plan_id":"cebpf4jnsgd1na2vs0mg"},{"bike_id":"e17ccb3e-cbed-46c0-b126-e2ab6887713c","system_id":"levelo_inurba_marseille","lat":43.28107,"lon":5.37836,"is_reserved":false,"is_disabled":false,"rental_uris":{"android":"levelo://app?vid=e17ccb3e-cbed-46c0-b126-e2ab6887713c","ios":"levelo://app?vid=e17ccb3e-cbed-46c0-b126-e2ab6887713c"},"vehicle_type_id":"4","last_reported":1773822944,"current_range_meters":4800,"station_id":"ce4bha12rcd13ifvqee0","pricing_plan_id":"cebpf4jnsgd1na2vs0mg"},{"bike_id":"a972c458-f2c8-492d-9034-75ef04ed1477","system_id":"levelo_inurba_marseille","lat":43.27593,"lon":5.38369,"is_reserved":false,"is_disabled":false,"rental_uris":{"android":"levelo://app?vid=a972c458-f2c8-492d-9034-75ef04ed1477","ios":"levelo://app?vid=a972c458-f2c8-492d-9034-75ef04ed1477"},"vehicle_type_id":"4","last_reported":1773822944,"current_range_meters":5600,"station_id":"ce4bhh92rcd13ifvqfi0","pricing_plan_id":"cebpf4jnsgd1na2vs0mg"},{"bike_id":"a4456d89-d17c-400e-b5f6-bacb94ff5823","system_id":"levelo_inurba_marseille","lat":43.28147,"lon":5.42641,"is_reserved":false,"is_disabled":false,"rental_uris":{"android":"levelo://app?vid=a4456d89-d17c-400e-b5f6-bacb94ff5823","ios":"levelo://app?vid=a4456d89-d17c-400e-b5f6-bacb94ff5823"},"vehicle_type_id":"4","last_reported":1773822944,"current_range_meters":5600,"station_id":"ce4bhnh2rcd13ifvqgug","pricing_plan_id":"cebpf4jnsgd1na2vs0mg"},{"bike_id":"efe673a2-f75a-4830-b02f-6e6e09178fa1","system_id":"levelo_inurba_marseille","lat":43.28714,"lon":5.37929,"is_reserved":false,"is_disabled":false,"rental_uris":{"android":"levelo://app?vid=efe673a2-f75a-4830-b02f-6e6e09178fa1","ios":"levelo://app?vid=efe673a2-f75a-4830-b02f-6e6e09178fa1"},"vehicle_type_id":"4","last_reported":1773822944,"current_range_meters":5600,"station_id":"ce4bh9p2rcd13ifvqec0","pricing_plan_id":"cebpf4jnsgd1na2vs0mg"},{"bike_id":"16018c06-6f6d-4841-966f-a5b99688cd23","system_id":"levelo_inurba_marseille","lat":43.30156,"lon":5.3808,"is_reserved":false,"is_disabled":false,"rental_uris":{"android":"levelo://app?vid=16018c06-6f6d-4841-966f-a5b99688cd23","ios":"levelo://app?vid=16018c06-6f6d-4841-966f-a5b99688cd23"},"vehicle_type_id":"4","last_reported":1773822944,"current_range_meters":5600,"station_id":"ce4bgjp2rcd13ifvqbh0","pricing_plan_id":"cebpf4jnsgd1na2vs0mg"},{"bike_id":"458f604b-e062-47bf-ac14-a001a31d10d8","system_id":"levelo_inurba_marseille","lat":43.28476,"lon":5.4839,"is_reserved":false,"is_disabled":false,"rental_uris":{"android":"levelo://app?vid=458f604b-e062-47bf-ac14-a001a31d10d8","ios":"levelo://app?vid=458f604b-e062-47bf-ac14-a001a31d10d8"},"vehicle_type_id":"4","last_reported":1773822944,"current_range_meters":5600,"station_id":"","pricing_plan_id":"cebpf4jnsgd1na2vs0mg"},{"bike_id":"b5b8b144-cfaf-4287-9933-5469d18ff1ca","system_id":"levelo_inurba_marseille","lat":43.28719,"lon":5.37948,"is_reserved":false,"is_disabled":true,"rental_uris":{"android":"levelo://app?vid=b5b8b144-cfaf-4287-9933-5469d18ff1ca","ios":"levelo://app?vid=b5b8b144-cfaf-4287-9933-5469d18ff1ca"},"vehicle_type_id":"4","last_reported":1773822944,"current_range_meters":5600,"station_id":"ce4bh9p2rcd13ifvqec0","pricing_plan_id":"cebpf4jnsgd1na2vs0mg"},{"bike_id":"279fbc26-1d87-4f28-ac6e-6326fab35489","system_id":"levelo_inurba_marseille","lat":43.24061,"lon":5.37747,"is_reserved":false,"is_disabled":false,"rental_uris":{"android":"levelo://app?vid=279fbc26-1d87-4f28-ac6e-6326fab35489","ios":"levelo://app?vid=279fbc26-1d87-4f28-ac6e-6326fab35489"},"vehicle_type_id":"4","last_reported":1773822944,"current_range_meters":5600,"station_id":"ce4bhnp2rcd13ifvqgvg","pricing_plan_id":"cebpf4jnsgd1na2vs0mg"},{"bike_id":"83dfe6d5-7b4e-4962-9169-24132413c1be","system_id":"levelo_inurba_marseille","lat":43.31732,"lon":5.42412,"is_reserved":false,"is_disabled":false,"rental_uris":{"android":"levelo://app?vid=83dfe6d5-7b4e-4962-9169-24132413c1be","ios":"levelo://app?vid=83dfe6d5-7b4e-4962-9169-24132413c1be"},"vehicle_type_id":"4","last_reported":1773822944,"current_range_meters":5600,"station_id":"ce4bhp92rcd13ifvqhbg","pricing_plan_id":"cebpf4jnsgd1na2vs0mg"},{"bike_id":"09c93a62-ec01-48ba-9dba-e80f7664bbec","system_id":"levelo_inurba_marseille","lat":43.31336,"lon":5.36718,"is_reserved":false,"is_disabled":false,"rental_uris":{"android":"levelo://app?vid=09c93a62-ec01-48ba-9dba-e80f7664bbec","ios":"levelo://app?vid=09c93a62-ec01-48ba-9dba-e80f7664bbec"},"vehicle_type_id":"4","last_reported":1773822944,"current_range_meters":5600,"station_id":"ce4bgr92rcd13ifvqc6g","pricing_plan_id":"cebpf4jnsgd1na2vs0mg"},{"bike_id":"e7212ae1-fad7-4895-8f92-2fe3f2ab11e1","system_id":"levelo_inurba_marseille","lat":43.25933,"lon":5.40911,"is_reserved":false,"is_disabled":false,"rental_uris":{"android":"levelo://app?vid=e7212ae1-fad7-4895-8f92-2fe3f2ab11e1","ios":"levelo://app?vid=e7212ae1-fad7-4895-8f92-2fe3f2ab11e1"},"vehicle_type_id":"4","last_reported":1773822944,"current_range_meters":5600,"station_id":"ce4bhm92rcd13ifvqglg","pricing_plan_id":"cebpf4jnsgd1na2vs0mg"},{"bike_id":"64e4942c-04ec-475a-8745-de522dcf5faa","system_id":"levelo_inurba_marseille","lat":43.22924,"lon":5.35382,"is_reserved":false,"is_disabled":false,"rental_uris":{"android":"levelo://app?vid=64e4942c-04ec-475a-8745-de522dcf5faa","ios":"levelo://app?vid=64e4942c-04ec-475a-8745-de522dcf5faa"},"vehicle_type_id":"4","last_reported":1773822944,"current_range_meters":5600,"station_id":"cpo3532slgdg3j2ikp40","pricing_plan_id":"cebpf4jnsgd1na2vs0mg"},{"bike_id":"a0ac2246-9e7f-437c-a4db-c626663f282c","system_id":"levelo_inurba_marseille","lat":43.31258,"lon":5.36822,"is_reserved":false,"is_disabled":false,"rental_uris":{"android":"levelo://app?vid=a0ac2246-9e7f-437c-a4db-c626663f282c","ios":"levelo://app?vid=a0ac2246-9e7f-437c-a4db-c626663f282c"},"vehicle_type_id":"4","last_reported":1773822944,"current_range_meters":5600,"station_id":"ce4bgl92rcd13ifvqbq0","pricing_plan_id":"cebpf4jnsgd1na2vs0mg"},{"bike_id":"73d6ac76-85e0-49b7-934a-5ac6787a0825","system_id":"levelo_inurba_marseille","lat":43.24073,"lon":5.37763,"is_reserved":false,"is_disabled":false,"rental_uris":{"android":"levelo://app?vid=73d6ac76-85e0-49b7-934a-5ac6787a0825","ios":"levelo://app?vid=73d6ac76-85e0-49b7-934a-5ac6787a0825"},"vehicle_type_id":"4","last_reported":1773822944,"current_range_meters":5600,"station_id":"ce4bhnp2rcd13ifvqgvg","pricing_plan_id":"cebpf4jnsgd1na2vs0mg"},{"bike_id":"811cb60e-c2e0-4eff-a720-ab1d90d9f80a","system_id":"levelo_inurba_marseille","lat":43.23394,"lon":5.41252,"is_reserved":false,"is_disabled":false,"rental_uris":{"android":"levelo://app?vid=811cb60e-c2e0-4eff-a720-ab1d90d9f80a","ios":"levelo://app?vid=811cb60e-c2e0-4eff-a720-ab1d90d9f80a"},"vehicle_type_id":"4","last_reported":1773822944,"current_range_meters":5600,"station_id":"","pricing_plan_id":"cebpf4jnsgd1na2vs0mg"},{"bike_id":"c2c7c530-5d90-493e-bc68-4654d00e1dc7","system_id":"levelo_inurba_marseille","lat":43.25204,"lon":5.40611,"is_reserved":false,"is_disabled":false,"rental_uris":{"android":"levelo://app?vid=c2c7c530-5d90-493e-bc68-4654d00e1dc7","ios":"levelo://app?vid=c2c7c530-5d90-493e-bc68-4654d00e1dc7"},"vehicle_type_id":"4","last_reported":1773822944,"current_range_meters":5600,"station_id":"","pricing_plan_id":"cebpf4jnsgd1na2vs0mg"},{"bike_id":"077ada9a-522a-41df-ad39-ea1bc4f99858","system_id":"levelo_inurba_marseille","lat":43.23137,"lon":5.43695,"is_reserved":false,"is_disabled":false,"rental_uris":{"android":"levelo://app?vid=077ada9a-522a-41df-ad39-ea1bc4f99858","ios":"levelo://app?vid=077ada9a-522a-41df-ad39-ea1bc4f99858"},"vehicle_type_id":"4","last_reported":1773822944,"current_range_meters":6000,"station_id":"ce4bhmp2rcd13ifvqgog","pricing_plan_id":"cebpf4jnsgd1na2vs0mg"},{"bike_id":"6026c00d-9d72-45a0-9de8-dbfb2ad93bab","system_id":"levelo_inurba_marseille","lat":43.28372,"lon":5.38621,"is_reserved":false,"is_disabled":false,"rental_uris":{"android":"levelo://app?vid=6026c00d-9d72-45a0-9de8-dbfb2ad93bab","ios":"levelo://app?vid=6026c00d-9d72-45a0-9de8-dbfb2ad93bab"},"vehicle_type_id":"4","last_reported":1773822944,"current_range_meters":6000,"station_id":"ce4bh492rcd13ifvqdvg","pricing_plan_id":"cebpf4jnsgd1na2vs0mg"},{"bike_id":"7ada2641-316b-4e07-8cf0-f1c79c755356","system_id":"levelo_inurba_marseille","lat":43.24948,"lon":5.40504,"is_reserved":false,"is_disabled":false,"rental_uris":{"android":"levelo://app?vid=7ada2641-316b-4e07-8cf0-f1c79c755356","ios":"levelo://app?vid=7ada2641-316b-4e07-8cf0-f1c79c755356"},"vehicle_type_id":"4","last_reported":1773822944,"current_range_meters":6000,"station_id":"st_d2ngiaodas8pm72gd1h0","pricing_plan_id":"cebpf4jnsgd1na2vs0mg"},{"bike_id":"7e372e61-a4a4-4320-b78e-0115edf72ed5","system_id":"levelo_inurba_marseille","lat":43.24187,"lon":5.36395,"is_reserved":false,"is_disabled":true,"rental_uris":{"android":"levelo://app?vid=7e372e61-a4a4-4320-b78e-0115edf72ed5","ios":"levelo://app?vid=7e372e61-a4a4-4320-b78e-0115edf72ed5"},"vehicle_type_id":"4","last_reported":1773822944,"current_range_meters":6000,"station_id":"cpo36qri1sfpv3e86is0","pricing_plan_id":"cebpf4jnsgd1na2vs0mg"},{"bike_id":"14920c49-1c80-4478-854d-82f329d907ac","system_id":"levelo_inurba_marseille","lat":43.30187,"lon":5.3991,"is_reserved":false,"is_disabled":false,"rental_uris":{"android":"levelo://app?vid=14920c49-1c80-4478-854d-82f329d907ac","ios":"levelo://app?vid=14920c49-1c80-4478-854d-82f329d907ac"},"vehicle_type_id":"4","last_reported":1773822944,"current_range_meters":6000,"station_id":"","pricing_plan_id":"cebpf4jnsgd1na2vs0mg"},{"bike_id":"f6b870be-9d2a-4c98-b70b-215674098ee6","system_id":"levelo_inurba_marseille","lat":43.29577,"lon":5.37498,"is_reserved":false,"is_disabled":true,"rental_uris":{"android":"levelo://app?vid=f6b870be-9d2a-4c98-b70b-215674098ee6","ios":"levelo://app?vid=f6b870be-9d2a-4c98-b70b-215674098ee6"},"vehicle_type_id":"4","last_reported":1773822944,"current_range_meters":6000,"station_id":"ce4bgh92rcd13ifvqb50","pricing_plan_id":"cebpf4jnsgd1na2vs0mg"},{"bike_id":"c94f5a6a-746e-4a6f-990f-bde4faf119d4","system_id":"levelo_inurba_marseille","lat":43.28726,"lon":5.37928,"is_reserved":false,"is_disabled":false,"rental_uris":{"android":"levelo://app?vid=c94f5a6a-746e-4a6f-990f-bde4faf119d4","ios":"levelo://app?vid=c94f5a6a-746e-4a6f-990f-bde4faf119d4"},"vehicle_type_id":"4","last_reported":1773822944,"current_range_meters":6000,"station_id":"ce4bh9p2rcd13ifvqec0","pricing_plan_id":"cebpf4jnsgd1na2vs0mg"},{"bike_id":"96dac97a-0c76-4079-a74f-d3b50e0ff04c","system_id":"levelo_inurba_marseille","lat":43.21179,"lon":5.35069,"is_reserved":false,"is_disabled":false,"rental_uris":{"android":"levelo://app?vid=96dac97a-0c76-4079-a74f-d3b50e0ff04c","ios":"levelo://app?vid=96dac97a-0c76-4079-a74f-d3b50e0ff04c"},"vehicle_type_id":"4","last_reported":1773822944,"current_range_meters":6000,"station_id":"st_cvj6sg6p6f1abm77japg","pricing_plan_id":"cebpf4jnsgd1na2vs0mg"},{"bike_id":"b63ff098-ef82-46d0-9756-b6dd14d22ec6","system_id":"levelo_inurba_marseille","lat":43.3054,"lon":5.36532,"is_reserved":false,"is_disabled":false,"rental_uris":{"android":"levelo://app?vid=b63ff098-ef82-46d0-9756-b6dd14d22ec6","ios":"levelo://app?vid=b63ff098-ef82-46d0-9756-b6dd14d22ec6"},"vehicle_type_id":"4","last_reported":1773822944,"current_range_meters":6000,"station_id":"ce4bgs12rcd13ifvqcag","pricing_plan_id":"cebpf4jnsgd1na2vs0mg"},{"bike_id":"2874775b-146e-45de-9a13-98bbe699d55d","system_id":"levelo_inurba_marseille","lat":43.24642,"lon":5.43157,"is_reserved":false,"is_disabled":true,"rental_uris":{"android":"levelo://app?vid=2874775b-146e-45de-9a13-98bbe699d55d","ios":"levelo://app?vid=2874775b-146e-45de-9a13-98bbe699d55d"},"vehicle_type_id":"4","last_reported":1773822944,"current_range_meters":6000,"station_id":"","pricing_plan_id":"cebpf4jnsgd1na2vs0mg"},{"bike_id":"31b0c486-d7fa-4a3c-8147-03704da70e15","system_id":"levelo_inurba_marseille","lat":43.29031,"lon":5.40022,"is_reserved":false,"is_disabled":false,"rental_uris":{"android":"levelo://app?vid=31b0c486-d7fa-4a3c-8147-03704da70e15","ios":"levelo://app?vid=31b0c486-d7fa-4a3c-8147-03704da70e15"},"vehicle_type_id":"4","last_reported":1773822944,"current_range_meters":6000,"station_id":"ce4bh392rcd13ifvqdm0","pricing_plan_id":"cebpf4jnsgd1na2vs0mg"},{"bike_id":"e88975ef-7053-4cfa-b395-8bb0f622e077","system_id":"levelo_inurba_marseille","lat":43.28413,"lon":5.35003,"is_reserved":false,"is_disabled":false,"rental_uris":{"android":"levelo://app?vid=e88975ef-7053-4cfa-b395-8bb0f622e077","ios":"levelo://app?vid=e88975ef-7053-4cfa-b395-8bb0f622e077"},"vehicle_type_id":"4","last_reported":1773822944,"current_range_meters":6000,"station_id":"ce4bhbh2rcd13ifvqepg","pricing_plan_id":"cebpf4jnsgd1na2vs0mg"},{"bike_id":"c6581c0c-9d69-4a1c-bf8f-f6d3b6e5d84b","system_id":"levelo_inurba_marseille","lat":43.29003,"lon":5.37837,"is_reserved":false,"is_disabled":false,"rental_uris":{"android":"levelo://app?vid=c6581c0c-9d69-4a1c-bf8f-f6d3b6e5d84b","ios":"levelo://app?vid=c6581c0c-9d69-4a1c-bf8f-f6d3b6e5d84b"},"vehicle_type_id":"4","last_reported":1773822944,"current_range_meters":6400,"station_id":"ce4bh9p2rcd13ifvqed0","pricing_plan_id":"cebpf4jnsgd1na2vs0mg"},{"bike_id":"4a95c3e2-5aff-401c-af86-52c63c43625a","system_id":"levelo_inurba_marseille","lat":43.30289,"lon":5.37698,"is_reserved":false,"is_disabled":false,"rental_uris":{"android":"levelo://app?vid=4a95c3e2-5aff-401c-af86-52c63c43625a","ios":"levelo://app?vid=4a95c3e2-5aff-401c-af86-52c63c43625a"},"vehicle_type_id":"4","last_reported":1773822944,"current_range_meters":6400,"station_id":"ce4bguh2rcd13ifvqcj0","pricing_plan_id":"cebpf4jnsgd1na2vs0mg"},{"bike_id":"82dcdf4f-8f8d-49c8-bf8f-175264f4f3bd","system_id":"levelo_inurba_marseille","lat":43.22539,"lon":5.34826,"is_reserved":false,"is_disabled":false,"rental_uris":{"android":"levelo://app?vid=82dcdf4f-8f8d-49c8-bf8f-175264f4f3bd","ios":"levelo://app?vid=82dcdf4f-8f8d-49c8-bf8f-175264f4f3bd"},"vehicle_type_id":"4","last_reported":1773822944,"current_range_meters":6400,"station_id":"st_cvj5dfep6f1abm77gieg","pricing_plan_id":"cebpf4jnsgd1na2vs0mg"},{"bike_id":"2567a655-2c75-4ae5-a8b5-6cd436626987","system_id":"levelo_inurba_marseille","lat":43.28155,"lon":5.4263,"is_reserved":false,"is_disabled":false,"rental_uris":{"android":"levelo://app?vid=2567a655-2c75-4ae5-a8b5-6cd436626987","ios":"levelo://app?vid=2567a655-2c75-4ae5-a8b5-6cd436626987"},"vehicle_type_id":"4","last_reported":1773822944,"current_range_meters":6400,"station_id":"ce4bhnh2rcd13ifvqgug","pricing_plan_id":"cebpf4jnsgd1na2vs0mg"},{"bike_id":"e19bbcec-af9d-483d-ac29-18df3b9c0ab9","system_id":"levelo_inurba_marseille","lat":43.28469,"lon":5.48405,"is_reserved":false,"is_disabled":false,"rental_uris":{"android":"levelo://app?vid=e19bbcec-af9d-483d-ac29-18df3b9c0ab9","ios":"levelo://app?vid=e19bbcec-af9d-483d-ac29-18df3b9c0ab9"},"vehicle_type_id":"4","last_reported":1773822944,"current_range_meters":6400,"station_id":"st_d3svhcjqgbts73a3dn0g","pricing_plan_id":"cebpf4jnsgd1na2vs0mg"},{"bike_id":"f7cad0dd-4929-454b-8848-7575c69435e1","system_id":"levelo_inurba_marseille","lat":43.25851,"lon":5.39919,"is_reserved":false,"is_disabled":true,"rental_uris":{"android":"levelo://app?vid=f7cad0dd-4929-454b-8848-7575c69435e1","ios":"levelo://app?vid=f7cad0dd-4929-454b-8848-7575c69435e1"},"vehicle_type_id":"4","last_reported":1773822944,"current_range_meters":6400,"station_id":"ce4bhl92rcd13ifvqghg","pricing_plan_id":"cebpf4jnsgd1na2vs0mg"},{"bike_id":"6f6451f4-3a4a-4f57-aeb9-04b55d43d97b","system_id":"levelo_inurba_marseille","lat":43.29355,"lon":5.37853,"is_reserved":false,"is_disabled":false,"rental_uris":{"android":"levelo://app?vid=6f6451f4-3a4a-4f57-aeb9-04b55d43d97b","ios":"levelo://app?vid=6f6451f4-3a4a-4f57-aeb9-04b55d43d97b"},"vehicle_type_id":"4","last_reported":1773822944,"current_range_meters":6400,"station_id":"ce4bgjh2rcd13ifvqbf0","pricing_plan_id":"cebpf4jnsgd1na2vs0mg"},{"bike_id":"0940c0ab-3cca-4660-9974-509b4f5e9818","system_id":"levelo_inurba_marseille","lat":43.28928,"lon":5.39521,"is_reserved":false,"is_disabled":false,"rental_uris":{"android":"levelo://app?vid=0940c0ab-3cca-4660-9974-509b4f5e9818","ios":"levelo://app?vid=0940c0ab-3cca-4660-9974-509b4f5e9818"},"vehicle_type_id":"4","last_reported":1773822944,"current_range_meters":6400,"station_id":"","pricing_plan_id":"cebpf4jnsgd1na2vs0mg"},{"bike_id":"b9f2e5d5-d6ac-4c0d-86f2-4fe1a54ef3b3","system_id":"levelo_inurba_marseille","lat":43.32117,"lon":5.36763,"is_reserved":false,"is_disabled":false,"rental_uris":{"android":"levelo://app?vid=b9f2e5d5-d6ac-4c0d-86f2-4fe1a54ef3b3","ios":"levelo://app?vid=b9f2e5d5-d6ac-4c0d-86f2-4fe1a54ef3b3"},"vehicle_type_id":"4","last_reported":1773822944,"current_range_meters":6400,"station_id":"ce4bhrh2rcd13ifvqhug","pricing_plan_id":"cebpf4jnsgd1na2vs0mg"},{"bike_id":"74837afc-fb3e-4577-9f04-1a5783064e91","system_id":"levelo_inurba_marseille","lat":43.30143,"lon":5.37407,"is_reserved":false,"is_disabled":false,"rental_uris":{"android":"levelo://app?vid=74837afc-fb3e-4577-9f04-1a5783064e91","ios":"levelo://app?vid=74837afc-fb3e-4577-9f04-1a5783064e91"},"vehicle_type_id":"4","last_reported":1773822944,"current_range_meters":6800,"station_id":"ce4bgs92rcd13ifvqcc0","pricing_plan_id":"cebpf4jnsgd1na2vs0mg"},{"bike_id":"77f82e91-30b6-4c8c-a0ef-dfcf78d748db","system_id":"levelo_inurba_marseille","lat":43.28866,"lon":5.42529,"is_reserved":false,"is_disabled":false,"rental_uris":{"android":"levelo://app?vid=77f82e91-30b6-4c8c-a0ef-dfcf78d748db","ios":"levelo://app?vid=77f82e91-30b6-4c8c-a0ef-dfcf78d748db"},"vehicle_type_id":"4","last_reported":1773822944,"current_range_meters":6800,"station_id":"","pricing_plan_id":"cebpf4jnsgd1na2vs0mg"},{"bike_id":"0ff1fa02-11a0-4d1a-95c8-453b08ba1b44","system_id":"levelo_inurba_marseille","lat":43.27319,"lon":5.39089,"is_reserved":false,"is_disabled":false,"rental_uris":{"android":"levelo://app?vid=0ff1fa02-11a0-4d1a-95c8-453b08ba1b44","ios":"levelo://app?vid=0ff1fa02-11a0-4d1a-95c8-453b08ba1b44"},"vehicle_type_id":"4","last_reported":1773822944,"current_range_meters":6800,"station_id":"ce4bhgp2rcd13ifvqfe0","pricing_plan_id":"cebpf4jnsgd1na2vs0mg"},{"bike_id":"66da6194-c0ae-4d30-b76c-4e5e50c1e9bf","system_id":"levelo_inurba_marseille","lat":43.29549,"lon":5.37502,"is_reserved":false,"is_disabled":false,"rental_uris":{"android":"levelo://app?vid=66da6194-c0ae-4d30-b76c-4e5e50c1e9bf","ios":"levelo://app?vid=66da6194-c0ae-4d30-b76c-4e5e50c1e9bf"},"vehicle_type_id":"4","last_reported":1773822944,"current_range_meters":6800,"station_id":"ce4bgkp2rcd13ifvqbmg","pricing_plan_id":"cebpf4jnsgd1na2vs0mg"},{"bike_id":"0aa81194-5fca-4a70-91c6-3ef30d559635","system_id":"levelo_inurba_marseille","lat":43.24386,"lon":5.37043,"is_reserved":false,"is_disabled":false,"rental_uris":{"android":"levelo://app?vid=0aa81194-5fca-4a70-91c6-3ef30d559635","ios":"levelo://app?vid=0aa81194-5fca-4a70-91c6-3ef30d559635"},"vehicle_type_id":"4","last_reported":1773822944,"current_range_meters":6800,"station_id":"ce4bhhh2rcd13ifvqfk0","pricing_plan_id":"cebpf4jnsgd1na2vs0mg"},{"bike_id":"e563383a-8a89-4304-b11f-18268886193e","system_id":"levelo_inurba_marseille","lat":43.25567,"lon":5.38236,"is_reserved":false,"is_disabled":false,"rental_uris":{"android":"levelo://app?vid=e563383a-8a89-4304-b11f-18268886193e","ios":"levelo://app?vid=e563383a-8a89-4304-b11f-18268886193e"},"vehicle_type_id":"4","last_reported":1773822944,"current_range_meters":6800,"station_id":"ce4bhih2rcd13ifvqfs0","pricing_plan_id":"cebpf4jnsgd1na2vs0mg"},{"bike_id":"901c28db-c015-4313-845b-db71a8b5949f","system_id":"levelo_inurba_marseille","lat":43.24152,"lon":5.39703,"is_reserved":false,"is_disabled":true,"rental_uris":{"android":"levelo://app?vid=901c28db-c015-4313-845b-db71a8b5949f","ios":"levelo://app?vid=901c28db-c015-4313-845b-db71a8b5949f"},"vehicle_type_id":"4","last_reported":1773822944,"current_range_meters":6800,"station_id":"ce4bhn12rcd13ifvqgpg","pricing_plan_id":"cebpf4jnsgd1na2vs0mg"},{"bike_id":"0f8a9057-1ae1-45b6-af9b-ff1d43f8fd7d","system_id":"levelo_inurba_marseille","lat":43.28539,"lon":5.44112,"is_reserved":false,"is_disabled":false,"rental_uris":{"android":"levelo://app?vid=0f8a9057-1ae1-45b6-af9b-ff1d43f8fd7d","ios":"levelo://app?vid=0f8a9057-1ae1-45b6-af9b-ff1d43f8fd7d"},"vehicle_type_id":"4","last_reported":1773822944,"current_range_meters":6800,"station_id":"st_d3j3df2ikq2c7380ej80","pricing_plan_id":"cebpf4jnsgd1na2vs0mg"},{"bike_id":"d1d58ffe-2b74-486b-89f8-33ac7a985d1b","system_id":"levelo_inurba_marseille","lat":43.25933,"lon":5.40914,"is_reserved":false,"is_disabled":false,"rental_uris":{"android":"levelo://app?vid=d1d58ffe-2b74-486b-89f8-33ac7a985d1b","ios":"levelo://app?vid=d1d58ffe-2b74-486b-89f8-33ac7a985d1b"},"vehicle_type_id":"4","last_reported":1773822944,"current_range_meters":6800,"station_id":"ce4bhm92rcd13ifvqglg","pricing_plan_id":"cebpf4jnsgd1na2vs0mg"},{"bike_id":"fd9f323d-573e-4d39-961a-bc4e3eb44bf4","system_id":"levelo_inurba_marseille","lat":43.30165,"lon":5.3742,"is_reserved":false,"is_disabled":false,"rental_uris":{"android":"levelo://app?vid=fd9f323d-573e-4d39-961a-bc4e3eb44bf4","ios":"levelo://app?vid=fd9f323d-573e-4d39-961a-bc4e3eb44bf4"},"vehicle_type_id":"4","last_reported":1773822944,"current_range_meters":6800,"station_id":"ce4bgs92rcd13ifvqcc0","pricing_plan_id":"cebpf4jnsgd1na2vs0mg"},{"bike_id":"efa56788-fd95-4d6e-84ce-b31b80bc3dea","system_id":"levelo_inurba_marseille","lat":43.29302,"lon":5.37423,"is_reserved":false,"is_disabled":true,"rental_uris":{"android":"levelo://app?vid=efa56788-fd95-4d6e-84ce-b31b80bc3dea","ios":"levelo://app?vid=efa56788-fd95-4d6e-84ce-b31b80bc3dea"},"vehicle_type_id":"4","last_reported":1773822944,"current_range_meters":6800,"station_id":"ce4bgi12rcd13ifvqb70","pricing_plan_id":"cebpf4jnsgd1na2vs0mg"},{"bike_id":"69f9e7d0-9e6e-48d9-8402-311a294217e6","system_id":"levelo_inurba_marseille","lat":43.2936,"lon":5.3787,"is_reserved":false,"is_disabled":true,"rental_uris":{"android":"levelo://app?vid=69f9e7d0-9e6e-48d9-8402-311a294217e6","ios":"levelo://app?vid=69f9e7d0-9e6e-48d9-8402-311a294217e6"},"vehicle_type_id":"4","last_reported":1773822944,"current_range_meters":6800,"station_id":"ce4bgjh2rcd13ifvqbf0","pricing_plan_id":"cebpf4jnsgd1na2vs0mg"},{"bike_id":"ba9acaf9-a04f-4cb7-b51f-474779e95aec","system_id":"levelo_inurba_marseille","lat":43.29186,"lon":5.39313,"is_reserved":false,"is_disabled":true,"rental_uris":{"android":"levelo://app?vid=ba9acaf9-a04f-4cb7-b51f-474779e95aec","ios":"levelo://app?vid=ba9acaf9-a04f-4cb7-b51f-474779e95aec"},"vehicle_type_id":"4","last_reported":1773822944,"current_range_meters":6800,"station_id":"ce4bh192rcd13ifvqdd0","pricing_plan_id":"cebpf4jnsgd1na2vs0mg"},{"bike_id":"f8a00c49-c93d-41ce-9f11-d81257ca6394","system_id":"levelo_inurba_marseille","lat":43.2293,"lon":5.35384,"is_reserved":false,"is_disabled":false,"rental_uris":{"android":"levelo://app?vid=f8a00c49-c93d-41ce-9f11-d81257ca6394","ios":"levelo://app?vid=f8a00c49-c93d-41ce-9f11-d81257ca6394"},"vehicle_type_id":"4","last_reported":1773822944,"current_range_meters":6800,"station_id":"cpo3532slgdg3j2ikp40","pricing_plan_id":"cebpf4jnsgd1na2vs0mg"},{"bike_id":"35b70905-cf2c-4948-a1b4-4c9aabe57240","system_id":"levelo_inurba_marseille","lat":43.28941,"lon":5.36409,"is_reserved":false,"is_disabled":false,"rental_uris":{"android":"levelo://app?vid=35b70905-cf2c-4948-a1b4-4c9aabe57240","ios":"levelo://app?vid=35b70905-cf2c-4948-a1b4-4c9aabe57240"},"vehicle_type_id":"4","last_reported":1773822944,"current_range_meters":6800,"station_id":"ce4bhc92rcd13ifvqetg","pricing_plan_id":"cebpf4jnsgd1na2vs0mg"},{"bike_id":"0fa1e48b-9965-45b9-a611-786f64f3419a","system_id":"levelo_inurba_marseille","lat":43.28284,"lon":5.35084,"is_reserved":false,"is_disabled":false,"rental_uris":{"android":"levelo://app?vid=0fa1e48b-9965-45b9-a611-786f64f3419a","ios":"levelo://app?vid=0fa1e48b-9965-45b9-a611-786f64f3419a"},"vehicle_type_id":"4","last_reported":1773822944,"current_range_meters":7200,"station_id":"ce4bhbp2rcd13ifvqerg","pricing_plan_id":"cebpf4jnsgd1na2vs0mg"},{"bike_id":"09b50b48-1342-4da7-892a-788b7c7b0016","system_id":"levelo_inurba_marseille","lat":43.33636,"lon":5.41029,"is_reserved":false,"is_disabled":false,"rental_uris":{"android":"levelo://app?vid=09b50b48-1342-4da7-892a-788b7c7b0016","ios":"levelo://app?vid=09b50b48-1342-4da7-892a-788b7c7b0016"},"vehicle_type_id":"4","last_reported":1773822944,"current_range_meters":7200,"station_id":"ce4bhqh2rcd13ifvqhmg","pricing_plan_id":"cebpf4jnsgd1na2vs0mg"},{"bike_id":"cc96f2f4-9ade-482e-a6ee-871e68799865","system_id":"levelo_inurba_marseille","lat":43.29844,"lon":5.3627,"is_reserved":false,"is_disabled":false,"rental_uris":{"android":"levelo://app?vid=cc96f2f4-9ade-482e-a6ee-871e68799865","ios":"levelo://app?vid=cc96f2f4-9ade-482e-a6ee-871e68799865"},"vehicle_type_id":"4","last_reported":1773822944,"current_range_meters":7200,"station_id":"ce4bgpp2rcd13ifvqc3g","pricing_plan_id":"cebpf4jnsgd1na2vs0mg"},{"bike_id":"0de91aa7-85fc-42bc-9d70-ecd803417e08","system_id":"levelo_inurba_marseille","lat":43.27934,"lon":5.41056,"is_reserved":false,"is_disabled":true,"rental_uris":{"android":"levelo://app?vid=0de91aa7-85fc-42bc-9d70-ecd803417e08","ios":"levelo://app?vid=0de91aa7-85fc-42bc-9d70-ecd803417e08"},"vehicle_type_id":"4","last_reported":1773822944,"current_range_meters":7200,"station_id":"ce4bhnp2rcd13ifvqh0g","pricing_plan_id":"cebpf4jnsgd1na2vs0mg"},{"bike_id":"70f98469-d2c0-43f4-9102-c6ad6fb97bca","system_id":"levelo_inurba_marseille","lat":43.21751,"lon":5.34603,"is_reserved":false,"is_disabled":false,"rental_uris":{"android":"levelo://app?vid=70f98469-d2c0-43f4-9102-c6ad6fb97bca","ios":"levelo://app?vid=70f98469-d2c0-43f4-9102-c6ad6fb97bca"},"vehicle_type_id":"4","last_reported":1773822944,"current_range_meters":7200,"station_id":"st_cvj6r9ubvosntc0bgbag","pricing_plan_id":"cebpf4jnsgd1na2vs0mg"},{"bike_id":"eaf7c7e5-959b-4058-86fc-d34dcd33baf6","system_id":"levelo_inurba_marseille","lat":43.3127,"lon":5.40158,"is_reserved":false,"is_disabled":false,"rental_uris":{"android":"levelo://app?vid=eaf7c7e5-959b-4058-86fc-d34dcd33baf6","ios":"levelo://app?vid=eaf7c7e5-959b-4058-86fc-d34dcd33baf6"},"vehicle_type_id":"4","last_reported":1773822944,"current_range_meters":7200,"station_id":"ce4bh092rcd13ifvqd30","pricing_plan_id":"cebpf4jnsgd1na2vs0mg"},{"bike_id":"3feb4c73-6e63-47f9-927f-446525b49f72","system_id":"levelo_inurba_marseille","lat":43.3189,"lon":5.36812,"is_reserved":false,"is_disabled":false,"rental_uris":{"android":"levelo://app?vid=3feb4c73-6e63-47f9-927f-446525b49f72","ios":"levelo://app?vid=3feb4c73-6e63-47f9-927f-446525b49f72"},"vehicle_type_id":"4","last_reported":1773822944,"current_range_meters":7200,"station_id":"st_d6o2h0d0559c73evc1b0","pricing_plan_id":"cebpf4jnsgd1na2vs0mg"},{"bike_id":"a266db77-7d4b-47a3-b204-b136086706b0","system_id":"levelo_inurba_marseille","lat":43.31217,"lon":5.36878,"is_reserved":false,"is_disabled":false,"rental_uris":{"android":"levelo://app?vid=a266db77-7d4b-47a3-b204-b136086706b0","ios":"levelo://app?vid=a266db77-7d4b-47a3-b204-b136086706b0"},"vehicle_type_id":"4","last_reported":1773822944,"current_range_meters":7200,"station_id":"ce4bgl92rcd13ifvqbq0","pricing_plan_id":"cebpf4jnsgd1na2vs0mg"},{"bike_id":"e382150a-fb89-4f44-9c60-0ad3803c5373","system_id":"levelo_inurba_marseille","lat":43.29827,"lon":5.38086,"is_reserved":false,"is_disabled":false,"rental_uris":{"android":"levelo://app?vid=e382150a-fb89-4f44-9c60-0ad3803c5373","ios":"levelo://app?vid=e382150a-fb89-4f44-9c60-0ad3803c5373"},"vehicle_type_id":"4","last_reported":1773822944,"current_range_meters":7200,"station_id":"ce4bgip2rcd13ifvqbb0","pricing_plan_id":"cebpf4jnsgd1na2vs0mg"},{"bike_id":"81358156-59b8-4d5f-a5b6-82a61a80c5ab","system_id":"levelo_inurba_marseille","lat":43.28347,"lon":5.38119,"is_reserved":false,"is_disabled":false,"rental_uris":{"android":"levelo://app?vid=81358156-59b8-4d5f-a5b6-82a61a80c5ab","ios":"levelo://app?vid=81358156-59b8-4d5f-a5b6-82a61a80c5ab"},"vehicle_type_id":"4","last_reported":1773822944,"current_range_meters":7200,"station_id":"ce4bh412rcd13ifvqdr0","pricing_plan_id":"cebpf4jnsgd1na2vs0mg"},{"bike_id":"7c245f6b-63fb-4c36-8493-afb8fd5288f8","system_id":"levelo_inurba_marseille","lat":43.31161,"lon":5.39081,"is_reserved":false,"is_disabled":false,"rental_uris":{"android":"levelo://app?vid=7c245f6b-63fb-4c36-8493-afb8fd5288f8","ios":"levelo://app?vid=7c245f6b-63fb-4c36-8493-afb8fd5288f8"},"vehicle_type_id":"4","last_reported":1773822944,"current_range_meters":7200,"station_id":"","pricing_plan_id":"cebpf4jnsgd1na2vs0mg"},{"bike_id":"643281bc-1ddb-4326-b8ee-47c3de73f7fc","system_id":"levelo_inurba_marseille","lat":43.23053,"lon":5.35494,"is_reserved":false,"is_disabled":false,"rental_uris":{"android":"levelo://app?vid=643281bc-1ddb-4326-b8ee-47c3de73f7fc","ios":"levelo://app?vid=643281bc-1ddb-4326-b8ee-47c3de73f7fc"},"vehicle_type_id":"4","last_reported":1773822944,"current_range_meters":7200,"station_id":"cpo3342slgdg3j2ifvpg","pricing_plan_id":"cebpf4jnsgd1na2vs0mg"},{"bike_id":"76754a48-ce84-42c0-844b-1bbcd8656cde","system_id":"levelo_inurba_marseille","lat":43.30294,"lon":5.3775,"is_reserved":false,"is_disabled":false,"rental_uris":{"android":"levelo://app?vid=76754a48-ce84-42c0-844b-1bbcd8656cde","ios":"levelo://app?vid=76754a48-ce84-42c0-844b-1bbcd8656cde"},"vehicle_type_id":"4","last_reported":1773822944,"current_range_meters":7200,"station_id":"ce4bguh2rcd13ifvqcj0","pricing_plan_id":"cebpf4jnsgd1na2vs0mg"},{"bike_id":"2706db3b-3f01-4b6b-a1e9-42e6bda22571","system_id":"levelo_inurba_marseille","lat":43.26177,"lon":5.37335,"is_reserved":false,"is_disabled":false,"rental_uris":{"android":"levelo://app?vid=2706db3b-3f01-4b6b-a1e9-42e6bda22571","ios":"levelo://app?vid=2706db3b-3f01-4b6b-a1e9-42e6bda22571"},"vehicle_type_id":"4","last_reported":1773822944,"current_range_meters":7200,"station_id":"","pricing_plan_id":"cebpf4jnsgd1na2vs0mg"},{"bike_id":"d8e2d3b7-2ad4-4067-b57e-7234f0f738e4","system_id":"levelo_inurba_marseille","lat":43.30174,"lon":5.38088,"is_reserved":false,"is_disabled":false,"rental_uris":{"android":"levelo://app?vid=d8e2d3b7-2ad4-4067-b57e-7234f0f738e4","ios":"levelo://app?vid=d8e2d3b7-2ad4-4067-b57e-7234f0f738e4"},"vehicle_type_id":"4","last_reported":1773822944,"current_range_meters":7200,"station_id":"ce4bgjp2rcd13ifvqbh0","pricing_plan_id":"cebpf4jnsgd1na2vs0mg"},{"bike_id":"6b40fc53-88b4-49ac-921b-e4ffe1669a10","system_id":"levelo_inurba_marseille","lat":43.25331,"lon":5.42165,"is_reserved":false,"is_disabled":false,"rental_uris":{"android":"levelo://app?vid=6b40fc53-88b4-49ac-921b-e4ffe1669a10","ios":"levelo://app?vid=6b40fc53-88b4-49ac-921b-e4ffe1669a10"},"vehicle_type_id":"4","last_reported":1773822944,"current_range_meters":8000,"station_id":"st_d2m65c5bi1j21697t3ng","pricing_plan_id":"cebpf4jnsgd1na2vs0mg"},{"bike_id":"a4c725fa-9af4-4690-b94a-876359a2d01c","system_id":"levelo_inurba_marseille","lat":43.2418,"lon":5.39737,"is_reserved":false,"is_disabled":false,"rental_uris":{"android":"levelo://app?vid=a4c725fa-9af4-4690-b94a-876359a2d01c","ios":"levelo://app?vid=a4c725fa-9af4-4690-b94a-876359a2d01c"},"vehicle_type_id":"4","last_reported":1773822944,"current_range_meters":8000,"station_id":"ce4bhn12rcd13ifvqgpg","pricing_plan_id":"cebpf4jnsgd1na2vs0mg"},{"bike_id":"a51ebf35-4884-41dd-bb59-45ec456b9594","system_id":"levelo_inurba_marseille","lat":43.27374,"lon":5.36253,"is_reserved":false,"is_disabled":false,"rental_uris":{"android":"levelo://app?vid=a51ebf35-4884-41dd-bb59-45ec456b9594","ios":"levelo://app?vid=a51ebf35-4884-41dd-bb59-45ec456b9594"},"vehicle_type_id":"4","last_reported":1773822944,"current_range_meters":8000,"station_id":"ce4bhbh2rcd13ifvqeo0","pricing_plan_id":"cebpf4jnsgd1na2vs0mg"},{"bike_id":"71d1fbee-1405-484b-ac1a-38d153e0f20a","system_id":"levelo_inurba_marseille","lat":43.29271,"lon":5.37624,"is_reserved":false,"is_disabled":false,"rental_uris":{"android":"levelo://app?vid=71d1fbee-1405-484b-ac1a-38d153e0f20a","ios":"levelo://app?vid=71d1fbee-1405-484b-ac1a-38d153e0f20a"},"vehicle_type_id":"4","last_reported":1773822944,"current_range_meters":8000,"station_id":"","pricing_plan_id":"cebpf4jnsgd1na2vs0mg"},{"bike_id":"4ca5e067-9350-4cc0-855c-d565dcef7221","system_id":"levelo_inurba_marseille","lat":43.23182,"lon":5.35571,"is_reserved":false,"is_disabled":false,"rental_uris":{"android":"levelo://app?vid=4ca5e067-9350-4cc0-855c-d565dcef7221","ios":"levelo://app?vid=4ca5e067-9350-4cc0-855c-d565dcef7221"},"vehicle_type_id":"4","last_reported":1773822944,"current_range_meters":8000,"station_id":"ce4bhu92rcd13ifvqi70","pricing_plan_id":"cebpf4jnsgd1na2vs0mg"},{"bike_id":"7d9d7aa8-fbf6-4ec2-9dd9-58e4fbfbf40b","system_id":"levelo_inurba_marseille","lat":43.33715,"lon":5.39207,"is_reserved":false,"is_disabled":false,"rental_uris":{"android":"levelo://app?vid=7d9d7aa8-fbf6-4ec2-9dd9-58e4fbfbf40b","ios":"levelo://app?vid=7d9d7aa8-fbf6-4ec2-9dd9-58e4fbfbf40b"},"vehicle_type_id":"4","last_reported":1773822944,"current_range_meters":8000,"station_id":"ce4bhr92rcd13ifvqhsg","pricing_plan_id":"cebpf4jnsgd1na2vs0mg"},{"bike_id":"d86f7f17-c40c-40d2-9445-70d30fa0ef64","system_id":"levelo_inurba_marseille","lat":43.21766,"lon":5.34599,"is_reserved":false,"is_disabled":true,"rental_uris":{"android":"levelo://app?vid=d86f7f17-c40c-40d2-9445-70d30fa0ef64","ios":"levelo://app?vid=d86f7f17-c40c-40d2-9445-70d30fa0ef64"},"vehicle_type_id":"4","last_reported":1773822944,"current_range_meters":8000,"station_id":"st_cvj6r9ubvosntc0bgbag","pricing_plan_id":"cebpf4jnsgd1na2vs0mg"},{"bike_id":"d0e658ae-6d7b-4756-a94b-be2999ddc02e","system_id":"levelo_inurba_marseille","lat":43.30642,"lon":5.39898,"is_reserved":false,"is_disabled":false,"rental_uris":{"android":"levelo://app?vid=d0e658ae-6d7b-4756-a94b-be2999ddc02e","ios":"levelo://app?vid=d0e658ae-6d7b-4756-a94b-be2999ddc02e"},"vehicle_type_id":"4","last_reported":1773822944,"current_range_meters":8000,"station_id":"","pricing_plan_id":"cebpf4jnsgd1na2vs0mg"},{"bike_id":"f20f82c5-e2c3-4db1-85d3-e096d4b03259","system_id":"levelo_inurba_marseille","lat":43.24644,"lon":5.38916,"is_reserved":false,"is_disabled":true,"rental_uris":{"android":"levelo://app?vid=f20f82c5-e2c3-4db1-85d3-e096d4b03259","ios":"levelo://app?vid=f20f82c5-e2c3-4db1-85d3-e096d4b03259"},"vehicle_type_id":"4","last_reported":1773822944,"current_range_meters":8000,"station_id":"ce4bhg12rcd13ifvqf60","pricing_plan_id":"cebpf4jnsgd1na2vs0mg"},{"bike_id":"447b11a1-21b5-4523-80dc-ebe593853403","system_id":"levelo_inurba_marseille","lat":43.29204,"lon":5.4266,"is_reserved":false,"is_disabled":false,"rental_uris":{"android":"levelo://app?vid=447b11a1-21b5-4523-80dc-ebe593853403","ios":"levelo://app?vid=447b11a1-21b5-4523-80dc-ebe593853403"},"vehicle_type_id":"4","last_reported":1773822944,"current_range_meters":8000,"station_id":"","pricing_plan_id":"cebpf4jnsgd1na2vs0mg"},{"bike_id":"167cce82-8d98-4503-af2f-d498aee11de8","system_id":"levelo_inurba_marseille","lat":43.27288,"lon":5.39051,"is_reserved":false,"is_disabled":false,"rental_uris":{"android":"levelo://app?vid=167cce82-8d98-4503-af2f-d498aee11de8","ios":"levelo://app?vid=167cce82-8d98-4503-af2f-d498aee11de8"},"vehicle_type_id":"4","last_reported":1773822944,"current_range_meters":8000,"station_id":"ce4bhgp2rcd13ifvqfe0","pricing_plan_id":"cebpf4jnsgd1na2vs0mg"},{"bike_id":"639bb6b3-4ec4-4153-8b41-915e2cf0b2f9","system_id":"levelo_inurba_marseille","lat":43.31336,"lon":5.36715,"is_reserved":false,"is_disabled":false,"rental_uris":{"android":"levelo://app?vid=639bb6b3-4ec4-4153-8b41-915e2cf0b2f9","ios":"levelo://app?vid=639bb6b3-4ec4-4153-8b41-915e2cf0b2f9"},"vehicle_type_id":"4","last_reported":1773822944,"current_range_meters":8000,"station_id":"ce4bgr92rcd13ifvqc6g","pricing_plan_id":"cebpf4jnsgd1na2vs0mg"},{"bike_id":"935da9a9-5f63-42ea-afe6-9baa0a1672c4","system_id":"levelo_inurba_marseille","lat":43.28309,"lon":5.40491,"is_reserved":false,"is_disabled":false,"rental_uris":{"android":"levelo://app?vid=935da9a9-5f63-42ea-afe6-9baa0a1672c4","ios":"levelo://app?vid=935da9a9-5f63-42ea-afe6-9baa0a1672c4"},"vehicle_type_id":"4","last_reported":1773822944,"current_range_meters":8000,"station_id":"","pricing_plan_id":"cebpf4jnsgd1na2vs0mg"},{"bike_id":"678b6c9c-a116-4af5-b89b-a22995431517","system_id":"levelo_inurba_marseille","lat":43.25563,"lon":5.38239,"is_reserved":false,"is_disabled":false,"rental_uris":{"android":"levelo://app?vid=678b6c9c-a116-4af5-b89b-a22995431517","ios":"levelo://app?vid=678b6c9c-a116-4af5-b89b-a22995431517"},"vehicle_type_id":"4","last_reported":1773822944,"current_range_meters":8000,"station_id":"ce4bhih2rcd13ifvqfs0","pricing_plan_id":"cebpf4jnsgd1na2vs0mg"},{"bike_id":"c6624821-410f-40d1-93e2-12d2528dddff","system_id":"levelo_inurba_marseille","lat":43.27828,"lon":5.39206,"is_reserved":false,"is_disabled":false,"rental_uris":{"android":"levelo://app?vid=c6624821-410f-40d1-93e2-12d2528dddff","ios":"levelo://app?vid=c6624821-410f-40d1-93e2-12d2528dddff"},"vehicle_type_id":"4","last_reported":1773822944,"current_range_meters":8000,"station_id":"ce4bhjp2rcd13ifvqga0","pricing_plan_id":"cebpf4jnsgd1na2vs0mg"},{"bike_id":"779b8a3c-1846-46b5-9cab-bf0ec2b1118f","system_id":"levelo_inurba_marseille","lat":43.28482,"lon":5.48395,"is_reserved":false,"is_disabled":false,"rental_uris":{"android":"levelo://app?vid=779b8a3c-1846-46b5-9cab-bf0ec2b1118f","ios":"levelo://app?vid=779b8a3c-1846-46b5-9cab-bf0ec2b1118f"},"vehicle_type_id":"4","last_reported":1773822944,"current_range_meters":8000,"station_id":"st_d3svhcjqgbts73a3dn0g","pricing_plan_id":"cebpf4jnsgd1na2vs0mg"},{"bike_id":"bd60a6ec-18d4-4476-ab1b-f354043c4b72","system_id":"levelo_inurba_marseille","lat":43.29831,"lon":5.42693,"is_reserved":false,"is_disabled":false,"rental_uris":{"android":"levelo://app?vid=bd60a6ec-18d4-4476-ab1b-f354043c4b72","ios":"levelo://app?vid=bd60a6ec-18d4-4476-ab1b-f354043c4b72"},"vehicle_type_id":"4","last_reported":1773822944,"current_range_meters":8400,"station_id":"","pricing_plan_id":"cebpf4jnsgd1na2vs0mg"},{"bike_id":"ba16bc71-3c62-4074-9b94-56bc76b88dbc","system_id":"levelo_inurba_marseille","lat":43.26678,"lon":5.38269,"is_reserved":false,"is_disabled":true,"rental_uris":{"android":"levelo://app?vid=ba16bc71-3c62-4074-9b94-56bc76b88dbc","ios":"levelo://app?vid=ba16bc71-3c62-4074-9b94-56bc76b88dbc"},"vehicle_type_id":"4","last_reported":1773822944,"current_range_meters":8400,"station_id":"","pricing_plan_id":"cebpf4jnsgd1na2vs0mg"},{"bike_id":"6a3136ba-007e-4b3a-915f-a5bf2e3997f3","system_id":"levelo_inurba_marseille","lat":43.31709,"lon":5.37801,"is_reserved":false,"is_disabled":false,"rental_uris":{"android":"levelo://app?vid=6a3136ba-007e-4b3a-915f-a5bf2e3997f3","ios":"levelo://app?vid=6a3136ba-007e-4b3a-915f-a5bf2e3997f3"},"vehicle_type_id":"4","last_reported":1773822944,"current_range_meters":8400,"station_id":"","pricing_plan_id":"cebpf4jnsgd1na2vs0mg"},{"bike_id":"b1678298-3f5b-4e9b-bb34-63fa7c9d9c9c","system_id":"levelo_inurba_marseille","lat":43.28481,"lon":5.48393,"is_reserved":false,"is_disabled":false,"rental_uris":{"android":"levelo://app?vid=b1678298-3f5b-4e9b-bb34-63fa7c9d9c9c","ios":"levelo://app?vid=b1678298-3f5b-4e9b-bb34-63fa7c9d9c9c"},"vehicle_type_id":"4","last_reported":1773822944,"current_range_meters":8400,"station_id":"","pricing_plan_id":"cebpf4jnsgd1na2vs0mg"},{"bike_id":"294f4f45-09ae-4d66-9f78-01a6c1d1c348","system_id":"levelo_inurba_marseille","lat":43.25071,"lon":5.39508,"is_reserved":false,"is_disabled":false,"rental_uris":{"android":"levelo://app?vid=294f4f45-09ae-4d66-9f78-01a6c1d1c348","ios":"levelo://app?vid=294f4f45-09ae-4d66-9f78-01a6c1d1c348"},"vehicle_type_id":"4","last_reported":1773822944,"current_range_meters":8400,"station_id":"ce4bhm12rcd13ifvqgkg","pricing_plan_id":"cebpf4jnsgd1na2vs0mg"},{"bike_id":"aaa623ee-ddd8-4920-860a-ea3006b7a30d","system_id":"levelo_inurba_marseille","lat":43.28459,"lon":5.35889,"is_reserved":false,"is_disabled":false,"rental_uris":{"android":"levelo://app?vid=aaa623ee-ddd8-4920-860a-ea3006b7a30d","ios":"levelo://app?vid=aaa623ee-ddd8-4920-860a-ea3006b7a30d"},"vehicle_type_id":"4","last_reported":1773822944,"current_range_meters":8400,"station_id":"ce4bhah2rcd13ifvqei0","pricing_plan_id":"cebpf4jnsgd1na2vs0mg"},{"bike_id":"a8831432-5dda-4112-a3e1-bcc9f2c881cc","system_id":"levelo_inurba_marseille","lat":43.29802,"lon":5.39355,"is_reserved":false,"is_disabled":true,"rental_uris":{"android":"levelo://app?vid=a8831432-5dda-4112-a3e1-bcc9f2c881cc","ios":"levelo://app?vid=a8831432-5dda-4112-a3e1-bcc9f2c881cc"},"vehicle_type_id":"4","last_reported":1773822944,"current_range_meters":8400,"station_id":"chh1huq6cuj3fo74tm60","pricing_plan_id":"cebpf4jnsgd1na2vs0mg"},{"bike_id":"d0b1f448-6af4-4ef1-a755-e03baf4488aa","system_id":"levelo_inurba_marseille","lat":43.2925,"lon":5.3575,"is_reserved":false,"is_disabled":false,"rental_uris":{"android":"levelo://app?vid=d0b1f448-6af4-4ef1-a755-e03baf4488aa","ios":"levelo://app?vid=d0b1f448-6af4-4ef1-a755-e03baf4488aa"},"vehicle_type_id":"4","last_reported":1773822944,"current_range_meters":8400,"station_id":"","pricing_plan_id":"cebpf4jnsgd1na2vs0mg"},{"bike_id":"a9d31829-7e0d-482f-af05-97ddd320ae16","system_id":"levelo_inurba_marseille","lat":43.29766,"lon":5.42764,"is_reserved":false,"is_disabled":true,"rental_uris":{"android":"levelo://app?vid=a9d31829-7e0d-482f-af05-97ddd320ae16","ios":"levelo://app?vid=a9d31829-7e0d-482f-af05-97ddd320ae16"},"vehicle_type_id":"4","last_reported":1773822944,"current_range_meters":8400,"station_id":"st_d3md5207bmas73dh9klg","pricing_plan_id":"cebpf4jnsgd1na2vs0mg"},{"bike_id":"07b37295-cb1c-4cc4-80cd-aea4b2bed417","system_id":"levelo_inurba_marseille","lat":43.29028,"lon":5.39992,"is_reserved":false,"is_disabled":false,"rental_uris":{"android":"levelo://app?vid=07b37295-cb1c-4cc4-80cd-aea4b2bed417","ios":"levelo://app?vid=07b37295-cb1c-4cc4-80cd-aea4b2bed417"},"vehicle_type_id":"4","last_reported":1773822944,"current_range_meters":8400,"station_id":"ce4bh392rcd13ifvqdm0","pricing_plan_id":"cebpf4jnsgd1na2vs0mg"},{"bike_id":"476bfc21-8fe1-4549-a976-a793836e1dd2","system_id":"levelo_inurba_marseille","lat":43.279741,"lon":5.387517,"is_reserved":false,"is_disabled":false,"rental_uris":{"android":"levelo://app?vid=476bfc21-8fe1-4549-a976-a793836e1dd2","ios":"levelo://app?vid=476bfc21-8fe1-4549-a976-a793836e1dd2"},"vehicle_type_id":"4","last_reported":1773822944,"current_range_meters":8400,"station_id":"ce4bhg12rcd13ifvqf80","pricing_plan_id":"cebpf4jnsgd1na2vs0mg"},{"bike_id":"e107cb22-a13d-4c03-93ce-8114e06b9a0f","system_id":"levelo_inurba_marseille","lat":43.28496,"lon":5.48391,"is_reserved":false,"is_disabled":false,"rental_uris":{"android":"levelo://app?vid=e107cb22-a13d-4c03-93ce-8114e06b9a0f","ios":"levelo://app?vid=e107cb22-a13d-4c03-93ce-8114e06b9a0f"},"vehicle_type_id":"4","last_reported":1773822944,"current_range_meters":8400,"station_id":"","pricing_plan_id":"cebpf4jnsgd1na2vs0mg"},{"bike_id":"78ef32d3-0124-423d-a16c-ac35fcf79059","system_id":"levelo_inurba_marseille","lat":43.27229,"lon":5.3921,"is_reserved":false,"is_disabled":false,"rental_uris":{"android":"levelo://app?vid=78ef32d3-0124-423d-a16c-ac35fcf79059","ios":"levelo://app?vid=78ef32d3-0124-423d-a16c-ac35fcf79059"},"vehicle_type_id":"4","last_reported":1773822944,"current_range_meters":8400,"station_id":"ce4bhhp2rcd13ifvqfm0","pricing_plan_id":"cebpf4jnsgd1na2vs0mg"},{"bike_id":"d4531119-47d1-4e6e-8eab-6fb1adfb9a69","system_id":"levelo_inurba_marseille","lat":43.29478,"lon":5.43319,"is_reserved":false,"is_disabled":false,"rental_uris":{"android":"levelo://app?vid=d4531119-47d1-4e6e-8eab-6fb1adfb9a69","ios":"levelo://app?vid=d4531119-47d1-4e6e-8eab-6fb1adfb9a69"},"vehicle_type_id":"4","last_reported":1773822944,"current_range_meters":8400,"station_id":"st_d3j5ugp08ojc73fj9d10","pricing_plan_id":"cebpf4jnsgd1na2vs0mg"},{"bike_id":"e4348c32-720f-4b11-8296-bd96cb3c1062","system_id":"levelo_inurba_marseille","lat":43.27318,"lon":5.39083,"is_reserved":false,"is_disabled":false,"rental_uris":{"android":"levelo://app?vid=e4348c32-720f-4b11-8296-bd96cb3c1062","ios":"levelo://app?vid=e4348c32-720f-4b11-8296-bd96cb3c1062"},"vehicle_type_id":"4","last_reported":1773822944,"current_range_meters":8400,"station_id":"ce4bhgp2rcd13ifvqfe0","pricing_plan_id":"cebpf4jnsgd1na2vs0mg"},{"bike_id":"383333ab-900a-4d8e-9e5f-5f8443133843","system_id":"levelo_inurba_marseille","lat":43.23965,"lon":5.36638,"is_reserved":false,"is_disabled":true,"rental_uris":{"android":"levelo://app?vid=383333ab-900a-4d8e-9e5f-5f8443133843","ios":"levelo://app?vid=383333ab-900a-4d8e-9e5f-5f8443133843"},"vehicle_type_id":"4","last_reported":1773822944,"current_range_meters":8400,"station_id":"ce4bhi12rcd13ifvqfp0","pricing_plan_id":"cebpf4jnsgd1na2vs0mg"},{"bike_id":"b9236ee7-cd1b-4e39-b04e-4a8e959fc4d2","system_id":"levelo_inurba_marseille","lat":43.29744,"lon":5.42774,"is_reserved":false,"is_disabled":false,"rental_uris":{"android":"levelo://app?vid=b9236ee7-cd1b-4e39-b04e-4a8e959fc4d2","ios":"levelo://app?vid=b9236ee7-cd1b-4e39-b04e-4a8e959fc4d2"},"vehicle_type_id":"4","last_reported":1773822944,"current_range_meters":8400,"station_id":"st_d3md5207bmas73dh9klg","pricing_plan_id":"cebpf4jnsgd1na2vs0mg"},{"bike_id":"59eecf13-b920-4e62-9f56-f6df4e1fbe03","system_id":"levelo_inurba_marseille","lat":43.32058,"lon":5.41563,"is_reserved":false,"is_disabled":false,"rental_uris":{"android":"levelo://app?vid=59eecf13-b920-4e62-9f56-f6df4e1fbe03","ios":"levelo://app?vid=59eecf13-b920-4e62-9f56-f6df4e1fbe03"},"vehicle_type_id":"4","last_reported":1773822944,"current_range_meters":8400,"station_id":"ce4bhq92rcd13ifvqhkg","pricing_plan_id":"cebpf4jnsgd1na2vs0mg"},{"bike_id":"b51425a2-b294-4b12-a06b-78afda0873c2","system_id":"levelo_inurba_marseille","lat":43.29822,"lon":5.40246,"is_reserved":false,"is_disabled":false,"rental_uris":{"android":"levelo://app?vid=b51425a2-b294-4b12-a06b-78afda0873c2","ios":"levelo://app?vid=b51425a2-b294-4b12-a06b-78afda0873c2"},"vehicle_type_id":"4","last_reported":1773822944,"current_range_meters":8400,"station_id":"","pricing_plan_id":"cebpf4jnsgd1na2vs0mg"},{"bike_id":"ede8bf75-b1b0-4834-bb2e-cdd9b3d7e62a","system_id":"levelo_inurba_marseille","lat":43.31264,"lon":5.46816,"is_reserved":false,"is_disabled":false,"rental_uris":{"android":"levelo://app?vid=ede8bf75-b1b0-4834-bb2e-cdd9b3d7e62a","ios":"levelo://app?vid=ede8bf75-b1b0-4834-bb2e-cdd9b3d7e62a"},"vehicle_type_id":"4","last_reported":1773822944,"current_range_meters":8400,"station_id":"","pricing_plan_id":"cebpf4jnsgd1na2vs0mg"},{"bike_id":"efb4aeb3-8671-4fe8-8eab-07f170452739","system_id":"levelo_inurba_marseille","lat":43.29675,"lon":5.37296,"is_reserved":false,"is_disabled":false,"rental_uris":{"android":"levelo://app?vid=efb4aeb3-8671-4fe8-8eab-07f170452739","ios":"levelo://app?vid=efb4aeb3-8671-4fe8-8eab-07f170452739"},"vehicle_type_id":"4","last_reported":1773822944,"current_range_meters":8800,"station_id":"ce4bgk12rcd13ifvqbj0","pricing_plan_id":"cebpf4jnsgd1na2vs0mg"},{"bike_id":"1c51670a-46e5-4a0c-9d9c-3c2806d077a8","system_id":"levelo_inurba_marseille","lat":43.29028,"lon":5.38112,"is_reserved":false,"is_disabled":true,"rental_uris":{"android":"levelo://app?vid=1c51670a-46e5-4a0c-9d9c-3c2806d077a8","ios":"levelo://app?vid=1c51670a-46e5-4a0c-9d9c-3c2806d077a8"},"vehicle_type_id":"4","last_reported":1773822944,"current_range_meters":8800,"station_id":"ce4bh4p2rcd13ifvqe1g","pricing_plan_id":"cebpf4jnsgd1na2vs0mg"},{"bike_id":"954b0d53-6597-4756-aaa5-b21e66aaaf13","system_id":"levelo_inurba_marseille","lat":43.28928,"lon":5.36643,"is_reserved":false,"is_disabled":false,"rental_uris":{"android":"levelo://app?vid=954b0d53-6597-4756-aaa5-b21e66aaaf13","ios":"levelo://app?vid=954b0d53-6597-4756-aaa5-b21e66aaaf13"},"vehicle_type_id":"4","last_reported":1773822944,"current_range_meters":8800,"station_id":"ce4bhap2rcd13ifvqek0","pricing_plan_id":"cebpf4jnsgd1na2vs0mg"},{"bike_id":"a8d6e79d-eb50-488f-a7ea-43cddfdc825e","system_id":"levelo_inurba_marseille","lat":43.23773,"lon":5.36623,"is_reserved":false,"is_disabled":false,"rental_uris":{"android":"levelo://app?vid=a8d6e79d-eb50-488f-a7ea-43cddfdc825e","ios":"levelo://app?vid=a8d6e79d-eb50-488f-a7ea-43cddfdc825e"},"vehicle_type_id":"4","last_reported":1773822944,"current_range_meters":8800,"station_id":"st_d3nk18o9ro0c73en2l3g","pricing_plan_id":"cebpf4jnsgd1na2vs0mg"},{"bike_id":"b2d32596-5bca-4b9e-ac0d-9f0f2f521e45","system_id":"levelo_inurba_marseille","lat":43.32979,"lon":5.36012,"is_reserved":false,"is_disabled":true,"rental_uris":{"android":"levelo://app?vid=b2d32596-5bca-4b9e-ac0d-9f0f2f521e45","ios":"levelo://app?vid=b2d32596-5bca-4b9e-ac0d-9f0f2f521e45"},"vehicle_type_id":"4","last_reported":1773822944,"current_range_meters":8800,"station_id":"","pricing_plan_id":"cebpf4jnsgd1na2vs0mg"},{"bike_id":"3dffcbda-9d1f-4157-bbd0-7b2b689f7134","system_id":"levelo_inurba_marseille","lat":43.23147,"lon":5.43706,"is_reserved":false,"is_disabled":false,"rental_uris":{"android":"levelo://app?vid=3dffcbda-9d1f-4157-bbd0-7b2b689f7134","ios":"levelo://app?vid=3dffcbda-9d1f-4157-bbd0-7b2b689f7134"},"vehicle_type_id":"4","last_reported":1773822944,"current_range_meters":8800,"station_id":"ce4bhmp2rcd13ifvqgog","pricing_plan_id":"cebpf4jnsgd1na2vs0mg"},{"bike_id":"875d8e62-43c2-4e03-9cf4-2c7234a52a8e","system_id":"levelo_inurba_marseille","lat":43.26388,"lon":5.42313,"is_reserved":false,"is_disabled":false,"rental_uris":{"android":"levelo://app?vid=875d8e62-43c2-4e03-9cf4-2c7234a52a8e","ios":"levelo://app?vid=875d8e62-43c2-4e03-9cf4-2c7234a52a8e"},"vehicle_type_id":"4","last_reported":1773822944,"current_range_meters":8800,"station_id":"","pricing_plan_id":"cebpf4jnsgd1na2vs0mg"},{"bike_id":"b999e86c-4912-417a-82e5-03c579e0d7e5","system_id":"levelo_inurba_marseille","lat":43.31233,"lon":5.38445,"is_reserved":false,"is_disabled":false,"rental_uris":{"android":"levelo://app?vid=b999e86c-4912-417a-82e5-03c579e0d7e5","ios":"levelo://app?vid=b999e86c-4912-417a-82e5-03c579e0d7e5"},"vehicle_type_id":"4","last_reported":1773822944,"current_range_meters":8800,"station_id":"","pricing_plan_id":"cebpf4jnsgd1na2vs0mg"},{"bike_id":"ed16ab64-9c0f-4050-80fd-94e1f15913c3","system_id":"levelo_inurba_marseille","lat":43.25068,"lon":5.40427,"is_reserved":false,"is_disabled":false,"rental_uris":{"android":"levelo://app?vid=ed16ab64-9c0f-4050-80fd-94e1f15913c3","ios":"levelo://app?vid=ed16ab64-9c0f-4050-80fd-94e1f15913c3"},"vehicle_type_id":"4","last_reported":1773822944,"current_range_meters":8800,"station_id":"","pricing_plan_id":"cebpf4jnsgd1na2vs0mg"},{"bike_id":"72c2af1d-c829-426e-a247-06a2e53eb023","system_id":"levelo_inurba_marseille","lat":43.31567,"lon":5.37288,"is_reserved":false,"is_disabled":false,"rental_uris":{"android":"levelo://app?vid=72c2af1d-c829-426e-a247-06a2e53eb023","ios":"levelo://app?vid=72c2af1d-c829-426e-a247-06a2e53eb023"},"vehicle_type_id":"4","last_reported":1773822944,"current_range_meters":8800,"station_id":"ce4bgt12rcd13ifvqcd0","pricing_plan_id":"cebpf4jnsgd1na2vs0mg"},{"bike_id":"5173eb01-1501-409d-8735-5cd4a7564229","system_id":"levelo_inurba_marseille","lat":43.31834,"lon":5.44651,"is_reserved":false,"is_disabled":false,"rental_uris":{"android":"levelo://app?vid=5173eb01-1501-409d-8735-5cd4a7564229","ios":"levelo://app?vid=5173eb01-1501-409d-8735-5cd4a7564229"},"vehicle_type_id":"4","last_reported":1773822944,"current_range_meters":8800,"station_id":"","pricing_plan_id":"cebpf4jnsgd1na2vs0mg"},{"bike_id":"711cc478-4be2-49b5-9633-102eb85dbd0a","system_id":"levelo_inurba_marseille","lat":43.24068,"lon":5.37739,"is_reserved":false,"is_disabled":false,"rental_uris":{"android":"levelo://app?vid=711cc478-4be2-49b5-9633-102eb85dbd0a","ios":"levelo://app?vid=711cc478-4be2-49b5-9633-102eb85dbd0a"},"vehicle_type_id":"4","last_reported":1773822944,"current_range_meters":8800,"station_id":"ce4bhnp2rcd13ifvqgvg","pricing_plan_id":"cebpf4jnsgd1na2vs0mg"},{"bike_id":"05736dca-1c65-4b92-87da-b2495522a2b4","system_id":"levelo_inurba_marseille","lat":43.29036,"lon":5.37579,"is_reserved":false,"is_disabled":false,"rental_uris":{"android":"levelo://app?vid=05736dca-1c65-4b92-87da-b2495522a2b4","ios":"levelo://app?vid=05736dca-1c65-4b92-87da-b2495522a2b4"},"vehicle_type_id":"4","last_reported":1773822944,"current_range_meters":8800,"station_id":"ce4bh692rcd13ifvqe90","pricing_plan_id":"cebpf4jnsgd1na2vs0mg"},{"bike_id":"a2ba337b-0885-46a1-b4d5-1d0d04b18964","system_id":"levelo_inurba_marseille","lat":43.32482,"lon":5.36561,"is_reserved":false,"is_disabled":false,"rental_uris":{"android":"levelo://app?vid=a2ba337b-0885-46a1-b4d5-1d0d04b18964","ios":"levelo://app?vid=a2ba337b-0885-46a1-b4d5-1d0d04b18964"},"vehicle_type_id":"4","last_reported":1773822944,"current_range_meters":8800,"station_id":"ce4bhs12rcd13ifvqhvg","pricing_plan_id":"cebpf4jnsgd1na2vs0mg"},{"bike_id":"fd676e58-478d-401a-b670-a4ed7b7af8bf","system_id":"levelo_inurba_marseille","lat":43.24076,"lon":5.37764,"is_reserved":false,"is_disabled":false,"rental_uris":{"android":"levelo://app?vid=fd676e58-478d-401a-b670-a4ed7b7af8bf","ios":"levelo://app?vid=fd676e58-478d-401a-b670-a4ed7b7af8bf"},"vehicle_type_id":"4","last_reported":1773822944,"current_range_meters":8800,"station_id":"ce4bhnp2rcd13ifvqgvg","pricing_plan_id":"cebpf4jnsgd1na2vs0mg"},{"bike_id":"20fdfeee-6765-4e8c-8923-0cad32f1f98c","system_id":"levelo_inurba_marseille","lat":43.25716,"lon":5.41115,"is_reserved":false,"is_disabled":false,"rental_uris":{"android":"levelo://app?vid=20fdfeee-6765-4e8c-8923-0cad32f1f98c","ios":"levelo://app?vid=20fdfeee-6765-4e8c-8923-0cad32f1f98c"},"vehicle_type_id":"4","last_reported":1773822944,"current_range_meters":8800,"station_id":"ce4bhkp2rcd13ifvqgd0","pricing_plan_id":"cebpf4jnsgd1na2vs0mg"},{"bike_id":"55614024-db25-486b-99e8-ed28b6d6957b","system_id":"levelo_inurba_marseille","lat":43.29109,"lon":5.39979,"is_reserved":false,"is_disabled":false,"rental_uris":{"android":"levelo://app?vid=55614024-db25-486b-99e8-ed28b6d6957b","ios":"levelo://app?vid=55614024-db25-486b-99e8-ed28b6d6957b"},"vehicle_type_id":"4","last_reported":1773822944,"current_range_meters":8800,"station_id":"","pricing_plan_id":"cebpf4jnsgd1na2vs0mg"},{"bike_id":"d532de73-31b0-408e-96ce-6676e6435a22","system_id":"levelo_inurba_marseille","lat":43.21196,"lon":5.35074,"is_reserved":false,"is_disabled":false,"rental_uris":{"android":"levelo://app?vid=d532de73-31b0-408e-96ce-6676e6435a22","ios":"levelo://app?vid=d532de73-31b0-408e-96ce-6676e6435a22"},"vehicle_type_id":"4","last_reported":1773822944,"current_range_meters":9200,"station_id":"st_cvj6sg6p6f1abm77japg","pricing_plan_id":"cebpf4jnsgd1na2vs0mg"},{"bike_id":"81330be2-86cd-4444-9307-8e51ae9fdf41","system_id":"levelo_inurba_marseille","lat":43.26213,"lon":5.3792,"is_reserved":false,"is_disabled":false,"rental_uris":{"android":"levelo://app?vid=81330be2-86cd-4444-9307-8e51ae9fdf41","ios":"levelo://app?vid=81330be2-86cd-4444-9307-8e51ae9fdf41"},"vehicle_type_id":"4","last_reported":1773822944,"current_range_meters":9200,"station_id":"ce4bhjp2rcd13ifvqg90","pricing_plan_id":"cebpf4jnsgd1na2vs0mg"},{"bike_id":"1e0b341c-6b09-4225-9697-8d11216727af","system_id":"levelo_inurba_marseille","lat":43.31503,"lon":5.3729,"is_reserved":false,"is_disabled":false,"rental_uris":{"android":"levelo://app?vid=1e0b341c-6b09-4225-9697-8d11216727af","ios":"levelo://app?vid=1e0b341c-6b09-4225-9697-8d11216727af"},"vehicle_type_id":"4","last_reported":1773822944,"current_range_meters":9200,"station_id":"ce4bgt12rcd13ifvqcd0","pricing_plan_id":"cebpf4jnsgd1na2vs0mg"},{"bike_id":"0c568fbf-621d-4cc8-ade7-4b24ab6705de","system_id":"levelo_inurba_marseille","lat":43.21742,"lon":5.34603,"is_reserved":false,"is_disabled":false,"rental_uris":{"android":"levelo://app?vid=0c568fbf-621d-4cc8-ade7-4b24ab6705de","ios":"levelo://app?vid=0c568fbf-621d-4cc8-ade7-4b24ab6705de"},"vehicle_type_id":"4","last_reported":1773822944,"current_range_meters":9200,"station_id":"st_cvj6r9ubvosntc0bgbag","pricing_plan_id":"cebpf4jnsgd1na2vs0mg"},{"bike_id":"af1c7fd4-3048-462c-a225-f0187f95fdc2","system_id":"levelo_inurba_marseille","lat":43.30558,"lon":5.36536,"is_reserved":false,"is_disabled":false,"rental_uris":{"android":"levelo://app?vid=af1c7fd4-3048-462c-a225-f0187f95fdc2","ios":"levelo://app?vid=af1c7fd4-3048-462c-a225-f0187f95fdc2"},"vehicle_type_id":"4","last_reported":1773822944,"current_range_meters":9200,"station_id":"ce4bgs12rcd13ifvqcag","pricing_plan_id":"cebpf4jnsgd1na2vs0mg"},{"bike_id":"13ad50bf-7f2f-4ad1-a82f-209db682ff58","system_id":"levelo_inurba_marseille","lat":43.26565,"lon":5.3901,"is_reserved":false,"is_disabled":true,"rental_uris":{"android":"levelo://app?vid=13ad50bf-7f2f-4ad1-a82f-209db682ff58","ios":"levelo://app?vid=13ad50bf-7f2f-4ad1-a82f-209db682ff58"},"vehicle_type_id":"4","last_reported":1773822944,"current_range_meters":9200,"station_id":"ce4bhe12rcd13ifvqf30","pricing_plan_id":"cebpf4jnsgd1na2vs0mg"},{"bike_id":"fd627f34-34e1-4ae6-b0d2-d80d077ae859","system_id":"levelo_inurba_marseille","lat":43.27501,"lon":5.42449,"is_reserved":false,"is_disabled":false,"rental_uris":{"android":"levelo://app?vid=fd627f34-34e1-4ae6-b0d2-d80d077ae859","ios":"levelo://app?vid=fd627f34-34e1-4ae6-b0d2-d80d077ae859"},"vehicle_type_id":"4","last_reported":1773822944,"current_range_meters":9200,"station_id":"","pricing_plan_id":"cebpf4jnsgd1na2vs0mg"},{"bike_id":"9731fd9b-927d-40a2-a358-98b04e1d265d","system_id":"levelo_inurba_marseille","lat":43.26496,"lon":5.3955,"is_reserved":false,"is_disabled":false,"rental_uris":{"android":"levelo://app?vid=9731fd9b-927d-40a2-a358-98b04e1d265d","ios":"levelo://app?vid=9731fd9b-927d-40a2-a358-98b04e1d265d"},"vehicle_type_id":"4","last_reported":1773822944,"current_range_meters":9200,"station_id":"ce4bhi12rcd13ifvqfq0","pricing_plan_id":"cebpf4jnsgd1na2vs0mg"},{"bike_id":"caf5e45c-f3f2-43eb-99a6-b11ec33451e8","system_id":"levelo_inurba_marseille","lat":43.23963,"lon":5.3662,"is_reserved":false,"is_disabled":false,"rental_uris":{"android":"levelo://app?vid=caf5e45c-f3f2-43eb-99a6-b11ec33451e8","ios":"levelo://app?vid=caf5e45c-f3f2-43eb-99a6-b11ec33451e8"},"vehicle_type_id":"4","last_reported":1773822944,"current_range_meters":9200,"station_id":"ce4bhi12rcd13ifvqfp0","pricing_plan_id":"cebpf4jnsgd1na2vs0mg"},{"bike_id":"799f94cc-173a-4ee7-945f-cb2ee16f847b","system_id":"levelo_inurba_marseille","lat":43.29316,"lon":5.40098,"is_reserved":false,"is_disabled":false,"rental_uris":{"android":"levelo://app?vid=799f94cc-173a-4ee7-945f-cb2ee16f847b","ios":"levelo://app?vid=799f94cc-173a-4ee7-945f-cb2ee16f847b"},"vehicle_type_id":"4","last_reported":1773822944,"current_range_meters":9200,"station_id":"","pricing_plan_id":"cebpf4jnsgd1na2vs0mg"},{"bike_id":"76cb48e8-de3c-4720-96be-600ba87cce61","system_id":"levelo_inurba_marseille","lat":43.26056,"lon":5.39388,"is_reserved":false,"is_disabled":false,"rental_uris":{"android":"levelo://app?vid=76cb48e8-de3c-4720-96be-600ba87cce61","ios":"levelo://app?vid=76cb48e8-de3c-4720-96be-600ba87cce61"},"vehicle_type_id":"4","last_reported":1773822944,"current_range_meters":9200,"station_id":"ce4bhh92rcd13ifvqfj0","pricing_plan_id":"cebpf4jnsgd1na2vs0mg"},{"bike_id":"aad59f45-2f84-4523-aaa6-d2cd21c1e33a","system_id":"levelo_inurba_marseille","lat":43.24067,"lon":5.37741,"is_reserved":false,"is_disabled":false,"rental_uris":{"android":"levelo://app?vid=aad59f45-2f84-4523-aaa6-d2cd21c1e33a","ios":"levelo://app?vid=aad59f45-2f84-4523-aaa6-d2cd21c1e33a"},"vehicle_type_id":"4","last_reported":1773822944,"current_range_meters":9200,"station_id":"ce4bhnp2rcd13ifvqgvg","pricing_plan_id":"cebpf4jnsgd1na2vs0mg"},{"bike_id":"fad8e96d-acb2-4874-9608-7180f6b034b8","system_id":"levelo_inurba_marseille","lat":43.29159,"lon":5.40814,"is_reserved":false,"is_disabled":false,"rental_uris":{"android":"levelo://app?vid=fad8e96d-acb2-4874-9608-7180f6b034b8","ios":"levelo://app?vid=fad8e96d-acb2-4874-9608-7180f6b034b8"},"vehicle_type_id":"4","last_reported":1773822944,"current_range_meters":9200,"station_id":"","pricing_plan_id":"cebpf4jnsgd1na2vs0mg"},{"bike_id":"0dbf0073-ecb4-44a3-8d10-bdd4a51bc702","system_id":"levelo_inurba_marseille","lat":43.31499,"lon":5.37299,"is_reserved":false,"is_disabled":false,"rental_uris":{"android":"levelo://app?vid=0dbf0073-ecb4-44a3-8d10-bdd4a51bc702","ios":"levelo://app?vid=0dbf0073-ecb4-44a3-8d10-bdd4a51bc702"},"vehicle_type_id":"4","last_reported":1773822944,"current_range_meters":9200,"station_id":"ce4bgt12rcd13ifvqcd0","pricing_plan_id":"cebpf4jnsgd1na2vs0mg"},{"bike_id":"cdb60d63-5803-434d-9d13-34c70d19c222","system_id":"levelo_inurba_marseille","lat":43.23144,"lon":5.43713,"is_reserved":false,"is_disabled":false,"rental_uris":{"android":"levelo://app?vid=cdb60d63-5803-434d-9d13-34c70d19c222","ios":"levelo://app?vid=cdb60d63-5803-434d-9d13-34c70d19c222"},"vehicle_type_id":"4","last_reported":1773822944,"current_range_meters":9200,"station_id":"ce4bhmp2rcd13ifvqgog","pricing_plan_id":"cebpf4jnsgd1na2vs0mg"},{"bike_id":"943de4e8-2b20-4c73-b186-cefd8d8d40ea","system_id":"levelo_inurba_marseille","lat":43.294,"lon":5.37562,"is_reserved":false,"is_disabled":false,"rental_uris":{"android":"levelo://app?vid=943de4e8-2b20-4c73-b186-cefd8d8d40ea","ios":"levelo://app?vid=943de4e8-2b20-4c73-b186-cefd8d8d40ea"},"vehicle_type_id":"4","last_reported":1773822944,"current_range_meters":9200,"station_id":"ce4bgi12rcd13ifvqb80","pricing_plan_id":"cebpf4jnsgd1na2vs0mg"},{"bike_id":"a02196b2-d108-42bd-a4eb-67e27fde7a09","system_id":"levelo_inurba_marseille","lat":43.23206,"lon":5.35556,"is_reserved":false,"is_disabled":false,"rental_uris":{"android":"levelo://app?vid=a02196b2-d108-42bd-a4eb-67e27fde7a09","ios":"levelo://app?vid=a02196b2-d108-42bd-a4eb-67e27fde7a09"},"vehicle_type_id":"4","last_reported":1773822944,"current_range_meters":9200,"station_id":"ce4bhu92rcd13ifvqi70","pricing_plan_id":"cebpf4jnsgd1na2vs0mg"},{"bike_id":"4603d8e6-1bdb-4e77-a999-dd174df795dd","system_id":"levelo_inurba_marseille","lat":43.21735,"lon":5.34611,"is_reserved":false,"is_disabled":false,"rental_uris":{"android":"levelo://app?vid=4603d8e6-1bdb-4e77-a999-dd174df795dd","ios":"levelo://app?vid=4603d8e6-1bdb-4e77-a999-dd174df795dd"},"vehicle_type_id":"4","last_reported":1773822944,"current_range_meters":9600,"station_id":"st_cvj6r9ubvosntc0bgbag","pricing_plan_id":"cebpf4jnsgd1na2vs0mg"},{"bike_id":"2cd6d2c4-9839-4b08-8d75-805c4c2214dc","system_id":"levelo_inurba_marseille","lat":43.23047,"lon":5.35497,"is_reserved":false,"is_disabled":false,"rental_uris":{"android":"levelo://app?vid=2cd6d2c4-9839-4b08-8d75-805c4c2214dc","ios":"levelo://app?vid=2cd6d2c4-9839-4b08-8d75-805c4c2214dc"},"vehicle_type_id":"4","last_reported":1773822944,"current_range_meters":9600,"station_id":"cpo3342slgdg3j2ifvpg","pricing_plan_id":"cebpf4jnsgd1na2vs0mg"},{"bike_id":"8c29270d-5d11-446e-a3f0-f5c56ae9c816","system_id":"levelo_inurba_marseille","lat":43.27556,"lon":5.43315,"is_reserved":false,"is_disabled":false,"rental_uris":{"android":"levelo://app?vid=8c29270d-5d11-446e-a3f0-f5c56ae9c816","ios":"levelo://app?vid=8c29270d-5d11-446e-a3f0-f5c56ae9c816"},"vehicle_type_id":"4","last_reported":1773822944,"current_range_meters":9600,"station_id":"","pricing_plan_id":"cebpf4jnsgd1na2vs0mg"},{"bike_id":"29a73ed6-48b9-4cde-8198-19e94210bba2","system_id":"levelo_inurba_marseille","lat":43.29079,"lon":5.38163,"is_reserved":false,"is_disabled":false,"rental_uris":{"android":"levelo://app?vid=29a73ed6-48b9-4cde-8198-19e94210bba2","ios":"levelo://app?vid=29a73ed6-48b9-4cde-8198-19e94210bba2"},"vehicle_type_id":"4","last_reported":1773822944,"current_range_meters":9600,"station_id":"ce4bh512rcd13ifvqe2g","pricing_plan_id":"cebpf4jnsgd1na2vs0mg"},{"bike_id":"c7a58df1-e626-4613-bd92-acf1a3516baf","system_id":"levelo_inurba_marseille","lat":43.21763,"lon":5.34601,"is_reserved":false,"is_disabled":false,"rental_uris":{"android":"levelo://app?vid=c7a58df1-e626-4613-bd92-acf1a3516baf","ios":"levelo://app?vid=c7a58df1-e626-4613-bd92-acf1a3516baf"},"vehicle_type_id":"4","last_reported":1773822944,"current_range_meters":9600,"station_id":"st_cvj6r9ubvosntc0bgbag","pricing_plan_id":"cebpf4jnsgd1na2vs0mg"},{"bike_id":"656f7f1c-73b7-415a-88df-0e80616a0a57","system_id":"levelo_inurba_marseille","lat":43.24993,"lon":5.38933,"is_reserved":false,"is_disabled":false,"rental_uris":{"android":"levelo://app?vid=656f7f1c-73b7-415a-88df-0e80616a0a57","ios":"levelo://app?vid=656f7f1c-73b7-415a-88df-0e80616a0a57"},