{"last_updated":1691172489,"ttl":30,"version":"2.2","data":{"bikes":[{"bike_id":"87b6fd85-f10f-4327-a224-9d5ef810c893","system_id":"levelo_inurba_marseille","lat":43.309076,"lon":5.368465,"is_reserved":false,"is_disabled":false,"rental_uris":{"android":"levelo://app?vid=87b6fd85-f10f-4327-a224-9d5ef810c893","ios":"levelo://app?vid=87b6fd85-f10f-4327-a224-9d5ef810c893"},"vehicle_type_id":"4","last_reported":1691172489,"current_range_meters":2800,"station_id":"ce4bgn92rcd13ifvqbvg","pricing_plan_id":"free"},{"bike_id":"44cd40b5-4f6a-4b97-a422-95fc3c26273e","system_id":"levelo_inurba_marseille","lat":43.309076,"lon":5.368465,"is_reserved":false,"is_disabled":false,"rental_uris":{"android":"levelo://app?vid=44cd40b5-4f6a-4b97-a422-95fc3c26273e","ios":"levelo://app?vid=44cd40b5-4f6a-4b97-a422-95fc3c26273e"},"vehicle_type_id":"4","last_reported":1691172489,"current_range_meters":6000,"station_id":"ce4bgn92rcd13ifvqbvg","pricing_plan_id":"free"},{"bike_id":"6f5b4c50-4838-4e38-9365-7f4196db010a","system_id":"levelo_inurba_marseille","lat":43.314811,"lon":5.373103,"is_reserved":false,"is_disabled":false,"rental_uris":{"android":"levelo://app?vid=6f5b4c50-4838-4e38-9365-7f4196db010a","ios":"levelo://app?vid=6f5b4c50-4838-4e38-9365-7f4196db010a"},"vehicle_type_id":"4","last_reported":1691172489,"current_range_meters":25600,"station_id":"ce4bgt12rcd13ifvqcd0","pricing_plan_id":"free"},{"bike_id":"7cfb81a3-fd7f-41d1-987d-c1037b7c6b4a","system_id":"levelo_inurba_marseille","lat":43.31429,"lon":5.37434,"is_reserved":false,"is_disabled":false,"rental_uris":{"android":"levelo://app?vid=7cfb81a3-fd7f-41d1-987d-c1037b7c6b4a","ios":"levelo://app?vid=7cfb81a3-fd7f-41d1-987d-c1037b7c6b4a"},"vehicle_type_id":"4","last_reported":1691172489,"current_range_meters":17600,"station_id":"","pricing_plan_id":"free"},{"bike_id":"3535b900-6003-4def-960c-e2ce9b7e321f","system_id":"levelo_inurba_marseille","lat":43.30545,"lon":5.36704,"is_reserved":false,"is_disabled":false,"rental_uris":{"android":"levelo://app?vid=3535b900-6003-4def-960c-e2ce9b7e321f","ios":"levelo://app?vid=3535b900-6003-4def-960c-e2ce9b7e321f"},"vehicle_type_id":"4","last_reported":1691172489,"current_range_meters":800,"station_id":"ce4bgrp2rcd13ifvqc9g","pricing_plan_id":"free"},{"bike_id":"6de49e31-63d7-4380-8cda-80159dac24fd","system_id":"levelo_inurba_marseille","lat":43.305714,"lon":5.365633,"is_reserved":false,"is_disabled":false,"rental_uris":{"android":"levelo://app?vid=6de49e31-63d7-4380-8cda-80159dac24fd","ios":"levelo://app?vid=6de49e31-63d7-4380-8cda-80159dac24fd"},"vehicle_type_id":"4","last_reported":1691172489,"current_range_meters":2800,"station_id":"ce4bgs12rcd13ifvqcag","pricing_plan_id":"free"},{"bike_id":"b6c39f8d-8364-4bfd-9c74-626c6814033e","system_id":"levelo_inurba_marseille","lat":43.30538,"lon":5.36719,"is_reserved":false,"is_disabled":false,"rental_uris":{"android":"levelo://app?vid=b6c39f8d-8364-4bfd-9c74-626c6814033e","ios":"levelo://app?vid=b6c39f8d-8364-4bfd-9c74-626c6814033e"},"vehicle_type_id":"4","last_reported":1691172489,"current_range_meters":0,"station_id":"ce4bgrp2rcd13ifvqc9g","pricing_plan_id":"free"},{"bike_id":"dc6fae15-a2df-4c8a-b691-29335460d312","system_id":"levelo_inurba_marseille","lat":43.30527,"lon":5.36901,"is_reserved":false,"is_disabled":false,"rental_uris":{"android":"levelo://app?vid=dc6fae15-a2df-4c8a-b691-29335460d312","ios":"levelo://app?vid=dc6fae15-a2df-4c8a-b691-29335460d312"},"vehicle_type_id":"4","last_reported":1691172489,"current_range_meters":800,"station_id":"","pricing_plan_id":"free"},{"bike_id":"f20ea888-8740-440b-bfeb-8eb2a7c1f652","system_id":"levelo_inurba_marseille","lat":43.305989,"lon":5.37225,"is_reserved":false,"is_disabled":false,"rental_uris":{"android":"levelo://app?vid=f20ea888-8740-440b-bfeb-8eb2a7c1f652","ios":"levelo://app?vid=f20ea888-8740-440b-bfeb-8eb2a7c1f652"},"vehicle_type_id":"4","last_reported":1691172489,"current_range_meters":31200,"station_id":"ce4bgqh2rcd13ifvqc4g","pricing_plan_id":"free"},{"bike_id":"4b76a8ee-2f80-4d74-bf51-20928e506fb1","system_id":"levelo_inurba_marseille","lat":43.307945,"lon":5.376487,"is_reserved":false,"is_disabled":false,"rental_uris":{"android":"levelo://app?vid=4b76a8ee-2f80-4d74-bf51-20928e506fb1","ios":"levelo://app?vid=4b76a8ee-2f80-4d74-bf51-20928e506fb1"},"vehicle_type_id":"4","last_reported":1691172489,"current_range_meters":10800,"station_id":"ce4bgv92rcd13ifvqcq0","pricing_plan_id":"free"},{"bike_id":"98204378-ee5f-4653-a841-5c0f80498805","system_id":"levelo_inurba_marseille","lat":43.307945,"lon":5.376487,"is_reserved":false,"is_disabled":false,"rental_uris":{"android":"levelo://app?vid=98204378-ee5f-4653-a841-5c0f80498805","ios":"levelo://app?vid=98204378-ee5f-4653-a841-5c0f80498805"},"vehicle_type_id":"4","last_reported":1691172489,"current_range_meters":13600,"station_id":"ce4bgv92rcd13ifvqcq0","pricing_plan_id":"free"},{"bike_id":"6e7d2a81-eb04-467b-8744-5fac68edc62a","system_id":"levelo_inurba_marseille","lat":43.307945,"lon":5.376487,"is_reserved":false,"is_disabled":false,"rental_uris":{"android":"levelo://app?vid=6e7d2a81-eb04-467b-8744-5fac68edc62a","ios":"levelo://app?vid=6e7d2a81-eb04-467b-8744-5fac68edc62a"},"vehicle_type_id":"4","last_reported":1691172489,"current_range_meters":4400,"station_id":"ce4bgv92rcd13ifvqcq0","pricing_plan_id":"free"},{"bike_id":"b8caa492-4473-497b-83a8-f40b87c90e82","system_id":"levelo_inurba_marseille","lat":43.317075,"lon":5.377367,"is_reserved":false,"is_disabled":false,"rental_uris":{"android":"levelo://app?vid=b8caa492-4473-497b-83a8-f40b87c90e82","ios":"levelo://app?vid=b8caa492-4473-497b-83a8-f40b87c90e82"},"vehicle_type_id":"4","last_reported":1691172489,"current_range_meters":0,"station_id":"ce4bgth2rcd13ifvqch0","pricing_plan_id":"free"},{"bike_id":"b574c850-683d-4205-92e8-706cf1d265cb","system_id":"levelo_inurba_marseille","lat":43.303046,"lon":5.368981,"is_reserved":false,"is_disabled":false,"rental_uris":{"android":"levelo://app?vid=b574c850-683d-4205-92e8-706cf1d265cb","ios":"levelo://app?vid=b574c850-683d-4205-92e8-706cf1d265cb"},"vehicle_type_id":"4","last_reported":1691172489,"current_range_meters":1200,"station_id":"ce4bgqh2rcd13ifvqc5g","pricing_plan_id":"free"},{"bike_id":"d291e716-225d-4669-8ded-3af872484c42","system_id":"levelo_inurba_marseille","lat":43.31529,"lon":5.38032,"is_reserved":false,"is_disabled":false,"rental_uris":{"android":"levelo://app?vid=d291e716-225d-4669-8ded-3af872484c42","ios":"levelo://app?vid=d291e716-225d-4669-8ded-3af872484c42"},"vehicle_type_id":"4","last_reported":1691172489,"current_range_meters":18000,"station_id":"ce4bhsp2rcd13ifvqi50","pricing_plan_id":"free"},{"bike_id":"80d20e39-f50e-4a7e-b27f-c94adcc63542","system_id":"levelo_inurba_marseille","lat":43.32227,"lon":5.37622,"is_reserved":false,"is_disabled":false,"rental_uris":{"android":"levelo://app?vid=80d20e39-f50e-4a7e-b27f-c94adcc63542","ios":"levelo://app?vid=80d20e39-f50e-4a7e-b27f-c94adcc63542"},"vehicle_type_id":"4","last_reported":1691172489,"current_range_meters":0,"station_id":"","pricing_plan_id":"free"},{"bike_id":"39b50520-af49-473c-8af0-50face224a8b","system_id":"levelo_inurba_marseille","lat":43.302784,"lon":5.377158,"is_reserved":false,"is_disabled":false,"rental_uris":{"android":"levelo://app?vid=39b50520-af49-473c-8af0-50face224a8b","ios":"levelo://app?vid=39b50520-af49-473c-8af0-50face224a8b"},"vehicle_type_id":"4","last_reported":1691172489,"current_range_meters":22800,"station_id":"ce4bguh2rcd13ifvqcj0","pricing_plan_id":"free"},{"bike_id":"d5f7f396-3296-41b5-bc26-a6ef0187ad90","system_id":"levelo_inurba_marseille","lat":43.31994,"lon":5.38151,"is_reserved":false,"is_disabled":false,"rental_uris":{"android":"levelo://app?vid=d5f7f396-3296-41b5-bc26-a6ef0187ad90","ios":"levelo://app?vid=d5f7f396-3296-41b5-bc26-a6ef0187ad90"},"vehicle_type_id":"4","last_reported":1691172489,"current_range_meters":0,"station_id":"ce4bhr12rcd13ifvqhpg","pricing_plan_id":"free"},{"bike_id":"96b73a2e-e8b7-4f31-b54a-055d9afe9883","system_id":"levelo_inurba_marseille","lat":43.31998,"lon":5.3816,"is_reserved":false,"is_disabled":false,"rental_uris":{"android":"levelo://app?vid=96b73a2e-e8b7-4f31-b54a-055d9afe9883","ios":"levelo://app?vid=96b73a2e-e8b7-4f31-b54a-055d9afe9883"},"vehicle_type_id":"4","last_reported":1691172489,"current_range_meters":10000,"station_id":"ce4bhr12rcd13ifvqhpg","pricing_plan_id":"free"},{"bike_id":"45dd4b4b-71c2-4c13-9b61-10ee2e5b0fcb","system_id":"levelo_inurba_marseille","lat":43.31997,"lon":5.38166,"is_reserved":false,"is_disabled":false,"rental_uris":{"android":"levelo://app?vid=45dd4b4b-71c2-4c13-9b61-10ee2e5b0fcb","ios":"levelo://app?vid=45dd4b4b-71c2-4c13-9b61-10ee2e5b0fcb"},"vehicle_type_id":"4","last_reported":1691172489,"current_range_meters":24400,"station_id":"ce4bhr12rcd13ifvqhpg","pricing_plan_id":"free"},{"bike_id":"596d18da-eb66-48ff-bbb9-df202f26ba67","system_id":"levelo_inurba_marseille","lat":43.313571,"lon":5.384829,"is_reserved":false,"is_disabled":false,"rental_uris":{"android":"levelo://app?vid=596d18da-eb66-48ff-bbb9-df202f26ba67","ios":"levelo://app?vid=596d18da-eb66-48ff-bbb9-df202f26ba67"},"vehicle_type_id":"4","last_reported":1691172489,"current_range_meters":5200,"station_id":"ce4bgt92rcd13ifvqcf0","pricing_plan_id":"free"},{"bike_id":"06051433-4e9c-4c4d-883c-6780a456624c","system_id":"levelo_inurba_marseille","lat":43.299724,"lon":5.371829,"is_reserved":false,"is_disabled":false,"rental_uris":{"android":"levelo://app?vid=06051433-4e9c-4c4d-883c-6780a456624c","ios":"levelo://app?vid=06051433-4e9c-4c4d-883c-6780a456624c"},"vehicle_type_id":"4","last_reported":1691172489,"current_range_meters":20400,"station_id":"ce4bgr92rcd13ifvqc7g","pricing_plan_id":"free"},{"bike_id":"3cb7fd70-121e-4eb5-9a01-ecc8718aa1bb","system_id":"levelo_inurba_marseille","lat":43.29942,"lon":5.36537,"is_reserved":false,"is_disabled":false,"rental_uris":{"android":"levelo://app?vid=3cb7fd70-121e-4eb5-9a01-ecc8718aa1bb","ios":"levelo://app?vid=3cb7fd70-121e-4eb5-9a01-ecc8718aa1bb"},"vehicle_type_id":"4","last_reported":1691172489,"current_range_meters":26800,"station_id":"ce4bgm92rcd13ifvqbr0","pricing_plan_id":"free"},{"bike_id":"ca5a2409-ac10-4d07-8503-b16146b80a14","system_id":"levelo_inurba_marseille","lat":43.29938,"lon":5.37194,"is_reserved":false,"is_disabled":false,"rental_uris":{"android":"levelo://app?vid=ca5a2409-ac10-4d07-8503-b16146b80a14","ios":"levelo://app?vid=ca5a2409-ac10-4d07-8503-b16146b80a14"},"vehicle_type_id":"4","last_reported":1691172489,"current_range_meters":2400,"station_id":"ce4bgr92rcd13ifvqc7g","pricing_plan_id":"free"},{"bike_id":"72670c5e-6fcf-4c5a-a1b1-69f4629340eb","system_id":"levelo_inurba_marseille","lat":43.305364,"lon":5.384119,"is_reserved":false,"is_disabled":false,"rental_uris":{"android":"levelo://app?vid=72670c5e-6fcf-4c5a-a1b1-69f4629340eb","ios":"levelo://app?vid=72670c5e-6fcf-4c5a-a1b1-69f4629340eb"},"vehicle_type_id":"4","last_reported":1691172489,"current_range_meters":16800,"station_id":"ce4bgg92rcd13ifvqb30","pricing_plan_id":"free"},{"bike_id":"30537d43-af02-4a10-b928-7b9b8cf633d2","system_id":"levelo_inurba_marseille","lat":43.30537,"lon":5.38425,"is_reserved":false,"is_disabled":false,"rental_uris":{"android":"levelo://app?vid=30537d43-af02-4a10-b928-7b9b8cf633d2","ios":"levelo://app?vid=30537d43-af02-4a10-b928-7b9b8cf633d2"},"vehicle_type_id":"4","last_reported":1691172489,"current_range_meters":28800,"station_id":"ce4bgg92rcd13ifvqb30","pricing_plan_id":"free"},{"bike_id":"41aeb073-981b-4851-8258-eab8aa98d37c","system_id":"levelo_inurba_marseille","lat":43.3053,"lon":5.38432,"is_reserved":false,"is_disabled":false,"rental_uris":{"android":"levelo://app?vid=41aeb073-981b-4851-8258-eab8aa98d37c","ios":"levelo://app?vid=41aeb073-981b-4851-8258-eab8aa98d37c"},"vehicle_type_id":"4","last_reported":1691172489,"current_range_meters":9600,"station_id":"ce4bgg92rcd13ifvqb30","pricing_plan_id":"free"},{"bike_id":"e10fae54-9b81-49f4-ba53-a6a6d1ac2154","system_id":"levelo_inurba_marseille","lat":43.311722,"lon":5.387247,"is_reserved":false,"is_disabled":false,"rental_uris":{"android":"levelo://app?vid=e10fae54-9b81-49f4-ba53-a6a6d1ac2154","ios":"levelo://app?vid=e10fae54-9b81-49f4-ba53-a6a6d1ac2154"},"vehicle_type_id":"4","last_reported":1691172489,"current_range_meters":10800,"station_id":"ce4bgv12rcd13ifvqcp0","pricing_plan_id":"free"},{"bike_id":"53034758-d18a-4e0b-a200-fa4baf2b45bc","system_id":"levelo_inurba_marseille","lat":43.311722,"lon":5.387247,"is_reserved":false,"is_disabled":false,"rental_uris":{"android":"levelo://app?vid=53034758-d18a-4e0b-a200-fa4baf2b45bc","ios":"levelo://app?vid=53034758-d18a-4e0b-a200-fa4baf2b45bc"},"vehicle_type_id":"4","last_reported":1691172489,"current_range_meters":800,"station_id":"ce4bgv12rcd13ifvqcp0","pricing_plan_id":"free"},{"bike_id":"db993b36-ea81-4814-923d-0ea56b9d014c","system_id":"levelo_inurba_marseille","lat":43.311722,"lon":5.387247,"is_reserved":false,"is_disabled":false,"rental_uris":{"android":"levelo://app?vid=db993b36-ea81-4814-923d-0ea56b9d014c","ios":"levelo://app?vid=db993b36-ea81-4814-923d-0ea56b9d014c"},"vehicle_type_id":"4","last_reported":1691172489,"current_range_meters":19200,"station_id":"ce4bgv12rcd13ifvqcp0","pricing_plan_id":"free"},{"bike_id":"1de3331d-4b86-41a4-8d0c-fefd964b756d","system_id":"levelo_inurba_marseille","lat":43.311722,"lon":5.387247,"is_reserved":false,"is_disabled":false,"rental_uris":{"android":"levelo://app?vid=1de3331d-4b86-41a4-8d0c-fefd964b756d","ios":"levelo://app?vid=1de3331d-4b86-41a4-8d0c-fefd964b756d"},"vehicle_type_id":"4","last_reported":1691172489,"current_range_meters":30000,"station_id":"ce4bgv12rcd13ifvqcp0","pricing_plan_id":"free"},{"bike_id":"b8cb5be2-24e6-48aa-bc88-08d3d7b2eb3a","system_id":"levelo_inurba_marseille","lat":43.311722,"lon":5.387247,"is_reserved":false,"is_disabled":false,"rental_uris":{"android":"levelo://app?vid=b8cb5be2-24e6-48aa-bc88-08d3d7b2eb3a","ios":"levelo://app?vid=b8cb5be2-24e6-48aa-bc88-08d3d7b2eb3a"},"vehicle_type_id":"4","last_reported":1691172489,"current_range_meters":21600,"station_id":"ce4bgv12rcd13ifvqcp0","pricing_plan_id":"free"},{"bike_id":"d573b142-8979-4dcc-9991-73ea27b94f45","system_id":"levelo_inurba_marseille","lat":43.311722,"lon":5.387247,"is_reserved":false,"is_disabled":false,"rental_uris":{"android":"levelo://app?vid=d573b142-8979-4dcc-9991-73ea27b94f45","ios":"levelo://app?vid=d573b142-8979-4dcc-9991-73ea27b94f45"},"vehicle_type_id":"4","last_reported":1691172489,"current_range_meters":30400,"station_id":"ce4bgv12rcd13ifvqcp0","pricing_plan_id":"free"},{"bike_id":"524d8772-aa1b-409e-ac89-8fe2cf931d65","system_id":"levelo_inurba_marseille","lat":43.311722,"lon":5.387247,"is_reserved":false,"is_disabled":false,"rental_uris":{"android":"levelo://app?vid=524d8772-aa1b-409e-ac89-8fe2cf931d65","ios":"levelo://app?vid=524d8772-aa1b-409e-ac89-8fe2cf931d65"},"vehicle_type_id":"4","last_reported":1691172489,"current_range_meters":8000,"station_id":"ce4bgv12rcd13ifvqcp0","pricing_plan_id":"free"},{"bike_id":"1fcf5781-e6c6-476c-bfb1-2c37f086161c","system_id":"levelo_inurba_marseille","lat":43.29791,"lon":5.37097,"is_reserved":false,"is_disabled":false,"rental_uris":{"android":"levelo://app?vid=1fcf5781-e6c6-476c-bfb1-2c37f086161c","ios":"levelo://app?vid=1fcf5781-e6c6-476c-bfb1-2c37f086161c"},"vehicle_type_id":"4","last_reported":1691172489,"current_range_meters":23600,"station_id":"","pricing_plan_id":"free"},{"bike_id":"dd789220-e7b5-42c1-b9dc-dc4243148021","system_id":"levelo_inurba_marseille","lat":43.297163,"lon":5.365866,"is_reserved":false,"is_disabled":false,"rental_uris":{"android":"levelo://app?vid=dd789220-e7b5-42c1-b9dc-dc4243148021","ios":"levelo://app?vid=dd789220-e7b5-42c1-b9dc-dc4243148021"},"vehicle_type_id":"4","last_reported":1691172489,"current_range_meters":31200,"station_id":"ce4bgn12rcd13ifvqbt0","pricing_plan_id":"free"},{"bike_id":"e62da758-b47b-4403-bc1f-07b56ed25a24","system_id":"levelo_inurba_marseille","lat":43.297163,"lon":5.365866,"is_reserved":false,"is_disabled":false,"rental_uris":{"android":"levelo://app?vid=e62da758-b47b-4403-bc1f-07b56ed25a24","ios":"levelo://app?vid=e62da758-b47b-4403-bc1f-07b56ed25a24"},"vehicle_type_id":"4","last_reported":1691172489,"current_range_meters":6000,"station_id":"ce4bgn12rcd13ifvqbt0","pricing_plan_id":"free"},{"bike_id":"768bd158-f884-4893-9c34-b733c40b813a","system_id":"levelo_inurba_marseille","lat":43.296921,"lon":5.376579,"is_reserved":false,"is_disabled":false,"rental_uris":{"android":"levelo://app?vid=768bd158-f884-4893-9c34-b733c40b813a","ios":"levelo://app?vid=768bd158-f884-4893-9c34-b733c40b813a"},"vehicle_type_id":"4","last_reported":1691172489,"current_range_meters":0,"station_id":"ce4bgkh2rcd13ifvqbl0","pricing_plan_id":"free"},{"bike_id":"7a385121-1d35-4ee1-818f-d7ec2ebda540","system_id":"levelo_inurba_marseille","lat":43.299028,"lon":5.381509,"is_reserved":false,"is_disabled":false,"rental_uris":{"android":"levelo://app?vid=7a385121-1d35-4ee1-818f-d7ec2ebda540","ios":"levelo://app?vid=7a385121-1d35-4ee1-818f-d7ec2ebda540"},"vehicle_type_id":"4","last_reported":1691172489,"current_range_meters":4400,"station_id":"ce4bgj12rcd13ifvqbc0","pricing_plan_id":"free"},{"bike_id":"d45af358-87a2-4a1d-906b-0af217355bf3","system_id":"levelo_inurba_marseille","lat":43.30963,"lon":5.39024,"is_reserved":false,"is_disabled":false,"rental_uris":{"android":"levelo://app?vid=d45af358-87a2-4a1d-906b-0af217355bf3","ios":"levelo://app?vid=d45af358-87a2-4a1d-906b-0af217355bf3"},"vehicle_type_id":"4","last_reported":1691172489,"current_range_meters":23200,"station_id":"ce4bgup2rcd13ifvqco0","pricing_plan_id":"free"},{"bike_id":"9e7cd64a-6187-4de7-ac24-ad8b7bf19b95","system_id":"levelo_inurba_marseille","lat":43.296921,"lon":5.376579,"is_reserved":false,"is_disabled":false,"rental_uris":{"android":"levelo://app?vid=9e7cd64a-6187-4de7-ac24-ad8b7bf19b95","ios":"levelo://app?vid=9e7cd64a-6187-4de7-ac24-ad8b7bf19b95"},"vehicle_type_id":"4","last_reported":1691172489,"current_range_meters":6000,"station_id":"ce4bgkh2rcd13ifvqbl0","pricing_plan_id":"free"},{"bike_id":"966e8e81-95f3-4ec6-93eb-8dd0ca8a87e1","system_id":"levelo_inurba_marseille","lat":43.30948,"lon":5.3903,"is_reserved":false,"is_disabled":false,"rental_uris":{"android":"levelo://app?vid=966e8e81-95f3-4ec6-93eb-8dd0ca8a87e1","ios":"levelo://app?vid=966e8e81-95f3-4ec6-93eb-8dd0ca8a87e1"},"vehicle_type_id":"4","last_reported":1691172489,"current_range_meters":18800,"station_id":"ce4bgup2rcd13ifvqco0","pricing_plan_id":"free"},{"bike_id":"1d2a28e8-b235-4109-a57a-59e0fa16c591","system_id":"levelo_inurba_marseille","lat":43.3095,"lon":5.39031,"is_reserved":false,"is_disabled":false,"rental_uris":{"android":"levelo://app?vid=1d2a28e8-b235-4109-a57a-59e0fa16c591","ios":"levelo://app?vid=1d2a28e8-b235-4109-a57a-59e0fa16c591"},"vehicle_type_id":"4","last_reported":1691172489,"current_range_meters":15600,"station_id":"ce4bgup2rcd13ifvqco0","pricing_plan_id":"free"},{"bike_id":"63096b88-9083-4eb9-9216-4b36fd764a8f","system_id":"levelo_inurba_marseille","lat":43.3096,"lon":5.39036,"is_reserved":false,"is_disabled":false,"rental_uris":{"android":"levelo://app?vid=63096b88-9083-4eb9-9216-4b36fd764a8f","ios":"levelo://app?vid=63096b88-9083-4eb9-9216-4b36fd764a8f"},"vehicle_type_id":"4","last_reported":1691172489,"current_range_meters":30800,"station_id":"ce4bgup2rcd13ifvqco0","pricing_plan_id":"free"},{"bike_id":"5ee73636-ab6c-4db3-9e1d-b7ba13a076aa","system_id":"levelo_inurba_marseille","lat":43.309589,"lon":5.390258,"is_reserved":false,"is_disabled":false,"rental_uris":{"android":"levelo://app?vid=5ee73636-ab6c-4db3-9e1d-b7ba13a076aa","ios":"levelo://app?vid=5ee73636-ab6c-4db3-9e1d-b7ba13a076aa"},"vehicle_type_id":"4","last_reported":1691172489,"current_range_meters":28400,"station_id":"ce4bgup2rcd13ifvqco0","pricing_plan_id":"free"},{"bike_id":"20fee66d-8701-4dbd-9943-9a0c3b4b22ca","system_id":"levelo_inurba_marseille","lat":43.309589,"lon":5.390258,"is_reserved":false,"is_disabled":false,"rental_uris":{"android":"levelo://app?vid=20fee66d-8701-4dbd-9943-9a0c3b4b22ca","ios":"levelo://app?vid=20fee66d-8701-4dbd-9943-9a0c3b4b22ca"},"vehicle_type_id":"4","last_reported":1691172489,"current_range_meters":21200,"station_id":"ce4bgup2rcd13ifvqco0","pricing_plan_id":"free"},{"bike_id":"d928f4a2-2cce-4e2f-b17e-c1131eb637cc","system_id":"levelo_inurba_marseille","lat":43.309589,"lon":5.390258,"is_reserved":false,"is_disabled":false,"rental_uris":{"android":"levelo://app?vid=d928f4a2-2cce-4e2f-b17e-c1131eb637cc","ios":"levelo://app?vid=d928f4a2-2cce-4e2f-b17e-c1131eb637cc"},"vehicle_type_id":"4","last_reported":1691172489,"current_range_meters":27600,"station_id":"ce4bgup2rcd13ifvqco0","pricing_plan_id":"free"},{"bike_id":"1b58ab06-e110-4265-98fb-3d1c4d88df16","system_id":"levelo_inurba_marseille","lat":43.309589,"lon":5.390258,"is_reserved":false,"is_disabled":false,"rental_uris":{"android":"levelo://app?vid=1b58ab06-e110-4265-98fb-3d1c4d88df16","ios":"levelo://app?vid=1b58ab06-e110-4265-98fb-3d1c4d88df16"},"vehicle_type_id":"4","last_reported":1691172489,"current_range_meters":31200,"station_id":"ce4bgup2rcd13ifvqco0","pricing_plan_id":"free"},{"bike_id":"f36608ba-2330-4f64-afa4-f1f49311ca56","system_id":"levelo_inurba_marseille","lat":43.30961,"lon":5.39046,"is_reserved":false,"is_disabled":false,"rental_uris":{"android":"levelo://app?vid=f36608ba-2330-4f64-afa4-f1f49311ca56","ios":"levelo://app?vid=f36608ba-2330-4f64-afa4-f1f49311ca56"},"vehicle_type_id":"4","last_reported":1691172489,"current_range_meters":8800,"station_id":"ce4bgup2rcd13ifvqco0","pricing_plan_id":"free"},{"bike_id":"f0b1921d-8fc5-42f6-8214-26455e772ce5","system_id":"levelo_inurba_marseille","lat":43.309589,"lon":5.390258,"is_reserved":false,"is_disabled":false,"rental_uris":{"android":"levelo://app?vid=f0b1921d-8fc5-42f6-8214-26455e772ce5","ios":"levelo://app?vid=f0b1921d-8fc5-42f6-8214-26455e772ce5"},"vehicle_type_id":"4","last_reported":1691172489,"current_range_meters":26400,"station_id":"ce4bgup2rcd13ifvqco0","pricing_plan_id":"free"},{"bike_id":"dbf3e895-3443-4510-87b3-89535d12a2f0","system_id":"levelo_inurba_marseille","lat":43.309589,"lon":5.390258,"is_reserved":false,"is_disabled":false,"rental_uris":{"android":"levelo://app?vid=dbf3e895-3443-4510-87b3-89535d12a2f0","ios":"levelo://app?vid=dbf3e895-3443-4510-87b3-89535d12a2f0"},"vehicle_type_id":"4","last_reported":1691172489,"current_range_meters":31200,"station_id":"ce4bgup2rcd13ifvqco0","pricing_plan_id":"free"},{"bike_id":"4879b09e-5533-49cc-808c-be115b214b19","system_id":"levelo_inurba_marseille","lat":43.317557,"lon":5.390173,"is_reserved":false,"is_disabled":false,"rental_uris":{"android":"levelo://app?vid=4879b09e-5533-49cc-808c-be115b214b19","ios":"levelo://app?vid=4879b09e-5533-49cc-808c-be115b214b19"},"vehicle_type_id":"4","last_reported":1691172489,"current_range_meters":25600,"station_id":"ce4bhqp2rcd13ifvqhng","pricing_plan_id":"free"},{"bike_id":"fb5d1b63-b2f2-4d34-b700-b062bf6b4e69","system_id":"levelo_inurba_marseille","lat":43.317557,"lon":5.390173,"is_reserved":false,"is_disabled":false,"rental_uris":{"android":"levelo://app?vid=fb5d1b63-b2f2-4d34-b700-b062bf6b4e69","ios":"levelo://app?vid=fb5d1b63-b2f2-4d34-b700-b062bf6b4e69"},"vehicle_type_id":"4","last_reported":1691172489,"current_range_meters":31200,"station_id":"ce4bhqp2rcd13ifvqhng","pricing_plan_id":"free"},{"bike_id":"e9c2df05-b501-4869-8e98-5af0faecaf8b","system_id":"levelo_inurba_marseille","lat":43.309589,"lon":5.390258,"is_reserved":false,"is_disabled":false,"rental_uris":{"android":"levelo://app?vid=e9c2df05-b501-4869-8e98-5af0faecaf8b","ios":"levelo://app?vid=e9c2df05-b501-4869-8e98-5af0faecaf8b"},"vehicle_type_id":"4","last_reported":1691172489,"current_range_meters":31200,"station_id":"ce4bgup2rcd13ifvqco0","pricing_plan_id":"free"},{"bike_id":"90569ba5-8bb9-4d2d-b876-dc35e42f9a0c","system_id":"levelo_inurba_marseille","lat":43.317557,"lon":5.390173,"is_reserved":false,"is_disabled":false,"rental_uris":{"android":"levelo://app?vid=90569ba5-8bb9-4d2d-b876-dc35e42f9a0c","ios":"levelo://app?vid=90569ba5-8bb9-4d2d-b876-dc35e42f9a0c"},"vehicle_type_id":"4","last_reported":1691172489,"current_range_meters":31200,"station_id":"ce4bhqp2rcd13ifvqhng","pricing_plan_id":"free"},{"bike_id":"c070a522-6c17-4333-a9ee-bbef4dc643ed","system_id":"levelo_inurba_marseille","lat":43.317557,"lon":5.390173,"is_reserved":false,"is_disabled":false,"rental_uris":{"android":"levelo://app?vid=c070a522-6c17-4333-a9ee-bbef4dc643ed","ios":"levelo://app?vid=c070a522-6c17-4333-a9ee-bbef4dc643ed"},"vehicle_type_id":"4","last_reported":1691172489,"current_range_meters":31200,"station_id":"ce4bhqp2rcd13ifvqhng","pricing_plan_id":"free"},{"bike_id":"29f2bfc8-65a3-4186-954b-bc2f5749caf2","system_id":"levelo_inurba_marseille","lat":43.317557,"lon":5.390173,"is_reserved":false,"is_disabled":false,"rental_uris":{"android":"levelo://app?vid=29f2bfc8-65a3-4186-954b-bc2f5749caf2","ios":"levelo://app?vid=29f2bfc8-65a3-4186-954b-bc2f5749caf2"},"vehicle_type_id":"4","last_reported":1691172489,"current_range_meters":22400,"station_id":"ce4bhqp2rcd13ifvqhng","pricing_plan_id":"free"},{"bike_id":"7c42d25f-0594-4878-9427-296e3ebfad1f","system_id":"levelo_inurba_marseille","lat":43.317557,"lon":5.390173,"is_reserved":false,"is_disabled":false,"rental_uris":{"android":"levelo://app?vid=7c42d25f-0594-4878-9427-296e3ebfad1f","ios":"levelo://app?vid=7c42d25f-0594-4878-9427-296e3ebfad1f"},"vehicle_type_id":"4","last_reported":1691172489,"current_range_meters":31200,"station_id":"ce4bhqp2rcd13ifvqhng","pricing_plan_id":"free"},{"bike_id":"b2f3081d-803f-4500-a8ce-732227ecc1a7","system_id":"levelo_inurba_marseille","lat":43.317557,"lon":5.390173,"is_reserved":false,"is_disabled":false,"rental_uris":{"android":"levelo://app?vid=b2f3081d-803f-4500-a8ce-732227ecc1a7","ios":"levelo://app?vid=b2f3081d-803f-4500-a8ce-732227ecc1a7"},"vehicle_type_id":"4","last_reported":1691172489,"current_range_meters":26800,"station_id":"ce4bhqp2rcd13ifvqhng","pricing_plan_id":"free"},{"bike_id":"a33c50e5-f281-44cd-9f79-2bbaac7e53eb","system_id":"levelo_inurba_marseille","lat":43.298037,"lon":5.381066,"is_reserved":false,"is_disabled":false,"rental_uris":{"android":"levelo://app?vid=a33c50e5-f281-44cd-9f79-2bbaac7e53eb","ios":"levelo://app?vid=a33c50e5-f281-44cd-9f79-2bbaac7e53eb"},"vehicle_type_id":"4","last_reported":1691172489,"current_range_meters":20800,"station_id":"ce4bgip2rcd13ifvqbb0","pricing_plan_id":"free"},{"bike_id":"a190f493-c777-4160-bc1f-0915dde2a4ac","system_id":"levelo_inurba_marseille","lat":43.295748,"lon":5.37522,"is_reserved":false,"is_disabled":false,"rental_uris":{"android":"levelo://app?vid=a190f493-c777-4160-bc1f-0915dde2a4ac","ios":"levelo://app?vid=a190f493-c777-4160-bc1f-0915dde2a4ac"},"vehicle_type_id":"4","last_reported":1691172489,"current_range_meters":22800,"station_id":"ce4bgh92rcd13ifvqb50","pricing_plan_id":"free"},{"bike_id":"6633f015-328b-4fc7-9202-2c32f3537c22","system_id":"levelo_inurba_marseille","lat":43.30432,"lon":5.3889,"is_reserved":false,"is_disabled":false,"rental_uris":{"android":"levelo://app?vid=6633f015-328b-4fc7-9202-2c32f3537c22","ios":"levelo://app?vid=6633f015-328b-4fc7-9202-2c32f3537c22"},"vehicle_type_id":"4","last_reported":1691172489,"current_range_meters":0,"station_id":"ce4bgk12rcd13ifvqbi0","pricing_plan_id":"free"},{"bike_id":"af7a7bc4-15fb-4623-b97b-247726850d7c","system_id":"levelo_inurba_marseille","lat":43.295748,"lon":5.37522,"is_reserved":false,"is_disabled":false,"rental_uris":{"android":"levelo://app?vid=af7a7bc4-15fb-4623-b97b-247726850d7c","ios":"levelo://app?vid=af7a7bc4-15fb-4623-b97b-247726850d7c"},"vehicle_type_id":"4","last_reported":1691172489,"current_range_meters":22000,"station_id":"ce4bgh92rcd13ifvqb50","pricing_plan_id":"free"},{"bike_id":"8a049490-30fc-4ec8-a2d7-92552c46ba88","system_id":"levelo_inurba_marseille","lat":43.30432,"lon":5.38898,"is_reserved":false,"is_disabled":false,"rental_uris":{"android":"levelo://app?vid=8a049490-30fc-4ec8-a2d7-92552c46ba88","ios":"levelo://app?vid=8a049490-30fc-4ec8-a2d7-92552c46ba88"},"vehicle_type_id":"4","last_reported":1691172489,"current_range_meters":24000,"station_id":"ce4bgk12rcd13ifvqbi0","pricing_plan_id":"free"},{"bike_id":"a62baa06-b318-42e3-a89d-39175a4eb434","system_id":"levelo_inurba_marseille","lat":43.2962,"lon":5.37728,"is_reserved":false,"is_disabled":false,"rental_uris":{"android":"levelo://app?vid=a62baa06-b318-42e3-a89d-39175a4eb434","ios":"levelo://app?vid=a62baa06-b318-42e3-a89d-39175a4eb434"},"vehicle_type_id":"4","last_reported":1691172489,"current_range_meters":14400,"station_id":"ce4bgi92rcd13ifvqb90","pricing_plan_id":"free"},{"bike_id":"b7be1bdd-765e-479b-a15f-ac17efcb89cb","system_id":"levelo_inurba_marseille","lat":43.29976,"lon":5.38487,"is_reserved":false,"is_disabled":false,"rental_uris":{"android":"levelo://app?vid=b7be1bdd-765e-479b-a15f-ac17efcb89cb","ios":"levelo://app?vid=b7be1bdd-765e-479b-a15f-ac17efcb89cb"},"vehicle_type_id":"4","last_reported":1691172489,"current_range_meters":12800,"station_id":"ce4bgj92rcd13ifvqbd0","pricing_plan_id":"free"},{"bike_id":"94a626f4-5519-46cd-bc1d-addd489bf37d","system_id":"levelo_inurba_marseille","lat":43.299724,"lon":5.384848,"is_reserved":false,"is_disabled":false,"rental_uris":{"android":"levelo://app?vid=94a626f4-5519-46cd-bc1d-addd489bf37d","ios":"levelo://app?vid=94a626f4-5519-46cd-bc1d-addd489bf37d"},"vehicle_type_id":"4","last_reported":1691172489,"current_range_meters":18800,"station_id":"ce4bgj92rcd13ifvqbd0","pricing_plan_id":"free"},{"bike_id":"38394f1e-225a-49e5-aef1-a199524cfc8f","system_id":"levelo_inurba_marseille","lat":43.299707,"lon":5.384859,"is_reserved":false,"is_disabled":false,"rental_uris":{"android":"levelo://app?vid=38394f1e-225a-49e5-aef1-a199524cfc8f","ios":"levelo://app?vid=38394f1e-225a-49e5-aef1-a199524cfc8f"},"vehicle_type_id":"4","last_reported":1691172489,"current_range_meters":14800,"station_id":"ce4bgj92rcd13ifvqbd0","pricing_plan_id":"free"},{"bike_id":"97222ea2-391e-45b6-bc85-b55109c0b210","system_id":"levelo_inurba_marseille","lat":43.299707,"lon":5.384859,"is_reserved":false,"is_disabled":false,"rental_uris":{"android":"levelo://app?vid=97222ea2-391e-45b6-bc85-b55109c0b210","ios":"levelo://app?vid=97222ea2-391e-45b6-bc85-b55109c0b210"},"vehicle_type_id":"4","last_reported":1691172489,"current_range_meters":9600,"station_id":"ce4bgj92rcd13ifvqbd0","pricing_plan_id":"free"},{"bike_id":"7b3c811b-55d3-415c-9fd4-58ec02592391","system_id":"levelo_inurba_marseille","lat":43.29968,"lon":5.3849,"is_reserved":false,"is_disabled":false,"rental_uris":{"android":"levelo://app?vid=7b3c811b-55d3-415c-9fd4-58ec02592391","ios":"levelo://app?vid=7b3c811b-55d3-415c-9fd4-58ec02592391"},"vehicle_type_id":"4","last_reported":1691172489,"current_range_meters":10400,"station_id":"ce4bgj92rcd13ifvqbd0","pricing_plan_id":"free"},{"bike_id":"800f213c-f316-4987-8b91-b6eaa326b0e6","system_id":"levelo_inurba_marseille","lat":43.299724,"lon":5.384848,"is_reserved":false,"is_disabled":false,"rental_uris":{"android":"levelo://app?vid=800f213c-f316-4987-8b91-b6eaa326b0e6","ios":"levelo://app?vid=800f213c-f316-4987-8b91-b6eaa326b0e6"},"vehicle_type_id":"4","last_reported":1691172489,"current_range_meters":20800,"station_id":"ce4bgj92rcd13ifvqbd0","pricing_plan_id":"free"},{"bike_id":"f0e2f62a-ceb5-47d4-b421-4d2f180ee108","system_id":"levelo_inurba_marseille","lat":43.29969,"lon":5.38493,"is_reserved":false,"is_disabled":false,"rental_uris":{"android":"levelo://app?vid=f0e2f62a-ceb5-47d4-b421-4d2f180ee108","ios":"levelo://app?vid=f0e2f62a-ceb5-47d4-b421-4d2f180ee108"},"vehicle_type_id":"4","last_reported":1691172489,"current_range_meters":400,"station_id":"ce4bgj92rcd13ifvqbd0","pricing_plan_id":"free"},{"bike_id":"fdaaaa32-6109-48f5-b025-6cbb1933e2fc","system_id":"levelo_inurba_marseille","lat":43.29971,"lon":5.38496,"is_reserved":false,"is_disabled":false,"rental_uris":{"android":"levelo://app?vid=fdaaaa32-6109-48f5-b025-6cbb1933e2fc","ios":"levelo://app?vid=fdaaaa32-6109-48f5-b025-6cbb1933e2fc"},"vehicle_type_id":"4","last_reported":1691172489,"current_range_meters":19200,"station_id":"ce4bgj92rcd13ifvqbd0","pricing_plan_id":"free"},{"bike_id":"8b76a85d-625a-4583-8740-381400f5e7c1","system_id":"levelo_inurba_marseille","lat":43.29971,"lon":5.38496,"is_reserved":false,"is_disabled":false,"rental_uris":{"android":"levelo://app?vid=8b76a85d-625a-4583-8740-381400f5e7c1","ios":"levelo://app?vid=8b76a85d-625a-4583-8740-381400f5e7c1"},"vehicle_type_id":"4","last_reported":1691172489,"current_range_meters":11200,"station_id":"ce4bgj92rcd13ifvqbd0","pricing_plan_id":"free"},{"bike_id":"6b6890e6-ca4d-419a-a2e0-bda0d8f928d5","system_id":"levelo_inurba_marseille","lat":43.29973,"lon":5.385019,"is_reserved":false,"is_disabled":false,"rental_uris":{"android":"levelo://app?vid=6b6890e6-ca4d-419a-a2e0-bda0d8f928d5","ios":"levelo://app?vid=6b6890e6-ca4d-419a-a2e0-bda0d8f928d5"},"vehicle_type_id":"4","last_reported":1691172489,"current_range_meters":21600,"station_id":"ce4bgj92rcd13ifvqbd0","pricing_plan_id":"free"},{"bike_id":"77b46aaf-6825-45cb-8fda-5865da023891","system_id":"levelo_inurba_marseille","lat":43.29966,"lon":5.38493,"is_reserved":false,"is_disabled":false,"rental_uris":{"android":"levelo://app?vid=77b46aaf-6825-45cb-8fda-5865da023891","ios":"levelo://app?vid=77b46aaf-6825-45cb-8fda-5865da023891"},"vehicle_type_id":"4","last_reported":1691172489,"current_range_meters":6000,"station_id":"ce4bgj92rcd13ifvqbd0","pricing_plan_id":"free"},{"bike_id":"5f1c231d-5549-420b-a974-1b1406435a60","system_id":"levelo_inurba_marseille","lat":43.32367,"lon":5.388836,"is_reserved":false,"is_disabled":false,"rental_uris":{"android":"levelo://app?vid=5f1c231d-5549-420b-a974-1b1406435a60","ios":"levelo://app?vid=5f1c231d-5549-420b-a974-1b1406435a60"},"vehicle_type_id":"4","last_reported":1691172489,"current_range_meters":25200,"station_id":"ce4bhqp2rcd13ifvqhog","pricing_plan_id":"free"},{"bike_id":"ee373f4b-d04e-43ef-92b8-3105e264ba5d","system_id":"levelo_inurba_marseille","lat":43.32367,"lon":5.388836,"is_reserved":false,"is_disabled":false,"rental_uris":{"android":"levelo://app?vid=ee373f4b-d04e-43ef-92b8-3105e264ba5d","ios":"levelo://app?vid=ee373f4b-d04e-43ef-92b8-3105e264ba5d"},"vehicle_type_id":"4","last_reported":1691172489,"current_range_meters":26000,"station_id":"ce4bhqp2rcd13ifvqhog","pricing_plan_id":"free"},{"bike_id":"153806a9-c106-4acb-8efe-f81ba29b58d3","system_id":"levelo_inurba_marseille","lat":43.32366,"lon":5.38882,"is_reserved":false,"is_disabled":false,"rental_uris":{"android":"levelo://app?vid=153806a9-c106-4acb-8efe-f81ba29b58d3","ios":"levelo://app?vid=153806a9-c106-4acb-8efe-f81ba29b58d3"},"vehicle_type_id":"4","last_reported":1691172489,"current_range_meters":28000,"station_id":"ce4bhqp2rcd13ifvqhog","pricing_plan_id":"free"},{"bike_id":"3d2edb57-516f-41bc-985e-42a721904578","system_id":"levelo_inurba_marseille","lat":43.32366,"lon":5.38883,"is_reserved":false,"is_disabled":false,"rental_uris":{"android":"levelo://app?vid=3d2edb57-516f-41bc-985e-42a721904578","ios":"levelo://app?vid=3d2edb57-516f-41bc-985e-42a721904578"},"vehicle_type_id":"4","last_reported":1691172489,"current_range_meters":24800,"station_id":"ce4bhqp2rcd13ifvqhog","pricing_plan_id":"free"},{"bike_id":"96f00858-7ccf-44e7-9455-b35b0cbd49b5","system_id":"levelo_inurba_marseille","lat":43.323676,"lon":5.388816,"is_reserved":false,"is_disabled":false,"rental_uris":{"android":"levelo://app?vid=96f00858-7ccf-44e7-9455-b35b0cbd49b5","ios":"levelo://app?vid=96f00858-7ccf-44e7-9455-b35b0cbd49b5"},"vehicle_type_id":"4","last_reported":1691172489,"current_range_meters":10400,"station_id":"","pricing_plan_id":"free"},{"bike_id":"34ef5601-8765-4b80-bdc1-e9818152ffab","system_id":"levelo_inurba_marseille","lat":43.32367,"lon":5.38883,"is_reserved":false,"is_disabled":false,"rental_uris":{"android":"levelo://app?vid=34ef5601-8765-4b80-bdc1-e9818152ffab","ios":"levelo://app?vid=34ef5601-8765-4b80-bdc1-e9818152ffab"},"vehicle_type_id":"4","last_reported":1691172489,"current_range_meters":28800,"station_id":"ce4bhqp2rcd13ifvqhog","pricing_plan_id":"free"},{"bike_id":"776a12c1-613f-455f-9054-7d597d7fc017","system_id":"levelo_inurba_marseille","lat":43.32367,"lon":5.388836,"is_reserved":false,"is_disabled":false,"rental_uris":{"android":"levelo://app?vid=776a12c1-613f-455f-9054-7d597d7fc017","ios":"levelo://app?vid=776a12c1-613f-455f-9054-7d597d7fc017"},"vehicle_type_id":"4","last_reported":1691172489,"current_range_meters":0,"station_id":"ce4bhqp2rcd13ifvqhog","pricing_plan_id":"free"},{"bike_id":"6be534a9-96c6-4989-b3bb-e9dea76376c4","system_id":"levelo_inurba_marseille","lat":43.32367,"lon":5.388836,"is_reserved":false,"is_disabled":false,"rental_uris":{"android":"levelo://app?vid=6be534a9-96c6-4989-b3bb-e9dea76376c4","ios":"levelo://app?vid=6be534a9-96c6-4989-b3bb-e9dea76376c4"},"vehicle_type_id":"4","last_reported":1691172489,"current_range_meters":10400,"station_id":"ce4bhqp2rcd13ifvqhog","pricing_plan_id":"free"},{"bike_id":"abcfa163-72cb-45d0-ab83-5c89fa71e59c","system_id":"levelo_inurba_marseille","lat":43.293281,"lon":5.37181,"is_reserved":false,"is_disabled":false,"rental_uris":{"android":"levelo://app?vid=abcfa163-72cb-45d0-ab83-5c89fa71e59c","ios":"levelo://app?vid=abcfa163-72cb-45d0-ab83-5c89fa71e59c"},"vehicle_type_id":"4","last_reported":1691172489,"current_range_meters":2000,"station_id":"","pricing_plan_id":"free"},{"bike_id":"9d20d67b-17ae-4886-95dd-2b9e68e9fb6a","system_id":"levelo_inurba_marseille","lat":43.292749,"lon":5.368402,"is_reserved":false,"is_disabled":false,"rental_uris":{"android":"levelo://app?vid=9d20d67b-17ae-4886-95dd-2b9e68e9fb6a","ios":"levelo://app?vid=9d20d67b-17ae-4886-95dd-2b9e68e9fb6a"},"vehicle_type_id":"4","last_reported":1691172489,"current_range_meters":6400,"station_id":"ce4bhbp2rcd13ifvqesg","pricing_plan_id":"free"},{"bike_id":"902d54e8-819b-49e0-b7a4-54cf63e4ee99","system_id":"levelo_inurba_marseille","lat":43.292749,"lon":5.368398,"is_reserved":false,"is_disabled":false,"rental_uris":{"android":"levelo://app?vid=902d54e8-819b-49e0-b7a4-54cf63e4ee99","ios":"levelo://app?vid=902d54e8-819b-49e0-b7a4-54cf63e4ee99"},"vehicle_type_id":"4","last_reported":1691172489,"current_range_meters":23200,"station_id":"ce4bhbp2rcd13ifvqesg","pricing_plan_id":"free"},{"bike_id":"6a247d2c-8c93-42b5-89a0-aa6706f686c1","system_id":"levelo_inurba_marseille","lat":43.293009,"lon":5.374584,"is_reserved":false,"is_disabled":false,"rental_uris":{"android":"levelo://app?vid=6a247d2c-8c93-42b5-89a0-aa6706f686c1","ios":"levelo://app?vid=6a247d2c-8c93-42b5-89a0-aa6706f686c1"},"vehicle_type_id":"4","last_reported":1691172489,"current_range_meters":17200,"station_id":"ce4bgi12rcd13ifvqb70","pricing_plan_id":"free"},{"bike_id":"a51a57da-1bd7-473d-a9b4-036b99f85bc9","system_id":"levelo_inurba_marseille","lat":43.302992,"lon":5.392136,"is_reserved":false,"is_disabled":false,"rental_uris":{"android":"levelo://app?vid=a51a57da-1bd7-473d-a9b4-036b99f85bc9","ios":"levelo://app?vid=a51a57da-1bd7-473d-a9b4-036b99f85bc9"},"vehicle_type_id":"4","last_reported":1691172489,"current_range_meters":7600,"station_id":"ce4bgkh2rcd13ifvqbk0","pricing_plan_id":"free"},{"bike_id":"24bc22b0-8586-482d-9e2d-17882ef874ae","system_id":"levelo_inurba_marseille","lat":43.30299,"lon":5.39225,"is_reserved":false,"is_disabled":false,"rental_uris":{"android":"levelo://app?vid=24bc22b0-8586-482d-9e2d-17882ef874ae","ios":"levelo://app?vid=24bc22b0-8586-482d-9e2d-17882ef874ae"},"vehicle_type_id":"4","last_reported":1691172489,"current_range_meters":30400,"station_id":"ce4bgkh2rcd13ifvqbk0","pricing_plan_id":"free"},{"bike_id":"88a7c3fd-53d6-474c-bb40-171184daccd4","system_id":"levelo_inurba_marseille","lat":43.300852,"lon":5.390859,"is_reserved":false,"is_disabled":false,"rental_uris":{"android":"levelo://app?vid=88a7c3fd-53d6-474c-bb40-171184daccd4","ios":"levelo://app?vid=88a7c3fd-53d6-474c-bb40-171184daccd4"},"vehicle_type_id":"4","last_reported":1691172489,"current_range_meters":0,"station_id":"ce4bh192rcd13ifvqdb0","pricing_plan_id":"free"},{"bike_id":"9d5f430e-7b3f-4420-8304-d789cd360a75","system_id":"levelo_inurba_marseille","lat":43.300852,"lon":5.390859,"is_reserved":false,"is_disabled":false,"rental_uris":{"android":"levelo://app?vid=9d5f430e-7b3f-4420-8304-d789cd360a75","ios":"levelo://app?vid=9d5f430e-7b3f-4420-8304-d789cd360a75"},"vehicle_type_id":"4","last_reported":1691172489,"current_range_meters":4000,"station_id":"ce4bh192rcd13ifvqdb0","pricing_plan_id":"free"},{"bike_id":"d2806ea3-ec85-4e38-a08d-6ee24af21a59","system_id":"levelo_inurba_marseille","lat":43.300852,"lon":5.390859,"is_reserved":false,"is_disabled":false,"rental_uris":{"android":"levelo://app?vid=d2806ea3-ec85-4e38-a08d-6ee24af21a59","ios":"levelo://app?vid=d2806ea3-ec85-4e38-a08d-6ee24af21a59"},"vehicle_type_id":"4","last_reported":1691172489,"current_range_meters":28400,"station_id":"ce4bh192rcd13ifvqdb0","pricing_plan_id":"free"},{"bike_id":"84a084ad-ed45-46ad-af6e-4910d601b8ff","system_id":"levelo_inurba_marseille","lat":43.30085,"lon":5.390856,"is_reserved":false,"is_disabled":false,"rental_uris":{"android":"levelo://app?vid=84a084ad-ed45-46ad-af6e-4910d601b8ff","ios":"levelo://app?vid=84a084ad-ed45-46ad-af6e-4910d601b8ff"},"vehicle_type_id":"4","last_reported":1691172489,"current_range_meters":9200,"station_id":"ce4bh192rcd13ifvqdb0","pricing_plan_id":"free"},{"bike_id":"8dc44564-93e4-4a80-b5b5-95da0acb1f82","system_id":"levelo_inurba_marseille","lat":43.30085,"lon":5.390856,"is_reserved":false,"is_disabled":false,"rental_uris":{"android":"levelo://app?vid=8dc44564-93e4-4a80-b5b5-95da0acb1f82","ios":"levelo://app?vid=8dc44564-93e4-4a80-b5b5-95da0acb1f82"},"vehicle_type_id":"4","last_reported":1691172489,"current_range_meters":26000,"station_id":"ce4bh192rcd13ifvqdb0","pricing_plan_id":"free"},{"bike_id":"8c456c83-e11e-4caa-8bec-c58682ef0143","system_id":"levelo_inurba_marseille","lat":43.29172,"lon":5.3716,"is_reserved":false,"is_disabled":false,"rental_uris":{"android":"levelo://app?vid=8c456c83-e11e-4caa-8bec-c58682ef0143","ios":"levelo://app?vid=8c456c83-e11e-4caa-8bec-c58682ef0143"},"vehicle_type_id":"4","last_reported":1691172489,"current_range_meters":6400,"station_id":"ce4bha92rcd13ifvqeh0","pricing_plan_id":"free"},{"bike_id":"0853fcc1-a4af-43aa-941e-1a9fd722d7f3","system_id":"levelo_inurba_marseille","lat":43.29884,"lon":5.3891,"is_reserved":false,"is_disabled":false,"rental_uris":{"android":"levelo://app?vid=0853fcc1-a4af-43aa-941e-1a9fd722d7f3","ios":"levelo://app?vid=0853fcc1-a4af-43aa-941e-1a9fd722d7f3"},"vehicle_type_id":"4","last_reported":1691172489,"current_range_meters":12800,"station_id":"ce4bh392rcd13ifvqdl0","pricing_plan_id":"free"},{"bike_id":"f4a544c0-e10e-44ee-bfe9-d96e9a8177d0","system_id":"levelo_inurba_marseille","lat":43.29873,"lon":5.38898,"is_reserved":false,"is_disabled":false,"rental_uris":{"android":"levelo://app?vid=f4a544c0-e10e-44ee-bfe9-d96e9a8177d0","ios":"levelo://app?vid=f4a544c0-e10e-44ee-bfe9-d96e9a8177d0"},"vehicle_type_id":"4","last_reported":1691172489,"current_range_meters":21600,"station_id":"ce4bh392rcd13ifvqdl0","pricing_plan_id":"free"},{"bike_id":"02a16a81-c52e-4195-946a-902675d2b807","system_id":"levelo_inurba_marseille","lat":43.29878,"lon":5.38904,"is_reserved":false,"is_disabled":false,"rental_uris":{"android":"levelo://app?vid=02a16a81-c52e-4195-946a-902675d2b807","ios":"levelo://app?vid=02a16a81-c52e-4195-946a-902675d2b807"},"vehicle_type_id":"4","last_reported":1691172489,"current_range_meters":2800,"station_id":"ce4bh392rcd13ifvqdl0","pricing_plan_id":"free"},{"bike_id":"2ffae21c-d031-4a21-add9-0d135c4d22f4","system_id":"levelo_inurba_marseille","lat":43.292663,"lon":5.376389,"is_reserved":false,"is_disabled":false,"rental_uris":{"android":"levelo://app?vid=2ffae21c-d031-4a21-add9-0d135c4d22f4","ios":"levelo://app?vid=2ffae21c-d031-4a21-add9-0d135c4d22f4"},"vehicle_type_id":"4","last_reported":1691172489,"current_range_meters":26000,"station_id":"ce4bgi12rcd13ifvqb80","pricing_plan_id":"free"},{"bike_id":"0c872fac-4908-4c2b-8165-2f366f0421b8","system_id":"levelo_inurba_marseille","lat":43.313274,"lon":5.396859,"is_reserved":false,"is_disabled":false,"rental_uris":{"android":"levelo://app?vid=0c872fac-4908-4c2b-8165-2f366f0421b8","ios":"levelo://app?vid=0c872fac-4908-4c2b-8165-2f366f0421b8"},"vehicle_type_id":"4","last_reported":1691172489,"current_range_meters":30400,"station_id":"ce4bgvp2rcd13ifvqcu0","pricing_plan_id":"free"},{"bike_id":"ce9af7e8-c390-4052-bc70-643c83bd28f0","system_id":"levelo_inurba_marseille","lat":43.313275,"lon":5.396871,"is_reserved":false,"is_disabled":false,"rental_uris":{"android":"levelo://app?vid=ce9af7e8-c390-4052-bc70-643c83bd28f0","ios":"levelo://app?vid=ce9af7e8-c390-4052-bc70-643c83bd28f0"},"vehicle_type_id":"4","last_reported":1691172489,"current_range_meters":30400,"station_id":"ce4bgvp2rcd13ifvqcu0","pricing_plan_id":"free"},{"bike_id":"f658cc07-f5e0-423a-8a7c-7e55f616772f","system_id":"levelo_inurba_marseille","lat":43.31332,"lon":5.39688,"is_reserved":false,"is_disabled":false,"rental_uris":{"android":"levelo://app?vid=f658cc07-f5e0-423a-8a7c-7e55f616772f","ios":"levelo://app?vid=f658cc07-f5e0-423a-8a7c-7e55f616772f"},"vehicle_type_id":"4","last_reported":1691172489,"current_range_meters":28000,"station_id":"ce4bgvp2rcd13ifvqcu0","pricing_plan_id":"free"},{"bike_id":"6a78cfee-a0d7-4f90-b817-7d7948c89d9c","system_id":"levelo_inurba_marseille","lat":43.313277,"lon":5.396883,"is_reserved":false,"is_disabled":false,"rental_uris":{"android":"levelo://app?vid=6a78cfee-a0d7-4f90-b817-7d7948c89d9c","ios":"levelo://app?vid=6a78cfee-a0d7-4f90-b817-7d7948c89d9c"},"vehicle_type_id":"4","last_reported":1691172489,"current_range_meters":30400,"station_id":"ce4bgvp2rcd13ifvqcu0","pricing_plan_id":"free"},{"bike_id":"0288d276-f1da-474e-8992-fc865d32c018","system_id":"levelo_inurba_marseille","lat":43.313285,"lon":5.396884,"is_reserved":false,"is_disabled":false,"rental_uris":{"android":"levelo://app?vid=0288d276-f1da-474e-8992-fc865d32c018","ios":"levelo://app?vid=0288d276-f1da-474e-8992-fc865d32c018"},"vehicle_type_id":"4","last_reported":1691172489,"current_range_meters":30000,"station_id":"ce4bgvp2rcd13ifvqcu0","pricing_plan_id":"free"},{"bike_id":"152b437f-135a-41a9-8809-789f80214774","system_id":"levelo_inurba_marseille","lat":43.313311,"lon":5.396889,"is_reserved":false,"is_disabled":false,"rental_uris":{"android":"levelo://app?vid=152b437f-135a-41a9-8809-789f80214774","ios":"levelo://app?vid=152b437f-135a-41a9-8809-789f80214774"},"vehicle_type_id":"4","last_reported":1691172489,"current_range_meters":27600,"station_id":"ce4bgvp2rcd13ifvqcu0","pricing_plan_id":"free"},{"bike_id":"40b0dbf0-87f6-4363-b8e9-d1cac15b6861","system_id":"levelo_inurba_marseille","lat":43.31328,"lon":5.39689,"is_reserved":false,"is_disabled":false,"rental_uris":{"android":"levelo://app?vid=40b0dbf0-87f6-4363-b8e9-d1cac15b6861","ios":"levelo://app?vid=40b0dbf0-87f6-4363-b8e9-d1cac15b6861"},"vehicle_type_id":"4","last_reported":1691172489,"current_range_meters":30000,"station_id":"ce4bgvp2rcd13ifvqcu0","pricing_plan_id":"free"},{"bike_id":"732d6916-7d23-4824-bd9d-f12772e1f638","system_id":"levelo_inurba_marseille","lat":43.313283,"lon":5.396894,"is_reserved":false,"is_disabled":false,"rental_uris":{"android":"levelo://app?vid=732d6916-7d23-4824-bd9d-f12772e1f638","ios":"levelo://app?vid=732d6916-7d23-4824-bd9d-f12772e1f638"},"vehicle_type_id":"4","last_reported":1691172489,"current_range_meters":29600,"station_id":"ce4bgvp2rcd13ifvqcu0","pricing_plan_id":"free"},{"bike_id":"f6a422c5-99df-4ff3-b1ef-2857a67b6d3d","system_id":"levelo_inurba_marseille","lat":43.309038,"lon":5.396546,"is_reserved":false,"is_disabled":false,"rental_uris":{"android":"levelo://app?vid=f6a422c5-99df-4ff3-b1ef-2857a67b6d3d","ios":"levelo://app?vid=f6a422c5-99df-4ff3-b1ef-2857a67b6d3d"},"vehicle_type_id":"4","last_reported":1691172489,"current_range_meters":15200,"station_id":"ce4bh012rcd13ifvqcv0","pricing_plan_id":"free"},{"bike_id":"4e6846ae-36f1-4235-93d3-4da7c9b10477","system_id":"levelo_inurba_marseille","lat":43.3133,"lon":5.39695,"is_reserved":false,"is_disabled":false,"rental_uris":{"android":"levelo://app?vid=4e6846ae-36f1-4235-93d3-4da7c9b10477","ios":"levelo://app?vid=4e6846ae-36f1-4235-93d3-4da7c9b10477"},"vehicle_type_id":"4","last_reported":1691172489,"current_range_meters":26000,"station_id":"ce4bgvp2rcd13ifvqcu0","pricing_plan_id":"free"},{"bike_id":"4251a735-e31b-408b-a307-6a7f9695f762","system_id":"levelo_inurba_marseille","lat":43.30891,"lon":5.3965,"is_reserved":false,"is_disabled":false,"rental_uris":{"android":"levelo://app?vid=4251a735-e31b-408b-a307-6a7f9695f762","ios":"levelo://app?vid=4251a735-e31b-408b-a307-6a7f9695f762"},"vehicle_type_id":"4","last_reported":1691172489,"current_range_meters":17200,"station_id":"ce4bh012rcd13ifvqcv0","pricing_plan_id":"free"},{"bike_id":"40a7725f-bc55-4693-9c45-86bc7b0e8476","system_id":"levelo_inurba_marseille","lat":43.31334,"lon":5.39696,"is_reserved":false,"is_disabled":false,"rental_uris":{"android":"levelo://app?vid=40a7725f-bc55-4693-9c45-86bc7b0e8476","ios":"levelo://app?vid=40a7725f-bc55-4693-9c45-86bc7b0e8476"},"vehicle_type_id":"4","last_reported":1691172489,"current_range_meters":28400,"station_id":"ce4bgvp2rcd13ifvqcu0","pricing_plan_id":"free"},{"bike_id":"d1ffca73-7d13-4241-8f74-14210fca76f7","system_id":"levelo_inurba_marseille","lat":43.31334,"lon":5.39696,"is_reserved":false,"is_disabled":false,"rental_uris":{"android":"levelo://app?vid=d1ffca73-7d13-4241-8f74-14210fca76f7","ios":"levelo://app?vid=d1ffca73-7d13-4241-8f74-14210fca76f7"},"vehicle_type_id":"4","last_reported":1691172489,"current_range_meters":2400,"station_id":"ce4bgvp2rcd13ifvqcu0","pricing_plan_id":"free"},{"bike_id":"e5885a86-07d6-4fc2-ab47-5d8f29827370","system_id":"levelo_inurba_marseille","lat":43.31334,"lon":5.39697,"is_reserved":false,"is_disabled":false,"rental_uris":{"android":"levelo://app?vid=e5885a86-07d6-4fc2-ab47-5d8f29827370","ios":"levelo://app?vid=e5885a86-07d6-4fc2-ab47-5d8f29827370"},"vehicle_type_id":"4","last_reported":1691172489,"current_range_meters":29600,"station_id":"ce4bgvp2rcd13ifvqcu0","pricing_plan_id":"free"},{"bike_id":"ebbf0889-294e-4a97-b816-80e14ee272d5","system_id":"levelo_inurba_marseille","lat":43.313291,"lon":5.396838,"is_reserved":false,"is_disabled":false,"rental_uris":{"android":"levelo://app?vid=ebbf0889-294e-4a97-b816-80e14ee272d5","ios":"levelo://app?vid=ebbf0889-294e-4a97-b816-80e14ee272d5"},"vehicle_type_id":"4","last_reported":1691172489,"current_range_meters":26800,"station_id":"ce4bgvp2rcd13ifvqcu0","pricing_plan_id":"free"},{"bike_id":"05692133-629d-4dec-be09-d297bc4e7f91","system_id":"levelo_inurba_marseille","lat":43.309038,"lon":5.396546,"is_reserved":false,"is_disabled":false,"rental_uris":{"android":"levelo://app?vid=05692133-629d-4dec-be09-d297bc4e7f91","ios":"levelo://app?vid=05692133-629d-4dec-be09-d297bc4e7f91"},"vehicle_type_id":"4","last_reported":1691172489,"current_range_meters":17600,"station_id":"ce4bh012rcd13ifvqcv0","pricing_plan_id":"free"},{"bike_id":"5849e49e-e232-4e68-959d-1102f5ec93ee","system_id":"levelo_inurba_marseille","lat":43.309038,"lon":5.396546,"is_reserved":false,"is_disabled":false,"rental_uris":{"android":"levelo://app?vid=5849e49e-e232-4e68-959d-1102f5ec93ee","ios":"levelo://app?vid=5849e49e-e232-4e68-959d-1102f5ec93ee"},"vehicle_type_id":"4","last_reported":1691172489,"current_range_meters":10000,"station_id":"ce4bh012rcd13ifvqcv0","pricing_plan_id":"free"},{"bike_id":"b728c769-d8a4-4709-85b8-789660652a4d","system_id":"levelo_inurba_marseille","lat":43.308929,"lon":5.396644,"is_reserved":false,"is_disabled":false,"rental_uris":{"android":"levelo://app?vid=b728c769-d8a4-4709-85b8-789660652a4d","ios":"levelo://app?vid=b728c769-d8a4-4709-85b8-789660652a4d"},"vehicle_type_id":"4","last_reported":1691172489,"current_range_meters":9200,"station_id":"","pricing_plan_id":"free"},{"bike_id":"71fdcfb1-6718-4879-ba0f-1d3844d5e68a","system_id":"levelo_inurba_marseille","lat":43.29529,"lon":5.385581,"is_reserved":false,"is_disabled":false,"rental_uris":{"android":"levelo://app?vid=71fdcfb1-6718-4879-ba0f-1d3844d5e68a","ios":"levelo://app?vid=71fdcfb1-6718-4879-ba0f-1d3844d5e68a"},"vehicle_type_id":"4","last_reported":1691172489,"current_range_meters":26800,"station_id":"ce4bgih2rcd13ifvqba0","pricing_plan_id":"free"},{"bike_id":"e7b7dae2-909b-4e9d-bffa-b1be2463586c","system_id":"levelo_inurba_marseille","lat":43.30216,"lon":5.39468,"is_reserved":false,"is_disabled":false,"rental_uris":{"android":"levelo://app?vid=e7b7dae2-909b-4e9d-bffa-b1be2463586c","ios":"levelo://app?vid=e7b7dae2-909b-4e9d-bffa-b1be2463586c"},"vehicle_type_id":"4","last_reported":1691172489,"current_range_meters":10000,"station_id":"ce4bh0p2rcd13ifvqd70","pricing_plan_id":"free"},{"bike_id":"1049ea31-3d96-4d51-bcf9-3886bce1674d","system_id":"levelo_inurba_marseille","lat":43.30215,"lon":5.39473,"is_reserved":false,"is_disabled":false,"rental_uris":{"android":"levelo://app?vid=1049ea31-3d96-4d51-bcf9-3886bce1674d","ios":"levelo://app?vid=1049ea31-3d96-4d51-bcf9-3886bce1674d"},"vehicle_type_id":"4","last_reported":1691172489,"current_range_meters":5600,"station_id":"ce4bh0p2rcd13ifvqd70","pricing_plan_id":"free"},{"bike_id":"17b404bd-1069-409e-bc52-ef8b2b6fdc3c","system_id":"levelo_inurba_marseille","lat":43.290327,"lon":5.375711,"is_reserved":false,"is_disabled":false,"rental_uris":{"android":"levelo://app?vid=17b404bd-1069-409e-bc52-ef8b2b6fdc3c","ios":"levelo://app?vid=17b404bd-1069-409e-bc52-ef8b2b6fdc3c"},"vehicle_type_id":"4","last_reported":1691172489,"current_range_meters":10000,"station_id":"ce4bh692rcd13ifvqe90","pricing_plan_id":"free"},{"bike_id":"e9e042e7-c58f-4ac5-a33b-3a3933a4ec6d","system_id":"levelo_inurba_marseille","lat":43.28947,"lon":5.36395,"is_reserved":false,"is_disabled":false,"rental_uris":{"android":"levelo://app?vid=e9e042e7-c58f-4ac5-a33b-3a3933a4ec6d","ios":"levelo://app?vid=e9e042e7-c58f-4ac5-a33b-3a3933a4ec6d"},"vehicle_type_id":"4","last_reported":1691172489,"current_range_meters":0,"station_id":"ce4bhc92rcd13ifvqetg","pricing_plan_id":"free"},{"bike_id":"c3c3497a-62aa-48e1-be29-1cb2ea5b18a0","system_id":"levelo_inurba_marseille","lat":43.289184,"lon":5.366408,"is_reserved":false,"is_disabled":false,"rental_uris":{"android":"levelo://app?vid=c3c3497a-62aa-48e1-be29-1cb2ea5b18a0","ios":"levelo://app?vid=c3c3497a-62aa-48e1-be29-1cb2ea5b18a0"},"vehicle_type_id":"4","last_reported":1691172489,"current_range_meters":17200,"station_id":"ce4bhap2rcd13ifvqek0","pricing_plan_id":"free"},{"bike_id":"2dce046d-a78a-4857-a359-82bd6b5613dd","system_id":"levelo_inurba_marseille","lat":43.28943,"lon":5.36387,"is_reserved":false,"is_disabled":false,"rental_uris":{"android":"levelo://app?vid=2dce046d-a78a-4857-a359-82bd6b5613dd","ios":"levelo://app?vid=2dce046d-a78a-4857-a359-82bd6b5613dd"},"vehicle_type_id":"4","last_reported":1691172489,"current_range_meters":23600,"station_id":"","pricing_plan_id":"free"},{"bike_id":"653e477f-bd0d-4f74-b568-8358c7d5be1d","system_id":"levelo_inurba_marseille","lat":43.292644,"lon":5.384257,"is_reserved":false,"is_disabled":false,"rental_uris":{"android":"levelo://app?vid=653e477f-bd0d-4f74-b568-8358c7d5be1d","ios":"levelo://app?vid=653e477f-bd0d-4f74-b568-8358c7d5be1d"},"vehicle_type_id":"4","last_reported":1691172489,"current_range_meters":17600,"station_id":"ce4bh692rcd13ifvqea0","pricing_plan_id":"free"},{"bike_id":"49e8011e-80dc-4208-98d5-c3d7f2c4f816","system_id":"levelo_inurba_marseille","lat":43.292642,"lon":5.384254,"is_reserved":false,"is_disabled":false,"rental_uris":{"android":"levelo://app?vid=49e8011e-80dc-4208-98d5-c3d7f2c4f816","ios":"levelo://app?vid=49e8011e-80dc-4208-98d5-c3d7f2c4f816"},"vehicle_type_id":"4","last_reported":1691172489,"current_range_meters":25600,"station_id":"ce4bh692rcd13ifvqea0","pricing_plan_id":"free"},{"bike_id":"7095b2c0-caab-446b-adc5-675d85e14ffa","system_id":"levelo_inurba_marseille","lat":43.292642,"lon":5.384254,"is_reserved":false,"is_disabled":false,"rental_uris":{"android":"levelo://app?vid=7095b2c0-caab-446b-adc5-675d85e14ffa","ios":"levelo://app?vid=7095b2c0-caab-446b-adc5-675d85e14ffa"},"vehicle_type_id":"4","last_reported":1691172489,"current_range_meters":6000,"station_id":"ce4bh692rcd13ifvqea0","pricing_plan_id":"free"},{"bike_id":"5ef0193a-58f5-4268-a3fe-e1526173c8ce","system_id":"levelo_inurba_marseille","lat":43.292644,"lon":5.384257,"is_reserved":false,"is_disabled":false,"rental_uris":{"android":"levelo://app?vid=5ef0193a-58f5-4268-a3fe-e1526173c8ce","ios":"levelo://app?vid=5ef0193a-58f5-4268-a3fe-e1526173c8ce"},"vehicle_type_id":"4","last_reported":1691172489,"current_range_meters":4400,"station_id":"ce4bh692rcd13ifvqea0","pricing_plan_id":"free"},{"bike_id":"5e21811f-207b-48c6-9f31-474e23b6f493","system_id":"levelo_inurba_marseille","lat":43.292644,"lon":5.384257,"is_reserved":false,"is_disabled":false,"rental_uris":{"android":"levelo://app?vid=5e21811f-207b-48c6-9f31-474e23b6f493","ios":"levelo://app?vid=5e21811f-207b-48c6-9f31-474e23b6f493"},"vehicle_type_id":"4","last_reported":1691172489,"current_range_meters":19200,"station_id":"ce4bh692rcd13ifvqea0","pricing_plan_id":"free"},{"bike_id":"4ce4f7e9-79f2-48bc-9d1d-a4b9de83e383","system_id":"levelo_inurba_marseille","lat":43.304274,"lon":5.397513,"is_reserved":false,"is_disabled":false,"rental_uris":{"android":"levelo://app?vid=4ce4f7e9-79f2-48bc-9d1d-a4b9de83e383","ios":"levelo://app?vid=4ce4f7e9-79f2-48bc-9d1d-a4b9de83e383"},"vehicle_type_id":"4","last_reported":1691172489,"current_range_meters":14800,"station_id":"ce4bh092rcd13ifvqd20","pricing_plan_id":"free"},{"bike_id":"a22a898e-8830-4922-b9e0-9ea2f54e2c16","system_id":"levelo_inurba_marseille","lat":43.292644,"lon":5.384257,"is_reserved":false,"is_disabled":false,"rental_uris":{"android":"levelo://app?vid=a22a898e-8830-4922-b9e0-9ea2f54e2c16","ios":"levelo://app?vid=a22a898e-8830-4922-b9e0-9ea2f54e2c16"},"vehicle_type_id":"4","last_reported":1691172489,"current_range_meters":18800,"station_id":"ce4bh692rcd13ifvqea0","pricing_plan_id":"free"},{"bike_id":"f1602b45-0244-4487-ba61-cda76b517274","system_id":"levelo_inurba_marseille","lat":43.292644,"lon":5.384257,"is_reserved":false,"is_disabled":false,"rental_uris":{"android":"levelo://app?vid=f1602b45-0244-4487-ba61-cda76b517274","ios":"levelo://app?vid=f1602b45-0244-4487-ba61-cda76b517274"},"vehicle_type_id":"4","last_reported":1691172489,"current_range_meters":19600,"station_id":"ce4bh692rcd13ifvqea0","pricing_plan_id":"free"},{"bike_id":"58d9daa4-9c4c-4dbc-a91c-3eee752552f5","system_id":"levelo_inurba_marseille","lat":43.30486,"lon":5.3978,"is_reserved":false,"is_disabled":false,"rental_uris":{"android":"levelo://app?vid=58d9daa4-9c4c-4dbc-a91c-3eee752552f5","ios":"levelo://app?vid=58d9daa4-9c4c-4dbc-a91c-3eee752552f5"},"vehicle_type_id":"4","last_reported":1691172489,"current_range_meters":21600,"station_id":"","pricing_plan_id":"free"},{"bike_id":"ea423fb5-dd91-4da7-a2a5-f71f34eed232","system_id":"levelo_inurba_marseille","lat":43.2926,"lon":5.38444,"is_reserved":false,"is_disabled":false,"rental_uris":{"android":"levelo://app?vid=ea423fb5-dd91-4da7-a2a5-f71f34eed232","ios":"levelo://app?vid=ea423fb5-dd91-4da7-a2a5-f71f34eed232"},"vehicle_type_id":"4","last_reported":1691172489,"current_range_meters":20800,"station_id":"ce4bh692rcd13ifvqea0","pricing_plan_id":"free"},{"bike_id":"9ce62819-7d94-47c9-aff2-f56e39f0ba59","system_id":"levelo_inurba_marseille","lat":43.33035,"lon":5.38925,"is_reserved":false,"is_disabled":false,"rental_uris":{"android":"levelo://app?vid=9ce62819-7d94-47c9-aff2-f56e39f0ba59","ios":"levelo://app?vid=9ce62819-7d94-47c9-aff2-f56e39f0ba59"},"vehicle_type_id":"4","last_reported":1691172489,"current_range_meters":30400,"station_id":"ce4bhr92rcd13ifvqhrg","pricing_plan_id":"free"},{"bike_id":"f67edc25-bcc7-41fb-8431-1add679b0933","system_id":"levelo_inurba_marseille","lat":43.33044,"lon":5.38915,"is_reserved":false,"is_disabled":false,"rental_uris":{"android":"levelo://app?vid=f67edc25-bcc7-41fb-8431-1add679b0933","ios":"levelo://app?vid=f67edc25-bcc7-41fb-8431-1add679b0933"},"vehicle_type_id":"4","last_reported":1691172489,"current_range_meters":19600,"station_id":"ce4bhr92rcd13ifvqhrg","pricing_plan_id":"free"},{"bike_id":"98f910d2-52f4-4465-977e-10142d8cca43","system_id":"levelo_inurba_marseille","lat":43.33042,"lon":5.38919,"is_reserved":false,"is_disabled":false,"rental_uris":{"android":"levelo://app?vid=98f910d2-52f4-4465-977e-10142d8cca43","ios":"levelo://app?vid=98f910d2-52f4-4465-977e-10142d8cca43"},"vehicle_type_id":"4","last_reported":1691172489,"current_range_meters":20400,"station_id":"ce4bhr92rcd13ifvqhrg","pricing_plan_id":"free"},{"bike_id":"34fc0bae-b089-42d1-99d0-10d5b39f2b41","system_id":"levelo_inurba_marseille","lat":43.33042,"lon":5.38919,"is_reserved":false,"is_disabled":false,"rental_uris":{"android":"levelo://app?vid=34fc0bae-b089-42d1-99d0-10d5b39f2b41","ios":"levelo://app?vid=34fc0bae-b089-42d1-99d0-10d5b39f2b41"},"vehicle_type_id":"4","last_reported":1691172489,"current_range_meters":25600,"station_id":"ce4bhr92rcd13ifvqhrg","pricing_plan_id":"free"},{"bike_id":"e6c6e4e8-edee-449e-8936-76c8ef3752c4","system_id":"levelo_inurba_marseille","lat":43.33042,"lon":5.38919,"is_reserved":false,"is_disabled":false,"rental_uris":{"android":"levelo://app?vid=e6c6e4e8-edee-449e-8936-76c8ef3752c4","ios":"levelo://app?vid=e6c6e4e8-edee-449e-8936-76c8ef3752c4"},"vehicle_type_id":"4","last_reported":1691172489,"current_range_meters":22800,"station_id":"ce4bhr92rcd13ifvqhrg","pricing_plan_id":"free"},{"bike_id":"2f2d42a2-8de0-405f-9429-d3eae654394c","system_id":"levelo_inurba_marseille","lat":43.33044,"lon":5.38916,"is_reserved":false,"is_disabled":false,"rental_uris":{"android":"levelo://app?vid=2f2d42a2-8de0-405f-9429-d3eae654394c","ios":"levelo://app?vid=2f2d42a2-8de0-405f-9429-d3eae654394c"},"vehicle_type_id":"4","last_reported":1691172489,"current_range_meters":20800,"station_id":"ce4bhr92rcd13ifvqhrg","pricing_plan_id":"free"},{"bike_id":"976f718a-bfdb-4480-a757-e5b9a5d1a5d6","system_id":"levelo_inurba_marseille","lat":43.33046,"lon":5.38913,"is_reserved":false,"is_disabled":false,"rental_uris":{"android":"levelo://app?vid=976f718a-bfdb-4480-a757-e5b9a5d1a5d6","ios":"levelo://app?vid=976f718a-bfdb-4480-a757-e5b9a5d1a5d6"},"vehicle_type_id":"4","last_reported":1691172489,"current_range_meters":28800,"station_id":"ce4bhr92rcd13ifvqhrg","pricing_plan_id":"free"},{"bike_id":"3a6d663e-1aa8-475d-8c06-c16508268cdf","system_id":"levelo_inurba_marseille","lat":43.33042,"lon":5.3892,"is_reserved":false,"is_disabled":false,"rental_uris":{"android":"levelo://app?vid=3a6d663e-1aa8-475d-8c06-c16508268cdf","ios":"levelo://app?vid=3a6d663e-1aa8-475d-8c06-c16508268cdf"},"vehicle_type_id":"4","last_reported":1691172489,"current_range_meters":3600,"station_id":"ce4bhr92rcd13ifvqhrg","pricing_plan_id":"free"},{"bike_id":"cedbc9c4-3cd8-4974-be60-104359550a71","system_id":"levelo_inurba_marseille","lat":43.33048,"lon":5.38911,"is_reserved":false,"is_disabled":false,"rental_uris":{"android":"levelo://app?vid=cedbc9c4-3cd8-4974-be60-104359550a71","ios":"levelo://app?vid=cedbc9c4-3cd8-4974-be60-104359550a71"},"vehicle_type_id":"4","last_reported":1691172489,"current_range_meters":12000,"station_id":"ce4bhr92rcd13ifvqhrg","pricing_plan_id":"free"},{"bike_id":"20cf3f6d-acf4-4653-bf24-baa04253f77a","system_id":"levelo_inurba_marseille","lat":43.33046,"lon":5.38915,"is_reserved":false,"is_disabled":false,"rental_uris":{"android":"levelo://app?vid=20cf3f6d-acf4-4653-bf24-baa04253f77a","ios":"levelo://app?vid=20cf3f6d-acf4-4653-bf24-baa04253f77a"},"vehicle_type_id":"4","last_reported":1691172489,"current_range_meters":18000,"station_id":"ce4bhr92rcd13ifvqhrg","pricing_plan_id":"free"},{"bike_id":"db7952dd-c6d8-42c2-918b-068ba9bccee2","system_id":"levelo_inurba_marseille","lat":43.33047,"lon":5.38914,"is_reserved":false,"is_disabled":false,"rental_uris":{"android":"levelo://app?vid=db7952dd-c6d8-42c2-918b-068ba9bccee2","ios":"levelo://app?vid=db7952dd-c6d8-42c2-918b-068ba9bccee2"},"vehicle_type_id":"4","last_reported":1691172489,"current_range_meters":8400,"station_id":"ce4bhr92rcd13ifvqhrg","pricing_plan_id":"free"},{"bike_id":"00b2dcdc-2882-40a1-9132-89c3ec15cf18","system_id":"levelo_inurba_marseille","lat":43.33045,"lon":5.38918,"is_reserved":false,"is_disabled":false,"rental_uris":{"android":"levelo://app?vid=00b2dcdc-2882-40a1-9132-89c3ec15cf18","ios":"levelo://app?vid=00b2dcdc-2882-40a1-9132-89c3ec15cf18"},"vehicle_type_id":"4","last_reported":1691172489,"current_range_meters":18400,"station_id":"ce4bhr92rcd13ifvqhrg","pricing_plan_id":"free"},{"bike_id":"9692718f-5e29-4ec7-a5d8-53f40d94ef49","system_id":"levelo_inurba_marseille","lat":43.33046,"lon":5.38922,"is_reserved":false,"is_disabled":false,"rental_uris":{"android":"levelo://app?vid=9692718f-5e29-4ec7-a5d8-53f40d94ef49","ios":"levelo://app?vid=9692718f-5e29-4ec7-a5d8-53f40d94ef49"},"vehicle_type_id":"4","last_reported":1691172489,"current_range_meters":26000,"station_id":"ce4bhr92rcd13ifvqhrg","pricing_plan_id":"free"},{"bike_id":"38c1adea-6867-4940-9699-a628b1958570","system_id":"levelo_inurba_marseille","lat":43.33042,"lon":5.38932,"is_reserved":false,"is_disabled":false,"rental_uris":{"android":"levelo://app?vid=38c1adea-6867-4940-9699-a628b1958570","ios":"levelo://app?vid=38c1adea-6867-4940-9699-a628b1958570"},"vehicle_type_id":"4","last_reported":1691172489,"current_range_meters":31200,"station_id":"ce4bhr92rcd13ifvqhrg","pricing_plan_id":"free"},{"bike_id":"87a91d50-b0ca-4c64-94ae-7cf78dbb050f","system_id":"levelo_inurba_marseille","lat":43.3305,"lon":5.38922,"is_reserved":false,"is_disabled":false,"rental_uris":{"android":"levelo://app?vid=87a91d50-b0ca-4c64-94ae-7cf78dbb050f","ios":"levelo://app?vid=87a91d50-b0ca-4c64-94ae-7cf78dbb050f"},"vehicle_type_id":"4","last_reported":1691172489,"current_range_meters":16800,"station_id":"ce4bhr92rcd13ifvqhrg","pricing_plan_id":"free"},{"bike_id":"bcd911c5-2624-4404-8a6c-0c4fa5ba9b63","system_id":"levelo_inurba_marseille","lat":43.302784,"lon":5.377158,"is_reserved":false,"is_disabled":false,"rental_uris":{"android":"levelo://app?vid=bcd911c5-2624-4404-8a6c-0c4fa5ba9b63","ios":"levelo://app?vid=bcd911c5-2624-4404-8a6c-0c4fa5ba9b63"},"vehicle_type_id":"4","last_reported":1691172489,"current_range_meters":19200,"station_id":"ce4bguh2rcd13ifvqcj0","pricing_plan_id":"free"},{"bike_id":"05bf2cc0-c80b-4d3b-9303-5cea93148e89","system_id":"levelo_inurba_marseille","lat":43.290995,"lon":5.381361,"is_reserved":false,"is_disabled":false,"rental_uris":{"android":"levelo://app?vid=05bf2cc0-c80b-4d3b-9303-5cea93148e89","ios":"levelo://app?vid=05bf2cc0-c80b-4d3b-9303-5cea93148e89"},"vehicle_type_id":"4","last_reported":1691172489,"current_range_meters":31200,"station_id":"ce4bh512rcd13ifvqe2g","pricing_plan_id":"free"},{"bike_id":"abf43a72-7f94-4f81-8f55-8c126f605cf2","system_id":"levelo_inurba_marseille","lat":43.290995,"lon":5.381361,"is_reserved":false,"is_disabled":false,"rental_uris":{"android":"levelo://app?vid=abf43a72-7f94-4f81-8f55-8c126f605cf2","ios":"levelo://app?vid=abf43a72-7f94-4f81-8f55-8c126f605cf2"},"vehicle_type_id":"4","last_reported":1691172489,"current_range_meters":16400,"station_id":"ce4bh512rcd13ifvqe2g","pricing_plan_id":"free"},{"bike_id":"11a8dfb2-8d3e-4091-afa1-3993c783a4ff","system_id":"levelo_inurba_marseille","lat":43.295169,"lon":5.390426,"is_reserved":false,"is_disabled":false,"rental_uris":{"android":"levelo://app?vid=11a8dfb2-8d3e-4091-afa1-3993c783a4ff","ios":"levelo://app?vid=11a8dfb2-8d3e-4091-afa1-3993c783a4ff"},"vehicle_type_id":"4","last_reported":1691172489,"current_range_meters":0,"station_id":"ce4bh3p2rcd13ifvqdp0","pricing_plan_id":"free"},{"bike_id":"cd929758-0315-4b43-840b-acbba4e84db8","system_id":"levelo_inurba_marseille","lat":43.295169,"lon":5.390426,"is_reserved":false,"is_disabled":false,"rental_uris":{"android":"levelo://app?vid=cd929758-0315-4b43-840b-acbba4e84db8","ios":"levelo://app?vid=cd929758-0315-4b43-840b-acbba4e84db8"},"vehicle_type_id":"4","last_reported":1691172489,"current_range_meters":6400,"station_id":"ce4bh3p2rcd13ifvqdp0","pricing_plan_id":"free"},{"bike_id":"67b7f69b-84f5-455c-bc5a-488e38137552","system_id":"levelo_inurba_marseille","lat":43.295169,"lon":5.390426,"is_reserved":false,"is_disabled":false,"rental_uris":{"android":"levelo://app?vid=67b7f69b-84f5-455c-bc5a-488e38137552","ios":"levelo://app?vid=67b7f69b-84f5-455c-bc5a-488e38137552"},"vehicle_type_id":"4","last_reported":1691172489,"current_range_meters":29200,"station_id":"ce4bh3p2rcd13ifvqdp0","pricing_plan_id":"free"},{"bike_id":"bc3f5028-8455-4edf-97ae-1d935d75050d","system_id":"levelo_inurba_marseille","lat":43.29024,"lon":5.38134,"is_reserved":false,"is_disabled":false,"rental_uris":{"android":"levelo://app?vid=bc3f5028-8455-4edf-97ae-1d935d75050d","ios":"levelo://app?vid=bc3f5028-8455-4edf-97ae-1d935d75050d"},"vehicle_type_id":"4","last_reported":1691172489,"current_range_meters":17600,"station_id":"ce4bh4p2rcd13ifvqe1g","pricing_plan_id":"free"},{"bike_id":"cebaf372-c86e-446a-8041-753e63feae4a","system_id":"levelo_inurba_marseille","lat":43.290183,"lon":5.381311,"is_reserved":false,"is_disabled":false,"rental_uris":{"android":"levelo://app?vid=cebaf372-c86e-446a-8041-753e63feae4a","ios":"levelo://app?vid=cebaf372-c86e-446a-8041-753e63feae4a"},"vehicle_type_id":"4","last_reported":1691172489,"current_range_meters":0,"station_id":"ce4bh4p2rcd13ifvqe1g","pricing_plan_id":"free"},{"bike_id":"64fa948d-059d-4664-878d-968ca8cb21af","system_id":"levelo_inurba_marseille","lat":43.28856,"lon":5.358371,"is_reserved":false,"is_disabled":false,"rental_uris":{"android":"levelo://app?vid=64fa948d-059d-4664-878d-968ca8cb21af","ios":"levelo://app?vid=64fa948d-059d-4664-878d-968ca8cb21af"},"vehicle_type_id":"4","last_reported":1691172489,"current_range_meters":2400,"station_id":"ce4bhb12rcd13ifvqem0","pricing_plan_id":"free"},{"bike_id":"62c406a8-da4b-4b39-92d6-cd1c4839e5ae","system_id":"levelo_inurba_marseille","lat":43.309371,"lon":5.401449,"is_reserved":false,"is_disabled":false,"rental_uris":{"android":"levelo://app?vid=62c406a8-da4b-4b39-92d6-cd1c4839e5ae","ios":"levelo://app?vid=62c406a8-da4b-4b39-92d6-cd1c4839e5ae"},"vehicle_type_id":"4","last_reported":1691172489,"current_range_meters":5200,"station_id":"ce4bgvp2rcd13ifvqct0","pricing_plan_id":"free"},{"bike_id":"66786a5c-6d8e-4907-b37b-ff2b82772d9b","system_id":"levelo_inurba_marseille","lat":43.309371,"lon":5.401449,"is_reserved":false,"is_disabled":false,"rental_uris":{"android":"levelo://app?vid=66786a5c-6d8e-4907-b37b-ff2b82772d9b","ios":"levelo://app?vid=66786a5c-6d8e-4907-b37b-ff2b82772d9b"},"vehicle_type_id":"4","last_reported":1691172489,"current_range_meters":0,"station_id":"ce4bgvp2rcd13ifvqct0","pricing_plan_id":"free"},{"bike_id":"2cea64d9-cffe-42c7-adfc-ff0a82a640f9","system_id":"levelo_inurba_marseille","lat":43.33742,"lon":5.37459,"is_reserved":false,"is_disabled":false,"rental_uris":{"android":"levelo://app?vid=2cea64d9-cffe-42c7-adfc-ff0a82a640f9","ios":"levelo://app?vid=2cea64d9-cffe-42c7-adfc-ff0a82a640f9"},"vehicle_type_id":"4","last_reported":1691172489,"current_range_meters":26000,"station_id":"","pricing_plan_id":"free"},{"bike_id":"9bcdad32-2670-4db6-9a7c-03575d9cd3f4","system_id":"levelo_inurba_marseille","lat":43.309371,"lon":5.401449,"is_reserved":false,"is_disabled":false,"rental_uris":{"android":"levelo://app?vid=9bcdad32-2670-4db6-9a7c-03575d9cd3f4","ios":"levelo://app?vid=9bcdad32-2670-4db6-9a7c-03575d9cd3f4"},"vehicle_type_id":"4","last_reported":1691172489,"current_range_meters":10400,"station_id":"ce4bgvp2rcd13ifvqct0","pricing_plan_id":"free"},{"bike_id":"a856a9bf-2914-4d99-b110-0ae70d1373ec","system_id":"levelo_inurba_marseille","lat":43.33763,"lon":5.37486,"is_reserved":false,"is_disabled":false,"rental_uris":{"android":"levelo://app?vid=a856a9bf-2914-4d99-b110-0ae70d1373ec","ios":"levelo://app?vid=a856a9bf-2914-4d99-b110-0ae70d1373ec"},"vehicle_type_id":"4","last_reported":1691172489,"current_range_meters":22800,"station_id":"","pricing_plan_id":"free"},{"bike_id":"38e6d0d4-623e-4ec4-b329-ceedb0eb6c56","system_id":"levelo_inurba_marseille","lat":43.30641,"lon":5.40095,"is_reserved":false,"is_disabled":false,"rental_uris":{"android":"levelo://app?vid=38e6d0d4-623e-4ec4-b329-ceedb0eb6c56","ios":"levelo://app?vid=38e6d0d4-623e-4ec4-b329-ceedb0eb6c56"},"vehicle_type_id":"4","last_reported":1691172489,"current_range_meters":18000,"station_id":"ce4bh112rcd13ifvqda0","pricing_plan_id":"free"},{"bike_id":"a631f54f-54af-414e-a75b-512671424005","system_id":"levelo_inurba_marseille","lat":43.30645,"lon":5.40098,"is_reserved":false,"is_disabled":false,"rental_uris":{"android":"levelo://app?vid=a631f54f-54af-414e-a75b-512671424005","ios":"levelo://app?vid=a631f54f-54af-414e-a75b-512671424005"},"vehicle_type_id":"4","last_reported":1691172489,"current_range_meters":15200,"station_id":"ce4bh112rcd13ifvqda0","pricing_plan_id":"free"},{"bike_id":"25240bd1-9691-4731-8179-5d0410667e10","system_id":"levelo_inurba_marseille","lat":43.301117,"lon":5.398795,"is_reserved":false,"is_disabled":false,"rental_uris":{"android":"levelo://app?vid=25240bd1-9691-4731-8179-5d0410667e10","ios":"levelo://app?vid=25240bd1-9691-4731-8179-5d0410667e10"},"vehicle_type_id":"4","last_reported":1691172489,"current_range_meters":20800,"station_id":"ce4bh0h2rcd13ifvqd40","pricing_plan_id":"free"},{"bike_id":"66e545f5-e222-4291-a1c6-ae631ea6c247","system_id":"levelo_inurba_marseille","lat":43.301117,"lon":5.398795,"is_reserved":false,"is_disabled":false,"rental_uris":{"android":"levelo://app?vid=66e545f5-e222-4291-a1c6-ae631ea6c247","ios":"levelo://app?vid=66e545f5-e222-4291-a1c6-ae631ea6c247"},"vehicle_type_id":"4","last_reported":1691172489,"current_range_meters":25600,"station_id":"ce4bh0h2rcd13ifvqd40","pricing_plan_id":"free"},{"bike_id":"a4061575-01a2-47a3-937f-82a2f5bf0eb3","system_id":"levelo_inurba_marseille","lat":43.301117,"lon":5.398795,"is_reserved":false,"is_disabled":false,"rental_uris":{"android":"levelo://app?vid=a4061575-01a2-47a3-937f-82a2f5bf0eb3","ios":"levelo://app?vid=a4061575-01a2-47a3-937f-82a2f5bf0eb3"},"vehicle_type_id":"4","last_reported":1691172489,"current_range_meters":4800,"station_id":"ce4bh0h2rcd13ifvqd40","pricing_plan_id":"free"},{"bike_id":"c913c5f6-5eb0-45c5-8702-a477e19158bd","system_id":"levelo_inurba_marseille","lat":43.301117,"lon":5.398795,"is_reserved":false,"is_disabled":false,"rental_uris":{"android":"levelo://app?vid=c913c5f6-5eb0-45c5-8702-a477e19158bd","ios":"levelo://app?vid=c913c5f6-5eb0-45c5-8702-a477e19158bd"},"vehicle_type_id":"4","last_reported":1691172489,"current_range_meters":30800,"station_id":"ce4bh0h2rcd13ifvqd40","pricing_plan_id":"free"},{"bike_id":"3184c2e8-a58f-4c91-b740-5c54bbaaff2c","system_id":"levelo_inurba_marseille","lat":43.286961,"lon":5.373785,"is_reserved":false,"is_disabled":false,"rental_uris":{"android":"levelo://app?vid=3184c2e8-a58f-4c91-b740-5c54bbaaff2c","ios":"levelo://app?vid=3184c2e8-a58f-4c91-b740-5c54bbaaff2c"},"vehicle_type_id":"4","last_reported":1691172489,"current_range_meters":1600,"station_id":"ce4bh3p2rcd13ifvqdq0","pricing_plan_id":"free"},{"bike_id":"c2befacd-f405-47c0-98e3-7a4d3730ea57","system_id":"levelo_inurba_marseille","lat":43.298681,"lon":5.397225,"is_reserved":false,"is_disabled":false,"rental_uris":{"android":"levelo://app?vid=c2befacd-f405-47c0-98e3-7a4d3730ea57","ios":"levelo://app?vid=c2befacd-f405-47c0-98e3-7a4d3730ea57"},"vehicle_type_id":"4","last_reported":1691172489,"current_range_meters":0,"station_id":"ce4bh0h2rcd13ifvqd50","pricing_plan_id":"free"},{"bike_id":"85a99a44-4ce0-4f46-9838-7484b5488ea5","system_id":"levelo_inurba_marseille","lat":43.298681,"lon":5.397225,"is_reserved":false,"is_disabled":false,"rental_uris":{"android":"levelo://app?vid=85a99a44-4ce0-4f46-9838-7484b5488ea5","ios":"levelo://app?vid=85a99a44-4ce0-4f46-9838-7484b5488ea5"},"vehicle_type_id":"4","last_reported":1691172489,"current_range_meters":6000,"station_id":"ce4bh0h2rcd13ifvqd50","pricing_plan_id":"free"},{"bike_id":"cbea482d-79a9-4b86-89f4-2b98602a0000","system_id":"levelo_inurba_marseille","lat":43.298681,"lon":5.397225,"is_reserved":false,"is_disabled":false,"rental_uris":{"android":"levelo://app?vid=cbea482d-79a9-4b86-89f4-2b98602a0000","ios":"levelo://app?vid=cbea482d-79a9-4b86-89f4-2b98602a0000"},"vehicle_type_id":"4","last_reported":1691172489,"current_range_meters":6000,"station_id":"ce4bh0h2rcd13ifvqd50","pricing_plan_id":"free"},{"bike_id":"75199276-b705-4ad7-b6a9-49aeaa84628a","system_id":"levelo_inurba_marseille","lat":43.286591,"lon":5.363346,"is_reserved":false,"is_disabled":false,"rental_uris":{"android":"levelo://app?vid=75199276-b705-4ad7-b6a9-49aeaa84628a","ios":"levelo://app?vid=75199276-b705-4ad7-b6a9-49aeaa84628a"},"vehicle_type_id":"4","last_reported":1691172489,"current_range_meters":31200,"station_id":"ce4bhah2rcd13ifvqej0","pricing_plan_id":"free"},{"bike_id":"efaaa1ff-7522-4212-9c7a-a89bebe887c9","system_id":"levelo_inurba_marseille","lat":43.295194,"lon":5.39397,"is_reserved":false,"is_disabled":false,"rental_uris":{"android":"levelo://app?vid=efaaa1ff-7522-4212-9c7a-a89bebe887c9","ios":"levelo://app?vid=efaaa1ff-7522-4212-9c7a-a89bebe887c9"},"vehicle_type_id":"4","last_reported":1691172489,"current_range_meters":24400,"station_id":"ce4bh292rcd13ifvqdf0","pricing_plan_id":"free"},{"bike_id":"f2a9c4d8-c4fb-4cde-9f01-381428de137c","system_id":"levelo_inurba_marseille","lat":43.295196,"lon":5.39397,"is_reserved":false,"is_disabled":false,"rental_uris":{"android":"levelo://app?vid=f2a9c4d8-c4fb-4cde-9f01-381428de137c","ios":"levelo://app?vid=f2a9c4d8-c4fb-4cde-9f01-381428de137c"},"vehicle_type_id":"4","last_reported":1691172489,"current_range_meters":21600,"station_id":"ce4bh292rcd13ifvqdf0","pricing_plan_id":"free"},{"bike_id":"b7563cd5-cb8a-413d-b7aa-1429d1fc9a8f","system_id":"levelo_inurba_marseille","lat":43.295196,"lon":5.39397,"is_reserved":false,"is_disabled":false,"rental_uris":{"android":"levelo://app?vid=b7563cd5-cb8a-413d-b7aa-1429d1fc9a8f","ios":"levelo://app?vid=b7563cd5-cb8a-413d-b7aa-1429d1fc9a8f"},"vehicle_type_id":"4","last_reported":1691172489,"current_range_meters":24000,"station_id":"ce4bh292rcd13ifvqdf0","pricing_plan_id":"free"},{"bike_id":"7b9e2d57-7c2f-4652-8ec0-ee4d147afe24","system_id":"levelo_inurba_marseille","lat":43.302548,"lon":5.400568,"is_reserved":false,"is_disabled":false,"rental_uris":{"android":"levelo://app?vid=7b9e2d57-7c2f-4652-8ec0-ee4d147afe24","ios":"levelo://app?vid=7b9e2d57-7c2f-4652-8ec0-ee4d147afe24"},"vehicle_type_id":"4","last_reported":1691172489,"current_range_meters":14000,"station_id":"","pricing_plan_id":"free"},{"bike_id":"490d62ed-b33e-4794-9643-51bdc76f600a","system_id":"levelo_inurba_marseille","lat":43.29029,"lon":5.38646,"is_reserved":false,"is_disabled":false,"rental_uris":{"android":"levelo://app?vid=490d62ed-b33e-4794-9643-51bdc76f600a","ios":"levelo://app?vid=490d62ed-b33e-4794-9643-51bdc76f600a"},"vehicle_type_id":"4","last_reported":1691172489,"current_range_meters":10800,"station_id":"ce4bh4p2rcd13ifvqe0g","pricing_plan_id":"free"},{"bike_id":"e5cd43e8-12d4-45fb-b5fb-6ff70035c2e2","system_id":"levelo_inurba_marseille","lat":43.290336,"lon":5.386425,"is_reserved":false,"is_disabled":false,"rental_uris":{"android":"levelo://app?vid=e5cd43e8-12d4-45fb-b5fb-6ff70035c2e2","ios":"levelo://app?vid=e5cd43e8-12d4-45fb-b5fb-6ff70035c2e2"},"vehicle_type_id":"4","last_reported":1691172489,"current_range_meters":10000,"station_id":"ce4bh4p2rcd13ifvqe0g","pricing_plan_id":"free"},{"bike_id":"242dbb4c-c888-4cce-b814-eacd50e924d3","system_id":"levelo_inurba_marseille","lat":43.302759,"lon":5.400793,"is_reserved":false,"is_disabled":false,"rental_uris":{"android":"levelo://app?vid=242dbb4c-c888-4cce-b814-eacd50e924d3","ios":"levelo://app?vid=242dbb4c-c888-4cce-b814-eacd50e924d3"},"vehicle_type_id":"4","last_reported":1691172489,"current_range_meters":0,"station_id":"ce4bgvh2rcd13ifvqcs0","pricing_plan_id":"free"},{"bike_id":"2a8a8f72-bd42-4be9-a28f-064fdf767de3","system_id":"levelo_inurba_marseille","lat":43.28822,"lon":5.35255,"is_reserved":false,"is_disabled":false,"rental_uris":{"android":"levelo://app?vid=2a8a8f72-bd42-4be9-a28f-064fdf767de3","ios":"levelo://app?vid=2a8a8f72-bd42-4be9-a28f-064fdf767de3"},"vehicle_type_id":"4","last_reported":1691172489,"current_range_meters":25600,"station_id":"","pricing_plan_id":"free"},{"bike_id":"a1fa42dd-5b77-4b06-a869-52fc92d02794","system_id":"levelo_inurba_marseille","lat":43.286039,"lon":5.370679,"is_reserved":false,"is_disabled":false,"rental_uris":{"android":"levelo://app?vid=a1fa42dd-5b77-4b06-a869-52fc92d02794","ios":"levelo://app?vid=a1fa42dd-5b77-4b06-a869-52fc92d02794"},"vehicle_type_id":"4","last_reported":1691172489,"current_range_meters":14400,"station_id":"ce4bht12rcd13ifvqi60","pricing_plan_id":"free"},{"bike_id":"4ae0059c-5a2d-426a-afef-aa8fe1206bc1","system_id":"levelo_inurba_marseille","lat":43.286039,"lon":5.370681,"is_reserved":false,"is_disabled":false,"rental_uris":{"android":"levelo://app?vid=4ae0059c-5a2d-426a-afef-aa8fe1206bc1","ios":"levelo://app?vid=4ae0059c-5a2d-426a-afef-aa8fe1206bc1"},"vehicle_type_id":"4","last_reported":1691172489,"current_range_meters":23200,"station_id":"ce4bht12rcd13ifvqi60","pricing_plan_id":"free"},{"bike_id":"1ff56fe0-1501-4c41-9474-66cb2f3126bd","system_id":"levelo_inurba_marseille","lat":43.2861,"lon":5.3706,"is_reserved":false,"is_disabled":false,"rental_uris":{"android":"levelo://app?vid=1ff56fe0-1501-4c41-9474-66cb2f3126bd","ios":"levelo://app?vid=1ff56fe0-1501-4c41-9474-66cb2f3126bd"},"vehicle_type_id":"4","last_reported":1691172489,"current_range_meters":31200,"station_id":"","pricing_plan_id":"free"},{"bike_id":"6b7c5fe9-b3fb-4058-9b1c-ee4059ab0f77","system_id":"levelo_inurba_marseille","lat":43.286039,"lon":5.370679,"is_reserved":false,"is_disabled":false,"rental_uris":{"android":"levelo://app?vid=6b7c5fe9-b3fb-4058-9b1c-ee4059ab0f77","ios":"levelo://app?vid=6b7c5fe9-b3fb-4058-9b1c-ee4059ab0f77"},"vehicle_type_id":"4","last_reported":1691172489,"current_range_meters":25200,"station_id":"ce4bht12rcd13ifvqi60","pricing_plan_id":"free"},{"bike_id":"2505ec1e-c8d9-40d9-9a56-b5650062f6ff","system_id":"levelo_inurba_marseille","lat":43.286039,"lon":5.370679,"is_reserved":false,"is_disabled":false,"rental_uris":{"android":"levelo://app?vid=2505ec1e-c8d9-40d9-9a56-b5650062f6ff","ios":"levelo://app?vid=2505ec1e-c8d9-40d9-9a56-b5650062f6ff"},"vehicle_type_id":"4","last_reported":1691172489,"current_range_meters":12000,"station_id":"ce4bht12rcd13ifvqi60","pricing_plan_id":"free"},{"bike_id":"0eec8b1c-8c3d-43c2-ade4-dab3902c07e9","system_id":"levelo_inurba_marseille","lat":43.286039,"lon":5.370679,"is_reserved":false,"is_disabled":false,"rental_uris":{"android":"levelo://app?vid=0eec8b1c-8c3d-43c2-ade4-dab3902c07e9","ios":"levelo://app?vid=0eec8b1c-8c3d-43c2-ade4-dab3902c07e9"},"vehicle_type_id":"4","last_reported":1691172489,"current_range_meters":25200,"station_id":"ce4bht12rcd13ifvqi60","pricing_plan_id":"free"},{"bike_id":"ac1df72d-516d-4207-bd49-0470e755d8b0","system_id":"levelo_inurba_marseille","lat":43.31648,"lon":5.4044,"is_reserved":false,"is_disabled":false,"rental_uris":{"android":"levelo://app?vid=ac1df72d-516d-4207-bd49-0470e755d8b0","ios":"levelo://app?vid=ac1df72d-516d-4207-bd49-0470e755d8b0"},"vehicle_type_id":"4","last_reported":1691172489,"current_range_meters":28400,"station_id":"ce4bh012rcd13ifvqd00","pricing_plan_id":"free"},{"bike_id":"f8b2fa4f-d1a7-42a1-9bc7-14c4912a7a1e","system_id":"levelo_inurba_marseille","lat":43.316517,"lon":5.404375,"is_reserved":false,"is_disabled":false,"rental_uris":{"android":"levelo://app?vid=f8b2fa4f-d1a7-42a1-9bc7-14c4912a7a1e","ios":"levelo://app?vid=f8b2fa4f-d1a7-42a1-9bc7-14c4912a7a1e"},"vehicle_type_id":"4","last_reported":1691172489,"current_range_meters":22000,"station_id":"ce4bh012rcd13ifvqd00","pricing_plan_id":"free"},{"bike_id":"cd11e843-27e7-4f83-9966-b84aa4c99b3c","system_id":"levelo_inurba_marseille","lat":43.291994,"lon":5.392907,"is_reserved":false,"is_disabled":false,"rental_uris":{"android":"levelo://app?vid=cd11e843-27e7-4f83-9966-b84aa4c99b3c","ios":"levelo://app?vid=cd11e843-27e7-4f83-9966-b84aa4c99b3c"},"vehicle_type_id":"4","last_reported":1691172489,"current_range_meters":19600,"station_id":"ce4bh192rcd13ifvqdd0","pricing_plan_id":"free"},{"bike_id":"445a38e9-b83c-418b-90b1-0b5db85ed164","system_id":"levelo_inurba_marseille","lat":43.291994,"lon":5.392907,"is_reserved":false,"is_disabled":false,"rental_uris":{"android":"levelo://app?vid=445a38e9-b83c-418b-90b1-0b5db85ed164","ios":"levelo://app?vid=445a38e9-b83c-418b-90b1-0b5db85ed164"},"vehicle_type_id":"4","last_reported":1691172489,"current_range_meters":4400,"station_id":"ce4bh192rcd13ifvqdd0","pricing_plan_id":"free"},{"bike_id":"21a96cb4-8d22-4bbd-afbb-82f5427664a1","system_id":"levelo_inurba_marseille","lat":43.291994,"lon":5.392907,"is_reserved":false,"is_disabled":false,"rental_uris":{"android":"levelo://app?vid=21a96cb4-8d22-4bbd-afbb-82f5427664a1","ios":"levelo://app?vid=21a96cb4-8d22-4bbd-afbb-82f5427664a1"},"vehicle_type_id":"4","last_reported":1691172489,"current_range_meters":400,"station_id":"ce4bh192rcd13ifvqdd0","pricing_plan_id":"free"},{"bike_id":"903abbe4-2038-4f4d-9306-bcf08f93881c","system_id":"levelo_inurba_marseille","lat":43.291994,"lon":5.392907,"is_reserved":false,"is_disabled":false,"rental_uris":{"android":"levelo://app?vid=903abbe4-2038-4f4d-9306-bcf08f93881c","ios":"levelo://app?vid=903abbe4-2038-4f4d-9306-bcf08f93881c"},"vehicle_type_id":"4","last_reported":1691172489,"current_range_meters":13600,"station_id":"ce4bh192rcd13ifvqdd0","pricing_plan_id":"free"},{"bike_id":"ff09bf27-2858-4248-8080-dac1c2aca8e4","system_id":"levelo_inurba_marseille","lat":43.291994,"lon":5.392907,"is_reserved":false,"is_disabled":false,"rental_uris":{"android":"levelo://app?vid=ff09bf27-2858-4248-8080-dac1c2aca8e4","ios":"levelo://app?vid=ff09bf27-2858-4248-8080-dac1c2aca8e4"},"vehicle_type_id":"4","last_reported":1691172489,"current_range_meters":17200,"station_id":"ce4bh192rcd13ifvqdd0","pricing_plan_id":"free"},{"bike_id":"7b78d55e-e99c-4fa7-968a-c672d6912f00","system_id":"levelo_inurba_marseille","lat":43.284538,"lon":5.358657,"is_reserved":false,"is_disabled":false,"rental_uris":{"android":"levelo://app?vid=7b78d55e-e99c-4fa7-968a-c672d6912f00","ios":"levelo://app?vid=7b78d55e-e99c-4fa7-968a-c672d6912f00"},"vehicle_type_id":"4","last_reported":1691172489,"current_range_meters":31200,"station_id":"ce4bhah2rcd13ifvqei0","pricing_plan_id":"free"},{"bike_id":"783ac4a2-8853-4297-885c-25b6bd8fad42","system_id":"levelo_inurba_marseille","lat":43.28621,"lon":5.35102,"is_reserved":false,"is_disabled":false,"rental_uris":{"android":"levelo://app?vid=783ac4a2-8853-4297-885c-25b6bd8fad42","ios":"levelo://app?vid=783ac4a2-8853-4297-885c-25b6bd8fad42"},"vehicle_type_id":"4","last_reported":1691172489,"current_range_meters":30000,"station_id":"ce4bhch2rcd13ifvqeug","pricing_plan_id":"free"},{"bike_id":"92730c40-67ed-4418-9c87-ee7eee0f0fed","system_id":"levelo_inurba_marseille","lat":43.28419,"lon":5.37506,"is_reserved":false,"is_disabled":false,"rental_uris":{"android":"levelo://app?vid=92730c40-67ed-4418-9c87-ee7eee0f0fed","ios":"levelo://app?vid=92730c40-67ed-4418-9c87-ee7eee0f0fed"},"vehicle_type_id":"4","last_reported":1691172489,"current_range_meters":29200,"station_id":"ce4bh412rcd13ifvqds0","pricing_plan_id":"free"},{"bike_id":"a0fd1e8f-25c3-405d-a958-0c72925a7b42","system_id":"levelo_inurba_marseille","lat":43.28413,"lon":5.37505,"is_reserved":false,"is_disabled":false,"rental_uris":{"android":"levelo://app?vid=a0fd1e8f-25c3-405d-a958-0c72925a7b42","ios":"levelo://app?vid=a0fd1e8f-25c3-405d-a958-0c72925a7b42"},"vehicle_type_id":"4","last_reported":1691172489,"current_range_meters":25200,"station_id":"ce4bh412rcd13ifvqds0","pricing_plan_id":"free"},{"bike_id":"e08ed269-96f4-4540-ab3b-b32fbaabafd7","system_id":"levelo_inurba_marseille","lat":43.28406,"lon":5.37517,"is_reserved":false,"is_disabled":false,"rental_uris":{"android":"levelo://app?vid=e08ed269-96f4-4540-ab3b-b32fbaabafd7","ios":"levelo://app?vid=e08ed269-96f4-4540-ab3b-b32fbaabafd7"},"vehicle_type_id":"4","last_reported":1691172489,"current_range_meters":4800,"station_id":"ce4bh412rcd13ifvqds0","pricing_plan_id":"free"},{"bike_id":"ec2bf52f-7dd2-442c-91d8-f90b05e08027","system_id":"levelo_inurba_marseille","lat":43.283998,"lon":5.375062,"is_reserved":false,"is_disabled":false,"rental_uris":{"android":"levelo://app?vid=ec2bf52f-7dd2-442c-91d8-f90b05e08027","ios":"levelo://app?vid=ec2bf52f-7dd2-442c-91d8-f90b05e08027"},"vehicle_type_id":"4","last_reported":1691172489,"current_range_meters":31200,"station_id":"ce4bh412rcd13ifvqds0","pricing_plan_id":"free"},{"bike_id":"007d31cd-25fe-4368-afbd-af7157cb301e","system_id":"levelo_inurba_marseille","lat":43.283998,"lon":5.375062,"is_reserved":false,"is_disabled":false,"rental_uris":{"android":"levelo://app?vid=007d31cd-25fe-4368-afbd-af7157cb301e","ios":"levelo://app?vid=007d31cd-25fe-4368-afbd-af7157cb301e"},"vehicle_type_id":"4","last_reported":1691172489,"current_range_meters":3600,"station_id":"ce4bh412rcd13ifvqds0","pricing_plan_id":"free"},{"bike_id":"60552a09-3400-4f66-a397-a16921ef7c33","system_id":"levelo_inurba_marseille","lat":43.295713,"lon":5.399639,"is_reserved":false,"is_disabled":false,"rental_uris":{"android":"levelo://app?vid=60552a09-3400-4f66-a397-a16921ef7c33","ios":"levelo://app?vid=60552a09-3400-4f66-a397-a16921ef7c33"},"vehicle_type_id":"4","last_reported":1691172489,"current_range_meters":29200,"station_id":"ce4bh312rcd13ifvqdj0","pricing_plan_id":"free"},{"bike_id":"75475139-b438-495a-afac-0921d262e11e","system_id":"levelo_inurba_marseille","lat":43.295713,"lon":5.399639,"is_reserved":false,"is_disabled":false,"rental_uris":{"android":"levelo://app?vid=75475139-b438-495a-afac-0921d262e11e","ios":"levelo://app?vid=75475139-b438-495a-afac-0921d262e11e"},"vehicle_type_id":"4","last_reported":1691172489,"current_range_meters":26800,"station_id":"ce4bh312rcd13ifvqdj0","pricing_plan_id":"free"},{"bike_id":"1fbc6921-e48d-461e-925b-4e9b79e670f1","system_id":"levelo_inurba_marseille","lat":43.286595,"lon":5.386795,"is_reserved":false,"is_disabled":false,"rental_uris":{"android":"levelo://app?vid=1fbc6921-e48d-461e-925b-4e9b79e670f1","ios":"levelo://app?vid=1fbc6921-e48d-461e-925b-4e9b79e670f1"},"vehicle_type_id":"4","last_reported":1691172489,"current_range_meters":0,"station_id":"ce4bh492rcd13ifvqdug","pricing_plan_id":"free"},{"bike_id":"632d4045-2ba1-4d8b-8070-04923aafd128","system_id":"levelo_inurba_marseille","lat":43.319179,"lon":5.407725,"is_reserved":false,"is_disabled":false,"rental_uris":{"android":"levelo://app?vid=632d4045-2ba1-4d8b-8070-04923aafd128","ios":"levelo://app?vid=632d4045-2ba1-4d8b-8070-04923aafd128"},"vehicle_type_id":"4","last_reported":1691172489,"current_range_meters":4400,"station_id":"ce4bhq12rcd13ifvqhig","pricing_plan_id":"free"},{"bike_id":"fd8d2354-0817-4a67-af7d-23e5ee9f2c95","system_id":"levelo_inurba_marseille","lat":43.31888,"lon":5.40731,"is_reserved":false,"is_disabled":false,"rental_uris":{"android":"levelo://app?vid=fd8d2354-0817-4a67-af7d-23e5ee9f2c95","ios":"levelo://app?vid=fd8d2354-0817-4a67-af7d-23e5ee9f2c95"},"vehicle_type_id":"4","last_reported":1691172489,"current_range_meters":30800,"station_id":"ce4bhq12rcd13ifvqhig","pricing_plan_id":"free"},{"bike_id":"8daabb4c-3541-4593-9b36-1eadeac41cae","system_id":"levelo_inurba_marseille","lat":43.31887,"lon":5.40733,"is_reserved":false,"is_disabled":false,"rental_uris":{"android":"levelo://app?vid=8daabb4c-3541-4593-9b36-1eadeac41cae","ios":"levelo://app?vid=8daabb4c-3541-4593-9b36-1eadeac41cae"},"vehicle_type_id":"4","last_reported":1691172489,"current_range_meters":15600,"station_id":"ce4bhq12rcd13ifvqhig","pricing_plan_id":"free"},{"bike_id":"eeb02a4a-fc34-4229-a72e-14ead8b86bb9","system_id":"levelo_inurba_marseille","lat":43.31885,"lon":5.40734,"is_reserved":false,"is_disabled":false,"rental_uris":{"android":"levelo://app?vid=eeb02a4a-fc34-4229-a72e-14ead8b86bb9","ios":"levelo://app?vid=eeb02a4a-fc34-4229-a72e-14ead8b86bb9"},"vehicle_type_id":"4","last_reported":1691172489,"current_range_meters":24000,"station_id":"ce4bhq12rcd13ifvqhig","pricing_plan_id":"free"},{"bike_id":"430c2063-ded1-4339-9309-d962bc415bc7","system_id":"levelo_inurba_marseille","lat":43.31884,"lon":5.40738,"is_reserved":false,"is_disabled":false,"rental_uris":{"android":"levelo://app?vid=430c2063-ded1-4339-9309-d962bc415bc7","ios":"levelo://app?vid=430c2063-ded1-4339-9309-d962bc415bc7"},"vehicle_type_id":"4","last_reported":1691172489,"current_range_meters":31200,"station_id":"ce4bhq12rcd13ifvqhig","pricing_plan_id":"free"},{"bike_id":"23708b88-2756-4a02-b648-f572f3772253","system_id":"levelo_inurba_marseille","lat":43.319179,"lon":5.407725,"is_reserved":false,"is_disabled":false,"rental_uris":{"android":"levelo://app?vid=23708b88-2756-4a02-b648-f572f3772253","ios":"levelo://app?vid=23708b88-2756-4a02-b648-f572f3772253"},"vehicle_type_id":"4","last_reported":1691172489,"current_range_meters":8800,"station_id":"ce4bhq12rcd13ifvqhig","pricing_plan_id":"free"},{"bike_id":"9be39f6c-974f-4a4e-90c3-357a4d8fdcc8","system_id":"levelo_inurba_marseille","lat":43.323464,"lon":5.406297,"is_reserved":false,"is_disabled":false,"rental_uris":{"android":"levelo://app?vid=9be39f6c-974f-4a4e-90c3-357a4d8fdcc8","ios":"levelo://app?vid=9be39f6c-974f-4a4e-90c3-357a4d8fdcc8"},"vehicle_type_id":"4","last_reported":1691172489,"current_range_meters":30800,"station_id":"ce4bhq92rcd13ifvqhjg","pricing_plan_id":"free"},{"bike_id":"a3cf389b-f19c-4e75-9e92-40c9195ed245","system_id":"levelo_inurba_marseille","lat":43.33725,"lon":5.3918,"is_reserved":false,"is_disabled":false,"rental_uris":{"android":"levelo://app?vid=a3cf389b-f19c-4e75-9e92-40c9195ed245","ios":"levelo://app?vid=a3cf389b-f19c-4e75-9e92-40c9195ed245"},"vehicle_type_id":"4","last_reported":1691172489,"current_range_meters":0,"station_id":"ce4bhr92rcd13ifvqhsg","pricing_plan_id":"free"},{"bike_id":"1f5722b0-5667-43f6-9dad-3a3b818c5a69","system_id":"levelo_inurba_marseille","lat":43.337168,"lon":5.391825,"is_reserved":false,"is_disabled":false,"rental_uris":{"android":"levelo://app?vid=1f5722b0-5667-43f6-9dad-3a3b818c5a69","ios":"levelo://app?vid=1f5722b0-5667-43f6-9dad-3a3b818c5a69"},"vehicle_type_id":"4","last_reported":1691172489,"current_range_meters":30400,"station_id":"ce4bhr92rcd13ifvqhsg","pricing_plan_id":"free"},{"bike_id":"a9671d69-2a62-4abb-9d98-78ee12b6b2d8","system_id":"levelo_inurba_marseille","lat":43.33724,"lon":5.39184,"is_reserved":false,"is_disabled":false,"rental_uris":{"android":"levelo://app?vid=a9671d69-2a62-4abb-9d98-78ee12b6b2d8","ios":"levelo://app?vid=a9671d69-2a62-4abb-9d98-78ee12b6b2d8"},"vehicle_type_id":"4","last_reported":1691172489,"current_range_meters":11200,"station_id":"ce4bhr92rcd13ifvqhsg","pricing_plan_id":"free"},{"bike_id":"c59f30af-b7c9-4762-b544-56156d6a8a97","system_id":"levelo_inurba_marseille","lat":43.33727,"lon":5.39181,"is_reserved":false,"is_disabled":false,"rental_uris":{"android":"levelo://app?vid=c59f30af-b7c9-4762-b544-56156d6a8a97","ios":"levelo://app?vid=c59f30af-b7c9-4762-b544-56156d6a8a97"},"vehicle_type_id":"4","last_reported":1691172489,"current_range_meters":21200,"station_id":"ce4bhr92rcd13ifvqhsg","pricing_plan_id":"free"},{"bike_id":"f18b4051-8145-4f33-aee1-6f539e29d721","system_id":"levelo_inurba_marseille","lat":43.33724,"lon":5.39187,"is_reserved":false,"is_disabled":false,"rental_uris":{"android":"levelo://app?vid=f18b4051-8145-4f33-aee1-6f539e29d721","ios":"levelo://app?vid=f18b4051-8145-4f33-aee1-6f539e29d721"},"vehicle_type_id":"4","last_reported":1691172489,"current_range_meters":18400,"station_id":"ce4bhr92rcd13ifvqhsg","pricing_plan_id":"free"},{"bike_id":"3e2b1177-2c86-434f-b952-b4cf179b745c","system_id":"levelo_inurba_marseille","lat":43.32336,"lon":5.40621,"is_reserved":false,"is_disabled":false,"rental_uris":{"android":"levelo://app?vid=3e2b1177-2c86-434f-b952-b4cf179b745c","ios":"levelo://app?vid=3e2b1177-2c86-434f-b952-b4cf179b745c"},"vehicle_type_id":"4","last_reported":1691172489,"current_range_meters":21600,"station_id":"ce4bhq92rcd13ifvqhjg","pricing_plan_id":"free"},{"bike_id":"3e563380-a985-451c-801d-2783d7714294","system_id":"levelo_inurba_marseille","lat":43.337168,"lon":5.391825,"is_reserved":false,"is_disabled":false,"rental_uris":{"android":"levelo://app?vid=3e563380-a985-451c-801d-2783d7714294","ios":"levelo://app?vid=3e563380-a985-451c-801d-2783d7714294"},"vehicle_type_id":"4","last_reported":1691172489,"current_range_meters":14000,"station_id":"ce4bhr92rcd13ifvqhsg","pricing_plan_id":"free"},{"bike_id":"8e4ab4c7-b2dc-4e74-b07d-1ff49a416721","system_id":"levelo_inurba_marseille","lat":43.33728,"lon":5.39182,"is_reserved":false,"is_disabled":false,"rental_uris":{"android":"levelo://app?vid=8e4ab4c7-b2dc-4e74-b07d-1ff49a416721","ios":"levelo://app?vid=8e4ab4c7-b2dc-4e74-b07d-1ff49a416721"},"vehicle_type_id":"4","last_reported":1691172489,"current_range_meters":18400,"station_id":"ce4bhr92rcd13ifvqhsg","pricing_plan_id":"free"},{"bike_id":"23dafe58-bc58-41ce-843c-2b5e651c84c2","system_id":"levelo_inurba_marseille","lat":43.32337,"lon":5.40622,"is_reserved":false,"is_disabled":false,"rental_uris":{"android":"levelo://app?vid=23dafe58-bc58-41ce-843c-2b5e651c84c2","ios":"levelo://app?vid=23dafe58-bc58-41ce-843c-2b5e651c84c2"},"vehicle_type_id":"4","last_reported":1691172489,"current_range_meters":30000,"station_id":"ce4bhq92rcd13ifvqhjg","pricing_plan_id":"free"},{"bike_id":"df82d2f9-f688-4670-ac84-3e543122cedb","system_id":"levelo_inurba_marseille","lat":43.33729,"lon":5.39182,"is_reserved":false,"is_disabled":false,"rental_uris":{"android":"levelo://app?vid=df82d2f9-f688-4670-ac84-3e543122cedb","ios":"levelo://app?vid=df82d2f9-f688-4670-ac84-3e543122cedb"},"vehicle_type_id":"4","last_reported":1691172489,"current_range_meters":13200,"station_id":"ce4bhr92rcd13ifvqhsg","pricing_plan_id":"free"},{"bike_id":"65e7209e-43de-4472-85bf-edccad84c81f","system_id":"levelo_inurba_marseille","lat":43.33727,"lon":5.39186,"is_reserved":false,"is_disabled":false,"rental_uris":{"android":"levelo://app?vid=65e7209e-43de-4472-85bf-edccad84c81f","ios":"levelo://app?vid=65e7209e-43de-4472-85bf-edccad84c81f"},"vehicle_type_id":"4","last_reported":1691172489,"current_range_meters":26400,"station_id":"ce4bhr92rcd13ifvqhsg","pricing_plan_id":"free"},{"bike_id":"9ed5c8cd-5716-467d-9a0b-e5002dcb5a2c","system_id":"levelo_inurba_marseille","lat":43.33731,"lon":5.39184,"is_reserved":false,"is_disabled":false,"rental_uris":{"android":"levelo://app?vid=9ed5c8cd-5716-467d-9a0b-e5002dcb5a2c","ios":"levelo://app?vid=9ed5c8cd-5716-467d-9a0b-e5002dcb5a2c"},"vehicle_type_id":"4","last_reported":1691172489,"current_range_meters":29600,"station_id":"ce4bhr92rcd13ifvqhsg","pricing_plan_id":"free"},{"bike_id":"9d8dc018-8295-487e-aae9-79ce0f469cdf","system_id":"levelo_inurba_marseille","lat":43.33732,"lon":5.39184,"is_reserved":false,"is_disabled":false,"rental_uris":{"android":"levelo://app?vid=9d8dc018-8295-487e-aae9-79ce0f469cdf","ios":"levelo://app?vid=9d8dc018-8295-487e-aae9-79ce0f469cdf"},"vehicle_type_id":"4","last_reported":1691172489,"current_range_meters":24800,"station_id":"ce4bhr92rcd13ifvqhsg","pricing_plan_id":"free"},{"bike_id":"5fd6a347-0a02-4efa-ab4a-06802493ed56","system_id":"levelo_inurba_marseille","lat":43.33731,"lon":5.39189,"is_reserved":false,"is_disabled":false,"rental_uris":{"android":"levelo://app?vid=5fd6a347-0a02-4efa-ab4a-06802493ed56","ios":"levelo://app?vid=5fd6a347-0a02-4efa-ab4a-06802493ed56"},