{"last_updated":1701529558,"ttl":30,"version":"2.2","data":{"bikes":[{"bike_id":"32cd854d-3916-483f-bdbb-658f582ff9e3","system_id":"levelo_inurba_marseille","lat":43.309076,"lon":5.368465,"is_reserved":false,"is_disabled":false,"rental_uris":{"android":"levelo://app?vid=32cd854d-3916-483f-bdbb-658f582ff9e3","ios":"levelo://app?vid=32cd854d-3916-483f-bdbb-658f582ff9e3"},"vehicle_type_id":"4","last_reported":1701529558,"current_range_meters":16400,"station_id":"ce4bgn92rcd13ifvqbvg","pricing_plan_id":"free"},{"bike_id":"c704d8e6-bd19-41c5-804b-43b3fe2e79e9","system_id":"levelo_inurba_marseille","lat":43.314811,"lon":5.373104,"is_reserved":false,"is_disabled":false,"rental_uris":{"android":"levelo://app?vid=c704d8e6-bd19-41c5-804b-43b3fe2e79e9","ios":"levelo://app?vid=c704d8e6-bd19-41c5-804b-43b3fe2e79e9"},"vehicle_type_id":"4","last_reported":1701529558,"current_range_meters":6000,"station_id":"ce4bgt12rcd13ifvqcd0","pricing_plan_id":"free"},{"bike_id":"ab1a45bc-5c86-4dc9-86c5-b3cdd9eb5b1a","system_id":"levelo_inurba_marseille","lat":43.31811,"lon":5.36889,"is_reserved":false,"is_disabled":false,"rental_uris":{"android":"levelo://app?vid=ab1a45bc-5c86-4dc9-86c5-b3cdd9eb5b1a","ios":"levelo://app?vid=ab1a45bc-5c86-4dc9-86c5-b3cdd9eb5b1a"},"vehicle_type_id":"4","last_reported":1701529558,"current_range_meters":0,"station_id":"","pricing_plan_id":"free"},{"bike_id":"d8eaad2e-b381-467d-a8c0-2d8a4be343ff","system_id":"levelo_inurba_marseille","lat":43.305714,"lon":5.365633,"is_reserved":false,"is_disabled":false,"rental_uris":{"android":"levelo://app?vid=d8eaad2e-b381-467d-a8c0-2d8a4be343ff","ios":"levelo://app?vid=d8eaad2e-b381-467d-a8c0-2d8a4be343ff"},"vehicle_type_id":"4","last_reported":1701529558,"current_range_meters":18800,"station_id":"ce4bgs12rcd13ifvqcag","pricing_plan_id":"free"},{"bike_id":"c1c8d076-eb0f-4d03-b164-081841dff200","system_id":"levelo_inurba_marseille","lat":43.30542,"lon":5.36721,"is_reserved":false,"is_disabled":false,"rental_uris":{"android":"levelo://app?vid=c1c8d076-eb0f-4d03-b164-081841dff200","ios":"levelo://app?vid=c1c8d076-eb0f-4d03-b164-081841dff200"},"vehicle_type_id":"4","last_reported":1701529558,"current_range_meters":6800,"station_id":"ce4bgrp2rcd13ifvqc9g","pricing_plan_id":"free"},{"bike_id":"0209d77b-fad2-41e4-808a-0999c464eab3","system_id":"levelo_inurba_marseille","lat":43.30592,"lon":5.37232,"is_reserved":false,"is_disabled":false,"rental_uris":{"android":"levelo://app?vid=0209d77b-fad2-41e4-808a-0999c464eab3","ios":"levelo://app?vid=0209d77b-fad2-41e4-808a-0999c464eab3"},"vehicle_type_id":"4","last_reported":1701529558,"current_range_meters":25600,"station_id":"ce4bgqh2rcd13ifvqc4g","pricing_plan_id":"free"},{"bike_id":"f0fc5fb3-acd2-4e73-97d5-43cf19cdeed0","system_id":"levelo_inurba_marseille","lat":43.30595,"lon":5.372452,"is_reserved":false,"is_disabled":false,"rental_uris":{"android":"levelo://app?vid=f0fc5fb3-acd2-4e73-97d5-43cf19cdeed0","ios":"levelo://app?vid=f0fc5fb3-acd2-4e73-97d5-43cf19cdeed0"},"vehicle_type_id":"4","last_reported":1701529558,"current_range_meters":13200,"station_id":"ce4bgqh2rcd13ifvqc4g","pricing_plan_id":"free"},{"bike_id":"f5805da5-bea4-4d85-9dcc-64d0ef5b2365","system_id":"levelo_inurba_marseille","lat":43.305878,"lon":5.37233,"is_reserved":false,"is_disabled":false,"rental_uris":{"android":"levelo://app?vid=f5805da5-bea4-4d85-9dcc-64d0ef5b2365","ios":"levelo://app?vid=f5805da5-bea4-4d85-9dcc-64d0ef5b2365"},"vehicle_type_id":"4","last_reported":1701529558,"current_range_meters":25600,"station_id":"ce4bgqh2rcd13ifvqc4g","pricing_plan_id":"free"},{"bike_id":"164d0361-6806-4b4f-b579-2c160c23e4b4","system_id":"levelo_inurba_marseille","lat":43.30587,"lon":5.37247,"is_reserved":false,"is_disabled":false,"rental_uris":{"android":"levelo://app?vid=164d0361-6806-4b4f-b579-2c160c23e4b4","ios":"levelo://app?vid=164d0361-6806-4b4f-b579-2c160c23e4b4"},"vehicle_type_id":"4","last_reported":1701529558,"current_range_meters":8000,"station_id":"ce4bgqh2rcd13ifvqc4g","pricing_plan_id":"free"},{"bike_id":"b6a0cc3c-f6f9-4662-9e10-006ee0c1220c","system_id":"levelo_inurba_marseille","lat":43.311131,"lon":5.377651,"is_reserved":false,"is_disabled":false,"rental_uris":{"android":"levelo://app?vid=b6a0cc3c-f6f9-4662-9e10-006ee0c1220c","ios":"levelo://app?vid=b6a0cc3c-f6f9-4662-9e10-006ee0c1220c"},"vehicle_type_id":"4","last_reported":1701529558,"current_range_meters":18400,"station_id":"ce4bgt92rcd13ifvqcg0","pricing_plan_id":"free"},{"bike_id":"024377cb-6ab1-4867-8813-9122a76ff037","system_id":"levelo_inurba_marseille","lat":43.31123,"lon":5.3777,"is_reserved":false,"is_disabled":false,"rental_uris":{"android":"levelo://app?vid=024377cb-6ab1-4867-8813-9122a76ff037","ios":"levelo://app?vid=024377cb-6ab1-4867-8813-9122a76ff037"},"vehicle_type_id":"4","last_reported":1701529558,"current_range_meters":10800,"station_id":"ce4bgt92rcd13ifvqcg0","pricing_plan_id":"free"},{"bike_id":"cfd3bb51-5657-4943-be4a-4ca2f802bb01","system_id":"levelo_inurba_marseille","lat":43.308157,"lon":5.376608,"is_reserved":false,"is_disabled":false,"rental_uris":{"android":"levelo://app?vid=cfd3bb51-5657-4943-be4a-4ca2f802bb01","ios":"levelo://app?vid=cfd3bb51-5657-4943-be4a-4ca2f802bb01"},"vehicle_type_id":"4","last_reported":1701529558,"current_range_meters":10400,"station_id":"ce4bgv92rcd13ifvqcq0","pricing_plan_id":"free"},{"bike_id":"f427a2c3-6e4a-446b-ae2f-9be8aa7f4122","system_id":"levelo_inurba_marseille","lat":43.31719,"lon":5.376813,"is_reserved":false,"is_disabled":false,"rental_uris":{"android":"levelo://app?vid=f427a2c3-6e4a-446b-ae2f-9be8aa7f4122","ios":"levelo://app?vid=f427a2c3-6e4a-446b-ae2f-9be8aa7f4122"},"vehicle_type_id":"4","last_reported":1701529558,"current_range_meters":0,"station_id":"","pricing_plan_id":"free"},{"bike_id":"e913f328-1e31-4c22-bd87-f809ea246de4","system_id":"levelo_inurba_marseille","lat":43.317168,"lon":5.376883,"is_reserved":false,"is_disabled":false,"rental_uris":{"android":"levelo://app?vid=e913f328-1e31-4c22-bd87-f809ea246de4","ios":"levelo://app?vid=e913f328-1e31-4c22-bd87-f809ea246de4"},"vehicle_type_id":"4","last_reported":1701529558,"current_range_meters":0,"station_id":"","pricing_plan_id":"free"},{"bike_id":"d088a93c-9a3c-4d6f-92a6-2acab3feffae","system_id":"levelo_inurba_marseille","lat":43.317075,"lon":5.377367,"is_reserved":false,"is_disabled":false,"rental_uris":{"android":"levelo://app?vid=d088a93c-9a3c-4d6f-92a6-2acab3feffae","ios":"levelo://app?vid=d088a93c-9a3c-4d6f-92a6-2acab3feffae"},"vehicle_type_id":"4","last_reported":1701529558,"current_range_meters":0,"station_id":"ce4bgth2rcd13ifvqch0","pricing_plan_id":"free"},{"bike_id":"fb6fd937-527b-4585-9058-0dfdc6436ac8","system_id":"levelo_inurba_marseille","lat":43.31351,"lon":5.37909,"is_reserved":false,"is_disabled":false,"rental_uris":{"android":"levelo://app?vid=fb6fd937-527b-4585-9058-0dfdc6436ac8","ios":"levelo://app?vid=fb6fd937-527b-4585-9058-0dfdc6436ac8"},"vehicle_type_id":"4","last_reported":1701529558,"current_range_meters":21200,"station_id":"","pricing_plan_id":"free"},{"bike_id":"2b95f354-2ffc-4aef-8a2c-1ee07fdbc0d0","system_id":"levelo_inurba_marseille","lat":43.303046,"lon":5.368981,"is_reserved":false,"is_disabled":false,"rental_uris":{"android":"levelo://app?vid=2b95f354-2ffc-4aef-8a2c-1ee07fdbc0d0","ios":"levelo://app?vid=2b95f354-2ffc-4aef-8a2c-1ee07fdbc0d0"},"vehicle_type_id":"4","last_reported":1701529558,"current_range_meters":14800,"station_id":"ce4bgqh2rcd13ifvqc5g","pricing_plan_id":"free"},{"bike_id":"1fd911cd-dd99-4a18-b452-f74222aa8d0a","system_id":"levelo_inurba_marseille","lat":43.308012,"lon":5.381511,"is_reserved":false,"is_disabled":false,"rental_uris":{"android":"levelo://app?vid=1fd911cd-dd99-4a18-b452-f74222aa8d0a","ios":"levelo://app?vid=1fd911cd-dd99-4a18-b452-f74222aa8d0a"},"vehicle_type_id":"4","last_reported":1701529558,"current_range_meters":12800,"station_id":"ce4bgt12rcd13ifvqce0","pricing_plan_id":"free"},{"bike_id":"ce669172-a6fc-4371-ad3d-f3dc9c207572","system_id":"levelo_inurba_marseille","lat":43.301939,"lon":5.366286,"is_reserved":false,"is_disabled":false,"rental_uris":{"android":"levelo://app?vid=ce669172-a6fc-4371-ad3d-f3dc9c207572","ios":"levelo://app?vid=ce669172-a6fc-4371-ad3d-f3dc9c207572"},"vehicle_type_id":"4","last_reported":1701529558,"current_range_meters":17200,"station_id":"ce4bgrh2rcd13ifvqc8g","pricing_plan_id":"free"},{"bike_id":"5c12866c-12e3-4487-840a-1fdea5a8a2b8","system_id":"levelo_inurba_marseille","lat":43.308012,"lon":5.381511,"is_reserved":false,"is_disabled":false,"rental_uris":{"android":"levelo://app?vid=5c12866c-12e3-4487-840a-1fdea5a8a2b8","ios":"levelo://app?vid=5c12866c-12e3-4487-840a-1fdea5a8a2b8"},"vehicle_type_id":"4","last_reported":1701529558,"current_range_meters":26800,"station_id":"ce4bgt12rcd13ifvqce0","pricing_plan_id":"free"},{"bike_id":"ceaa27ae-f6ce-429a-a0cc-311de23f76f0","system_id":"levelo_inurba_marseille","lat":43.308012,"lon":5.381511,"is_reserved":false,"is_disabled":false,"rental_uris":{"android":"levelo://app?vid=ceaa27ae-f6ce-429a-a0cc-311de23f76f0","ios":"levelo://app?vid=ceaa27ae-f6ce-429a-a0cc-311de23f76f0"},"vehicle_type_id":"4","last_reported":1701529558,"current_range_meters":12800,"station_id":"ce4bgt12rcd13ifvqce0","pricing_plan_id":"free"},{"bike_id":"e38556b7-d50b-45e9-8c2f-c12e2b607f54","system_id":"levelo_inurba_marseille","lat":43.304606,"lon":5.379026,"is_reserved":false,"is_disabled":false,"rental_uris":{"android":"levelo://app?vid=e38556b7-d50b-45e9-8c2f-c12e2b607f54","ios":"levelo://app?vid=e38556b7-d50b-45e9-8c2f-c12e2b607f54"},"vehicle_type_id":"4","last_reported":1701529558,"current_range_meters":4400,"station_id":"ce4bgup2rcd13ifvqcn0","pricing_plan_id":"free"},{"bike_id":"8c6725c5-5ff6-4a6a-9768-66e32939cf43","system_id":"levelo_inurba_marseille","lat":43.32482,"lon":5.36569,"is_reserved":false,"is_disabled":false,"rental_uris":{"android":"levelo://app?vid=8c6725c5-5ff6-4a6a-9768-66e32939cf43","ios":"levelo://app?vid=8c6725c5-5ff6-4a6a-9768-66e32939cf43"},"vehicle_type_id":"4","last_reported":1701529558,"current_range_meters":26000,"station_id":"ce4bhs12rcd13ifvqhvg","pricing_plan_id":"free"},{"bike_id":"e56c4c03-d6ac-416d-8380-bbaf7fb49559","system_id":"levelo_inurba_marseille","lat":43.324833,"lon":5.365561,"is_reserved":false,"is_disabled":false,"rental_uris":{"android":"levelo://app?vid=e56c4c03-d6ac-416d-8380-bbaf7fb49559","ios":"levelo://app?vid=e56c4c03-d6ac-416d-8380-bbaf7fb49559"},"vehicle_type_id":"4","last_reported":1701529558,"current_range_meters":2000,"station_id":"ce4bhs12rcd13ifvqhvg","pricing_plan_id":"free"},{"bike_id":"bc8eac31-4b5b-48b3-aa99-5c3fdd18d82e","system_id":"levelo_inurba_marseille","lat":43.324875,"lon":5.365642,"is_reserved":false,"is_disabled":false,"rental_uris":{"android":"levelo://app?vid=bc8eac31-4b5b-48b3-aa99-5c3fdd18d82e","ios":"levelo://app?vid=bc8eac31-4b5b-48b3-aa99-5c3fdd18d82e"},"vehicle_type_id":"4","last_reported":1701529558,"current_range_meters":18400,"station_id":"ce4bhs12rcd13ifvqhvg","pricing_plan_id":"free"},{"bike_id":"324b93e0-e56d-487f-81b5-f49f1cc5dd92","system_id":"levelo_inurba_marseille","lat":43.30143,"lon":5.37413,"is_reserved":false,"is_disabled":false,"rental_uris":{"android":"levelo://app?vid=324b93e0-e56d-487f-81b5-f49f1cc5dd92","ios":"levelo://app?vid=324b93e0-e56d-487f-81b5-f49f1cc5dd92"},"vehicle_type_id":"4","last_reported":1701529558,"current_range_meters":14000,"station_id":"ce4bgs92rcd13ifvqcc0","pricing_plan_id":"free"},{"bike_id":"1ba1ba50-82ba-4757-8b85-4cc45d5bb18b","system_id":"levelo_inurba_marseille","lat":43.301429,"lon":5.37413,"is_reserved":false,"is_disabled":false,"rental_uris":{"android":"levelo://app?vid=1ba1ba50-82ba-4757-8b85-4cc45d5bb18b","ios":"levelo://app?vid=1ba1ba50-82ba-4757-8b85-4cc45d5bb18b"},"vehicle_type_id":"4","last_reported":1701529558,"current_range_meters":20000,"station_id":"ce4bgs92rcd13ifvqcc0","pricing_plan_id":"free"},{"bike_id":"c220c9eb-a209-4396-b6c2-45d934af8198","system_id":"levelo_inurba_marseille","lat":43.30143,"lon":5.37413,"is_reserved":false,"is_disabled":false,"rental_uris":{"android":"levelo://app?vid=c220c9eb-a209-4396-b6c2-45d934af8198","ios":"levelo://app?vid=c220c9eb-a209-4396-b6c2-45d934af8198"},"vehicle_type_id":"4","last_reported":1701529558,"current_range_meters":31200,"station_id":"ce4bgs92rcd13ifvqcc0","pricing_plan_id":"free"},{"bike_id":"bbe518ed-cb90-4018-9b02-4cd263726c2d","system_id":"levelo_inurba_marseille","lat":43.301429,"lon":5.37413,"is_reserved":false,"is_disabled":false,"rental_uris":{"android":"levelo://app?vid=bbe518ed-cb90-4018-9b02-4cd263726c2d","ios":"levelo://app?vid=bbe518ed-cb90-4018-9b02-4cd263726c2d"},"vehicle_type_id":"4","last_reported":1701529558,"current_range_meters":31200,"station_id":"ce4bgs92rcd13ifvqcc0","pricing_plan_id":"free"},{"bike_id":"1ddab5dc-de9c-425e-a05a-c5b23c41989c","system_id":"levelo_inurba_marseille","lat":43.301429,"lon":5.37413,"is_reserved":false,"is_disabled":false,"rental_uris":{"android":"levelo://app?vid=1ddab5dc-de9c-425e-a05a-c5b23c41989c","ios":"levelo://app?vid=1ddab5dc-de9c-425e-a05a-c5b23c41989c"},"vehicle_type_id":"4","last_reported":1701529558,"current_range_meters":9200,"station_id":"ce4bgs92rcd13ifvqcc0","pricing_plan_id":"free"},{"bike_id":"2275aca5-3158-4c2c-8022-ca5d2714bc86","system_id":"levelo_inurba_marseille","lat":43.319997,"lon":5.381594,"is_reserved":false,"is_disabled":false,"rental_uris":{"android":"levelo://app?vid=2275aca5-3158-4c2c-8022-ca5d2714bc86","ios":"levelo://app?vid=2275aca5-3158-4c2c-8022-ca5d2714bc86"},"vehicle_type_id":"4","last_reported":1701529558,"current_range_meters":14800,"station_id":"ce4bhr12rcd13ifvqhpg","pricing_plan_id":"free"},{"bike_id":"9fdb7f97-586d-42d2-befd-15216ba2e422","system_id":"levelo_inurba_marseille","lat":43.31183,"lon":5.38523,"is_reserved":false,"is_disabled":false,"rental_uris":{"android":"levelo://app?vid=9fdb7f97-586d-42d2-befd-15216ba2e422","ios":"levelo://app?vid=9fdb7f97-586d-42d2-befd-15216ba2e422"},"vehicle_type_id":"4","last_reported":1701529558,"current_range_meters":1200,"station_id":"","pricing_plan_id":"free"},{"bike_id":"748d12ab-8e09-4ecd-b2d2-cbe0ea9624f6","system_id":"levelo_inurba_marseille","lat":43.29891,"lon":5.36743,"is_reserved":false,"is_disabled":false,"rental_uris":{"android":"levelo://app?vid=748d12ab-8e09-4ecd-b2d2-cbe0ea9624f6","ios":"levelo://app?vid=748d12ab-8e09-4ecd-b2d2-cbe0ea9624f6"},"vehicle_type_id":"4","last_reported":1701529558,"current_range_meters":6000,"station_id":"","pricing_plan_id":"free"},{"bike_id":"df5e2bcb-8a93-4193-8893-985952a3def7","system_id":"levelo_inurba_marseille","lat":43.313571,"lon":5.384829,"is_reserved":false,"is_disabled":false,"rental_uris":{"android":"levelo://app?vid=df5e2bcb-8a93-4193-8893-985952a3def7","ios":"levelo://app?vid=df5e2bcb-8a93-4193-8893-985952a3def7"},"vehicle_type_id":"4","last_reported":1701529558,"current_range_meters":22000,"station_id":"ce4bgt92rcd13ifvqcf0","pricing_plan_id":"free"},{"bike_id":"d1e56e51-f4b8-4d66-97de-70af22bcb4c6","system_id":"levelo_inurba_marseille","lat":43.299243,"lon":5.37481,"is_reserved":false,"is_disabled":false,"rental_uris":{"android":"levelo://app?vid=d1e56e51-f4b8-4d66-97de-70af22bcb4c6","ios":"levelo://app?vid=d1e56e51-f4b8-4d66-97de-70af22bcb4c6"},"vehicle_type_id":"4","last_reported":1701529558,"current_range_meters":23200,"station_id":"ce4bgjh2rcd13ifvqbg0","pricing_plan_id":"free"},{"bike_id":"8d7cbc3a-dc89-4ffe-af66-a05dd6e38785","system_id":"levelo_inurba_marseille","lat":43.322872,"lon":5.382756,"is_reserved":false,"is_disabled":false,"rental_uris":{"android":"levelo://app?vid=8d7cbc3a-dc89-4ffe-af66-a05dd6e38785","ios":"levelo://app?vid=8d7cbc3a-dc89-4ffe-af66-a05dd6e38785"},"vehicle_type_id":"4","last_reported":1701529558,"current_range_meters":30400,"station_id":"ce4bhr12rcd13ifvqhqg","pricing_plan_id":"free"},{"bike_id":"863e68e6-f678-4404-9035-1f0c001016cb","system_id":"levelo_inurba_marseille","lat":43.32827,"lon":5.36683,"is_reserved":false,"is_disabled":false,"rental_uris":{"android":"levelo://app?vid=863e68e6-f678-4404-9035-1f0c001016cb","ios":"levelo://app?vid=863e68e6-f678-4404-9035-1f0c001016cb"},"vehicle_type_id":"4","last_reported":1701529558,"current_range_meters":16800,"station_id":"ce4bhs92rcd13ifvqi0g","pricing_plan_id":"free"},{"bike_id":"c0284961-478e-4ccd-b43e-321d6e4c5580","system_id":"levelo_inurba_marseille","lat":43.32831,"lon":5.36682,"is_reserved":false,"is_disabled":false,"rental_uris":{"android":"levelo://app?vid=c0284961-478e-4ccd-b43e-321d6e4c5580","ios":"levelo://app?vid=c0284961-478e-4ccd-b43e-321d6e4c5580"},"vehicle_type_id":"4","last_reported":1701529558,"current_range_meters":3200,"station_id":"ce4bhs92rcd13ifvqi0g","pricing_plan_id":"free"},{"bike_id":"5c26bdfb-7b7c-43fb-8a01-250128a1a6f8","system_id":"levelo_inurba_marseille","lat":43.32832,"lon":5.36679,"is_reserved":false,"is_disabled":false,"rental_uris":{"android":"levelo://app?vid=5c26bdfb-7b7c-43fb-8a01-250128a1a6f8","ios":"levelo://app?vid=5c26bdfb-7b7c-43fb-8a01-250128a1a6f8"},"vehicle_type_id":"4","last_reported":1701529558,"current_range_meters":20800,"station_id":"ce4bhs92rcd13ifvqi0g","pricing_plan_id":"free"},{"bike_id":"3c6eacad-63e8-42f7-9988-09cf64b64dd8","system_id":"levelo_inurba_marseille","lat":43.32832,"lon":5.36678,"is_reserved":false,"is_disabled":false,"rental_uris":{"android":"levelo://app?vid=3c6eacad-63e8-42f7-9988-09cf64b64dd8","ios":"levelo://app?vid=3c6eacad-63e8-42f7-9988-09cf64b64dd8"},"vehicle_type_id":"4","last_reported":1701529558,"current_range_meters":7600,"station_id":"ce4bhs92rcd13ifvqi0g","pricing_plan_id":"free"},{"bike_id":"eaa0e7e7-2390-47fa-909b-7b240952cbef","system_id":"levelo_inurba_marseille","lat":43.316538,"lon":5.38961,"is_reserved":false,"is_disabled":false,"rental_uris":{"android":"levelo://app?vid=eaa0e7e7-2390-47fa-909b-7b240952cbef","ios":"levelo://app?vid=eaa0e7e7-2390-47fa-909b-7b240952cbef"},"vehicle_type_id":"4","last_reported":1701529558,"current_range_meters":16800,"station_id":"","pricing_plan_id":"free"},{"bike_id":"401ea956-e768-4d18-8f4a-bff1f7cfbffe","system_id":"levelo_inurba_marseille","lat":43.317557,"lon":5.390173,"is_reserved":false,"is_disabled":false,"rental_uris":{"android":"levelo://app?vid=401ea956-e768-4d18-8f4a-bff1f7cfbffe","ios":"levelo://app?vid=401ea956-e768-4d18-8f4a-bff1f7cfbffe"},"vehicle_type_id":"4","last_reported":1701529558,"current_range_meters":28400,"station_id":"ce4bhqp2rcd13ifvqhng","pricing_plan_id":"free"},{"bike_id":"e3f82383-affe-4692-b448-772f7aa7fda5","system_id":"levelo_inurba_marseille","lat":43.29615,"lon":5.37504,"is_reserved":false,"is_disabled":false,"rental_uris":{"android":"levelo://app?vid=e3f82383-affe-4692-b448-772f7aa7fda5","ios":"levelo://app?vid=e3f82383-affe-4692-b448-772f7aa7fda5"},"vehicle_type_id":"4","last_reported":1701529558,"current_range_meters":0,"station_id":"ce4bgh92rcd13ifvqb50","pricing_plan_id":"free"},{"bike_id":"c7010a25-a601-490d-89ad-8ab3d73dc2c4","system_id":"levelo_inurba_marseille","lat":43.296263,"lon":5.377094,"is_reserved":false,"is_disabled":false,"rental_uris":{"android":"levelo://app?vid=c7010a25-a601-490d-89ad-8ab3d73dc2c4","ios":"levelo://app?vid=c7010a25-a601-490d-89ad-8ab3d73dc2c4"},"vehicle_type_id":"4","last_reported":1701529558,"current_range_meters":8000,"station_id":"ce4bgi92rcd13ifvqb90","pricing_plan_id":"free"},{"bike_id":"10ca0545-4b67-44d4-97ae-28dd42aeb7f2","system_id":"levelo_inurba_marseille","lat":43.304278,"lon":5.388868,"is_reserved":false,"is_disabled":false,"rental_uris":{"android":"levelo://app?vid=10ca0545-4b67-44d4-97ae-28dd42aeb7f2","ios":"levelo://app?vid=10ca0545-4b67-44d4-97ae-28dd42aeb7f2"},"vehicle_type_id":"4","last_reported":1701529558,"current_range_meters":23200,"station_id":"ce4bgk12rcd13ifvqbi0","pricing_plan_id":"free"},{"bike_id":"7345c924-5b86-446e-8ede-4cc2c7099b9f","system_id":"levelo_inurba_marseille","lat":43.296263,"lon":5.377094,"is_reserved":false,"is_disabled":false,"rental_uris":{"android":"levelo://app?vid=7345c924-5b86-446e-8ede-4cc2c7099b9f","ios":"levelo://app?vid=7345c924-5b86-446e-8ede-4cc2c7099b9f"},"vehicle_type_id":"4","last_reported":1701529558,"current_range_meters":17200,"station_id":"ce4bgi92rcd13ifvqb90","pricing_plan_id":"free"},{"bike_id":"13ca97e5-82b5-4e06-8d78-e9793b7e594e","system_id":"levelo_inurba_marseille","lat":43.297142,"lon":5.379705,"is_reserved":false,"is_disabled":false,"rental_uris":{"android":"levelo://app?vid=13ca97e5-82b5-4e06-8d78-e9793b7e594e","ios":"levelo://app?vid=13ca97e5-82b5-4e06-8d78-e9793b7e594e"},"vehicle_type_id":"4","last_reported":1701529558,"current_range_meters":18800,"station_id":"","pricing_plan_id":"free"},{"bike_id":"9fe59cff-0211-4617-88db-f309853fb441","system_id":"levelo_inurba_marseille","lat":43.296117,"lon":5.377141,"is_reserved":false,"is_disabled":false,"rental_uris":{"android":"levelo://app?vid=9fe59cff-0211-4617-88db-f309853fb441","ios":"levelo://app?vid=9fe59cff-0211-4617-88db-f309853fb441"},"vehicle_type_id":"4","last_reported":1701529558,"current_range_meters":0,"station_id":"ce4bgi92rcd13ifvqb90","pricing_plan_id":"free"},{"bike_id":"64a6b27c-caae-4384-b7b6-f9848a730114","system_id":"levelo_inurba_marseille","lat":43.29965,"lon":5.3849,"is_reserved":false,"is_disabled":false,"rental_uris":{"android":"levelo://app?vid=64a6b27c-caae-4384-b7b6-f9848a730114","ios":"levelo://app?vid=64a6b27c-caae-4384-b7b6-f9848a730114"},"vehicle_type_id":"4","last_reported":1701529558,"current_range_meters":9600,"station_id":"ce4bgj92rcd13ifvqbd0","pricing_plan_id":"free"},{"bike_id":"903efe8a-b7ae-43b5-9e0c-4675cf35504f","system_id":"levelo_inurba_marseille","lat":43.299724,"lon":5.384848,"is_reserved":false,"is_disabled":false,"rental_uris":{"android":"levelo://app?vid=903efe8a-b7ae-43b5-9e0c-4675cf35504f","ios":"levelo://app?vid=903efe8a-b7ae-43b5-9e0c-4675cf35504f"},"vehicle_type_id":"4","last_reported":1701529558,"current_range_meters":8400,"station_id":"ce4bgj92rcd13ifvqbd0","pricing_plan_id":"free"},{"bike_id":"14f188ef-7f5b-4e99-a75c-67ea17672bd1","system_id":"levelo_inurba_marseille","lat":43.293259,"lon":5.371586,"is_reserved":false,"is_disabled":false,"rental_uris":{"android":"levelo://app?vid=14f188ef-7f5b-4e99-a75c-67ea17672bd1","ios":"levelo://app?vid=14f188ef-7f5b-4e99-a75c-67ea17672bd1"},"vehicle_type_id":"4","last_reported":1701529558,"current_range_meters":25200,"station_id":"ce4bgh92rcd13ifvqb40","pricing_plan_id":"free"},{"bike_id":"e1bdea2a-1eb6-4663-a0fa-aa8480c66340","system_id":"levelo_inurba_marseille","lat":43.293249,"lon":5.371578,"is_reserved":false,"is_disabled":false,"rental_uris":{"android":"levelo://app?vid=e1bdea2a-1eb6-4663-a0fa-aa8480c66340","ios":"levelo://app?vid=e1bdea2a-1eb6-4663-a0fa-aa8480c66340"},"vehicle_type_id":"4","last_reported":1701529558,"current_range_meters":0,"station_id":"ce4bgh92rcd13ifvqb40","pricing_plan_id":"free"},{"bike_id":"74bec859-f3a5-463b-863d-022dadb0556e","system_id":"levelo_inurba_marseille","lat":43.29269,"lon":5.36842,"is_reserved":false,"is_disabled":false,"rental_uris":{"android":"levelo://app?vid=74bec859-f3a5-463b-863d-022dadb0556e","ios":"levelo://app?vid=74bec859-f3a5-463b-863d-022dadb0556e"},"vehicle_type_id":"4","last_reported":1701529558,"current_range_meters":0,"station_id":"ce4bhbp2rcd13ifvqesg","pricing_plan_id":"free"},{"bike_id":"c93b02ac-797f-45d7-94e8-9618ad4b1cbc","system_id":"levelo_inurba_marseille","lat":43.2926,"lon":5.36858,"is_reserved":false,"is_disabled":false,"rental_uris":{"android":"levelo://app?vid=c93b02ac-797f-45d7-94e8-9618ad4b1cbc","ios":"levelo://app?vid=c93b02ac-797f-45d7-94e8-9618ad4b1cbc"},"vehicle_type_id":"4","last_reported":1701529558,"current_range_meters":0,"station_id":"ce4bhbp2rcd13ifvqesg","pricing_plan_id":"free"},{"bike_id":"8e781cbd-cb1f-478c-8573-13e87a05f2b6","system_id":"levelo_inurba_marseille","lat":43.293009,"lon":5.374584,"is_reserved":false,"is_disabled":false,"rental_uris":{"android":"levelo://app?vid=8e781cbd-cb1f-478c-8573-13e87a05f2b6","ios":"levelo://app?vid=8e781cbd-cb1f-478c-8573-13e87a05f2b6"},"vehicle_type_id":"4","last_reported":1701529558,"current_range_meters":19200,"station_id":"ce4bgi12rcd13ifvqb70","pricing_plan_id":"free"},{"bike_id":"dfbfe10e-8183-43ba-86fc-50a5c0bd69d4","system_id":"levelo_inurba_marseille","lat":43.293009,"lon":5.374584,"is_reserved":false,"is_disabled":false,"rental_uris":{"android":"levelo://app?vid=dfbfe10e-8183-43ba-86fc-50a5c0bd69d4","ios":"levelo://app?vid=dfbfe10e-8183-43ba-86fc-50a5c0bd69d4"},"vehicle_type_id":"4","last_reported":1701529558,"current_range_meters":22000,"station_id":"ce4bgi12rcd13ifvqb70","pricing_plan_id":"free"},{"bike_id":"68bd4169-5a78-48a1-b2e3-a00bc6296c59","system_id":"levelo_inurba_marseille","lat":43.293009,"lon":5.374584,"is_reserved":false,"is_disabled":false,"rental_uris":{"android":"levelo://app?vid=68bd4169-5a78-48a1-b2e3-a00bc6296c59","ios":"levelo://app?vid=68bd4169-5a78-48a1-b2e3-a00bc6296c59"},"vehicle_type_id":"4","last_reported":1701529558,"current_range_meters":24400,"station_id":"ce4bgi12rcd13ifvqb70","pricing_plan_id":"free"},{"bike_id":"60c7f930-9181-4c42-be12-478e19644046","system_id":"levelo_inurba_marseille","lat":43.293009,"lon":5.374584,"is_reserved":false,"is_disabled":false,"rental_uris":{"android":"levelo://app?vid=60c7f930-9181-4c42-be12-478e19644046","ios":"levelo://app?vid=60c7f930-9181-4c42-be12-478e19644046"},"vehicle_type_id":"4","last_reported":1701529558,"current_range_meters":17600,"station_id":"ce4bgi12rcd13ifvqb70","pricing_plan_id":"free"},{"bike_id":"4bac15c2-8389-4ad9-afea-6e4dfaae02f8","system_id":"levelo_inurba_marseille","lat":43.302992,"lon":5.392136,"is_reserved":false,"is_disabled":false,"rental_uris":{"android":"levelo://app?vid=4bac15c2-8389-4ad9-afea-6e4dfaae02f8","ios":"levelo://app?vid=4bac15c2-8389-4ad9-afea-6e4dfaae02f8"},"vehicle_type_id":"4","last_reported":1701529558,"current_range_meters":2800,"station_id":"ce4bgkh2rcd13ifvqbk0","pricing_plan_id":"free"},{"bike_id":"bef2025b-1b81-465f-999e-c8838b7b29f5","system_id":"levelo_inurba_marseille","lat":43.2936,"lon":5.37835,"is_reserved":false,"is_disabled":false,"rental_uris":{"android":"levelo://app?vid=bef2025b-1b81-465f-999e-c8838b7b29f5","ios":"levelo://app?vid=bef2025b-1b81-465f-999e-c8838b7b29f5"},"vehicle_type_id":"4","last_reported":1701529558,"current_range_meters":7600,"station_id":"ce4bgjh2rcd13ifvqbf0","pricing_plan_id":"free"},{"bike_id":"eec60237-2472-45bf-b597-521f1068847c","system_id":"levelo_inurba_marseille","lat":43.300852,"lon":5.390859,"is_reserved":false,"is_disabled":false,"rental_uris":{"android":"levelo://app?vid=eec60237-2472-45bf-b597-521f1068847c","ios":"levelo://app?vid=eec60237-2472-45bf-b597-521f1068847c"},"vehicle_type_id":"4","last_reported":1701529558,"current_range_meters":20400,"station_id":"ce4bh192rcd13ifvqdb0","pricing_plan_id":"free"},{"bike_id":"57729494-4e91-46bd-a781-b51e1a7eb636","system_id":"levelo_inurba_marseille","lat":43.291994,"lon":5.357886,"is_reserved":false,"is_disabled":false,"rental_uris":{"android":"levelo://app?vid=57729494-4e91-46bd-a781-b51e1a7eb636","ios":"levelo://app?vid=57729494-4e91-46bd-a781-b51e1a7eb636"},"vehicle_type_id":"4","last_reported":1701529558,"current_range_meters":19600,"station_id":"ce4bhb12rcd13ifvqel0","pricing_plan_id":"free"},{"bike_id":"5a8c5445-367d-4bc9-8287-71ac522affb5","system_id":"levelo_inurba_marseille","lat":43.313291,"lon":5.396838,"is_reserved":false,"is_disabled":false,"rental_uris":{"android":"levelo://app?vid=5a8c5445-367d-4bc9-8287-71ac522affb5","ios":"levelo://app?vid=5a8c5445-367d-4bc9-8287-71ac522affb5"},"vehicle_type_id":"4","last_reported":1701529558,"current_range_meters":0,"station_id":"ce4bgvp2rcd13ifvqcu0","pricing_plan_id":"free"},{"bike_id":"71061a80-3e97-4179-b312-b532876cface","system_id":"levelo_inurba_marseille","lat":43.29185,"lon":5.35809,"is_reserved":false,"is_disabled":false,"rental_uris":{"android":"levelo://app?vid=71061a80-3e97-4179-b312-b532876cface","ios":"levelo://app?vid=71061a80-3e97-4179-b312-b532876cface"},"vehicle_type_id":"4","last_reported":1701529558,"current_range_meters":0,"station_id":"ce4bhb12rcd13ifvqel0","pricing_plan_id":"free"},{"bike_id":"a8a635d2-3b8c-4714-a718-603d5cbfec0c","system_id":"levelo_inurba_marseille","lat":43.29529,"lon":5.385581,"is_reserved":false,"is_disabled":false,"rental_uris":{"android":"levelo://app?vid=a8a635d2-3b8c-4714-a718-603d5cbfec0c","ios":"levelo://app?vid=a8a635d2-3b8c-4714-a718-603d5cbfec0c"},"vehicle_type_id":"4","last_reported":1701529558,"current_range_meters":12800,"station_id":"ce4bgih2rcd13ifvqba0","pricing_plan_id":"free"},{"bike_id":"e5d01cdd-08f8-4039-870d-a253c1851b6e","system_id":"levelo_inurba_marseille","lat":43.302008,"lon":5.394694,"is_reserved":false,"is_disabled":false,"rental_uris":{"android":"levelo://app?vid=e5d01cdd-08f8-4039-870d-a253c1851b6e","ios":"levelo://app?vid=e5d01cdd-08f8-4039-870d-a253c1851b6e"},"vehicle_type_id":"4","last_reported":1701529558,"current_range_meters":800,"station_id":"ce4bh0p2rcd13ifvqd70","pricing_plan_id":"free"},{"bike_id":"4b4d4167-0ba4-42ed-b080-36398ccf6356","system_id":"levelo_inurba_marseille","lat":43.29037,"lon":5.37574,"is_reserved":false,"is_disabled":false,"rental_uris":{"android":"levelo://app?vid=4b4d4167-0ba4-42ed-b080-36398ccf6356","ios":"levelo://app?vid=4b4d4167-0ba4-42ed-b080-36398ccf6356"},"vehicle_type_id":"4","last_reported":1701529558,"current_range_meters":1600,"station_id":"ce4bh692rcd13ifvqe90","pricing_plan_id":"free"},{"bike_id":"ae5d88d4-aa15-48d5-88ed-5f996c85f244","system_id":"levelo_inurba_marseille","lat":43.29036,"lon":5.3757,"is_reserved":false,"is_disabled":false,"rental_uris":{"android":"levelo://app?vid=ae5d88d4-aa15-48d5-88ed-5f996c85f244","ios":"levelo://app?vid=ae5d88d4-aa15-48d5-88ed-5f996c85f244"},"vehicle_type_id":"4","last_reported":1701529558,"current_range_meters":6400,"station_id":"ce4bh692rcd13ifvqe90","pricing_plan_id":"free"},{"bike_id":"f7d7f967-599f-4fb1-9265-816af4bce99f","system_id":"levelo_inurba_marseille","lat":43.29033,"lon":5.37573,"is_reserved":false,"is_disabled":false,"rental_uris":{"android":"levelo://app?vid=f7d7f967-599f-4fb1-9265-816af4bce99f","ios":"levelo://app?vid=f7d7f967-599f-4fb1-9265-816af4bce99f"},"vehicle_type_id":"4","last_reported":1701529558,"current_range_meters":26400,"station_id":"ce4bh692rcd13ifvqe90","pricing_plan_id":"free"},{"bike_id":"dd417374-c583-431c-9519-b19da390651c","system_id":"levelo_inurba_marseille","lat":43.290327,"lon":5.375711,"is_reserved":false,"is_disabled":false,"rental_uris":{"android":"levelo://app?vid=dd417374-c583-431c-9519-b19da390651c","ios":"levelo://app?vid=dd417374-c583-431c-9519-b19da390651c"},"vehicle_type_id":"4","last_reported":1701529558,"current_range_meters":21200,"station_id":"ce4bh692rcd13ifvqe90","pricing_plan_id":"free"},{"bike_id":"8a54f381-ccfe-40a3-8e67-abbba1e5e9c9","system_id":"levelo_inurba_marseille","lat":43.289184,"lon":5.366408,"is_reserved":false,"is_disabled":false,"rental_uris":{"android":"levelo://app?vid=8a54f381-ccfe-40a3-8e67-abbba1e5e9c9","ios":"levelo://app?vid=8a54f381-ccfe-40a3-8e67-abbba1e5e9c9"},"vehicle_type_id":"4","last_reported":1701529558,"current_range_meters":18400,"station_id":"ce4bhap2rcd13ifvqek0","pricing_plan_id":"free"},{"bike_id":"1910d69c-256c-49d6-b412-5e86c6932302","system_id":"levelo_inurba_marseille","lat":43.290068,"lon":5.356093,"is_reserved":false,"is_disabled":false,"rental_uris":{"android":"levelo://app?vid=1910d69c-256c-49d6-b412-5e86c6932302","ios":"levelo://app?vid=1910d69c-256c-49d6-b412-5e86c6932302"},"vehicle_type_id":"4","last_reported":1701529558,"current_range_meters":29200,"station_id":"ce4bhb92rcd13ifvqen0","pricing_plan_id":"free"},{"bike_id":"534b0c4b-74f0-465a-8eed-d8e03c4ab55c","system_id":"levelo_inurba_marseille","lat":43.289468,"lon":5.363719,"is_reserved":false,"is_disabled":false,"rental_uris":{"android":"levelo://app?vid=534b0c4b-74f0-465a-8eed-d8e03c4ab55c","ios":"levelo://app?vid=534b0c4b-74f0-465a-8eed-d8e03c4ab55c"},"vehicle_type_id":"4","last_reported":1701529558,"current_range_meters":6400,"station_id":"ce4bhc92rcd13ifvqetg","pricing_plan_id":"free"},{"bike_id":"b584b2bf-3fed-4322-8c9e-57999d127531","system_id":"levelo_inurba_marseille","lat":43.29782,"lon":5.3932,"is_reserved":false,"is_disabled":false,"rental_uris":{"android":"levelo://app?vid=b584b2bf-3fed-4322-8c9e-57999d127531","ios":"levelo://app?vid=b584b2bf-3fed-4322-8c9e-57999d127531"},"vehicle_type_id":"4","last_reported":1701529558,"current_range_meters":4000,"station_id":"chh1huq6cuj3fo74tm60","pricing_plan_id":"free"},{"bike_id":"ea17d923-47c4-4a8c-97b4-24bc9e50e07d","system_id":"levelo_inurba_marseille","lat":43.297815,"lon":5.393548,"is_reserved":false,"is_disabled":false,"rental_uris":{"android":"levelo://app?vid=ea17d923-47c4-4a8c-97b4-24bc9e50e07d","ios":"levelo://app?vid=ea17d923-47c4-4a8c-97b4-24bc9e50e07d"},"vehicle_type_id":"4","last_reported":1701529558,"current_range_meters":25200,"station_id":"chh1huq6cuj3fo74tm60","pricing_plan_id":"free"},{"bike_id":"b38135b0-bb14-4c25-bf29-b49d406cc922","system_id":"levelo_inurba_marseille","lat":43.33056,"lon":5.39058,"is_reserved":false,"is_disabled":false,"rental_uris":{"android":"levelo://app?vid=b38135b0-bb14-4c25-bf29-b49d406cc922","ios":"levelo://app?vid=b38135b0-bb14-4c25-bf29-b49d406cc922"},"vehicle_type_id":"4","last_reported":1701529558,"current_range_meters":800,"station_id":"","pricing_plan_id":"free"},{"bike_id":"8c7bb3f8-ec00-4bfc-8e58-6a675a659089","system_id":"levelo_inurba_marseille","lat":43.28849,"lon":5.35843,"is_reserved":false,"is_disabled":false,"rental_uris":{"android":"levelo://app?vid=8c7bb3f8-ec00-4bfc-8e58-6a675a659089","ios":"levelo://app?vid=8c7bb3f8-ec00-4bfc-8e58-6a675a659089"},"vehicle_type_id":"4","last_reported":1701529558,"current_range_meters":0,"station_id":"ce4bhb12rcd13ifvqem0","pricing_plan_id":"free"},{"bike_id":"5ee830a4-21de-41db-b2c1-269c4d7c09cd","system_id":"levelo_inurba_marseille","lat":43.306412,"lon":5.401035,"is_reserved":false,"is_disabled":false,"rental_uris":{"android":"levelo://app?vid=5ee830a4-21de-41db-b2c1-269c4d7c09cd","ios":"levelo://app?vid=5ee830a4-21de-41db-b2c1-269c4d7c09cd"},"vehicle_type_id":"4","last_reported":1701529558,"current_range_meters":26800,"station_id":"ce4bh112rcd13ifvqda0","pricing_plan_id":"free"},{"bike_id":"910fd3aa-d2e0-4553-894a-6161d41c7fcd","system_id":"levelo_inurba_marseille","lat":43.33773,"lon":5.3743,"is_reserved":false,"is_disabled":false,"rental_uris":{"android":"levelo://app?vid=910fd3aa-d2e0-4553-894a-6161d41c7fcd","ios":"levelo://app?vid=910fd3aa-d2e0-4553-894a-6161d41c7fcd"},"vehicle_type_id":"4","last_reported":1701529558,"current_range_meters":30000,"station_id":"","pricing_plan_id":"free"},{"bike_id":"1c2d9ee4-8784-4b29-b7c6-88b68bec751f","system_id":"levelo_inurba_marseille","lat":43.33781,"lon":5.37423,"is_reserved":false,"is_disabled":false,"rental_uris":{"android":"levelo://app?vid=1c2d9ee4-8784-4b29-b7c6-88b68bec751f","ios":"levelo://app?vid=1c2d9ee4-8784-4b29-b7c6-88b68bec751f"},"vehicle_type_id":"4","last_reported":1701529558,"current_range_meters":31200,"station_id":"","pricing_plan_id":"free"},{"bike_id":"32e0b224-6bef-43ae-92f6-b59990d6ee9f","system_id":"levelo_inurba_marseille","lat":43.28929,"lon":5.38399,"is_reserved":false,"is_disabled":false,"rental_uris":{"android":"levelo://app?vid=32e0b224-6bef-43ae-92f6-b59990d6ee9f","ios":"levelo://app?vid=32e0b224-6bef-43ae-92f6-b59990d6ee9f"},"vehicle_type_id":"4","last_reported":1701529558,"current_range_meters":15200,"station_id":"ce4bh612rcd13ifvqe6g","pricing_plan_id":"free"},{"bike_id":"cd12e1d3-f37b-439f-a83c-fc27e6650bcd","system_id":"levelo_inurba_marseille","lat":43.2902,"lon":5.38643,"is_reserved":false,"is_disabled":false,"rental_uris":{"android":"levelo://app?vid=cd12e1d3-f37b-439f-a83c-fc27e6650bcd","ios":"levelo://app?vid=cd12e1d3-f37b-439f-a83c-fc27e6650bcd"},"vehicle_type_id":"4","last_reported":1701529558,"current_range_meters":0,"station_id":"ce4bh4p2rcd13ifvqe0g","pricing_plan_id":"free"},{"bike_id":"abdf7621-70da-4425-b07a-0e4b2eaaefd9","system_id":"levelo_inurba_marseille","lat":43.28607,"lon":5.37065,"is_reserved":false,"is_disabled":false,"rental_uris":{"android":"levelo://app?vid=abdf7621-70da-4425-b07a-0e4b2eaaefd9","ios":"levelo://app?vid=abdf7621-70da-4425-b07a-0e4b2eaaefd9"},"vehicle_type_id":"4","last_reported":1701529558,"current_range_meters":4400,"station_id":"ce4bht12rcd13ifvqi60","pricing_plan_id":"free"},{"bike_id":"cbac4771-37d6-48e8-bb35-5c73f0f091bd","system_id":"levelo_inurba_marseille","lat":43.291994,"lon":5.392907,"is_reserved":false,"is_disabled":false,"rental_uris":{"android":"levelo://app?vid=cbac4771-37d6-48e8-bb35-5c73f0f091bd","ios":"levelo://app?vid=cbac4771-37d6-48e8-bb35-5c73f0f091bd"},"vehicle_type_id":"4","last_reported":1701529558,"current_range_meters":31200,"station_id":"ce4bh192rcd13ifvqdd0","pricing_plan_id":"free"},{"bike_id":"2beafe02-28aa-4ec2-b585-0daf71209c6e","system_id":"levelo_inurba_marseille","lat":43.284538,"lon":5.358657,"is_reserved":false,"is_disabled":false,"rental_uris":{"android":"levelo://app?vid=2beafe02-28aa-4ec2-b585-0daf71209c6e","ios":"levelo://app?vid=2beafe02-28aa-4ec2-b585-0daf71209c6e"},"vehicle_type_id":"4","last_reported":1701529558,"current_range_meters":10000,"station_id":"ce4bhah2rcd13ifvqei0","pricing_plan_id":"free"},{"bike_id":"0d5d7ab8-9ae7-432f-9189-bf46aad59761","system_id":"levelo_inurba_marseille","lat":43.319179,"lon":5.407725,"is_reserved":false,"is_disabled":false,"rental_uris":{"android":"levelo://app?vid=0d5d7ab8-9ae7-432f-9189-bf46aad59761","ios":"levelo://app?vid=0d5d7ab8-9ae7-432f-9189-bf46aad59761"},"vehicle_type_id":"4","last_reported":1701529558,"current_range_meters":30800,"station_id":"ce4bhq12rcd13ifvqhig","pricing_plan_id":"free"},{"bike_id":"f99fc4d8-709b-4cee-a32c-2cdd6f1e8b1e","system_id":"levelo_inurba_marseille","lat":43.33749,"lon":5.39111,"is_reserved":false,"is_disabled":false,"rental_uris":{"android":"levelo://app?vid=f99fc4d8-709b-4cee-a32c-2cdd6f1e8b1e","ios":"levelo://app?vid=f99fc4d8-709b-4cee-a32c-2cdd6f1e8b1e"},"vehicle_type_id":"4","last_reported":1701529558,"current_range_meters":25600,"station_id":"","pricing_plan_id":"free"},{"bike_id":"eca4f01d-548b-4e26-b4f7-2d67545d3e9e","system_id":"levelo_inurba_marseille","lat":43.323464,"lon":5.406297,"is_reserved":false,"is_disabled":false,"rental_uris":{"android":"levelo://app?vid=eca4f01d-548b-4e26-b4f7-2d67545d3e9e","ios":"levelo://app?vid=eca4f01d-548b-4e26-b4f7-2d67545d3e9e"},"vehicle_type_id":"4","last_reported":1701529558,"current_range_meters":1600,"station_id":"ce4bhq92rcd13ifvqhjg","pricing_plan_id":"free"},{"bike_id":"4714f7cd-5ff4-41d0-870b-3e9261538b58","system_id":"levelo_inurba_marseille","lat":43.323464,"lon":5.406297,"is_reserved":false,"is_disabled":false,"rental_uris":{"android":"levelo://app?vid=4714f7cd-5ff4-41d0-870b-3e9261538b58","ios":"levelo://app?vid=4714f7cd-5ff4-41d0-870b-3e9261538b58"},"vehicle_type_id":"4","last_reported":1701529558,"current_range_meters":28000,"station_id":"ce4bhq92rcd13ifvqhjg","pricing_plan_id":"free"},{"bike_id":"4092b413-a8f0-49fd-8cc3-69bf3f509a40","system_id":"levelo_inurba_marseille","lat":43.32337,"lon":5.40622,"is_reserved":false,"is_disabled":false,"rental_uris":{"android":"levelo://app?vid=4092b413-a8f0-49fd-8cc3-69bf3f509a40","ios":"levelo://app?vid=4092b413-a8f0-49fd-8cc3-69bf3f509a40"},"vehicle_type_id":"4","last_reported":1701529558,"current_range_meters":10000,"station_id":"ce4bhq92rcd13ifvqhjg","pricing_plan_id":"free"},{"bike_id":"544462b6-9c2e-4742-853a-44cbcd696ff8","system_id":"levelo_inurba_marseille","lat":43.297946,"lon":5.404063,"is_reserved":false,"is_disabled":false,"rental_uris":{"android":"levelo://app?vid=544462b6-9c2e-4742-853a-44cbcd696ff8","ios":"levelo://app?vid=544462b6-9c2e-4742-853a-44cbcd696ff8"},"vehicle_type_id":"4","last_reported":1701529558,"current_range_meters":1600,"station_id":"ce4bh112rcd13ifvqd90","pricing_plan_id":"free"},{"bike_id":"469224a9-326e-475f-a595-ad8443c1d227","system_id":"levelo_inurba_marseille","lat":43.284217,"lon":5.349697,"is_reserved":false,"is_disabled":false,"rental_uris":{"android":"levelo://app?vid=469224a9-326e-475f-a595-ad8443c1d227","ios":"levelo://app?vid=469224a9-326e-475f-a595-ad8443c1d227"},"vehicle_type_id":"4","last_reported":1701529558,"current_range_meters":31200,"station_id":"ce4bhbh2rcd13ifvqepg","pricing_plan_id":"free"},{"bike_id":"b1c5f682-4492-47b5-935c-3be2b6f46499","system_id":"levelo_inurba_marseille","lat":43.284217,"lon":5.349697,"is_reserved":false,"is_disabled":false,"rental_uris":{"android":"levelo://app?vid=b1c5f682-4492-47b5-935c-3be2b6f46499","ios":"levelo://app?vid=b1c5f682-4492-47b5-935c-3be2b6f46499"},"vehicle_type_id":"4","last_reported":1701529558,"current_range_meters":28800,"station_id":"ce4bhbh2rcd13ifvqepg","pricing_plan_id":"free"},{"bike_id":"fcbf9a41-49b3-48ff-83b5-d0eca059af59","system_id":"levelo_inurba_marseille","lat":43.289363,"lon":5.396322,"is_reserved":false,"is_disabled":false,"rental_uris":{"android":"levelo://app?vid=fcbf9a41-49b3-48ff-83b5-d0eca059af59","ios":"levelo://app?vid=fcbf9a41-49b3-48ff-83b5-d0eca059af59"},"vehicle_type_id":"4","last_reported":1701529558,"current_range_meters":6000,"station_id":"ce4bh3h2rcd13ifvqdn0","pricing_plan_id":"free"},{"bike_id":"8a1bcbc7-27b1-4814-bef9-fcfd4d4cea24","system_id":"levelo_inurba_marseille","lat":43.28039,"lon":5.369297,"is_reserved":false,"is_disabled":false,"rental_uris":{"android":"levelo://app?vid=8a1bcbc7-27b1-4814-bef9-fcfd4d4cea24","ios":"levelo://app?vid=8a1bcbc7-27b1-4814-bef9-fcfd4d4cea24"},"vehicle_type_id":"4","last_reported":1701529558,"current_range_meters":13600,"station_id":"ce4bha12rcd13ifvqef0","pricing_plan_id":"free"},{"bike_id":"8b6b1a4a-e2e4-42ec-b0f2-8a517edadf67","system_id":"levelo_inurba_marseille","lat":43.281044,"lon":5.378308,"is_reserved":false,"is_disabled":false,"rental_uris":{"android":"levelo://app?vid=8b6b1a4a-e2e4-42ec-b0f2-8a517edadf67","ios":"levelo://app?vid=8b6b1a4a-e2e4-42ec-b0f2-8a517edadf67"},"vehicle_type_id":"4","last_reported":1701529558,"current_range_meters":0,"station_id":"ce4bha12rcd13ifvqee0","pricing_plan_id":"free"},{"bike_id":"3e068ef9-333d-4391-8a76-bf24f74a4f3f","system_id":"levelo_inurba_marseille","lat":43.281044,"lon":5.378308,"is_reserved":false,"is_disabled":false,"rental_uris":{"android":"levelo://app?vid=3e068ef9-333d-4391-8a76-bf24f74a4f3f","ios":"levelo://app?vid=3e068ef9-333d-4391-8a76-bf24f74a4f3f"},"vehicle_type_id":"4","last_reported":1701529558,"current_range_meters":11200,"station_id":"ce4bha12rcd13ifvqee0","pricing_plan_id":"free"},{"bike_id":"84b9469e-662f-49ed-9119-09b74453ef70","system_id":"levelo_inurba_marseille","lat":43.294671,"lon":5.40717,"is_reserved":false,"is_disabled":false,"rental_uris":{"android":"levelo://app?vid=84b9469e-662f-49ed-9119-09b74453ef70","ios":"levelo://app?vid=84b9469e-662f-49ed-9119-09b74453ef70"},"vehicle_type_id":"4","last_reported":1701529558,"current_range_meters":22000,"station_id":"","pricing_plan_id":"free"},{"bike_id":"25702977-93ad-402a-ba93-cf20ff119736","system_id":"levelo_inurba_marseille","lat":43.304188,"lon":5.412904,"is_reserved":false,"is_disabled":false,"rental_uris":{"android":"levelo://app?vid=25702977-93ad-402a-ba93-cf20ff119736","ios":"levelo://app?vid=25702977-93ad-402a-ba93-cf20ff119736"},"vehicle_type_id":"4","last_reported":1701529558,"current_range_meters":26400,"station_id":"ce4bhop2rcd13ifvqh8g","pricing_plan_id":"free"},{"bike_id":"52bed082-cb81-452e-ba03-6d3add73e744","system_id":"levelo_inurba_marseille","lat":43.304188,"lon":5.412904,"is_reserved":false,"is_disabled":false,"rental_uris":{"android":"levelo://app?vid=52bed082-cb81-452e-ba03-6d3add73e744","ios":"levelo://app?vid=52bed082-cb81-452e-ba03-6d3add73e744"},"vehicle_type_id":"4","last_reported":1701529558,"current_range_meters":12400,"station_id":"ce4bhop2rcd13ifvqh8g","pricing_plan_id":"free"},{"bike_id":"e2d8424a-faa7-41fc-b7d5-3a5f09bd8ddd","system_id":"levelo_inurba_marseille","lat":43.299577,"lon":5.413277,"is_reserved":false,"is_disabled":false,"rental_uris":{"android":"levelo://app?vid=e2d8424a-faa7-41fc-b7d5-3a5f09bd8ddd","ios":"levelo://app?vid=e2d8424a-faa7-41fc-b7d5-3a5f09bd8ddd"},"vehicle_type_id":"4","last_reported":1701529558,"current_range_meters":18000,"station_id":"ce4bhp12rcd13ifvqh9g","pricing_plan_id":"free"},{"bike_id":"a86b05ec-d6e9-4108-9eb9-985025562aa2","system_id":"levelo_inurba_marseille","lat":43.299579,"lon":5.413255,"is_reserved":false,"is_disabled":false,"rental_uris":{"android":"levelo://app?vid=a86b05ec-d6e9-4108-9eb9-985025562aa2","ios":"levelo://app?vid=a86b05ec-d6e9-4108-9eb9-985025562aa2"},"vehicle_type_id":"4","last_reported":1701529558,"current_range_meters":16800,"station_id":"ce4bhp12rcd13ifvqh9g","pricing_plan_id":"free"},{"bike_id":"79bef162-5c7c-4d39-b39b-7e934257755a","system_id":"levelo_inurba_marseille","lat":43.32536,"lon":5.414428,"is_reserved":false,"is_disabled":false,"rental_uris":{"android":"levelo://app?vid=79bef162-5c7c-4d39-b39b-7e934257755a","ios":"levelo://app?vid=79bef162-5c7c-4d39-b39b-7e934257755a"},"vehicle_type_id":"4","last_reported":1701529558,"current_range_meters":7200,"station_id":"ce4bhq12rcd13ifvqhhg","pricing_plan_id":"free"},{"bike_id":"451e5711-912b-4e6f-ba92-14f20d0093e3","system_id":"levelo_inurba_marseille","lat":43.33696,"lon":5.406525,"is_reserved":false,"is_disabled":false,"rental_uris":{"android":"levelo://app?vid=451e5711-912b-4e6f-ba92-14f20d0093e3","ios":"levelo://app?vid=451e5711-912b-4e6f-ba92-14f20d0093e3"},"vehicle_type_id":"4","last_reported":1701529558,"current_range_meters":20000,"station_id":"","pricing_plan_id":"free"},{"bike_id":"bcdb50df-13be-4393-adc8-1a79a4e56c43","system_id":"levelo_inurba_marseille","lat":43.28619,"lon":5.40406,"is_reserved":false,"is_disabled":false,"rental_uris":{"android":"levelo://app?vid=bcdb50df-13be-4393-adc8-1a79a4e56c43","ios":"levelo://app?vid=bcdb50df-13be-4393-adc8-1a79a4e56c43"},"vehicle_type_id":"4","last_reported":1701529558,"current_range_meters":0,"station_id":"","pricing_plan_id":"free"},{"bike_id":"752df9af-6368-443e-9bb6-fec7b7e9f4b7","system_id":"levelo_inurba_marseille","lat":43.280784,"lon":5.396622,"is_reserved":false,"is_disabled":false,"rental_uris":{"android":"levelo://app?vid=752df9af-6368-443e-9bb6-fec7b7e9f4b7","ios":"levelo://app?vid=752df9af-6368-443e-9bb6-fec7b7e9f4b7"},"vehicle_type_id":"4","last_reported":1701529558,"current_range_meters":30400,"station_id":"ce4bho12rcd13ifvqh2g","pricing_plan_id":"free"},{"bike_id":"64d68d9f-bbbd-4d45-866b-7ba5deaa1c19","system_id":"levelo_inurba_marseille","lat":43.278399,"lon":5.392139,"is_reserved":false,"is_disabled":false,"rental_uris":{"android":"levelo://app?vid=64d68d9f-bbbd-4d45-866b-7ba5deaa1c19","ios":"levelo://app?vid=64d68d9f-bbbd-4d45-866b-7ba5deaa1c19"},"vehicle_type_id":"4","last_reported":1701529558,"current_range_meters":29600,"station_id":"ce4bhjp2rcd13ifvqga0","pricing_plan_id":"free"},{"bike_id":"fcb6bee6-49f8-46af-ade1-f763061572f7","system_id":"levelo_inurba_marseille","lat":43.33612,"lon":5.410321,"is_reserved":false,"is_disabled":false,"rental_uris":{"android":"levelo://app?vid=fcb6bee6-49f8-46af-ade1-f763061572f7","ios":"levelo://app?vid=fcb6bee6-49f8-46af-ade1-f763061572f7"},"vehicle_type_id":"4","last_reported":1701529558,"current_range_meters":28400,"station_id":"ce4bhqh2rcd13ifvqhmg","pricing_plan_id":"free"},{"bike_id":"10048bb9-0628-40f7-8a63-049637a37019","system_id":"levelo_inurba_marseille","lat":43.273609,"lon":5.362708,"is_reserved":false,"is_disabled":false,"rental_uris":{"android":"levelo://app?vid=10048bb9-0628-40f7-8a63-049637a37019","ios":"levelo://app?vid=10048bb9-0628-40f7-8a63-049637a37019"},"vehicle_type_id":"4","last_reported":1701529558,"current_range_meters":800,"station_id":"ce4bhbh2rcd13ifvqeo0","pricing_plan_id":"free"},{"bike_id":"6b9a9acd-8c91-4055-8490-a304cd7c83dc","system_id":"levelo_inurba_marseille","lat":43.336134,"lon":5.410341,"is_reserved":false,"is_disabled":false,"rental_uris":{"android":"levelo://app?vid=6b9a9acd-8c91-4055-8490-a304cd7c83dc","ios":"levelo://app?vid=6b9a9acd-8c91-4055-8490-a304cd7c83dc"},"vehicle_type_id":"4","last_reported":1701529558,"current_range_meters":29600,"station_id":"ce4bhqh2rcd13ifvqhmg","pricing_plan_id":"free"},{"bike_id":"05c93acc-cbc3-4fbd-86d2-caaf547ca249","system_id":"levelo_inurba_marseille","lat":43.273613,"lon":5.362705,"is_reserved":false,"is_disabled":false,"rental_uris":{"android":"levelo://app?vid=05c93acc-cbc3-4fbd-86d2-caaf547ca249","ios":"levelo://app?vid=05c93acc-cbc3-4fbd-86d2-caaf547ca249"},"vehicle_type_id":"4","last_reported":1701529558,"current_range_meters":21200,"station_id":"ce4bhbh2rcd13ifvqeo0","pricing_plan_id":"free"},{"bike_id":"6391ab99-db01-4e77-96fd-f83c537389c3","system_id":"levelo_inurba_marseille","lat":43.275625,"lon":5.384392,"is_reserved":false,"is_disabled":false,"rental_uris":{"android":"levelo://app?vid=6391ab99-db01-4e77-96fd-f83c537389c3","ios":"levelo://app?vid=6391ab99-db01-4e77-96fd-f83c537389c3"},"vehicle_type_id":"4","last_reported":1701529558,"current_range_meters":30000,"station_id":"ce4bhh92rcd13ifvqfi0","pricing_plan_id":"free"},{"bike_id":"4f44e41c-5d5f-40b0-808d-6fe2cbe6b56b","system_id":"levelo_inurba_marseille","lat":43.33612,"lon":5.410321,"is_reserved":false,"is_disabled":false,"rental_uris":{"android":"levelo://app?vid=4f44e41c-5d5f-40b0-808d-6fe2cbe6b56b","ios":"levelo://app?vid=4f44e41c-5d5f-40b0-808d-6fe2cbe6b56b"},"vehicle_type_id":"4","last_reported":1701529558,"current_range_meters":27600,"station_id":"ce4bhqh2rcd13ifvqhmg","pricing_plan_id":"free"},{"bike_id":"b621a979-d200-46a5-bca8-c3661c282065","system_id":"levelo_inurba_marseille","lat":43.336134,"lon":5.410341,"is_reserved":false,"is_disabled":false,"rental_uris":{"android":"levelo://app?vid=b621a979-d200-46a5-bca8-c3661c282065","ios":"levelo://app?vid=b621a979-d200-46a5-bca8-c3661c282065"},"vehicle_type_id":"4","last_reported":1701529558,"current_range_meters":20000,"station_id":"ce4bhqh2rcd13ifvqhmg","pricing_plan_id":"free"},{"bike_id":"031638a0-bfc0-4060-8e2b-d5c6505097a4","system_id":"levelo_inurba_marseille","lat":43.336071,"lon":5.410339,"is_reserved":false,"is_disabled":false,"rental_uris":{"android":"levelo://app?vid=031638a0-bfc0-4060-8e2b-d5c6505097a4","ios":"levelo://app?vid=031638a0-bfc0-4060-8e2b-d5c6505097a4"},"vehicle_type_id":"4","last_reported":1701529558,"current_range_meters":7600,"station_id":"ce4bhqh2rcd13ifvqhmg","pricing_plan_id":"free"},{"bike_id":"127b5d4a-ed0b-4bf4-9289-7211b83520ea","system_id":"levelo_inurba_marseille","lat":43.279952,"lon":5.400085,"is_reserved":false,"is_disabled":false,"rental_uris":{"android":"levelo://app?vid=127b5d4a-ed0b-4bf4-9289-7211b83520ea","ios":"levelo://app?vid=127b5d4a-ed0b-4bf4-9289-7211b83520ea"},"vehicle_type_id":"4","last_reported":1701529558,"current_range_meters":22000,"station_id":"ce4bho92rcd13ifvqh4g","pricing_plan_id":"free"},{"bike_id":"50415618-e0c7-4c83-af76-e7d428c4b51d","system_id":"levelo_inurba_marseille","lat":43.279952,"lon":5.400085,"is_reserved":false,"is_disabled":false,"rental_uris":{"android":"levelo://app?vid=50415618-e0c7-4c83-af76-e7d428c4b51d","ios":"levelo://app?vid=50415618-e0c7-4c83-af76-e7d428c4b51d"},"vehicle_type_id":"4","last_reported":1701529558,"current_range_meters":31600,"station_id":"ce4bho92rcd13ifvqh4g","pricing_plan_id":"free"},{"bike_id":"bd85ae5c-d8d3-4633-88bf-bb153d8d59db","system_id":"levelo_inurba_marseille","lat":43.279952,"lon":5.400085,"is_reserved":false,"is_disabled":false,"rental_uris":{"android":"levelo://app?vid=bd85ae5c-d8d3-4633-88bf-bb153d8d59db","ios":"levelo://app?vid=bd85ae5c-d8d3-4633-88bf-bb153d8d59db"},"vehicle_type_id":"4","last_reported":1701529558,"current_range_meters":12400,"station_id":"ce4bho92rcd13ifvqh4g","pricing_plan_id":"free"},{"bike_id":"894f6494-585b-4b1b-a39f-39b137cf17d0","system_id":"levelo_inurba_marseille","lat":43.310785,"lon":5.424305,"is_reserved":false,"is_disabled":false,"rental_uris":{"android":"levelo://app?vid=894f6494-585b-4b1b-a39f-39b137cf17d0","ios":"levelo://app?vid=894f6494-585b-4b1b-a39f-39b137cf17d0"},"vehicle_type_id":"4","last_reported":1701529558,"current_range_meters":9600,"station_id":"ce4bhp92rcd13ifvqhag","pricing_plan_id":"free"},{"bike_id":"e45c0c73-c557-408c-9a49-884cccd4aad9","system_id":"levelo_inurba_marseille","lat":43.273125,"lon":5.390731,"is_reserved":false,"is_disabled":false,"rental_uris":{"android":"levelo://app?vid=e45c0c73-c557-408c-9a49-884cccd4aad9","ios":"levelo://app?vid=e45c0c73-c557-408c-9a49-884cccd4aad9"},"vehicle_type_id":"4","last_reported":1701529558,"current_range_meters":23600,"station_id":"ce4bhgp2rcd13ifvqfe0","pricing_plan_id":"free"},{"bike_id":"ac66a036-a10d-4f8c-83e4-715d71e292f8","system_id":"levelo_inurba_marseille","lat":43.295523,"lon":5.422926,"is_reserved":false,"is_disabled":false,"rental_uris":{"android":"levelo://app?vid=ac66a036-a10d-4f8c-83e4-715d71e292f8","ios":"levelo://app?vid=ac66a036-a10d-4f8c-83e4-715d71e292f8"},"vehicle_type_id":"4","last_reported":1701529558,"current_range_meters":21200,"station_id":"ce4bhph2rcd13ifvqhdg","pricing_plan_id":"free"},{"bike_id":"19e6a57b-4d92-4abf-88e2-59935f51934d","system_id":"levelo_inurba_marseille","lat":43.272116,"lon":5.391763,"is_reserved":false,"is_disabled":false,"rental_uris":{"android":"levelo://app?vid=19e6a57b-4d92-4abf-88e2-59935f51934d","ios":"levelo://app?vid=19e6a57b-4d92-4abf-88e2-59935f51934d"},"vehicle_type_id":"4","last_reported":1701529558,"current_range_meters":13600,"station_id":"ce4bhhp2rcd13ifvqfm0","pricing_plan_id":"free"},{"bike_id":"57e898a1-c7aa-4345-8c50-6bc1f1dfb1e7","system_id":"levelo_inurba_marseille","lat":43.26681,"lon":5.382694,"is_reserved":false,"is_disabled":false,"rental_uris":{"android":"levelo://app?vid=57e898a1-c7aa-4345-8c50-6bc1f1dfb1e7","ios":"levelo://app?vid=57e898a1-c7aa-4345-8c50-6bc1f1dfb1e7"},"vehicle_type_id":"4","last_reported":1701529558,"current_range_meters":23600,"station_id":"ce4bhg92rcd13ifvqf90","pricing_plan_id":"free"},{"bike_id":"ae4a7be3-1c0c-442c-b333-14b664fb4461","system_id":"levelo_inurba_marseille","lat":43.265714,"lon":5.372891,"is_reserved":false,"is_disabled":false,"rental_uris":{"android":"levelo://app?vid=ae4a7be3-1c0c-442c-b333-14b664fb4461","ios":"levelo://app?vid=ae4a7be3-1c0c-442c-b333-14b664fb4461"},"vehicle_type_id":"4","last_reported":1701529558,"current_range_meters":30000,"station_id":"ce4bhg12rcd13ifvqf70","pricing_plan_id":"free"},{"bike_id":"8817ce8b-c423-40b6-afe1-f37daeb3d4a3","system_id":"levelo_inurba_marseille","lat":43.267966,"lon":5.393976,"is_reserved":false,"is_disabled":false,"rental_uris":{"android":"levelo://app?vid=8817ce8b-c423-40b6-afe1-f37daeb3d4a3","ios":"levelo://app?vid=8817ce8b-c423-40b6-afe1-f37daeb3d4a3"},"vehicle_type_id":"4","last_reported":1701529558,"current_range_meters":27600,"station_id":"ce4bhh12rcd13ifvqfg0","pricing_plan_id":"free"},{"bike_id":"b7207059-a431-43dd-84e2-0ad89c3e2a35","system_id":"levelo_inurba_marseille","lat":43.30812,"lon":5.43492,"is_reserved":false,"is_disabled":false,"rental_uris":{"android":"levelo://app?vid=b7207059-a431-43dd-84e2-0ad89c3e2a35","ios":"levelo://app?vid=b7207059-a431-43dd-84e2-0ad89c3e2a35"},"vehicle_type_id":"4","last_reported":1701529558,"current_range_meters":25200,"station_id":"","pricing_plan_id":"free"},{"bike_id":"eb4e79c0-bc82-4923-9516-4cbfe33b2f0c","system_id":"levelo_inurba_marseille","lat":43.26568,"lon":5.39009,"is_reserved":false,"is_disabled":false,"rental_uris":{"android":"levelo://app?vid=eb4e79c0-bc82-4923-9516-4cbfe33b2f0c","ios":"levelo://app?vid=eb4e79c0-bc82-4923-9516-4cbfe33b2f0c"},"vehicle_type_id":"4","last_reported":1701529558,"current_range_meters":10800,"station_id":"ce4bhe12rcd13ifvqf30","pricing_plan_id":"free"},{"bike_id":"3f0e44db-0bc0-4169-a8ec-dd61d9d0908f","system_id":"levelo_inurba_marseille","lat":43.2657,"lon":5.3902,"is_reserved":false,"is_disabled":false,"rental_uris":{"android":"levelo://app?vid=3f0e44db-0bc0-4169-a8ec-dd61d9d0908f","ios":"levelo://app?vid=3f0e44db-0bc0-4169-a8ec-dd61d9d0908f"},"vehicle_type_id":"4","last_reported":1701529558,"current_range_meters":14800,"station_id":"ce4bhe12rcd13ifvqf30","pricing_plan_id":"free"},{"bike_id":"84f48b36-541e-4a37-a0db-25e765b76349","system_id":"levelo_inurba_marseille","lat":43.26949,"lon":5.40262,"is_reserved":false,"is_disabled":false,"rental_uris":{"android":"levelo://app?vid=84f48b36-541e-4a37-a0db-25e765b76349","ios":"levelo://app?vid=84f48b36-541e-4a37-a0db-25e765b76349"},"vehicle_type_id":"4","last_reported":1701529558,"current_range_meters":400,"station_id":"cjm6bp8fraef2m0cb0m0","pricing_plan_id":"free"},{"bike_id":"71b8f305-1e7d-4adb-a473-07361b74ecb3","system_id":"levelo_inurba_marseille","lat":43.261782,"lon":5.374515,"is_reserved":false,"is_disabled":false,"rental_uris":{"android":"levelo://app?vid=71b8f305-1e7d-4adb-a473-07361b74ecb3","ios":"levelo://app?vid=71b8f305-1e7d-4adb-a473-07361b74ecb3"},"vehicle_type_id":"4","last_reported":1701529558,"current_range_meters":3600,"station_id":"ce4bhgp2rcd13ifvqfc0","pricing_plan_id":"free"},{"bike_id":"237bb99d-fece-43f1-9f85-62d271b67d3c","system_id":"levelo_inurba_marseille","lat":43.2618,"lon":5.37447,"is_reserved":false,"is_disabled":false,"rental_uris":{"android":"levelo://app?vid=237bb99d-fece-43f1-9f85-62d271b67d3c","ios":"levelo://app?vid=237bb99d-fece-43f1-9f85-62d271b67d3c"},"vehicle_type_id":"4","last_reported":1701529558,"current_range_meters":30800,"station_id":"ce4bhgp2rcd13ifvqfc0","pricing_plan_id":"free"},{"bike_id":"b465ea39-9ab2-43bf-bc9f-9118534bf15b","system_id":"levelo_inurba_marseille","lat":43.267959,"lon":5.402687,"is_reserved":false,"is_disabled":false,"rental_uris":{"android":"levelo://app?vid=b465ea39-9ab2-43bf-bc9f-9118534bf15b","ios":"levelo://app?vid=b465ea39-9ab2-43bf-bc9f-9118534bf15b"},"vehicle_type_id":"4","last_reported":1701529558,"current_range_meters":28400,"station_id":"ce501612rcd8frsf0b60","pricing_plan_id":"free"},{"bike_id":"568a609c-e57e-403d-a6bb-5581afbde3dc","system_id":"levelo_inurba_marseille","lat":43.26803,"lon":5.40269,"is_reserved":false,"is_disabled":false,"rental_uris":{"android":"levelo://app?vid=568a609c-e57e-403d-a6bb-5581afbde3dc","ios":"levelo://app?vid=568a609c-e57e-403d-a6bb-5581afbde3dc"},"vehicle_type_id":"4","last_reported":1701529558,"current_range_meters":22000,"station_id":"ce501612rcd8frsf0b60","pricing_plan_id":"free"},{"bike_id":"0d7bdafa-bb7b-4c42-ba2b-4613f6690458","system_id":"levelo_inurba_marseille","lat":43.267959,"lon":5.402685,"is_reserved":false,"is_disabled":false,"rental_uris":{"android":"levelo://app?vid=0d7bdafa-bb7b-4c42-ba2b-4613f6690458","ios":"levelo://app?vid=0d7bdafa-bb7b-4c42-ba2b-4613f6690458"},"vehicle_type_id":"4","last_reported":1701529558,"current_range_meters":29200,"station_id":"ce501612rcd8frsf0b60","pricing_plan_id":"free"},{"bike_id":"91b179f6-d535-4216-92a3-25d55683749d","system_id":"levelo_inurba_marseille","lat":43.267959,"lon":5.402687,"is_reserved":false,"is_disabled":false,"rental_uris":{"android":"levelo://app?vid=91b179f6-d535-4216-92a3-25d55683749d","ios":"levelo://app?vid=91b179f6-d535-4216-92a3-25d55683749d"},"vehicle_type_id":"4","last_reported":1701529558,"current_range_meters":0,"station_id":"ce501612rcd8frsf0b60","pricing_plan_id":"free"},{"bike_id":"e26ac540-0b92-461f-8cf3-349a365e1399","system_id":"levelo_inurba_marseille","lat":43.260219,"lon":5.37546,"is_reserved":false,"is_disabled":false,"rental_uris":{"android":"levelo://app?vid=e26ac540-0b92-461f-8cf3-349a365e1399","ios":"levelo://app?vid=e26ac540-0b92-461f-8cf3-349a365e1399"},"vehicle_type_id":"4","last_reported":1701529558,"current_range_meters":28000,"station_id":"ce4bhgh2rcd13ifvqfa0","pricing_plan_id":"free"},{"bike_id":"575c17e8-506e-40eb-82f0-1cd7e8cca8f2","system_id":"levelo_inurba_marseille","lat":43.260225,"lon":5.375455,"is_reserved":false,"is_disabled":false,"rental_uris":{"android":"levelo://app?vid=575c17e8-506e-40eb-82f0-1cd7e8cca8f2","ios":"levelo://app?vid=575c17e8-506e-40eb-82f0-1cd7e8cca8f2"},"vehicle_type_id":"4","last_reported":1701529558,"current_range_meters":8400,"station_id":"ce4bhgh2rcd13ifvqfa0","pricing_plan_id":"free"},{"bike_id":"c2dd282d-0d51-4a90-8ac7-2cd2ec3e0b8d","system_id":"levelo_inurba_marseille","lat":43.260219,"lon":5.37546,"is_reserved":false,"is_disabled":false,"rental_uris":{"android":"levelo://app?vid=c2dd282d-0d51-4a90-8ac7-2cd2ec3e0b8d","ios":"levelo://app?vid=c2dd282d-0d51-4a90-8ac7-2cd2ec3e0b8d"},"vehicle_type_id":"4","last_reported":1701529558,"current_range_meters":28000,"station_id":"ce4bhgh2rcd13ifvqfa0","pricing_plan_id":"free"},{"bike_id":"42c2f902-b92f-4293-bd7f-ace0b830882b","system_id":"levelo_inurba_marseille","lat":43.281548,"lon":5.42643,"is_reserved":false,"is_disabled":false,"rental_uris":{"android":"levelo://app?vid=42c2f902-b92f-4293-bd7f-ace0b830882b","ios":"levelo://app?vid=42c2f902-b92f-4293-bd7f-ace0b830882b"},"vehicle_type_id":"4","last_reported":1701529558,"current_range_meters":0,"station_id":"ce4bhnh2rcd13ifvqgug","pricing_plan_id":"free"},{"bike_id":"bf9f366f-ed8e-4141-9e38-bf600e9d7178","system_id":"levelo_inurba_marseille","lat":43.26064,"lon":5.393998,"is_reserved":false,"is_disabled":false,"rental_uris":{"android":"levelo://app?vid=bf9f366f-ed8e-4141-9e38-bf600e9d7178","ios":"levelo://app?vid=bf9f366f-ed8e-4141-9e38-bf600e9d7178"},"vehicle_type_id":"4","last_reported":1701529558,"current_range_meters":26000,"station_id":"","pricing_plan_id":"free"},{"bike_id":"4c96af1e-ae4f-49a5-ac3a-9558931d422d","system_id":"levelo_inurba_marseille","lat":43.2607,"lon":5.393983,"is_reserved":false,"is_disabled":false,"rental_uris":{"android":"levelo://app?vid=4c96af1e-ae4f-49a5-ac3a-9558931d422d","ios":"levelo://app?vid=4c96af1e-ae4f-49a5-ac3a-9558931d422d"},"vehicle_type_id":"4","last_reported":1701529558,"current_range_meters":26000,"station_id":"ce4bhh92rcd13ifvqfj0","pricing_plan_id":"free"},{"bike_id":"72e4c12d-fd16-4d82-9594-b9b9141c3ac1","system_id":"levelo_inurba_marseille","lat":43.25584,"lon":5.38239,"is_reserved":false,"is_disabled":false,"rental_uris":{"android":"levelo://app?vid=72e4c12d-fd16-4d82-9594-b9b9141c3ac1","ios":"levelo://app?vid=72e4c12d-fd16-4d82-9594-b9b9141c3ac1"},"vehicle_type_id":"4","last_reported":1701529558,"current_range_meters":10400,"station_id":"ce4bhih2rcd13ifvqfs0","pricing_plan_id":"free"},{"bike_id":"d589aafc-429e-45a3-b511-80ff3416d71d","system_id":"levelo_inurba_marseille","lat":43.255814,"lon":5.382315,"is_reserved":false,"is_disabled":false,"rental_uris":{"android":"levelo://app?vid=d589aafc-429e-45a3-b511-80ff3416d71d","ios":"levelo://app?vid=d589aafc-429e-45a3-b511-80ff3416d71d"},"vehicle_type_id":"4","last_reported":1701529558,"current_range_meters":14800,"station_id":"","pricing_plan_id":"free"},{"bike_id":"4af0a259-9dd5-4dba-9558-eff054700df6","system_id":"levelo_inurba_marseille","lat":43.25576,"lon":5.38236,"is_reserved":false,"is_disabled":false,"rental_uris":{"android":"levelo://app?vid=4af0a259-9dd5-4dba-9558-eff054700df6","ios":"levelo://app?vid=4af0a259-9dd5-4dba-9558-eff054700df6"},"vehicle_type_id":"4","last_reported":1701529558,"current_range_meters":16400,"station_id":"ce4bhih2rcd13ifvqfs0","pricing_plan_id":"free"},{"bike_id":"df041b5b-3e99-414e-ba87-1aab03ad564f","system_id":"levelo_inurba_marseille","lat":43.25871,"lon":5.39896,"is_reserved":false,"is_disabled":false,"rental_uris":{"android":"levelo://app?vid=df041b5b-3e99-414e-ba87-1aab03ad564f","ios":"levelo://app?vid=df041b5b-3e99-414e-ba87-1aab03ad564f"},"vehicle_type_id":"4","last_reported":1701529558,"current_range_meters":5200,"station_id":"ce4bhl92rcd13ifvqghg","pricing_plan_id":"free"},{"bike_id":"bdc72d7c-9d46-4016-8a92-851cd50823f9","system_id":"levelo_inurba_marseille","lat":43.259009,"lon":5.40929,"is_reserved":false,"is_disabled":false,"rental_uris":{"android":"levelo://app?vid=bdc72d7c-9d46-4016-8a92-851cd50823f9","ios":"levelo://app?vid=bdc72d7c-9d46-4016-8a92-851cd50823f9"},"vehicle_type_id":"4","last_reported":1701529558,"current_range_meters":28000,"station_id":"ce4bhm92rcd13ifvqglg","pricing_plan_id":"free"},{"bike_id":"b01b3ad7-b886-41aa-b08c-cadf9941b5ec","system_id":"levelo_inurba_marseille","lat":43.257079,"lon":5.411051,"is_reserved":false,"is_disabled":false,"rental_uris":{"android":"levelo://app?vid=b01b3ad7-b886-41aa-b08c-cadf9941b5ec","ios":"levelo://app?vid=b01b3ad7-b886-41aa-b08c-cadf9941b5ec"},"vehicle_type_id":"4","last_reported":1701529558,"current_range_meters":27200,"station_id":"ce4bhkp2rcd13ifvqgd0","pricing_plan_id":"free"},{"bike_id":"c2c54c96-8911-41ce-9741-6ecbcb115f60","system_id":"levelo_inurba_marseille","lat":43.250009,"lon":5.389195,"is_reserved":false,"is_disabled":false,"rental_uris":{"android":"levelo://app?vid=c2c54c96-8911-41ce-9741-6ecbcb115f60","ios":"levelo://app?vid=c2c54c96-8911-41ce-9741-6ecbcb115f60"},"vehicle_type_id":"4","last_reported":1701529558,"current_range_meters":29200,"station_id":"ce4bhgp2rcd13ifvqfd0","pricing_plan_id":"free"},{"bike_id":"fa8f7765-9059-457c-b19b-027db98bc40b","system_id":"levelo_inurba_marseille","lat":43.24813,"lon":5.37449,"is_reserved":false,"is_disabled":false,"rental_uris":{"android":"levelo://app?vid=fa8f7765-9059-457c-b19b-027db98bc40b","ios":"levelo://app?vid=fa8f7765-9059-457c-b19b-027db98bc40b"},"vehicle_type_id":"4","last_reported":1701529558,"current_range_meters":31200,"station_id":"ce4bhgh2rcd13ifvqfb0","pricing_plan_id":"free"},{"bike_id":"a1ac006e-7a6a-42c0-b6e2-759e78ccf577","system_id":"levelo_inurba_marseille","lat":43.248083,"lon":5.374533,"is_reserved":false,"is_disabled":false,"rental_uris":{"android":"levelo://app?vid=a1ac006e-7a6a-42c0-b6e2-759e78ccf577","ios":"levelo://app?vid=a1ac006e-7a6a-42c0-b6e2-759e78ccf577"},"vehicle_type_id":"4","last_reported":1701529558,"current_range_meters":27200,"station_id":"ce4bhgh2rcd13ifvqfb0","pricing_plan_id":"free"},{"bike_id":"21880e12-98f7-4d38-abb0-00192718ead3","system_id":"levelo_inurba_marseille","lat":43.24808,"lon":5.37455,"is_reserved":false,"is_disabled":false,"rental_uris":{"android":"levelo://app?vid=21880e12-98f7-4d38-abb0-00192718ead3","ios":"levelo://app?vid=21880e12-98f7-4d38-abb0-00192718ead3"},"vehicle_type_id":"4","last_reported":1701529558,"current_range_meters":31200,"station_id":"ce4bhgh2rcd13ifvqfb0","pricing_plan_id":"free"},{"bike_id":"ed2ece7d-6626-40c0-b223-7bb393f61c14","system_id":"levelo_inurba_marseille","lat":43.250966,"lon":5.395186,"is_reserved":false,"is_disabled":false,"rental_uris":{"android":"levelo://app?vid=ed2ece7d-6626-40c0-b223-7bb393f61c14","ios":"levelo://app?vid=ed2ece7d-6626-40c0-b223-7bb393f61c14"},"vehicle_type_id":"4","last_reported":1701529558,"current_range_meters":14000,"station_id":"ce4bhm12rcd13ifvqgkg","pricing_plan_id":"free"},{"bike_id":"112d2bc5-6314-4fc6-a45e-0cceda511fbc","system_id":"levelo_inurba_marseille","lat":43.250966,"lon":5.395186,"is_reserved":false,"is_disabled":false,"rental_uris":{"android":"levelo://app?vid=112d2bc5-6314-4fc6-a45e-0cceda511fbc","ios":"levelo://app?vid=112d2bc5-6314-4fc6-a45e-0cceda511fbc"},"vehicle_type_id":"4","last_reported":1701529558,"current_range_meters":2800,"station_id":"ce4bhm12rcd13ifvqgkg","pricing_plan_id":"free"},{"bike_id":"d53c3682-70bc-4675-ab09-c3fdc1de8af4","system_id":"levelo_inurba_marseille","lat":43.250966,"lon":5.395186,"is_reserved":false,"is_disabled":false,"rental_uris":{"android":"levelo://app?vid=d53c3682-70bc-4675-ab09-c3fdc1de8af4","ios":"levelo://app?vid=d53c3682-70bc-4675-ab09-c3fdc1de8af4"},"vehicle_type_id":"4","last_reported":1701529558,"current_range_meters":31200,"station_id":"ce4bhm12rcd13ifvqgkg","pricing_plan_id":"free"},{"bike_id":"81db6911-b86f-453d-a1d7-3d437a61c87f","system_id":"levelo_inurba_marseille","lat":43.250966,"lon":5.395186,"is_reserved":false,"is_disabled":false,"rental_uris":{"android":"levelo://app?vid=81db6911-b86f-453d-a1d7-3d437a61c87f","ios":"levelo://app?vid=81db6911-b86f-453d-a1d7-3d437a61c87f"},"vehicle_type_id":"4","last_reported":1701529558,"current_range_meters":15600,"station_id":"ce4bhm12rcd13ifvqgkg","pricing_plan_id":"free"},{"bike_id":"2d710bef-7e6f-4c37-a5f7-cc1368e47b93","system_id":"levelo_inurba_marseille","lat":43.25102,"lon":5.403214,"is_reserved":false,"is_disabled":false,"rental_uris":{"android":"levelo://app?vid=2d710bef-7e6f-4c37-a5f7-cc1368e47b93","ios":"levelo://app?vid=2d710bef-7e6f-4c37-a5f7-cc1368e47b93"},"vehicle_type_id":"4","last_reported":1701529558,"current_range_meters":25200,"station_id":"ce4bhlh2rcd13ifvqgig","pricing_plan_id":"free"},{"bike_id":"02fc6315-cc96-4a4e-8f8b-2c66910c2a82","system_id":"levelo_inurba_marseille","lat":43.25102,"lon":5.403214,"is_reserved":false,"is_disabled":false,"rental_uris":{"android":"levelo://app?vid=02fc6315-cc96-4a4e-8f8b-2c66910c2a82","ios":"levelo://app?vid=02fc6315-cc96-4a4e-8f8b-2c66910c2a82"},"vehicle_type_id":"4","last_reported":1701529558,"current_range_meters":21200,"station_id":"ce4bhlh2rcd13ifvqgig","pricing_plan_id":"free"},{"bike_id":"afe12dc1-a63a-4b32-b823-ef2a2b4a5f9a","system_id":"levelo_inurba_marseille","lat":43.246461,"lon":5.389014,"is_reserved":false,"is_disabled":false,"rental_uris":{"android":"levelo://app?vid=afe12dc1-a63a-4b32-b823-ef2a2b4a5f9a","ios":"levelo://app?vid=afe12dc1-a63a-4b32-b823-ef2a2b4a5f9a"},"vehicle_type_id":"4","last_reported":1701529558,"current_range_meters":14800,"station_id":"ce4bhg12rcd13ifvqf60","pricing_plan_id":"free"},{"bike_id":"c0ad1b99-9c8c-40c5-861f-2ee25a3b6e6c","system_id":"levelo_inurba_marseille","lat":43.246467,"lon":5.388984,"is_reserved":false,"is_disabled":false,"rental_uris":{"android":"levelo://app?vid=c0ad1b99-9c8c-40c5-861f-2ee25a3b6e6c","ios":"levelo://app?vid=c0ad1b99-9c8c-40c5-861f-2ee25a3b6e6c"},"vehicle_type_id":"4","last_reported":1701529558,"current_range_meters":10800,"station_id":"ce4bhg12rcd13ifvqf60","pricing_plan_id":"free"},{"bike_id":"bff08cdb-adb9-42f1-a1d8-d220c80d630b","system_id":"levelo_inurba_marseille","lat":43.243884,"lon":5.370736,"is_reserved":false,"is_disabled":false,"rental_uris":{"android":"levelo://app?vid=bff08cdb-adb9-42f1-a1d8-d220c80d630b","ios":"levelo://app?vid=bff08cdb-adb9-42f1-a1d8-d220c80d630b"},"vehicle_type_id":"4","last_reported":1701529558,"current_range_meters":16800,"station_id":"ce4bhhh2rcd13ifvqfk0","pricing_plan_id":"free"},{"bike_id":"b3b91b8c-0c60-4e42-9479-46ef4ec69636","system_id":"levelo_inurba_marseille","lat":43.243884,"lon":5.370737,"is_reserved":false,"is_disabled":false,"rental_uris":{"android":"levelo://app?vid=b3b91b8c-0c60-4e42-9479-46ef4ec69636","ios":"levelo://app?vid=b3b91b8c-0c60-4e42-9479-46ef4ec69636"},"vehicle_type_id":"4","last_reported":1701529558,"current_range_meters":26800,"station_id":"ce4bhhh2rcd13ifvqfk0","pricing_plan_id":"free"},{"bike_id":"69f1bff5-758b-4ced-b763-896e81f472be","system_id":"levelo_inurba_marseille","lat":43.243884,"lon":5.370736,"is_reserved":false,"is_disabled":false,"rental_uris":{"android":"levelo://app?vid=69f1bff5-758b-4ced-b763-896e81f472be","ios":"levelo://app?vid=69f1bff5-758b-4ced-b763-896e81f472be"},"vehicle_type_id":"4","last_reported":1701529558,"current_range_meters":31600,"station_id":"ce4bhhh2rcd13ifvqfk0","pricing_plan_id":"free"},{"bike_id":"0c00f1f7-91b0-4c50-948b-6ce70c0f8465","system_id":"levelo_inurba_marseille","lat":43.243884,"lon":5.370736,"is_reserved":false,"is_disabled":false,"rental_uris":{"android":"levelo://app?vid=0c00f1f7-91b0-4c50-948b-6ce70c0f8465","ios":"levelo://app?vid=0c00f1f7-91b0-4c50-948b-6ce70c0f8465"},"vehicle_type_id":"4","last_reported":1701529558,"current_range_meters":30400,"station_id":"ce4bhhh2rcd13ifvqfk0","pricing_plan_id":"free"},{"bike_id":"6c8cb8f2-78a6-4550-afbc-0685fd23a735","system_id":"levelo_inurba_marseille","lat":43.243884,"lon":5.370736,"is_reserved":false,"is_disabled":false,"rental_uris":{"android":"levelo://app?vid=6c8cb8f2-78a6-4550-afbc-0685fd23a735","ios":"levelo://app?vid=6c8cb8f2-78a6-4550-afbc-0685fd23a735"},"vehicle_type_id":"4","last_reported":1701529558,"current_range_meters":28000,"station_id":"ce4bhhh2rcd13ifvqfk0","pricing_plan_id":"free"},{"bike_id":"b101f295-ac85-402a-8afe-c635c176f114","system_id":"levelo_inurba_marseille","lat":43.28527,"lon":5.46058,"is_reserved":false,"is_disabled":false,"rental_uris":{"android":"levelo://app?vid=b101f295-ac85-402a-8afe-c635c176f114","ios":"levelo://app?vid=b101f295-ac85-402a-8afe-c635c176f114"},"vehicle_type_id":"4","last_reported":1701529558,"current_range_meters":23200,"station_id":"","pricing_plan_id":"free"},{"bike_id":"4e176977-ccb9-4a01-b3da-279fd61eadf6","system_id":"levelo_inurba_marseille","lat":43.231919,"lon":5.355532,"is_reserved":false,"is_disabled":false,"rental_uris":{"android":"levelo://app?vid=4e176977-ccb9-4a01-b3da-279fd61eadf6","ios":"levelo://app?vid=4e176977-ccb9-4a01-b3da-279fd61eadf6"},"vehicle_type_id":"4","last_reported":1701529558,"current_range_meters":22800,"station_id":"ce4bhu92rcd13ifvqi70","pricing_plan_id":"free"},{"bike_id":"e1e0ee00-25b6-4b3e-9528-4dc4d90295d8","system_id":"levelo_inurba_marseille","lat":43.231923,"lon":5.355545,"is_reserved":false,"is_disabled":false,"rental_uris":{"android":"levelo://app?vid=e1e0ee00-25b6-4b3e-9528-4dc4d90295d8","ios":"levelo://app?vid=e1e0ee00-25b6-4b3e-9528-4dc4d90295d8"},"vehicle_type_id":"4","last_reported":1701529558,"current_range_meters":9200,"station_id":"ce4bhu92rcd13ifvqi70","pricing_plan_id":"free"},{"bike_id":"6382809b-45d0-4ad2-8be7-697249f82077","system_id":"levelo_inurba_marseille","lat":43.231919,"lon":5.355532,"is_reserved":false,"is_disabled":false,"rental_uris":{"android":"levelo://app?vid=6382809b-45d0-4ad2-8be7-697249f82077","ios":"levelo://app?vid=6382809b-45d0-4ad2-8be7-697249f82077"},"vehicle_type_id":"4","last_reported":1701529558,"current_range_meters":31200,"station_id":"ce4bhu92rcd13ifvqi70","pricing_plan_id":"free"},{"bike_id":"cf3102c4-88e0-4a41-86b7-69a76932d3e6","system_id":"levelo_inurba_marseille","lat":43.231923,"lon":5.355545,"is_reserved":false,"is_disabled":false,"rental_uris":{"android":"levelo://app?vid=cf3102c4-88e0-4a41-86b7-69a76932d3e6","ios":"levelo://app?vid=cf3102c4-88e0-4a41-86b7-69a76932d3e6"},"vehicle_type_id":"4","last_reported":1701529558,"current_range_meters":31200,"station_id":"ce4bhu92rcd13ifvqi70","pricing_plan_id":"free"},{"bike_id":"2b04708e-eed8-4471-916a-9fdeea01eec7","system_id":"levelo_inurba_marseille","lat":43.231923,"lon":5.355545,"is_reserved":false,"is_disabled":false,"rental_uris":{"android":"levelo://app?vid=2b04708e-eed8-4471-916a-9fdeea01eec7","ios":"levelo://app?vid=2b04708e-eed8-4471-916a-9fdeea01eec7"},"vehicle_type_id":"4","last_reported":1701529558,"current_range_meters":14000,"station_id":"ce4bhu92rcd13ifvqi70","pricing_plan_id":"free"},{"bike_id":"564457e1-2e6b-4272-9a47-1e00dc780928","system_id":"levelo_inurba_marseille","lat":43.231923,"lon":5.355545,"is_reserved":false,"is_disabled":false,"rental_uris":{"android":"levelo://app?vid=564457e1-2e6b-4272-9a47-1e00dc780928","ios":"levelo://app?vid=564457e1-2e6b-4272-9a47-1e00dc780928"},"vehicle_type_id":"4","last_reported":1701529558,"current_range_meters":14800,"station_id":"ce4bhu92rcd13ifvqi70","pricing_plan_id":"free"},{"bike_id":"b8f295a9-10f8-4746-b4a0-4491480d1fc4","system_id":"levelo_inurba_marseille","lat":43.231919,"lon":5.355532,"is_reserved":false,"is_disabled":false,"rental_uris":{"android":"levelo://app?vid=b8f295a9-10f8-4746-b4a0-4491480d1fc4","ios":"levelo://app?vid=b8f295a9-10f8-4746-b4a0-4491480d1fc4"},"vehicle_type_id":"4","last_reported":1701529558,"current_range_meters":24400,"station_id":"ce4bhu92rcd13ifvqi70","pricing_plan_id":"free"},{"bike_id":"9e01ee59-41e6-425c-ae1f-3e33312fefcd","system_id":"levelo_inurba_marseille","lat":43.231923,"lon":5.355545,"is_reserved":false,"is_disabled":false,"rental_uris":{"android":"levelo://app?vid=9e01ee59-41e6-425c-ae1f-3e33312fefcd","ios":"levelo://app?vid=9e01ee59-41e6-425c-ae1f-3e33312fefcd"},"vehicle_type_id":"4","last_reported":1701529558,"current_range_meters":20400,"station_id":"ce4bhu92rcd13ifvqi70","pricing_plan_id":"free"},{"bike_id":"6462fbc5-ceb8-47e3-b56d-fc1e69bef19f","system_id":"levelo_inurba_marseille","lat":43.231919,"lon":5.355532,"is_reserved":false,"is_disabled":false,"rental_uris":{"android":"levelo://app?vid=6462fbc5-ceb8-47e3-b56d-fc1e69bef19f","ios":"levelo://app?vid=6462fbc5-ceb8-47e3-b56d-fc1e69bef19f"},"vehicle_type_id":"4","last_reported":1701529558,"current_range_meters":29600,"station_id":"ce4bhu92rcd13ifvqi70","pricing_plan_id":"free"},{"bike_id":"177a82e2-68da-4975-a68b-b32649f3d1f2","system_id":"levelo_inurba_marseille","lat":43.231923,"lon":5.355545,"is_reserved":false,"is_disabled":false,"rental_uris":{"android":"levelo://app?vid=177a82e2-68da-4975-a68b-b32649f3d1f2","ios":"levelo://app?vid=177a82e2-68da-4975-a68b-b32649f3d1f2"},"vehicle_type_id":"4","last_reported":1701529558,"current_range_meters":13600,"station_id":"ce4bhu92rcd13ifvqi70","pricing_plan_id":"free"},{"bike_id":"88cf855f-bb31-40e0-8afc-686df3c193ab","system_id":"levelo_inurba_marseille","lat":43.231794,"lon":5.400052,"is_reserved":false,"is_disabled":false,"rental_uris":{"android":"levelo://app?vid=88cf855f-bb31-40e0-8afc-686df3c193ab","ios":"levelo://app?vid=88cf855f-bb31-40e0-8afc-686df3c193ab"},"vehicle_type_id":"4","last_reported":1701529558,"current_range_meters":28800,"station_id":"ce4bhn12rcd13ifvqgqg","pricing_plan_id":"free"},{"bike_id":"27852c29-47dc-4826-817e-c88bd3a0386e","system_id":"levelo_inurba_marseille","lat":43.231955,"lon":5.399768,"is_reserved":false,"is_disabled":false,"rental_uris":{"android":"levelo://app?vid=27852c29-47dc-4826-817e-c88bd3a0386e","ios":"levelo://app?vid=27852c29-47dc-4826-817e-c88bd3a0386e"},"vehicle_type_id":"4","last_reported":1701529558,"current_range_meters":22000,"station_id":"ce4bhn12rcd13ifvqgqg","pricing_plan_id":"free"},{"bike_id":"a926f4bb-1e59-4822-80ea-1d5ff6f2a5c5","system_id":"levelo_inurba_marseille","lat":43.231954,"lon":5.399802,"is_reserved":false,"is_disabled":false,"rental_uris":{"android":"levelo://app?vid=a926f4bb-1e59-4822-80ea-1d5ff6f2a5c5","ios":"levelo://app?vid=a926f4bb-1e59-4822-80ea-1d5ff6f2a5c5"},"vehicle_type_id":"4","last_reported":1701529558,"current_range_meters":18800,"station_id":"ce4bhn12rcd13ifvqgqg","pricing_plan_id":"free"},{"bike_id":"22bd98e3-c33f-4c44-ae2b-f96729d36f4f","system_id":"levelo_inurba_marseille","lat":43.231793,"lon":5.400044,"is_reserved":false,"is_disabled":false,"rental_uris":{"android":"levelo://app?vid=22bd98e3-c33f-4c44-ae2b-f96729d36f4f","ios":"levelo://app?vid=22bd98e3-c33f-4c44-ae2b-f96729d36f4f"},"vehicle_type_id":"4","last_reported":1701529558,"current_range_meters":31200,"station_id":"ce4bhn12rcd13ifvqgqg","pricing_plan_id":"free"},{"bike_id":"d0b35396-6769-42d4-8160-8b44cb829902","system_id":"levelo_inurba_marseille","lat":43.23193,"lon":5.39983,"is_reserved":false,"is_disabled":false,"rental_uris":{"android":"levelo://app?vid=d0b35396-6769-42d4-8160-8b44cb829902","ios":"levelo://app?vid=d0b35396-6769-42d4-8160-8b44cb829902"},"vehicle_type_id":"4","last_reported":1701529558,"current_range_meters":31200,"station_id":"ce4bhn12rcd13ifvqgqg","pricing_plan_id":"free"},{"bike_id":"6bd9f065-50d9-4657-9ca0-a006f413d305","system_id":"levelo_inurba_marseille","lat":43.231794,"lon":5.400052,"is_reserved":false,"is_disabled":false,"rental_uris":{"android":"levelo://app?vid=6bd9f065-50d9-4657-9ca0-a006f413d305","ios":"levelo://app?vid=6bd9f065-50d9-4657-9ca0-a006f413d305"},"vehicle_type_id":"4","last_reported":1701529558,"current_range_meters":31200,"station_id":"ce4bhn12rcd13ifvqgqg","pricing_plan_id":"free"},{"bike_id":"4971a817-c21b-4382-b171-1e3133ca51bb","system_id":"levelo_inurba_marseille","lat":43.23189,"lon":5.3999,"is_reserved":false,"is_disabled":false,"rental_uris":{"android":"levelo://app?vid=4971a817-c21b-4382-b171-1e3133ca51bb","ios":"levelo://app?vid=4971a817-c21b-4382-b171-1e3133ca51bb"},"vehicle_type_id":"4","last_reported":1701529558,"current_range_meters":22000,"station_id":"ce4bhn12rcd13ifvqgqg","pricing_plan_id":"free"},{"bike_id":"8a513cfb-2a22-4eaf-90eb-23484384c4e8","system_id":"levelo_inurba_marseille","lat":43.23188,"lon":5.39987,"is_reserved":false,"is_disabled":false,"rental_uris":{"android":"levelo://app?vid=8a513cfb-2a22-4eaf-90eb-23484384c4e8","ios":"levelo://app?vid=8a513cfb-2a22-4eaf-90eb-23484384c4e8"},"vehicle_type_id":"4","last_reported":1701529558,"current_range_meters":6400,"station_id":"ce4bhn12rcd13ifvqgqg","pricing_plan_id":"free"},{"bike_id":"6c2dc1c9-372c-445d-814a-4d69ce499bdb","system_id":"levelo_inurba_marseille","lat":43.231793,"lon":5.400044,"is_reserved":false,"is_disabled":false,"rental_uris":{"android":"levelo://app?vid=6c2dc1c9-372c-445d-814a-4d69ce499bdb","ios":"levelo://app?vid=6c2dc1c9-372c-445d-814a-4d69ce499bdb"},"vehicle_type_id":"4","last_reported":1701529558,"current_range_meters":0,"station_id":"ce4bhn12rcd13ifvqgqg","pricing_plan_id":"free"},{"bike_id":"457c552c-8af5-4b7b-9f6b-8c901265a623","system_id":"levelo_inurba_marseille","lat":43.23188,"lon":5.399891,"is_reserved":false,"is_disabled":false,"rental_uris":{"android":"levelo://app?vid=457c552c-8af5-4b7b-9f6b-8c901265a623","ios":"levelo://app?vid=457c552c-8af5-4b7b-9f6b-8c901265a623"},"vehicle_type_id":"4","last_reported":1701529558,"current_range_meters":31200,"station_id":"ce4bhn12rcd13ifvqgqg","pricing_plan_id":"free"},{"bike_id":"78f53433-040f-4233-aa84-06b0d095f95e","system_id":"levelo_inurba_marseille","lat":43.231794,"lon":5.400052,"is_reserved":false,"is_disabled":false,"rental_uris":{"android":"levelo://app?vid=78f53433-040f-4233-aa84-06b0d095f95e","ios":"levelo://app?vid=78f53433-040f-4233-aa84-06b0d095f95e"},"vehicle_type_id":"4","last_reported":1701529558,"current_range_meters":26800,"station_id":"ce4bhn12rcd13ifvqgqg","pricing_plan_id":"free"},{"bike_id":"83862a0a-d647-45eb-9884-693fce6366ab","system_id":"levelo_inurba_marseille","lat":43.23186,"lon":5.39986,"is_reserved":false,"is_disabled":false,"rental_uris":{"android":"levelo://app?vid=83862a0a-d647-45eb-9884-693fce6366ab","ios":"levelo://app?vid=83862a0a-d647-45eb-9884-693fce6366ab"},"vehicle_type_id":"4","last_reported":1701529558,"current_range_meters":18400,"station_id":"ce4bhn12rcd13ifvqgqg","pricing_plan_id":"free"},{"bike_id":"77b1a551-da7f-429a-980e-bfc6767a5958","system_id":"levelo_inurba_marseille","lat":43.231794,"lon":5.400052,"is_reserved":false,"is_disabled":false,"rental_uris":{"android":"levelo://app?vid=77b1a551-da7f-429a-980e-bfc6767a5958","ios":"levelo://app?vid=77b1a551-da7f-429a-980e-bfc6767a5958"},"vehicle_type_id":"4","last_reported":1701529558,"current_range_meters":31200,"station_id":"ce4bhn12rcd13ifvqgqg","pricing_plan_id":"free"},{"bike_id":"71f20082-da83-4544-9fba-0b380be1c3df","system_id":"levelo_inurba_marseille","lat":43.231562,"lon":5.436933,"is_reserved":false,"is_disabled":false,"rental_uris":{"android":"levelo://app?vid=71f20082-da83-4544-9fba-0b380be1c3df","ios":"levelo://app?vid=71f20082-da83-4544-9fba-0b380be1c3df"},"vehicle_type_id":"4","last_reported":1701529558,"current_range_meters":22800,"station_id":"ce4bhmp2rcd13ifvqgog","pricing_plan_id":"free"},{"bike_id":"f50c292b-cc74-4220-88ff-ce7e4d6e67ca","system_id":"levelo_inurba_marseille","lat":43.231562,"lon":5.436933,"is_reserved":false,"is_disabled":false,"rental_uris":{"android":"levelo://app?vid=f50c292b-cc74-4220-88ff-ce7e4d6e67ca","ios":"levelo://app?vid=f50c292b-cc74-4220-88ff-ce7e4d6e67ca"},"vehicle_type_id":"4","last_reported":1701529558,"current_range_meters":24400,"station_id":"ce4bhmp2rcd13ifvqgog","pricing_plan_id":"free"},{"bike_id":"ea0b6868-3337-42dd-a4b5-9db45260014a","system_id":"levelo_inurba_marseille","lat":43.231562,"lon":5.436933,"is_reserved":false,"is_disabled":false,"rental_uris":{"android":"levelo://app?vid=ea0b6868-3337-42dd-a4b5-9db45260014a","ios":"levelo://app?vid=ea0b6868-3337-42dd-a4b5-9db45260014a"},"vehicle_type_id":"4","last_reported":1701529558,"current_range_meters":24800,"station_id":"ce4bhmp2rcd13ifvqgog","pricing_plan_id":"free"}]}}