{"last_updated":1748603323,"ttl":60,"version":"2.2","data":{"bikes":[{"bike_id":"55d42eeb-6b71-4987-a0f2-3d758b10d43e","system_id":"levelo_inurba_marseille","lat":43.33771,"lon":5.37424,"is_reserved":false,"is_disabled":true,"rental_uris":{"android":"levelo://app?vid=55d42eeb-6b71-4987-a0f2-3d758b10d43e","ios":"levelo://app?vid=55d42eeb-6b71-4987-a0f2-3d758b10d43e"},"vehicle_type_id":"4","last_reported":1748603323,"current_range_meters":0,"station_id":"","pricing_plan_id":"cebpf4jnsgd1na2vs0mg"},{"bike_id":"b7fe4621-b706-42f0-9085-4811142f84e8","system_id":"levelo_inurba_marseille","lat":43.337499,"lon":5.374469,"is_reserved":false,"is_disabled":true,"rental_uris":{"android":"levelo://app?vid=b7fe4621-b706-42f0-9085-4811142f84e8","ios":"levelo://app?vid=b7fe4621-b706-42f0-9085-4811142f84e8"},"vehicle_type_id":"4","last_reported":1748603323,"current_range_meters":0,"station_id":"","pricing_plan_id":"cebpf4jnsgd1na2vs0mg"},{"bike_id":"ad402f0f-3192-410c-afac-8cf064a40c6d","system_id":"levelo_inurba_marseille","lat":43.337444,"lon":5.374475,"is_reserved":false,"is_disabled":true,"rental_uris":{"android":"levelo://app?vid=ad402f0f-3192-410c-afac-8cf064a40c6d","ios":"levelo://app?vid=ad402f0f-3192-410c-afac-8cf064a40c6d"},"vehicle_type_id":"4","last_reported":1748603323,"current_range_meters":0,"station_id":"","pricing_plan_id":"cebpf4jnsgd1na2vs0mg"},{"bike_id":"d90baf97-e6b3-4c48-bcd2-63bc44243da4","system_id":"levelo_inurba_marseille","lat":43.2165,"lon":5.342951,"is_reserved":false,"is_disabled":true,"rental_uris":{"android":"levelo://app?vid=d90baf97-e6b3-4c48-bcd2-63bc44243da4","ios":"levelo://app?vid=d90baf97-e6b3-4c48-bcd2-63bc44243da4"},"vehicle_type_id":"4","last_reported":1748603323,"current_range_meters":0,"station_id":"","pricing_plan_id":"cebpf4jnsgd1na2vs0mg"},{"bike_id":"460e6c9e-bdb8-4233-ae5f-b91eaa4193b2","system_id":"levelo_inurba_marseille","lat":43.26568,"lon":5.39018,"is_reserved":false,"is_disabled":true,"rental_uris":{"android":"levelo://app?vid=460e6c9e-bdb8-4233-ae5f-b91eaa4193b2","ios":"levelo://app?vid=460e6c9e-bdb8-4233-ae5f-b91eaa4193b2"},"vehicle_type_id":"4","last_reported":1748603323,"current_range_meters":0,"station_id":"","pricing_plan_id":"cebpf4jnsgd1na2vs0mg"},{"bike_id":"80dc1064-d63f-4a22-ad21-d8abd70986c0","system_id":"levelo_inurba_marseille","lat":43.337555,"lon":5.374803,"is_reserved":false,"is_disabled":true,"rental_uris":{"android":"levelo://app?vid=80dc1064-d63f-4a22-ad21-d8abd70986c0","ios":"levelo://app?vid=80dc1064-d63f-4a22-ad21-d8abd70986c0"},"vehicle_type_id":"4","last_reported":1748603323,"current_range_meters":0,"station_id":"","pricing_plan_id":"cebpf4jnsgd1na2vs0mg"},{"bike_id":"73692252-284e-452c-9b85-90a54145fcf6","system_id":"levelo_inurba_marseille","lat":43.217464,"lon":5.346017,"is_reserved":false,"is_disabled":true,"rental_uris":{"android":"levelo://app?vid=73692252-284e-452c-9b85-90a54145fcf6","ios":"levelo://app?vid=73692252-284e-452c-9b85-90a54145fcf6"},"vehicle_type_id":"4","last_reported":1748603323,"current_range_meters":0,"station_id":"","pricing_plan_id":"cebpf4jnsgd1na2vs0mg"},{"bike_id":"04353006-bec2-4812-8069-3ef36886a8da","system_id":"levelo_inurba_marseille","lat":43.293355,"lon":5.371402,"is_reserved":false,"is_disabled":true,"rental_uris":{"android":"levelo://app?vid=04353006-bec2-4812-8069-3ef36886a8da","ios":"levelo://app?vid=04353006-bec2-4812-8069-3ef36886a8da"},"vehicle_type_id":"4","last_reported":1748603323,"current_range_meters":0,"station_id":"ce4bgh92rcd13ifvqb40","pricing_plan_id":"cebpf4jnsgd1na2vs0mg"},{"bike_id":"efe3ab00-662c-4416-9d1d-e5e57dca725b","system_id":"levelo_inurba_marseille","lat":43.29305,"lon":5.37447,"is_reserved":false,"is_disabled":true,"rental_uris":{"android":"levelo://app?vid=efe3ab00-662c-4416-9d1d-e5e57dca725b","ios":"levelo://app?vid=efe3ab00-662c-4416-9d1d-e5e57dca725b"},"vehicle_type_id":"4","last_reported":1748603323,"current_range_meters":0,"station_id":"ce4bgi12rcd13ifvqb70","pricing_plan_id":"cebpf4jnsgd1na2vs0mg"},{"bike_id":"b6bc80cd-eaea-4342-8ea5-ef6587bd9d03","system_id":"levelo_inurba_marseille","lat":43.29602,"lon":5.38101,"is_reserved":false,"is_disabled":false,"rental_uris":{"android":"levelo://app?vid=b6bc80cd-eaea-4342-8ea5-ef6587bd9d03","ios":"levelo://app?vid=b6bc80cd-eaea-4342-8ea5-ef6587bd9d03"},"vehicle_type_id":"4","last_reported":1748603323,"current_range_meters":0,"station_id":"ce4bgl12rcd13ifvqbo0","pricing_plan_id":"cebpf4jnsgd1na2vs0mg"},{"bike_id":"d95dd08d-e79c-4ac0-aad5-21a9c02ca1c7","system_id":"levelo_inurba_marseille","lat":43.29445,"lon":5.3862,"is_reserved":false,"is_disabled":true,"rental_uris":{"android":"levelo://app?vid=d95dd08d-e79c-4ac0-aad5-21a9c02ca1c7","ios":"levelo://app?vid=d95dd08d-e79c-4ac0-aad5-21a9c02ca1c7"},"vehicle_type_id":"4","last_reported":1748603323,"current_range_meters":0,"station_id":"ce4bh2h2rcd13ifvqdh0","pricing_plan_id":"cebpf4jnsgd1na2vs0mg"},{"bike_id":"10b490c8-8c63-4429-b66c-b4ae3c3498c9","system_id":"levelo_inurba_marseille","lat":43.296444,"lon":5.377359,"is_reserved":false,"is_disabled":true,"rental_uris":{"android":"levelo://app?vid=10b490c8-8c63-4429-b66c-b4ae3c3498c9","ios":"levelo://app?vid=10b490c8-8c63-4429-b66c-b4ae3c3498c9"},"vehicle_type_id":"4","last_reported":1748603323,"current_range_meters":0,"station_id":"ce4bhah2rcd13ifvqej0","pricing_plan_id":"cebpf4jnsgd1na2vs0mg"},{"bike_id":"942195ec-efb3-4f25-8ee6-d975b6969060","system_id":"levelo_inurba_marseille","lat":43.27376,"lon":5.36247,"is_reserved":false,"is_disabled":true,"rental_uris":{"android":"levelo://app?vid=942195ec-efb3-4f25-8ee6-d975b6969060","ios":"levelo://app?vid=942195ec-efb3-4f25-8ee6-d975b6969060"},"vehicle_type_id":"4","last_reported":1748603323,"current_range_meters":0,"station_id":"ce4bhbh2rcd13ifvqeo0","pricing_plan_id":"cebpf4jnsgd1na2vs0mg"},{"bike_id":"dc924cef-0954-473c-a45f-bdf9b2400262","system_id":"levelo_inurba_marseille","lat":43.26572,"lon":5.39008,"is_reserved":false,"is_disabled":true,"rental_uris":{"android":"levelo://app?vid=dc924cef-0954-473c-a45f-bdf9b2400262","ios":"levelo://app?vid=dc924cef-0954-473c-a45f-bdf9b2400262"},"vehicle_type_id":"4","last_reported":1748603323,"current_range_meters":0,"station_id":"ce4bhe12rcd13ifvqf30","pricing_plan_id":"cebpf4jnsgd1na2vs0mg"},{"bike_id":"ed256fe7-4a9a-4f85-944e-f72b09132ec0","system_id":"levelo_inurba_marseille","lat":43.24807,"lon":5.37445,"is_reserved":false,"is_disabled":true,"rental_uris":{"android":"levelo://app?vid=ed256fe7-4a9a-4f85-944e-f72b09132ec0","ios":"levelo://app?vid=ed256fe7-4a9a-4f85-944e-f72b09132ec0"},"vehicle_type_id":"4","last_reported":1748603323,"current_range_meters":0,"station_id":"ce4bhgh2rcd13ifvqfb0","pricing_plan_id":"cebpf4jnsgd1na2vs0mg"},{"bike_id":"337b37b6-3e06-4112-8d06-0a4d7c2c8ba1","system_id":"levelo_inurba_marseille","lat":43.2481,"lon":5.3746,"is_reserved":false,"is_disabled":true,"rental_uris":{"android":"levelo://app?vid=337b37b6-3e06-4112-8d06-0a4d7c2c8ba1","ios":"levelo://app?vid=337b37b6-3e06-4112-8d06-0a4d7c2c8ba1"},"vehicle_type_id":"4","last_reported":1748603323,"current_range_meters":0,"station_id":"ce4bhgh2rcd13ifvqfb0","pricing_plan_id":"cebpf4jnsgd1na2vs0mg"},{"bike_id":"31eafd4f-c771-4795-9fcf-9a1173682c94","system_id":"levelo_inurba_marseille","lat":43.2481,"lon":5.37461,"is_reserved":false,"is_disabled":true,"rental_uris":{"android":"levelo://app?vid=31eafd4f-c771-4795-9fcf-9a1173682c94","ios":"levelo://app?vid=31eafd4f-c771-4795-9fcf-9a1173682c94"},"vehicle_type_id":"4","last_reported":1748603323,"current_range_meters":0,"station_id":"ce4bhgh2rcd13ifvqfb0","pricing_plan_id":"cebpf4jnsgd1na2vs0mg"},{"bike_id":"e83578a1-a347-4126-8102-ced17574ee87","system_id":"levelo_inurba_marseille","lat":43.2621,"lon":5.37439,"is_reserved":false,"is_disabled":true,"rental_uris":{"android":"levelo://app?vid=e83578a1-a347-4126-8102-ced17574ee87","ios":"levelo://app?vid=e83578a1-a347-4126-8102-ced17574ee87"},"vehicle_type_id":"4","last_reported":1748603323,"current_range_meters":0,"station_id":"ce4bhgp2rcd13ifvqfc0","pricing_plan_id":"cebpf4jnsgd1na2vs0mg"},{"bike_id":"85032627-9cfe-4055-bce4-54618025ffe7","system_id":"levelo_inurba_marseille","lat":43.24384,"lon":5.37058,"is_reserved":false,"is_disabled":true,"rental_uris":{"android":"levelo://app?vid=85032627-9cfe-4055-bce4-54618025ffe7","ios":"levelo://app?vid=85032627-9cfe-4055-bce4-54618025ffe7"},"vehicle_type_id":"4","last_reported":1748603323,"current_range_meters":0,"station_id":"ce4bhhh2rcd13ifvqfk0","pricing_plan_id":"cebpf4jnsgd1na2vs0mg"},{"bike_id":"05588257-84c3-41f7-9268-7b2353ae08f7","system_id":"levelo_inurba_marseille","lat":43.23963,"lon":5.36634,"is_reserved":false,"is_disabled":true,"rental_uris":{"android":"levelo://app?vid=05588257-84c3-41f7-9268-7b2353ae08f7","ios":"levelo://app?vid=05588257-84c3-41f7-9268-7b2353ae08f7"},"vehicle_type_id":"4","last_reported":1748603323,"current_range_meters":0,"station_id":"ce4bhi12rcd13ifvqfp0","pricing_plan_id":"cebpf4jnsgd1na2vs0mg"},{"bike_id":"daaf375c-dcf0-4a00-b920-ec2513c615f1","system_id":"levelo_inurba_marseille","lat":43.24172,"lon":5.39733,"is_reserved":false,"is_disabled":true,"rental_uris":{"android":"levelo://app?vid=daaf375c-dcf0-4a00-b920-ec2513c615f1","ios":"levelo://app?vid=daaf375c-dcf0-4a00-b920-ec2513c615f1"},"vehicle_type_id":"4","last_reported":1748603323,"current_range_meters":0,"station_id":"ce4bhn12rcd13ifvqgpg","pricing_plan_id":"cebpf4jnsgd1na2vs0mg"},{"bike_id":"04c54075-755a-4dc5-9fd0-915ea19a7d7b","system_id":"levelo_inurba_marseille","lat":43.23183,"lon":5.35547,"is_reserved":false,"is_disabled":true,"rental_uris":{"android":"levelo://app?vid=04c54075-755a-4dc5-9fd0-915ea19a7d7b","ios":"levelo://app?vid=04c54075-755a-4dc5-9fd0-915ea19a7d7b"},"vehicle_type_id":"4","last_reported":1748603323,"current_range_meters":0,"station_id":"ce4bhu92rcd13ifvqi70","pricing_plan_id":"cebpf4jnsgd1na2vs0mg"},{"bike_id":"31b072e2-8f0b-4ae1-89b7-6f0c6977790e","system_id":"levelo_inurba_marseille","lat":43.23189,"lon":5.35559,"is_reserved":false,"is_disabled":true,"rental_uris":{"android":"levelo://app?vid=31b072e2-8f0b-4ae1-89b7-6f0c6977790e","ios":"levelo://app?vid=31b072e2-8f0b-4ae1-89b7-6f0c6977790e"},"vehicle_type_id":"4","last_reported":1748603323,"current_range_meters":0,"station_id":"ce4bhu92rcd13ifvqi70","pricing_plan_id":"cebpf4jnsgd1na2vs0mg"},{"bike_id":"12c19bbd-43ea-4f5f-b8eb-1098448c72e3","system_id":"levelo_inurba_marseille","lat":43.23194,"lon":5.35554,"is_reserved":false,"is_disabled":true,"rental_uris":{"android":"levelo://app?vid=12c19bbd-43ea-4f5f-b8eb-1098448c72e3","ios":"levelo://app?vid=12c19bbd-43ea-4f5f-b8eb-1098448c72e3"},"vehicle_type_id":"4","last_reported":1748603323,"current_range_meters":0,"station_id":"ce4bhu92rcd13ifvqi70","pricing_plan_id":"cebpf4jnsgd1na2vs0mg"},{"bike_id":"1bb34913-6e4d-4e3f-99bd-a84b8cb0b3fa","system_id":"levelo_inurba_marseille","lat":43.22932,"lon":5.35377,"is_reserved":false,"is_disabled":true,"rental_uris":{"android":"levelo://app?vid=1bb34913-6e4d-4e3f-99bd-a84b8cb0b3fa","ios":"levelo://app?vid=1bb34913-6e4d-4e3f-99bd-a84b8cb0b3fa"},"vehicle_type_id":"4","last_reported":1748603323,"current_range_meters":0,"station_id":"cpo3532slgdg3j2ikp40","pricing_plan_id":"cebpf4jnsgd1na2vs0mg"},{"bike_id":"3903734c-03c2-42fd-885f-0d30ae931fde","system_id":"levelo_inurba_marseille","lat":43.21187,"lon":5.3507,"is_reserved":false,"is_disabled":true,"rental_uris":{"android":"levelo://app?vid=3903734c-03c2-42fd-885f-0d30ae931fde","ios":"levelo://app?vid=3903734c-03c2-42fd-885f-0d30ae931fde"},"vehicle_type_id":"4","last_reported":1748603323,"current_range_meters":0,"station_id":"st_cvj6sg6p6f1abm77japg","pricing_plan_id":"cebpf4jnsgd1na2vs0mg"},{"bike_id":"a0739f91-730f-436f-8b38-6284acecd4b4","system_id":"levelo_inurba_marseille","lat":43.2926,"lon":5.38455,"is_reserved":false,"is_disabled":true,"rental_uris":{"android":"levelo://app?vid=a0739f91-730f-436f-8b38-6284acecd4b4","ios":"levelo://app?vid=a0739f91-730f-436f-8b38-6284acecd4b4"},"vehicle_type_id":"4","last_reported":1748603323,"current_range_meters":400,"station_id":"ce4bh692rcd13ifvqea0","pricing_plan_id":"cebpf4jnsgd1na2vs0mg"},{"bike_id":"dfbf6e13-477a-4fa9-872a-42a5172eea45","system_id":"levelo_inurba_marseille","lat":43.28267,"lon":5.35071,"is_reserved":false,"is_disabled":true,"rental_uris":{"android":"levelo://app?vid=dfbf6e13-477a-4fa9-872a-42a5172eea45","ios":"levelo://app?vid=dfbf6e13-477a-4fa9-872a-42a5172eea45"},"vehicle_type_id":"4","last_reported":1748603323,"current_range_meters":800,"station_id":"ce4bhbp2rcd13ifvqerg","pricing_plan_id":"cebpf4jnsgd1na2vs0mg"},{"bike_id":"fb13efc3-5213-4639-83be-d2375ce800aa","system_id":"levelo_inurba_marseille","lat":43.24168,"lon":5.36402,"is_reserved":false,"is_disabled":true,"rental_uris":{"android":"levelo://app?vid=fb13efc3-5213-4639-83be-d2375ce800aa","ios":"levelo://app?vid=fb13efc3-5213-4639-83be-d2375ce800aa"},"vehicle_type_id":"4","last_reported":1748603323,"current_range_meters":800,"station_id":"cpo36qri1sfpv3e86is0","pricing_plan_id":"cebpf4jnsgd1na2vs0mg"},{"bike_id":"de0075ed-c348-496e-a565-4f9ea2ff7c92","system_id":"levelo_inurba_marseille","lat":43.23961,"lon":5.36637,"is_reserved":false,"is_disabled":true,"rental_uris":{"android":"levelo://app?vid=de0075ed-c348-496e-a565-4f9ea2ff7c92","ios":"levelo://app?vid=de0075ed-c348-496e-a565-4f9ea2ff7c92"},"vehicle_type_id":"4","last_reported":1748603323,"current_range_meters":1200,"station_id":"ce4bhi12rcd13ifvqfp0","pricing_plan_id":"cebpf4jnsgd1na2vs0mg"},{"bike_id":"2cdafb41-8547-4855-b9b1-864409698f00","system_id":"levelo_inurba_marseille","lat":43.31704,"lon":5.43702,"is_reserved":false,"is_disabled":true,"rental_uris":{"android":"levelo://app?vid=2cdafb41-8547-4855-b9b1-864409698f00","ios":"levelo://app?vid=2cdafb41-8547-4855-b9b1-864409698f00"},"vehicle_type_id":"4","last_reported":1748603323,"current_range_meters":1200,"station_id":"ce4bhp92rcd13ifvqhcg","pricing_plan_id":"cebpf4jnsgd1na2vs0mg"},{"bike_id":"bada4012-d3d4-4fd8-bc6e-424f3d00b408","system_id":"levelo_inurba_marseille","lat":43.28352,"lon":5.38643,"is_reserved":false,"is_disabled":true,"rental_uris":{"android":"levelo://app?vid=bada4012-d3d4-4fd8-bc6e-424f3d00b408","ios":"levelo://app?vid=bada4012-d3d4-4fd8-bc6e-424f3d00b408"},"vehicle_type_id":"4","last_reported":1748603323,"current_range_meters":1600,"station_id":"ce4bh492rcd13ifvqdvg","pricing_plan_id":"cebpf4jnsgd1na2vs0mg"},{"bike_id":"55707f2e-366c-44a0-a0ab-c5489887efb5","system_id":"levelo_inurba_marseille","lat":43.26557,"lon":5.37281,"is_reserved":false,"is_disabled":true,"rental_uris":{"android":"levelo://app?vid=55707f2e-366c-44a0-a0ab-c5489887efb5","ios":"levelo://app?vid=55707f2e-366c-44a0-a0ab-c5489887efb5"},"vehicle_type_id":"4","last_reported":1748603323,"current_range_meters":1600,"station_id":"ce4bhg12rcd13ifvqf70","pricing_plan_id":"cebpf4jnsgd1na2vs0mg"},{"bike_id":"c4b8f0c4-a144-4337-a56e-6e5e4f9f1f06","system_id":"levelo_inurba_marseille","lat":43.29521,"lon":5.37503,"is_reserved":false,"is_disabled":true,"rental_uris":{"android":"levelo://app?vid=c4b8f0c4-a144-4337-a56e-6e5e4f9f1f06","ios":"levelo://app?vid=c4b8f0c4-a144-4337-a56e-6e5e4f9f1f06"},"vehicle_type_id":"4","last_reported":1748603323,"current_range_meters":2000,"station_id":"ce4bgkp2rcd13ifvqbmg","pricing_plan_id":"cebpf4jnsgd1na2vs0mg"},{"bike_id":"7af7685e-9e50-42f1-86eb-78928258dda3","system_id":"levelo_inurba_marseille","lat":43.29018,"lon":5.38641,"is_reserved":false,"is_disabled":true,"rental_uris":{"android":"levelo://app?vid=7af7685e-9e50-42f1-86eb-78928258dda3","ios":"levelo://app?vid=7af7685e-9e50-42f1-86eb-78928258dda3"},"vehicle_type_id":"4","last_reported":1748603323,"current_range_meters":2000,"station_id":"ce4bh4p2rcd13ifvqe0g","pricing_plan_id":"cebpf4jnsgd1na2vs0mg"},{"bike_id":"0de06a4d-582a-4575-8117-c600ac6a1f73","system_id":"levelo_inurba_marseille","lat":43.2559,"lon":5.38236,"is_reserved":false,"is_disabled":true,"rental_uris":{"android":"levelo://app?vid=0de06a4d-582a-4575-8117-c600ac6a1f73","ios":"levelo://app?vid=0de06a4d-582a-4575-8117-c600ac6a1f73"},"vehicle_type_id":"4","last_reported":1748603323,"current_range_meters":2000,"station_id":"ce4bhih2rcd13ifvqfs0","pricing_plan_id":"cebpf4jnsgd1na2vs0mg"},{"bike_id":"24204c04-5d8c-4ac1-bc38-3e364dee5b7a","system_id":"levelo_inurba_marseille","lat":43.30246,"lon":5.41311,"is_reserved":false,"is_disabled":false,"rental_uris":{"android":"levelo://app?vid=24204c04-5d8c-4ac1-bc38-3e364dee5b7a","ios":"levelo://app?vid=24204c04-5d8c-4ac1-bc38-3e364dee5b7a"},"vehicle_type_id":"4","last_reported":1748603323,"current_range_meters":2800,"station_id":"","pricing_plan_id":"cebpf4jnsgd1na2vs0mg"},{"bike_id":"1112c88b-781e-458d-b19f-3eba69b3d898","system_id":"levelo_inurba_marseille","lat":43.29408,"lon":5.38637,"is_reserved":false,"is_disabled":false,"rental_uris":{"android":"levelo://app?vid=1112c88b-781e-458d-b19f-3eba69b3d898","ios":"levelo://app?vid=1112c88b-781e-458d-b19f-3eba69b3d898"},"vehicle_type_id":"4","last_reported":1748603323,"current_range_meters":2800,"station_id":"ce4bh2h2rcd13ifvqdh0","pricing_plan_id":"cebpf4jnsgd1na2vs0mg"},{"bike_id":"b2128c9e-11cd-4d9f-8bdf-7cacb5152283","system_id":"levelo_inurba_marseille","lat":43.27963,"lon":5.38729,"is_reserved":false,"is_disabled":false,"rental_uris":{"android":"levelo://app?vid=b2128c9e-11cd-4d9f-8bdf-7cacb5152283","ios":"levelo://app?vid=b2128c9e-11cd-4d9f-8bdf-7cacb5152283"},"vehicle_type_id":"4","last_reported":1748603323,"current_range_meters":2800,"station_id":"ce4bhg12rcd13ifvqf80","pricing_plan_id":"cebpf4jnsgd1na2vs0mg"},{"bike_id":"2aa723fe-6e3d-463d-a313-916f2e8ec728","system_id":"levelo_inurba_marseille","lat":43.27903,"lon":5.38016,"is_reserved":false,"is_disabled":false,"rental_uris":{"android":"levelo://app?vid=2aa723fe-6e3d-463d-a313-916f2e8ec728","ios":"levelo://app?vid=2aa723fe-6e3d-463d-a313-916f2e8ec728"},"vehicle_type_id":"4","last_reported":1748603323,"current_range_meters":3200,"station_id":"ce4bhf92rcd13ifvqf50","pricing_plan_id":"cebpf4jnsgd1na2vs0mg"},{"bike_id":"6545bf54-02c5-464c-b470-b0caa72858a1","system_id":"levelo_inurba_marseille","lat":43.23964,"lon":5.36629,"is_reserved":false,"is_disabled":false,"rental_uris":{"android":"levelo://app?vid=6545bf54-02c5-464c-b470-b0caa72858a1","ios":"levelo://app?vid=6545bf54-02c5-464c-b470-b0caa72858a1"},"vehicle_type_id":"4","last_reported":1748603323,"current_range_meters":3200,"station_id":"ce4bhi12rcd13ifvqfp0","pricing_plan_id":"cebpf4jnsgd1na2vs0mg"},{"bike_id":"11488e1b-74ae-4459-8884-1588199aa112","system_id":"levelo_inurba_marseille","lat":43.2693,"lon":5.40263,"is_reserved":false,"is_disabled":false,"rental_uris":{"android":"levelo://app?vid=11488e1b-74ae-4459-8884-1588199aa112","ios":"levelo://app?vid=11488e1b-74ae-4459-8884-1588199aa112"},"vehicle_type_id":"4","last_reported":1748603323,"current_range_meters":3200,"station_id":"cjm6bp8fraef2m0cb0m0","pricing_plan_id":"cebpf4jnsgd1na2vs0mg"},{"bike_id":"480bdba7-4c1d-4e58-897c-0e32faed1cdf","system_id":"levelo_inurba_marseille","lat":43.22927,"lon":5.3538,"is_reserved":false,"is_disabled":false,"rental_uris":{"android":"levelo://app?vid=480bdba7-4c1d-4e58-897c-0e32faed1cdf","ios":"levelo://app?vid=480bdba7-4c1d-4e58-897c-0e32faed1cdf"},"vehicle_type_id":"4","last_reported":1748603323,"current_range_meters":3200,"station_id":"cpo3532slgdg3j2ikp40","pricing_plan_id":"cebpf4jnsgd1na2vs0mg"},{"bike_id":"2f650bb1-6027-4191-83d2-16315820a0a7","system_id":"levelo_inurba_marseille","lat":43.29991,"lon":5.37339,"is_reserved":false,"is_disabled":false,"rental_uris":{"android":"levelo://app?vid=2f650bb1-6027-4191-83d2-16315820a0a7","ios":"levelo://app?vid=2f650bb1-6027-4191-83d2-16315820a0a7"},"vehicle_type_id":"4","last_reported":1748603323,"current_range_meters":3600,"station_id":"","pricing_plan_id":"cebpf4jnsgd1na2vs0mg"},{"bike_id":"1b96a2c2-c8de-48a5-be6f-66722c641627","system_id":"levelo_inurba_marseille","lat":43.29035,"lon":5.38653,"is_reserved":false,"is_disabled":false,"rental_uris":{"android":"levelo://app?vid=1b96a2c2-c8de-48a5-be6f-66722c641627","ios":"levelo://app?vid=1b96a2c2-c8de-48a5-be6f-66722c641627"},"vehicle_type_id":"4","last_reported":1748603323,"current_range_meters":3600,"station_id":"ce4bh4p2rcd13ifvqe0g","pricing_plan_id":"cebpf4jnsgd1na2vs0mg"},{"bike_id":"3f0441b1-6cb6-41fd-b679-f454d34b2118","system_id":"levelo_inurba_marseille","lat":43.21189,"lon":5.35059,"is_reserved":false,"is_disabled":false,"rental_uris":{"android":"levelo://app?vid=3f0441b1-6cb6-41fd-b679-f454d34b2118","ios":"levelo://app?vid=3f0441b1-6cb6-41fd-b679-f454d34b2118"},"vehicle_type_id":"4","last_reported":1748603323,"current_range_meters":3600,"station_id":"st_cvj6sg6p6f1abm77japg","pricing_plan_id":"cebpf4jnsgd1na2vs0mg"},{"bike_id":"3310ada8-f621-4576-abb8-8ad0dd4b3211","system_id":"levelo_inurba_marseille","lat":43.29562,"lon":5.37521,"is_reserved":false,"is_disabled":false,"rental_uris":{"android":"levelo://app?vid=3310ada8-f621-4576-abb8-8ad0dd4b3211","ios":"levelo://app?vid=3310ada8-f621-4576-abb8-8ad0dd4b3211"},"vehicle_type_id":"4","last_reported":1748603323,"current_range_meters":4000,"station_id":"ce4bgh92rcd13ifvqb50","pricing_plan_id":"cebpf4jnsgd1na2vs0mg"},{"bike_id":"fe396c6e-cc9f-4a72-826a-9d1afb9c3dc8","system_id":"levelo_inurba_marseille","lat":43.29274,"lon":5.36844,"is_reserved":false,"is_disabled":false,"rental_uris":{"android":"levelo://app?vid=fe396c6e-cc9f-4a72-826a-9d1afb9c3dc8","ios":"levelo://app?vid=fe396c6e-cc9f-4a72-826a-9d1afb9c3dc8"},"vehicle_type_id":"4","last_reported":1748603323,"current_range_meters":4000,"station_id":"ce4bhbp2rcd13ifvqesg","pricing_plan_id":"cebpf4jnsgd1na2vs0mg"},{"bike_id":"c6a31a0d-9058-4787-aed5-d9fb8d71236f","system_id":"levelo_inurba_marseille","lat":43.2656,"lon":5.39017,"is_reserved":false,"is_disabled":false,"rental_uris":{"android":"levelo://app?vid=c6a31a0d-9058-4787-aed5-d9fb8d71236f","ios":"levelo://app?vid=c6a31a0d-9058-4787-aed5-d9fb8d71236f"},"vehicle_type_id":"4","last_reported":1748603323,"current_range_meters":4000,"station_id":"ce4bhe12rcd13ifvqf30","pricing_plan_id":"cebpf4jnsgd1na2vs0mg"},{"bike_id":"9c577ffd-c617-42a2-81e0-c523deb63b21","system_id":"levelo_inurba_marseille","lat":43.24802,"lon":5.37462,"is_reserved":false,"is_disabled":false,"rental_uris":{"android":"levelo://app?vid=9c577ffd-c617-42a2-81e0-c523deb63b21","ios":"levelo://app?vid=9c577ffd-c617-42a2-81e0-c523deb63b21"},"vehicle_type_id":"4","last_reported":1748603323,"current_range_meters":4000,"station_id":"ce4bhgh2rcd13ifvqfb0","pricing_plan_id":"cebpf4jnsgd1na2vs0mg"},{"bike_id":"acbd4c3d-b51c-4f06-9f41-0565e30c20f1","system_id":"levelo_inurba_marseille","lat":43.23144,"lon":5.43678,"is_reserved":false,"is_disabled":false,"rental_uris":{"android":"levelo://app?vid=acbd4c3d-b51c-4f06-9f41-0565e30c20f1","ios":"levelo://app?vid=acbd4c3d-b51c-4f06-9f41-0565e30c20f1"},"vehicle_type_id":"4","last_reported":1748603323,"current_range_meters":4000,"station_id":"ce4bhmp2rcd13ifvqgog","pricing_plan_id":"cebpf4jnsgd1na2vs0mg"},{"bike_id":"18224edb-554a-4efe-b8ab-931a3054325e","system_id":"levelo_inurba_marseille","lat":43.268,"lon":5.38402,"is_reserved":false,"is_disabled":false,"rental_uris":{"android":"levelo://app?vid=18224edb-554a-4efe-b8ab-931a3054325e","ios":"levelo://app?vid=18224edb-554a-4efe-b8ab-931a3054325e"},"vehicle_type_id":"4","last_reported":1748603323,"current_range_meters":4400,"station_id":"","pricing_plan_id":"cebpf4jnsgd1na2vs0mg"},{"bike_id":"eb6f7b70-b554-4f0b-9071-c468db80e368","system_id":"levelo_inurba_marseille","lat":43.23987,"lon":5.36278,"is_reserved":false,"is_disabled":false,"rental_uris":{"android":"levelo://app?vid=eb6f7b70-b554-4f0b-9071-c468db80e368","ios":"levelo://app?vid=eb6f7b70-b554-4f0b-9071-c468db80e368"},"vehicle_type_id":"4","last_reported":1748603323,"current_range_meters":4400,"station_id":"","pricing_plan_id":"cebpf4jnsgd1na2vs0mg"},{"bike_id":"9132d63b-dc3d-42c8-99bc-3985d8fd6184","system_id":"levelo_inurba_marseille","lat":43.28037,"lon":5.36943,"is_reserved":false,"is_disabled":false,"rental_uris":{"android":"levelo://app?vid=9132d63b-dc3d-42c8-99bc-3985d8fd6184","ios":"levelo://app?vid=9132d63b-dc3d-42c8-99bc-3985d8fd6184"},"vehicle_type_id":"4","last_reported":1748603323,"current_range_meters":4400,"station_id":"ce4bha12rcd13ifvqef0","pricing_plan_id":"cebpf4jnsgd1na2vs0mg"},{"bike_id":"9a9cb396-7044-457f-a27f-bd74ff7f3507","system_id":"levelo_inurba_marseille","lat":43.28616,"lon":5.35101,"is_reserved":false,"is_disabled":false,"rental_uris":{"android":"levelo://app?vid=9a9cb396-7044-457f-a27f-bd74ff7f3507","ios":"levelo://app?vid=9a9cb396-7044-457f-a27f-bd74ff7f3507"},"vehicle_type_id":"4","last_reported":1748603323,"current_range_meters":4400,"station_id":"ce4bhch2rcd13ifvqeug","pricing_plan_id":"cebpf4jnsgd1na2vs0mg"},{"bike_id":"eb4b3905-d697-4843-bcd5-622b64c07feb","system_id":"levelo_inurba_marseille","lat":43.23149,"lon":5.43717,"is_reserved":false,"is_disabled":false,"rental_uris":{"android":"levelo://app?vid=eb4b3905-d697-4843-bcd5-622b64c07feb","ios":"levelo://app?vid=eb4b3905-d697-4843-bcd5-622b64c07feb"},"vehicle_type_id":"4","last_reported":1748603323,"current_range_meters":4400,"station_id":"ce4bhmp2rcd13ifvqgog","pricing_plan_id":"cebpf4jnsgd1na2vs0mg"},{"bike_id":"7bf38fc5-a26b-4d65-bada-3401c8c7887c","system_id":"levelo_inurba_marseille","lat":43.29032,"lon":5.38656,"is_reserved":false,"is_disabled":false,"rental_uris":{"android":"levelo://app?vid=7bf38fc5-a26b-4d65-bada-3401c8c7887c","ios":"levelo://app?vid=7bf38fc5-a26b-4d65-bada-3401c8c7887c"},"vehicle_type_id":"4","last_reported":1748603323,"current_range_meters":4800,"station_id":"ce4bh4p2rcd13ifvqe0g","pricing_plan_id":"cebpf4jnsgd1na2vs0mg"},{"bike_id":"6555744c-dabb-4b6b-8cd2-b9b313a0a3c8","system_id":"levelo_inurba_marseille","lat":43.231799,"lon":5.399943,"is_reserved":false,"is_disabled":true,"rental_uris":{"android":"levelo://app?vid=6555744c-dabb-4b6b-8cd2-b9b313a0a3c8","ios":"levelo://app?vid=6555744c-dabb-4b6b-8cd2-b9b313a0a3c8"},"vehicle_type_id":"4","last_reported":1748603323,"current_range_meters":4800,"station_id":"ce4bhn12rcd13ifvqgqg","pricing_plan_id":"cebpf4jnsgd1na2vs0mg"},{"bike_id":"614b8b1d-506a-4862-a2e3-8b70b8522cc3","system_id":"levelo_inurba_marseille","lat":43.21187,"lon":5.35078,"is_reserved":false,"is_disabled":false,"rental_uris":{"android":"levelo://app?vid=614b8b1d-506a-4862-a2e3-8b70b8522cc3","ios":"levelo://app?vid=614b8b1d-506a-4862-a2e3-8b70b8522cc3"},"vehicle_type_id":"4","last_reported":1748603323,"current_range_meters":4800,"station_id":"st_cvj6sg6p6f1abm77japg","pricing_plan_id":"cebpf4jnsgd1na2vs0mg"},{"bike_id":"7c6e48ab-b87e-4e89-9339-a1a2992e6797","system_id":"levelo_inurba_marseille","lat":43.26112,"lon":5.41458,"is_reserved":false,"is_disabled":false,"rental_uris":{"android":"levelo://app?vid=7c6e48ab-b87e-4e89-9339-a1a2992e6797","ios":"levelo://app?vid=7c6e48ab-b87e-4e89-9339-a1a2992e6797"},"vehicle_type_id":"4","last_reported":1748603323,"current_range_meters":5600,"station_id":"","pricing_plan_id":"cebpf4jnsgd1na2vs0mg"},{"bike_id":"4b559158-1e0f-41e6-a125-d804a007bc97","system_id":"levelo_inurba_marseille","lat":43.27969,"lon":5.38729,"is_reserved":false,"is_disabled":false,"rental_uris":{"android":"levelo://app?vid=4b559158-1e0f-41e6-a125-d804a007bc97","ios":"levelo://app?vid=4b559158-1e0f-41e6-a125-d804a007bc97"},"vehicle_type_id":"4","last_reported":1748603323,"current_range_meters":6400,"station_id":"ce4bhg12rcd13ifvqf80","pricing_plan_id":"cebpf4jnsgd1na2vs0mg"},{"bike_id":"22e42db0-3c20-40d0-9ac6-638ae89d656a","system_id":"levelo_inurba_marseille","lat":43.23961,"lon":5.36631,"is_reserved":false,"is_disabled":false,"rental_uris":{"android":"levelo://app?vid=22e42db0-3c20-40d0-9ac6-638ae89d656a","ios":"levelo://app?vid=22e42db0-3c20-40d0-9ac6-638ae89d656a"},"vehicle_type_id":"4","last_reported":1748603323,"current_range_meters":6400,"station_id":"ce4bhi12rcd13ifvqfp0","pricing_plan_id":"cebpf4jnsgd1na2vs0mg"},{"bike_id":"c8a81a0f-62c0-4437-9585-105d6eca2c45","system_id":"levelo_inurba_marseille","lat":43.29269,"lon":5.38445,"is_reserved":false,"is_disabled":false,"rental_uris":{"android":"levelo://app?vid=c8a81a0f-62c0-4437-9585-105d6eca2c45","ios":"levelo://app?vid=c8a81a0f-62c0-4437-9585-105d6eca2c45"},"vehicle_type_id":"4","last_reported":1748603323,"current_range_meters":6800,"station_id":"ce4bh692rcd13ifvqea0","pricing_plan_id":"cebpf4jnsgd1na2vs0mg"},{"bike_id":"cb88469c-8067-43f3-83f6-c881895e7713","system_id":"levelo_inurba_marseille","lat":43.239632,"lon":5.366348,"is_reserved":false,"is_disabled":false,"rental_uris":{"android":"levelo://app?vid=cb88469c-8067-43f3-83f6-c881895e7713","ios":"levelo://app?vid=cb88469c-8067-43f3-83f6-c881895e7713"},"vehicle_type_id":"4","last_reported":1748603323,"current_range_meters":6800,"station_id":"ce4bhi12rcd13ifvqfp0","pricing_plan_id":"cebpf4jnsgd1na2vs0mg"},{"bike_id":"299bc464-0062-40b9-b8fd-94e53cb49a69","system_id":"levelo_inurba_marseille","lat":43.29652,"lon":5.37831,"is_reserved":false,"is_disabled":false,"rental_uris":{"android":"levelo://app?vid=299bc464-0062-40b9-b8fd-94e53cb49a69","ios":"levelo://app?vid=299bc464-0062-40b9-b8fd-94e53cb49a69"},"vehicle_type_id":"4","last_reported":1748603323,"current_range_meters":7200,"station_id":"","pricing_plan_id":"cebpf4jnsgd1na2vs0mg"},{"bike_id":"344b9b0b-59e6-4171-aa1e-2d54050a8f3f","system_id":"levelo_inurba_marseille","lat":43.292609,"lon":5.409078,"is_reserved":false,"is_disabled":false,"rental_uris":{"android":"levelo://app?vid=344b9b0b-59e6-4171-aa1e-2d54050a8f3f","ios":"levelo://app?vid=344b9b0b-59e6-4171-aa1e-2d54050a8f3f"},"vehicle_type_id":"4","last_reported":1748603323,"current_range_meters":7200,"station_id":"ce4bh192rcd13ifvqdc0","pricing_plan_id":"cebpf4jnsgd1na2vs0mg"},{"bike_id":"e5f51ef8-c77f-47b7-b2fe-bfed9275d0e0","system_id":"levelo_inurba_marseille","lat":43.24804,"lon":5.37456,"is_reserved":false,"is_disabled":false,"rental_uris":{"android":"levelo://app?vid=e5f51ef8-c77f-47b7-b2fe-bfed9275d0e0","ios":"levelo://app?vid=e5f51ef8-c77f-47b7-b2fe-bfed9275d0e0"},"vehicle_type_id":"4","last_reported":1748603323,"current_range_meters":7200,"station_id":"ce4bhgh2rcd13ifvqfb0","pricing_plan_id":"cebpf4jnsgd1na2vs0mg"},{"bike_id":"e02624ed-4554-4bb3-82a0-790d23d93dc4","system_id":"levelo_inurba_marseille","lat":43.27204,"lon":5.39183,"is_reserved":false,"is_disabled":false,"rental_uris":{"android":"levelo://app?vid=e02624ed-4554-4bb3-82a0-790d23d93dc4","ios":"levelo://app?vid=e02624ed-4554-4bb3-82a0-790d23d93dc4"},"vehicle_type_id":"4","last_reported":1748603323,"current_range_meters":7200,"station_id":"ce4bhhp2rcd13ifvqfm0","pricing_plan_id":"cebpf4jnsgd1na2vs0mg"},{"bike_id":"2fe20f88-a142-479b-a6c9-8f8902ddf12d","system_id":"levelo_inurba_marseille","lat":43.25107,"lon":5.4032,"is_reserved":false,"is_disabled":false,"rental_uris":{"android":"levelo://app?vid=2fe20f88-a142-479b-a6c9-8f8902ddf12d","ios":"levelo://app?vid=2fe20f88-a142-479b-a6c9-8f8902ddf12d"},"vehicle_type_id":"4","last_reported":1748603323,"current_range_meters":7200,"station_id":"ce4bhlh2rcd13ifvqgig","pricing_plan_id":"cebpf4jnsgd1na2vs0mg"},{"bike_id":"cd99ba30-2a70-4aef-a969-f0489372a38d","system_id":"levelo_inurba_marseille","lat":43.23194,"lon":5.35549,"is_reserved":false,"is_disabled":false,"rental_uris":{"android":"levelo://app?vid=cd99ba30-2a70-4aef-a969-f0489372a38d","ios":"levelo://app?vid=cd99ba30-2a70-4aef-a969-f0489372a38d"},"vehicle_type_id":"4","last_reported":1748603323,"current_range_meters":7200,"station_id":"ce4bhu92rcd13ifvqi70","pricing_plan_id":"cebpf4jnsgd1na2vs0mg"},{"bike_id":"c20cde3d-efa4-4792-85cb-bcd9537bb570","system_id":"levelo_inurba_marseille","lat":43.24168,"lon":5.36381,"is_reserved":false,"is_disabled":false,"rental_uris":{"android":"levelo://app?vid=c20cde3d-efa4-4792-85cb-bcd9537bb570","ios":"levelo://app?vid=c20cde3d-efa4-4792-85cb-bcd9537bb570"},"vehicle_type_id":"4","last_reported":1748603323,"current_range_meters":7200,"station_id":"cpo36qri1sfpv3e86is0","pricing_plan_id":"cebpf4jnsgd1na2vs0mg"},{"bike_id":"42dca157-bdb0-4361-8022-7979135f94aa","system_id":"levelo_inurba_marseille","lat":43.2857,"lon":5.36542,"is_reserved":false,"is_disabled":false,"rental_uris":{"android":"levelo://app?vid=42dca157-bdb0-4361-8022-7979135f94aa","ios":"levelo://app?vid=42dca157-bdb0-4361-8022-7979135f94aa"},"vehicle_type_id":"4","last_reported":1748603323,"current_range_meters":8000,"station_id":"","pricing_plan_id":"cebpf4jnsgd1na2vs0mg"},{"bike_id":"45ecb95c-6a1d-4dbe-aa2f-c6ef9b9d5f2e","system_id":"levelo_inurba_marseille","lat":43.30555,"lon":5.36546,"is_reserved":false,"is_disabled":false,"rental_uris":{"android":"levelo://app?vid=45ecb95c-6a1d-4dbe-aa2f-c6ef9b9d5f2e","ios":"levelo://app?vid=45ecb95c-6a1d-4dbe-aa2f-c6ef9b9d5f2e"},"vehicle_type_id":"4","last_reported":1748603323,"current_range_meters":8000,"station_id":"ce4bgs12rcd13ifvqcag","pricing_plan_id":"cebpf4jnsgd1na2vs0mg"},{"bike_id":"c82859d7-6922-47ea-a20c-94785f7fe196","system_id":"levelo_inurba_marseille","lat":43.29264,"lon":5.38426,"is_reserved":false,"is_disabled":false,"rental_uris":{"android":"levelo://app?vid=c82859d7-6922-47ea-a20c-94785f7fe196","ios":"levelo://app?vid=c82859d7-6922-47ea-a20c-94785f7fe196"},"vehicle_type_id":"4","last_reported":1748603323,"current_range_meters":8000,"station_id":"ce4bh692rcd13ifvqea0","pricing_plan_id":"cebpf4jnsgd1na2vs0mg"},{"bike_id":"abfe4519-e2a3-4aea-a6a9-016dba2ff093","system_id":"levelo_inurba_marseille","lat":43.26552,"lon":5.37285,"is_reserved":false,"is_disabled":false,"rental_uris":{"android":"levelo://app?vid=abfe4519-e2a3-4aea-a6a9-016dba2ff093","ios":"levelo://app?vid=abfe4519-e2a3-4aea-a6a9-016dba2ff093"},"vehicle_type_id":"4","last_reported":1748603323,"current_range_meters":8000,"station_id":"ce4bhg12rcd13ifvqf70","pricing_plan_id":"cebpf4jnsgd1na2vs0mg"},{"bike_id":"aae5f7c7-b30a-474f-bb09-cb9f5f8f5101","system_id":"levelo_inurba_marseille","lat":43.24176,"lon":5.36396,"is_reserved":false,"is_disabled":false,"rental_uris":{"android":"levelo://app?vid=aae5f7c7-b30a-474f-bb09-cb9f5f8f5101","ios":"levelo://app?vid=aae5f7c7-b30a-474f-bb09-cb9f5f8f5101"},"vehicle_type_id":"4","last_reported":1748603323,"current_range_meters":8000,"station_id":"cpo36qri1sfpv3e86is0","pricing_plan_id":"cebpf4jnsgd1na2vs0mg"},{"bike_id":"a0b44b20-89b3-41fb-bb26-259cf1852531","system_id":"levelo_inurba_marseille","lat":43.25719,"lon":5.41118,"is_reserved":false,"is_disabled":false,"rental_uris":{"android":"levelo://app?vid=a0b44b20-89b3-41fb-bb26-259cf1852531","ios":"levelo://app?vid=a0b44b20-89b3-41fb-bb26-259cf1852531"},"vehicle_type_id":"4","last_reported":1748603323,"current_range_meters":8400,"station_id":"ce4bhkp2rcd13ifvqgd0","pricing_plan_id":"cebpf4jnsgd1na2vs0mg"},{"bike_id":"dcebaa5e-7e2f-4515-ba0e-9c671f02457b","system_id":"levelo_inurba_marseille","lat":43.25082,"lon":5.39523,"is_reserved":false,"is_disabled":false,"rental_uris":{"android":"levelo://app?vid=dcebaa5e-7e2f-4515-ba0e-9c671f02457b","ios":"levelo://app?vid=dcebaa5e-7e2f-4515-ba0e-9c671f02457b"},"vehicle_type_id":"4","last_reported":1748603323,"current_range_meters":8400,"station_id":"ce4bhm12rcd13ifvqgkg","pricing_plan_id":"cebpf4jnsgd1na2vs0mg"},{"bike_id":"339f38b0-f75b-4455-bd41-33673ac56d64","system_id":"levelo_inurba_marseille","lat":43.30982,"lon":5.4172,"is_reserved":false,"is_disabled":false,"rental_uris":{"android":"levelo://app?vid=339f38b0-f75b-4455-bd41-33673ac56d64","ios":"levelo://app?vid=339f38b0-f75b-4455-bd41-33673ac56d64"},"vehicle_type_id":"4","last_reported":1748603323,"current_range_meters":8800,"station_id":"","pricing_plan_id":"cebpf4jnsgd1na2vs0mg"},{"bike_id":"00f77637-c960-45d0-b516-a2f6a0285858","system_id":"levelo_inurba_marseille","lat":43.29731,"lon":5.385386,"is_reserved":false,"is_disabled":false,"rental_uris":{"android":"levelo://app?vid=00f77637-c960-45d0-b516-a2f6a0285858","ios":"levelo://app?vid=00f77637-c960-45d0-b516-a2f6a0285858"},"vehicle_type_id":"4","last_reported":1748603323,"current_range_meters":8800,"station_id":"","pricing_plan_id":"cebpf4jnsgd1na2vs0mg"},{"bike_id":"e35bc658-c1cc-4270-ba21-52b754fe9c65","system_id":"levelo_inurba_marseille","lat":43.27371,"lon":5.36253,"is_reserved":false,"is_disabled":false,"rental_uris":{"android":"levelo://app?vid=e35bc658-c1cc-4270-ba21-52b754fe9c65","ios":"levelo://app?vid=e35bc658-c1cc-4270-ba21-52b754fe9c65"},"vehicle_type_id":"4","last_reported":1748603323,"current_range_meters":8800,"station_id":"ce4bhbh2rcd13ifvqeo0","pricing_plan_id":"cebpf4jnsgd1na2vs0mg"},{"bike_id":"d415131d-f1d3-4747-ba6b-3c0ba419f3cc","system_id":"levelo_inurba_marseille","lat":43.24386,"lon":5.37057,"is_reserved":false,"is_disabled":false,"rental_uris":{"android":"levelo://app?vid=d415131d-f1d3-4747-ba6b-3c0ba419f3cc","ios":"levelo://app?vid=d415131d-f1d3-4747-ba6b-3c0ba419f3cc"},"vehicle_type_id":"4","last_reported":1748603323,"current_range_meters":8800,"station_id":"ce4bhhh2rcd13ifvqfk0","pricing_plan_id":"cebpf4jnsgd1na2vs0mg"},{"bike_id":"2678f8be-6420-4ee3-828b-2032fbbec775","system_id":"levelo_inurba_marseille","lat":43.23197,"lon":5.35544,"is_reserved":false,"is_disabled":false,"rental_uris":{"android":"levelo://app?vid=2678f8be-6420-4ee3-828b-2032fbbec775","ios":"levelo://app?vid=2678f8be-6420-4ee3-828b-2032fbbec775"},"vehicle_type_id":"4","last_reported":1748603323,"current_range_meters":8800,"station_id":"ce4bhu92rcd13ifvqi70","pricing_plan_id":"cebpf4jnsgd1na2vs0mg"},{"bike_id":"9fe1e697-36ec-421f-b0be-031c2f5ed7f3","system_id":"levelo_inurba_marseille","lat":43.32832,"lon":5.37497,"is_reserved":false,"is_disabled":false,"rental_uris":{"android":"levelo://app?vid=9fe1e697-36ec-421f-b0be-031c2f5ed7f3","ios":"levelo://app?vid=9fe1e697-36ec-421f-b0be-031c2f5ed7f3"},"vehicle_type_id":"4","last_reported":1748603323,"current_range_meters":9200,"station_id":"","pricing_plan_id":"cebpf4jnsgd1na2vs0mg"},{"bike_id":"42457cf4-066b-4e99-be8a-c611cdb501b2","system_id":"levelo_inurba_marseille","lat":43.233255,"lon":5.361608,"is_reserved":false,"is_disabled":false,"rental_uris":{"android":"levelo://app?vid=42457cf4-066b-4e99-be8a-c611cdb501b2","ios":"levelo://app?vid=42457cf4-066b-4e99-be8a-c611cdb501b2"},"vehicle_type_id":"4","last_reported":1748603323,"current_range_meters":9200,"station_id":"","pricing_plan_id":"cebpf4jnsgd1na2vs0mg"},{"bike_id":"f5733814-9732-4748-bcc9-3b2fac8e1564","system_id":"levelo_inurba_marseille","lat":43.31256,"lon":5.37829,"is_reserved":false,"is_disabled":false,"rental_uris":{"android":"levelo://app?vid=f5733814-9732-4748-bcc9-3b2fac8e1564","ios":"levelo://app?vid=f5733814-9732-4748-bcc9-3b2fac8e1564"},"vehicle_type_id":"4","last_reported":1748603323,"current_range_meters":9200,"station_id":"","pricing_plan_id":"cebpf4jnsgd1na2vs0mg"},{"bike_id":"17d9ba4f-c132-475c-9df8-9ea31cd1f2aa","system_id":"levelo_inurba_marseille","lat":43.26029,"lon":5.37543,"is_reserved":false,"is_disabled":false,"rental_uris":{"android":"levelo://app?vid=17d9ba4f-c132-475c-9df8-9ea31cd1f2aa","ios":"levelo://app?vid=17d9ba4f-c132-475c-9df8-9ea31cd1f2aa"},"vehicle_type_id":"4","last_reported":1748603323,"current_range_meters":9200,"station_id":"ce4bhgh2rcd13ifvqfa0","pricing_plan_id":"cebpf4jnsgd1na2vs0mg"},{"bike_id":"04c49220-7a35-477c-9a01-0c7650744921","system_id":"levelo_inurba_marseille","lat":43.32472,"lon":5.36557,"is_reserved":false,"is_disabled":false,"rental_uris":{"android":"levelo://app?vid=04c49220-7a35-477c-9a01-0c7650744921","ios":"levelo://app?vid=04c49220-7a35-477c-9a01-0c7650744921"},"vehicle_type_id":"4","last_reported":1748603323,"current_range_meters":9200,"station_id":"ce4bhs12rcd13ifvqhvg","pricing_plan_id":"cebpf4jnsgd1na2vs0mg"},{"bike_id":"a426f99b-d34a-41bf-bbda-59f7dfd6939b","system_id":"levelo_inurba_marseille","lat":43.255796,"lon":5.382262,"is_reserved":false,"is_disabled":false,"rental_uris":{"android":"levelo://app?vid=a426f99b-d34a-41bf-bbda-59f7dfd6939b","ios":"levelo://app?vid=a426f99b-d34a-41bf-bbda-59f7dfd6939b"},"vehicle_type_id":"4","last_reported":1748603323,"current_range_meters":9200,"station_id":"ce501612rcd8frsf0b60","pricing_plan_id":"cebpf4jnsgd1na2vs0mg"},{"bike_id":"a807c8dd-75ce-4f49-b322-50ddd08ec8d0","system_id":"levelo_inurba_marseille","lat":43.34743,"lon":5.373186,"is_reserved":false,"is_disabled":false,"rental_uris":{"android":"levelo://app?vid=a807c8dd-75ce-4f49-b322-50ddd08ec8d0","ios":"levelo://app?vid=a807c8dd-75ce-4f49-b322-50ddd08ec8d0"},"vehicle_type_id":"4","last_reported":1748603323,"current_range_meters":9600,"station_id":"","pricing_plan_id":"cebpf4jnsgd1na2vs0mg"},{"bike_id":"ae281a40-31ba-4535-ba1e-4269569c30b8","system_id":"levelo_inurba_marseille","lat":43.287687,"lon":5.375507,"is_reserved":false,"is_disabled":false,"rental_uris":{"android":"levelo://app?vid=ae281a40-31ba-4535-ba1e-4269569c30b8","ios":"levelo://app?vid=ae281a40-31ba-4535-ba1e-4269569c30b8"},"vehicle_type_id":"4","last_reported":1748603323,"current_range_meters":9600,"station_id":"ce4bgl12rcd13ifvqbo0","pricing_plan_id":"cebpf4jnsgd1na2vs0mg"},{"bike_id":"5b9519c9-932f-48e4-8870-f590b2a1c892","system_id":"levelo_inurba_marseille","lat":43.30139,"lon":5.37426,"is_reserved":false,"is_disabled":false,"rental_uris":{"android":"levelo://app?vid=5b9519c9-932f-48e4-8870-f590b2a1c892","ios":"levelo://app?vid=5b9519c9-932f-48e4-8870-f590b2a1c892"},"vehicle_type_id":"4","last_reported":1748603323,"current_range_meters":9600,"station_id":"ce4bgs92rcd13ifvqcc0","pricing_plan_id":"cebpf4jnsgd1na2vs0mg"},{"bike_id":"18a92080-c5c7-426c-a7d0-2bf1592f2888","system_id":"levelo_inurba_marseille","lat":43.28274,"lon":5.35063,"is_reserved":false,"is_disabled":false,"rental_uris":{"android":"levelo://app?vid=18a92080-c5c7-426c-a7d0-2bf1592f2888","ios":"levelo://app?vid=18a92080-c5c7-426c-a7d0-2bf1592f2888"},"vehicle_type_id":"4","last_reported":1748603323,"current_range_meters":9600,"station_id":"ce4bhbp2rcd13ifvqerg","pricing_plan_id":"cebpf4jnsgd1na2vs0mg"},{"bike_id":"d519fbfe-999b-4f7a-934e-a3933f4f8445","system_id":"levelo_inurba_marseille","lat":43.27049,"lon":5.40261,"is_reserved":false,"is_disabled":false,"rental_uris":{"android":"levelo://app?vid=d519fbfe-999b-4f7a-934e-a3933f4f8445","ios":"levelo://app?vid=d519fbfe-999b-4f7a-934e-a3933f4f8445"},"vehicle_type_id":"4","last_reported":1748603323,"current_range_meters":9600,"station_id":"ce4bhk92rcd13ifvqgc0","pricing_plan_id":"cebpf4jnsgd1na2vs0mg"},{"bike_id":"5ecaefd6-76b7-42ae-a5ae-aeaa28e9879d","system_id":"levelo_inurba_marseille","lat":43.231843,"lon":5.399905,"is_reserved":false,"is_disabled":false,"rental_uris":{"android":"levelo://app?vid=5ecaefd6-76b7-42ae-a5ae-aeaa28e9879d","ios":"levelo://app?vid=5ecaefd6-76b7-42ae-a5ae-aeaa28e9879d"},"vehicle_type_id":"4","last_reported":1748603323,"current_range_meters":9600,"station_id":"ce4bhn12rcd13ifvqgqg","pricing_plan_id":"cebpf4jnsgd1na2vs0mg"},{"bike_id":"042e2378-ec42-47ed-b56b-b7fb0278fd68","system_id":"levelo_inurba_marseille","lat":43.279979,"lon":5.400004,"is_reserved":false,"is_disabled":false,"rental_uris":{"android":"levelo://app?vid=042e2378-ec42-47ed-b56b-b7fb0278fd68","ios":"levelo://app?vid=042e2378-ec42-47ed-b56b-b7fb0278fd68"},"vehicle_type_id":"4","last_reported":1748603323,"current_range_meters":9600,"station_id":"ce4bho92rcd13ifvqh4g","pricing_plan_id":"cebpf4jnsgd1na2vs0mg"},{"bike_id":"f8d26ebd-9168-41c8-9f49-36e1a1965f63","system_id":"levelo_inurba_marseille","lat":43.29894,"lon":5.43669,"is_reserved":false,"is_disabled":false,"rental_uris":{"android":"levelo://app?vid=f8d26ebd-9168-41c8-9f49-36e1a1965f63","ios":"levelo://app?vid=f8d26ebd-9168-41c8-9f49-36e1a1965f63"},"vehicle_type_id":"4","last_reported":1748603323,"current_range_meters":9600,"station_id":"ce4bhpp2rcd13ifvqhfg","pricing_plan_id":"cebpf4jnsgd1na2vs0mg"},{"bike_id":"69ae3490-2a08-4fdf-a81d-ef00f844fe18","system_id":"levelo_inurba_marseille","lat":43.22926,"lon":5.35373,"is_reserved":false,"is_disabled":false,"rental_uris":{"android":"levelo://app?vid=69ae3490-2a08-4fdf-a81d-ef00f844fe18","ios":"levelo://app?vid=69ae3490-2a08-4fdf-a81d-ef00f844fe18"},"vehicle_type_id":"4","last_reported":1748603323,"current_range_meters":9600,"station_id":"cpo3532slgdg3j2ikp40","pricing_plan_id":"cebpf4jnsgd1na2vs0mg"},{"bike_id":"c666405f-462c-40b6-aad2-05c3e84c9054","system_id":"levelo_inurba_marseille","lat":43.24168,"lon":5.36394,"is_reserved":false,"is_disabled":false,"rental_uris":{"android":"levelo://app?vid=c666405f-462c-40b6-aad2-05c3e84c9054","ios":"levelo://app?vid=c666405f-462c-40b6-aad2-05c3e84c9054"},"vehicle_type_id":"4","last_reported":1748603323,"current_range_meters":9600,"station_id":"cpo36qri1sfpv3e86is0","pricing_plan_id":"cebpf4jnsgd1na2vs0mg"},{"bike_id":"b20bbe32-37ed-4b7f-abe4-fbeece7bebaa","system_id":"levelo_inurba_marseille","lat":43.21747,"lon":5.346,"is_reserved":false,"is_disabled":false,"rental_uris":{"android":"levelo://app?vid=b20bbe32-37ed-4b7f-abe4-fbeece7bebaa","ios":"levelo://app?vid=b20bbe32-37ed-4b7f-abe4-fbeece7bebaa"},"vehicle_type_id":"4","last_reported":1748603323,"current_range_meters":9600,"station_id":"st_cvj6r9ubvosntc0bgbag","pricing_plan_id":"cebpf4jnsgd1na2vs0mg"},{"bike_id":"7c195096-3ad4-4361-92af-8cdb0ec54012","system_id":"levelo_inurba_marseille","lat":43.21186,"lon":5.35076,"is_reserved":false,"is_disabled":false,"rental_uris":{"android":"levelo://app?vid=7c195096-3ad4-4361-92af-8cdb0ec54012","ios":"levelo://app?vid=7c195096-3ad4-4361-92af-8cdb0ec54012"},"vehicle_type_id":"4","last_reported":1748603323,"current_range_meters":9600,"station_id":"st_cvj6sg6p6f1abm77japg","pricing_plan_id":"cebpf4jnsgd1na2vs0mg"},{"bike_id":"e044c9db-ce02-4ecf-bf86-8eaa46f9c414","system_id":"levelo_inurba_marseille","lat":43.25697,"lon":5.3914,"is_reserved":false,"is_disabled":false,"rental_uris":{"android":"levelo://app?vid=e044c9db-ce02-4ecf-bf86-8eaa46f9c414","ios":"levelo://app?vid=e044c9db-ce02-4ecf-bf86-8eaa46f9c414"},"vehicle_type_id":"4","last_reported":1748603323,"current_range_meters":10000,"station_id":"","pricing_plan_id":"cebpf4jnsgd1na2vs0mg"},{"bike_id":"e9cda520-c6f4-465d-ad7f-8c059b3dc45a","system_id":"levelo_inurba_marseille","lat":43.313967,"lon":5.383993,"is_reserved":false,"is_disabled":false,"rental_uris":{"android":"levelo://app?vid=e9cda520-c6f4-465d-ad7f-8c059b3dc45a","ios":"levelo://app?vid=e9cda520-c6f4-465d-ad7f-8c059b3dc45a"},"vehicle_type_id":"4","last_reported":1748603323,"current_range_meters":10000,"station_id":"","pricing_plan_id":"cebpf4jnsgd1na2vs0mg"},{"bike_id":"54e0c0f7-b8f3-48f3-a8b9-65efc0d1fd7c","system_id":"levelo_inurba_marseille","lat":43.31326,"lon":5.36699,"is_reserved":false,"is_disabled":false,"rental_uris":{"android":"levelo://app?vid=54e0c0f7-b8f3-48f3-a8b9-65efc0d1fd7c","ios":"levelo://app?vid=54e0c0f7-b8f3-48f3-a8b9-65efc0d1fd7c"},"vehicle_type_id":"4","last_reported":1748603323,"current_range_meters":10000,"station_id":"ce4bgr92rcd13ifvqc6g","pricing_plan_id":"cebpf4jnsgd1na2vs0mg"},{"bike_id":"e997ff03-e3d7-45f1-9f4e-fa41cdd5326b","system_id":"levelo_inurba_marseille","lat":43.31483,"lon":5.37302,"is_reserved":false,"is_disabled":false,"rental_uris":{"android":"levelo://app?vid=e997ff03-e3d7-45f1-9f4e-fa41cdd5326b","ios":"levelo://app?vid=e997ff03-e3d7-45f1-9f4e-fa41cdd5326b"},"vehicle_type_id":"4","last_reported":1748603323,"current_range_meters":10000,"station_id":"ce4bgt12rcd13ifvqcd0","pricing_plan_id":"cebpf4jnsgd1na2vs0mg"},{"bike_id":"a0733277-9572-4c49-b86b-a255c71a8787","system_id":"levelo_inurba_marseille","lat":43.27185,"lon":5.40957,"is_reserved":false,"is_disabled":false,"rental_uris":{"android":"levelo://app?vid=a0733277-9572-4c49-b86b-a255c71a8787","ios":"levelo://app?vid=a0733277-9572-4c49-b86b-a255c71a8787"},"vehicle_type_id":"4","last_reported":1748603323,"current_range_meters":10000,"station_id":"ce4bhl12rcd13ifvqgf0","pricing_plan_id":"cebpf4jnsgd1na2vs0mg"},{"bike_id":"2780ce74-3c24-4085-9bc2-dcf4ff723162","system_id":"levelo_inurba_marseille","lat":43.27794,"lon":5.40722,"is_reserved":false,"is_disabled":false,"rental_uris":{"android":"levelo://app?vid=2780ce74-3c24-4085-9bc2-dcf4ff723162","ios":"levelo://app?vid=2780ce74-3c24-4085-9bc2-dcf4ff723162"},"vehicle_type_id":"4","last_reported":1748603323,"current_range_meters":10000,"station_id":"ce4bhnh2rcd13ifvqgtg","pricing_plan_id":"cebpf4jnsgd1na2vs0mg"},{"bike_id":"be4a640d-0c26-4675-b5c4-320922c50d85","system_id":"levelo_inurba_marseille","lat":43.30365,"lon":5.42481,"is_reserved":false,"is_disabled":false,"rental_uris":{"android":"levelo://app?vid=be4a640d-0c26-4675-b5c4-320922c50d85","ios":"levelo://app?vid=be4a640d-0c26-4675-b5c4-320922c50d85"},"vehicle_type_id":"4","last_reported":1748603323,"current_range_meters":10000,"station_id":"ce4bhoh2rcd13ifvqh6g","pricing_plan_id":"cebpf4jnsgd1na2vs0mg"},{"bike_id":"2268d6eb-394c-4867-b8af-430a178523b0","system_id":"levelo_inurba_marseille","lat":43.22931,"lon":5.35379,"is_reserved":false,"is_disabled":false,"rental_uris":{"android":"levelo://app?vid=2268d6eb-394c-4867-b8af-430a178523b0","ios":"levelo://app?vid=2268d6eb-394c-4867-b8af-430a178523b0"},"vehicle_type_id":"4","last_reported":1748603323,"current_range_meters":10000,"station_id":"cpo3532slgdg3j2ikp40","pricing_plan_id":"cebpf4jnsgd1na2vs0mg"},{"bike_id":"b6c24f22-b505-4c59-8765-af680d331c0e","system_id":"levelo_inurba_marseille","lat":43.2991,"lon":5.37471,"is_reserved":false,"is_disabled":false,"rental_uris":{"android":"levelo://app?vid=b6c24f22-b505-4c59-8765-af680d331c0e","ios":"levelo://app?vid=b6c24f22-b505-4c59-8765-af680d331c0e"},"vehicle_type_id":"4","last_reported":1748603323,"current_range_meters":10800,"station_id":"ce4bgjh2rcd13ifvqbg0","pricing_plan_id":"cebpf4jnsgd1na2vs0mg"},{"bike_id":"c3f2403d-75e9-4c90-817f-4cce15d71da2","system_id":"levelo_inurba_marseille","lat":43.29095,"lon":5.38128,"is_reserved":false,"is_disabled":false,"rental_uris":{"android":"levelo://app?vid=c3f2403d-75e9-4c90-817f-4cce15d71da2","ios":"levelo://app?vid=c3f2403d-75e9-4c90-817f-4cce15d71da2"},"vehicle_type_id":"4","last_reported":1748603323,"current_range_meters":10800,"station_id":"ce4bh512rcd13ifvqe2g","pricing_plan_id":"cebpf4jnsgd1na2vs0mg"},{"bike_id":"e6fd2ca1-d968-4e6d-950a-3de70295f052","system_id":"levelo_inurba_marseille","lat":43.28426,"lon":5.34976,"is_reserved":false,"is_disabled":false,"rental_uris":{"android":"levelo://app?vid=e6fd2ca1-d968-4e6d-950a-3de70295f052","ios":"levelo://app?vid=e6fd2ca1-d968-4e6d-950a-3de70295f052"},"vehicle_type_id":"4","last_reported":1748603323,"current_range_meters":10800,"station_id":"ce4bhbh2rcd13ifvqepg","pricing_plan_id":"cebpf4jnsgd1na2vs0mg"},{"bike_id":"fbf62787-a3c6-4f23-83c5-9f8471a73f2d","system_id":"levelo_inurba_marseille","lat":43.26555,"lon":5.37292,"is_reserved":false,"is_disabled":false,"rental_uris":{"android":"levelo://app?vid=fbf62787-a3c6-4f23-83c5-9f8471a73f2d","ios":"levelo://app?vid=fbf62787-a3c6-4f23-83c5-9f8471a73f2d"},"vehicle_type_id":"4","last_reported":1748603323,"current_range_meters":10800,"station_id":"ce4bhg12rcd13ifvqf70","pricing_plan_id":"cebpf4jnsgd1na2vs0mg"},{"bike_id":"0dbc2682-c32b-462b-a10e-b667c2984483","system_id":"levelo_inurba_marseille","lat":43.25001,"lon":5.38923,"is_reserved":false,"is_disabled":false,"rental_uris":{"android":"levelo://app?vid=0dbc2682-c32b-462b-a10e-b667c2984483","ios":"levelo://app?vid=0dbc2682-c32b-462b-a10e-b667c2984483"},"vehicle_type_id":"4","last_reported":1748603323,"current_range_meters":10800,"station_id":"ce4bhgp2rcd13ifvqfd0","pricing_plan_id":"cebpf4jnsgd1na2vs0mg"},{"bike_id":"5d4725e6-972d-4509-84bc-de3aac2810ca","system_id":"levelo_inurba_marseille","lat":43.25496,"lon":5.37651,"is_reserved":false,"is_disabled":false,"rental_uris":{"android":"levelo://app?vid=5d4725e6-972d-4509-84bc-de3aac2810ca","ios":"levelo://app?vid=5d4725e6-972d-4509-84bc-de3aac2810ca"},"vehicle_type_id":"4","last_reported":1748603323,"current_range_meters":10800,"station_id":"ce4bhh12rcd13ifvqff0","pricing_plan_id":"cebpf4jnsgd1na2vs0mg"},{"bike_id":"79cfff3f-5f0e-42cc-8338-9a15f632d103","system_id":"levelo_inurba_marseille","lat":43.23963,"lon":5.36626,"is_reserved":false,"is_disabled":false,"rental_uris":{"android":"levelo://app?vid=79cfff3f-5f0e-42cc-8338-9a15f632d103","ios":"levelo://app?vid=79cfff3f-5f0e-42cc-8338-9a15f632d103"},"vehicle_type_id":"4","last_reported":1748603323,"current_range_meters":10800,"station_id":"ce4bhi12rcd13ifvqfp0","pricing_plan_id":"cebpf4jnsgd1na2vs0mg"},{"bike_id":"c1aadf42-9d91-47d9-89a1-eeae149ccf1e","system_id":"levelo_inurba_marseille","lat":43.29032,"lon":5.38639,"is_reserved":false,"is_disabled":false,"rental_uris":{"android":"levelo://app?vid=c1aadf42-9d91-47d9-89a1-eeae149ccf1e","ios":"levelo://app?vid=c1aadf42-9d91-47d9-89a1-eeae149ccf1e"},"vehicle_type_id":"4","last_reported":1748603323,"current_range_meters":11200,"station_id":"ce4bh4p2rcd13ifvqe0g","pricing_plan_id":"cebpf4jnsgd1na2vs0mg"},{"bike_id":"c7c3a5a4-b6e4-462b-80c7-827e33b91cd7","system_id":"levelo_inurba_marseille","lat":43.26551,"lon":5.37286,"is_reserved":false,"is_disabled":false,"rental_uris":{"android":"levelo://app?vid=c7c3a5a4-b6e4-462b-80c7-827e33b91cd7","ios":"levelo://app?vid=c7c3a5a4-b6e4-462b-80c7-827e33b91cd7"},"vehicle_type_id":"4","last_reported":1748603323,"current_range_meters":11200,"station_id":"ce4bhg12rcd13ifvqf70","pricing_plan_id":"cebpf4jnsgd1na2vs0mg"},{"bike_id":"ccaff2b1-9145-4eb3-8161-d1ffece3776d","system_id":"levelo_inurba_marseille","lat":43.26782,"lon":5.39402,"is_reserved":false,"is_disabled":false,"rental_uris":{"android":"levelo://app?vid=ccaff2b1-9145-4eb3-8161-d1ffece3776d","ios":"levelo://app?vid=ccaff2b1-9145-4eb3-8161-d1ffece3776d"},"vehicle_type_id":"4","last_reported":1748603323,"current_range_meters":11200,"station_id":"ce4bhh12rcd13ifvqfg0","pricing_plan_id":"cebpf4jnsgd1na2vs0mg"},{"bike_id":"8bc0f6a3-9cd3-4466-b882-302b2c4b49f5","system_id":"levelo_inurba_marseille","lat":43.27812,"lon":5.40721,"is_reserved":false,"is_disabled":false,"rental_uris":{"android":"levelo://app?vid=8bc0f6a3-9cd3-4466-b882-302b2c4b49f5","ios":"levelo://app?vid=8bc0f6a3-9cd3-4466-b882-302b2c4b49f5"},"vehicle_type_id":"4","last_reported":1748603323,"current_range_meters":11200,"station_id":"ce4bhnh2rcd13ifvqgtg","pricing_plan_id":"cebpf4jnsgd1na2vs0mg"},{"bike_id":"095fd833-a156-45fe-a393-7ac2357cb7e4","system_id":"levelo_inurba_marseille","lat":43.231897,"lon":5.35551,"is_reserved":false,"is_disabled":false,"rental_uris":{"android":"levelo://app?vid=095fd833-a156-45fe-a393-7ac2357cb7e4","ios":"levelo://app?vid=095fd833-a156-45fe-a393-7ac2357cb7e4"},"vehicle_type_id":"4","last_reported":1748603323,"current_range_meters":11200,"station_id":"ce4bhu92rcd13ifvqi70","pricing_plan_id":"cebpf4jnsgd1na2vs0mg"},{"bike_id":"9b9b7fd9-83ca-4ded-b18c-9f01bb3e35cf","system_id":"levelo_inurba_marseille","lat":43.30548,"lon":5.36551,"is_reserved":false,"is_disabled":false,"rental_uris":{"android":"levelo://app?vid=9b9b7fd9-83ca-4ded-b18c-9f01bb3e35cf","ios":"levelo://app?vid=9b9b7fd9-83ca-4ded-b18c-9f01bb3e35cf"},"vehicle_type_id":"4","last_reported":1748603323,"current_range_meters":11600,"station_id":"ce4bgs12rcd13ifvqcag","pricing_plan_id":"cebpf4jnsgd1na2vs0mg"},{"bike_id":"2dc23ba3-f2d3-40d5-ad24-46c0e42401b5","system_id":"levelo_inurba_marseille","lat":43.28031,"lon":5.36945,"is_reserved":false,"is_disabled":false,"rental_uris":{"android":"levelo://app?vid=2dc23ba3-f2d3-40d5-ad24-46c0e42401b5","ios":"levelo://app?vid=2dc23ba3-f2d3-40d5-ad24-46c0e42401b5"},"vehicle_type_id":"4","last_reported":1748603323,"current_range_meters":11600,"station_id":"ce4bha12rcd13ifvqef0","pricing_plan_id":"cebpf4jnsgd1na2vs0mg"},{"bike_id":"086c1778-d0aa-4b98-b43f-15b45afd6f12","system_id":"levelo_inurba_marseille","lat":43.248053,"lon":5.374537,"is_reserved":false,"is_disabled":false,"rental_uris":{"android":"levelo://app?vid=086c1778-d0aa-4b98-b43f-15b45afd6f12","ios":"levelo://app?vid=086c1778-d0aa-4b98-b43f-15b45afd6f12"},"vehicle_type_id":"4","last_reported":1748603323,"current_range_meters":11600,"station_id":"ce4bhgh2rcd13ifvqfb0","pricing_plan_id":"cebpf4jnsgd1na2vs0mg"},{"bike_id":"fa25f283-f88e-4dd3-91b4-13e09e25a7b7","system_id":"levelo_inurba_marseille","lat":43.24383,"lon":5.37056,"is_reserved":false,"is_disabled":false,"rental_uris":{"android":"levelo://app?vid=fa25f283-f88e-4dd3-91b4-13e09e25a7b7","ios":"levelo://app?vid=fa25f283-f88e-4dd3-91b4-13e09e25a7b7"},"vehicle_type_id":"4","last_reported":1748603323,"current_range_meters":11600,"station_id":"ce4bhhh2rcd13ifvqfk0","pricing_plan_id":"cebpf4jnsgd1na2vs0mg"},{"bike_id":"94d74484-c00f-4773-98b4-43f5ef9035c3","system_id":"levelo_inurba_marseille","lat":43.26218,"lon":5.40449,"is_reserved":false,"is_disabled":false,"rental_uris":{"android":"levelo://app?vid=94d74484-c00f-4773-98b4-43f5ef9035c3","ios":"levelo://app?vid=94d74484-c00f-4773-98b4-43f5ef9035c3"},"vehicle_type_id":"4","last_reported":1748603323,"current_range_meters":11600,"station_id":"ce4bhmh2rcd13ifvqgmg","pricing_plan_id":"cebpf4jnsgd1na2vs0mg"},{"bike_id":"7d5ccf32-a06c-497f-987c-d0b0b04cb5ae","system_id":"levelo_inurba_marseille","lat":43.32333,"lon":5.40622,"is_reserved":false,"is_disabled":false,"rental_uris":{"android":"levelo://app?vid=7d5ccf32-a06c-497f-987c-d0b0b04cb5ae","ios":"levelo://app?vid=7d5ccf32-a06c-497f-987c-d0b0b04cb5ae"},"vehicle_type_id":"4","last_reported":1748603323,"current_range_meters":11600,"station_id":"ce4bhq92rcd13ifvqhjg","pricing_plan_id":"cebpf4jnsgd1na2vs0mg"},{"bike_id":"3dd1b342-5d0a-4155-9da3-0dd9cd16e16e","system_id":"levelo_inurba_marseille","lat":43.22918,"lon":5.35377,"is_reserved":false,"is_disabled":false,"rental_uris":{"android":"levelo://app?vid=3dd1b342-5d0a-4155-9da3-0dd9cd16e16e","ios":"levelo://app?vid=3dd1b342-5d0a-4155-9da3-0dd9cd16e16e"},"vehicle_type_id":"4","last_reported":1748603323,"current_range_meters":11600,"station_id":"cpo3532slgdg3j2ikp40","pricing_plan_id":"cebpf4jnsgd1na2vs0mg"},{"bike_id":"6d9461e9-afcf-430b-8179-bb7d54f00db5","system_id":"levelo_inurba_marseille","lat":43.31485,"lon":5.37302,"is_reserved":false,"is_disabled":false,"rental_uris":{"android":"levelo://app?vid=6d9461e9-afcf-430b-8179-bb7d54f00db5","ios":"levelo://app?vid=6d9461e9-afcf-430b-8179-bb7d54f00db5"},"vehicle_type_id":"4","last_reported":1748603323,"current_range_meters":12000,"station_id":"ce4bgt12rcd13ifvqcd0","pricing_plan_id":"cebpf4jnsgd1na2vs0mg"},{"bike_id":"f67c0dea-1fe5-4948-9215-8f57b4153744","system_id":"levelo_inurba_marseille","lat":43.28422,"lon":5.34987,"is_reserved":false,"is_disabled":false,"rental_uris":{"android":"levelo://app?vid=f67c0dea-1fe5-4948-9215-8f57b4153744","ios":"levelo://app?vid=f67c0dea-1fe5-4948-9215-8f57b4153744"},"vehicle_type_id":"4","last_reported":1748603323,"current_range_meters":12000,"station_id":"ce4bhbh2rcd13ifvqepg","pricing_plan_id":"cebpf4jnsgd1na2vs0mg"},{"bike_id":"541ad9a3-adb5-4112-ae88-a2ba289d8a87","system_id":"levelo_inurba_marseille","lat":43.24395,"lon":5.37035,"is_reserved":false,"is_disabled":false,"rental_uris":{"android":"levelo://app?vid=541ad9a3-adb5-4112-ae88-a2ba289d8a87","ios":"levelo://app?vid=541ad9a3-adb5-4112-ae88-a2ba289d8a87"},"vehicle_type_id":"4","last_reported":1748603323,"current_range_meters":12000,"station_id":"ce4bhhh2rcd13ifvqfk0","pricing_plan_id":"cebpf4jnsgd1na2vs0mg"},{"bike_id":"abb8e33b-e663-4a8b-88d2-b0e186bde40e","system_id":"levelo_inurba_marseille","lat":43.25937,"lon":5.40899,"is_reserved":false,"is_disabled":false,"rental_uris":{"android":"levelo://app?vid=abb8e33b-e663-4a8b-88d2-b0e186bde40e","ios":"levelo://app?vid=abb8e33b-e663-4a8b-88d2-b0e186bde40e"},"vehicle_type_id":"4","last_reported":1748603323,"current_range_meters":12000,"station_id":"ce4bhm92rcd13ifvqglg","pricing_plan_id":"cebpf4jnsgd1na2vs0mg"},{"bike_id":"7243d7c8-02f5-4392-89cf-8c360e846d55","system_id":"levelo_inurba_marseille","lat":43.25268,"lon":5.37847,"is_reserved":false,"is_disabled":false,"rental_uris":{"android":"levelo://app?vid=7243d7c8-02f5-4392-89cf-8c360e846d55","ios":"levelo://app?vid=7243d7c8-02f5-4392-89cf-8c360e846d55"},"vehicle_type_id":"4","last_reported":1748603323,"current_range_meters":12400,"station_id":"","pricing_plan_id":"cebpf4jnsgd1na2vs0mg"},{"bike_id":"c5955212-23b9-47a9-8fed-0e2d976ea049","system_id":"levelo_inurba_marseille","lat":43.26553,"lon":5.37266,"is_reserved":false,"is_disabled":false,"rental_uris":{"android":"levelo://app?vid=c5955212-23b9-47a9-8fed-0e2d976ea049","ios":"levelo://app?vid=c5955212-23b9-47a9-8fed-0e2d976ea049"},"vehicle_type_id":"4","last_reported":1748603323,"current_range_meters":12400,"station_id":"ce4bhg12rcd13ifvqf70","pricing_plan_id":"cebpf4jnsgd1na2vs0mg"},{"bike_id":"3cfcd708-bb66-4827-988c-59ab1f9ea42d","system_id":"levelo_inurba_marseille","lat":43.26221,"lon":5.40466,"is_reserved":false,"is_disabled":false,"rental_uris":{"android":"levelo://app?vid=3cfcd708-bb66-4827-988c-59ab1f9ea42d","ios":"levelo://app?vid=3cfcd708-bb66-4827-988c-59ab1f9ea42d"},"vehicle_type_id":"4","last_reported":1748603323,"current_range_meters":12400,"station_id":"ce4bhmh2rcd13ifvqgmg","pricing_plan_id":"cebpf4jnsgd1na2vs0mg"},{"bike_id":"8d45e3cf-9d8f-4deb-b179-31cf6289b5c7","system_id":"levelo_inurba_marseille","lat":43.21188,"lon":5.35085,"is_reserved":false,"is_disabled":false,"rental_uris":{"android":"levelo://app?vid=8d45e3cf-9d8f-4deb-b179-31cf6289b5c7","ios":"levelo://app?vid=8d45e3cf-9d8f-4deb-b179-31cf6289b5c7"},"vehicle_type_id":"4","last_reported":1748603323,"current_range_meters":12400,"station_id":"st_cvj6sg6p6f1abm77japg","pricing_plan_id":"cebpf4jnsgd1na2vs0mg"},{"bike_id":"990df701-79a7-41ec-b963-3693dc590a87","system_id":"levelo_inurba_marseille","lat":43.30175,"lon":5.37909,"is_reserved":false,"is_disabled":false,"rental_uris":{"android":"levelo://app?vid=990df701-79a7-41ec-b963-3693dc590a87","ios":"levelo://app?vid=990df701-79a7-41ec-b963-3693dc590a87"},"vehicle_type_id":"4","last_reported":1748603323,"current_range_meters":12800,"station_id":"","pricing_plan_id":"cebpf4jnsgd1na2vs0mg"},{"bike_id":"193d4683-66e8-44bb-99bc-5cdf548172bc","system_id":"levelo_inurba_marseille","lat":43.28616,"lon":5.35104,"is_reserved":false,"is_disabled":false,"rental_uris":{"android":"levelo://app?vid=193d4683-66e8-44bb-99bc-5cdf548172bc","ios":"levelo://app?vid=193d4683-66e8-44bb-99bc-5cdf548172bc"},"vehicle_type_id":"4","last_reported":1748603323,"current_range_meters":12800,"station_id":"ce4bhch2rcd13ifvqeug","pricing_plan_id":"cebpf4jnsgd1na2vs0mg"},{"bike_id":"81929695-c996-4344-b136-61f971835187","system_id":"levelo_inurba_marseille","lat":43.26209,"lon":5.37433,"is_reserved":false,"is_disabled":false,"rental_uris":{"android":"levelo://app?vid=81929695-c996-4344-b136-61f971835187","ios":"levelo://app?vid=81929695-c996-4344-b136-61f971835187"},"vehicle_type_id":"4","last_reported":1748603323,"current_range_meters":12800,"station_id":"ce4bhgp2rcd13ifvqfc0","pricing_plan_id":"cebpf4jnsgd1na2vs0mg"},{"bike_id":"0bdee142-1fda-4a23-9616-8b7744765971","system_id":"levelo_inurba_marseille","lat":43.24673,"lon":5.38161,"is_reserved":false,"is_disabled":false,"rental_uris":{"android":"levelo://app?vid=0bdee142-1fda-4a23-9616-8b7744765971","ios":"levelo://app?vid=0bdee142-1fda-4a23-9616-8b7744765971"},"vehicle_type_id":"4","last_reported":1748603323,"current_range_meters":12800,"station_id":"ce4bhih2rcd13ifvqfr0","pricing_plan_id":"cebpf4jnsgd1na2vs0mg"},{"bike_id":"9b4be9e7-4619-4672-8383-d8d668deef45","system_id":"levelo_inurba_marseille","lat":43.3042,"lon":5.41501,"is_reserved":false,"is_disabled":false,"rental_uris":{"android":"levelo://app?vid=9b4be9e7-4619-4672-8383-d8d668deef45","ios":"levelo://app?vid=9b4be9e7-4619-4672-8383-d8d668deef45"},"vehicle_type_id":"4","last_reported":1748603323,"current_range_meters":12800,"station_id":"ce4bhop2rcd13ifvqh7g","pricing_plan_id":"cebpf4jnsgd1na2vs0mg"},{"bike_id":"185ef902-b976-4dcb-adc5-16bcf1fbe96f","system_id":"levelo_inurba_marseille","lat":43.22929,"lon":5.35373,"is_reserved":false,"is_disabled":false,"rental_uris":{"android":"levelo://app?vid=185ef902-b976-4dcb-adc5-16bcf1fbe96f","ios":"levelo://app?vid=185ef902-b976-4dcb-adc5-16bcf1fbe96f"},"vehicle_type_id":"4","last_reported":1748603323,"current_range_meters":12800,"station_id":"cpo3532slgdg3j2ikp40","pricing_plan_id":"cebpf4jnsgd1na2vs0mg"},{"bike_id":"ae7eb8d2-ad09-41d8-8427-d8378b83b788","system_id":"levelo_inurba_marseille","lat":43.24159,"lon":5.36382,"is_reserved":false,"is_disabled":false,"rental_uris":{"android":"levelo://app?vid=ae7eb8d2-ad09-41d8-8427-d8378b83b788","ios":"levelo://app?vid=ae7eb8d2-ad09-41d8-8427-d8378b83b788"},"vehicle_type_id":"4","last_reported":1748603323,"current_range_meters":12800,"station_id":"cpo36qri1sfpv3e86is0","pricing_plan_id":"cebpf4jnsgd1na2vs0mg"},{"bike_id":"d29809b7-0926-427f-92e5-7672d5cd3813","system_id":"levelo_inurba_marseille","lat":43.28913,"lon":5.36641,"is_reserved":false,"is_disabled":false,"rental_uris":{"android":"levelo://app?vid=d29809b7-0926-427f-92e5-7672d5cd3813","ios":"levelo://app?vid=d29809b7-0926-427f-92e5-7672d5cd3813"},"vehicle_type_id":"4","last_reported":1748603323,"current_range_meters":13600,"station_id":"ce4bhap2rcd13ifvqek0","pricing_plan_id":"cebpf4jnsgd1na2vs0mg"},{"bike_id":"529137a1-0fec-4a4c-bbe8-03949b5f4bac","system_id":"levelo_inurba_marseille","lat":43.28412,"lon":5.34984,"is_reserved":false,"is_disabled":false,"rental_uris":{"android":"levelo://app?vid=529137a1-0fec-4a4c-bbe8-03949b5f4bac","ios":"levelo://app?vid=529137a1-0fec-4a4c-bbe8-03949b5f4bac"},"vehicle_type_id":"4","last_reported":1748603323,"current_range_meters":13600,"station_id":"ce4bhbh2rcd13ifvqepg","pricing_plan_id":"cebpf4jnsgd1na2vs0mg"},{"bike_id":"0062d2f4-9497-4dbd-92dd-80c84fe4cf4e","system_id":"levelo_inurba_marseille","lat":43.24796,"lon":5.37459,"is_reserved":false,"is_disabled":false,"rental_uris":{"android":"levelo://app?vid=0062d2f4-9497-4dbd-92dd-80c84fe4cf4e","ios":"levelo://app?vid=0062d2f4-9497-4dbd-92dd-80c84fe4cf4e"},"vehicle_type_id":"4","last_reported":1748603323,"current_range_meters":13600,"station_id":"ce4bhgh2rcd13ifvqfb0","pricing_plan_id":"cebpf4jnsgd1na2vs0mg"},{"bike_id":"85f488b5-f2d1-453d-9f13-38f4bd13329e","system_id":"levelo_inurba_marseille","lat":43.22933,"lon":5.35374,"is_reserved":false,"is_disabled":false,"rental_uris":{"android":"levelo://app?vid=85f488b5-f2d1-453d-9f13-38f4bd13329e","ios":"levelo://app?vid=85f488b5-f2d1-453d-9f13-38f4bd13329e"},"vehicle_type_id":"4","last_reported":1748603323,"current_range_meters":13600,"station_id":"cpo3532slgdg3j2ikp40","pricing_plan_id":"cebpf4jnsgd1na2vs0mg"},{"bike_id":"79e41718-9eec-43a5-808e-702b678327ca","system_id":"levelo_inurba_marseille","lat":43.316792,"lon":5.375657,"is_reserved":false,"is_disabled":false,"rental_uris":{"android":"levelo://app?vid=79e41718-9eec-43a5-808e-702b678327ca","ios":"levelo://app?vid=79e41718-9eec-43a5-808e-702b678327ca"},"vehicle_type_id":"4","last_reported":1748603323,"current_range_meters":14000,"station_id":"ce4bgth2rcd13ifvqch0","pricing_plan_id":"cebpf4jnsgd1na2vs0mg"},{"bike_id":"a4dcd63c-212a-4d34-8feb-4220e4ed3774","system_id":"levelo_inurba_marseille","lat":43.28419,"lon":5.34991,"is_reserved":false,"is_disabled":false,"rental_uris":{"android":"levelo://app?vid=a4dcd63c-212a-4d34-8feb-4220e4ed3774","ios":"levelo://app?vid=a4dcd63c-212a-4d34-8feb-4220e4ed3774"},"vehicle_type_id":"4","last_reported":1748603323,"current_range_meters":14000,"station_id":"ce4bhbh2rcd13ifvqepg","pricing_plan_id":"cebpf4jnsgd1na2vs0mg"},{"bike_id":"bac667cf-137e-4ea7-b037-7ebd6a2ad77c","system_id":"levelo_inurba_marseille","lat":43.28251,"lon":5.35095,"is_reserved":false,"is_disabled":false,"rental_uris":{"android":"levelo://app?vid=bac667cf-137e-4ea7-b037-7ebd6a2ad77c","ios":"levelo://app?vid=bac667cf-137e-4ea7-b037-7ebd6a2ad77c"},"vehicle_type_id":"4","last_reported":1748603323,"current_range_meters":14000,"station_id":"ce4bhbp2rcd13ifvqerg","pricing_plan_id":"cebpf4jnsgd1na2vs0mg"},{"bike_id":"647cc799-ccff-4c17-8aa9-93ce15622f9b","system_id":"levelo_inurba_marseille","lat":43.26782,"lon":5.39417,"is_reserved":false,"is_disabled":false,"rental_uris":{"android":"levelo://app?vid=647cc799-ccff-4c17-8aa9-93ce15622f9b","ios":"levelo://app?vid=647cc799-ccff-4c17-8aa9-93ce15622f9b"},"vehicle_type_id":"4","last_reported":1748603323,"current_range_meters":14000,"station_id":"ce4bhh12rcd13ifvqfg0","pricing_plan_id":"cebpf4jnsgd1na2vs0mg"},{"bike_id":"854c0867-77a6-4b6e-8a7f-2ec3cfed8fdb","system_id":"levelo_inurba_marseille","lat":43.25939,"lon":5.40895,"is_reserved":false,"is_disabled":false,"rental_uris":{"android":"levelo://app?vid=854c0867-77a6-4b6e-8a7f-2ec3cfed8fdb","ios":"levelo://app?vid=854c0867-77a6-4b6e-8a7f-2ec3cfed8fdb"},"vehicle_type_id":"4","last_reported":1748603323,"current_range_meters":14000,"station_id":"ce4bhm92rcd13ifvqglg","pricing_plan_id":"cebpf4jnsgd1na2vs0mg"},{"bike_id":"b8f73f1c-3287-44ca-a6ba-2379622d48d3","system_id":"levelo_inurba_marseille","lat":43.28427,"lon":5.34996,"is_reserved":false,"is_disabled":false,"rental_uris":{"android":"levelo://app?vid=b8f73f1c-3287-44ca-a6ba-2379622d48d3","ios":"levelo://app?vid=b8f73f1c-3287-44ca-a6ba-2379622d48d3"},"vehicle_type_id":"4","last_reported":1748603323,"current_range_meters":14400,"station_id":"ce4bhbh2rcd13ifvqepg","pricing_plan_id":"cebpf4jnsgd1na2vs0mg"},{"bike_id":"950a66c6-0112-4714-a007-202e42172c1f","system_id":"levelo_inurba_marseille","lat":43.24796,"lon":5.37456,"is_reserved":false,"is_disabled":false,"rental_uris":{"android":"levelo://app?vid=950a66c6-0112-4714-a007-202e42172c1f","ios":"levelo://app?vid=950a66c6-0112-4714-a007-202e42172c1f"},"vehicle_type_id":"4","last_reported":1748603323,"current_range_meters":14400,"station_id":"ce4bhgh2rcd13ifvqfb0","pricing_plan_id":"cebpf4jnsgd1na2vs0mg"},{"bike_id":"9c8f2851-b94a-491b-9cb6-2e6f5d4c91c2","system_id":"levelo_inurba_marseille","lat":43.26212,"lon":5.3744,"is_reserved":false,"is_disabled":false,"rental_uris":{"android":"levelo://app?vid=9c8f2851-b94a-491b-9cb6-2e6f5d4c91c2","ios":"levelo://app?vid=9c8f2851-b94a-491b-9cb6-2e6f5d4c91c2"},"vehicle_type_id":"4","last_reported":1748603323,"current_range_meters":14400,"station_id":"ce4bhgp2rcd13ifvqfc0","pricing_plan_id":"cebpf4jnsgd1na2vs0mg"},{"bike_id":"688c26f5-2b5b-4dfa-a402-d50028d33cf9","system_id":"levelo_inurba_marseille","lat":43.32342,"lon":5.4061,"is_reserved":false,"is_disabled":false,"rental_uris":{"android":"levelo://app?vid=688c26f5-2b5b-4dfa-a402-d50028d33cf9","ios":"levelo://app?vid=688c26f5-2b5b-4dfa-a402-d50028d33cf9"},"vehicle_type_id":"4","last_reported":1748603323,"current_range_meters":14400,"station_id":"ce4bhq92rcd13ifvqhjg","pricing_plan_id":"cebpf4jnsgd1na2vs0mg"},{"bike_id":"c5920169-3583-4c5e-acb5-6aee94a72b98","system_id":"levelo_inurba_marseille","lat":43.21191,"lon":5.35073,"is_reserved":false,"is_disabled":false,"rental_uris":{"android":"levelo://app?vid=c5920169-3583-4c5e-acb5-6aee94a72b98","ios":"levelo://app?vid=c5920169-3583-4c5e-acb5-6aee94a72b98"},"vehicle_type_id":"4","last_reported":1748603323,"current_range_meters":14400,"station_id":"st_cvj6sg6p6f1abm77japg","pricing_plan_id":"cebpf4jnsgd1na2vs0mg"},{"bike_id":"bf9ada33-fac3-4c6c-a22e-d3b48e785518","system_id":"levelo_inurba_marseille","lat":43.28025,"lon":5.40889,"is_reserved":false,"is_disabled":false,"rental_uris":{"android":"levelo://app?vid=bf9ada33-fac3-4c6c-a22e-d3b48e785518","ios":"levelo://app?vid=bf9ada33-fac3-4c6c-a22e-d3b48e785518"},"vehicle_type_id":"4","last_reported":1748603323,"current_range_meters":14800,"station_id":"","pricing_plan_id":"cebpf4jnsgd1na2vs0mg"},{"bike_id":"dd34afa2-f665-4263-85a8-7de7dbd3a196","system_id":"levelo_inurba_marseille","lat":43.27603,"lon":5.39671,"is_reserved":false,"is_disabled":false,"rental_uris":{"android":"levelo://app?vid=dd34afa2-f665-4263-85a8-7de7dbd3a196","ios":"levelo://app?vid=dd34afa2-f665-4263-85a8-7de7dbd3a196"},"vehicle_type_id":"4","last_reported":1748603323,"current_range_meters":14800,"station_id":"","pricing_plan_id":"cebpf4jnsgd1na2vs0mg"},{"bike_id":"88faac48-132b-4211-a653-79ef8f2f9d0e","system_id":"levelo_inurba_marseille","lat":43.30537,"lon":5.38429,"is_reserved":false,"is_disabled":false,"rental_uris":{"android":"levelo://app?vid=88faac48-132b-4211-a653-79ef8f2f9d0e","ios":"levelo://app?vid=88faac48-132b-4211-a653-79ef8f2f9d0e"},"vehicle_type_id":"4","last_reported":1748603323,"current_range_meters":14800,"station_id":"ce4bgg92rcd13ifvqb30","pricing_plan_id":"cebpf4jnsgd1na2vs0mg"},{"bike_id":"972398c2-7bb9-47b7-a562-cb284f984fb9","system_id":"levelo_inurba_marseille","lat":43.29917,"lon":5.37459,"is_reserved":false,"is_disabled":false,"rental_uris":{"android":"levelo://app?vid=972398c2-7bb9-47b7-a562-cb284f984fb9","ios":"levelo://app?vid=972398c2-7bb9-47b7-a562-cb284f984fb9"},"vehicle_type_id":"4","last_reported":1748603323,"current_range_meters":14800,"station_id":"ce4bgjh2rcd13ifvqbg0","pricing_plan_id":"cebpf4jnsgd1na2vs0mg"},{"bike_id":"b18036e4-cdbb-441f-a4f1-99c9cdbece34","system_id":"levelo_inurba_marseille","lat":43.294956,"lon":5.390745,"is_reserved":false,"is_disabled":false,"rental_uris":{"android":"levelo://app?vid=b18036e4-cdbb-441f-a4f1-99c9cdbece34","ios":"levelo://app?vid=b18036e4-cdbb-441f-a4f1-99c9cdbece34"},"vehicle_type_id":"4","last_reported":1748603323,"current_range_meters":14800,"station_id":"ce4bh3p2rcd13ifvqdp0","pricing_plan_id":"cebpf4jnsgd1na2vs0mg"},{"bike_id":"75d93af9-deec-4bd5-9f54-af5d536a9fa2","system_id":"levelo_inurba_marseille","lat":43.29065,"lon":5.37146,"is_reserved":false,"is_disabled":false,"rental_uris":{"android":"levelo://app?vid=75d93af9-deec-4bd5-9f54-af5d536a9fa2","ios":"levelo://app?vid=75d93af9-deec-4bd5-9f54-af5d536a9fa2"},"vehicle_type_id":"4","last_reported":1748603323,"current_range_meters":14800,"station_id":"ce4bh5p2rcd13ifvqe4g","pricing_plan_id":"cebpf4jnsgd1na2vs0mg"},{"bike_id":"caed8174-199f-47b2-a36a-d066cb3c05d1","system_id":"levelo_inurba_marseille","lat":43.26212,"lon":5.37438,"is_reserved":false,"is_disabled":false,"rental_uris":{"android":"levelo://app?vid=caed8174-199f-47b2-a36a-d066cb3c05d1","ios":"levelo://app?vid=caed8174-199f-47b2-a36a-d066cb3c05d1"},"vehicle_type_id":"4","last_reported":1748603323,"current_range_meters":14800,"station_id":"ce4bhgp2rcd13ifvqfc0","pricing_plan_id":"cebpf4jnsgd1na2vs0mg"},{"bike_id":"fed2fd32-b42f-4990-ab4f-84d4548cbd9f","system_id":"levelo_inurba_marseille","lat":43.32063,"lon":5.41519,"is_reserved":false,"is_disabled":false,"rental_uris":{"android":"levelo://app?vid=fed2fd32-b42f-4990-ab4f-84d4548cbd9f","ios":"levelo://app?vid=fed2fd32-b42f-4990-ab4f-84d4548cbd9f"},"vehicle_type_id":"4","last_reported":1748603323,"current_range_meters":14800,"station_id":"ce4bhq92rcd13ifvqhkg","pricing_plan_id":"cebpf4jnsgd1na2vs0mg"},{"bike_id":"7804ca15-a2f6-4484-ae6e-0fd4a08614a3","system_id":"levelo_inurba_marseille","lat":43.23064,"lon":5.35484,"is_reserved":false,"is_disabled":false,"rental_uris":{"android":"levelo://app?vid=7804ca15-a2f6-4484-ae6e-0fd4a08614a3","ios":"levelo://app?vid=7804ca15-a2f6-4484-ae6e-0fd4a08614a3"},"vehicle_type_id":"4","last_reported":1748603323,"current_range_meters":14800,"station_id":"cpo3342slgdg3j2ifvpg","pricing_plan_id":"cebpf4jnsgd1na2vs0mg"},{"bike_id":"67a6560c-83dc-490e-9fc7-f17e3d931afd","system_id":"levelo_inurba_marseille","lat":43.24164,"lon":5.36385,"is_reserved":false,"is_disabled":false,"rental_uris":{"android":"levelo://app?vid=67a6560c-83dc-490e-9fc7-f17e3d931afd","ios":"levelo://app?vid=67a6560c-83dc-490e-9fc7-f17e3d931afd"},"vehicle_type_id":"4","last_reported":1748603323,"current_range_meters":14800,"station_id":"cpo36qri1sfpv3e86is0","pricing_plan_id":"cebpf4jnsgd1na2vs0mg"},{"bike_id":"d6d1ada7-d095-4848-a9c7-71d520f6d868","system_id":"levelo_inurba_marseille","lat":43.299666,"lon":5.384894,"is_reserved":false,"is_disabled":false,"rental_uris":{"android":"levelo://app?vid=d6d1ada7-d095-4848-a9c7-71d520f6d868","ios":"levelo://app?vid=d6d1ada7-d095-4848-a9c7-71d520f6d868"},"vehicle_type_id":"4","last_reported":1748603323,"current_range_meters":15200,"station_id":"","pricing_plan_id":"cebpf4jnsgd1na2vs0mg"},{"bike_id":"4b1aa239-3643-4390-8463-411dcf716661","system_id":"levelo_inurba_marseille","lat":43.29847,"lon":5.36283,"is_reserved":false,"is_disabled":false,"rental_uris":{"android":"levelo://app?vid=4b1aa239-3643-4390-8463-411dcf716661","ios":"levelo://app?vid=4b1aa239-3643-4390-8463-411dcf716661"},"vehicle_type_id":"4","last_reported":1748603323,"current_range_meters":16000,"station_id":"ce4bgpp2rcd13ifvqc3g","pricing_plan_id":"cebpf4jnsgd1na2vs0mg"},{"bike_id":"5b58d0b6-8694-4584-a071-71148029e147","system_id":"levelo_inurba_marseille","lat":43.29875,"lon":5.3974,"is_reserved":false,"is_disabled":false,"rental_uris":{"android":"levelo://app?vid=5b58d0b6-8694-4584-a071-71148029e147","ios":"levelo://app?vid=5b58d0b6-8694-4584-a071-71148029e147"},"vehicle_type_id":"4","last_reported":1748603323,"current_range_meters":16000,"station_id":"ce4bh0h2rcd13ifvqd50","pricing_plan_id":"cebpf4jnsgd1na2vs0mg"},{"bike_id":"1f464513-d18e-46d5-8fa8-c1cc8b35f3b4","system_id":"levelo_inurba_marseille","lat":43.28665,"lon":5.36347,"is_reserved":false,"is_disabled":false,"rental_uris":{"android":"levelo://app?vid=1f464513-d18e-46d5-8fa8-c1cc8b35f3b4","ios":"levelo://app?vid=1f464513-d18e-46d5-8fa8-c1cc8b35f3b4"},"vehicle_type_id":"4","last_reported":1748603323,"current_range_meters":16000,"station_id":"ce4bhah2rcd13ifvqej0","pricing_plan_id":"cebpf4jnsgd1na2vs0mg"},{"bike_id":"30c0360d-3b58-44ff-a262-1c15bc51a067","system_id":"levelo_inurba_marseille","lat":43.26159,"lon":5.37523,"is_reserved":false,"is_disabled":false,"rental_uris":{"android":"levelo://app?vid=30c0360d-3b58-44ff-a262-1c15bc51a067","ios":"levelo://app?vid=30c0360d-3b58-44ff-a262-1c15bc51a067"},"vehicle_type_id":"4","last_reported":1748603323,"current_range_meters":16000,"station_id":"ce4bhgp2rcd13ifvqfc0","pricing_plan_id":"cebpf4jnsgd1na2vs0mg"},{"bike_id":"13a5c014-83e8-4693-965b-efb791d638b7","system_id":"levelo_inurba_marseille","lat":43.23179,"lon":5.39989,"is_reserved":false,"is_disabled":false,"rental_uris":{"android":"levelo://app?vid=13a5c014-83e8-4693-965b-efb791d638b7","ios":"levelo://app?vid=13a5c014-83e8-4693-965b-efb791d638b7"},"vehicle_type_id":"4","last_reported":1748603323,"current_range_meters":16000,"station_id":"ce4bhn12rcd13ifvqgqg","pricing_plan_id":"cebpf4jnsgd1na2vs0mg"},{"bike_id":"565b3e3d-698b-4f09-8892-9a3ab833c044","system_id":"levelo_inurba_marseille","lat":43.27108,"lon":5.36274,"is_reserved":false,"is_disabled":false,"rental_uris":{"android":"levelo://app?vid=565b3e3d-698b-4f09-8892-9a3ab833c044","ios":"levelo://app?vid=565b3e3d-698b-4f09-8892-9a3ab833c044"},"vehicle_type_id":"4","last_reported":1748603323,"current_range_meters":16400,"station_id":"","pricing_plan_id":"cebpf4jnsgd1na2vs0mg"},{"bike_id":"f47d5d15-b929-42e8-aa00-5bc8a2dc15e4","system_id":"levelo_inurba_marseille","lat":43.22491,"lon":5.34797,"is_reserved":false,"is_disabled":false,"rental_uris":{"android":"levelo://app?vid=f47d5d15-b929-42e8-aa00-5bc8a2dc15e4","ios":"levelo://app?vid=f47d5d15-b929-42e8-aa00-5bc8a2dc15e4"},"vehicle_type_id":"4","last_reported":1748603323,"current_range_meters":16400,"station_id":"","pricing_plan_id":"cebpf4jnsgd1na2vs0mg"},{"bike_id":"9c8aeff1-d0d2-49d9-beca-1cc44d75835c","system_id":"levelo_inurba_marseille","lat":43.29045,"lon":5.35907,"is_reserved":false,"is_disabled":false,"rental_uris":{"android":"levelo://app?vid=9c8aeff1-d0d2-49d9-beca-1cc44d75835c","ios":"levelo://app?vid=9c8aeff1-d0d2-49d9-beca-1cc44d75835c"},"vehicle_type_id":"4","last_reported":1748603323,"current_range_meters":16400,"station_id":"ce4bha92rcd13ifvqeg0","pricing_plan_id":"cebpf4jnsgd1na2vs0mg"},{"bike_id":"7dc7f12f-677c-4795-8c9a-b031794ebb57","system_id":"levelo_inurba_marseille","lat":43.28419,"lon":5.34983,"is_reserved":false,"is_disabled":false,"rental_uris":{"android":"levelo://app?vid=7dc7f12f-677c-4795-8c9a-b031794ebb57","ios":"levelo://app?vid=7dc7f12f-677c-4795-8c9a-b031794ebb57"},"vehicle_type_id":"4","last_reported":1748603323,"current_range_meters":16400,"station_id":"ce4bhbh2rcd13ifvqepg","pricing_plan_id":"cebpf4jnsgd1na2vs0mg"},{"bike_id":"a1b28146-67ba-460f-a3b6-23293e9aee3a","system_id":"levelo_inurba_marseille","lat":43.28615,"lon":5.35096,"is_reserved":false,"is_disabled":false,"rental_uris":{"android":"levelo://app?vid=a1b28146-67ba-460f-a3b6-23293e9aee3a","ios":"levelo://app?vid=a1b28146-67ba-460f-a3b6-23293e9aee3a"},"vehicle_type_id":"4","last_reported":1748603323,"current_range_meters":16400,"station_id":"ce4bhch2rcd13ifvqeug","pricing_plan_id":"cebpf4jnsgd1na2vs0mg"},{"bike_id":"38299f7f-d158-4689-88d2-9919ecd08f85","system_id":"levelo_inurba_marseille","lat":43.25497,"lon":5.3765,"is_reserved":false,"is_disabled":false,"rental_uris":{"android":"levelo://app?vid=38299f7f-d158-4689-88d2-9919ecd08f85","ios":"levelo://app?vid=38299f7f-d158-4689-88d2-9919ecd08f85"},"vehicle_type_id":"4","last_reported":1748603323,"current_range_meters":16400,"station_id":"ce4bhh12rcd13ifvqff0","pricing_plan_id":"cebpf4jnsgd1na2vs0mg"},{"bike_id":"7607722b-2d8f-4f32-99d2-775d5c449594","system_id":"levelo_inurba_marseille","lat":43.23963,"lon":5.36628,"is_reserved":false,"is_disabled":false,"rental_uris":{"android":"levelo://app?vid=7607722b-2d8f-4f32-99d2-775d5c449594","ios":"levelo://app?vid=7607722b-2d8f-4f32-99d2-775d5c449594"},"vehicle_type_id":"4","last_reported":1748603323,"current_range_meters":16400,"station_id":"ce4bhi12rcd13ifvqfp0","pricing_plan_id":"cebpf4jnsgd1na2vs0mg"},{"bike_id":"c0aaf419-4566-4e45-a3d9-ba9aee8ff386","system_id":"levelo_inurba_marseille","lat":43.23963,"lon":5.36627,"is_reserved":false,"is_disabled":false,"rental_uris":{"android":"levelo://app?vid=c0aaf419-4566-4e45-a3d9-ba9aee8ff386","ios":"levelo://app?vid=c0aaf419-4566-4e45-a3d9-ba9aee8ff386"},"vehicle_type_id":"4","last_reported":1748603323,"current_range_meters":16400,"station_id":"ce4bhi12rcd13ifvqfp0","pricing_plan_id":"cebpf4jnsgd1na2vs0mg"},{"bike_id":"53149a50-42d6-422b-81ff-d309079f9b29","system_id":"levelo_inurba_marseille","lat":43.25954,"lon":5.409,"is_reserved":false,"is_disabled":false,"rental_uris":{"android":"levelo://app?vid=53149a50-42d6-422b-81ff-d309079f9b29","ios":"levelo://app?vid=53149a50-42d6-422b-81ff-d309079f9b29"},"vehicle_type_id":"4","last_reported":1748603323,"current_range_meters":16400,"station_id":"ce4bhm92rcd13ifvqglg","pricing_plan_id":"cebpf4jnsgd1na2vs0mg"},{"bike_id":"7eca6927-0eee-41fb-838c-8606d041ec62","system_id":"levelo_inurba_marseille","lat":43.262294,"lon":5.404548,"is_reserved":false,"is_disabled":false,"rental_uris":{"android":"levelo://app?vid=7eca6927-0eee-41fb-838c-8606d041ec62","ios":"levelo://app?vid=7eca6927-0eee-41fb-838c-8606d041ec62"},"vehicle_type_id":"4","last_reported":1748603323,"current_range_meters":16400,"station_id":"ce4bhmh2rcd13ifvqgmg","pricing_plan_id":"cebpf4jnsgd1na2vs0mg"},{"bike_id":"71930e17-fe3c-443f-b621-4d725e50390f","system_id":"levelo_inurba_marseille","lat":43.33732,"lon":5.39207,"is_reserved":false,"is_disabled":false,"rental_uris":{"android":"levelo://app?vid=71930e17-fe3c-443f-b621-4d725e50390f","ios":"levelo://app?vid=71930e17-fe3c-443f-b621-4d725e50390f"},"vehicle_type_id":"4","last_reported":1748603323,"current_range_meters":16400,"station_id":"ce4bhr92rcd13ifvqhsg","pricing_plan_id":"cebpf4jnsgd1na2vs0mg"},{"bike_id":"e5f17177-5446-4000-ac93-41ada14f33cb","system_id":"levelo_inurba_marseille","lat":43.32482,"lon":5.36552,"is_reserved":false,"is_disabled":false,"rental_uris":{"android":"levelo://app?vid=e5f17177-5446-4000-ac93-41ada14f33cb","ios":"levelo://app?vid=e5f17177-5446-4000-ac93-41ada14f33cb"},"vehicle_type_id":"4","last_reported":1748603323,"current_range_meters":16400,"station_id":"ce4bhs12rcd13ifvqhvg","pricing_plan_id":"cebpf4jnsgd1na2vs0mg"},{"bike_id":"15da55b1-1376-4e2d-8e65-24dbca6a4a8d","system_id":"levelo_inurba_marseille","lat":43.33764,"lon":5.37428,"is_reserved":false,"is_disabled":false,"rental_uris":{"android":"levelo://app?vid=15da55b1-1376-4e2d-8e65-24dbca6a4a8d","ios":"levelo://app?vid=15da55b1-1376-4e2d-8e65-24dbca6a4a8d"},"vehicle_type_id":"4","last_reported":1748603323,"current_range_meters":16800,"station_id":"","pricing_plan_id":"cebpf4jnsgd1na2vs0mg"},{"bike_id":"92b09b8e-8b7c-4e64-99fc-5e64ae578191","system_id":"levelo_inurba_marseille","lat":43.30164,"lon":5.38085,"is_reserved":false,"is_disabled":false,"rental_uris":{"android":"levelo://app?vid=92b09b8e-8b7c-4e64-99fc-5e64ae578191","ios":"levelo://app?vid=92b09b8e-8b7c-4e64-99fc-5e64ae578191"},"vehicle_type_id":"4","last_reported":1748603323,"current_range_meters":16800,"station_id":"ce4bgjp2rcd13ifvqbh0","pricing_plan_id":"cebpf4jnsgd1na2vs0mg"},{"bike_id":"8fbd6e77-09f0-4a5e-9432-a814be59118d","system_id":"levelo_inurba_marseille","lat":43.28423,"lon":5.34981,"is_reserved":false,"is_disabled":false,"rental_uris":{"android":"levelo://app?vid=8fbd6e77-09f0-4a5e-9432-a814be59118d","ios":"levelo://app?vid=8fbd6e77-09f0-4a5e-9432-a814be59118d"},"vehicle_type_id":"4","last_reported":1748603323,"current_range_meters":16800,"station_id":"ce4bhbh2rcd13ifvqepg","pricing_plan_id":"cebpf4jnsgd1na2vs0mg"},{"bike_id":"d7a91929-e8d0-4e05-a434-6316c1c28bf3","system_id":"levelo_inurba_marseille","lat":43.23178,"lon":5.39968,"is_reserved":false,"is_disabled":false,"rental_uris":{"android":"levelo://app?vid=d7a91929-e8d0-4e05-a434-6316c1c28bf3","ios":"levelo://app?vid=d7a91929-e8d0-4e05-a434-6316c1c28bf3"},"vehicle_type_id":"4","last_reported":1748603323,"current_range_meters":16800,"station_id":"ce4bhn12rcd13ifvqgqg","pricing_plan_id":"cebpf4jnsgd1na2vs0mg"},{"bike_id":"65cbc169-797e-4e8e-8be8-c90cfcafc3ac","system_id":"levelo_inurba_marseille","lat":43.28154,"lon":5.42636,"is_reserved":false,"is_disabled":false,"rental_uris":{"android":"levelo://app?vid=65cbc169-797e-4e8e-8be8-c90cfcafc3ac","ios":"levelo://app?vid=65cbc169-797e-4e8e-8be8-c90cfcafc3ac"},"vehicle_type_id":"4","last_reported":1748603323,"current_range_meters":16800,"station_id":"ce4bhnh2rcd13ifvqgug","pricing_plan_id":"cebpf4jnsgd1na2vs0mg"},{"bike_id":"b08361b1-e7ec-4a5b-8edb-7c4c7ccf8a2b","system_id":"levelo_inurba_marseille","lat":43.321191,"lon":5.367569,"is_reserved":false,"is_disabled":false,"rental_uris":{"android":"levelo://app?vid=b08361b1-e7ec-4a5b-8edb-7c4c7ccf8a2b","ios":"levelo://app?vid=b08361b1-e7ec-4a5b-8edb-7c4c7ccf8a2b"},"vehicle_type_id":"4","last_reported":1748603323,"current_range_meters":16800,"station_id":"ce4bhrh2rcd13ifvqhug","pricing_plan_id":"cebpf4jnsgd1na2vs0mg"},{"bike_id":"b78e2f3d-5c36-4533-a66a-9e6cb2d8f174","system_id":"levelo_inurba_marseille","lat":43.21745,"lon":5.34606,"is_reserved":false,"is_disabled":false,"rental_uris":{"android":"levelo://app?vid=b78e2f3d-5c36-4533-a66a-9e6cb2d8f174","ios":"levelo://app?vid=b78e2f3d-5c36-4533-a66a-9e6cb2d8f174"},"vehicle_type_id":"4","last_reported":1748603323,"current_range_meters":16800,"station_id":"st_cvj6r9ubvosntc0bgbag","pricing_plan_id":"cebpf4jnsgd1na2vs0mg"},{"bike_id":"198d720e-e932-4468-b419-4d100ac498fe","system_id":"levelo_inurba_marseille","lat":43.2119,"lon":5.35061,"is_reserved":false,"is_disabled":false,"rental_uris":{"android":"levelo://app?vid=198d720e-e932-4468-b419-4d100ac498fe","ios":"levelo://app?vid=198d720e-e932-4468-b419-4d100ac498fe"},"vehicle_type_id":"4","last_reported":1748603323,"current_range_meters":16800,"station_id":"st_cvj6sg6p6f1abm77japg","pricing_plan_id":"cebpf4jnsgd1na2vs0mg"},{"bike_id":"4fd6362c-11c9-4e87-8c2b-017c150ef5ab","system_id":"levelo_inurba_marseille","lat":43.31061,"lon":5.401,"is_reserved":false,"is_disabled":false,"rental_uris":{"android":"levelo://app?vid=4fd6362c-11c9-4e87-8c2b-017c150ef5ab","ios":"levelo://app?vid=4fd6362c-11c9-4e87-8c2b-017c150ef5ab"},"vehicle_type_id":"4","last_reported":1748603323,"current_range_meters":17200,"station_id":"","pricing_plan_id":"cebpf4jnsgd1na2vs0mg"},{"bike_id":"810b0761-d40c-45f4-a39c-da290b77b9dc","system_id":"levelo_inurba_marseille","lat":43.31721,"lon":5.40439,"is_reserved":false,"is_disabled":false,"rental_uris":{"android":"levelo://app?vid=810b0761-d40c-45f4-a39c-da290b77b9dc","ios":"levelo://app?vid=810b0761-d40c-45f4-a39c-da290b77b9dc"},"vehicle_type_id":"4","last_reported":1748603323,"current_range_meters":17200,"station_id":"","pricing_plan_id":"cebpf4jnsgd1na2vs0mg"},{"bike_id":"27c8c33c-c13c-4cba-a08e-e2577b7035fd","system_id":"levelo_inurba_marseille","lat":43.29703,"lon":5.37703,"is_reserved":false,"is_disabled":false,"rental_uris":{"android":"levelo://app?vid=27c8c33c-c13c-4cba-a08e-e2577b7035fd","ios":"levelo://app?vid=27c8c33c-c13c-4cba-a08e-e2577b7035fd"},"vehicle_type_id":"4","last_reported":1748603323,"current_range_meters":17200,"station_id":"ce4bgkh2rcd13ifvqbl0","pricing_plan_id":"cebpf4jnsgd1na2vs0mg"},{"bike_id":"c8b1d430-419b-453c-92c6-751f0b328f52","system_id":"levelo_inurba_marseille","lat":43.30544,"lon":5.36548,"is_reserved":false,"is_disabled":false,"rental_uris":{"android":"levelo://app?vid=c8b1d430-419b-453c-92c6-751f0b328f52","ios":"levelo://app?vid=c8b1d430-419b-453c-92c6-751f0b328f52"},"vehicle_type_id":"4","last_reported":1748603323,"current_range_meters":17200,"station_id":"ce4bgs12rcd13ifvqcag","pricing_plan_id":"cebpf4jnsgd1na2vs0mg"},{"bike_id":"51e883c4-67c8-4f6c-98b6-eadad48c12b2","system_id":"levelo_inurba_marseille","lat":43.29876,"lon":5.39744,"is_reserved":false,"is_disabled":false,"rental_uris":{"android":"levelo://app?vid=51e883c4-67c8-4f6c-98b6-eadad48c12b2","ios":"levelo://app?vid=51e883c4-67c8-4f6c-98b6-eadad48c12b2"},"vehicle_type_id":"4","last_reported":1748603323,"current_range_meters":17200,"station_id":"ce4bh0h2rcd13ifvqd50","pricing_plan_id":"cebpf4jnsgd1na2vs0mg"},{"bike_id":"c74dda60-52e0-4a10-ad99-06b7a0822a26","system_id":"levelo_inurba_marseille","lat":43.29264,"lon":5.38432,"is_reserved":false,"is_disabled":false,"rental_uris":{"android":"levelo://app?vid=c74dda60-52e0-4a10-ad99-06b7a0822a26","ios":"levelo://app?vid=c74dda60-52e0-4a10-ad99-06b7a0822a26"},"vehicle_type_id":"4","last_reported":1748603323,"current_range_meters":17200,"station_id":"ce4bh692rcd13ifvqea0","pricing_plan_id":"cebpf4jnsgd1na2vs0mg"},{"bike_id":"daceb956-03d8-4b82-8b6b-ce5bdd1911f2","system_id":"levelo_inurba_marseille","lat":43.28936,"lon":5.3664,"is_reserved":false,"is_disabled":false,"rental_uris":{"android":"levelo://app?vid=daceb956-03d8-4b82-8b6b-ce5bdd1911f2","ios":"levelo://app?vid=daceb956-03d8-4b82-8b6b-ce5bdd1911f2"},"vehicle_type_id":"4","last_reported":1748603323,"current_range_meters":17200,"station_id":"ce4bhap2rcd13ifvqek0","pricing_plan_id":"cebpf4jnsgd1na2vs0mg"},{"bike_id":"f83ed8be-4c36-4d98-a7f8-af6c4fdc2574","system_id":"levelo_inurba_marseille","lat":43.28415,"lon":5.34986,"is_reserved":false,"is_disabled":false,"rental_uris":{"android":"levelo://app?vid=f83ed8be-4c36-4d98-a7f8-af6c4fdc2574","ios":"levelo://app?vid=f83ed8be-4c36-4d98-a7f8-af6c4fdc2574"},"vehicle_type_id":"4","last_reported":1748603323,"current_range_meters":17200,"station_id":"ce4bhbh2rcd13ifvqepg","pricing_plan_id":"cebpf4jnsgd1na2vs0mg"},{"bike_id":"dc0f6444-9125-454d-9c20-35d855729e66","system_id":"levelo_inurba_marseille","lat":43.23184,"lon":5.39968,"is_reserved":false,"is_disabled":false,"rental_uris":{"android":"levelo://app?vid=dc0f6444-9125-454d-9c20-35d855729e66","ios":"levelo://app?vid=dc0f6444-9125-454d-9c20-35d855729e66"},"vehicle_type_id":"4","last_reported":1748603323,"current_range_meters":17200,"station_id":"ce4bhn12rcd13ifvqgqg","pricing_plan_id":"cebpf4jnsgd1na2vs0mg"},{"bike_id":"e4eb1168-f129-4c5b-9089-c09d595d396d","system_id":"levelo_inurba_marseille","lat":43.27809,"lon":5.40721,"is_reserved":false,"is_disabled":false,"rental_uris":{"android":"levelo://app?vid=e4eb1168-f129-4c5b-9089-c09d595d396d","ios":"levelo://app?vid=e4eb1168-f129-4c5b-9089-c09d595d396d"},"vehicle_type_id":"4","last_reported":1748603323,"current_range_meters":17200,"station_id":"ce4bhnh2rcd13ifvqgtg","pricing_plan_id":"cebpf4jnsgd1na2vs0mg"},{"bike_id":"24ea61dc-fcea-4147-9bfb-281ca369e52c","system_id":"levelo_inurba_marseille","lat":43.24167,"lon":5.36397,"is_reserved":false,"is_disabled":false,"rental_uris":{"android":"levelo://app?vid=24ea61dc-fcea-4147-9bfb-281ca369e52c","ios":"levelo://app?vid=24ea61dc-fcea-4147-9bfb-281ca369e52c"},"vehicle_type_id":"4","last_reported":1748603323,"current_range_meters":17200,"station_id":"cpo36qri1sfpv3e86is0","pricing_plan_id":"cebpf4jnsgd1na2vs0mg"},{"bike_id":"fde2e01a-826f-4309-b9f9-cc5ca2c2b38d","system_id":"levelo_inurba_marseille","lat":43.21184,"lon":5.35066,"is_reserved":false,"is_disabled":false,"rental_uris":{"android":"levelo://app?vid=fde2e01a-826f-4309-b9f9-cc5ca2c2b38d","ios":"levelo://app?vid=fde2e01a-826f-4309-b9f9-cc5ca2c2b38d"},"vehicle_type_id":"4","last_reported":1748603323,"current_range_meters":17200,"station_id":"st_cvj6sg6p6f1abm77japg","pricing_plan_id":"cebpf4jnsgd1na2vs0mg"},{"bike_id":"ba46340d-8acd-4423-b0e9-5ffaab3cb97b","system_id":"levelo_inurba_marseille","lat":43.21193,"lon":5.35066,"is_reserved":false,"is_disabled":false,"rental_uris":{"android":"levelo://app?vid=ba46340d-8acd-4423-b0e9-5ffaab3cb97b","ios":"levelo://app?vid=ba46340d-8acd-4423-b0e9-5ffaab3cb97b"},"vehicle_type_id":"4","last_reported":1748603323,"current_range_meters":17200,"station_id":"st_cvj6sg6p6f1abm77japg","pricing_plan_id":"cebpf4jnsgd1na2vs0mg"},{"bike_id":"c3061c37-0a36-4218-91b1-695fec9b6bf8","system_id":"levelo_inurba_marseille","lat":43.27372,"lon":5.36262,"is_reserved":false,"is_disabled":false,"rental_uris":{"android":"levelo://app?vid=c3061c37-0a36-4218-91b1-695fec9b6bf8","ios":"levelo://app?vid=c3061c37-0a36-4218-91b1-695fec9b6bf8"},"vehicle_type_id":"4","last_reported":1748603323,"current_range_meters":17600,"station_id":"ce4bhbh2rcd13ifvqeo0","pricing_plan_id":"cebpf4jnsgd1na2vs0mg"},{"bike_id":"eb8c1713-ca76-4da2-a848-ef5dba1bc9df","system_id":"levelo_inurba_marseille","lat":43.28415,"lon":5.34982,"is_reserved":false,"is_disabled":false,"rental_uris":{"android":"levelo://app?vid=eb8c1713-ca76-4da2-a848-ef5dba1bc9df","ios":"levelo://app?vid=eb8c1713-ca76-4da2-a848-ef5dba1bc9df"},"vehicle_type_id":"4","last_reported":1748603323,"current_range_meters":17600,"station_id":"ce4bhbh2rcd13ifvqepg","pricing_plan_id":"cebpf4jnsgd1na2vs0mg"},{"bike_id":"a479155e-a10a-48ed-b3f4-a2ca6de2bf71","system_id":"levelo_inurba_marseille","lat":43.24805,"lon":5.37454,"is_reserved":false,"is_disabled":false,"rental_uris":{"android":"levelo://app?vid=a479155e-a10a-48ed-b3f4-a2ca6de2bf71","ios":"levelo://app?vid=a479155e-a10a-48ed-b3f4-a2ca6de2bf71"},"vehicle_type_id":"4","last_reported":1748603323,"current_range_meters":17600,"station_id":"ce4bhgh2rcd13ifvqfb0","pricing_plan_id":"cebpf4jnsgd1na2vs0mg"},{"bike_id":"bb56f75d-b7f3-41c8-9a48-29c33ecb8eea","system_id":"levelo_inurba_marseille","lat":43.27951,"lon":5.41043,"is_reserved":false,"is_disabled":false,"rental_uris":{"android":"levelo://app?vid=bb56f75d-b7f3-41c8-9a48-29c33ecb8eea","ios":"levelo://app?vid=bb56f75d-b7f3-41c8-9a48-29c33ecb8eea"},"vehicle_type_id":"4","last_reported":1748603323,"current_range_meters":17600,"station_id":"ce4bhnp2rcd13ifvqh0g","pricing_plan_id":"cebpf4jnsgd1na2vs0mg"},{"bike_id":"b103185f-e122-4fea-be80-bc4d42b3824c","system_id":"levelo_inurba_marseille","lat":43.229264,"lon":5.353777,"is_reserved":false,"is_disabled":false,"rental_uris":{"android":"levelo://app?vid=b103185f-e122-4fea-be80-bc4d42b3824c","ios":"levelo://app?vid=b103185f-e122-4fea-be80-bc4d42b3824c"},"vehicle_type_id":"4","last_reported":1748603323,"current_range_meters":17600,"station_id":"cpo3532slgdg3j2ikp40","pricing_plan_id":"cebpf4jnsgd1na2vs0mg"},{"bike_id":"18fd860b-9b0e-4bbe-af52-5dfa7818b467","system_id":"levelo_inurba_marseille","lat":43.21191,"lon":5.35068,"is_reserved":false,"is_disabled":false,"rental_uris":{"android":"levelo://app?vid=18fd860b-9b0e-4bbe-af52-5dfa7818b467","ios":"levelo://app?vid=18fd860b-9b0e-4bbe-af52-5dfa7818b467"},"vehicle_type_id":"4","last_reported":1748603323,"current_range_meters":17600,"station_id":"st_cvj6sg6p6f1abm77japg","pricing_plan_id":"cebpf4jnsgd1na2vs0mg"},{"bike_id":"9dba3947-4a34-482c-b805-ddc0f699cb96","system_id":"levelo_inurba_marseille","lat":43.32978,"lon":5.38359,"is_reserved":false,"is_disabled":false,"rental_uris":{"android":"levelo://app?vid=9dba3947-4a34-482c-b805-ddc0f699cb96","ios":"levelo://app?vid=9dba3947-4a34-482c-b805-ddc0f699cb96"},"vehicle_type_id":"4","last_reported":1748603323,"current_range_meters":18000,"station_id":"","pricing_plan_id":"cebpf4jnsgd1na2vs0mg"},{"bike_id":"c639c8b7-5b85-4086-9ccd-0594027cb63e","system_id":"levelo_inurba_marseille","lat":43.29959,"lon":5.37189,"is_reserved":false,"is_disabled":false,"rental_uris":{"android":"levelo://app?vid=c639c8b7-5b85-4086-9ccd-0594027cb63e","ios":"levelo://app?vid=c639c8b7-5b85-4086-9ccd-0594027cb63e"},"vehicle_type_id":"4","last_reported":1748603323,"current_range_meters":18000,"station_id":"ce4bgr92rcd13ifvqc7g","pricing_plan_id":"cebpf4jnsgd1na2vs0mg"},{"bike_id":"c7f7e294-573c-46b0-a5e2-e8d0ead9c51b","system_id":"levelo_inurba_marseille","lat":43.30522,"lon":5.36528,"is_reserved":false,"is_disabled":false,"rental_uris":{"android":"levelo://app?vid=c7f7e294-573c-46b0-a5e2-e8d0ead9c51b","ios":"levelo://app?vid=c7f7e294-573c-46b0-a5e2-e8d0ead9c51b"},"vehicle_type_id":"4","last_reported":1748603323,"current_range_meters":18000,"station_id":"ce4bgs12rcd13ifvqcag","pricing_plan_id":"cebpf4jnsgd1na2vs0mg"},{"bike_id":"c80f14f4-c560-4773-ab76-95c237fba1e2","system_id":"levelo_inurba_marseille","lat":43.28415,"lon":5.34968,"is_reserved":false,"is_disabled":false,"rental_uris":{"android":"levelo://app?vid=c80f14f4-c560-4773-ab76-95c237fba1e2","ios":"levelo://app?vid=c80f14f4-c560-4773-ab76-95c237fba1e2"},"vehicle_type_id":"4","last_reported":1748603323,"current_range_meters":18000,"station_id":"ce4bhbh2rcd13ifvqepg","pricing_plan_id":"cebpf4jnsgd1na2vs0mg"},{"bike_id":"7094b63c-2a37-44c8-9e4f-305d4b484e51","system_id":"levelo_inurba_marseille","lat":43.28432,"lon":5.34982,"is_reserved":false,"is_disabled":false,"rental_uris":{"android":"levelo://app?vid=7094b63c-2a37-44c8-9e4f-305d4b484e51","ios":"levelo://app?vid=7094b63c-2a37-44c8-9e4f-305d4b484e51"},"vehicle_type_id":"4","last_reported":1748603323,"current_range_meters":18000,"station_id":"ce4bhbh2rcd13ifvqepg","pricing_plan_id":"cebpf4jnsgd1na2vs0mg"},{"bike_id":"721d5db5-c382-4b37-b658-38ff30f8bca9","system_id":"levelo_inurba_marseille","lat":43.26554,"lon":5.37287,"is_reserved":false,"is_disabled":false,"rental_uris":{"android":"levelo://app?vid=721d5db5-c382-4b37-b658-38ff30f8bca9","ios":"levelo://app?vid=721d5db5-c382-4b37-b658-38ff30f8bca9"},"vehicle_type_id":"4","last_reported":1748603323,"current_range_meters":18000,"station_id":"ce4bhg12rcd13ifvqf70","pricing_plan_id":"cebpf4jnsgd1na2vs0mg"},{"bike_id":"b1ada9f3-2b99-46b8-b864-435d179713b9","system_id":"levelo_inurba_marseille","lat":43.23962,"lon":5.36632,"is_reserved":false,"is_disabled":false,"rental_uris":{"android":"levelo://app?vid=b1ada9f3-2b99-46b8-b864-435d179713b9","ios":"levelo://app?vid=b1ada9f3-2b99-46b8-b864-435d179713b9"},"vehicle_type_id":"4","last_reported":1748603323,"current_range_meters":18000,"station_id":"ce4bhi12rcd13ifvqfp0","pricing_plan_id":"cebpf4jnsgd1na2vs0mg"},{"bike_id":"b5dd01c5-9484-4d0f-a9ba-152d8141c385","system_id":"levelo_inurba_marseille","lat":43.2395,"lon":5.36635,"is_reserved":false,"is_disabled":false,"rental_uris":{"android":"levelo://app?vid=b5dd01c5-9484-4d0f-a9ba-152d8141c385","ios":"levelo://app?vid=b5dd01c5-9484-4d0f-a9ba-152d8141c385"},"vehicle_type_id":"4","last_reported":1748603323,"current_range_meters":18000,"station_id":"ce4bhi12rcd13ifvqfp0","pricing_plan_id":"cebpf4jnsgd1na2vs0mg"},