{"last_updated":1691856420,"ttl":30,"version":"2.2","data":{"bikes":[{"bike_id":"f5b36f05-bc83-4749-b16d-7539dc41e3ee","system_id":"levelo_inurba_marseille","lat":43.31246,"lon":5.36864,"is_reserved":false,"is_disabled":false,"rental_uris":{"android":"levelo://app?vid=f5b36f05-bc83-4749-b16d-7539dc41e3ee","ios":"levelo://app?vid=f5b36f05-bc83-4749-b16d-7539dc41e3ee"},"vehicle_type_id":"4","last_reported":1691856421,"current_range_meters":30000,"station_id":"ce4bgl92rcd13ifvqbq0","pricing_plan_id":"free"},{"bike_id":"ccad692b-b8e7-4115-8be4-ecc33aba1e39","system_id":"levelo_inurba_marseille","lat":43.312239,"lon":5.368562,"is_reserved":false,"is_disabled":false,"rental_uris":{"android":"levelo://app?vid=ccad692b-b8e7-4115-8be4-ecc33aba1e39","ios":"levelo://app?vid=ccad692b-b8e7-4115-8be4-ecc33aba1e39"},"vehicle_type_id":"4","last_reported":1691856421,"current_range_meters":26000,"station_id":"ce4bgl92rcd13ifvqbq0","pricing_plan_id":"free"},{"bike_id":"a574c04d-7e75-4d20-b2c9-b01c40c61341","system_id":"levelo_inurba_marseille","lat":43.30535,"lon":5.36714,"is_reserved":false,"is_disabled":false,"rental_uris":{"android":"levelo://app?vid=a574c04d-7e75-4d20-b2c9-b01c40c61341","ios":"levelo://app?vid=a574c04d-7e75-4d20-b2c9-b01c40c61341"},"vehicle_type_id":"4","last_reported":1691856421,"current_range_meters":21200,"station_id":"ce4bgrp2rcd13ifvqc9g","pricing_plan_id":"free"},{"bike_id":"7af84fe4-cbd1-48cf-8c24-6c1a1d4c6597","system_id":"levelo_inurba_marseille","lat":43.3032,"lon":5.36614,"is_reserved":false,"is_disabled":false,"rental_uris":{"android":"levelo://app?vid=7af84fe4-cbd1-48cf-8c24-6c1a1d4c6597","ios":"levelo://app?vid=7af84fe4-cbd1-48cf-8c24-6c1a1d4c6597"},"vehicle_type_id":"4","last_reported":1691856421,"current_range_meters":400,"station_id":"","pricing_plan_id":"free"},{"bike_id":"f4ed6d3b-d5e7-4965-a2fd-7f684f5c4acb","system_id":"levelo_inurba_marseille","lat":43.303046,"lon":5.368981,"is_reserved":false,"is_disabled":false,"rental_uris":{"android":"levelo://app?vid=f4ed6d3b-d5e7-4965-a2fd-7f684f5c4acb","ios":"levelo://app?vid=f4ed6d3b-d5e7-4965-a2fd-7f684f5c4acb"},"vehicle_type_id":"4","last_reported":1691856421,"current_range_meters":1200,"station_id":"ce4bgqh2rcd13ifvqc5g","pricing_plan_id":"free"},{"bike_id":"6a0232fa-80b1-4833-b4f3-d079d6504d6f","system_id":"levelo_inurba_marseille","lat":43.315293,"lon":5.380349,"is_reserved":false,"is_disabled":false,"rental_uris":{"android":"levelo://app?vid=6a0232fa-80b1-4833-b4f3-d079d6504d6f","ios":"levelo://app?vid=6a0232fa-80b1-4833-b4f3-d079d6504d6f"},"vehicle_type_id":"4","last_reported":1691856421,"current_range_meters":31200,"station_id":"ce4bhsp2rcd13ifvqi50","pricing_plan_id":"free"},{"bike_id":"6b1e6f4a-d1fe-453f-ae3c-8b27f1a75abb","system_id":"levelo_inurba_marseille","lat":43.30804,"lon":5.3816,"is_reserved":false,"is_disabled":false,"rental_uris":{"android":"levelo://app?vid=6b1e6f4a-d1fe-453f-ae3c-8b27f1a75abb","ios":"levelo://app?vid=6b1e6f4a-d1fe-453f-ae3c-8b27f1a75abb"},"vehicle_type_id":"4","last_reported":1691856421,"current_range_meters":21600,"station_id":"ce4bgt12rcd13ifvqce0","pricing_plan_id":"free"},{"bike_id":"4321304c-330b-40f5-9f28-a9f6af8f84d3","system_id":"levelo_inurba_marseille","lat":43.304606,"lon":5.379026,"is_reserved":false,"is_disabled":false,"rental_uris":{"android":"levelo://app?vid=4321304c-330b-40f5-9f28-a9f6af8f84d3","ios":"levelo://app?vid=4321304c-330b-40f5-9f28-a9f6af8f84d3"},"vehicle_type_id":"4","last_reported":1691856421,"current_range_meters":28000,"station_id":"ce4bgup2rcd13ifvqcn0","pricing_plan_id":"free"},{"bike_id":"45622500-e6c5-4ddb-828c-2440c83c9ef0","system_id":"levelo_inurba_marseille","lat":43.29988,"lon":5.37188,"is_reserved":false,"is_disabled":false,"rental_uris":{"android":"levelo://app?vid=45622500-e6c5-4ddb-828c-2440c83c9ef0","ios":"levelo://app?vid=45622500-e6c5-4ddb-828c-2440c83c9ef0"},"vehicle_type_id":"4","last_reported":1691856421,"current_range_meters":31200,"station_id":"ce4bgr92rcd13ifvqc7g","pricing_plan_id":"free"},{"bike_id":"c4dad6dd-ffd9-43b9-b592-a11b4a0a0e92","system_id":"levelo_inurba_marseille","lat":43.299222,"lon":5.365554,"is_reserved":false,"is_disabled":false,"rental_uris":{"android":"levelo://app?vid=c4dad6dd-ffd9-43b9-b592-a11b4a0a0e92","ios":"levelo://app?vid=c4dad6dd-ffd9-43b9-b592-a11b4a0a0e92"},"vehicle_type_id":"4","last_reported":1691856421,"current_range_meters":14400,"station_id":"ce4bgm92rcd13ifvqbr0","pricing_plan_id":"free"},{"bike_id":"b1ea3f89-aa83-437e-be96-c29a4c442b20","system_id":"levelo_inurba_marseille","lat":43.3106,"lon":5.3863,"is_reserved":false,"is_disabled":false,"rental_uris":{"android":"levelo://app?vid=b1ea3f89-aa83-437e-be96-c29a4c442b20","ios":"levelo://app?vid=b1ea3f89-aa83-437e-be96-c29a4c442b20"},"vehicle_type_id":"4","last_reported":1691856421,"current_range_meters":4400,"station_id":"","pricing_plan_id":"free"},{"bike_id":"a670c901-dc82-4db8-a923-75b3c6712a9f","system_id":"levelo_inurba_marseille","lat":43.29848,"lon":5.36285,"is_reserved":false,"is_disabled":false,"rental_uris":{"android":"levelo://app?vid=a670c901-dc82-4db8-a923-75b3c6712a9f","ios":"levelo://app?vid=a670c901-dc82-4db8-a923-75b3c6712a9f"},"vehicle_type_id":"4","last_reported":1691856421,"current_range_meters":30000,"station_id":"","pricing_plan_id":"free"},{"bike_id":"c8c323f3-ffc5-4200-baec-e402da0e2de2","system_id":"levelo_inurba_marseille","lat":43.30539,"lon":5.38432,"is_reserved":false,"is_disabled":false,"rental_uris":{"android":"levelo://app?vid=c8c323f3-ffc5-4200-baec-e402da0e2de2","ios":"levelo://app?vid=c8c323f3-ffc5-4200-baec-e402da0e2de2"},"vehicle_type_id":"4","last_reported":1691856421,"current_range_meters":9200,"station_id":"ce4bgg92rcd13ifvqb30","pricing_plan_id":"free"},{"bike_id":"33072599-c0e5-40c4-924a-db88d80a0ad2","system_id":"levelo_inurba_marseille","lat":43.299243,"lon":5.374807,"is_reserved":false,"is_disabled":false,"rental_uris":{"android":"levelo://app?vid=33072599-c0e5-40c4-924a-db88d80a0ad2","ios":"levelo://app?vid=33072599-c0e5-40c4-924a-db88d80a0ad2"},"vehicle_type_id":"4","last_reported":1691856421,"current_range_meters":29600,"station_id":"ce4bgjh2rcd13ifvqbg0","pricing_plan_id":"free"},{"bike_id":"e1c4f311-5633-4c95-8b90-38c29763940e","system_id":"levelo_inurba_marseille","lat":43.299144,"lon":5.37475,"is_reserved":false,"is_disabled":false,"rental_uris":{"android":"levelo://app?vid=e1c4f311-5633-4c95-8b90-38c29763940e","ios":"levelo://app?vid=e1c4f311-5633-4c95-8b90-38c29763940e"},"vehicle_type_id":"4","last_reported":1691856421,"current_range_meters":31200,"station_id":"ce4bgjh2rcd13ifvqbg0","pricing_plan_id":"free"},{"bike_id":"eae77947-8a1c-4b13-838b-402632e61622","system_id":"levelo_inurba_marseille","lat":43.29907,"lon":5.37464,"is_reserved":false,"is_disabled":false,"rental_uris":{"android":"levelo://app?vid=eae77947-8a1c-4b13-838b-402632e61622","ios":"levelo://app?vid=eae77947-8a1c-4b13-838b-402632e61622"},"vehicle_type_id":"4","last_reported":1691856421,"current_range_meters":31200,"station_id":"ce4bgjh2rcd13ifvqbg0","pricing_plan_id":"free"},{"bike_id":"3596caef-bcea-4474-89f5-ac04f1f528ef","system_id":"levelo_inurba_marseille","lat":43.311722,"lon":5.387247,"is_reserved":false,"is_disabled":false,"rental_uris":{"android":"levelo://app?vid=3596caef-bcea-4474-89f5-ac04f1f528ef","ios":"levelo://app?vid=3596caef-bcea-4474-89f5-ac04f1f528ef"},"vehicle_type_id":"4","last_reported":1691856421,"current_range_meters":24400,"station_id":"ce4bgv12rcd13ifvqcp0","pricing_plan_id":"free"},{"bike_id":"026ee3db-f828-4ad6-9e78-43e60a812318","system_id":"levelo_inurba_marseille","lat":43.32285,"lon":5.38262,"is_reserved":false,"is_disabled":false,"rental_uris":{"android":"levelo://app?vid=026ee3db-f828-4ad6-9e78-43e60a812318","ios":"levelo://app?vid=026ee3db-f828-4ad6-9e78-43e60a812318"},"vehicle_type_id":"4","last_reported":1691856421,"current_range_meters":20000,"station_id":"ce4bhr12rcd13ifvqhqg","pricing_plan_id":"free"},{"bike_id":"2e341b8a-19ca-467a-9062-4e524deac17d","system_id":"levelo_inurba_marseille","lat":43.32283,"lon":5.38266,"is_reserved":false,"is_disabled":false,"rental_uris":{"android":"levelo://app?vid=2e341b8a-19ca-467a-9062-4e524deac17d","ios":"levelo://app?vid=2e341b8a-19ca-467a-9062-4e524deac17d"},"vehicle_type_id":"4","last_reported":1691856421,"current_range_meters":27600,"station_id":"ce4bhr12rcd13ifvqhqg","pricing_plan_id":"free"},{"bike_id":"3d75ec31-9bc5-447c-81ba-d21539df621f","system_id":"levelo_inurba_marseille","lat":43.32286,"lon":5.38265,"is_reserved":false,"is_disabled":false,"rental_uris":{"android":"levelo://app?vid=3d75ec31-9bc5-447c-81ba-d21539df621f","ios":"levelo://app?vid=3d75ec31-9bc5-447c-81ba-d21539df621f"},"vehicle_type_id":"4","last_reported":1691856421,"current_range_meters":10000,"station_id":"ce4bhr12rcd13ifvqhqg","pricing_plan_id":"free"},{"bike_id":"34544adb-53d3-44b1-86f1-bb8bc7dbf546","system_id":"levelo_inurba_marseille","lat":43.32289,"lon":5.38262,"is_reserved":false,"is_disabled":false,"rental_uris":{"android":"levelo://app?vid=34544adb-53d3-44b1-86f1-bb8bc7dbf546","ios":"levelo://app?vid=34544adb-53d3-44b1-86f1-bb8bc7dbf546"},"vehicle_type_id":"4","last_reported":1691856421,"current_range_meters":24400,"station_id":"ce4bhr12rcd13ifvqhqg","pricing_plan_id":"free"},{"bike_id":"2a877c10-47b3-4336-884b-4186f2d4f096","system_id":"levelo_inurba_marseille","lat":43.32293,"lon":5.38264,"is_reserved":false,"is_disabled":false,"rental_uris":{"android":"levelo://app?vid=2a877c10-47b3-4336-884b-4186f2d4f096","ios":"levelo://app?vid=2a877c10-47b3-4336-884b-4186f2d4f096"},"vehicle_type_id":"4","last_reported":1691856421,"current_range_meters":14400,"station_id":"ce4bhr12rcd13ifvqhqg","pricing_plan_id":"free"},{"bike_id":"daf1c66e-67e4-446b-ab69-51ad2a5f2181","system_id":"levelo_inurba_marseille","lat":43.322872,"lon":5.382756,"is_reserved":false,"is_disabled":false,"rental_uris":{"android":"levelo://app?vid=daf1c66e-67e4-446b-ab69-51ad2a5f2181","ios":"levelo://app?vid=daf1c66e-67e4-446b-ab69-51ad2a5f2181"},"vehicle_type_id":"4","last_reported":1691856421,"current_range_meters":26000,"station_id":"ce4bhr12rcd13ifvqhqg","pricing_plan_id":"free"},{"bike_id":"63b63e6c-c5a9-49f5-8d21-3106e36d3542","system_id":"levelo_inurba_marseille","lat":43.32288,"lon":5.38272,"is_reserved":false,"is_disabled":false,"rental_uris":{"android":"levelo://app?vid=63b63e6c-c5a9-49f5-8d21-3106e36d3542","ios":"levelo://app?vid=63b63e6c-c5a9-49f5-8d21-3106e36d3542"},"vehicle_type_id":"4","last_reported":1691856421,"current_range_meters":24800,"station_id":"ce4bhr12rcd13ifvqhqg","pricing_plan_id":"free"},{"bike_id":"4c0051b2-93b8-4cc5-a80a-2595421ac1f5","system_id":"levelo_inurba_marseille","lat":43.32284,"lon":5.38277,"is_reserved":false,"is_disabled":false,"rental_uris":{"android":"levelo://app?vid=4c0051b2-93b8-4cc5-a80a-2595421ac1f5","ios":"levelo://app?vid=4c0051b2-93b8-4cc5-a80a-2595421ac1f5"},"vehicle_type_id":"4","last_reported":1691856421,"current_range_meters":25200,"station_id":"ce4bhr12rcd13ifvqhqg","pricing_plan_id":"free"},{"bike_id":"ccde4fab-a619-4b85-80d1-631ae22c1186","system_id":"levelo_inurba_marseille","lat":43.32284,"lon":5.38279,"is_reserved":false,"is_disabled":false,"rental_uris":{"android":"levelo://app?vid=ccde4fab-a619-4b85-80d1-631ae22c1186","ios":"levelo://app?vid=ccde4fab-a619-4b85-80d1-631ae22c1186"},"vehicle_type_id":"4","last_reported":1691856421,"current_range_meters":18800,"station_id":"ce4bhr12rcd13ifvqhqg","pricing_plan_id":"free"},{"bike_id":"1b203c54-0be7-49b8-a54f-17ca79a8f7f4","system_id":"levelo_inurba_marseille","lat":43.32291,"lon":5.38273,"is_reserved":false,"is_disabled":false,"rental_uris":{"android":"levelo://app?vid=1b203c54-0be7-49b8-a54f-17ca79a8f7f4","ios":"levelo://app?vid=1b203c54-0be7-49b8-a54f-17ca79a8f7f4"},"vehicle_type_id":"4","last_reported":1691856421,"current_range_meters":20800,"station_id":"ce4bhr12rcd13ifvqhqg","pricing_plan_id":"free"},{"bike_id":"cbdb1e2e-23aa-4305-8e8f-f1f9efca0a4f","system_id":"levelo_inurba_marseille","lat":43.32286,"lon":5.3828,"is_reserved":false,"is_disabled":false,"rental_uris":{"android":"levelo://app?vid=cbdb1e2e-23aa-4305-8e8f-f1f9efca0a4f","ios":"levelo://app?vid=cbdb1e2e-23aa-4305-8e8f-f1f9efca0a4f"},"vehicle_type_id":"4","last_reported":1691856421,"current_range_meters":22400,"station_id":"ce4bhr12rcd13ifvqhqg","pricing_plan_id":"free"},{"bike_id":"5cef4262-f054-4974-9121-fc3d341ebbb0","system_id":"levelo_inurba_marseille","lat":43.32288,"lon":5.3828,"is_reserved":false,"is_disabled":false,"rental_uris":{"android":"levelo://app?vid=5cef4262-f054-4974-9121-fc3d341ebbb0","ios":"levelo://app?vid=5cef4262-f054-4974-9121-fc3d341ebbb0"},"vehicle_type_id":"4","last_reported":1691856421,"current_range_meters":12800,"station_id":"ce4bhr12rcd13ifvqhqg","pricing_plan_id":"free"},{"bike_id":"454e4186-321d-4414-91ad-51d1deee69be","system_id":"levelo_inurba_marseille","lat":43.3229,"lon":5.38284,"is_reserved":false,"is_disabled":false,"rental_uris":{"android":"levelo://app?vid=454e4186-321d-4414-91ad-51d1deee69be","ios":"levelo://app?vid=454e4186-321d-4414-91ad-51d1deee69be"},"vehicle_type_id":"4","last_reported":1691856421,"current_range_meters":29200,"station_id":"ce4bhr12rcd13ifvqhqg","pricing_plan_id":"free"},{"bike_id":"dd789220-e7b5-42c1-b9dc-dc4243148021","system_id":"levelo_inurba_marseille","lat":43.29716,"lon":5.36613,"is_reserved":false,"is_disabled":false,"rental_uris":{"android":"levelo://app?vid=dd789220-e7b5-42c1-b9dc-dc4243148021","ios":"levelo://app?vid=dd789220-e7b5-42c1-b9dc-dc4243148021"},"vehicle_type_id":"4","last_reported":1691856421,"current_range_meters":31600,"station_id":"ce4bgn12rcd13ifvqbt0","pricing_plan_id":"free"},{"bike_id":"b428ddc8-83c6-453c-b5dd-cb14751b674f","system_id":"levelo_inurba_marseille","lat":43.29685,"lon":5.36954,"is_reserved":false,"is_disabled":false,"rental_uris":{"android":"levelo://app?vid=b428ddc8-83c6-453c-b5dd-cb14751b674f","ios":"levelo://app?vid=b428ddc8-83c6-453c-b5dd-cb14751b674f"},"vehicle_type_id":"4","last_reported":1691856421,"current_range_meters":400,"station_id":"","pricing_plan_id":"free"},{"bike_id":"4546f8c1-0a9e-45be-b4bd-18c11f686c5c","system_id":"levelo_inurba_marseille","lat":43.29668,"lon":5.36555,"is_reserved":false,"is_disabled":false,"rental_uris":{"android":"levelo://app?vid=4546f8c1-0a9e-45be-b4bd-18c11f686c5c","ios":"levelo://app?vid=4546f8c1-0a9e-45be-b4bd-18c11f686c5c"},"vehicle_type_id":"4","last_reported":1691856421,"current_range_meters":2800,"station_id":"","pricing_plan_id":"free"},{"bike_id":"81ac9ae7-0b4e-4510-85e1-ff3d8da5230c","system_id":"levelo_inurba_marseille","lat":43.2968,"lon":5.37291,"is_reserved":false,"is_disabled":false,"rental_uris":{"android":"levelo://app?vid=81ac9ae7-0b4e-4510-85e1-ff3d8da5230c","ios":"levelo://app?vid=81ac9ae7-0b4e-4510-85e1-ff3d8da5230c"},"vehicle_type_id":"4","last_reported":1691856421,"current_range_meters":11600,"station_id":"ce4bgk12rcd13ifvqbj0","pricing_plan_id":"free"},{"bike_id":"c27df5bd-34e6-4715-a260-10aa91b4beac","system_id":"levelo_inurba_marseille","lat":43.2962,"lon":5.37149,"is_reserved":false,"is_disabled":false,"rental_uris":{"android":"levelo://app?vid=c27df5bd-34e6-4715-a260-10aa91b4beac","ios":"levelo://app?vid=c27df5bd-34e6-4715-a260-10aa91b4beac"},"vehicle_type_id":"4","last_reported":1691856421,"current_range_meters":16400,"station_id":"","pricing_plan_id":"free"},{"bike_id":"80a25050-a354-4713-8475-85e1694225b7","system_id":"levelo_inurba_marseille","lat":43.309589,"lon":5.390258,"is_reserved":false,"is_disabled":false,"rental_uris":{"android":"levelo://app?vid=80a25050-a354-4713-8475-85e1694225b7","ios":"levelo://app?vid=80a25050-a354-4713-8475-85e1694225b7"},"vehicle_type_id":"4","last_reported":1691856421,"current_range_meters":16400,"station_id":"ce4bgup2rcd13ifvqco0","pricing_plan_id":"free"},{"bike_id":"425a6036-bca3-473a-8acf-e4d0ff467132","system_id":"levelo_inurba_marseille","lat":43.309589,"lon":5.390258,"is_reserved":false,"is_disabled":false,"rental_uris":{"android":"levelo://app?vid=425a6036-bca3-473a-8acf-e4d0ff467132","ios":"levelo://app?vid=425a6036-bca3-473a-8acf-e4d0ff467132"},"vehicle_type_id":"4","last_reported":1691856421,"current_range_meters":26000,"station_id":"ce4bgup2rcd13ifvqco0","pricing_plan_id":"free"},{"bike_id":"43cec2e0-4dac-48f2-899d-a4b3d3920bdf","system_id":"levelo_inurba_marseille","lat":43.309589,"lon":5.390258,"is_reserved":false,"is_disabled":false,"rental_uris":{"android":"levelo://app?vid=43cec2e0-4dac-48f2-899d-a4b3d3920bdf","ios":"levelo://app?vid=43cec2e0-4dac-48f2-899d-a4b3d3920bdf"},"vehicle_type_id":"4","last_reported":1691856421,"current_range_meters":13600,"station_id":"ce4bgup2rcd13ifvqco0","pricing_plan_id":"free"},{"bike_id":"76ff3b14-d346-4134-b772-5805eda4f7f2","system_id":"levelo_inurba_marseille","lat":43.31758,"lon":5.39024,"is_reserved":false,"is_disabled":false,"rental_uris":{"android":"levelo://app?vid=76ff3b14-d346-4134-b772-5805eda4f7f2","ios":"levelo://app?vid=76ff3b14-d346-4134-b772-5805eda4f7f2"},"vehicle_type_id":"4","last_reported":1691856421,"current_range_meters":28000,"station_id":"ce4bhqp2rcd13ifvqhng","pricing_plan_id":"free"},{"bike_id":"4dccdc64-1e35-466f-a449-fc72dd7d8650","system_id":"levelo_inurba_marseille","lat":43.3041,"lon":5.388269,"is_reserved":false,"is_disabled":false,"rental_uris":{"android":"levelo://app?vid=4dccdc64-1e35-466f-a449-fc72dd7d8650","ios":"levelo://app?vid=4dccdc64-1e35-466f-a449-fc72dd7d8650"},"vehicle_type_id":"4","last_reported":1691856421,"current_range_meters":3200,"station_id":"ce4bgk12rcd13ifvqbi0","pricing_plan_id":"free"},{"bike_id":"a4df99ce-0488-49dd-a888-94686f562e88","system_id":"levelo_inurba_marseille","lat":43.295748,"lon":5.37522,"is_reserved":false,"is_disabled":false,"rental_uris":{"android":"levelo://app?vid=a4df99ce-0488-49dd-a888-94686f562e88","ios":"levelo://app?vid=a4df99ce-0488-49dd-a888-94686f562e88"},"vehicle_type_id":"4","last_reported":1691856421,"current_range_meters":29600,"station_id":"ce4bgh92rcd13ifvqb50","pricing_plan_id":"free"},{"bike_id":"0c89fdb1-01c5-4f72-9b21-442384d90232","system_id":"levelo_inurba_marseille","lat":43.304274,"lon":5.388873,"is_reserved":false,"is_disabled":false,"rental_uris":{"android":"levelo://app?vid=0c89fdb1-01c5-4f72-9b21-442384d90232","ios":"levelo://app?vid=0c89fdb1-01c5-4f72-9b21-442384d90232"},"vehicle_type_id":"4","last_reported":1691856421,"current_range_meters":800,"station_id":"ce4bgk12rcd13ifvqbi0","pricing_plan_id":"free"},{"bike_id":"a2dbfdd3-faf2-45ad-8fc1-2d22aeb62ce8","system_id":"levelo_inurba_marseille","lat":43.296263,"lon":5.377094,"is_reserved":false,"is_disabled":false,"rental_uris":{"android":"levelo://app?vid=a2dbfdd3-faf2-45ad-8fc1-2d22aeb62ce8","ios":"levelo://app?vid=a2dbfdd3-faf2-45ad-8fc1-2d22aeb62ce8"},"vehicle_type_id":"4","last_reported":1691856421,"current_range_meters":30400,"station_id":"ce4bgi92rcd13ifvqb90","pricing_plan_id":"free"},{"bike_id":"0edfb952-bfb0-4037-8acc-1dfc32611296","system_id":"levelo_inurba_marseille","lat":43.299717,"lon":5.384845,"is_reserved":false,"is_disabled":false,"rental_uris":{"android":"levelo://app?vid=0edfb952-bfb0-4037-8acc-1dfc32611296","ios":"levelo://app?vid=0edfb952-bfb0-4037-8acc-1dfc32611296"},"vehicle_type_id":"4","last_reported":1691856421,"current_range_meters":12000,"station_id":"ce4bgj92rcd13ifvqbd0","pricing_plan_id":"free"},{"bike_id":"dbd14151-4f52-4454-94fb-0dae0503a700","system_id":"levelo_inurba_marseille","lat":43.299717,"lon":5.384845,"is_reserved":false,"is_disabled":false,"rental_uris":{"android":"levelo://app?vid=dbd14151-4f52-4454-94fb-0dae0503a700","ios":"levelo://app?vid=dbd14151-4f52-4454-94fb-0dae0503a700"},"vehicle_type_id":"4","last_reported":1691856421,"current_range_meters":800,"station_id":"ce4bgj92rcd13ifvqbd0","pricing_plan_id":"free"},{"bike_id":"fbe51afe-e58e-4401-bce8-142438eb5f97","system_id":"levelo_inurba_marseille","lat":43.32368,"lon":5.38878,"is_reserved":false,"is_disabled":false,"rental_uris":{"android":"levelo://app?vid=fbe51afe-e58e-4401-bce8-142438eb5f97","ios":"levelo://app?vid=fbe51afe-e58e-4401-bce8-142438eb5f97"},"vehicle_type_id":"4","last_reported":1691856421,"current_range_meters":30000,"station_id":"ce4bhqp2rcd13ifvqhog","pricing_plan_id":"free"},{"bike_id":"7a5ccebc-5cd7-411d-b3c4-f349eba70b98","system_id":"levelo_inurba_marseille","lat":43.32365,"lon":5.38881,"is_reserved":false,"is_disabled":false,"rental_uris":{"android":"levelo://app?vid=7a5ccebc-5cd7-411d-b3c4-f349eba70b98","ios":"levelo://app?vid=7a5ccebc-5cd7-411d-b3c4-f349eba70b98"},"vehicle_type_id":"4","last_reported":1691856421,"current_range_meters":14800,"station_id":"ce4bhqp2rcd13ifvqhog","pricing_plan_id":"free"},{"bike_id":"0aa4abac-dd3c-446a-b986-ff96ec672a99","system_id":"levelo_inurba_marseille","lat":43.32366,"lon":5.38885,"is_reserved":false,"is_disabled":false,"rental_uris":{"android":"levelo://app?vid=0aa4abac-dd3c-446a-b986-ff96ec672a99","ios":"levelo://app?vid=0aa4abac-dd3c-446a-b986-ff96ec672a99"},"vehicle_type_id":"4","last_reported":1691856421,"current_range_meters":28000,"station_id":"ce4bhqp2rcd13ifvqhog","pricing_plan_id":"free"},{"bike_id":"a7758e93-92f2-4ba1-8882-417901e6037c","system_id":"levelo_inurba_marseille","lat":43.32366,"lon":5.38886,"is_reserved":false,"is_disabled":false,"rental_uris":{"android":"levelo://app?vid=a7758e93-92f2-4ba1-8882-417901e6037c","ios":"levelo://app?vid=a7758e93-92f2-4ba1-8882-417901e6037c"},"vehicle_type_id":"4","last_reported":1691856421,"current_range_meters":9200,"station_id":"ce4bhqp2rcd13ifvqhog","pricing_plan_id":"free"},{"bike_id":"b8cfcb5c-1fe2-48ab-b86a-5cc900079f22","system_id":"levelo_inurba_marseille","lat":43.32367,"lon":5.388836,"is_reserved":false,"is_disabled":false,"rental_uris":{"android":"levelo://app?vid=b8cfcb5c-1fe2-48ab-b86a-5cc900079f22","ios":"levelo://app?vid=b8cfcb5c-1fe2-48ab-b86a-5cc900079f22"},"vehicle_type_id":"4","last_reported":1691856421,"current_range_meters":13600,"station_id":"ce4bhqp2rcd13ifvqhog","pricing_plan_id":"free"},{"bike_id":"dbe406a0-e31d-4174-932b-0d8d584d17c2","system_id":"levelo_inurba_marseille","lat":43.292749,"lon":5.368398,"is_reserved":false,"is_disabled":false,"rental_uris":{"android":"levelo://app?vid=dbe406a0-e31d-4174-932b-0d8d584d17c2","ios":"levelo://app?vid=dbe406a0-e31d-4174-932b-0d8d584d17c2"},"vehicle_type_id":"4","last_reported":1691856421,"current_range_meters":31200,"station_id":"ce4bhbp2rcd13ifvqesg","pricing_plan_id":"free"},{"bike_id":"3a381199-ddd8-4779-a12a-ada49aaf55ac","system_id":"levelo_inurba_marseille","lat":43.293009,"lon":5.374584,"is_reserved":false,"is_disabled":false,"rental_uris":{"android":"levelo://app?vid=3a381199-ddd8-4779-a12a-ada49aaf55ac","ios":"levelo://app?vid=3a381199-ddd8-4779-a12a-ada49aaf55ac"},"vehicle_type_id":"4","last_reported":1691856421,"current_range_meters":8400,"station_id":"ce4bgi12rcd13ifvqb70","pricing_plan_id":"free"},{"bike_id":"4ef3dd40-3b88-4790-81f9-deb26ccefb50","system_id":"levelo_inurba_marseille","lat":43.293009,"lon":5.374584,"is_reserved":false,"is_disabled":false,"rental_uris":{"android":"levelo://app?vid=4ef3dd40-3b88-4790-81f9-deb26ccefb50","ios":"levelo://app?vid=4ef3dd40-3b88-4790-81f9-deb26ccefb50"},"vehicle_type_id":"4","last_reported":1691856421,"current_range_meters":28000,"station_id":"ce4bgi12rcd13ifvqb70","pricing_plan_id":"free"},{"bike_id":"62169afd-8a32-4268-9ad1-f0cb8c522241","system_id":"levelo_inurba_marseille","lat":43.293009,"lon":5.374584,"is_reserved":false,"is_disabled":false,"rental_uris":{"android":"levelo://app?vid=62169afd-8a32-4268-9ad1-f0cb8c522241","ios":"levelo://app?vid=62169afd-8a32-4268-9ad1-f0cb8c522241"},"vehicle_type_id":"4","last_reported":1691856421,"current_range_meters":13600,"station_id":"ce4bgi12rcd13ifvqb70","pricing_plan_id":"free"},{"bike_id":"fd856938-c324-4020-8f86-342137a763a9","system_id":"levelo_inurba_marseille","lat":43.293009,"lon":5.374584,"is_reserved":false,"is_disabled":false,"rental_uris":{"android":"levelo://app?vid=fd856938-c324-4020-8f86-342137a763a9","ios":"levelo://app?vid=fd856938-c324-4020-8f86-342137a763a9"},"vehicle_type_id":"4","last_reported":1691856421,"current_range_meters":15200,"station_id":"ce4bgi12rcd13ifvqb70","pricing_plan_id":"free"},{"bike_id":"615d1bae-0310-4684-8308-9555e1e85262","system_id":"levelo_inurba_marseille","lat":43.293009,"lon":5.374584,"is_reserved":false,"is_disabled":false,"rental_uris":{"android":"levelo://app?vid=615d1bae-0310-4684-8308-9555e1e85262","ios":"levelo://app?vid=615d1bae-0310-4684-8308-9555e1e85262"},"vehicle_type_id":"4","last_reported":1691856421,"current_range_meters":20800,"station_id":"ce4bgi12rcd13ifvqb70","pricing_plan_id":"free"},{"bike_id":"4a8c9b8e-3865-4c5a-b4b0-7a3dbed5ba4a","system_id":"levelo_inurba_marseille","lat":43.2936,"lon":5.37835,"is_reserved":false,"is_disabled":false,"rental_uris":{"android":"levelo://app?vid=4a8c9b8e-3865-4c5a-b4b0-7a3dbed5ba4a","ios":"levelo://app?vid=4a8c9b8e-3865-4c5a-b4b0-7a3dbed5ba4a"},"vehicle_type_id":"4","last_reported":1691856421,"current_range_meters":17600,"station_id":"ce4bgjh2rcd13ifvqbf0","pricing_plan_id":"free"},{"bike_id":"8db904c1-ac95-49f5-bae8-baf30b8576ec","system_id":"levelo_inurba_marseille","lat":43.30088,"lon":5.39072,"is_reserved":false,"is_disabled":false,"rental_uris":{"android":"levelo://app?vid=8db904c1-ac95-49f5-bae8-baf30b8576ec","ios":"levelo://app?vid=8db904c1-ac95-49f5-bae8-baf30b8576ec"},"vehicle_type_id":"4","last_reported":1691856421,"current_range_meters":17200,"station_id":"","pricing_plan_id":"free"},{"bike_id":"67b7d99e-aed3-454a-86cb-de7e0968441f","system_id":"levelo_inurba_marseille","lat":43.30085,"lon":5.390856,"is_reserved":false,"is_disabled":false,"rental_uris":{"android":"levelo://app?vid=67b7d99e-aed3-454a-86cb-de7e0968441f","ios":"levelo://app?vid=67b7d99e-aed3-454a-86cb-de7e0968441f"},"vehicle_type_id":"4","last_reported":1691856421,"current_range_meters":0,"station_id":"ce4bh192rcd13ifvqdb0","pricing_plan_id":"free"},{"bike_id":"6ef57ab7-3901-4867-bbcb-99bfd5d2b41c","system_id":"levelo_inurba_marseille","lat":43.30086,"lon":5.3908,"is_reserved":false,"is_disabled":false,"rental_uris":{"android":"levelo://app?vid=6ef57ab7-3901-4867-bbcb-99bfd5d2b41c","ios":"levelo://app?vid=6ef57ab7-3901-4867-bbcb-99bfd5d2b41c"},"vehicle_type_id":"4","last_reported":1691856421,"current_range_meters":0,"station_id":"ce4bh192rcd13ifvqdb0","pricing_plan_id":"free"},{"bike_id":"763f606b-d6b0-4baf-a384-ed61cd5832ad","system_id":"levelo_inurba_marseille","lat":43.30082,"lon":5.39078,"is_reserved":false,"is_disabled":false,"rental_uris":{"android":"levelo://app?vid=763f606b-d6b0-4baf-a384-ed61cd5832ad","ios":"levelo://app?vid=763f606b-d6b0-4baf-a384-ed61cd5832ad"},"vehicle_type_id":"4","last_reported":1691856421,"current_range_meters":17200,"station_id":"ce4bh192rcd13ifvqdb0","pricing_plan_id":"free"},{"bike_id":"3e2a6261-7e43-4857-8d15-2edafc9b5610","system_id":"levelo_inurba_marseille","lat":43.30073,"lon":5.39078,"is_reserved":false,"is_disabled":false,"rental_uris":{"android":"levelo://app?vid=3e2a6261-7e43-4857-8d15-2edafc9b5610","ios":"levelo://app?vid=3e2a6261-7e43-4857-8d15-2edafc9b5610"},"vehicle_type_id":"4","last_reported":1691856421,"current_range_meters":12000,"station_id":"ce4bh192rcd13ifvqdb0","pricing_plan_id":"free"},{"bike_id":"f6f94a41-d4b6-4de4-85c9-3e0fc35ff2f6","system_id":"levelo_inurba_marseille","lat":43.298764,"lon":5.388973,"is_reserved":false,"is_disabled":false,"rental_uris":{"android":"levelo://app?vid=f6f94a41-d4b6-4de4-85c9-3e0fc35ff2f6","ios":"levelo://app?vid=f6f94a41-d4b6-4de4-85c9-3e0fc35ff2f6"},"vehicle_type_id":"4","last_reported":1691856421,"current_range_meters":20000,"station_id":"ce4bh392rcd13ifvqdl0","pricing_plan_id":"free"},{"bike_id":"eaf841b6-aeb0-4d5c-a77a-f7ed135bde35","system_id":"levelo_inurba_marseille","lat":43.295279,"lon":5.375048,"is_reserved":false,"is_disabled":false,"rental_uris":{"android":"levelo://app?vid=eaf841b6-aeb0-4d5c-a77a-f7ed135bde35","ios":"levelo://app?vid=eaf841b6-aeb0-4d5c-a77a-f7ed135bde35"},"vehicle_type_id":"4","last_reported":1691856421,"current_range_meters":800,"station_id":"ce4bgkp2rcd13ifvqbmg","pricing_plan_id":"free"},{"bike_id":"2b41e0b3-6c0d-4b23-8177-4611f572cb71","system_id":"levelo_inurba_marseille","lat":43.313291,"lon":5.396838,"is_reserved":false,"is_disabled":false,"rental_uris":{"android":"levelo://app?vid=2b41e0b3-6c0d-4b23-8177-4611f572cb71","ios":"levelo://app?vid=2b41e0b3-6c0d-4b23-8177-4611f572cb71"},"vehicle_type_id":"4","last_reported":1691856421,"current_range_meters":6000,"station_id":"ce4bgvp2rcd13ifvqcu0","pricing_plan_id":"free"},{"bike_id":"cac537eb-d080-490b-a6c3-de7df0a97c2b","system_id":"levelo_inurba_marseille","lat":43.313291,"lon":5.396838,"is_reserved":false,"is_disabled":false,"rental_uris":{"android":"levelo://app?vid=cac537eb-d080-490b-a6c3-de7df0a97c2b","ios":"levelo://app?vid=cac537eb-d080-490b-a6c3-de7df0a97c2b"},"vehicle_type_id":"4","last_reported":1691856421,"current_range_meters":22400,"station_id":"ce4bgvp2rcd13ifvqcu0","pricing_plan_id":"free"},{"bike_id":"2ffcc260-35ba-4aef-8caa-b45ce285e2d0","system_id":"levelo_inurba_marseille","lat":43.29529,"lon":5.385581,"is_reserved":false,"is_disabled":false,"rental_uris":{"android":"levelo://app?vid=2ffcc260-35ba-4aef-8caa-b45ce285e2d0","ios":"levelo://app?vid=2ffcc260-35ba-4aef-8caa-b45ce285e2d0"},"vehicle_type_id":"4","last_reported":1691856421,"current_range_meters":23600,"station_id":"ce4bgih2rcd13ifvqba0","pricing_plan_id":"free"},{"bike_id":"ea14e84e-5ab6-4234-bca4-be1cd8705e47","system_id":"levelo_inurba_marseille","lat":43.290631,"lon":5.359244,"is_reserved":false,"is_disabled":false,"rental_uris":{"android":"levelo://app?vid=ea14e84e-5ab6-4234-bca4-be1cd8705e47","ios":"levelo://app?vid=ea14e84e-5ab6-4234-bca4-be1cd8705e47"},"vehicle_type_id":"4","last_reported":1691856421,"current_range_meters":24800,"station_id":"ce4bha92rcd13ifvqeg0","pricing_plan_id":"free"},{"bike_id":"69c23820-b8c4-4b33-a6c2-28beb4ed1d2a","system_id":"levelo_inurba_marseille","lat":43.330357,"lon":5.38912,"is_reserved":false,"is_disabled":false,"rental_uris":{"android":"levelo://app?vid=69c23820-b8c4-4b33-a6c2-28beb4ed1d2a","ios":"levelo://app?vid=69c23820-b8c4-4b33-a6c2-28beb4ed1d2a"},"vehicle_type_id":"4","last_reported":1691856421,"current_range_meters":12800,"station_id":"","pricing_plan_id":"free"},{"bike_id":"b8550564-ea62-435a-bdc4-8add50430efb","system_id":"levelo_inurba_marseille","lat":43.290104,"lon":5.356111,"is_reserved":false,"is_disabled":false,"rental_uris":{"android":"levelo://app?vid=b8550564-ea62-435a-bdc4-8add50430efb","ios":"levelo://app?vid=b8550564-ea62-435a-bdc4-8add50430efb"},"vehicle_type_id":"4","last_reported":1691856421,"current_range_meters":31600,"station_id":"ce4bhb92rcd13ifvqen0","pricing_plan_id":"free"},{"bike_id":"e670912e-4d64-418d-a115-4ee484695e56","system_id":"levelo_inurba_marseille","lat":43.33048,"lon":5.38911,"is_reserved":false,"is_disabled":false,"rental_uris":{"android":"levelo://app?vid=e670912e-4d64-418d-a115-4ee484695e56","ios":"levelo://app?vid=e670912e-4d64-418d-a115-4ee484695e56"},"vehicle_type_id":"4","last_reported":1691856421,"current_range_meters":14000,"station_id":"ce4bhr92rcd13ifvqhrg","pricing_plan_id":"free"},{"bike_id":"455260f5-201e-45ac-8473-9f69d25d2f7d","system_id":"levelo_inurba_marseille","lat":43.33045,"lon":5.38918,"is_reserved":false,"is_disabled":false,"rental_uris":{"android":"levelo://app?vid=455260f5-201e-45ac-8473-9f69d25d2f7d","ios":"levelo://app?vid=455260f5-201e-45ac-8473-9f69d25d2f7d"},"vehicle_type_id":"4","last_reported":1691856421,"current_range_meters":11600,"station_id":"ce4bhr92rcd13ifvqhrg","pricing_plan_id":"free"},{"bike_id":"0f61aca2-59fc-4ee0-83d2-1a38dd298235","system_id":"levelo_inurba_marseille","lat":43.290104,"lon":5.356111,"is_reserved":false,"is_disabled":false,"rental_uris":{"android":"levelo://app?vid=0f61aca2-59fc-4ee0-83d2-1a38dd298235","ios":"levelo://app?vid=0f61aca2-59fc-4ee0-83d2-1a38dd298235"},"vehicle_type_id":"4","last_reported":1691856421,"current_range_meters":6000,"station_id":"ce4bhb92rcd13ifvqen0","pricing_plan_id":"free"},{"bike_id":"892867ae-c845-473e-87fc-2b3f5701ecf4","system_id":"levelo_inurba_marseille","lat":43.29005,"lon":5.35616,"is_reserved":false,"is_disabled":false,"rental_uris":{"android":"levelo://app?vid=892867ae-c845-473e-87fc-2b3f5701ecf4","ios":"levelo://app?vid=892867ae-c845-473e-87fc-2b3f5701ecf4"},"vehicle_type_id":"4","last_reported":1691856421,"current_range_meters":19200,"station_id":"ce4bhb92rcd13ifvqen0","pricing_plan_id":"free"},{"bike_id":"8fede235-a3fa-4085-b5fb-515c17a98fa1","system_id":"levelo_inurba_marseille","lat":43.33047,"lon":5.38919,"is_reserved":false,"is_disabled":false,"rental_uris":{"android":"levelo://app?vid=8fede235-a3fa-4085-b5fb-515c17a98fa1","ios":"levelo://app?vid=8fede235-a3fa-4085-b5fb-515c17a98fa1"},"vehicle_type_id":"4","last_reported":1691856421,"current_range_meters":17200,"station_id":"ce4bhr92rcd13ifvqhrg","pricing_plan_id":"free"},{"bike_id":"d92191b5-3897-428d-989c-4b986c7a7e64","system_id":"levelo_inurba_marseille","lat":43.28999,"lon":5.35612,"is_reserved":false,"is_disabled":false,"rental_uris":{"android":"levelo://app?vid=d92191b5-3897-428d-989c-4b986c7a7e64","ios":"levelo://app?vid=d92191b5-3897-428d-989c-4b986c7a7e64"},"vehicle_type_id":"4","last_reported":1691856421,"current_range_meters":18800,"station_id":"ce4bhb92rcd13ifvqen0","pricing_plan_id":"free"},{"bike_id":"4e5253b6-68b9-405a-b770-8e676a129862","system_id":"levelo_inurba_marseille","lat":43.30473,"lon":5.39816,"is_reserved":false,"is_disabled":false,"rental_uris":{"android":"levelo://app?vid=4e5253b6-68b9-405a-b770-8e676a129862","ios":"levelo://app?vid=4e5253b6-68b9-405a-b770-8e676a129862"},"vehicle_type_id":"4","last_reported":1691856421,"current_range_meters":24000,"station_id":"","pricing_plan_id":"free"},{"bike_id":"05d1b486-66d1-4fd5-bec9-414db243b0ac","system_id":"levelo_inurba_marseille","lat":43.295169,"lon":5.390426,"is_reserved":false,"is_disabled":false,"rental_uris":{"android":"levelo://app?vid=05d1b486-66d1-4fd5-bec9-414db243b0ac","ios":"levelo://app?vid=05d1b486-66d1-4fd5-bec9-414db243b0ac"},"vehicle_type_id":"4","last_reported":1691856421,"current_range_meters":4400,"station_id":"ce4bh3p2rcd13ifvqdp0","pricing_plan_id":"free"},{"bike_id":"c4b0aa63-7248-4c69-80eb-f0aa4c35dc39","system_id":"levelo_inurba_marseille","lat":43.33036,"lon":5.39103,"is_reserved":false,"is_disabled":false,"rental_uris":{"android":"levelo://app?vid=c4b0aa63-7248-4c69-80eb-f0aa4c35dc39","ios":"levelo://app?vid=c4b0aa63-7248-4c69-80eb-f0aa4c35dc39"},"vehicle_type_id":"4","last_reported":1691856421,"current_range_meters":6800,"station_id":"","pricing_plan_id":"free"},{"bike_id":"5aacd6ca-7ddc-4198-88fc-1ccc14aea09a","system_id":"levelo_inurba_marseille","lat":43.282744,"lon":5.350533,"is_reserved":false,"is_disabled":false,"rental_uris":{"android":"levelo://app?vid=5aacd6ca-7ddc-4198-88fc-1ccc14aea09a","ios":"levelo://app?vid=5aacd6ca-7ddc-4198-88fc-1ccc14aea09a"},"vehicle_type_id":"4","last_reported":1691856421,"current_range_meters":800,"station_id":"ce4bhbp2rcd13ifvqerg","pricing_plan_id":"free"},{"bike_id":"7ac4ad57-e01e-49fa-818c-cc2e91fa59f6","system_id":"levelo_inurba_marseille","lat":43.33757,"lon":5.37507,"is_reserved":false,"is_disabled":false,"rental_uris":{"android":"levelo://app?vid=7ac4ad57-e01e-49fa-818c-cc2e91fa59f6","ios":"levelo://app?vid=7ac4ad57-e01e-49fa-818c-cc2e91fa59f6"},"vehicle_type_id":"4","last_reported":1691856421,"current_range_meters":4400,"station_id":"","pricing_plan_id":"free"},{"bike_id":"4386f1c8-4249-4b4f-be2b-2d05d3d9e74e","system_id":"levelo_inurba_marseille","lat":43.301117,"lon":5.398795,"is_reserved":false,"is_disabled":false,"rental_uris":{"android":"levelo://app?vid=4386f1c8-4249-4b4f-be2b-2d05d3d9e74e","ios":"levelo://app?vid=4386f1c8-4249-4b4f-be2b-2d05d3d9e74e"},"vehicle_type_id":"4","last_reported":1691856421,"current_range_meters":24000,"station_id":"ce4bh0h2rcd13ifvqd40","pricing_plan_id":"free"},{"bike_id":"1f8502ca-1377-4aa6-9e0e-3782997e97b7","system_id":"levelo_inurba_marseille","lat":43.301255,"lon":5.398593,"is_reserved":false,"is_disabled":false,"rental_uris":{"android":"levelo://app?vid=1f8502ca-1377-4aa6-9e0e-3782997e97b7","ios":"levelo://app?vid=1f8502ca-1377-4aa6-9e0e-3782997e97b7"},"vehicle_type_id":"4","last_reported":1691856421,"current_range_meters":9600,"station_id":"","pricing_plan_id":"free"},{"bike_id":"b208e3e6-c585-4dec-ab0b-2a4e068e5400","system_id":"levelo_inurba_marseille","lat":43.28717,"lon":5.37381,"is_reserved":false,"is_disabled":false,"rental_uris":{"android":"levelo://app?vid=b208e3e6-c585-4dec-ab0b-2a4e068e5400","ios":"levelo://app?vid=b208e3e6-c585-4dec-ab0b-2a4e068e5400"},"vehicle_type_id":"4","last_reported":1691856421,"current_range_meters":31200,"station_id":"ce4bh3p2rcd13ifvqdq0","pricing_plan_id":"free"},{"bike_id":"915f802e-f31b-4c71-8de0-2a5fc39e5970","system_id":"levelo_inurba_marseille","lat":43.32994,"lon":5.39403,"is_reserved":false,"is_disabled":false,"rental_uris":{"android":"levelo://app?vid=915f802e-f31b-4c71-8de0-2a5fc39e5970","ios":"levelo://app?vid=915f802e-f31b-4c71-8de0-2a5fc39e5970"},"vehicle_type_id":"4","last_reported":1691856421,"current_range_meters":2800,"station_id":"","pricing_plan_id":"free"},{"bike_id":"e545fceb-d006-4eb6-8152-dfabba524d95","system_id":"levelo_inurba_marseille","lat":43.298681,"lon":5.397225,"is_reserved":false,"is_disabled":false,"rental_uris":{"android":"levelo://app?vid=e545fceb-d006-4eb6-8152-dfabba524d95","ios":"levelo://app?vid=e545fceb-d006-4eb6-8152-dfabba524d95"},"vehicle_type_id":"4","last_reported":1691856421,"current_range_meters":8400,"station_id":"ce4bh0h2rcd13ifvqd50","pricing_plan_id":"free"},{"bike_id":"75199276-b705-4ad7-b6a9-49aeaa84628a","system_id":"levelo_inurba_marseille","lat":43.286591,"lon":5.363346,"is_reserved":false,"is_disabled":false,"rental_uris":{"android":"levelo://app?vid=75199276-b705-4ad7-b6a9-49aeaa84628a","ios":"levelo://app?vid=75199276-b705-4ad7-b6a9-49aeaa84628a"},"vehicle_type_id":"4","last_reported":1691856421,"current_range_meters":31200,"station_id":"ce4bhah2rcd13ifvqej0","pricing_plan_id":"free"},{"bike_id":"c458ded1-7c8a-4fa2-af7c-b2a85a38bb11","system_id":"levelo_inurba_marseille","lat":43.28699,"lon":5.37396,"is_reserved":false,"is_disabled":false,"rental_uris":{"android":"levelo://app?vid=c458ded1-7c8a-4fa2-af7c-b2a85a38bb11","ios":"levelo://app?vid=c458ded1-7c8a-4fa2-af7c-b2a85a38bb11"},"vehicle_type_id":"4","last_reported":1691856421,"current_range_meters":31200,"station_id":"ce4bh3p2rcd13ifvqdq0","pricing_plan_id":"free"},{"bike_id":"2dc58a11-e5dc-4fcc-9bb1-2401188997e1","system_id":"levelo_inurba_marseille","lat":43.295196,"lon":5.39397,"is_reserved":false,"is_disabled":false,"rental_uris":{"android":"levelo://app?vid=2dc58a11-e5dc-4fcc-9bb1-2401188997e1","ios":"levelo://app?vid=2dc58a11-e5dc-4fcc-9bb1-2401188997e1"},"vehicle_type_id":"4","last_reported":1691856421,"current_range_meters":10800,"station_id":"ce4bh292rcd13ifvqdf0","pricing_plan_id":"free"},{"bike_id":"2c570489-52da-43c5-9694-68fd153c4741","system_id":"levelo_inurba_marseille","lat":43.295196,"lon":5.39397,"is_reserved":false,"is_disabled":false,"rental_uris":{"android":"levelo://app?vid=2c570489-52da-43c5-9694-68fd153c4741","ios":"levelo://app?vid=2c570489-52da-43c5-9694-68fd153c4741"},"vehicle_type_id":"4","last_reported":1691856421,"current_range_meters":15600,"station_id":"ce4bh292rcd13ifvqdf0","pricing_plan_id":"free"},{"bike_id":"34f30842-8d81-4790-9b00-e97cbfc051d8","system_id":"levelo_inurba_marseille","lat":43.290336,"lon":5.386425,"is_reserved":false,"is_disabled":false,"rental_uris":{"android":"levelo://app?vid=34f30842-8d81-4790-9b00-e97cbfc051d8","ios":"levelo://app?vid=34f30842-8d81-4790-9b00-e97cbfc051d8"},"vehicle_type_id":"4","last_reported":1691856421,"current_range_meters":28800,"station_id":"ce4bh4p2rcd13ifvqe0g","pricing_plan_id":"free"},{"bike_id":"a7db0f74-1388-4d0c-9bfb-7bde493ea94c","system_id":"levelo_inurba_marseille","lat":43.302759,"lon":5.400793,"is_reserved":false,"is_disabled":false,"rental_uris":{"android":"levelo://app?vid=a7db0f74-1388-4d0c-9bfb-7bde493ea94c","ios":"levelo://app?vid=a7db0f74-1388-4d0c-9bfb-7bde493ea94c"},"vehicle_type_id":"4","last_reported":1691856421,"current_range_meters":23200,"station_id":"ce4bgvh2rcd13ifvqcs0","pricing_plan_id":"free"},{"bike_id":"55b72185-7710-4e26-882d-6501f6b8c570","system_id":"levelo_inurba_marseille","lat":43.302759,"lon":5.400793,"is_reserved":false,"is_disabled":false,"rental_uris":{"android":"levelo://app?vid=55b72185-7710-4e26-882d-6501f6b8c570","ios":"levelo://app?vid=55b72185-7710-4e26-882d-6501f6b8c570"},"vehicle_type_id":"4","last_reported":1691856421,"current_range_meters":18000,"station_id":"ce4bgvh2rcd13ifvqcs0","pricing_plan_id":"free"},{"bike_id":"7eab06f1-87ea-4c6b-89e6-2bd3fe98622a","system_id":"levelo_inurba_marseille","lat":43.286039,"lon":5.370679,"is_reserved":false,"is_disabled":false,"rental_uris":{"android":"levelo://app?vid=7eab06f1-87ea-4c6b-89e6-2bd3fe98622a","ios":"levelo://app?vid=7eab06f1-87ea-4c6b-89e6-2bd3fe98622a"},"vehicle_type_id":"4","last_reported":1691856421,"current_range_meters":12400,"station_id":"ce4bht12rcd13ifvqi60","pricing_plan_id":"free"},{"bike_id":"20fc1562-a5bd-41bd-8ce5-73d8b34ab75e","system_id":"levelo_inurba_marseille","lat":43.286039,"lon":5.370679,"is_reserved":false,"is_disabled":false,"rental_uris":{"android":"levelo://app?vid=20fc1562-a5bd-41bd-8ce5-73d8b34ab75e","ios":"levelo://app?vid=20fc1562-a5bd-41bd-8ce5-73d8b34ab75e"},"vehicle_type_id":"4","last_reported":1691856421,"current_range_meters":12000,"station_id":"ce4bht12rcd13ifvqi60","pricing_plan_id":"free"},{"bike_id":"d082d684-3f68-4ed0-b462-a1aceb1e1cc0","system_id":"levelo_inurba_marseille","lat":43.286039,"lon":5.370679,"is_reserved":false,"is_disabled":false,"rental_uris":{"android":"levelo://app?vid=d082d684-3f68-4ed0-b462-a1aceb1e1cc0","ios":"levelo://app?vid=d082d684-3f68-4ed0-b462-a1aceb1e1cc0"},"vehicle_type_id":"4","last_reported":1691856421,"current_range_meters":15200,"station_id":"ce4bht12rcd13ifvqi60","pricing_plan_id":"free"},{"bike_id":"99142bbc-7233-41cb-a4b7-85093fdebfed","system_id":"levelo_inurba_marseille","lat":43.286039,"lon":5.370679,"is_reserved":false,"is_disabled":false,"rental_uris":{"android":"levelo://app?vid=99142bbc-7233-41cb-a4b7-85093fdebfed","ios":"levelo://app?vid=99142bbc-7233-41cb-a4b7-85093fdebfed"},"vehicle_type_id":"4","last_reported":1691856421,"current_range_meters":3200,"station_id":"ce4bht12rcd13ifvqi60","pricing_plan_id":"free"},{"bike_id":"bdddcd1b-8a8b-4d58-ada2-ad24e7fa50b8","system_id":"levelo_inurba_marseille","lat":43.286039,"lon":5.370679,"is_reserved":false,"is_disabled":false,"rental_uris":{"android":"levelo://app?vid=bdddcd1b-8a8b-4d58-ada2-ad24e7fa50b8","ios":"levelo://app?vid=bdddcd1b-8a8b-4d58-ada2-ad24e7fa50b8"},"vehicle_type_id":"4","last_reported":1691856421,"current_range_meters":14400,"station_id":"ce4bht12rcd13ifvqi60","pricing_plan_id":"free"},{"bike_id":"c3563e47-2512-4c23-987a-5a2eedd618ff","system_id":"levelo_inurba_marseille","lat":43.287184,"lon":5.37937,"is_reserved":false,"is_disabled":false,"rental_uris":{"android":"levelo://app?vid=c3563e47-2512-4c23-987a-5a2eedd618ff","ios":"levelo://app?vid=c3563e47-2512-4c23-987a-5a2eedd618ff"},"vehicle_type_id":"4","last_reported":1691856421,"current_range_meters":2400,"station_id":"ce4bh9p2rcd13ifvqec0","pricing_plan_id":"free"},{"bike_id":"6e79e5bc-dfcf-4cf4-b3cd-ef919099e405","system_id":"levelo_inurba_marseille","lat":43.28718,"lon":5.37936,"is_reserved":false,"is_disabled":false,"rental_uris":{"android":"levelo://app?vid=6e79e5bc-dfcf-4cf4-b3cd-ef919099e405","ios":"levelo://app?vid=6e79e5bc-dfcf-4cf4-b3cd-ef919099e405"},"vehicle_type_id":"4","last_reported":1691856421,"current_range_meters":400,"station_id":"ce4bh9p2rcd13ifvqec0","pricing_plan_id":"free"},{"bike_id":"c167e342-02bf-4c22-82f7-cc2cdc9d7a3d","system_id":"levelo_inurba_marseille","lat":43.31635,"lon":5.40418,"is_reserved":false,"is_disabled":false,"rental_uris":{"android":"levelo://app?vid=c167e342-02bf-4c22-82f7-cc2cdc9d7a3d","ios":"levelo://app?vid=c167e342-02bf-4c22-82f7-cc2cdc9d7a3d"},"vehicle_type_id":"4","last_reported":1691856421,"current_range_meters":0,"station_id":"ce4bh012rcd13ifvqd00","pricing_plan_id":"free"},{"bike_id":"bae09e80-3b6b-404f-8322-7d1b1001393c","system_id":"levelo_inurba_marseille","lat":43.316517,"lon":5.404375,"is_reserved":false,"is_disabled":false,"rental_uris":{"android":"levelo://app?vid=bae09e80-3b6b-404f-8322-7d1b1001393c","ios":"levelo://app?vid=bae09e80-3b6b-404f-8322-7d1b1001393c"},"vehicle_type_id":"4","last_reported":1691856421,"current_range_meters":1600,"station_id":"ce4bh012rcd13ifvqd00","pricing_plan_id":"free"},{"bike_id":"f60a61e1-1711-473a-bd83-5b1cdcdc2133","system_id":"levelo_inurba_marseille","lat":43.31649,"lon":5.40438,"is_reserved":false,"is_disabled":false,"rental_uris":{"android":"levelo://app?vid=f60a61e1-1711-473a-bd83-5b1cdcdc2133","ios":"levelo://app?vid=f60a61e1-1711-473a-bd83-5b1cdcdc2133"},"vehicle_type_id":"4","last_reported":1691856421,"current_range_meters":10400,"station_id":"ce4bh012rcd13ifvqd00","pricing_plan_id":"free"},{"bike_id":"97a3bad6-0312-40ea-9f77-4d8d50311d51","system_id":"levelo_inurba_marseille","lat":43.316517,"lon":5.404375,"is_reserved":false,"is_disabled":false,"rental_uris":{"android":"levelo://app?vid=97a3bad6-0312-40ea-9f77-4d8d50311d51","ios":"levelo://app?vid=97a3bad6-0312-40ea-9f77-4d8d50311d51"},"vehicle_type_id":"4","last_reported":1691856421,"current_range_meters":2000,"station_id":"ce4bh012rcd13ifvqd00","pricing_plan_id":"free"},{"bike_id":"aba005d5-f147-41e1-ad08-0718801aaf03","system_id":"levelo_inurba_marseille","lat":43.31645,"lon":5.40447,"is_reserved":false,"is_disabled":false,"rental_uris":{"android":"levelo://app?vid=aba005d5-f147-41e1-ad08-0718801aaf03","ios":"levelo://app?vid=aba005d5-f147-41e1-ad08-0718801aaf03"},"vehicle_type_id":"4","last_reported":1691856421,"current_range_meters":8400,"station_id":"ce4bh012rcd13ifvqd00","pricing_plan_id":"free"},{"bike_id":"346826ba-aa37-4714-a589-a96fec599272","system_id":"levelo_inurba_marseille","lat":43.284534,"lon":5.358662,"is_reserved":false,"is_disabled":false,"rental_uris":{"android":"levelo://app?vid=346826ba-aa37-4714-a589-a96fec599272","ios":"levelo://app?vid=346826ba-aa37-4714-a589-a96fec599272"},"vehicle_type_id":"4","last_reported":1691856421,"current_range_meters":6800,"station_id":"ce4bhah2rcd13ifvqei0","pricing_plan_id":"free"},{"bike_id":"11129394-0d00-421f-a028-12cead58bdca","system_id":"levelo_inurba_marseille","lat":43.28459,"lon":5.3589,"is_reserved":false,"is_disabled":false,"rental_uris":{"android":"levelo://app?vid=11129394-0d00-421f-a028-12cead58bdca","ios":"levelo://app?vid=11129394-0d00-421f-a028-12cead58bdca"},"vehicle_type_id":"4","last_reported":1691856421,"current_range_meters":24000,"station_id":"ce4bhah2rcd13ifvqei0","pricing_plan_id":"free"},{"bike_id":"5c959f62-e010-4548-b735-419a6cee803c","system_id":"levelo_inurba_marseille","lat":43.284534,"lon":5.358662,"is_reserved":false,"is_disabled":false,"rental_uris":{"android":"levelo://app?vid=5c959f62-e010-4548-b735-419a6cee803c","ios":"levelo://app?vid=5c959f62-e010-4548-b735-419a6cee803c"},"vehicle_type_id":"4","last_reported":1691856421,"current_range_meters":20800,"station_id":"ce4bhah2rcd13ifvqei0","pricing_plan_id":"free"},{"bike_id":"890a41d8-e321-4e93-9185-76131defb105","system_id":"levelo_inurba_marseille","lat":43.285848,"lon":5.350787,"is_reserved":false,"is_disabled":false,"rental_uris":{"android":"levelo://app?vid=890a41d8-e321-4e93-9185-76131defb105","ios":"levelo://app?vid=890a41d8-e321-4e93-9185-76131defb105"},"vehicle_type_id":"4","last_reported":1691856421,"current_range_meters":31200,"station_id":"ce4bhch2rcd13ifvqeug","pricing_plan_id":"free"},{"bike_id":"c1f2f727-2fa2-4277-982e-4749c718e5fb","system_id":"levelo_inurba_marseille","lat":43.285848,"lon":5.350787,"is_reserved":false,"is_disabled":false,"rental_uris":{"android":"levelo://app?vid=c1f2f727-2fa2-4277-982e-4749c718e5fb","ios":"levelo://app?vid=c1f2f727-2fa2-4277-982e-4749c718e5fb"},"vehicle_type_id":"4","last_reported":1691856421,"current_range_meters":31200,"station_id":"ce4bhch2rcd13ifvqeug","pricing_plan_id":"free"},{"bike_id":"5fb4a7c7-8f3f-46e5-80b8-2ac428353a49","system_id":"levelo_inurba_marseille","lat":43.28617,"lon":5.351028,"is_reserved":false,"is_disabled":false,"rental_uris":{"android":"levelo://app?vid=5fb4a7c7-8f3f-46e5-80b8-2ac428353a49","ios":"levelo://app?vid=5fb4a7c7-8f3f-46e5-80b8-2ac428353a49"},"vehicle_type_id":"4","last_reported":1691856421,"current_range_meters":10800,"station_id":"ce4bhch2rcd13ifvqeug","pricing_plan_id":"free"},{"bike_id":"c4844eb6-46a6-4bfe-9d84-99f50e2f7715","system_id":"levelo_inurba_marseille","lat":43.286149,"lon":5.351055,"is_reserved":false,"is_disabled":false,"rental_uris":{"android":"levelo://app?vid=c4844eb6-46a6-4bfe-9d84-99f50e2f7715","ios":"levelo://app?vid=c4844eb6-46a6-4bfe-9d84-99f50e2f7715"},"vehicle_type_id":"4","last_reported":1691856421,"current_range_meters":22400,"station_id":"ce4bhch2rcd13ifvqeug","pricing_plan_id":"free"},{"bike_id":"149b21f7-acf4-404e-babf-9565dee6ad38","system_id":"levelo_inurba_marseille","lat":43.286149,"lon":5.351055,"is_reserved":false,"is_disabled":false,"rental_uris":{"android":"levelo://app?vid=149b21f7-acf4-404e-babf-9565dee6ad38","ios":"levelo://app?vid=149b21f7-acf4-404e-babf-9565dee6ad38"},"vehicle_type_id":"4","last_reported":1691856421,"current_range_meters":16000,"station_id":"ce4bhch2rcd13ifvqeug","pricing_plan_id":"free"},{"bike_id":"22107f30-17ae-460e-835a-69e9509b495a","system_id":"levelo_inurba_marseille","lat":43.286149,"lon":5.351055,"is_reserved":false,"is_disabled":false,"rental_uris":{"android":"levelo://app?vid=22107f30-17ae-460e-835a-69e9509b495a","ios":"levelo://app?vid=22107f30-17ae-460e-835a-69e9509b495a"},"vehicle_type_id":"4","last_reported":1691856421,"current_range_meters":18800,"station_id":"ce4bhch2rcd13ifvqeug","pricing_plan_id":"free"},{"bike_id":"0bae66c9-8535-41bd-a452-b29b3f1d1824","system_id":"levelo_inurba_marseille","lat":43.286145,"lon":5.351047,"is_reserved":false,"is_disabled":false,"rental_uris":{"android":"levelo://app?vid=0bae66c9-8535-41bd-a452-b29b3f1d1824","ios":"levelo://app?vid=0bae66c9-8535-41bd-a452-b29b3f1d1824"},"vehicle_type_id":"4","last_reported":1691856421,"current_range_meters":30400,"station_id":"ce4bhch2rcd13ifvqeug","pricing_plan_id":"free"},{"bike_id":"18d60405-7fcb-4f0d-a3c0-66a2bebff4ef","system_id":"levelo_inurba_marseille","lat":43.31882,"lon":5.40732,"is_reserved":false,"is_disabled":false,"rental_uris":{"android":"levelo://app?vid=18d60405-7fcb-4f0d-a3c0-66a2bebff4ef","ios":"levelo://app?vid=18d60405-7fcb-4f0d-a3c0-66a2bebff4ef"},"vehicle_type_id":"4","last_reported":1691856421,"current_range_meters":28000,"station_id":"","pricing_plan_id":"free"},{"bike_id":"1e5fc929-b2e6-478f-90e9-ed5e75397a8d","system_id":"levelo_inurba_marseille","lat":43.323464,"lon":5.406297,"is_reserved":false,"is_disabled":false,"rental_uris":{"android":"levelo://app?vid=1e5fc929-b2e6-478f-90e9-ed5e75397a8d","ios":"levelo://app?vid=1e5fc929-b2e6-478f-90e9-ed5e75397a8d"},"vehicle_type_id":"4","last_reported":1691856421,"current_range_meters":31600,"station_id":"ce4bhq92rcd13ifvqhjg","pricing_plan_id":"free"},{"bike_id":"fffcff2f-a9f9-44f0-bb09-83324346213d","system_id":"levelo_inurba_marseille","lat":43.33723,"lon":5.39186,"is_reserved":false,"is_disabled":false,"rental_uris":{"android":"levelo://app?vid=fffcff2f-a9f9-44f0-bb09-83324346213d","ios":"levelo://app?vid=fffcff2f-a9f9-44f0-bb09-83324346213d"},"vehicle_type_id":"4","last_reported":1691856421,"current_range_meters":25600,"station_id":"ce4bhr92rcd13ifvqhsg","pricing_plan_id":"free"},{"bike_id":"a369c97d-81f0-46c7-b8ce-be37c51bdc96","system_id":"levelo_inurba_marseille","lat":43.33726,"lon":5.39183,"is_reserved":false,"is_disabled":false,"rental_uris":{"android":"levelo://app?vid=a369c97d-81f0-46c7-b8ce-be37c51bdc96","ios":"levelo://app?vid=a369c97d-81f0-46c7-b8ce-be37c51bdc96"},"vehicle_type_id":"4","last_reported":1691856421,"current_range_meters":18800,"station_id":"ce4bhr92rcd13ifvqhsg","pricing_plan_id":"free"},{"bike_id":"fbfeeb75-e370-407d-81d3-a22af631e8cf","system_id":"levelo_inurba_marseille","lat":43.323464,"lon":5.406297,"is_reserved":false,"is_disabled":false,"rental_uris":{"android":"levelo://app?vid=fbfeeb75-e370-407d-81d3-a22af631e8cf","ios":"levelo://app?vid=fbfeeb75-e370-407d-81d3-a22af631e8cf"},"vehicle_type_id":"4","last_reported":1691856421,"current_range_meters":31600,"station_id":"ce4bhq92rcd13ifvqhjg","pricing_plan_id":"free"},{"bike_id":"b2188b0d-5227-4325-bc94-84b6f1239ecf","system_id":"levelo_inurba_marseille","lat":43.323464,"lon":5.406297,"is_reserved":false,"is_disabled":false,"rental_uris":{"android":"levelo://app?vid=b2188b0d-5227-4325-bc94-84b6f1239ecf","ios":"levelo://app?vid=b2188b0d-5227-4325-bc94-84b6f1239ecf"},"vehicle_type_id":"4","last_reported":1691856421,"current_range_meters":31600,"station_id":"ce4bhq92rcd13ifvqhjg","pricing_plan_id":"free"},{"bike_id":"99655be4-85c4-4618-9f8f-575f85f1237b","system_id":"levelo_inurba_marseille","lat":43.323464,"lon":5.406297,"is_reserved":false,"is_disabled":false,"rental_uris":{"android":"levelo://app?vid=99655be4-85c4-4618-9f8f-575f85f1237b","ios":"levelo://app?vid=99655be4-85c4-4618-9f8f-575f85f1237b"},"vehicle_type_id":"4","last_reported":1691856421,"current_range_meters":31600,"station_id":"ce4bhq92rcd13ifvqhjg","pricing_plan_id":"free"},{"bike_id":"a7f977ab-df2a-42be-af54-1bb16c7ef5dc","system_id":"levelo_inurba_marseille","lat":43.323464,"lon":5.406297,"is_reserved":false,"is_disabled":false,"rental_uris":{"android":"levelo://app?vid=a7f977ab-df2a-42be-af54-1bb16c7ef5dc","ios":"levelo://app?vid=a7f977ab-df2a-42be-af54-1bb16c7ef5dc"},"vehicle_type_id":"4","last_reported":1691856421,"current_range_meters":31600,"station_id":"ce4bhq92rcd13ifvqhjg","pricing_plan_id":"free"},{"bike_id":"0f37a334-b23f-4231-8c75-c49ee23dddb1","system_id":"levelo_inurba_marseille","lat":43.323464,"lon":5.406297,"is_reserved":false,"is_disabled":false,"rental_uris":{"android":"levelo://app?vid=0f37a334-b23f-4231-8c75-c49ee23dddb1","ios":"levelo://app?vid=0f37a334-b23f-4231-8c75-c49ee23dddb1"},"vehicle_type_id":"4","last_reported":1691856421,"current_range_meters":31600,"station_id":"ce4bhq92rcd13ifvqhjg","pricing_plan_id":"free"},{"bike_id":"b715fbc1-3e27-463b-b010-bead04f06ee1","system_id":"levelo_inurba_marseille","lat":43.323464,"lon":5.406297,"is_reserved":false,"is_disabled":false,"rental_uris":{"android":"levelo://app?vid=b715fbc1-3e27-463b-b010-bead04f06ee1","ios":"levelo://app?vid=b715fbc1-3e27-463b-b010-bead04f06ee1"},"vehicle_type_id":"4","last_reported":1691856421,"current_range_meters":28400,"station_id":"ce4bhq92rcd13ifvqhjg","pricing_plan_id":"free"},{"bike_id":"7460c8d0-5157-44e8-88a8-237d1833d417","system_id":"levelo_inurba_marseille","lat":43.323464,"lon":5.406297,"is_reserved":false,"is_disabled":false,"rental_uris":{"android":"levelo://app?vid=7460c8d0-5157-44e8-88a8-237d1833d417","ios":"levelo://app?vid=7460c8d0-5157-44e8-88a8-237d1833d417"},"vehicle_type_id":"4","last_reported":1691856421,"current_range_meters":29600,"station_id":"ce4bhq92rcd13ifvqhjg","pricing_plan_id":"free"},{"bike_id":"d0077ace-8d19-4088-b70c-82e3c4919915","system_id":"levelo_inurba_marseille","lat":43.323464,"lon":5.406297,"is_reserved":false,"is_disabled":false,"rental_uris":{"android":"levelo://app?vid=d0077ace-8d19-4088-b70c-82e3c4919915","ios":"levelo://app?vid=d0077ace-8d19-4088-b70c-82e3c4919915"},"vehicle_type_id":"4","last_reported":1691856421,"current_range_meters":31600,"station_id":"ce4bhq92rcd13ifvqhjg","pricing_plan_id":"free"},{"bike_id":"e2c2f663-5dd6-43cb-9f3c-986ac869dd33","system_id":"levelo_inurba_marseille","lat":43.323464,"lon":5.406297,"is_reserved":false,"is_disabled":false,"rental_uris":{"android":"levelo://app?vid=e2c2f663-5dd6-43cb-9f3c-986ac869dd33","ios":"levelo://app?vid=e2c2f663-5dd6-43cb-9f3c-986ac869dd33"},"vehicle_type_id":"4","last_reported":1691856421,"current_range_meters":8000,"station_id":"ce4bhq92rcd13ifvqhjg","pricing_plan_id":"free"},{"bike_id":"1d1f8de5-a381-4951-8286-1972c35a95ab","system_id":"levelo_inurba_marseille","lat":43.323464,"lon":5.406297,"is_reserved":false,"is_disabled":false,"rental_uris":{"android":"levelo://app?vid=1d1f8de5-a381-4951-8286-1972c35a95ab","ios":"levelo://app?vid=1d1f8de5-a381-4951-8286-1972c35a95ab"},"vehicle_type_id":"4","last_reported":1691856421,"current_range_meters":27200,"station_id":"ce4bhq92rcd13ifvqhjg","pricing_plan_id":"free"},{"bike_id":"77387bbb-06d5-400f-b530-4b392abf819f","system_id":"levelo_inurba_marseille","lat":43.323464,"lon":5.406297,"is_reserved":false,"is_disabled":false,"rental_uris":{"android":"levelo://app?vid=77387bbb-06d5-400f-b530-4b392abf819f","ios":"levelo://app?vid=77387bbb-06d5-400f-b530-4b392abf819f"},"vehicle_type_id":"4","last_reported":1691856421,"current_range_meters":31200,"station_id":"ce4bhq92rcd13ifvqhjg","pricing_plan_id":"free"},{"bike_id":"9c88b162-66af-4d80-b737-a3db75d2a885","system_id":"levelo_inurba_marseille","lat":43.323464,"lon":5.406297,"is_reserved":false,"is_disabled":false,"rental_uris":{"android":"levelo://app?vid=9c88b162-66af-4d80-b737-a3db75d2a885","ios":"levelo://app?vid=9c88b162-66af-4d80-b737-a3db75d2a885"},"vehicle_type_id":"4","last_reported":1691856421,"current_range_meters":28800,"station_id":"ce4bhq92rcd13ifvqhjg","pricing_plan_id":"free"},{"bike_id":"4b962c4a-9a8b-4b61-9a70-f910210a9bb7","system_id":"levelo_inurba_marseille","lat":43.288497,"lon":5.393089,"is_reserved":false,"is_disabled":false,"rental_uris":{"android":"levelo://app?vid=4b962c4a-9a8b-4b61-9a70-f910210a9bb7","ios":"levelo://app?vid=4b962c4a-9a8b-4b61-9a70-f910210a9bb7"},"vehicle_type_id":"4","last_reported":1691856421,"current_range_meters":27600,"station_id":"ce4bh2p2rcd13ifvqdi0","pricing_plan_id":"free"},{"bike_id":"3d35c6da-2122-4ce0-96ac-69baf370b10b","system_id":"levelo_inurba_marseille","lat":43.288497,"lon":5.393089,"is_reserved":false,"is_disabled":false,"rental_uris":{"android":"levelo://app?vid=3d35c6da-2122-4ce0-96ac-69baf370b10b","ios":"levelo://app?vid=3d35c6da-2122-4ce0-96ac-69baf370b10b"},"vehicle_type_id":"4","last_reported":1691856421,"current_range_meters":13200,"station_id":"ce4bh2p2rcd13ifvqdi0","pricing_plan_id":"free"},{"bike_id":"44d92393-38d6-4a6c-a2da-63101f2bf765","system_id":"levelo_inurba_marseille","lat":43.297946,"lon":5.404063,"is_reserved":false,"is_disabled":false,"rental_uris":{"android":"levelo://app?vid=44d92393-38d6-4a6c-a2da-63101f2bf765","ios":"levelo://app?vid=44d92393-38d6-4a6c-a2da-63101f2bf765"},"vehicle_type_id":"4","last_reported":1691856421,"current_range_meters":0,"station_id":"ce4bh112rcd13ifvqd90","pricing_plan_id":"free"},{"bike_id":"34423e75-6c87-473d-8bb2-9a6d75cf07bb","system_id":"levelo_inurba_marseille","lat":43.288501,"lon":5.393087,"is_reserved":false,"is_disabled":false,"rental_uris":{"android":"levelo://app?vid=34423e75-6c87-473d-8bb2-9a6d75cf07bb","ios":"levelo://app?vid=34423e75-6c87-473d-8bb2-9a6d75cf07bb"},"vehicle_type_id":"4","last_reported":1691856421,"current_range_meters":8800,"station_id":"ce4bh2p2rcd13ifvqdi0","pricing_plan_id":"free"},{"bike_id":"de8ad574-945d-45b0-b5fa-8e8c336b6512","system_id":"levelo_inurba_marseille","lat":43.32395,"lon":5.40652,"is_reserved":false,"is_disabled":false,"rental_uris":{"android":"levelo://app?vid=de8ad574-945d-45b0-b5fa-8e8c336b6512","ios":"levelo://app?vid=de8ad574-945d-45b0-b5fa-8e8c336b6512"},"vehicle_type_id":"4","last_reported":1691856421,"current_range_meters":20000,"station_id":"","pricing_plan_id":"free"},{"bike_id":"d2c4ce50-f2ac-41b1-98a5-1fef4b367435","system_id":"levelo_inurba_marseille","lat":43.28431,"lon":5.34995,"is_reserved":false,"is_disabled":false,"rental_uris":{"android":"levelo://app?vid=d2c4ce50-f2ac-41b1-98a5-1fef4b367435","ios":"levelo://app?vid=d2c4ce50-f2ac-41b1-98a5-1fef4b367435"},"vehicle_type_id":"4","last_reported":1691856421,"current_range_meters":24000,"station_id":"ce4bhbh2rcd13ifvqepg","pricing_plan_id":"free"},{"bike_id":"d9b584cf-c884-464b-b4e5-116a03328a04","system_id":"levelo_inurba_marseille","lat":43.284219,"lon":5.3497,"is_reserved":false,"is_disabled":false,"rental_uris":{"android":"levelo://app?vid=d9b584cf-c884-464b-b4e5-116a03328a04","ios":"levelo://app?vid=d9b584cf-c884-464b-b4e5-116a03328a04"},"vehicle_type_id":"4","last_reported":1691856421,"current_range_meters":15200,"station_id":"ce4bhbh2rcd13ifvqepg","pricing_plan_id":"free"},{"bike_id":"6f5226ab-f142-443a-b9c1-709f834fe8ae","system_id":"levelo_inurba_marseille","lat":43.284219,"lon":5.3497,"is_reserved":false,"is_disabled":false,"rental_uris":{"android":"levelo://app?vid=6f5226ab-f142-443a-b9c1-709f834fe8ae","ios":"levelo://app?vid=6f5226ab-f142-443a-b9c1-709f834fe8ae"},"vehicle_type_id":"4","last_reported":1691856421,"current_range_meters":16800,"station_id":"ce4bhbh2rcd13ifvqepg","pricing_plan_id":"free"},{"bike_id":"653d7767-e989-4e56-a7f3-98440879dbc2","system_id":"levelo_inurba_marseille","lat":43.284219,"lon":5.3497,"is_reserved":false,"is_disabled":false,"rental_uris":{"android":"levelo://app?vid=653d7767-e989-4e56-a7f3-98440879dbc2","ios":"levelo://app?vid=653d7767-e989-4e56-a7f3-98440879dbc2"},"vehicle_type_id":"4","last_reported":1691856421,"current_range_meters":26400,"station_id":"ce4bhbh2rcd13ifvqepg","pricing_plan_id":"free"},{"bike_id":"be128c2c-d4d2-4718-b33b-9c64bee378bc","system_id":"levelo_inurba_marseille","lat":43.28423,"lon":5.34992,"is_reserved":false,"is_disabled":false,"rental_uris":{"android":"levelo://app?vid=be128c2c-d4d2-4718-b33b-9c64bee378bc","ios":"levelo://app?vid=be128c2c-d4d2-4718-b33b-9c64bee378bc"},"vehicle_type_id":"4","last_reported":1691856421,"current_range_meters":12000,"station_id":"ce4bhbh2rcd13ifvqepg","pricing_plan_id":"free"},{"bike_id":"17d6175b-d5ce-4d9d-994a-210022bb3c2f","system_id":"levelo_inurba_marseille","lat":43.284217,"lon":5.349697,"is_reserved":false,"is_disabled":false,"rental_uris":{"android":"levelo://app?vid=17d6175b-d5ce-4d9d-994a-210022bb3c2f","ios":"levelo://app?vid=17d6175b-d5ce-4d9d-994a-210022bb3c2f"},"vehicle_type_id":"4","last_reported":1691856421,"current_range_meters":31600,"station_id":"ce4bhbh2rcd13ifvqepg","pricing_plan_id":"free"},{"bike_id":"b568e77a-5147-4276-b56d-d2e37f3dfe1e","system_id":"levelo_inurba_marseille","lat":43.284219,"lon":5.3497,"is_reserved":false,"is_disabled":false,"rental_uris":{"android":"levelo://app?vid=b568e77a-5147-4276-b56d-d2e37f3dfe1e","ios":"levelo://app?vid=b568e77a-5147-4276-b56d-d2e37f3dfe1e"},"vehicle_type_id":"4","last_reported":1691856421,"current_range_meters":22800,"station_id":"ce4bhbh2rcd13ifvqepg","pricing_plan_id":"free"},{"bike_id":"67ab69a2-70b8-420a-8350-b04b247c8db5","system_id":"levelo_inurba_marseille","lat":43.28422,"lon":5.34992,"is_reserved":false,"is_disabled":false,"rental_uris":{"android":"levelo://app?vid=67ab69a2-70b8-420a-8350-b04b247c8db5","ios":"levelo://app?vid=67ab69a2-70b8-420a-8350-b04b247c8db5"},"vehicle_type_id":"4","last_reported":1691856421,"current_range_meters":21200,"station_id":"ce4bhbh2rcd13ifvqepg","pricing_plan_id":"free"},{"bike_id":"c5da1742-ac1c-41d3-87ef-f2cda8e48879","system_id":"levelo_inurba_marseille","lat":43.284219,"lon":5.3497,"is_reserved":false,"is_disabled":false,"rental_uris":{"android":"levelo://app?vid=c5da1742-ac1c-41d3-87ef-f2cda8e48879","ios":"levelo://app?vid=c5da1742-ac1c-41d3-87ef-f2cda8e48879"},"vehicle_type_id":"4","last_reported":1691856421,"current_range_meters":31600,"station_id":"ce4bhbh2rcd13ifvqepg","pricing_plan_id":"free"},{"bike_id":"dc18e65e-4699-4c00-a77f-6c704dc3678d","system_id":"levelo_inurba_marseille","lat":43.28423,"lon":5.34988,"is_reserved":false,"is_disabled":false,"rental_uris":{"android":"levelo://app?vid=dc18e65e-4699-4c00-a77f-6c704dc3678d","ios":"levelo://app?vid=dc18e65e-4699-4c00-a77f-6c704dc3678d"},"vehicle_type_id":"4","last_reported":1691856421,"current_range_meters":25200,"station_id":"ce4bhbh2rcd13ifvqepg","pricing_plan_id":"free"},{"bike_id":"0c3d1675-11fd-46e5-9f2c-8b820b48ed85","system_id":"levelo_inurba_marseille","lat":43.284219,"lon":5.3497,"is_reserved":false,"is_disabled":false,"rental_uris":{"android":"levelo://app?vid=0c3d1675-11fd-46e5-9f2c-8b820b48ed85","ios":"levelo://app?vid=0c3d1675-11fd-46e5-9f2c-8b820b48ed85"},"vehicle_type_id":"4","last_reported":1691856421,"current_range_meters":29600,"station_id":"ce4bhbh2rcd13ifvqepg","pricing_plan_id":"free"},{"bike_id":"f7b92aa7-8425-450c-be7b-da0361219fe1","system_id":"levelo_inurba_marseille","lat":43.284219,"lon":5.3497,"is_reserved":false,"is_disabled":false,"rental_uris":{"android":"levelo://app?vid=f7b92aa7-8425-450c-be7b-da0361219fe1","ios":"levelo://app?vid=f7b92aa7-8425-450c-be7b-da0361219fe1"},"vehicle_type_id":"4","last_reported":1691856421,"current_range_meters":11200,"station_id":"ce4bhbh2rcd13ifvqepg","pricing_plan_id":"free"},{"bike_id":"1480e8dd-d613-4501-9065-39fa3ad3b1c0","system_id":"levelo_inurba_marseille","lat":43.284219,"lon":5.3497,"is_reserved":false,"is_disabled":false,"rental_uris":{"android":"levelo://app?vid=1480e8dd-d613-4501-9065-39fa3ad3b1c0","ios":"levelo://app?vid=1480e8dd-d613-4501-9065-39fa3ad3b1c0"},"vehicle_type_id":"4","last_reported":1691856421,"current_range_meters":11200,"station_id":"ce4bhbh2rcd13ifvqepg","pricing_plan_id":"free"},{"bike_id":"3842fe39-f712-4456-8ed1-b50503f91d89","system_id":"levelo_inurba_marseille","lat":43.284219,"lon":5.3497,"is_reserved":false,"is_disabled":false,"rental_uris":{"android":"levelo://app?vid=3842fe39-f712-4456-8ed1-b50503f91d89","ios":"levelo://app?vid=3842fe39-f712-4456-8ed1-b50503f91d89"},"vehicle_type_id":"4","last_reported":1691856421,"current_range_meters":5200,"station_id":"ce4bhbh2rcd13ifvqepg","pricing_plan_id":"free"},{"bike_id":"5b314571-4077-4c58-8f95-b94ed8a60cca","system_id":"levelo_inurba_marseille","lat":43.28421,"lon":5.34978,"is_reserved":false,"is_disabled":false,"rental_uris":{"android":"levelo://app?vid=5b314571-4077-4c58-8f95-b94ed8a60cca","ios":"levelo://app?vid=5b314571-4077-4c58-8f95-b94ed8a60cca"},"vehicle_type_id":"4","last_reported":1691856421,"current_range_meters":20400,"station_id":"ce4bhbh2rcd13ifvqepg","pricing_plan_id":"free"},{"bike_id":"823f3b4f-a689-44e6-8332-98b0afc324fc","system_id":"levelo_inurba_marseille","lat":43.284219,"lon":5.3497,"is_reserved":false,"is_disabled":false,"rental_uris":{"android":"levelo://app?vid=823f3b4f-a689-44e6-8332-98b0afc324fc","ios":"levelo://app?vid=823f3b4f-a689-44e6-8332-98b0afc324fc"},"vehicle_type_id":"4","last_reported":1691856421,"current_range_meters":28400,"station_id":"ce4bhbh2rcd13ifvqepg","pricing_plan_id":"free"},{"bike_id":"abe782ba-5320-4fb0-bdd9-7a00f2589f7d","system_id":"levelo_inurba_marseille","lat":43.28414,"lon":5.34993,"is_reserved":false,"is_disabled":false,"rental_uris":{"android":"levelo://app?vid=abe782ba-5320-4fb0-bdd9-7a00f2589f7d","ios":"levelo://app?vid=abe782ba-5320-4fb0-bdd9-7a00f2589f7d"},"vehicle_type_id":"4","last_reported":1691856421,"current_range_meters":31200,"station_id":"ce4bhbh2rcd13ifvqepg","pricing_plan_id":"free"},{"bike_id":"5e60d11b-afc2-43a7-b83d-60e0b499fca7","system_id":"levelo_inurba_marseille","lat":43.284217,"lon":5.349697,"is_reserved":false,"is_disabled":false,"rental_uris":{"android":"levelo://app?vid=5e60d11b-afc2-43a7-b83d-60e0b499fca7","ios":"levelo://app?vid=5e60d11b-afc2-43a7-b83d-60e0b499fca7"},"vehicle_type_id":"4","last_reported":1691856421,"current_range_meters":24000,"station_id":"ce4bhbh2rcd13ifvqepg","pricing_plan_id":"free"},{"bike_id":"91daee9c-96cf-410c-ba67-cb777d4c13f4","system_id":"levelo_inurba_marseille","lat":43.284217,"lon":5.349697,"is_reserved":false,"is_disabled":false,"rental_uris":{"android":"levelo://app?vid=91daee9c-96cf-410c-ba67-cb777d4c13f4","ios":"levelo://app?vid=91daee9c-96cf-410c-ba67-cb777d4c13f4"},"vehicle_type_id":"4","last_reported":1691856421,"current_range_meters":26400,"station_id":"ce4bhbh2rcd13ifvqepg","pricing_plan_id":"free"},{"bike_id":"b5757c5b-4999-4c87-9eba-fa39b5085f5f","system_id":"levelo_inurba_marseille","lat":43.284219,"lon":5.3497,"is_reserved":false,"is_disabled":false,"rental_uris":{"android":"levelo://app?vid=b5757c5b-4999-4c87-9eba-fa39b5085f5f","ios":"levelo://app?vid=b5757c5b-4999-4c87-9eba-fa39b5085f5f"},"vehicle_type_id":"4","last_reported":1691856421,"current_range_meters":25600,"station_id":"ce4bhbh2rcd13ifvqepg","pricing_plan_id":"free"},{"bike_id":"548dbd5c-cdfe-4214-a715-f638cc14ac22","system_id":"levelo_inurba_marseille","lat":43.28412,"lon":5.34984,"is_reserved":false,"is_disabled":false,"rental_uris":{"android":"levelo://app?vid=548dbd5c-cdfe-4214-a715-f638cc14ac22","ios":"levelo://app?vid=548dbd5c-cdfe-4214-a715-f638cc14ac22"},"vehicle_type_id":"4","last_reported":1691856421,"current_range_meters":15600,"station_id":"ce4bhbh2rcd13ifvqepg","pricing_plan_id":"free"},{"bike_id":"5cec26ac-344f-432b-af34-450b75305b9b","system_id":"levelo_inurba_marseille","lat":43.29286,"lon":5.40126,"is_reserved":false,"is_disabled":false,"rental_uris":{"android":"levelo://app?vid=5cec26ac-344f-432b-af34-450b75305b9b","ios":"levelo://app?vid=5cec26ac-344f-432b-af34-450b75305b9b"},"vehicle_type_id":"4","last_reported":1691856421,"current_range_meters":31200,"station_id":"ce4bh312rcd13ifvqdk0","pricing_plan_id":"free"},{"bike_id":"26890f38-8ba2-443f-b923-26c880b05536","system_id":"levelo_inurba_marseille","lat":43.2828,"lon":5.35077,"is_reserved":false,"is_disabled":false,"rental_uris":{"android":"levelo://app?vid=26890f38-8ba2-443f-b923-26c880b05536","ios":"levelo://app?vid=26890f38-8ba2-443f-b923-26c880b05536"},"vehicle_type_id":"4","last_reported":1691856421,"current_range_meters":14000,"station_id":"ce4bhbp2rcd13ifvqerg","pricing_plan_id":"free"},{"bike_id":"5518d0e3-31e9-4baa-9301-e39447383276","system_id":"levelo_inurba_marseille","lat":43.282754,"lon":5.350519,"is_reserved":false,"is_disabled":false,"rental_uris":{"android":"levelo://app?vid=5518d0e3-31e9-4baa-9301-e39447383276","ios":"levelo://app?vid=5518d0e3-31e9-4baa-9301-e39447383276"},"vehicle_type_id":"4","last_reported":1691856421,"current_range_meters":24000,"station_id":"ce4bhbp2rcd13ifvqerg","pricing_plan_id":"free"},{"bike_id":"6730495b-a86f-43df-9037-b61ebf273edd","system_id":"levelo_inurba_marseille","lat":43.28275,"lon":5.35066,"is_reserved":false,"is_disabled":false,"rental_uris":{"android":"levelo://app?vid=6730495b-a86f-43df-9037-b61ebf273edd","ios":"levelo://app?vid=6730495b-a86f-43df-9037-b61ebf273edd"},"vehicle_type_id":"4","last_reported":1691856421,"current_range_meters":31200,"station_id":"ce4bhbp2rcd13ifvqerg","pricing_plan_id":"free"},{"bike_id":"cd3b6fb7-2de4-4fe3-a6ea-9b7f4f21d43a","system_id":"levelo_inurba_marseille","lat":43.28272,"lon":5.35066,"is_reserved":false,"is_disabled":false,"rental_uris":{"android":"levelo://app?vid=cd3b6fb7-2de4-4fe3-a6ea-9b7f4f21d43a","ios":"levelo://app?vid=cd3b6fb7-2de4-4fe3-a6ea-9b7f4f21d43a"},"vehicle_type_id":"4","last_reported":1691856421,"current_range_meters":27600,"station_id":"ce4bhbp2rcd13ifvqerg","pricing_plan_id":"free"},{"bike_id":"2ba3e2b6-3112-48b5-bd7b-74e463779e0c","system_id":"levelo_inurba_marseille","lat":43.282754,"lon":5.350519,"is_reserved":false,"is_disabled":false,"rental_uris":{"android":"levelo://app?vid=2ba3e2b6-3112-48b5-bd7b-74e463779e0c","ios":"levelo://app?vid=2ba3e2b6-3112-48b5-bd7b-74e463779e0c"},"vehicle_type_id":"4","last_reported":1691856421,"current_range_meters":2400,"station_id":"ce4bhbp2rcd13ifvqerg","pricing_plan_id":"free"},{"bike_id":"f03c8f93-5b93-4330-8e67-aade0d22e188","system_id":"levelo_inurba_marseille","lat":43.2827,"lon":5.35071,"is_reserved":false,"is_disabled":false,"rental_uris":{"android":"levelo://app?vid=f03c8f93-5b93-4330-8e67-aade0d22e188","ios":"levelo://app?vid=f03c8f93-5b93-4330-8e67-aade0d22e188"},"vehicle_type_id":"4","last_reported":1691856421,"current_range_meters":31200,"station_id":"ce4bhbp2rcd13ifvqerg","pricing_plan_id":"free"},{"bike_id":"090b741a-3cc2-484f-b22a-4c95fbb4a5e7","system_id":"levelo_inurba_marseille","lat":43.28269,"lon":5.35067,"is_reserved":false,"is_disabled":false,"rental_uris":{"android":"levelo://app?vid=090b741a-3cc2-484f-b22a-4c95fbb4a5e7","ios":"levelo://app?vid=090b741a-3cc2-484f-b22a-4c95fbb4a5e7"},"vehicle_type_id":"4","last_reported":1691856421,"current_range_meters":20400,"station_id":"ce4bhbp2rcd13ifvqerg","pricing_plan_id":"free"},{"bike_id":"f01d0cf8-82d7-4a86-b459-d6c81bd43d7a","system_id":"levelo_inurba_marseille","lat":43.28267,"lon":5.35068,"is_reserved":false,"is_disabled":false,"rental_uris":{"android":"levelo://app?vid=f01d0cf8-82d7-4a86-b459-d6c81bd43d7a","ios":"levelo://app?vid=f01d0cf8-82d7-4a86-b459-d6c81bd43d7a"},"vehicle_type_id":"4","last_reported":1691856421,"current_range_meters":15600,"station_id":"ce4bhbp2rcd13ifvqerg","pricing_plan_id":"free"},{"bike_id":"ed40e2c0-4e99-44dd-ac06-0929f208e0c0","system_id":"levelo_inurba_marseille","lat":43.28264,"lon":5.35069,"is_reserved":false,"is_disabled":false,"rental_uris":{"android":"levelo://app?vid=ed40e2c0-4e99-44dd-ac06-0929f208e0c0","ios":"levelo://app?vid=ed40e2c0-4e99-44dd-ac06-0929f208e0c0"},"vehicle_type_id":"4","last_reported":1691856421,"current_range_meters":30800,"station_id":"ce4bhbp2rcd13ifvqerg","pricing_plan_id":"free"},{"bike_id":"8d613864-d1cf-4e87-9870-a5d386290cad","system_id":"levelo_inurba_marseille","lat":43.282691,"lon":5.350504,"is_reserved":false,"is_disabled":false,"rental_uris":{"android":"levelo://app?vid=8d613864-d1cf-4e87-9870-a5d386290cad","ios":"levelo://app?vid=8d613864-d1cf-4e87-9870-a5d386290cad"},"vehicle_type_id":"4","last_reported":1691856421,"current_range_meters":8800,"station_id":"ce4bhbp2rcd13ifvqerg","pricing_plan_id":"free"},{"bike_id":"aeb1b629-c3bc-424c-95d8-02f767f15d57","system_id":"levelo_inurba_marseille","lat":43.282744,"lon":5.350533,"is_reserved":false,"is_disabled":false,"rental_uris":{"android":"levelo://app?vid=aeb1b629-c3bc-424c-95d8-02f767f15d57","ios":"levelo://app?vid=aeb1b629-c3bc-424c-95d8-02f767f15d57"},"vehicle_type_id":"4","last_reported":1691856421,"current_range_meters":31600,"station_id":"ce4bhbp2rcd13ifvqerg","pricing_plan_id":"free"},{"bike_id":"88940920-727e-47f8-bee6-24feedff1167","system_id":"levelo_inurba_marseille","lat":43.282744,"lon":5.350533,"is_reserved":false,"is_disabled":false,"rental_uris":{"android":"levelo://app?vid=88940920-727e-47f8-bee6-24feedff1167","ios":"levelo://app?vid=88940920-727e-47f8-bee6-24feedff1167"},"vehicle_type_id":"4","last_reported":1691856421,"current_range_meters":31600,"station_id":"ce4bhbp2rcd13ifvqerg","pricing_plan_id":"free"},{"bike_id":"96bb78f0-b017-4bf0-b6e6-a8502b58e0f0","system_id":"levelo_inurba_marseille","lat":43.280382,"lon":5.369291,"is_reserved":false,"is_disabled":false,"rental_uris":{"android":"levelo://app?vid=96bb78f0-b017-4bf0-b6e6-a8502b58e0f0","ios":"levelo://app?vid=96bb78f0-b017-4bf0-b6e6-a8502b58e0f0"},"vehicle_type_id":"4","last_reported":1691856421,"current_range_meters":4800,"station_id":"ce4bha12rcd13ifvqef0","pricing_plan_id":"free"},{"bike_id":"726bee5b-b27a-48f0-8823-4b9d9bf5ba01","system_id":"levelo_inurba_marseille","lat":43.29042,"lon":5.39971,"is_reserved":false,"is_disabled":false,"rental_uris":{"android":"levelo://app?vid=726bee5b-b27a-48f0-8823-4b9d9bf5ba01","ios":"levelo://app?vid=726bee5b-b27a-48f0-8823-4b9d9bf5ba01"},"vehicle_type_id":"4","last_reported":1691856421,"current_range_meters":27200,"station_id":"ce4bh392rcd13ifvqdm0","pricing_plan_id":"free"},{"bike_id":"bb9ac27c-a0c9-49d4-a350-dfc483148d30","system_id":"levelo_inurba_marseille","lat":43.29041,"lon":5.399634,"is_reserved":false,"is_disabled":false,"rental_uris":{"android":"levelo://app?vid=bb9ac27c-a0c9-49d4-a350-dfc483148d30","ios":"levelo://app?vid=bb9ac27c-a0c9-49d4-a350-dfc483148d30"},"vehicle_type_id":"4","last_reported":1691856421,"current_range_meters":29200,"station_id":"ce4bh392rcd13ifvqdm0","pricing_plan_id":"free"},{"bike_id":"fc2e0db4-8eda-4717-b9a6-f9528d012d2e","system_id":"levelo_inurba_marseille","lat":43.29034,"lon":5.39966,"is_reserved":false,"is_disabled":false,"rental_uris":{"android":"levelo://app?vid=fc2e0db4-8eda-4717-b9a6-f9528d012d2e","ios":"levelo://app?vid=fc2e0db4-8eda-4717-b9a6-f9528d012d2e"},"vehicle_type_id":"4","last_reported":1691856421,"current_range_meters":29200,"station_id":"ce4bh392rcd13ifvqdm0","pricing_plan_id":"free"},{"bike_id":"eb8e4c4f-5fc5-4007-ab2b-231fad0dc17c","system_id":"levelo_inurba_marseille","lat":43.29033,"lon":5.39965,"is_reserved":false,"is_disabled":false,"rental_uris":{"android":"levelo://app?vid=eb8e4c4f-5fc5-4007-ab2b-231fad0dc17c","ios":"levelo://app?vid=eb8e4c4f-5fc5-4007-ab2b-231fad0dc17c"},"vehicle_type_id":"4","last_reported":1691856421,"current_range_meters":30800,"station_id":"ce4bh392rcd13ifvqdm0","pricing_plan_id":"free"},{"bike_id":"859baf7b-a2ca-4e3e-8788-c1604ad5b426","system_id":"levelo_inurba_marseille","lat":43.29036,"lon":5.39969,"is_reserved":false,"is_disabled":false,"rental_uris":{"android":"levelo://app?vid=859baf7b-a2ca-4e3e-8788-c1604ad5b426","ios":"levelo://app?vid=859baf7b-a2ca-4e3e-8788-c1604ad5b426"},"vehicle_type_id":"4","last_reported":1691856421,"current_range_meters":24800,"station_id":"ce4bh392rcd13ifvqdm0","pricing_plan_id":"free"},{"bike_id":"25b2d3aa-029c-4e0e-8a03-bd47cc483aa6","system_id":"levelo_inurba_marseille","lat":43.28104,"lon":5.37836,"is_reserved":false,"is_disabled":false,"rental_uris":{"android":"levelo://app?vid=25b2d3aa-029c-4e0e-8a03-bd47cc483aa6","ios":"levelo://app?vid=25b2d3aa-029c-4e0e-8a03-bd47cc483aa6"},"vehicle_type_id":"4","last_reported":1691856421,"current_range_meters":2000,"station_id":"ce4bha12rcd13ifvqee0","pricing_plan_id":"free"},{"bike_id":"5cb2d668-f463-45e5-81a9-55f3bf520259","system_id":"levelo_inurba_marseille","lat":43.284462,"lon":5.392121,"is_reserved":false,"is_disabled":false,"rental_uris":{"android":"levelo://app?vid=5cb2d668-f463-45e5-81a9-55f3bf520259","ios":"levelo://app?vid=5cb2d668-f463-45e5-81a9-55f3bf520259"},"vehicle_type_id":"4","last_reported":1691856421,"current_range_meters":8000,"station_id":"ce4bhoh2rcd13ifvqh5g","pricing_plan_id":"free"},{"bike_id":"5cb816ca-e9a6-4433-8a05-a8dd71a1f854","system_id":"levelo_inurba_marseille","lat":43.284462,"lon":5.392121,"is_reserved":false,"is_disabled":false,"rental_uris":{"android":"levelo://app?vid=5cb816ca-e9a6-4433-8a05-a8dd71a1f854","ios":"levelo://app?vid=5cb816ca-e9a6-4433-8a05-a8dd71a1f854"},"vehicle_type_id":"4","last_reported":1691856421,"current_range_meters":18400,"station_id":"ce4bhoh2rcd13ifvqh5g","pricing_plan_id":"free"},{"bike_id":"a0f258ed-ced3-412c-a3a0-592502c28464","system_id":"levelo_inurba_marseille","lat":43.32661,"lon":5.40929,"is_reserved":false,"is_disabled":false,"rental_uris":{"android":"levelo://app?vid=a0f258ed-ced3-412c-a3a0-592502c28464","ios":"levelo://app?vid=a0f258ed-ced3-412c-a3a0-592502c28464"},"vehicle_type_id":"4","last_reported":1691856421,"current_range_meters":15200,"station_id":"","pricing_plan_id":"free"},{"bike_id":"482fc622-e271-488a-83f0-3334b6aee62d","system_id":"levelo_inurba_marseille","lat":43.3266,"lon":5.40983,"is_reserved":false,"is_disabled":false,"rental_uris":{"android":"levelo://app?vid=482fc622-e271-488a-83f0-3334b6aee62d","ios":"levelo://app?vid=482fc622-e271-488a-83f0-3334b6aee62d"},"vehicle_type_id":"4","last_reported":1691856421,"current_range_meters":31200,"station_id":"ce4bhpp2rcd13ifvqhgg","pricing_plan_id":"free"},{"bike_id":"a198a2b7-0bb3-43a3-a883-3f9fd89f016e","system_id":"levelo_inurba_marseille","lat":43.32662,"lon":5.40984,"is_reserved":false,"is_disabled":false,"rental_uris":{"android":"levelo://app?vid=a198a2b7-0bb3-43a3-a883-3f9fd89f016e","ios":"levelo://app?vid=a198a2b7-0bb3-43a3-a883-3f9fd89f016e"},"vehicle_type_id":"4","last_reported":1691856421,"current_range_meters":30800,"station_id":"ce4bhpp2rcd13ifvqhgg","pricing_plan_id":"free"},{"bike_id":"338897be-2ef3-4769-b926-4ebf115f9f86","system_id":"levelo_inurba_marseille","lat":43.32659,"lon":5.40988,"is_reserved":false,"is_disabled":false,"rental_uris":{"android":"levelo://app?vid=338897be-2ef3-4769-b926-4ebf115f9f86","ios":"levelo://app?vid=338897be-2ef3-4769-b926-4ebf115f9f86"},"vehicle_type_id":"4","last_reported":1691856421,"current_range_meters":22800,"station_id":"ce4bhpp2rcd13ifvqhgg","pricing_plan_id":"free"},{"bike_id":"17871fac-3496-4a57-be8e-0acb60dc3de5","system_id":"levelo_inurba_marseille","lat":43.32663,"lon":5.40989,"is_reserved":false,"is_disabled":false,"rental_uris":{"android":"levelo://app?vid=17871fac-3496-4a57-be8e-0acb60dc3de5","ios":"levelo://app?vid=17871fac-3496-4a57-be8e-0acb60dc3de5"},"vehicle_type_id":"4","last_reported":1691856421,"current_range_meters":31200,"station_id":"ce4bhpp2rcd13ifvqhgg","pricing_plan_id":"free"},{"bike_id":"1c14edb4-41c5-4b75-ba63-7b8ce648a4b7","system_id":"levelo_inurba_marseille","lat":43.32661,"lon":5.40991,"is_reserved":false,"is_disabled":false,"rental_uris":{"android":"levelo://app?vid=1c14edb4-41c5-4b75-ba63-7b8ce648a4b7","ios":"levelo://app?vid=1c14edb4-41c5-4b75-ba63-7b8ce648a4b7"},"vehicle_type_id":"4","last_reported":1691856421,"current_range_meters":30000,"station_id":"ce4bhpp2rcd13ifvqhgg","pricing_plan_id":"free"},{"bike_id":"7d20c6f9-54b3-482c-9f46-2975184da393","system_id":"levelo_inurba_marseille","lat":43.32658,"lon":5.40996,"is_reserved":false,"is_disabled":false,"rental_uris":{"android":"levelo://app?vid=7d20c6f9-54b3-482c-9f46-2975184da393","ios":"levelo://app?vid=7d20c6f9-54b3-482c-9f46-2975184da393"},"vehicle_type_id":"4","last_reported":1691856421,"current_range_meters":9600,"station_id":"ce4bhpp2rcd13ifvqhgg","pricing_plan_id":"free"},{"bike_id":"f1a80c81-32ab-41ea-80dd-001891b9c055","system_id":"levelo_inurba_marseille","lat":43.304188,"lon":5.412904,"is_reserved":false,"is_disabled":false,"rental_uris":{"android":"levelo://app?vid=f1a80c81-32ab-41ea-80dd-001891b9c055","ios":"levelo://app?vid=f1a80c81-32ab-41ea-80dd-001891b9c055"},"vehicle_type_id":"4","last_reported":1691856421,"current_range_meters":31600,"station_id":"ce4bhop2rcd13ifvqh8g","pricing_plan_id":"free"},{"bike_id":"738d49be-9570-4611-a11f-7d3113a06ee9","system_id":"levelo_inurba_marseille","lat":43.33192,"lon":5.4066,"is_reserved":false,"is_disabled":false,"rental_uris":{"android":"levelo://app?vid=738d49be-9570-4611-a11f-7d3113a06ee9","ios":"levelo://app?vid=738d49be-9570-4611-a11f-7d3113a06ee9"},"vehicle_type_id":"4","last_reported":1691856421,"current_range_meters":31200,"station_id":"","pricing_plan_id":"free"},{"bike_id":"ad4c3f02-ab6e-4106-8da8-3f97d3ce1dd2","system_id":"levelo_inurba_marseille","lat":43.279087,"lon":5.380114,"is_reserved":false,"is_disabled":false,"rental_uris":{"android":"levelo://app?vid=ad4c3f02-ab6e-4106-8da8-3f97d3ce1dd2","ios":"levelo://app?vid=ad4c3f02-ab6e-4106-8da8-3f97d3ce1dd2"},"vehicle_type_id":"4","last_reported":1691856421,"current_range_meters":26800,"station_id":"ce4bhf92rcd13ifvqf50","pricing_plan_id":"free"},{"bike_id":"7d8fedff-ae19-4890-a731-e9a0eec901fa","system_id":"levelo_inurba_marseille","lat":43.279087,"lon":5.380114,"is_reserved":false,"is_disabled":false,"rental_uris":{"android":"levelo://app?vid=7d8fedff-ae19-4890-a731-e9a0eec901fa","ios":"levelo://app?vid=7d8fedff-ae19-4890-a731-e9a0eec901fa"},"vehicle_type_id":"4","last_reported":1691856421,"current_range_meters":26000,"station_id":"ce4bhf92rcd13ifvqf50","pricing_plan_id":"free"},{"bike_id":"2ec1a3ae-43c9-405f-a1e1-b78ee0392aa4","system_id":"levelo_inurba_marseille","lat":43.33255,"lon":5.40685,"is_reserved":false,"is_disabled":false,"rental_uris":{"android":"levelo://app?vid=2ec1a3ae-43c9-405f-a1e1-b78ee0392aa4","ios":"levelo://app?vid=2ec1a3ae-43c9-405f-a1e1-b78ee0392aa4"},"vehicle_type_id":"4","last_reported":1691856421,"current_range_meters":4800,"station_id":"","pricing_plan_id":"free"},{"bike_id":"897014e0-5f5e-412d-97e8-3d8d4cf1982d","system_id":"levelo_inurba_marseille","lat":43.29965,"lon":5.41297,"is_reserved":false,"is_disabled":false,"rental_uris":{"android":"levelo://app?vid=897014e0-5f5e-412d-97e8-3d8d4cf1982d","ios":"levelo://app?vid=897014e0-5f5e-412d-97e8-3d8d4cf1982d"},"vehicle_type_id":"4","last_reported":1691856421,"current_range_meters":16400,"station_id":"ce4bhp12rcd13ifvqh9g","pricing_plan_id":"free"},{"bike_id":"1ea7b9ab-3639-49c4-a737-1fd9e86ec593","system_id":"levelo_inurba_marseille","lat":43.320045,"lon":5.415046,"is_reserved":false,"is_disabled":false,"rental_uris":{"android":"levelo://app?vid=1ea7b9ab-3639-49c4-a737-1fd9e86ec593","ios":"levelo://app?vid=1ea7b9ab-3639-49c4-a737-1fd9e86ec593"},"vehicle_type_id":"4","last_reported":1691856421,"current_range_meters":29600,"station_id":"ce4bhq92rcd13ifvqhkg","pricing_plan_id":"free"},{"bike_id":"e4f9a437-6ca5-4da4-840c-d25c9d1cda9b","system_id":"levelo_inurba_marseille","lat":43.320045,"lon":5.415048,"is_reserved":false,"is_disabled":false,"rental_uris":{"android":"levelo://app?vid=e4f9a437-6ca5-4da4-840c-d25c9d1cda9b","ios":"levelo://app?vid=e4f9a437-6ca5-4da4-840c-d25c9d1cda9b"},"vehicle_type_id":"4","last_reported":1691856421,"current_range_meters":7600,"station_id":"ce4bhq92rcd13ifvqhkg","pricing_plan_id":"free"},{"bike_id":"1446472a-b0a2-48eb-b40b-2a3827f06d4e","system_id":"levelo_inurba_marseille","lat":43.279742,"lon":5.38744,"is_reserved":false,"is_disabled":false,"rental_uris":{"android":"levelo://app?vid=1446472a-b0a2-48eb-b40b-2a3827f06d4e","ios":"levelo://app?vid=1446472a-b0a2-48eb-b40b-2a3827f06d4e"},"vehicle_type_id":"4","last_reported":1691856421,"current_range_meters":5200,"station_id":"ce4bhg12rcd13ifvqf80","pricing_plan_id":"free"},{"bike_id":"a91a698d-512d-427a-9b4a-f7a33d5144dc","system_id":"levelo_inurba_marseille","lat":43.320045,"lon":5.415046,"is_reserved":false,"is_disabled":false,"rental_uris":{"android":"levelo://app?vid=a91a698d-512d-427a-9b4a-f7a33d5144dc","ios":"levelo://app?vid=a91a698d-512d-427a-9b4a-f7a33d5144dc"},"vehicle_type_id":"4","last_reported":1691856421,"current_range_meters":31600,"station_id":"ce4bhq92rcd13ifvqhkg","pricing_plan_id":"free"},{"bike_id":"c327718a-8fe6-4791-a349-aba0f8f94e82","system_id":"levelo_inurba_marseille","lat":43.279742,"lon":5.38744,"is_reserved":false,"is_disabled":false,"rental_uris":{"android":"levelo://app?vid=c327718a-8fe6-4791-a349-aba0f8f94e82","ios":"levelo://app?vid=c327718a-8fe6-4791-a349-aba0f8f94e82"},"vehicle_type_id":"4","last_reported":1691856421,"current_range_meters":29200,"station_id":"ce4bhg12rcd13ifvqf80","pricing_plan_id":"free"},{"bike_id":"b1fafdfa-1ecc-42bb-b88b-8147e74dea10","system_id":"levelo_inurba_marseille","lat":43.320045,"lon":5.415048,"is_reserved":false,"is_disabled":false,"rental_uris":{"android":"levelo://app?vid=b1fafdfa-1ecc-42bb-b88b-8147e74dea10","ios":"levelo://app?vid=b1fafdfa-1ecc-42bb-b88b-8147e74dea10"},"vehicle_type_id":"4","last_reported":1691856421,"current_range_meters":5200,"station_id":"ce4bhq92rcd13ifvqhkg","pricing_plan_id":"free"},{"bike_id":"89b42c33-8055-4436-aa07-f8cbe76d5147","system_id":"levelo_inurba_marseille","lat":43.279742,"lon":5.38744,"is_reserved":false,"is_disabled":false,"rental_uris":{"android":"levelo://app?vid=89b42c33-8055-4436-aa07-f8cbe76d5147","ios":"levelo://app?vid=89b42c33-8055-4436-aa07-f8cbe76d5147"},"vehicle_type_id":"4","last_reported":1691856421,"current_range_meters":0,"station_id":"ce4bhg12rcd13ifvqf80","pricing_plan_id":"free"},{"bike_id":"d884478b-aa48-418f-9b14-d7b9d6a07462","system_id":"levelo_inurba_marseille","lat":43.32539,"lon":5.41422,"is_reserved":false,"is_disabled":false,"rental_uris":{"android":"levelo://app?vid=d884478b-aa48-418f-9b14-d7b9d6a07462","ios":"levelo://app?vid=d884478b-aa48-418f-9b14-d7b9d6a07462"},"vehicle_type_id":"4","last_reported":1691856421,"current_range_meters":27200,"station_id":"ce4bhq12rcd13ifvqhhg","pricing_plan_id":"free"},{"bike_id":"0afb30fc-26d7-4a64-9586-f9b0152b0c07","system_id":"levelo_inurba_marseille","lat":43.325233,"lon":5.414318,"is_reserved":false,"is_disabled":false,"rental_uris":{"android":"levelo://app?vid=0afb30fc-26d7-4a64-9586-f9b0152b0c07","ios":"levelo://app?vid=0afb30fc-26d7-4a64-9586-f9b0152b0c07"},"vehicle_type_id":"4","last_reported":1691856421,"current_range_meters":0,"station_id":"ce4bhq12rcd13ifvqhhg","pricing_plan_id":"free"},{"bike_id":"a906beed-32d8-4893-a3de-4317b149b163","system_id":"levelo_inurba_marseille","lat":43.27622,"lon":5.36115,"is_reserved":false,"is_disabled":false,"rental_uris":{"android":"levelo://app?vid=a906beed-32d8-4893-a3de-4317b149b163","ios":"levelo://app?vid=a906beed-32d8-4893-a3de-4317b149b163"},"vehicle_type_id":"4","last_reported":1691856421,"current_range_meters":13200,"station_id":"ce4bgj92rcd13ifvqbe0","pricing_plan_id":"free"},{"bike_id":"1e242145-38eb-4938-a6df-bbfde5080df8","system_id":"levelo_inurba_marseille","lat":43.276226,"lon":5.361056,"is_reserved":false,"is_disabled":false,"rental_uris":{"android":"levelo://app?vid=1e242145-38eb-4938-a6df-bbfde5080df8","ios":"levelo://app?vid=1e242145-38eb-4938-a6df-bbfde5080df8"},"vehicle_type_id":"4","last_reported":1691856421,"current_range_meters":31200,"station_id":"ce4bgj92rcd13ifvqbe0","pricing_plan_id":"free"},{"bike_id":"943769f9-a886-4e1f-9bdb-6e3dcb455cf2","system_id":"levelo_inurba_marseille","lat":43.276221,"lon":5.361087,"is_reserved":false,"is_disabled":false,"rental_uris":{"android":"levelo://app?vid=943769f9-a886-4e1f-9bdb-6e3dcb455cf2","ios":"levelo://app?vid=943769f9-a886-4e1f-9bdb-6e3dcb455cf2"},"vehicle_type_id":"4","last_reported":1691856421,"current_range_meters":12000,"station_id":"ce4bgj92rcd13ifvqbe0","pricing_plan_id":"free"},{"bike_id":"0445e4e4-8a31-49ac-92dd-e5da4c6d2732","system_id":"levelo_inurba_marseille","lat":43.276208,"lon":5.361102,"is_reserved":false,"is_disabled":false,"rental_uris":{"android":"levelo://app?vid=0445e4e4-8a31-49ac-92dd-e5da4c6d2732","ios":"levelo://app?vid=0445e4e4-8a31-49ac-92dd-e5da4c6d2732"},"vehicle_type_id":"4","last_reported":1691856421,"current_range_meters":7200,"station_id":"ce4bgj92rcd13ifvqbe0","pricing_plan_id":"free"},{"bike_id":"22291eca-5e9e-489a-9817-d15b56f3bb32","system_id":"levelo_inurba_marseille","lat":43.27618,"lon":5.3611,"is_reserved":false,"is_disabled":false,"rental_uris":{"android":"levelo://app?vid=22291eca-5e9e-489a-9817-d15b56f3bb32","ios":"levelo://app?vid=22291eca-5e9e-489a-9817-d15b56f3bb32"},"vehicle_type_id":"4","last_reported":1691856421,"current_range_meters":31200,"station_id":"ce4bgj92rcd13ifvqbe0","pricing_plan_id":"free"},{"bike_id":"386ed8e3-b71e-4f68-86af-202c5b76503e","system_id":"levelo_inurba_marseille","lat":43.276179,"lon":5.361009,"is_reserved":false,"is_disabled":false,"rental_uris":{"android":"levelo://app?vid=386ed8e3-b71e-4f68-86af-202c5b76503e","ios":"levelo://app?vid=386ed8e3-b71e-4f68-86af-202c5b76503e"},"vehicle_type_id":"4","last_reported":1691856421,"current_range_meters":23600,"station_id":"ce4bgj92rcd13ifvqbe0","pricing_plan_id":"free"},{"bike_id":"63f55d30-8374-428b-aa89-4fcbd704c0bc","system_id":"levelo_inurba_marseille","lat":43.280784,"lon":5.396622,"is_reserved":false,"is_disabled":false,"rental_uris":{"android":"levelo://app?vid=63f55d30-8374-428b-aa89-4fcbd704c0bc","ios":"levelo://app?vid=63f55d30-8374-428b-aa89-4fcbd704c0bc"},"vehicle_type_id":"4","last_reported":1691856421,"current_range_meters":19200,"station_id":"ce4bho12rcd13ifvqh2g","pricing_plan_id":"free"},{"bike_id":"882a7780-f435-4322-bcdc-535c99b4e433","system_id":"levelo_inurba_marseille","lat":43.280784,"lon":5.396622,"is_reserved":false,"is_disabled":false,"rental_uris":{"android":"levelo://app?vid=882a7780-f435-4322-bcdc-535c99b4e433","ios":"levelo://app?vid=882a7780-f435-4322-bcdc-535c99b4e433"},"vehicle_type_id":"4","last_reported":1691856421,"current_range_meters":8800,"station_id":"ce4bho12rcd13ifvqh2g","pricing_plan_id":"free"},{"bike_id":"e054d7f3-9372-409e-9f0c-ac68b3331341","system_id":"levelo_inurba_marseille","lat":43.303837,"lon":5.418724,"is_reserved":false,"is_disabled":false,"rental_uris":{"android":"levelo://app?vid=e054d7f3-9372-409e-9f0c-ac68b3331341","ios":"levelo://app?vid=e054d7f3-9372-409e-9f0c-ac68b3331341"},"vehicle_type_id":"4","last_reported":1691856421,"current_range_meters":24000,"station_id":"ce4bhop2rcd13ifvqh7g","pricing_plan_id":"free"},{"bike_id":"df9cb19a-be75-406e-957d-03a8696c64f6","system_id":"levelo_inurba_marseille","lat":43.303837,"lon":5.418724,"is_reserved":false,"is_disabled":false,"rental_uris":{"android":"levelo://app?vid=df9cb19a-be75-406e-957d-03a8696c64f6","ios":"levelo://app?vid=df9cb19a-be75-406e-957d-03a8696c64f6"},"vehicle_type_id":"4","last_reported":1691856421,"current_range_meters":26400,"station_id":"ce4bhop2rcd13ifvqh7g","pricing_plan_id":"free"},{"bike_id":"aff69be1-a847-4f7b-a980-55029684bd60","system_id":"levelo_inurba_marseille","lat":43.2784,"lon":5.39199,"is_reserved":false,"is_disabled":false,"rental_uris":{"android":"levelo://app?vid=aff69be1-a847-4f7b-a980-55029684bd60","ios":"levelo://app?vid=aff69be1-a847-4f7b-a980-55029684bd60"},"vehicle_type_id":"4","last_reported":1691856421,"current_range_meters":16800,"station_id":"","pricing_plan_id":"free"},{"bike_id":"82b97d4b-7d6f-46b6-8859-fff29ba54af7","system_id":"levelo_inurba_marseille","lat":43.278399,"lon":5.392139,"is_reserved":false,"is_disabled":false,"rental_uris":{"android":"levelo://app?vid=82b97d4b-7d6f-46b6-8859-fff29ba54af7","ios":"levelo://app?vid=82b97d4b-7d6f-46b6-8859-fff29ba54af7"},"vehicle_type_id":"4","last_reported":1691856421,"current_range_meters":26400,"station_id":"ce4bhjp2rcd13ifvqga0","pricing_plan_id":"free"},{"bike_id":"4b3809a8-6b7b-496b-a514-fb3f077049a9","system_id":"levelo_inurba_marseille","lat":43.27837,"lon":5.39217,"is_reserved":false,"is_disabled":false,"rental_uris":{"android":"levelo://app?vid=4b3809a8-6b7b-496b-a514-fb3f077049a9","ios":"levelo://app?vid=4b3809a8-6b7b-496b-a514-fb3f077049a9"},"vehicle_type_id":"4","last_reported":1691856421,"current_range_meters":25600,"station_id":"","pricing_plan_id":"free"},{"bike_id":"cdbb1529-7eba-439f-b87f-8a5d34181938","system_id":"levelo_inurba_marseille","lat":43.273613,"lon":5.362705,"is_reserved":false,"is_disabled":false,"rental_uris":{"android":"levelo://app?vid=cdbb1529-7eba-439f-b87f-8a5d34181938","ios":"levelo://app?vid=cdbb1529-7eba-439f-b87f-8a5d34181938"},"vehicle_type_id":"4","last_reported":1691856421,"current_range_meters":31600,"station_id":"ce4bhbh2rcd13ifvqeo0","pricing_plan_id":"free"},{"bike_id":"3dc49c32-6c30-4f2f-9fd9-e27b22bed64f","system_id":"levelo_inurba_marseille","lat":43.273613,"lon":5.362705,"is_reserved":false,"is_disabled":false,"rental_uris":{"android":"levelo://app?vid=3dc49c32-6c30-4f2f-9fd9-e27b22bed64f","ios":"levelo://app?vid=3dc49c32-6c30-4f2f-9fd9-e27b22bed64f"},"vehicle_type_id":"4","last_reported":1691856421,"current_range_meters":31600,"station_id":"ce4bhbh2rcd13ifvqeo0","pricing_plan_id":"free"},{"bike_id":"517c122c-07d7-4d68-ab7f-3229323933d4","system_id":"levelo_inurba_marseille","lat":43.273613,"lon":5.362705,"is_reserved":false,"is_disabled":false,"rental_uris":{"android":"levelo://app?vid=517c122c-07d7-4d68-ab7f-3229323933d4","ios":"levelo://app?vid=517c122c-07d7-4d68-ab7f-3229323933d4"},"vehicle_type_id":"4","last_reported":1691856421,"current_range_meters":30400,"station_id":"ce4bhbh2rcd13ifvqeo0","pricing_plan_id":"free"},{"bike_id":"649b3ea9-1552-47ea-9b2d-9f7d63979bcf","system_id":"levelo_inurba_marseille","lat":43.273613,"lon":5.362705,"is_reserved":false,"is_disabled":false,"rental_uris":{"android":"levelo://app?vid=649b3ea9-1552-47ea-9b2d-9f7d63979bcf","ios":"levelo://app?vid=649b3ea9-1552-47ea-9b2d-9f7d63979bcf"},"vehicle_type_id":"4","last_reported":1691856421,"current_range_meters":31600,"station_id":"ce4bhbh2rcd13ifvqeo0","pricing_plan_id":"free"},{"bike_id":"83fca188-9a5c-468a-939a-2560f8582e90","system_id":"levelo_inurba_marseille","lat":43.273613,"lon":5.362705,"is_reserved":false,"is_disabled":false,"rental_uris":{"android":"levelo://app?vid=83fca188-9a5c-468a-939a-2560f8582e90","ios":"levelo://app?vid=83fca188-9a5c-468a-939a-2560f8582e90"},"vehicle_type_id":"4","last_reported":1691856421,"current_range_meters":23200,"station_id":"ce4bhbh2rcd13ifvqeo0","pricing_plan_id":"free"},{"bike_id":"e1419460-4275-40b4-9c6a-743dc2175856","system_id":"levelo_inurba_marseille","lat":43.273613,"lon":5.362705,"is_reserved":false,"is_disabled":false,"rental_uris":{"android":"levelo://app?vid=e1419460-4275-40b4-9c6a-743dc2175856","ios":"levelo://app?vid=e1419460-4275-40b4-9c6a-743dc2175856"},"vehicle_type_id":"4","last_reported":1691856421,"current_range_meters":31600,"station_id":"ce4bhbh2rcd13ifvqeo0","pricing_plan_id":"free"},{"bike_id":"8c61da77-859e-46a0-b01e-e026acd004fb","system_id":"levelo_inurba_marseille","lat":43.273613,"lon":5.362705,"is_reserved":false,"is_disabled":false,"rental_uris":{"android":"levelo://app?vid=8c61da77-859e-46a0-b01e-e026acd004fb","ios":"levelo://app?vid=8c61da77-859e-46a0-b01e-e026acd004fb"},"vehicle_type_id":"4","last_reported":1691856421,"current_range_meters":10800,"station_id":"ce4bhbh2rcd13ifvqeo0","pricing_plan_id":"free"},{"bike_id":"7213b77d-d2b9-4984-a550-35c3d94c1976","system_id":"levelo_inurba_marseille","lat":43.273613,"lon":5.362705,"is_reserved":false,"is_disabled":false,"rental_uris":{"android":"levelo://app?vid=7213b77d-d2b9-4984-a550-35c3d94c1976","ios":"levelo://app?vid=7213b77d-d2b9-4984-a550-35c3d94c1976"},"vehicle_type_id":"4","last_reported":1691856421,"current_range_meters":31200,"station_id":"ce4bhbh2rcd13ifvqeo0","pricing_plan_id":"free"},{"bike_id":"12be962e-af17-4245-9435-55b2dccda7e3","system_id":"levelo_inurba_marseille","lat":43.273609,"lon":5.362708,"is_reserved":false,"is_disabled":false,"rental_uris":{"android":"levelo://app?vid=12be962e-af17-4245-9435-55b2dccda7e3","ios":"levelo://app?vid=12be962e-af17-4245-9435-55b2dccda7e3"},"vehicle_type_id":"4","last_reported":1691856421,"current_range_meters":31200,"station_id":"ce4bhbh2rcd13ifvqeo0","pricing_plan_id":"free"},{"bike_id":"08830e1e-8db4-4e3a-aaa6-410bb22b3f63","system_id":"levelo_inurba_marseille","lat":43.273609,"lon":5.362708,"is_reserved":false,"is_disabled":false,"rental_uris":{"android":"levelo://app?vid=08830e1e-8db4-4e3a-aaa6-410bb22b3f63","ios":"levelo://app?vid=08830e1e-8db4-4e3a-aaa6-410bb22b3f63"},"vehicle_type_id":"4","last_reported":1691856421,"current_range_meters":31600,"station_id":"ce4bhbh2rcd13ifvqeo0","pricing_plan_id":"free"},{"bike_id":"3609a76c-7b47-4ec6-8dc2-f5e16a3f7cb8","system_id":"levelo_inurba_marseille","lat":43.336134,"lon":5.410341,"is_reserved":false,"is_disabled":false,"rental_uris":{"android":"levelo://app?vid=3609a76c-7b47-4ec6-8dc2-f5e16a3f7cb8","ios":"levelo://app?vid=3609a76c-7b47-4ec6-8dc2-f5e16a3f7cb8"},"vehicle_type_id":"4","last_reported":1691856421,"current_range_meters":29600,"station_id":"ce4bhqh2rcd13ifvqhmg","pricing_plan_id":"free"},{"bike_id":"2c002134-e4d2-41d1-b436-28e8e2ea24ca","system_id":"levelo_inurba_marseille","lat":43.276771,"lon":5.388799,"is_reserved":false,"is_disabled":false,"rental_uris":{"android":"levelo://app?vid=2c002134-e4d2-41d1-b436-28e8e2ea24ca","ios":"levelo://app?vid=2c002134-e4d2-41d1-b436-28e8e2ea24ca"},"vehicle_type_id":"4","last_reported":1691856421,"current_range_meters":31600,"station_id":"ce4bhi12rcd13ifvqfo0","pricing_plan_id":"free"},{"bike_id":"baafbc69-8518-4fed-a6bc-f1aebed422b5","system_id":"levelo_inurba_marseille","lat":43.317121,"lon":5.423936,"is_reserved":false,"is_disabled":false,"rental_uris":{"android":"levelo://app?vid=baafbc69-8518-4fed-a6bc-f1aebed422b5","ios":"levelo://app?vid=baafbc69-8518-4fed-a6bc-f1aebed422b5"},"vehicle_type_id":"4","last_reported":1691856421,"current_range_meters":5200,"station_id":"ce4bhp92rcd13ifvqhbg","pricing_plan_id":"free"},