{"last_updated":1761235994,"ttl":60,"version":"2.2","data":{"bikes":[{"bike_id":"662f8089-a31b-4aa5-b867-47e9dbf8895b","system_id":"levelo_inurba_marseille","lat":43.265717,"lon":5.390065,"is_reserved":false,"is_disabled":false,"rental_uris":{"android":"levelo://app?vid=662f8089-a31b-4aa5-b867-47e9dbf8895b","ios":"levelo://app?vid=662f8089-a31b-4aa5-b867-47e9dbf8895b"},"vehicle_type_id":"4","last_reported":1761235994,"current_range_meters":2800,"station_id":"ce4bgl12rcd13ifvqbo0","pricing_plan_id":"cebpf4jnsgd1na2vs0mg"},{"bike_id":"da3c5d5d-639d-4a11-88e1-f7b9c2ad220a","system_id":"levelo_inurba_marseille","lat":43.317079,"lon":5.377776,"is_reserved":false,"is_disabled":true,"rental_uris":{"android":"levelo://app?vid=da3c5d5d-639d-4a11-88e1-f7b9c2ad220a","ios":"levelo://app?vid=da3c5d5d-639d-4a11-88e1-f7b9c2ad220a"},"vehicle_type_id":"4","last_reported":1761235994,"current_range_meters":2800,"station_id":"ce4bgth2rcd13ifvqch0","pricing_plan_id":"cebpf4jnsgd1na2vs0mg"},{"bike_id":"7a944e42-ad5c-406d-9569-55cb8707377f","system_id":"levelo_inurba_marseille","lat":43.25129,"lon":5.40329,"is_reserved":false,"is_disabled":false,"rental_uris":{"android":"levelo://app?vid=7a944e42-ad5c-406d-9569-55cb8707377f","ios":"levelo://app?vid=7a944e42-ad5c-406d-9569-55cb8707377f"},"vehicle_type_id":"4","last_reported":1761235994,"current_range_meters":2800,"station_id":"ce4bhlh2rcd13ifvqgig","pricing_plan_id":"cebpf4jnsgd1na2vs0mg"},{"bike_id":"443600a1-f562-46ec-bebd-31a593db7dac","system_id":"levelo_inurba_marseille","lat":43.29804,"lon":5.40395,"is_reserved":false,"is_disabled":false,"rental_uris":{"android":"levelo://app?vid=443600a1-f562-46ec-bebd-31a593db7dac","ios":"levelo://app?vid=443600a1-f562-46ec-bebd-31a593db7dac"},"vehicle_type_id":"4","last_reported":1761235994,"current_range_meters":3200,"station_id":"ce4bh112rcd13ifvqd90","pricing_plan_id":"cebpf4jnsgd1na2vs0mg"},{"bike_id":"e944dc19-1e51-4e53-8a18-09ef1468b960","system_id":"levelo_inurba_marseille","lat":43.274379,"lon":5.3943,"is_reserved":false,"is_disabled":false,"rental_uris":{"android":"levelo://app?vid=e944dc19-1e51-4e53-8a18-09ef1468b960","ios":"levelo://app?vid=e944dc19-1e51-4e53-8a18-09ef1468b960"},"vehicle_type_id":"4","last_reported":1761235994,"current_range_meters":3200,"station_id":"ce4bhdp2rcd13ifvqf20","pricing_plan_id":"cebpf4jnsgd1na2vs0mg"},{"bike_id":"944d31cb-0eda-411d-b30f-ab77405b0bfc","system_id":"levelo_inurba_marseille","lat":43.295709,"lon":5.399731,"is_reserved":false,"is_disabled":false,"rental_uris":{"android":"levelo://app?vid=944d31cb-0eda-411d-b30f-ab77405b0bfc","ios":"levelo://app?vid=944d31cb-0eda-411d-b30f-ab77405b0bfc"},"vehicle_type_id":"4","last_reported":1761235994,"current_range_meters":3200,"station_id":"ce4bh312rcd13ifvqdj0","pricing_plan_id":"cebpf4jnsgd1na2vs0mg"},{"bike_id":"4cd0b1ff-d707-40f0-a3b2-bf43000347cd","system_id":"levelo_inurba_marseille","lat":43.25086,"lon":5.39523,"is_reserved":false,"is_disabled":false,"rental_uris":{"android":"levelo://app?vid=4cd0b1ff-d707-40f0-a3b2-bf43000347cd","ios":"levelo://app?vid=4cd0b1ff-d707-40f0-a3b2-bf43000347cd"},"vehicle_type_id":"4","last_reported":1761235994,"current_range_meters":3600,"station_id":"ce4bhm12rcd13ifvqgkg","pricing_plan_id":"cebpf4jnsgd1na2vs0mg"},{"bike_id":"d166e7b1-87dd-42ed-9780-4d361a548021","system_id":"levelo_inurba_marseille","lat":43.28666,"lon":5.36356,"is_reserved":false,"is_disabled":false,"rental_uris":{"android":"levelo://app?vid=d166e7b1-87dd-42ed-9780-4d361a548021","ios":"levelo://app?vid=d166e7b1-87dd-42ed-9780-4d361a548021"},"vehicle_type_id":"4","last_reported":1761235994,"current_range_meters":3600,"station_id":"ce4bhah2rcd13ifvqej0","pricing_plan_id":"cebpf4jnsgd1na2vs0mg"},{"bike_id":"2a2c060f-bd93-4daf-bc4a-7d006bafecf6","system_id":"levelo_inurba_marseille","lat":43.25869,"lon":5.39896,"is_reserved":false,"is_disabled":false,"rental_uris":{"android":"levelo://app?vid=2a2c060f-bd93-4daf-bc4a-7d006bafecf6","ios":"levelo://app?vid=2a2c060f-bd93-4daf-bc4a-7d006bafecf6"},"vehicle_type_id":"4","last_reported":1761235994,"current_range_meters":4000,"station_id":"ce4bhl92rcd13ifvqghg","pricing_plan_id":"cebpf4jnsgd1na2vs0mg"},{"bike_id":"c04901e7-917f-40af-9de2-5fe148a9ff9d","system_id":"levelo_inurba_marseille","lat":43.29302,"lon":5.37169,"is_reserved":false,"is_disabled":false,"rental_uris":{"android":"levelo://app?vid=c04901e7-917f-40af-9de2-5fe148a9ff9d","ios":"levelo://app?vid=c04901e7-917f-40af-9de2-5fe148a9ff9d"},"vehicle_type_id":"4","last_reported":1761235994,"current_range_meters":4000,"station_id":"ce4bgh92rcd13ifvqb40","pricing_plan_id":"cebpf4jnsgd1na2vs0mg"},{"bike_id":"e333b5ba-b191-4614-a3e3-9bf15e4eed81","system_id":"levelo_inurba_marseille","lat":43.290253,"lon":5.386467,"is_reserved":false,"is_disabled":false,"rental_uris":{"android":"levelo://app?vid=e333b5ba-b191-4614-a3e3-9bf15e4eed81","ios":"levelo://app?vid=e333b5ba-b191-4614-a3e3-9bf15e4eed81"},"vehicle_type_id":"4","last_reported":1761235994,"current_range_meters":4000,"station_id":"ce4bh4p2rcd13ifvqe0g","pricing_plan_id":"cebpf4jnsgd1na2vs0mg"},{"bike_id":"f8ed5907-138c-40de-b2c5-4b1ca0e5626c","system_id":"levelo_inurba_marseille","lat":43.33055,"lon":5.37656,"is_reserved":false,"is_disabled":false,"rental_uris":{"android":"levelo://app?vid=f8ed5907-138c-40de-b2c5-4b1ca0e5626c","ios":"levelo://app?vid=f8ed5907-138c-40de-b2c5-4b1ca0e5626c"},"vehicle_type_id":"4","last_reported":1761235994,"current_range_meters":4000,"station_id":"","pricing_plan_id":"cebpf4jnsgd1na2vs0mg"},{"bike_id":"ac1df8dc-41e5-4954-977f-6f21ed12d11a","system_id":"levelo_inurba_marseille","lat":43.21766,"lon":5.34593,"is_reserved":false,"is_disabled":false,"rental_uris":{"android":"levelo://app?vid=ac1df8dc-41e5-4954-977f-6f21ed12d11a","ios":"levelo://app?vid=ac1df8dc-41e5-4954-977f-6f21ed12d11a"},"vehicle_type_id":"4","last_reported":1761235994,"current_range_meters":4400,"station_id":"st_cvj6r9ubvosntc0bgbag","pricing_plan_id":"cebpf4jnsgd1na2vs0mg"},{"bike_id":"2abcce08-a70b-4c2b-8c18-a47536223671","system_id":"levelo_inurba_marseille","lat":43.279109,"lon":5.395924,"is_reserved":false,"is_disabled":false,"rental_uris":{"android":"levelo://app?vid=2abcce08-a70b-4c2b-8c18-a47536223671","ios":"levelo://app?vid=2abcce08-a70b-4c2b-8c18-a47536223671"},"vehicle_type_id":"4","last_reported":1761235994,"current_range_meters":4800,"station_id":"ce4bhn92rcd13ifvqgsg","pricing_plan_id":"cebpf4jnsgd1na2vs0mg"},{"bike_id":"46c10fc0-8ad4-4000-97c7-23a972d67189","system_id":"levelo_inurba_marseille","lat":43.28934,"lon":5.36641,"is_reserved":false,"is_disabled":false,"rental_uris":{"android":"levelo://app?vid=46c10fc0-8ad4-4000-97c7-23a972d67189","ios":"levelo://app?vid=46c10fc0-8ad4-4000-97c7-23a972d67189"},"vehicle_type_id":"4","last_reported":1761235994,"current_range_meters":4800,"station_id":"ce4bhap2rcd13ifvqek0","pricing_plan_id":"cebpf4jnsgd1na2vs0mg"},{"bike_id":"e79d40a3-f3f9-46d4-8420-e5f59bacbd26","system_id":"levelo_inurba_marseille","lat":43.2378,"lon":5.3664,"is_reserved":false,"is_disabled":false,"rental_uris":{"android":"levelo://app?vid=e79d40a3-f3f9-46d4-8420-e5f59bacbd26","ios":"levelo://app?vid=e79d40a3-f3f9-46d4-8420-e5f59bacbd26"},"vehicle_type_id":"4","last_reported":1761235994,"current_range_meters":4800,"station_id":"st_d3nk18o9ro0c73en2l3g","pricing_plan_id":"cebpf4jnsgd1na2vs0mg"},{"bike_id":"6665c1e8-1f0f-402b-8f71-557b78104323","system_id":"levelo_inurba_marseille","lat":43.32043,"lon":5.415636,"is_reserved":false,"is_disabled":false,"rental_uris":{"android":"levelo://app?vid=6665c1e8-1f0f-402b-8f71-557b78104323","ios":"levelo://app?vid=6665c1e8-1f0f-402b-8f71-557b78104323"},"vehicle_type_id":"4","last_reported":1761235994,"current_range_meters":4800,"station_id":"ce4bhq92rcd13ifvqhkg","pricing_plan_id":"cebpf4jnsgd1na2vs0mg"},{"bike_id":"2c99278e-9d41-4157-9e6b-6b8313d506a8","system_id":"levelo_inurba_marseille","lat":43.25,"lon":5.3893,"is_reserved":false,"is_disabled":false,"rental_uris":{"android":"levelo://app?vid=2c99278e-9d41-4157-9e6b-6b8313d506a8","ios":"levelo://app?vid=2c99278e-9d41-4157-9e6b-6b8313d506a8"},"vehicle_type_id":"4","last_reported":1761235994,"current_range_meters":4800,"station_id":"ce4bhgp2rcd13ifvqfd0","pricing_plan_id":"cebpf4jnsgd1na2vs0mg"},{"bike_id":"647f4a54-59fc-452c-ab8d-b80c978e4cde","system_id":"levelo_inurba_marseille","lat":43.29758,"lon":5.42784,"is_reserved":false,"is_disabled":false,"rental_uris":{"android":"levelo://app?vid=647f4a54-59fc-452c-ab8d-b80c978e4cde","ios":"levelo://app?vid=647f4a54-59fc-452c-ab8d-b80c978e4cde"},"vehicle_type_id":"4","last_reported":1761235994,"current_range_meters":5600,"station_id":"st_d3md5207bmas73dh9klg","pricing_plan_id":"cebpf4jnsgd1na2vs0mg"},{"bike_id":"2b25520a-8c37-49c9-bbea-a824f999b25f","system_id":"levelo_inurba_marseille","lat":43.28077,"lon":5.39664,"is_reserved":false,"is_disabled":false,"rental_uris":{"android":"levelo://app?vid=2b25520a-8c37-49c9-bbea-a824f999b25f","ios":"levelo://app?vid=2b25520a-8c37-49c9-bbea-a824f999b25f"},"vehicle_type_id":"4","last_reported":1761235994,"current_range_meters":5600,"station_id":"ce4bho12rcd13ifvqh2g","pricing_plan_id":"cebpf4jnsgd1na2vs0mg"},{"bike_id":"02f7835e-8895-43db-bc46-dc0659a292d5","system_id":"levelo_inurba_marseille","lat":43.29331,"lon":5.3707,"is_reserved":false,"is_disabled":false,"rental_uris":{"android":"levelo://app?vid=02f7835e-8895-43db-bc46-dc0659a292d5","ios":"levelo://app?vid=02f7835e-8895-43db-bc46-dc0659a292d5"},"vehicle_type_id":"4","last_reported":1761235994,"current_range_meters":5600,"station_id":"","pricing_plan_id":"cebpf4jnsgd1na2vs0mg"},{"bike_id":"de638e44-e775-4594-ad7c-8da6d93ef5bd","system_id":"levelo_inurba_marseille","lat":43.29312,"lon":5.37164,"is_reserved":false,"is_disabled":false,"rental_uris":{"android":"levelo://app?vid=de638e44-e775-4594-ad7c-8da6d93ef5bd","ios":"levelo://app?vid=de638e44-e775-4594-ad7c-8da6d93ef5bd"},"vehicle_type_id":"4","last_reported":1761235994,"current_range_meters":5600,"station_id":"ce4bgh92rcd13ifvqb40","pricing_plan_id":"cebpf4jnsgd1na2vs0mg"},{"bike_id":"c0fb3b97-6910-4584-9e3f-e2884717e135","system_id":"levelo_inurba_marseille","lat":43.28098,"lon":5.37855,"is_reserved":false,"is_disabled":false,"rental_uris":{"android":"levelo://app?vid=c0fb3b97-6910-4584-9e3f-e2884717e135","ios":"levelo://app?vid=c0fb3b97-6910-4584-9e3f-e2884717e135"},"vehicle_type_id":"4","last_reported":1761235994,"current_range_meters":5600,"station_id":"ce4bha12rcd13ifvqee0","pricing_plan_id":"cebpf4jnsgd1na2vs0mg"},{"bike_id":"c2db6c3f-e3d1-4cad-a54d-93d685a51b9d","system_id":"levelo_inurba_marseille","lat":43.31333,"lon":5.39695,"is_reserved":false,"is_disabled":false,"rental_uris":{"android":"levelo://app?vid=c2db6c3f-e3d1-4cad-a54d-93d685a51b9d","ios":"levelo://app?vid=c2db6c3f-e3d1-4cad-a54d-93d685a51b9d"},"vehicle_type_id":"4","last_reported":1761235994,"current_range_meters":6400,"station_id":"ce4bgvp2rcd13ifvqcu0","pricing_plan_id":"cebpf4jnsgd1na2vs0mg"},{"bike_id":"73aa676f-a677-41ab-a6df-913e6c3187da","system_id":"levelo_inurba_marseille","lat":43.29578,"lon":5.36761,"is_reserved":false,"is_disabled":false,"rental_uris":{"android":"levelo://app?vid=73aa676f-a677-41ab-a6df-913e6c3187da","ios":"levelo://app?vid=73aa676f-a677-41ab-a6df-913e6c3187da"},"vehicle_type_id":"4","last_reported":1761235994,"current_range_meters":6400,"station_id":"ce4bgph2rcd13ifvqc2g","pricing_plan_id":"cebpf4jnsgd1na2vs0mg"},{"bike_id":"aa128b95-ff60-48c0-b1ec-961b73ee9fe9","system_id":"levelo_inurba_marseille","lat":43.29531,"lon":5.38544,"is_reserved":false,"is_disabled":false,"rental_uris":{"android":"levelo://app?vid=aa128b95-ff60-48c0-b1ec-961b73ee9fe9","ios":"levelo://app?vid=aa128b95-ff60-48c0-b1ec-961b73ee9fe9"},"vehicle_type_id":"4","last_reported":1761235994,"current_range_meters":6400,"station_id":"ce4bgih2rcd13ifvqba0","pricing_plan_id":"cebpf4jnsgd1na2vs0mg"},{"bike_id":"e160c397-fee2-4a8b-b125-aac488c4b4fd","system_id":"levelo_inurba_marseille","lat":43.30378,"lon":5.42487,"is_reserved":false,"is_disabled":false,"rental_uris":{"android":"levelo://app?vid=e160c397-fee2-4a8b-b125-aac488c4b4fd","ios":"levelo://app?vid=e160c397-fee2-4a8b-b125-aac488c4b4fd"},"vehicle_type_id":"4","last_reported":1761235994,"current_range_meters":6800,"station_id":"ce4bhoh2rcd13ifvqh6g","pricing_plan_id":"cebpf4jnsgd1na2vs0mg"},{"bike_id":"e6f4e10e-6d72-487a-8252-3250c4b27f98","system_id":"levelo_inurba_marseille","lat":43.21177,"lon":5.35084,"is_reserved":false,"is_disabled":false,"rental_uris":{"android":"levelo://app?vid=e6f4e10e-6d72-487a-8252-3250c4b27f98","ios":"levelo://app?vid=e6f4e10e-6d72-487a-8252-3250c4b27f98"},"vehicle_type_id":"4","last_reported":1761235994,"current_range_meters":6800,"station_id":"st_cvj6sg6p6f1abm77japg","pricing_plan_id":"cebpf4jnsgd1na2vs0mg"},{"bike_id":"9284d93a-9b08-4b67-aa5a-3a9eb3e24f49","system_id":"levelo_inurba_marseille","lat":43.21754,"lon":5.3461,"is_reserved":false,"is_disabled":false,"rental_uris":{"android":"levelo://app?vid=9284d93a-9b08-4b67-aa5a-3a9eb3e24f49","ios":"levelo://app?vid=9284d93a-9b08-4b67-aa5a-3a9eb3e24f49"},"vehicle_type_id":"4","last_reported":1761235994,"current_range_meters":6800,"station_id":"st_cvj6r9ubvosntc0bgbag","pricing_plan_id":"cebpf4jnsgd1na2vs0mg"},{"bike_id":"ee519e2e-6094-40c9-b95f-4e4202a4dadb","system_id":"levelo_inurba_marseille","lat":43.288483,"lon":5.393946,"is_reserved":false,"is_disabled":false,"rental_uris":{"android":"levelo://app?vid=ee519e2e-6094-40c9-b95f-4e4202a4dadb","ios":"levelo://app?vid=ee519e2e-6094-40c9-b95f-4e4202a4dadb"},"vehicle_type_id":"4","last_reported":1761235994,"current_range_meters":6800,"station_id":"ce4bh2p2rcd13ifvqdi0","pricing_plan_id":"cebpf4jnsgd1na2vs0mg"},{"bike_id":"31a0dc80-1bc3-4ce8-b07f-f57ad91764ce","system_id":"levelo_inurba_marseille","lat":43.29277,"lon":5.36846,"is_reserved":false,"is_disabled":false,"rental_uris":{"android":"levelo://app?vid=31a0dc80-1bc3-4ce8-b07f-f57ad91764ce","ios":"levelo://app?vid=31a0dc80-1bc3-4ce8-b07f-f57ad91764ce"},"vehicle_type_id":"4","last_reported":1761235994,"current_range_meters":6800,"station_id":"ce4bhbp2rcd13ifvqesg","pricing_plan_id":"cebpf4jnsgd1na2vs0mg"},{"bike_id":"02649ab6-934b-4173-b76b-b3a239321d41","system_id":"levelo_inurba_marseille","lat":43.272085,"lon":5.391803,"is_reserved":false,"is_disabled":false,"rental_uris":{"android":"levelo://app?vid=02649ab6-934b-4173-b76b-b3a239321d41","ios":"levelo://app?vid=02649ab6-934b-4173-b76b-b3a239321d41"},"vehicle_type_id":"4","last_reported":1761235994,"current_range_meters":6800,"station_id":"ce4bhhp2rcd13ifvqfm0","pricing_plan_id":"cebpf4jnsgd1na2vs0mg"},{"bike_id":"19a81ba3-8936-468a-9e73-f2451a2dbdad","system_id":"levelo_inurba_marseille","lat":43.29374,"lon":5.37647,"is_reserved":false,"is_disabled":false,"rental_uris":{"android":"levelo://app?vid=19a81ba3-8936-468a-9e73-f2451a2dbdad","ios":"levelo://app?vid=19a81ba3-8936-468a-9e73-f2451a2dbdad"},"vehicle_type_id":"4","last_reported":1761235994,"current_range_meters":6800,"station_id":"","pricing_plan_id":"cebpf4jnsgd1na2vs0mg"},{"bike_id":"3e1fbb52-9d7c-457a-a18c-113cbc58722a","system_id":"levelo_inurba_marseille","lat":43.316079,"lon":5.381767,"is_reserved":false,"is_disabled":false,"rental_uris":{"android":"levelo://app?vid=3e1fbb52-9d7c-457a-a18c-113cbc58722a","ios":"levelo://app?vid=3e1fbb52-9d7c-457a-a18c-113cbc58722a"},"vehicle_type_id":"4","last_reported":1761235994,"current_range_meters":6800,"station_id":"","pricing_plan_id":"cebpf4jnsgd1na2vs0mg"},{"bike_id":"82576c51-8b9b-43eb-aa43-fc4a18c9ea5b","system_id":"levelo_inurba_marseille","lat":43.21745,"lon":5.34611,"is_reserved":false,"is_disabled":false,"rental_uris":{"android":"levelo://app?vid=82576c51-8b9b-43eb-aa43-fc4a18c9ea5b","ios":"levelo://app?vid=82576c51-8b9b-43eb-aa43-fc4a18c9ea5b"},"vehicle_type_id":"4","last_reported":1761235994,"current_range_meters":7200,"station_id":"st_cvj6r9ubvosntc0bgbag","pricing_plan_id":"cebpf4jnsgd1na2vs0mg"},{"bike_id":"ff3ba630-dc04-489c-b422-8721b9ddc862","system_id":"levelo_inurba_marseille","lat":43.29826,"lon":5.37759,"is_reserved":false,"is_disabled":false,"rental_uris":{"android":"levelo://app?vid=ff3ba630-dc04-489c-b422-8721b9ddc862","ios":"levelo://app?vid=ff3ba630-dc04-489c-b422-8721b9ddc862"},"vehicle_type_id":"4","last_reported":1761235994,"current_range_meters":7200,"station_id":"","pricing_plan_id":"cebpf4jnsgd1na2vs0mg"},{"bike_id":"b52931bd-5d04-4c70-944f-afa2837bd4ed","system_id":"levelo_inurba_marseille","lat":43.28005,"lon":5.40019,"is_reserved":false,"is_disabled":false,"rental_uris":{"android":"levelo://app?vid=b52931bd-5d04-4c70-944f-afa2837bd4ed","ios":"levelo://app?vid=b52931bd-5d04-4c70-944f-afa2837bd4ed"},"vehicle_type_id":"4","last_reported":1761235994,"current_range_meters":7200,"station_id":"ce4bho92rcd13ifvqh4g","pricing_plan_id":"cebpf4jnsgd1na2vs0mg"},{"bike_id":"e3fca313-3a33-4c81-b6c3-7285c550ce2c","system_id":"levelo_inurba_marseille","lat":43.21752,"lon":5.34605,"is_reserved":false,"is_disabled":false,"rental_uris":{"android":"levelo://app?vid=e3fca313-3a33-4c81-b6c3-7285c550ce2c","ios":"levelo://app?vid=e3fca313-3a33-4c81-b6c3-7285c550ce2c"},"vehicle_type_id":"4","last_reported":1761235994,"current_range_meters":7200,"station_id":"st_cvj6r9ubvosntc0bgbag","pricing_plan_id":"cebpf4jnsgd1na2vs0mg"},{"bike_id":"16ea86f8-d34c-4222-9d2d-e608ddd6d62e","system_id":"levelo_inurba_marseille","lat":43.337444,"lon":5.374475,"is_reserved":false,"is_disabled":false,"rental_uris":{"android":"levelo://app?vid=16ea86f8-d34c-4222-9d2d-e608ddd6d62e","ios":"levelo://app?vid=16ea86f8-d34c-4222-9d2d-e608ddd6d62e"},"vehicle_type_id":"4","last_reported":1761235994,"current_range_meters":8000,"station_id":"","pricing_plan_id":"cebpf4jnsgd1na2vs0mg"},{"bike_id":"f3efb067-32db-4fd5-a6c7-ed1c6ebbf69d","system_id":"levelo_inurba_marseille","lat":43.21189,"lon":5.350828,"is_reserved":false,"is_disabled":true,"rental_uris":{"android":"levelo://app?vid=f3efb067-32db-4fd5-a6c7-ed1c6ebbf69d","ios":"levelo://app?vid=f3efb067-32db-4fd5-a6c7-ed1c6ebbf69d"},"vehicle_type_id":"4","last_reported":1761235994,"current_range_meters":8000,"station_id":"","pricing_plan_id":"cebpf4jnsgd1na2vs0mg"},{"bike_id":"2087d38d-b561-42de-89f9-544970412313","system_id":"levelo_inurba_marseille","lat":43.265662,"lon":5.40327,"is_reserved":false,"is_disabled":false,"rental_uris":{"android":"levelo://app?vid=2087d38d-b561-42de-89f9-544970412313","ios":"levelo://app?vid=2087d38d-b561-42de-89f9-544970412313"},"vehicle_type_id":"4","last_reported":1761235994,"current_range_meters":8000,"station_id":"ce501612rcd8frsf0b60","pricing_plan_id":"cebpf4jnsgd1na2vs0mg"},{"bike_id":"bde66b9e-c476-48cf-b033-4068551f0bfe","system_id":"levelo_inurba_marseille","lat":43.293162,"lon":5.371536,"is_reserved":false,"is_disabled":false,"rental_uris":{"android":"levelo://app?vid=bde66b9e-c476-48cf-b033-4068551f0bfe","ios":"levelo://app?vid=bde66b9e-c476-48cf-b033-4068551f0bfe"},"vehicle_type_id":"4","last_reported":1761235994,"current_range_meters":8000,"station_id":"","pricing_plan_id":"cebpf4jnsgd1na2vs0mg"},{"bike_id":"37d01fc8-4b4d-4652-a489-1254eb9d4c80","system_id":"levelo_inurba_marseille","lat":43.34076,"lon":5.40411,"is_reserved":false,"is_disabled":false,"rental_uris":{"android":"levelo://app?vid=37d01fc8-4b4d-4652-a489-1254eb9d4c80","ios":"levelo://app?vid=37d01fc8-4b4d-4652-a489-1254eb9d4c80"},"vehicle_type_id":"4","last_reported":1761235994,"current_range_meters":8000,"station_id":"","pricing_plan_id":"cebpf4jnsgd1na2vs0mg"},{"bike_id":"add9591a-f1fd-4356-abf1-d30f0286df32","system_id":"levelo_inurba_marseille","lat":43.26782,"lon":5.39421,"is_reserved":false,"is_disabled":false,"rental_uris":{"android":"levelo://app?vid=add9591a-f1fd-4356-abf1-d30f0286df32","ios":"levelo://app?vid=add9591a-f1fd-4356-abf1-d30f0286df32"},"vehicle_type_id":"4","last_reported":1761235994,"current_range_meters":8400,"station_id":"ce4bhh12rcd13ifvqfg0","pricing_plan_id":"cebpf4jnsgd1na2vs0mg"},{"bike_id":"aa5c39ca-5467-4d85-a1f8-b790dbb0979e","system_id":"levelo_inurba_marseille","lat":43.30696,"lon":5.37368,"is_reserved":false,"is_disabled":false,"rental_uris":{"android":"levelo://app?vid=aa5c39ca-5467-4d85-a1f8-b790dbb0979e","ios":"levelo://app?vid=aa5c39ca-5467-4d85-a1f8-b790dbb0979e"},"vehicle_type_id":"4","last_reported":1761235994,"current_range_meters":8400,"station_id":"","pricing_plan_id":"cebpf4jnsgd1na2vs0mg"},{"bike_id":"561792e9-49b5-4ff8-967c-ab242a0354f8","system_id":"levelo_inurba_marseille","lat":43.30557,"lon":5.36527,"is_reserved":false,"is_disabled":false,"rental_uris":{"android":"levelo://app?vid=561792e9-49b5-4ff8-967c-ab242a0354f8","ios":"levelo://app?vid=561792e9-49b5-4ff8-967c-ab242a0354f8"},"vehicle_type_id":"4","last_reported":1761235994,"current_range_meters":8400,"station_id":"ce4bgs12rcd13ifvqcag","pricing_plan_id":"cebpf4jnsgd1na2vs0mg"},{"bike_id":"9880e93c-d19c-40b1-b34a-e56695334737","system_id":"levelo_inurba_marseille","lat":43.30742,"lon":5.42452,"is_reserved":false,"is_disabled":false,"rental_uris":{"android":"levelo://app?vid=9880e93c-d19c-40b1-b34a-e56695334737","ios":"levelo://app?vid=9880e93c-d19c-40b1-b34a-e56695334737"},"vehicle_type_id":"4","last_reported":1761235994,"current_range_meters":8400,"station_id":"st_cvj6ca6bvosntc0bfgr0","pricing_plan_id":"cebpf4jnsgd1na2vs0mg"},{"bike_id":"fe9933d1-a79e-41df-9a90-67f8a6a725db","system_id":"levelo_inurba_marseille","lat":43.29102,"lon":5.38126,"is_reserved":false,"is_disabled":false,"rental_uris":{"android":"levelo://app?vid=fe9933d1-a79e-41df-9a90-67f8a6a725db","ios":"levelo://app?vid=fe9933d1-a79e-41df-9a90-67f8a6a725db"},"vehicle_type_id":"4","last_reported":1761235994,"current_range_meters":8400,"station_id":"ce4bh512rcd13ifvqe2g","pricing_plan_id":"cebpf4jnsgd1na2vs0mg"},{"bike_id":"f98272e2-777c-44c7-a06c-55a3d2e52bc0","system_id":"levelo_inurba_marseille","lat":43.29547,"lon":5.38549,"is_reserved":false,"is_disabled":false,"rental_uris":{"android":"levelo://app?vid=f98272e2-777c-44c7-a06c-55a3d2e52bc0","ios":"levelo://app?vid=f98272e2-777c-44c7-a06c-55a3d2e52bc0"},"vehicle_type_id":"4","last_reported":1761235994,"current_range_meters":8800,"station_id":"ce4bgih2rcd13ifvqba0","pricing_plan_id":"cebpf4jnsgd1na2vs0mg"},{"bike_id":"840b2d55-07fe-4b44-a027-57eba188cdf7","system_id":"levelo_inurba_marseille","lat":43.28346,"lon":5.38103,"is_reserved":false,"is_disabled":false,"rental_uris":{"android":"levelo://app?vid=840b2d55-07fe-4b44-a027-57eba188cdf7","ios":"levelo://app?vid=840b2d55-07fe-4b44-a027-57eba188cdf7"},"vehicle_type_id":"4","last_reported":1761235994,"current_range_meters":8800,"station_id":"ce4bh412rcd13ifvqdr0","pricing_plan_id":"cebpf4jnsgd1na2vs0mg"},{"bike_id":"3aa8c3e6-230d-4538-ac39-2b944611f536","system_id":"levelo_inurba_marseille","lat":43.31365,"lon":5.36718,"is_reserved":false,"is_disabled":true,"rental_uris":{"android":"levelo://app?vid=3aa8c3e6-230d-4538-ac39-2b944611f536","ios":"levelo://app?vid=3aa8c3e6-230d-4538-ac39-2b944611f536"},"vehicle_type_id":"4","last_reported":1761235994,"current_range_meters":8800,"station_id":"ce4bgr92rcd13ifvqc6g","pricing_plan_id":"cebpf4jnsgd1na2vs0mg"},{"bike_id":"f3c8270c-7463-4749-8f82-f9ba98082521","system_id":"levelo_inurba_marseille","lat":43.29266,"lon":5.37624,"is_reserved":false,"is_disabled":false,"rental_uris":{"android":"levelo://app?vid=f3c8270c-7463-4749-8f82-f9ba98082521","ios":"levelo://app?vid=f3c8270c-7463-4749-8f82-f9ba98082521"},"vehicle_type_id":"4","last_reported":1761235994,"current_range_meters":9200,"station_id":"ce4bgi12rcd13ifvqb80","pricing_plan_id":"cebpf4jnsgd1na2vs0mg"},{"bike_id":"6a662624-d03e-45d5-964b-74ea5f67d032","system_id":"levelo_inurba_marseille","lat":43.31102,"lon":5.3777,"is_reserved":false,"is_disabled":true,"rental_uris":{"android":"levelo://app?vid=6a662624-d03e-45d5-964b-74ea5f67d032","ios":"levelo://app?vid=6a662624-d03e-45d5-964b-74ea5f67d032"},"vehicle_type_id":"4","last_reported":1761235994,"current_range_meters":9200,"station_id":"ce4bgt92rcd13ifvqcg0","pricing_plan_id":"cebpf4jnsgd1na2vs0mg"},{"bike_id":"a74641a8-51db-4909-b514-90bb97160441","system_id":"levelo_inurba_marseille","lat":43.28157,"lon":5.42638,"is_reserved":false,"is_disabled":false,"rental_uris":{"android":"levelo://app?vid=a74641a8-51db-4909-b514-90bb97160441","ios":"levelo://app?vid=a74641a8-51db-4909-b514-90bb97160441"},"vehicle_type_id":"4","last_reported":1761235994,"current_range_meters":9200,"station_id":"ce4bhnh2rcd13ifvqgug","pricing_plan_id":"cebpf4jnsgd1na2vs0mg"},{"bike_id":"1656396b-ce0e-470e-9f40-d432e00c8827","system_id":"levelo_inurba_marseille","lat":43.29595,"lon":5.40505,"is_reserved":false,"is_disabled":false,"rental_uris":{"android":"levelo://app?vid=1656396b-ce0e-470e-9f40-d432e00c8827","ios":"levelo://app?vid=1656396b-ce0e-470e-9f40-d432e00c8827"},"vehicle_type_id":"4","last_reported":1761235994,"current_range_meters":9600,"station_id":"","pricing_plan_id":"cebpf4jnsgd1na2vs0mg"},{"bike_id":"27c51f5b-98a9-4c0b-a92d-4978b89f9b5c","system_id":"levelo_inurba_marseille","lat":43.27402,"lon":5.39408,"is_reserved":false,"is_disabled":false,"rental_uris":{"android":"levelo://app?vid=27c51f5b-98a9-4c0b-a92d-4978b89f9b5c","ios":"levelo://app?vid=27c51f5b-98a9-4c0b-a92d-4978b89f9b5c"},"vehicle_type_id":"4","last_reported":1761235994,"current_range_meters":9600,"station_id":"ce4bhdp2rcd13ifvqf20","pricing_plan_id":"cebpf4jnsgd1na2vs0mg"},{"bike_id":"a59d1231-e47a-4dfa-9065-4acedf359f8f","system_id":"levelo_inurba_marseille","lat":43.21754,"lon":5.34611,"is_reserved":false,"is_disabled":false,"rental_uris":{"android":"levelo://app?vid=a59d1231-e47a-4dfa-9065-4acedf359f8f","ios":"levelo://app?vid=a59d1231-e47a-4dfa-9065-4acedf359f8f"},"vehicle_type_id":"4","last_reported":1761235994,"current_range_meters":9600,"station_id":"st_cvj6r9ubvosntc0bgbag","pricing_plan_id":"cebpf4jnsgd1na2vs0mg"},{"bike_id":"f498df0a-aba5-4b97-a940-3d939577633a","system_id":"levelo_inurba_marseille","lat":43.27072,"lon":5.42282,"is_reserved":false,"is_disabled":false,"rental_uris":{"android":"levelo://app?vid=f498df0a-aba5-4b97-a940-3d939577633a","ios":"levelo://app?vid=f498df0a-aba5-4b97-a940-3d939577633a"},"vehicle_type_id":"4","last_reported":1761235994,"current_range_meters":9600,"station_id":"ce4bhk92rcd13ifvqgb0","pricing_plan_id":"cebpf4jnsgd1na2vs0mg"},{"bike_id":"07e992db-48e1-481b-a50e-3b491cfc1455","system_id":"levelo_inurba_marseille","lat":43.31991,"lon":5.41291,"is_reserved":false,"is_disabled":false,"rental_uris":{"android":"levelo://app?vid=07e992db-48e1-481b-a50e-3b491cfc1455","ios":"levelo://app?vid=07e992db-48e1-481b-a50e-3b491cfc1455"},"vehicle_type_id":"4","last_reported":1761235994,"current_range_meters":9600,"station_id":"","pricing_plan_id":"cebpf4jnsgd1na2vs0mg"},{"bike_id":"4eae2ec4-8862-466e-a3d9-395cca4276d0","system_id":"levelo_inurba_marseille","lat":43.30381,"lon":5.3759,"is_reserved":false,"is_disabled":false,"rental_uris":{"android":"levelo://app?vid=4eae2ec4-8862-466e-a3d9-395cca4276d0","ios":"levelo://app?vid=4eae2ec4-8862-466e-a3d9-395cca4276d0"},"vehicle_type_id":"4","last_reported":1761235994,"current_range_meters":9600,"station_id":"","pricing_plan_id":"cebpf4jnsgd1na2vs0mg"},{"bike_id":"0299c523-d515-4954-90f7-d2086796015d","system_id":"levelo_inurba_marseille","lat":43.29172,"lon":5.37141,"is_reserved":false,"is_disabled":false,"rental_uris":{"android":"levelo://app?vid=0299c523-d515-4954-90f7-d2086796015d","ios":"levelo://app?vid=0299c523-d515-4954-90f7-d2086796015d"},"vehicle_type_id":"4","last_reported":1761235994,"current_range_meters":10000,"station_id":"ce4bha92rcd13ifvqeh0","pricing_plan_id":"cebpf4jnsgd1na2vs0mg"},{"bike_id":"7dc3a787-7b14-4505-8e32-0b28349ba8b9","system_id":"levelo_inurba_marseille","lat":43.287063,"lon":5.362525,"is_reserved":false,"is_disabled":false,"rental_uris":{"android":"levelo://app?vid=7dc3a787-7b14-4505-8e32-0b28349ba8b9","ios":"levelo://app?vid=7dc3a787-7b14-4505-8e32-0b28349ba8b9"},"vehicle_type_id":"4","last_reported":1761235994,"current_range_meters":10000,"station_id":"","pricing_plan_id":"cebpf4jnsgd1na2vs0mg"},{"bike_id":"228e4e45-d43f-495b-9c76-48f194349568","system_id":"levelo_inurba_marseille","lat":43.28594,"lon":5.35153,"is_reserved":false,"is_disabled":false,"rental_uris":{"android":"levelo://app?vid=228e4e45-d43f-495b-9c76-48f194349568","ios":"levelo://app?vid=228e4e45-d43f-495b-9c76-48f194349568"},"vehicle_type_id":"4","last_reported":1761235994,"current_range_meters":10000,"station_id":"ce4bhch2rcd13ifvqeug","pricing_plan_id":"cebpf4jnsgd1na2vs0mg"},{"bike_id":"59265ed1-c038-4fed-931a-cff9f89939f1","system_id":"levelo_inurba_marseille","lat":43.27501,"lon":5.42464,"is_reserved":false,"is_disabled":false,"rental_uris":{"android":"levelo://app?vid=59265ed1-c038-4fed-931a-cff9f89939f1","ios":"levelo://app?vid=59265ed1-c038-4fed-931a-cff9f89939f1"},"vehicle_type_id":"4","last_reported":1761235994,"current_range_meters":10000,"station_id":"ce4bhn92rcd13ifvqgrg","pricing_plan_id":"cebpf4jnsgd1na2vs0mg"},{"bike_id":"a6422d6b-6aff-477e-8db1-37cacc215515","system_id":"levelo_inurba_marseille","lat":43.280912,"lon":5.396298,"is_reserved":false,"is_disabled":false,"rental_uris":{"android":"levelo://app?vid=a6422d6b-6aff-477e-8db1-37cacc215515","ios":"levelo://app?vid=a6422d6b-6aff-477e-8db1-37cacc215515"},"vehicle_type_id":"4","last_reported":1761235994,"current_range_meters":10000,"station_id":"ce4bho12rcd13ifvqh2g","pricing_plan_id":"cebpf4jnsgd1na2vs0mg"},{"bike_id":"c0d55ca8-46fc-4309-a5ba-30b0ef6c6f35","system_id":"levelo_inurba_marseille","lat":43.26794,"lon":5.39419,"is_reserved":false,"is_disabled":false,"rental_uris":{"android":"levelo://app?vid=c0d55ca8-46fc-4309-a5ba-30b0ef6c6f35","ios":"levelo://app?vid=c0d55ca8-46fc-4309-a5ba-30b0ef6c6f35"},"vehicle_type_id":"4","last_reported":1761235994,"current_range_meters":10000,"station_id":"ce4bhh12rcd13ifvqfg0","pricing_plan_id":"cebpf4jnsgd1na2vs0mg"},{"bike_id":"f4935a53-acb9-46b7-a6e1-83460665b4c8","system_id":"levelo_inurba_marseille","lat":43.308806,"lon":5.371955,"is_reserved":false,"is_disabled":false,"rental_uris":{"android":"levelo://app?vid=f4935a53-acb9-46b7-a6e1-83460665b4c8","ios":"levelo://app?vid=f4935a53-acb9-46b7-a6e1-83460665b4c8"},"vehicle_type_id":"4","last_reported":1761235994,"current_range_meters":10800,"station_id":"ce4bguh2rcd13ifvqckg","pricing_plan_id":"cebpf4jnsgd1na2vs0mg"},{"bike_id":"e16bfc83-e32e-414c-9fdd-3abe8c36c04f","system_id":"levelo_inurba_marseille","lat":43.28395,"lon":5.37524,"is_reserved":false,"is_disabled":true,"rental_uris":{"android":"levelo://app?vid=e16bfc83-e32e-414c-9fdd-3abe8c36c04f","ios":"levelo://app?vid=e16bfc83-e32e-414c-9fdd-3abe8c36c04f"},"vehicle_type_id":"4","last_reported":1761235994,"current_range_meters":10800,"station_id":"ce4bh412rcd13ifvqds0","pricing_plan_id":"cebpf4jnsgd1na2vs0mg"},{"bike_id":"c8c0fa58-a519-4343-9887-b0c694f93aef","system_id":"levelo_inurba_marseille","lat":43.2885,"lon":5.42519,"is_reserved":false,"is_disabled":false,"rental_uris":{"android":"levelo://app?vid=c8c0fa58-a519-4343-9887-b0c694f93aef","ios":"levelo://app?vid=c8c0fa58-a519-4343-9887-b0c694f93aef"},"vehicle_type_id":"4","last_reported":1761235994,"current_range_meters":10800,"station_id":"st_d3b462108ojc7389ooeg","pricing_plan_id":"cebpf4jnsgd1na2vs0mg"},{"bike_id":"9408da9d-240c-4c07-9f46-2e032bf7de62","system_id":"levelo_inurba_marseille","lat":43.31057,"lon":5.38354,"is_reserved":false,"is_disabled":false,"rental_uris":{"android":"levelo://app?vid=9408da9d-240c-4c07-9f46-2e032bf7de62","ios":"levelo://app?vid=9408da9d-240c-4c07-9f46-2e032bf7de62"},"vehicle_type_id":"4","last_reported":1761235994,"current_range_meters":10800,"station_id":"ce4bgv92rcd13ifvqcr0","pricing_plan_id":"cebpf4jnsgd1na2vs0mg"},{"bike_id":"26df8a40-0196-4f8a-be5d-19d00093a4da","system_id":"levelo_inurba_marseille","lat":43.29711,"lon":5.36597,"is_reserved":false,"is_disabled":false,"rental_uris":{"android":"levelo://app?vid=26df8a40-0196-4f8a-be5d-19d00093a4da","ios":"levelo://app?vid=26df8a40-0196-4f8a-be5d-19d00093a4da"},"vehicle_type_id":"4","last_reported":1761235994,"current_range_meters":10800,"station_id":"ce4bgn12rcd13ifvqbt0","pricing_plan_id":"cebpf4jnsgd1na2vs0mg"},{"bike_id":"61525fe3-26d4-4c5c-a075-e59599c296c4","system_id":"levelo_inurba_marseille","lat":43.31437,"lon":5.39297,"is_reserved":false,"is_disabled":false,"rental_uris":{"android":"levelo://app?vid=61525fe3-26d4-4c5c-a075-e59599c296c4","ios":"levelo://app?vid=61525fe3-26d4-4c5c-a075-e59599c296c4"},"vehicle_type_id":"4","last_reported":1761235994,"current_range_meters":11200,"station_id":"","pricing_plan_id":"cebpf4jnsgd1na2vs0mg"},{"bike_id":"d10cdd9a-6610-4420-942e-d372aa5db5a1","system_id":"levelo_inurba_marseille","lat":43.28936,"lon":5.36394,"is_reserved":false,"is_disabled":false,"rental_uris":{"android":"levelo://app?vid=d10cdd9a-6610-4420-942e-d372aa5db5a1","ios":"levelo://app?vid=d10cdd9a-6610-4420-942e-d372aa5db5a1"},"vehicle_type_id":"4","last_reported":1761235994,"current_range_meters":11200,"station_id":"ce4bhc92rcd13ifvqetg","pricing_plan_id":"cebpf4jnsgd1na2vs0mg"},{"bike_id":"09e160a1-d387-48a9-a219-6ed9cddc82c0","system_id":"levelo_inurba_marseille","lat":43.2868,"lon":5.38663,"is_reserved":false,"is_disabled":false,"rental_uris":{"android":"levelo://app?vid=09e160a1-d387-48a9-a219-6ed9cddc82c0","ios":"levelo://app?vid=09e160a1-d387-48a9-a219-6ed9cddc82c0"},"vehicle_type_id":"4","last_reported":1761235994,"current_range_meters":11200,"station_id":"ce4bh492rcd13ifvqdug","pricing_plan_id":"cebpf4jnsgd1na2vs0mg"},{"bike_id":"32e7919e-26d8-4f7d-b229-086147816fa4","system_id":"levelo_inurba_marseille","lat":43.301286,"lon":5.38775,"is_reserved":false,"is_disabled":false,"rental_uris":{"android":"levelo://app?vid=32e7919e-26d8-4f7d-b229-086147816fa4","ios":"levelo://app?vid=32e7919e-26d8-4f7d-b229-086147816fa4"},"vehicle_type_id":"4","last_reported":1761235994,"current_range_meters":11600,"station_id":"","pricing_plan_id":"cebpf4jnsgd1na2vs0mg"},{"bike_id":"dd8aa55d-dd55-4fe1-9457-a0c2f1bde39a","system_id":"levelo_inurba_marseille","lat":43.29601,"lon":5.37736,"is_reserved":false,"is_disabled":false,"rental_uris":{"android":"levelo://app?vid=dd8aa55d-dd55-4fe1-9457-a0c2f1bde39a","ios":"levelo://app?vid=dd8aa55d-dd55-4fe1-9457-a0c2f1bde39a"},"vehicle_type_id":"4","last_reported":1761235994,"current_range_meters":12000,"station_id":"ce4bgi92rcd13ifvqb90","pricing_plan_id":"cebpf4jnsgd1na2vs0mg"},{"bike_id":"ab69733e-42f6-4cf5-9b82-39937d97476e","system_id":"levelo_inurba_marseille","lat":43.296069,"lon":5.381043,"is_reserved":false,"is_disabled":false,"rental_uris":{"android":"levelo://app?vid=ab69733e-42f6-4cf5-9b82-39937d97476e","ios":"levelo://app?vid=ab69733e-42f6-4cf5-9b82-39937d97476e"},"vehicle_type_id":"4","last_reported":1761235994,"current_range_meters":12000,"station_id":"ce4bgl12rcd13ifvqbo0","pricing_plan_id":"cebpf4jnsgd1na2vs0mg"},{"bike_id":"1aaa028d-93d8-4a20-8355-7a4b17d8620a","system_id":"levelo_inurba_marseille","lat":43.27624,"lon":5.39211,"is_reserved":false,"is_disabled":false,"rental_uris":{"android":"levelo://app?vid=1aaa028d-93d8-4a20-8355-7a4b17d8620a","ios":"levelo://app?vid=1aaa028d-93d8-4a20-8355-7a4b17d8620a"},"vehicle_type_id":"4","last_reported":1761235994,"current_range_meters":12000,"station_id":"","pricing_plan_id":"cebpf4jnsgd1na2vs0mg"},{"bike_id":"400c83ff-053c-43d8-b440-e05a3cd5fc2a","system_id":"levelo_inurba_marseille","lat":43.28617,"lon":5.35108,"is_reserved":false,"is_disabled":false,"rental_uris":{"android":"levelo://app?vid=400c83ff-053c-43d8-b440-e05a3cd5fc2a","ios":"levelo://app?vid=400c83ff-053c-43d8-b440-e05a3cd5fc2a"},"vehicle_type_id":"4","last_reported":1761235994,"current_range_meters":12000,"station_id":"ce4bhch2rcd13ifvqeug","pricing_plan_id":"cebpf4jnsgd1na2vs0mg"},{"bike_id":"9d2c33f0-e168-4015-bcf5-97ec31bd5400","system_id":"levelo_inurba_marseille","lat":43.29517,"lon":5.38543,"is_reserved":false,"is_disabled":false,"rental_uris":{"android":"levelo://app?vid=9d2c33f0-e168-4015-bcf5-97ec31bd5400","ios":"levelo://app?vid=9d2c33f0-e168-4015-bcf5-97ec31bd5400"},"vehicle_type_id":"4","last_reported":1761235994,"current_range_meters":12000,"station_id":"ce4bgih2rcd13ifvqba0","pricing_plan_id":"cebpf4jnsgd1na2vs0mg"},{"bike_id":"9f8800f6-d3ff-463a-ab7d-68349dbfe077","system_id":"levelo_inurba_marseille","lat":43.29537,"lon":5.38537,"is_reserved":false,"is_disabled":false,"rental_uris":{"android":"levelo://app?vid=9f8800f6-d3ff-463a-ab7d-68349dbfe077","ios":"levelo://app?vid=9f8800f6-d3ff-463a-ab7d-68349dbfe077"},"vehicle_type_id":"4","last_reported":1761235994,"current_range_meters":12400,"station_id":"ce4bgih2rcd13ifvqba0","pricing_plan_id":"cebpf4jnsgd1na2vs0mg"},{"bike_id":"0198280f-05b0-401c-b9f2-7586dff77353","system_id":"levelo_inurba_marseille","lat":43.288948,"lon":5.378047,"is_reserved":false,"is_disabled":false,"rental_uris":{"android":"levelo://app?vid=0198280f-05b0-401c-b9f2-7586dff77353","ios":"levelo://app?vid=0198280f-05b0-401c-b9f2-7586dff77353"},"vehicle_type_id":"4","last_reported":1761235994,"current_range_meters":12400,"station_id":"","pricing_plan_id":"cebpf4jnsgd1na2vs0mg"},{"bike_id":"7468bc7c-434b-4395-b5d3-97b8342dc50f","system_id":"levelo_inurba_marseille","lat":43.24178,"lon":5.39734,"is_reserved":false,"is_disabled":false,"rental_uris":{"android":"levelo://app?vid=7468bc7c-434b-4395-b5d3-97b8342dc50f","ios":"levelo://app?vid=7468bc7c-434b-4395-b5d3-97b8342dc50f"},"vehicle_type_id":"4","last_reported":1761235994,"current_range_meters":12400,"station_id":"ce4bhn12rcd13ifvqgpg","pricing_plan_id":"cebpf4jnsgd1na2vs0mg"},{"bike_id":"323bf2de-3bb4-4b4c-b330-b19ea807dbf5","system_id":"levelo_inurba_marseille","lat":43.32997,"lon":5.42952,"is_reserved":false,"is_disabled":false,"rental_uris":{"android":"levelo://app?vid=323bf2de-3bb4-4b4c-b330-b19ea807dbf5","ios":"levelo://app?vid=323bf2de-3bb4-4b4c-b330-b19ea807dbf5"},"vehicle_type_id":"4","last_reported":1761235994,"current_range_meters":12400,"station_id":"","pricing_plan_id":"cebpf4jnsgd1na2vs0mg"},{"bike_id":"3fecb475-7fef-45ca-9e02-14f212d641bd","system_id":"levelo_inurba_marseille","lat":43.294295,"lon":5.398023,"is_reserved":false,"is_disabled":false,"rental_uris":{"android":"levelo://app?vid=3fecb475-7fef-45ca-9e02-14f212d641bd","ios":"levelo://app?vid=3fecb475-7fef-45ca-9e02-14f212d641bd"},"vehicle_type_id":"4","last_reported":1761235994,"current_range_meters":12800,"station_id":"ce4bh3h2rcd13ifvqdo0","pricing_plan_id":"cebpf4jnsgd1na2vs0mg"},{"bike_id":"bda3ed1a-3199-4eb8-8229-577855d09dbb","system_id":"levelo_inurba_marseille","lat":43.3163,"lon":5.37876,"is_reserved":false,"is_disabled":false,"rental_uris":{"android":"levelo://app?vid=bda3ed1a-3199-4eb8-8229-577855d09dbb","ios":"levelo://app?vid=bda3ed1a-3199-4eb8-8229-577855d09dbb"},"vehicle_type_id":"4","last_reported":1761235994,"current_range_meters":12800,"station_id":"","pricing_plan_id":"cebpf4jnsgd1na2vs0mg"},{"bike_id":"f30d474c-592d-470d-816b-bf7526dcf767","system_id":"levelo_inurba_marseille","lat":43.30831,"lon":5.38111,"is_reserved":false,"is_disabled":false,"rental_uris":{"android":"levelo://app?vid=f30d474c-592d-470d-816b-bf7526dcf767","ios":"levelo://app?vid=f30d474c-592d-470d-816b-bf7526dcf767"},"vehicle_type_id":"4","last_reported":1761235994,"current_range_meters":12800,"station_id":"ce4bgt12rcd13ifvqce0","pricing_plan_id":"cebpf4jnsgd1na2vs0mg"},{"bike_id":"64636f1b-6d93-4f0b-95fc-81b5185ef032","system_id":"levelo_inurba_marseille","lat":43.28715,"lon":5.39982,"is_reserved":false,"is_disabled":false,"rental_uris":{"android":"levelo://app?vid=64636f1b-6d93-4f0b-95fc-81b5185ef032","ios":"levelo://app?vid=64636f1b-6d93-4f0b-95fc-81b5185ef032"},"vehicle_type_id":"4","last_reported":1761235994,"current_range_meters":12800,"station_id":"ce4bho92rcd13ifvqh3g","pricing_plan_id":"cebpf4jnsgd1na2vs0mg"},{"bike_id":"13ffca06-ecc4-46ee-aa82-6818647126c8","system_id":"levelo_inurba_marseille","lat":43.298971,"lon":5.436679,"is_reserved":false,"is_disabled":false,"rental_uris":{"android":"levelo://app?vid=13ffca06-ecc4-46ee-aa82-6818647126c8","ios":"levelo://app?vid=13ffca06-ecc4-46ee-aa82-6818647126c8"},"vehicle_type_id":"4","last_reported":1761235994,"current_range_meters":12800,"station_id":"ce4bhpp2rcd13ifvqhfg","pricing_plan_id":"cebpf4jnsgd1na2vs0mg"},{"bike_id":"f0764640-ec1d-486f-9e1c-59043e66eb76","system_id":"levelo_inurba_marseille","lat":43.21749,"lon":5.34606,"is_reserved":false,"is_disabled":false,"rental_uris":{"android":"levelo://app?vid=f0764640-ec1d-486f-9e1c-59043e66eb76","ios":"levelo://app?vid=f0764640-ec1d-486f-9e1c-59043e66eb76"},"vehicle_type_id":"4","last_reported":1761235994,"current_range_meters":13600,"station_id":"st_cvj6r9ubvosntc0bgbag","pricing_plan_id":"cebpf4jnsgd1na2vs0mg"},{"bike_id":"0a735343-9830-4018-a7b8-9b9977228a29","system_id":"levelo_inurba_marseille","lat":43.29291,"lon":5.37178,"is_reserved":false,"is_disabled":false,"rental_uris":{"android":"levelo://app?vid=0a735343-9830-4018-a7b8-9b9977228a29","ios":"levelo://app?vid=0a735343-9830-4018-a7b8-9b9977228a29"},"vehicle_type_id":"4","last_reported":1761235994,"current_range_meters":13600,"station_id":"ce4bgh92rcd13ifvqb40","pricing_plan_id":"cebpf4jnsgd1na2vs0mg"},{"bike_id":"6b37a1b8-5eb3-475e-b683-fd0eb1dbf02a","system_id":"levelo_inurba_marseille","lat":43.24809,"lon":5.37445,"is_reserved":false,"is_disabled":false,"rental_uris":{"android":"levelo://app?vid=6b37a1b8-5eb3-475e-b683-fd0eb1dbf02a","ios":"levelo://app?vid=6b37a1b8-5eb3-475e-b683-fd0eb1dbf02a"},"vehicle_type_id":"4","last_reported":1761235994,"current_range_meters":13600,"station_id":"ce4bhgh2rcd13ifvqfb0","pricing_plan_id":"cebpf4jnsgd1na2vs0mg"},{"bike_id":"ba24c915-a4e1-4512-89af-2a0707b2a895","system_id":"levelo_inurba_marseille","lat":43.30548,"lon":5.36712,"is_reserved":false,"is_disabled":false,"rental_uris":{"android":"levelo://app?vid=ba24c915-a4e1-4512-89af-2a0707b2a895","ios":"levelo://app?vid=ba24c915-a4e1-4512-89af-2a0707b2a895"},"vehicle_type_id":"4","last_reported":1761235994,"current_range_meters":13600,"station_id":"ce4bgrp2rcd13ifvqc9g","pricing_plan_id":"cebpf4jnsgd1na2vs0mg"},{"bike_id":"dfa2d06c-dd1b-471a-a02e-739e0499ef79","system_id":"levelo_inurba_marseille","lat":43.3035,"lon":5.41882,"is_reserved":false,"is_disabled":false,"rental_uris":{"android":"levelo://app?vid=dfa2d06c-dd1b-471a-a02e-739e0499ef79","ios":"levelo://app?vid=dfa2d06c-dd1b-471a-a02e-739e0499ef79"},"vehicle_type_id":"4","last_reported":1761235994,"current_range_meters":13600,"station_id":"ce4bhop2rcd13ifvqh7g","pricing_plan_id":"cebpf4jnsgd1na2vs0mg"},{"bike_id":"a7f5568c-eddb-4d54-b8ed-01cd01cbbe2b","system_id":"levelo_inurba_marseille","lat":43.29793,"lon":5.39349,"is_reserved":false,"is_disabled":false,"rental_uris":{"android":"levelo://app?vid=a7f5568c-eddb-4d54-b8ed-01cd01cbbe2b","ios":"levelo://app?vid=a7f5568c-eddb-4d54-b8ed-01cd01cbbe2b"},"vehicle_type_id":"4","last_reported":1761235994,"current_range_meters":14000,"station_id":"chh1huq6cuj3fo74tm60","pricing_plan_id":"cebpf4jnsgd1na2vs0mg"},{"bike_id":"24a11c21-7b10-418d-bff0-9d96ea02cfae","system_id":"levelo_inurba_marseille","lat":43.30771,"lon":5.37663,"is_reserved":false,"is_disabled":true,"rental_uris":{"android":"levelo://app?vid=24a11c21-7b10-418d-bff0-9d96ea02cfae","ios":"levelo://app?vid=24a11c21-7b10-418d-bff0-9d96ea02cfae"},"vehicle_type_id":"4","last_reported":1761235994,"current_range_meters":14000,"station_id":"ce4bgv92rcd13ifvqcq0","pricing_plan_id":"cebpf4jnsgd1na2vs0mg"},{"bike_id":"304f2ec7-1ddf-49bb-9b18-dedac26b37a4","system_id":"levelo_inurba_marseille","lat":43.28885,"lon":5.37481,"is_reserved":false,"is_disabled":false,"rental_uris":{"android":"levelo://app?vid=304f2ec7-1ddf-49bb-9b18-dedac26b37a4","ios":"levelo://app?vid=304f2ec7-1ddf-49bb-9b18-dedac26b37a4"},"vehicle_type_id":"4","last_reported":1761235994,"current_range_meters":14000,"station_id":"","pricing_plan_id":"cebpf4jnsgd1na2vs0mg"},{"bike_id":"ef659fa8-0ee0-41f3-8e63-dc1d08cbd168","system_id":"levelo_inurba_marseille","lat":43.30414,"lon":5.41287,"is_reserved":false,"is_disabled":false,"rental_uris":{"android":"levelo://app?vid=ef659fa8-0ee0-41f3-8e63-dc1d08cbd168","ios":"levelo://app?vid=ef659fa8-0ee0-41f3-8e63-dc1d08cbd168"},"vehicle_type_id":"4","last_reported":1761235994,"current_range_meters":14000,"station_id":"ce4bhop2rcd13ifvqh8g","pricing_plan_id":"cebpf4jnsgd1na2vs0mg"},{"bike_id":"b284a5b8-145b-4b18-970a-f541b5c0ebef","system_id":"levelo_inurba_marseille","lat":43.2855,"lon":5.39427,"is_reserved":false,"is_disabled":false,"rental_uris":{"android":"levelo://app?vid=b284a5b8-145b-4b18-970a-f541b5c0ebef","ios":"levelo://app?vid=b284a5b8-145b-4b18-970a-f541b5c0ebef"},"vehicle_type_id":"4","last_reported":1761235994,"current_range_meters":14000,"station_id":"","pricing_plan_id":"cebpf4jnsgd1na2vs0mg"},{"bike_id":"44082448-b9f5-4b0d-b098-03640381c64b","system_id":"levelo_inurba_marseille","lat":43.2801,"lon":5.40013,"is_reserved":false,"is_disabled":false,"rental_uris":{"android":"levelo://app?vid=44082448-b9f5-4b0d-b098-03640381c64b","ios":"levelo://app?vid=44082448-b9f5-4b0d-b098-03640381c64b"},"vehicle_type_id":"4","last_reported":1761235994,"current_range_meters":14000,"station_id":"ce4bho92rcd13ifvqh4g","pricing_plan_id":"cebpf4jnsgd1na2vs0mg"},{"bike_id":"1bfdb360-cefc-4a76-a98c-83926dcc5930","system_id":"levelo_inurba_marseille","lat":43.25084,"lon":5.3953,"is_reserved":false,"is_disabled":false,"rental_uris":{"android":"levelo://app?vid=1bfdb360-cefc-4a76-a98c-83926dcc5930","ios":"levelo://app?vid=1bfdb360-cefc-4a76-a98c-83926dcc5930"},"vehicle_type_id":"4","last_reported":1761235994,"current_range_meters":14000,"station_id":"ce4bhm12rcd13ifvqgkg","pricing_plan_id":"cebpf4jnsgd1na2vs0mg"},{"bike_id":"12f3f073-c041-4658-a7f4-1022f577aab2","system_id":"levelo_inurba_marseille","lat":43.305406,"lon":5.367065,"is_reserved":false,"is_disabled":false,"rental_uris":{"android":"levelo://app?vid=12f3f073-c041-4658-a7f4-1022f577aab2","ios":"levelo://app?vid=12f3f073-c041-4658-a7f4-1022f577aab2"},"vehicle_type_id":"4","last_reported":1761235994,"current_range_meters":14400,"station_id":"ce4bh3h2rcd13ifvqdn0","pricing_plan_id":"cebpf4jnsgd1na2vs0mg"},{"bike_id":"5b8d9c1c-6728-42c3-a793-2bd2bc946286","system_id":"levelo_inurba_marseille","lat":43.28708,"lon":5.399879,"is_reserved":false,"is_disabled":false,"rental_uris":{"android":"levelo://app?vid=5b8d9c1c-6728-42c3-a793-2bd2bc946286","ios":"levelo://app?vid=5b8d9c1c-6728-42c3-a793-2bd2bc946286"},"vehicle_type_id":"4","last_reported":1761235994,"current_range_meters":14400,"station_id":"ce4bho92rcd13ifvqh3g","pricing_plan_id":"cebpf4jnsgd1na2vs0mg"},{"bike_id":"3c338306-051e-4864-9d5e-73d858887959","system_id":"levelo_inurba_marseille","lat":43.288787,"lon":5.359834,"is_reserved":false,"is_disabled":false,"rental_uris":{"android":"levelo://app?vid=3c338306-051e-4864-9d5e-73d858887959","ios":"levelo://app?vid=3c338306-051e-4864-9d5e-73d858887959"},"vehicle_type_id":"4","last_reported":1761235994,"current_range_meters":14400,"station_id":"","pricing_plan_id":"cebpf4jnsgd1na2vs0mg"},{"bike_id":"91c55894-f90b-4c6a-9935-1ccd1665a401","system_id":"levelo_inurba_marseille","lat":43.29605,"lon":5.37717,"is_reserved":false,"is_disabled":true,"rental_uris":{"android":"levelo://app?vid=91c55894-f90b-4c6a-9935-1ccd1665a401","ios":"levelo://app?vid=91c55894-f90b-4c6a-9935-1ccd1665a401"},"vehicle_type_id":"4","last_reported":1761235994,"current_range_meters":14400,"station_id":"ce4bgi92rcd13ifvqb90","pricing_plan_id":"cebpf4jnsgd1na2vs0mg"},{"bike_id":"36bfb8fb-484b-4533-8e7a-fddafe058a96","system_id":"levelo_inurba_marseille","lat":43.29929,"lon":5.36546,"is_reserved":false,"is_disabled":false,"rental_uris":{"android":"levelo://app?vid=36bfb8fb-484b-4533-8e7a-fddafe058a96","ios":"levelo://app?vid=36bfb8fb-484b-4533-8e7a-fddafe058a96"},"vehicle_type_id":"4","last_reported":1761235994,"current_range_meters":14400,"station_id":"ce4bgm92rcd13ifvqbr0","pricing_plan_id":"cebpf4jnsgd1na2vs0mg"},{"bike_id":"f01ac5dc-1cb3-4db7-be29-ca0449156357","system_id":"levelo_inurba_marseille","lat":43.31993,"lon":5.38156,"is_reserved":false,"is_disabled":false,"rental_uris":{"android":"levelo://app?vid=f01ac5dc-1cb3-4db7-be29-ca0449156357","ios":"levelo://app?vid=f01ac5dc-1cb3-4db7-be29-ca0449156357"},"vehicle_type_id":"4","last_reported":1761235994,"current_range_meters":14400,"station_id":"ce4bhr12rcd13ifvqhpg","pricing_plan_id":"cebpf4jnsgd1na2vs0mg"},{"bike_id":"3228633f-c25d-4996-a6dd-7acbb06c2e17","system_id":"levelo_inurba_marseille","lat":43.29542,"lon":5.39387,"is_reserved":false,"is_disabled":false,"rental_uris":{"android":"levelo://app?vid=3228633f-c25d-4996-a6dd-7acbb06c2e17","ios":"levelo://app?vid=3228633f-c25d-4996-a6dd-7acbb06c2e17"},"vehicle_type_id":"4","last_reported":1761235994,"current_range_meters":14400,"station_id":"ce4bh292rcd13ifvqdf0","pricing_plan_id":"cebpf4jnsgd1na2vs0mg"},{"bike_id":"8a03db97-e924-41f5-b866-efefc1bc3f8e","system_id":"levelo_inurba_marseille","lat":43.29575,"lon":5.39989,"is_reserved":false,"is_disabled":false,"rental_uris":{"android":"levelo://app?vid=8a03db97-e924-41f5-b866-efefc1bc3f8e","ios":"levelo://app?vid=8a03db97-e924-41f5-b866-efefc1bc3f8e"},"vehicle_type_id":"4","last_reported":1761235994,"current_range_meters":14400,"station_id":"ce4bh312rcd13ifvqdj0","pricing_plan_id":"cebpf4jnsgd1na2vs0mg"},{"bike_id":"882e63e2-09d3-4d4c-a7b7-b4eba24cf70a","system_id":"levelo_inurba_marseille","lat":43.295564,"lon":5.422907,"is_reserved":false,"is_disabled":false,"rental_uris":{"android":"levelo://app?vid=882e63e2-09d3-4d4c-a7b7-b4eba24cf70a","ios":"levelo://app?vid=882e63e2-09d3-4d4c-a7b7-b4eba24cf70a"},"vehicle_type_id":"4","last_reported":1761235994,"current_range_meters":14400,"station_id":"ce4bhph2rcd13ifvqhdg","pricing_plan_id":"cebpf4jnsgd1na2vs0mg"},{"bike_id":"e7d7b306-7286-4933-81dd-966ea49c6de4","system_id":"levelo_inurba_marseille","lat":43.292988,"lon":5.374633,"is_reserved":false,"is_disabled":false,"rental_uris":{"android":"levelo://app?vid=e7d7b306-7286-4933-81dd-966ea49c6de4","ios":"levelo://app?vid=e7d7b306-7286-4933-81dd-966ea49c6de4"},"vehicle_type_id":"4","last_reported":1761235994,"current_range_meters":14800,"station_id":"","pricing_plan_id":"cebpf4jnsgd1na2vs0mg"},{"bike_id":"e769906a-6115-425c-84a0-aab1fda48d3f","system_id":"levelo_inurba_marseille","lat":43.29646,"lon":5.37593,"is_reserved":false,"is_disabled":false,"rental_uris":{"android":"levelo://app?vid=e769906a-6115-425c-84a0-aab1fda48d3f","ios":"levelo://app?vid=e769906a-6115-425c-84a0-aab1fda48d3f"},"vehicle_type_id":"4","last_reported":1761235994,"current_range_meters":14800,"station_id":"","pricing_plan_id":"cebpf4jnsgd1na2vs0mg"},{"bike_id":"d0b50c9c-9f16-44e5-9733-7da65c4c6d1f","system_id":"levelo_inurba_marseille","lat":43.28075,"lon":5.3966,"is_reserved":false,"is_disabled":false,"rental_uris":{"android":"levelo://app?vid=d0b50c9c-9f16-44e5-9733-7da65c4c6d1f","ios":"levelo://app?vid=d0b50c9c-9f16-44e5-9733-7da65c4c6d1f"},"vehicle_type_id":"4","last_reported":1761235994,"current_range_meters":14800,"station_id":"ce4bho12rcd13ifvqh2g","pricing_plan_id":"cebpf4jnsgd1na2vs0mg"},{"bike_id":"8bcacd78-80de-4026-af75-b37ebe3030fe","system_id":"levelo_inurba_marseille","lat":43.334756,"lon":5.404255,"is_reserved":false,"is_disabled":false,"rental_uris":{"android":"levelo://app?vid=8bcacd78-80de-4026-af75-b37ebe3030fe","ios":"levelo://app?vid=8bcacd78-80de-4026-af75-b37ebe3030fe"},"vehicle_type_id":"4","last_reported":1761235994,"current_range_meters":14800,"station_id":"","pricing_plan_id":"cebpf4jnsgd1na2vs0mg"},{"bike_id":"d1c50d41-6dd0-4db1-91dc-69626ee01af8","system_id":"levelo_inurba_marseille","lat":43.29878,"lon":5.39734,"is_reserved":false,"is_disabled":false,"rental_uris":{"android":"levelo://app?vid=d1c50d41-6dd0-4db1-91dc-69626ee01af8","ios":"levelo://app?vid=d1c50d41-6dd0-4db1-91dc-69626ee01af8"},"vehicle_type_id":"4","last_reported":1761235994,"current_range_meters":14800,"station_id":"ce4bh0h2rcd13ifvqd50","pricing_plan_id":"cebpf4jnsgd1na2vs0mg"},{"bike_id":"477944c2-a55a-4ae1-9c0a-eb9031e7faa9","system_id":"levelo_inurba_marseille","lat":43.30427,"lon":5.38896,"is_reserved":false,"is_disabled":false,"rental_uris":{"android":"levelo://app?vid=477944c2-a55a-4ae1-9c0a-eb9031e7faa9","ios":"levelo://app?vid=477944c2-a55a-4ae1-9c0a-eb9031e7faa9"},"vehicle_type_id":"4","last_reported":1761235994,"current_range_meters":15200,"station_id":"ce4bgk12rcd13ifvqbi0","pricing_plan_id":"cebpf4jnsgd1na2vs0mg"},{"bike_id":"5f5e1749-c27a-4337-a018-2d1d9c1436fd","system_id":"levelo_inurba_marseille","lat":43.245449,"lon":5.395174,"is_reserved":false,"is_disabled":false,"rental_uris":{"android":"levelo://app?vid=5f5e1749-c27a-4337-a018-2d1d9c1436fd","ios":"levelo://app?vid=5f5e1749-c27a-4337-a018-2d1d9c1436fd"},"vehicle_type_id":"4","last_reported":1761235994,"current_range_meters":15200,"station_id":"ce4bhlp2rcd13ifvqgjg","pricing_plan_id":"cebpf4jnsgd1na2vs0mg"},{"bike_id":"791393c3-b8b5-4b0d-980e-6ec237583517","system_id":"levelo_inurba_marseille","lat":43.33002,"lon":5.39026,"is_reserved":false,"is_disabled":false,"rental_uris":{"android":"levelo://app?vid=791393c3-b8b5-4b0d-980e-6ec237583517","ios":"levelo://app?vid=791393c3-b8b5-4b0d-980e-6ec237583517"},"vehicle_type_id":"4","last_reported":1761235994,"current_range_meters":15200,"station_id":"ce4bhr92rcd13ifvqhrg","pricing_plan_id":"cebpf4jnsgd1na2vs0mg"},{"bike_id":"b9764ed2-f91a-421e-b54e-d7527bd8af22","system_id":"levelo_inurba_marseille","lat":43.29811,"lon":5.36588,"is_reserved":false,"is_disabled":false,"rental_uris":{"android":"levelo://app?vid=b9764ed2-f91a-421e-b54e-d7527bd8af22","ios":"levelo://app?vid=b9764ed2-f91a-421e-b54e-d7527bd8af22"},"vehicle_type_id":"4","last_reported":1761235994,"current_range_meters":15200,"station_id":"","pricing_plan_id":"cebpf4jnsgd1na2vs0mg"},{"bike_id":"60c030a2-b778-49c3-81e5-f3893c0d1de3","system_id":"levelo_inurba_marseille","lat":43.284088,"lon":5.37513,"is_reserved":false,"is_disabled":false,"rental_uris":{"android":"levelo://app?vid=60c030a2-b778-49c3-81e5-f3893c0d1de3","ios":"levelo://app?vid=60c030a2-b778-49c3-81e5-f3893c0d1de3"},"vehicle_type_id":"4","last_reported":1761235994,"current_range_meters":15200,"station_id":"ce4bh412rcd13ifvqds0","pricing_plan_id":"cebpf4jnsgd1na2vs0mg"},{"bike_id":"3c473905-25d9-4b81-b6e9-f094d3554e55","system_id":"levelo_inurba_marseille","lat":43.22923,"lon":5.35397,"is_reserved":false,"is_disabled":false,"rental_uris":{"android":"levelo://app?vid=3c473905-25d9-4b81-b6e9-f094d3554e55","ios":"levelo://app?vid=3c473905-25d9-4b81-b6e9-f094d3554e55"},"vehicle_type_id":"4","last_reported":1761235994,"current_range_meters":15200,"station_id":"cpo3532slgdg3j2ikp40","pricing_plan_id":"cebpf4jnsgd1na2vs0mg"},{"bike_id":"9b779327-fe3d-45bf-b8c6-9cd698903ea4","system_id":"levelo_inurba_marseille","lat":43.30214,"lon":5.39472,"is_reserved":false,"is_disabled":false,"rental_uris":{"android":"levelo://app?vid=9b779327-fe3d-45bf-b8c6-9cd698903ea4","ios":"levelo://app?vid=9b779327-fe3d-45bf-b8c6-9cd698903ea4"},"vehicle_type_id":"4","last_reported":1761235994,"current_range_meters":16000,"station_id":"ce4bh0p2rcd13ifvqd70","pricing_plan_id":"cebpf4jnsgd1na2vs0mg"},{"bike_id":"ac81d385-7ac5-4890-b369-5b9ff60c2609","system_id":"levelo_inurba_marseille","lat":43.30202,"lon":5.36635,"is_reserved":false,"is_disabled":false,"rental_uris":{"android":"levelo://app?vid=ac81d385-7ac5-4890-b369-5b9ff60c2609","ios":"levelo://app?vid=ac81d385-7ac5-4890-b369-5b9ff60c2609"},"vehicle_type_id":"4","last_reported":1761235994,"current_range_meters":16000,"station_id":"ce4bgrh2rcd13ifvqc8g","pricing_plan_id":"cebpf4jnsgd1na2vs0mg"},{"bike_id":"7b3a130d-6c0c-4abe-9cbf-0b06aa68940e","system_id":"levelo_inurba_marseille","lat":43.295278,"lon":5.390224,"is_reserved":false,"is_disabled":false,"rental_uris":{"android":"levelo://app?vid=7b3a130d-6c0c-4abe-9cbf-0b06aa68940e","ios":"levelo://app?vid=7b3a130d-6c0c-4abe-9cbf-0b06aa68940e"},"vehicle_type_id":"4","last_reported":1761235994,"current_range_meters":16000,"station_id":"ce4bh3p2rcd13ifvqdp0","pricing_plan_id":"cebpf4jnsgd1na2vs0mg"},{"bike_id":"364958b1-8e09-4e24-b29f-225bbf2688f1","system_id":"levelo_inurba_marseille","lat":43.311825,"lon":5.387297,"is_reserved":false,"is_disabled":false,"rental_uris":{"android":"levelo://app?vid=364958b1-8e09-4e24-b29f-225bbf2688f1","ios":"levelo://app?vid=364958b1-8e09-4e24-b29f-225bbf2688f1"},"vehicle_type_id":"4","last_reported":1761235994,"current_range_meters":16000,"station_id":"ce4bgv12rcd13ifvqcp0","pricing_plan_id":"cebpf4jnsgd1na2vs0mg"},{"bike_id":"0d0bc55b-4498-4e26-8e16-3699bb215dd5","system_id":"levelo_inurba_marseille","lat":43.28816,"lon":5.42544,"is_reserved":false,"is_disabled":false,"rental_uris":{"android":"levelo://app?vid=0d0bc55b-4498-4e26-8e16-3699bb215dd5","ios":"levelo://app?vid=0d0bc55b-4498-4e26-8e16-3699bb215dd5"},"vehicle_type_id":"4","last_reported":1761235994,"current_range_meters":16400,"station_id":"st_d3b462108ojc7389ooeg","pricing_plan_id":"cebpf4jnsgd1na2vs0mg"},{"bike_id":"2172ef7f-240b-4c72-bf8d-26c79cc1f73d","system_id":"levelo_inurba_marseille","lat":43.29886,"lon":5.43659,"is_reserved":false,"is_disabled":false,"rental_uris":{"android":"levelo://app?vid=2172ef7f-240b-4c72-bf8d-26c79cc1f73d","ios":"levelo://app?vid=2172ef7f-240b-4c72-bf8d-26c79cc1f73d"},"vehicle_type_id":"4","last_reported":1761235994,"current_range_meters":16400,"station_id":"ce4bhpp2rcd13ifvqhfg","pricing_plan_id":"cebpf4jnsgd1na2vs0mg"},{"bike_id":"3e4783b6-28d8-4737-a4ef-6a1b0da02476","system_id":"levelo_inurba_marseille","lat":43.29434,"lon":5.4072,"is_reserved":false,"is_disabled":false,"rental_uris":{"android":"levelo://app?vid=3e4783b6-28d8-4737-a4ef-6a1b0da02476","ios":"levelo://app?vid=3e4783b6-28d8-4737-a4ef-6a1b0da02476"},"vehicle_type_id":"4","last_reported":1761235994,"current_range_meters":16400,"station_id":"","pricing_plan_id":"cebpf4jnsgd1na2vs0mg"},{"bike_id":"d758485e-6c98-4f74-a828-75c1ea823acb","system_id":"levelo_inurba_marseille","lat":43.24664,"lon":5.38169,"is_reserved":false,"is_disabled":false,"rental_uris":{"android":"levelo://app?vid=d758485e-6c98-4f74-a828-75c1ea823acb","ios":"levelo://app?vid=d758485e-6c98-4f74-a828-75c1ea823acb"},"vehicle_type_id":"4","last_reported":1761235994,"current_range_meters":16400,"station_id":"ce4bhih2rcd13ifvqfr0","pricing_plan_id":"cebpf4jnsgd1na2vs0mg"},{"bike_id":"a5e10cb3-d280-4b4c-8176-279276f1fb2a","system_id":"levelo_inurba_marseille","lat":43.25095,"lon":5.40351,"is_reserved":false,"is_disabled":false,"rental_uris":{"android":"levelo://app?vid=a5e10cb3-d280-4b4c-8176-279276f1fb2a","ios":"levelo://app?vid=a5e10cb3-d280-4b4c-8176-279276f1fb2a"},"vehicle_type_id":"4","last_reported":1761235994,"current_range_meters":16400,"station_id":"ce4bhlh2rcd13ifvqgig","pricing_plan_id":"cebpf4jnsgd1na2vs0mg"},{"bike_id":"bee9ad2f-aaea-4607-9ffa-be6bd0213b89","system_id":"levelo_inurba_marseille","lat":43.33733,"lon":5.391928,"is_reserved":false,"is_disabled":false,"rental_uris":{"android":"levelo://app?vid=bee9ad2f-aaea-4607-9ffa-be6bd0213b89","ios":"levelo://app?vid=bee9ad2f-aaea-4607-9ffa-be6bd0213b89"},"vehicle_type_id":"4","last_reported":1761235994,"current_range_meters":16400,"station_id":"ce4bhr92rcd13ifvqhsg","pricing_plan_id":"cebpf4jnsgd1na2vs0mg"},{"bike_id":"87242500-5b67-4273-8d79-fdee726a6b6b","system_id":"levelo_inurba_marseille","lat":43.28224,"lon":5.39053,"is_reserved":false,"is_disabled":false,"rental_uris":{"android":"levelo://app?vid=87242500-5b67-4273-8d79-fdee726a6b6b","ios":"levelo://app?vid=87242500-5b67-4273-8d79-fdee726a6b6b"},"vehicle_type_id":"4","last_reported":1761235994,"current_range_meters":16400,"station_id":"ce4bhn92rcd13ifvqgsg","pricing_plan_id":"cebpf4jnsgd1na2vs0mg"},{"bike_id":"ff3fcf70-c183-4046-b310-5c316a40bd51","system_id":"levelo_inurba_marseille","lat":43.307366,"lon":5.424394,"is_reserved":false,"is_disabled":false,"rental_uris":{"android":"levelo://app?vid=ff3fcf70-c183-4046-b310-5c316a40bd51","ios":"levelo://app?vid=ff3fcf70-c183-4046-b310-5c316a40bd51"},"vehicle_type_id":"4","last_reported":1761235994,"current_range_meters":16400,"station_id":"st_cvj6ca6bvosntc0bfgr0","pricing_plan_id":"cebpf4jnsgd1na2vs0mg"},{"bike_id":"ff68e089-2d31-4b47-a3ee-bd4b46a6090c","system_id":"levelo_inurba_marseille","lat":43.32367,"lon":5.38888,"is_reserved":false,"is_disabled":false,"rental_uris":{"android":"levelo://app?vid=ff68e089-2d31-4b47-a3ee-bd4b46a6090c","ios":"levelo://app?vid=ff68e089-2d31-4b47-a3ee-bd4b46a6090c"},"vehicle_type_id":"4","last_reported":1761235994,"current_range_meters":16400,"station_id":"ce4bhqp2rcd13ifvqhog","pricing_plan_id":"cebpf4jnsgd1na2vs0mg"},{"bike_id":"460968bd-8f8a-4b6e-bfda-a59c8a14257f","system_id":"levelo_inurba_marseille","lat":43.297096,"lon":5.366044,"is_reserved":false,"is_disabled":false,"rental_uris":{"android":"levelo://app?vid=460968bd-8f8a-4b6e-bfda-a59c8a14257f","ios":"levelo://app?vid=460968bd-8f8a-4b6e-bfda-a59c8a14257f"},"vehicle_type_id":"4","last_reported":1761235994,"current_range_meters":16400,"station_id":"ce4bgn12rcd13ifvqbt0","pricing_plan_id":"cebpf4jnsgd1na2vs0mg"},{"bike_id":"19d1e5d3-1cff-4cd7-950a-4bd85a3655b5","system_id":"levelo_inurba_marseille","lat":43.284421,"lon":5.350114,"is_reserved":false,"is_disabled":false,"rental_uris":{"android":"levelo://app?vid=19d1e5d3-1cff-4cd7-950a-4bd85a3655b5","ios":"levelo://app?vid=19d1e5d3-1cff-4cd7-950a-4bd85a3655b5"},"vehicle_type_id":"4","last_reported":1761235994,"current_range_meters":16800,"station_id":"ce4bhbh2rcd13ifvqepg","pricing_plan_id":"cebpf4jnsgd1na2vs0mg"},{"bike_id":"e986eb56-ca00-4dbf-ada0-578bc3d8f529","system_id":"levelo_inurba_marseille","lat":43.27297,"lon":5.41431,"is_reserved":false,"is_disabled":false,"rental_uris":{"android":"levelo://app?vid=e986eb56-ca00-4dbf-ada0-578bc3d8f529","ios":"levelo://app?vid=e986eb56-ca00-4dbf-ada0-578bc3d8f529"},"vehicle_type_id":"4","last_reported":1761235994,"current_range_meters":16800,"station_id":"","pricing_plan_id":"cebpf4jnsgd1na2vs0mg"},{"bike_id":"2bfc3ff7-8602-463e-9387-a6b2eb8e1256","system_id":"levelo_inurba_marseille","lat":43.284021,"lon":5.349836,"is_reserved":false,"is_disabled":false,"rental_uris":{"android":"levelo://app?vid=2bfc3ff7-8602-463e-9387-a6b2eb8e1256","ios":"levelo://app?vid=2bfc3ff7-8602-463e-9387-a6b2eb8e1256"},"vehicle_type_id":"4","last_reported":1761235994,"current_range_meters":16800,"station_id":"ce4bhbh2rcd13ifvqepg","pricing_plan_id":"cebpf4jnsgd1na2vs0mg"},{"bike_id":"a90d272f-0aa5-445e-a886-4dcfc25d0e31","system_id":"levelo_inurba_marseille","lat":43.31168,"lon":5.38725,"is_reserved":false,"is_disabled":false,"rental_uris":{"android":"levelo://app?vid=a90d272f-0aa5-445e-a886-4dcfc25d0e31","ios":"levelo://app?vid=a90d272f-0aa5-445e-a886-4dcfc25d0e31"},"vehicle_type_id":"4","last_reported":1761235994,"current_range_meters":16800,"station_id":"ce4bgv12rcd13ifvqcp0","pricing_plan_id":"cebpf4jnsgd1na2vs0mg"},{"bike_id":"700ba852-502b-4548-93e2-c530c2b9889c","system_id":"levelo_inurba_marseille","lat":43.30541,"lon":5.36518,"is_reserved":false,"is_disabled":false,"rental_uris":{"android":"levelo://app?vid=700ba852-502b-4548-93e2-c530c2b9889c","ios":"levelo://app?vid=700ba852-502b-4548-93e2-c530c2b9889c"},"vehicle_type_id":"4","last_reported":1761235994,"current_range_meters":16800,"station_id":"ce4bgs12rcd13ifvqcag","pricing_plan_id":"cebpf4jnsgd1na2vs0mg"},{"bike_id":"f7e6ebb5-989a-4056-a457-ebeae2804384","system_id":"levelo_inurba_marseille","lat":43.26556,"lon":5.3901,"is_reserved":false,"is_disabled":false,"rental_uris":{"android":"levelo://app?vid=f7e6ebb5-989a-4056-a457-ebeae2804384","ios":"levelo://app?vid=f7e6ebb5-989a-4056-a457-ebeae2804384"},"vehicle_type_id":"4","last_reported":1761235994,"current_range_meters":16800,"station_id":"ce4bhe12rcd13ifvqf30","pricing_plan_id":"cebpf4jnsgd1na2vs0mg"},{"bike_id":"9183c383-ddde-4bf9-9751-b7a9b5555838","system_id":"levelo_inurba_marseille","lat":43.2841,"lon":5.37517,"is_reserved":false,"is_disabled":false,"rental_uris":{"android":"levelo://app?vid=9183c383-ddde-4bf9-9751-b7a9b5555838","ios":"levelo://app?vid=9183c383-ddde-4bf9-9751-b7a9b5555838"},"vehicle_type_id":"4","last_reported":1761235994,"current_range_meters":16800,"station_id":"ce4bh412rcd13ifvqds0","pricing_plan_id":"cebpf4jnsgd1na2vs0mg"},{"bike_id":"b21b6ff6-0929-4acd-a3b0-3f248e63c66d","system_id":"levelo_inurba_marseille","lat":43.32111,"lon":5.36793,"is_reserved":false,"is_disabled":false,"rental_uris":{"android":"levelo://app?vid=b21b6ff6-0929-4acd-a3b0-3f248e63c66d","ios":"levelo://app?vid=b21b6ff6-0929-4acd-a3b0-3f248e63c66d"},"vehicle_type_id":"4","last_reported":1761235994,"current_range_meters":17200,"station_id":"ce4bhrh2rcd13ifvqhug","pricing_plan_id":"cebpf4jnsgd1na2vs0mg"},{"bike_id":"6250ac27-ee37-41d1-bc0f-a615c7912f4a","system_id":"levelo_inurba_marseille","lat":43.32354,"lon":5.36762,"is_reserved":false,"is_disabled":false,"rental_uris":{"android":"levelo://app?vid=6250ac27-ee37-41d1-bc0f-a615c7912f4a","ios":"levelo://app?vid=6250ac27-ee37-41d1-bc0f-a615c7912f4a"},"vehicle_type_id":"4","last_reported":1761235994,"current_range_meters":17200,"station_id":"ce4bhsh2rcd13ifvqi2g","pricing_plan_id":"cebpf4jnsgd1na2vs0mg"},{"bike_id":"517286ab-ae7f-4224-b944-bdb6e590a082","system_id":"levelo_inurba_marseille","lat":43.29865,"lon":5.39734,"is_reserved":false,"is_disabled":false,"rental_uris":{"android":"levelo://app?vid=517286ab-ae7f-4224-b944-bdb6e590a082","ios":"levelo://app?vid=517286ab-ae7f-4224-b944-bdb6e590a082"},"vehicle_type_id":"4","last_reported":1761235994,"current_range_meters":17200,"station_id":"ce4bh0h2rcd13ifvqd50","pricing_plan_id":"cebpf4jnsgd1na2vs0mg"},{"bike_id":"37beb4d4-2b6e-43a0-99d0-b5439a1a17a0","system_id":"levelo_inurba_marseille","lat":43.303248,"lon":5.404474,"is_reserved":false,"is_disabled":false,"rental_uris":{"android":"levelo://app?vid=37beb4d4-2b6e-43a0-99d0-b5439a1a17a0","ios":"levelo://app?vid=37beb4d4-2b6e-43a0-99d0-b5439a1a17a0"},"vehicle_type_id":"4","last_reported":1761235994,"current_range_meters":17200,"station_id":"ce4bh012rcd13ifvqd10","pricing_plan_id":"cebpf4jnsgd1na2vs0mg"},{"bike_id":"4915ee25-4626-4438-87cb-ba654e6e8c82","system_id":"levelo_inurba_marseille","lat":43.24664,"lon":5.38162,"is_reserved":false,"is_disabled":false,"rental_uris":{"android":"levelo://app?vid=4915ee25-4626-4438-87cb-ba654e6e8c82","ios":"levelo://app?vid=4915ee25-4626-4438-87cb-ba654e6e8c82"},"vehicle_type_id":"4","last_reported":1761235994,"current_range_meters":17200,"station_id":"ce4bhih2rcd13ifvqfr0","pricing_plan_id":"cebpf4jnsgd1na2vs0mg"},{"bike_id":"c12a786b-d447-4373-876a-58fc20f19148","system_id":"levelo_inurba_marseille","lat":43.29878,"lon":5.43681,"is_reserved":false,"is_disabled":false,"rental_uris":{"android":"levelo://app?vid=c12a786b-d447-4373-876a-58fc20f19148","ios":"levelo://app?vid=c12a786b-d447-4373-876a-58fc20f19148"},"vehicle_type_id":"4","last_reported":1761235994,"current_range_meters":17200,"station_id":"ce4bhpp2rcd13ifvqhfg","pricing_plan_id":"cebpf4jnsgd1na2vs0mg"},{"bike_id":"24341219-40e6-4e52-9610-3f2b95287da9","system_id":"levelo_inurba_marseille","lat":43.29303,"lon":5.37455,"is_reserved":false,"is_disabled":false,"rental_uris":{"android":"levelo://app?vid=24341219-40e6-4e52-9610-3f2b95287da9","ios":"levelo://app?vid=24341219-40e6-4e52-9610-3f2b95287da9"},"vehicle_type_id":"4","last_reported":1761235994,"current_range_meters":17200,"station_id":"ce4bgi12rcd13ifvqb70","pricing_plan_id":"cebpf4jnsgd1na2vs0mg"},{"bike_id":"8c8fb62c-ad3c-4fec-8adf-4fb548759c23","system_id":"levelo_inurba_marseille","lat":43.33028,"lon":5.39042,"is_reserved":false,"is_disabled":false,"rental_uris":{"android":"levelo://app?vid=8c8fb62c-ad3c-4fec-8adf-4fb548759c23","ios":"levelo://app?vid=8c8fb62c-ad3c-4fec-8adf-4fb548759c23"},"vehicle_type_id":"4","last_reported":1761235994,"current_range_meters":17200,"station_id":"ce4bhr92rcd13ifvqhrg","pricing_plan_id":"cebpf4jnsgd1na2vs0mg"},{"bike_id":"d9ecb998-ceaa-4a39-8aba-9f0e44069447","system_id":"levelo_inurba_marseille","lat":43.32147,"lon":5.38731,"is_reserved":false,"is_disabled":false,"rental_uris":{"android":"levelo://app?vid=d9ecb998-ceaa-4a39-8aba-9f0e44069447","ios":"levelo://app?vid=d9ecb998-ceaa-4a39-8aba-9f0e44069447"},"vehicle_type_id":"4","last_reported":1761235994,"current_range_meters":17200,"station_id":"","pricing_plan_id":"cebpf4jnsgd1na2vs0mg"},{"bike_id":"006d5f3f-4b95-4690-9fbf-9ae85cb6b8fa","system_id":"levelo_inurba_marseille","lat":43.298578,"lon":5.363053,"is_reserved":false,"is_disabled":false,"rental_uris":{"android":"levelo://app?vid=006d5f3f-4b95-4690-9fbf-9ae85cb6b8fa","ios":"levelo://app?vid=006d5f3f-4b95-4690-9fbf-9ae85cb6b8fa"},"vehicle_type_id":"4","last_reported":1761235994,"current_range_meters":17600,"station_id":"ce4bgpp2rcd13ifvqc3g","pricing_plan_id":"cebpf4jnsgd1na2vs0mg"},{"bike_id":"d7ee83eb-ff8f-46b0-9925-8298dbedac1a","system_id":"levelo_inurba_marseille","lat":43.32246,"lon":5.38357,"is_reserved":false,"is_disabled":false,"rental_uris":{"android":"levelo://app?vid=d7ee83eb-ff8f-46b0-9925-8298dbedac1a","ios":"levelo://app?vid=d7ee83eb-ff8f-46b0-9925-8298dbedac1a"},"vehicle_type_id":"4","last_reported":1761235994,"current_range_meters":17600,"station_id":"ce4bhr12rcd13ifvqhqg","pricing_plan_id":"cebpf4jnsgd1na2vs0mg"},{"bike_id":"5db0d44d-18b4-422a-9766-a3218057e91c","system_id":"levelo_inurba_marseille","lat":43.22928,"lon":5.35373,"is_reserved":false,"is_disabled":false,"rental_uris":{"android":"levelo://app?vid=5db0d44d-18b4-422a-9766-a3218057e91c","ios":"levelo://app?vid=5db0d44d-18b4-422a-9766-a3218057e91c"},"vehicle_type_id":"4","last_reported":1761235994,"current_range_meters":17600,"station_id":"cpo3532slgdg3j2ikp40","pricing_plan_id":"cebpf4jnsgd1na2vs0mg"},{"bike_id":"5974186b-c5b8-47a7-9fbe-6361e5d285a1","system_id":"levelo_inurba_marseille","lat":43.29372,"lon":5.37818,"is_reserved":false,"is_disabled":false,"rental_uris":{"android":"levelo://app?vid=5974186b-c5b8-47a7-9fbe-6361e5d285a1","ios":"levelo://app?vid=5974186b-c5b8-47a7-9fbe-6361e5d285a1"},"vehicle_type_id":"4","last_reported":1761235994,"current_range_meters":17600,"station_id":"ce4bgjh2rcd13ifvqbf0","pricing_plan_id":"cebpf4jnsgd1na2vs0mg"},{"bike_id":"2e516aa3-da3f-4cd4-8d7a-1dc8bf5d8ddd","system_id":"levelo_inurba_marseille","lat":43.32084,"lon":5.36806,"is_reserved":false,"is_disabled":false,"rental_uris":{"android":"levelo://app?vid=2e516aa3-da3f-4cd4-8d7a-1dc8bf5d8ddd","ios":"levelo://app?vid=2e516aa3-da3f-4cd4-8d7a-1dc8bf5d8ddd"},"vehicle_type_id":"4","last_reported":1761235994,"current_range_meters":17600,"station_id":"ce4bhrh2rcd13ifvqhug","pricing_plan_id":"cebpf4jnsgd1na2vs0mg"},{"bike_id":"82a6ac02-8c08-4f93-844a-981cd0f715d0","system_id":"levelo_inurba_marseille","lat":43.255055,"lon":5.376614,"is_reserved":false,"is_disabled":false,"rental_uris":{"android":"levelo://app?vid=82a6ac02-8c08-4f93-844a-981cd0f715d0","ios":"levelo://app?vid=82a6ac02-8c08-4f93-844a-981cd0f715d0"},"vehicle_type_id":"4","last_reported":1761235994,"current_range_meters":17600,"station_id":"ce4bhh12rcd13ifvqff0","pricing_plan_id":"cebpf4jnsgd1na2vs0mg"},{"bike_id":"6e5819f8-f2c9-45f6-93c2-2c42d156ed23","system_id":"levelo_inurba_marseille","lat":43.29003,"lon":5.35606,"is_reserved":false,"is_disabled":false,"rental_uris":{"android":"levelo://app?vid=6e5819f8-f2c9-45f6-93c2-2c42d156ed23","ios":"levelo://app?vid=6e5819f8-f2c9-45f6-93c2-2c42d156ed23"},"vehicle_type_id":"4","last_reported":1761235994,"current_range_meters":17600,"station_id":"ce4bhb92rcd13ifvqen0","pricing_plan_id":"cebpf4jnsgd1na2vs0mg"},{"bike_id":"bdf06a2e-33b6-4733-bfe9-fc8ab71cb167","system_id":"levelo_inurba_marseille","lat":43.30348,"lon":5.41884,"is_reserved":false,"is_disabled":false,"rental_uris":{"android":"levelo://app?vid=bdf06a2e-33b6-4733-bfe9-fc8ab71cb167","ios":"levelo://app?vid=bdf06a2e-33b6-4733-bfe9-fc8ab71cb167"},"vehicle_type_id":"4","last_reported":1761235994,"current_range_meters":17600,"station_id":"ce4bhop2rcd13ifvqh7g","pricing_plan_id":"cebpf4jnsgd1na2vs0mg"},{"bike_id":"586b1be7-5da6-4858-a3d3-cb38074fb654","system_id":"levelo_inurba_marseille","lat":43.30258,"lon":5.40068,"is_reserved":false,"is_disabled":false,"rental_uris":{"android":"levelo://app?vid=586b1be7-5da6-4858-a3d3-cb38074fb654","ios":"levelo://app?vid=586b1be7-5da6-4858-a3d3-cb38074fb654"},"vehicle_type_id":"4","last_reported":1761235994,"current_range_meters":17600,"station_id":"ce4bgvh2rcd13ifvqcs0","pricing_plan_id":"cebpf4jnsgd1na2vs0mg"},{"bike_id":"31aa2bb9-03b3-40a3-9fee-5f09137a5ed7","system_id":"levelo_inurba_marseille","lat":43.28355,"lon":5.38112,"is_reserved":false,"is_disabled":false,"rental_uris":{"android":"levelo://app?vid=31aa2bb9-03b3-40a3-9fee-5f09137a5ed7","ios":"levelo://app?vid=31aa2bb9-03b3-40a3-9fee-5f09137a5ed7"},"vehicle_type_id":"4","last_reported":1761235994,"current_range_meters":18000,"station_id":"ce4bh412rcd13ifvqdr0","pricing_plan_id":"cebpf4jnsgd1na2vs0mg"},{"bike_id":"f43b138a-dc5f-4ede-86a5-6d53b81781e8","system_id":"levelo_inurba_marseille","lat":43.312695,"lon":5.401714,"is_reserved":false,"is_disabled":false,"rental_uris":{"android":"levelo://app?vid=f43b138a-dc5f-4ede-86a5-6d53b81781e8","ios":"levelo://app?vid=f43b138a-dc5f-4ede-86a5-6d53b81781e8"},"vehicle_type_id":"4","last_reported":1761235994,"current_range_meters":18000,"station_id":"ce4bh092rcd13ifvqd30","pricing_plan_id":"cebpf4jnsgd1na2vs0mg"},{"bike_id":"29aa1ad4-6aee-434a-92a1-b52b673a3462","system_id":"levelo_inurba_marseille","lat":43.291233,"lon":5.355757,"is_reserved":false,"is_disabled":false,"rental_uris":{"android":"levelo://app?vid=29aa1ad4-6aee-434a-92a1-b52b673a3462","ios":"levelo://app?vid=29aa1ad4-6aee-434a-92a1-b52b673a3462"},"vehicle_type_id":"4","last_reported":1761235994,"current_range_meters":18000,"station_id":"ce4bhch2rcd13ifvqeug","pricing_plan_id":"cebpf4jnsgd1na2vs0mg"},{"bike_id":"2856560f-73fa-44eb-bee4-c84f94d48d4b","system_id":"levelo_inurba_marseille","lat":43.30611,"lon":5.37208,"is_reserved":false,"is_disabled":false,"rental_uris":{"android":"levelo://app?vid=2856560f-73fa-44eb-bee4-c84f94d48d4b","ios":"levelo://app?vid=2856560f-73fa-44eb-bee4-c84f94d48d4b"},"vehicle_type_id":"4","last_reported":1761235994,"current_range_meters":18000,"station_id":"ce4bgqh2rcd13ifvqc4g","pricing_plan_id":"cebpf4jnsgd1na2vs0mg"},{"bike_id":"f8c755d7-1bb8-4fcd-bb3f-74aeb49951cc","system_id":"levelo_inurba_marseille","lat":43.313802,"lon":5.379006,"is_reserved":false,"is_disabled":false,"rental_uris":{"android":"levelo://app?vid=f8c755d7-1bb8-4fcd-bb3f-74aeb49951cc","ios":"levelo://app?vid=f8c755d7-1bb8-4fcd-bb3f-74aeb49951cc"},"vehicle_type_id":"4","last_reported":1761235994,"current_range_meters":18000,"station_id":"","pricing_plan_id":"cebpf4jnsgd1na2vs0mg"},{"bike_id":"0c216ec5-2d75-4ee4-a223-b0d23bee74b5","system_id":"levelo_inurba_marseille","lat":43.24585,"lon":5.39013,"is_reserved":false,"is_disabled":false,"rental_uris":{"android":"levelo://app?vid=0c216ec5-2d75-4ee4-a223-b0d23bee74b5","ios":"levelo://app?vid=0c216ec5-2d75-4ee4-a223-b0d23bee74b5"},"vehicle_type_id":"4","last_reported":1761235994,"current_range_meters":18000,"station_id":"","pricing_plan_id":"cebpf4jnsgd1na2vs0mg"},{"bike_id":"1f943ce4-cc0f-46a6-bbac-ca1a996e23fe","system_id":"levelo_inurba_marseille","lat":43.29783,"lon":5.38119,"is_reserved":false,"is_disabled":false,"rental_uris":{"android":"levelo://app?vid=1f943ce4-cc0f-46a6-bbac-ca1a996e23fe","ios":"levelo://app?vid=1f943ce4-cc0f-46a6-bbac-ca1a996e23fe"},"vehicle_type_id":"4","last_reported":1761235994,"current_range_meters":18000,"station_id":"ce4bgip2rcd13ifvqbb0","pricing_plan_id":"cebpf4jnsgd1na2vs0mg"},{"bike_id":"21fe0c7e-81cc-409a-afc7-a770f99a45ba","system_id":"levelo_inurba_marseille","lat":43.297964,"lon":5.40401,"is_reserved":false,"is_disabled":false,"rental_uris":{"android":"levelo://app?vid=21fe0c7e-81cc-409a-afc7-a770f99a45ba","ios":"levelo://app?vid=21fe0c7e-81cc-409a-afc7-a770f99a45ba"},"vehicle_type_id":"4","last_reported":1761235994,"current_range_meters":18000,"station_id":"ce4bh112rcd13ifvqd90","pricing_plan_id":"cebpf4jnsgd1na2vs0mg"},{"bike_id":"d7d51025-4520-44ed-8f69-e3337ecfbb60","system_id":"levelo_inurba_marseille","lat":43.292641,"lon":5.384162,"is_reserved":false,"is_disabled":false,"rental_uris":{"android":"levelo://app?vid=d7d51025-4520-44ed-8f69-e3337ecfbb60","ios":"levelo://app?vid=d7d51025-4520-44ed-8f69-e3337ecfbb60"},"vehicle_type_id":"4","last_reported":1761235994,"current_range_meters":18800,"station_id":"ce4bh692rcd13ifvqea0","pricing_plan_id":"cebpf4jnsgd1na2vs0mg"},{"bike_id":"87b07aa1-1cef-47f0-b2e2-6940c4d0c375","system_id":"levelo_inurba_marseille","lat":43.29584,"lon":5.37496,"is_reserved":false,"is_disabled":false,"rental_uris":{"android":"levelo://app?vid=87b07aa1-1cef-47f0-b2e2-6940c4d0c375","ios":"levelo://app?vid=87b07aa1-1cef-47f0-b2e2-6940c4d0c375"},"vehicle_type_id":"4","last_reported":1761235994,"current_range_meters":18800,"station_id":"ce4bgh92rcd13ifvqb50","pricing_plan_id":"cebpf4jnsgd1na2vs0mg"},{"bike_id":"75552eb5-38a2-43ca-9291-cacb859b6f73","system_id":"levelo_inurba_marseille","lat":43.284215,"lon":5.349847,"is_reserved":false,"is_disabled":false,"rental_uris":{"android":"levelo://app?vid=75552eb5-38a2-43ca-9291-cacb859b6f73","ios":"levelo://app?vid=75552eb5-38a2-43ca-9291-cacb859b6f73"},"vehicle_type_id":"4","last_reported":1761235994,"current_range_meters":18800,"station_id":"","pricing_plan_id":"cebpf4jnsgd1na2vs0mg"},{"bike_id":"52a04b7c-586f-491c-aded-7c538741c912","system_id":"levelo_inurba_marseille","lat":43.30319,"lon":5.36895,"is_reserved":false,"is_disabled":false,"rental_uris":{"android":"levelo://app?vid=52a04b7c-586f-491c-aded-7c538741c912","ios":"levelo://app?vid=52a04b7c-586f-491c-aded-7c538741c912"},"vehicle_type_id":"4","last_reported":1761235994,"current_range_meters":18800,"station_id":"ce4bgqh2rcd13ifvqc5g","pricing_plan_id":"cebpf4jnsgd1na2vs0mg"},{"bike_id":"9dbd8ae5-6dc2-4c8d-8cc8-7a30fd8ac080","system_id":"levelo_inurba_marseille","lat":43.290139,"lon":5.38644,"is_reserved":false,"is_disabled":false,"rental_uris":{"android":"levelo://app?vid=9dbd8ae5-6dc2-4c8d-8cc8-7a30fd8ac080","ios":"levelo://app?vid=9dbd8ae5-6dc2-4c8d-8cc8-7a30fd8ac080"},"vehicle_type_id":"4","last_reported":1761235994,"current_range_meters":18800,"station_id":"","pricing_plan_id":"cebpf4jnsgd1na2vs0mg"},{"bike_id":"2dbd2e6d-468b-48cc-ad54-eb03cb3e8096","system_id":"levelo_inurba_marseille","lat":43.28688,"lon":5.37397,"is_reserved":false,"is_disabled":false,"rental_uris":{"android":"levelo://app?vid=2dbd2e6d-468b-48cc-ad54-eb03cb3e8096","ios":"levelo://app?vid=2dbd2e6d-468b-48cc-ad54-eb03cb3e8096"},"vehicle_type_id":"4","last_reported":1761235994,"current_range_meters":19200,"station_id":"ce4bh3p2rcd13ifvqdq0","pricing_plan_id":"cebpf4jnsgd1na2vs0mg"},{"bike_id":"e79dee5d-ae56-49fc-b711-bf074bb53f4d","system_id":"levelo_inurba_marseille","lat":43.28579,"lon":5.37089,"is_reserved":false,"is_disabled":false,"rental_uris":{"android":"levelo://app?vid=e79dee5d-ae56-49fc-b711-bf074bb53f4d","ios":"levelo://app?vid=e79dee5d-ae56-49fc-b711-bf074bb53f4d"},"vehicle_type_id":"4","last_reported":1761235994,"current_range_meters":19200,"station_id":"ce4bht12rcd13ifvqi60","pricing_plan_id":"cebpf4jnsgd1na2vs0mg"},{"bike_id":"ec9665a2-32ab-42b2-9bdf-cf94d158a9c2","system_id":"levelo_inurba_marseille","lat":43.3015,"lon":5.3696,"is_reserved":false,"is_disabled":false,"rental_uris":{"android":"levelo://app?vid=ec9665a2-32ab-42b2-9bdf-cf94d158a9c2","ios":"levelo://app?vid=ec9665a2-32ab-42b2-9bdf-cf94d158a9c2"},"vehicle_type_id":"4","last_reported":1761235994,"current_range_meters":19200,"station_id":"","pricing_plan_id":"cebpf4jnsgd1na2vs0mg"},{"bike_id":"44e0a8a6-bc77-498e-a04d-8008ed565f49","system_id":"levelo_inurba_marseille","lat":43.28412,"lon":5.37518,"is_reserved":false,"is_disabled":false,"rental_uris":{"android":"levelo://app?vid=44e0a8a6-bc77-498e-a04d-8008ed565f49","ios":"levelo://app?vid=44e0a8a6-bc77-498e-a04d-8008ed565f49"},"vehicle_type_id":"4","last_reported":1761235994,"current_range_meters":19200,"station_id":"ce4bh412rcd13ifvqds0","pricing_plan_id":"cebpf4jnsgd1na2vs0mg"},{"bike_id":"a0a3e2e6-f6d9-4e27-a510-a2aa84830e78","system_id":"levelo_inurba_marseille","lat":43.30885,"lon":5.37844,"is_reserved":false,"is_disabled":false,"rental_uris":{"android":"levelo://app?vid=a0a3e2e6-f6d9-4e27-a510-a2aa84830e78","ios":"levelo://app?vid=a0a3e2e6-f6d9-4e27-a510-a2aa84830e78"},"vehicle_type_id":"4","last_reported":1761235994,"current_range_meters":19200,"station_id":"","pricing_plan_id":"cebpf4jnsgd1na2vs0mg"},{"bike_id":"47f09c0c-92a9-44eb-a23c-69934b3ff134","system_id":"levelo_inurba_marseille","lat":43.30112,"lon":5.43123,"is_reserved":false,"is_disabled":false,"rental_uris":{"android":"levelo://app?vid=47f09c0c-92a9-44eb-a23c-69934b3ff134","ios":"levelo://app?vid=47f09c0c-92a9-44eb-a23c-69934b3ff134"},"vehicle_type_id":"4","last_reported":1761235994,"current_range_meters":19200,"station_id":"st_d3js3co5814s73ftftug","pricing_plan_id":"cebpf4jnsgd1na2vs0mg"},{"bike_id":"07b24452-dd61-4b27-bc7e-074601fe150f","system_id":"levelo_inurba_marseille","lat":43.298351,"lon":5.363089,"is_reserved":false,"is_disabled":false,"rental_uris":{"android":"levelo://app?vid=07b24452-dd61-4b27-bc7e-074601fe150f","ios":"levelo://app?vid=07b24452-dd61-4b27-bc7e-074601fe150f"},"vehicle_type_id":"4","last_reported":1761235994,"current_range_meters":19200,"station_id":"ce4bgpp2rcd13ifvqc3g","pricing_plan_id":"cebpf4jnsgd1na2vs0mg"},{"bike_id":"77124793-d73a-43ea-8840-1a1b5476fa23","system_id":"levelo_inurba_marseille","lat":43.31049,"lon":5.38105,"is_reserved":false,"is_disabled":false,"rental_uris":{"android":"levelo://app?vid=77124793-d73a-43ea-8840-1a1b5476fa23","ios":"levelo://app?vid=77124793-d73a-43ea-8840-1a1b5476fa23"},"vehicle_type_id":"4","last_reported":1761235994,"current_range_meters":19200,"station_id":"","pricing_plan_id":"cebpf4jnsgd1na2vs0mg"},{"bike_id":"df76a65d-68a6-4111-9413-af1547686a59","system_id":"levelo_inurba_marseille","lat":43.305592,"lon":5.365701,"is_reserved":false,"is_disabled":false,"rental_uris":{"android":"levelo://app?vid=df76a65d-68a6-4111-9413-af1547686a59","ios":"levelo://app?vid=df76a65d-68a6-4111-9413-af1547686a59"},"vehicle_type_id":"4","last_reported":1761235994,"current_range_meters":19600,"station_id":"ce4bgs12rcd13ifvqcag","pricing_plan_id":"cebpf4jnsgd1na2vs0mg"},{"bike_id":"4b9d7018-3821-44e2-a308-dd865224f02d","system_id":"levelo_inurba_marseille","lat":43.307884,"lon":5.376577,"is_reserved":false,"is_disabled":false,"rental_uris":{"android":"levelo://app?vid=4b9d7018-3821-44e2-a308-dd865224f02d","ios":"levelo://app?vid=4b9d7018-3821-44e2-a308-dd865224f02d"},"vehicle_type_id":"4","last_reported":1761235994,"current_range_meters":19600,"station_id":"ce4bgv92rcd13ifvqcq0","pricing_plan_id":"cebpf4jnsgd1na2vs0mg"},{"bike_id":"2218a639-ff60-46d1-a353-239f7aea6a1b","system_id":"levelo_inurba_marseille","lat":43.26934,"lon":5.389243,"is_reserved":false,"is_disabled":false,"rental_uris":{"android":"levelo://app?vid=2218a639-ff60-46d1-a353-239f7aea6a1b","ios":"levelo://app?vid=2218a639-ff60-46d1-a353-239f7aea6a1b"},"vehicle_type_id":"4","last_reported":1761235994,"current_range_meters":19600,"station_id":"ce4bhhh2rcd13ifvqfl0","pricing_plan_id":"cebpf4jnsgd1na2vs0mg"},{"bike_id":"0f7b7002-8e7c-4182-8af2-d72a9c66b4ac","system_id":"levelo_inurba_marseille","lat":43.286781,"lon":5.363557,"is_reserved":false,"is_disabled":false,"rental_uris":{"android":"levelo://app?vid=0f7b7002-8e7c-4182-8af2-d72a9c66b4ac","ios":"levelo://app?vid=0f7b7002-8e7c-4182-8af2-d72a9c66b4ac"},"vehicle_type_id":"4","last_reported":1761235994,"current_range_meters":19600,"station_id":"ce4bhah2rcd13ifvqej0","pricing_plan_id":"cebpf4jnsgd1na2vs0mg"},{"bike_id":"75ff4f49-276b-4df4-a7bb-3e5589fb454f","system_id":"levelo_inurba_marseille","lat":43.286812,"lon":5.373822,"is_reserved":false,"is_disabled":false,"rental_uris":{"android":"levelo://app?vid=75ff4f49-276b-4df4-a7bb-3e5589fb454f","ios":"levelo://app?vid=75ff4f49-276b-4df4-a7bb-3e5589fb454f"},"vehicle_type_id":"4","last_reported":1761235994,"current_range_meters":19600,"station_id":"ce4bh3p2rcd13ifvqdq0","pricing_plan_id":"cebpf4jnsgd1na2vs0mg"},{"bike_id":"571c8998-5d42-4c92-84ed-f171c0e114c3","system_id":"levelo_inurba_marseille","lat":43.30114,"lon":5.39858,"is_reserved":false,"is_disabled":false,"rental_uris":{"android":"levelo://app?vid=571c8998-5d42-4c92-84ed-f171c0e114c3","ios":"levelo://app?vid=571c8998-5d42-4c92-84ed-f171c0e114c3"},"vehicle_type_id":"4","last_reported":1761235994,"current_range_meters":19600,"station_id":"ce4bh0h2rcd13ifvqd40","pricing_plan_id":"cebpf4jnsgd1na2vs0mg"},{"bike_id":"67de7296-263f-47f9-9c5f-b82795eccae9","system_id":"levelo_inurba_marseille","lat":43.279375,"lon":5.410466,"is_reserved":false,"is_disabled":false,"rental_uris":{"android":"levelo://app?vid=67de7296-263f-47f9-9c5f-b82795eccae9","ios":"levelo://app?vid=67de7296-263f-47f9-9c5f-b82795eccae9"},"vehicle_type_id":"4","last_reported":1761235994,"current_range_meters":19600,"station_id":"","pricing_plan_id":"cebpf4jnsgd1na2vs0mg"},{"bike_id":"2bcc8ee3-3382-45a2-997b-3eefd0d9a3e5","system_id":"levelo_inurba_marseille","lat":43.30428,"lon":5.39753,"is_reserved":false,"is_disabled":false,"rental_uris":{"android":"levelo://app?vid=2bcc8ee3-3382-45a2-997b-3eefd0d9a3e5","ios":"levelo://app?vid=2bcc8ee3-3382-45a2-997b-3eefd0d9a3e5"},"vehicle_type_id":"4","last_reported":1761235994,"current_range_meters":19600,"station_id":"ce4bh092rcd13ifvqd20","pricing_plan_id":"cebpf4jnsgd1na2vs0mg"},{"bike_id":"ace3309e-9a2e-46b8-802d-e7cc0a911f9d","system_id":"levelo_inurba_marseille","lat":43.323579,"lon":5.367671,"is_reserved":false,"is_disabled":false,"rental_uris":{"android":"levelo://app?vid=ace3309e-9a2e-46b8-802d-e7cc0a911f9d","ios":"levelo://app?vid=ace3309e-9a2e-46b8-802d-e7cc0a911f9d"},"vehicle_type_id":"4","last_reported":1761235994,"current_range_meters":19600,"station_id":"ce4bhsh2rcd13ifvqi2g","pricing_plan_id":"cebpf4jnsgd1na2vs0mg"},{"bike_id":"853d707f-29db-476f-83f6-9e1a018df5dd","system_id":"levelo_inurba_marseille","lat":43.2978,"lon":5.39322,"is_reserved":false,"is_disabled":false,"rental_uris":{"android":"levelo://app?vid=853d707f-29db-476f-83f6-9e1a018df5dd","ios":"levelo://app?vid=853d707f-29db-476f-83f6-9e1a018df5dd"},"vehicle_type_id":"4","last_reported":1761235994,"current_range_meters":19600,"station_id":"chh1huq6cuj3fo74tm60","pricing_plan_id":"cebpf4jnsgd1na2vs0mg"},{"bike_id":"2b90528e-5ad1-4023-af22-47f0e1a35184","system_id":"levelo_inurba_marseille","lat":43.29855,"lon":5.39776,"is_reserved":false,"is_disabled":false,"rental_uris":{"android":"levelo://app?vid=2b90528e-5ad1-4023-af22-47f0e1a35184","ios":"levelo://app?vid=2b90528e-5ad1-4023-af22-47f0e1a35184"},"vehicle_type_id":"4","last_reported":1761235994,"current_range_meters":20000,"station_id":"ce4bh0h2rcd13ifvqd50","pricing_plan_id":"cebpf4jnsgd1na2vs0mg"},{"bike_id":"468ea685-2f35-4772-9a1e-90437d909e9b","system_id":"levelo_inurba_marseille","lat":43.28857,"lon":5.35853,"is_reserved":false,"is_disabled":false,"rental_uris":{"android":"levelo://app?vid=468ea685-2f35-4772-9a1e-90437d909e9b","ios":"levelo://app?vid=468ea685-2f35-4772-9a1e-90437d909e9b"},"vehicle_type_id":"4","last_reported":1761235994,"current_range_meters":20000,"station_id":"ce4bhb12rcd13ifvqem0","pricing_plan_id":"cebpf4jnsgd1na2vs0mg"},{"bike_id":"249615da-bae2-4bb3-9506-b338b9fb85b7","system_id":"levelo_inurba_marseille","lat":43.29722,"lon":5.37712,"is_reserved":false,"is_disabled":true,"rental_uris":{"android":"levelo://app?vid=249615da-bae2-4bb3-9506-b338b9fb85b7","ios":"levelo://app?vid=249615da-bae2-4bb3-9506-b338b9fb85b7"},"vehicle_type_id":"4","last_reported":1761235994,"current_range_meters":20000,"station_id":"ce4bgkh2rcd13ifvqbl0","pricing_plan_id":"cebpf4jnsgd1na2vs0mg"},{"bike_id":"2087b646-f196-4c5f-b880-88d0df9000fb","system_id":"levelo_inurba_marseille","lat":43.28156,"lon":5.42639,"is_reserved":false,"is_disabled":false,"rental_uris":{"android":"levelo://app?vid=2087b646-f196-4c5f-b880-88d0df9000fb","ios":"levelo://app?vid=2087b646-f196-4c5f-b880-88d0df9000fb"},"vehicle_type_id":"4","last_reported":1761235994,"current_range_meters":20000,"station_id":"ce4bhnh2rcd13ifvqgug","pricing_plan_id":"cebpf4jnsgd1na2vs0mg"},{"bike_id":"cd3686ef-96b9-4934-a9cb-a7024d581b4d","system_id":"levelo_inurba_marseille","lat":43.30216,"lon":5.3947,"is_reserved":false,"is_disabled":false,"rental_uris":{"android":"levelo://app?vid=cd3686ef-96b9-4934-a9cb-a7024d581b4d","ios":"levelo://app?vid=cd3686ef-96b9-4934-a9cb-a7024d581b4d"},"vehicle_type_id":"4","last_reported":1761235994,"current_range_meters":20000,"station_id":"ce4bh0p2rcd13ifvqd70","pricing_plan_id":"cebpf4jnsgd1na2vs0mg"},{"bike_id":"e4d9d28d-de5d-4eba-b45f-0315c6967297","system_id":"levelo_inurba_marseille","lat":43.25072,"lon":5.39521,"is_reserved":false,"is_disabled":false,"rental_uris":{"android":"levelo://app?vid=e4d9d28d-de5d-4eba-b45f-0315c6967297","ios":"levelo://app?vid=e4d9d28d-de5d-4eba-b45f-0315c6967297"},"vehicle_type_id":"4","last_reported":1761235994,"current_range_meters":20000,"station_id":"ce4bhm12rcd13ifvqgkg","pricing_plan_id":"cebpf4jnsgd1na2vs0mg"},{"bike_id":"d29d9df7-d1be-4806-ade5-b52579761d67","system_id":"levelo_inurba_marseille","lat":43.295632,"lon":5.375025,"is_reserved":false,"is_disabled":false,"rental_uris":{"android":"levelo://app?vid=d29d9df7-d1be-4806-ade5-b52579761d67","ios":"levelo://app?vid=d29d9df7-d1be-4806-ade5-b52579761d67"},"vehicle_type_id":"4","last_reported":1761235994,"current_range_meters":20000,"station_id":"","pricing_plan_id":"cebpf4jnsgd1na2vs0mg"},{"bike_id":"d216f701-d039-416d-8464-d2169e2c53fe","system_id":"levelo_inurba_marseille","lat":43.22942,"lon":5.3537,"is_reserved":false,"is_disabled":false,"rental_uris":{"android":"levelo://app?vid=d216f701-d039-416d-8464-d2169e2c53fe","ios":"levelo://app?vid=d216f701-d039-416d-8464-d2169e2c53fe"},"vehicle_type_id":"4","last_reported":1761235994,"current_range_meters":20000,"station_id":"cpo3532slgdg3j2ikp40","pricing_plan_id":"cebpf4jnsgd1na2vs0mg"},{"bike_id":"7b8d4450-5468-4102-b20e-d108014f3668","system_id":"levelo_inurba_marseille","lat":43.2991,"lon":5.38143,"is_reserved":false,"is_disabled":false,"rental_uris":{"android":"levelo://app?vid=7b8d4450-5468-4102-b20e-d108014f3668","ios":"levelo://app?vid=7b8d4450-5468-4102-b20e-d108014f3668"},"vehicle_type_id":"4","last_reported":1761235994,"current_range_meters":20000,"station_id":"ce4bgj12rcd13ifvqbc0","pricing_plan_id":"cebpf4jnsgd1na2vs0mg"},{"bike_id":"cc9a747f-0f16-429d-9073-473958d6a21c","system_id":"levelo_inurba_marseille","lat":43.2993,"lon":5.37562,"is_reserved":false,"is_disabled":false,"rental_uris":{"android":"levelo://app?vid=cc9a747f-0f16-429d-9073-473958d6a21c","ios":"levelo://app?vid=cc9a747f-0f16-429d-9073-473958d6a21c"},"vehicle_type_id":"4","last_reported":1761235994,"current_range_meters":20000,"station_id":"","pricing_plan_id":"cebpf4jnsgd1na2vs0mg"},{"bike_id":"6bbad151-0cc7-477d-8bee-bf3474e8ea35","system_id":"levelo_inurba_marseille","lat":43.30813,"lon":5.38163,"is_reserved":false,"is_disabled":false,"rental_uris":{"android":"levelo://app?vid=6bbad151-0cc7-477d-8bee-bf3474e8ea35","ios":"levelo://app?vid=6bbad151-0cc7-477d-8bee-bf3474e8ea35"},"vehicle_type_id":"4","last_reported":1761235994,"current_range_meters":20000,"station_id":"ce4bgt12rcd13ifvqce0","pricing_plan_id":"cebpf4jnsgd1na2vs0mg"},{"bike_id":"bdfc5050-1941-4688-9c6e-19af1c9e2199","system_id":"levelo_inurba_marseille","lat":43.30413,"lon":5.41295,"is_reserved":false,"is_disabled":false,"rental_uris":{"android":"levelo://app?vid=bdfc5050-1941-4688-9c6e-19af1c9e2199","ios":"levelo://app?vid=bdfc5050-1941-4688-9c6e-19af1c9e2199"},"vehicle_type_id":"4","last_reported":1761235994,"current_range_meters":20000,"station_id":"ce4bhop2rcd13ifvqh8g","pricing_plan_id":"cebpf4jnsgd1na2vs0mg"},{"bike_id":"b25629dc-f040-4853-bec1-8bed4ef43eae","system_id":"levelo_inurba_marseille","lat":43.32072,"lon":5.36846,"is_reserved":false,"is_disabled":false,"rental_uris":{"android":"levelo://app?vid=b25629dc-f040-4853-bec1-8bed4ef43eae","ios":"levelo://app?vid=b25629dc-f040-4853-bec1-8bed4ef43eae"},"vehicle_type_id":"4","last_reported":1761235994,"current_range_meters":20400,"station_id":"","pricing_plan_id":"cebpf4jnsgd1na2vs0mg"},{"bike_id":"bc87dea4-79a3-4ed3-aacd-3d26accd672a","system_id":"levelo_inurba_marseille","lat":43.290351,"lon":5.386609,"is_reserved":false,"is_disabled":false,"rental_uris":{"android":"levelo://app?vid=bc87dea4-79a3-4ed3-aacd-3d26accd672a","ios":"levelo://app?vid=bc87dea4-79a3-4ed3-aacd-3d26accd672a"},"vehicle_type_id":"4","last_reported":1761235994,"current_range_meters":20400,"station_id":"","pricing_plan_id":"cebpf4jnsgd1na2vs0mg"},{"bike_id":"39e8c940-ad24-49c1-890f-067754102af4","system_id":"levelo_inurba_marseille","lat":43.28617,"lon":5.36445,"is_reserved":false,"is_disabled":false,"rental_uris":{"android":"levelo://app?vid=39e8c940-ad24-49c1-890f-067754102af4","ios":"levelo://app?vid=39e8c940-ad24-49c1-890f-067754102af4"},"vehicle_type_id":"4","last_reported":1761235994,"current_range_meters":20400,"station_id":"","pricing_plan_id":"cebpf4jnsgd1na2vs0mg"},{"bike_id":"2bfe86be-a718-4651-a8e7-9a2bc3634288","system_id":"levelo_inurba_marseille","lat":43.239606,"lon":5.366195,"is_reserved":false,"is_disabled":false,"rental_uris":{"android":"levelo://app?vid=2bfe86be-a718-4651-a8e7-9a2bc3634288","ios":"levelo://app?vid=2bfe86be-a718-4651-a8e7-9a2bc3634288"},"vehicle_type_id":"4","last_reported":1761235994,"current_range_meters":20400,"station_id":"ce4bhi12rcd13ifvqfp0","pricing_plan_id":"cebpf4jnsgd1na2vs0mg"},{"bike_id":"4f5c5045-2f2c-4ab7-ad8b-eeba1d52fe66","system_id":"levelo_inurba_marseille","lat":43.32223,"lon":5.36859,"is_reserved":false,"is_disabled":false,"rental_uris":{"android":"levelo://app?vid=4f5c5045-2f2c-4ab7-ad8b-eeba1d52fe66","ios":"levelo://app?vid=4f5c5045-2f2c-4ab7-ad8b-eeba1d52fe66"},"vehicle_type_id":"4","last_reported":1761235994,"current_range_meters":20400,"station_id":"","pricing_plan_id":"cebpf4jnsgd1na2vs0mg"},{"bike_id":"e29f0bf4-0bca-4fd3-946b-29d4f89218f9","system_id":"levelo_inurba_marseille","lat":43.298678,"lon":5.397259,"is_reserved":false,"is_disabled":false,"rental_uris":{"android":"levelo://app?vid=e29f0bf4-0bca-4fd3-946b-29d4f89218f9","ios":"levelo://app?vid=e29f0bf4-0bca-4fd3-946b-29d4f89218f9"},"vehicle_type_id":"4","last_reported":1761235994,"current_range_meters":20400,"station_id":"ce4bh0h2rcd13ifvqd50","pricing_plan_id":"cebpf4jnsgd1na2vs0mg"},{"bike_id":"12bb84b7-e9e0-4e36-94d1-9d3fdf3922ec","system_id":"levelo_inurba_marseille","lat":43.25339,"lon":5.421757,"is_reserved":false,"is_disabled":false,"rental_uris":{"android":"levelo://app?vid=12bb84b7-e9e0-4e36-94d1-9d3fdf3922ec","ios":"levelo://app?vid=12bb84b7-e9e0-4e36-94d1-9d3fdf3922ec"},"vehicle_type_id":"4","last_reported":1761235994,"current_range_meters":20400,"station_id":"st_d2m65c5bi1j21697t3ng","pricing_plan_id":"cebpf4jnsgd1na2vs0mg"},{"bike_id":"c27d7108-ac14-4e0c-86fe-8bccbac91d86","system_id":"levelo_inurba_marseille","lat":43.32062,"lon":5.41553,"is_reserved":false,"is_disabled":false,"rental_uris":{"android":"levelo://app?vid=c27d7108-ac14-4e0c-86fe-8bccbac91d86","ios":"levelo://app?vid=c27d7108-ac14-4e0c-86fe-8bccbac91d86"},"vehicle_type_id":"4","last_reported":1761235994,"current_range_meters":20400,"station_id":"ce4bhq92rcd13ifvqhkg","pricing_plan_id":"cebpf4jnsgd1na2vs0mg"},{"bike_id":"8bb294a4-469b-49f7-a039-cb5372f61636","system_id":"levelo_inurba_marseille","lat":43.28018,"lon":5.36997,"is_reserved":false,"is_disabled":false,"rental_uris":{"android":"levelo://app?vid=8bb294a4-469b-49f7-a039-cb5372f61636","ios":"levelo://app?vid=8bb294a4-469b-49f7-a039-cb5372f61636"},"vehicle_type_id":"4","last_reported":1761235994,"current_range_meters":20400,"station_id":"","pricing_plan_id":"cebpf4jnsgd1na2vs0mg"},{"bike_id":"c4574ecd-db56-4d9d-965f-9b92dc7d5835","system_id":"levelo_inurba_marseille","lat":43.23956,"lon":5.36649,"is_reserved":false,"is_disabled":false,"rental_uris":{"android":"levelo://app?vid=c4574ecd-db56-4d9d-965f-9b92dc7d5835","ios":"levelo://app?vid=c4574ecd-db56-4d9d-965f-9b92dc7d5835"},"vehicle_type_id":"4","last_reported":1761235994,"current_range_meters":20800,"station_id":"ce4bhi12rcd13ifvqfp0","pricing_plan_id":"cebpf4jnsgd1na2vs0mg"},{"bike_id":"126738d3-8786-4137-b1d4-19ce9b094f78","system_id":"levelo_inurba_marseille","lat":43.29638,"lon":5.40599,"is_reserved":false,"is_disabled":false,"rental_uris":{"android":"levelo://app?vid=126738d3-8786-4137-b1d4-19ce9b094f78","ios":"levelo://app?vid=126738d3-8786-4137-b1d4-19ce9b094f78"},"vehicle_type_id":"4","last_reported":1761235994,"current_range_meters":20800,"station_id":"ce4bh0h2rcd13ifvqd60","pricing_plan_id":"cebpf4jnsgd1na2vs0mg"},{"bike_id":"9f13e575-43b3-4b6e-a946-ba43d39c1bac","system_id":"levelo_inurba_marseille","lat":43.28669,"lon":5.36357,"is_reserved":false,"is_disabled":false,"rental_uris":{"android":"levelo://app?vid=9f13e575-43b3-4b6e-a946-ba43d39c1bac","ios":"levelo://app?vid=9f13e575-43b3-4b6e-a946-ba43d39c1bac"},"vehicle_type_id":"4","last_reported":1761235994,"current_range_meters":20800,"station_id":"ce4bhah2rcd13ifvqej0","pricing_plan_id":"cebpf4jnsgd1na2vs0mg"},{"bike_id":"f2e02df1-d0d6-4e71-a245-a7604e3f9858","system_id":"levelo_inurba_marseille","lat":43.28115,"lon":5.37818,"is_reserved":false,"is_disabled":false,"rental_uris":{"android":"levelo://app?vid=f2e02df1-d0d6-4e71-a245-a7604e3f9858","ios":"levelo://app?vid=f2e02df1-d0d6-4e71-a245-a7604e3f9858"},"vehicle_type_id":"4","last_reported":1761235994,"current_range_meters":20800,"station_id":"ce4bha12rcd13ifvqee0","pricing_plan_id":"cebpf4jnsgd1na2vs0mg"},{"bike_id":"17585014-36d0-4d96-ab97-1812e8c7fbe7","system_id":"levelo_inurba_marseille","lat":43.31667,"lon":5.38241,"is_reserved":false,"is_disabled":false,"rental_uris":{"android":"levelo://app?vid=17585014-36d0-4d96-ab97-1812e8c7fbe7","ios":"levelo://app?vid=17585014-36d0-4d96-ab97-1812e8c7fbe7"},"vehicle_type_id":"4","last_reported":1761235994,"current_range_meters":20800,"station_id":"","pricing_plan_id":"cebpf4jnsgd1na2vs0mg"},{"bike_id":"269fcbcf-d1a7-4615-b6e5-db34ff2e012f","system_id":"levelo_inurba_marseille","lat":43.29793,"lon":5.38108,"is_reserved":false,"is_disabled":false,"rental_uris":{"android":"levelo://app?vid=269fcbcf-d1a7-4615-b6e5-db34ff2e012f","ios":"levelo://app?vid=269fcbcf-d1a7-4615-b6e5-db34ff2e012f"},"vehicle_type_id":"4","last_reported":1761235994,"current_range_meters":20800,"station_id":"ce4bgip2rcd13ifvqbb0","pricing_plan_id":"cebpf4jnsgd1na2vs0mg"},{"bike_id":"75eebb0f-2447-4bf8-b846-45b5b359059b","system_id":"levelo_inurba_marseille","lat":43.33769,"lon":5.37496,"is_reserved":false,"is_disabled":false,"rental_uris":{"android":"levelo://app?vid=75eebb0f-2447-4bf8-b846-45b5b359059b","ios":"levelo://app?vid=75eebb0f-2447-4bf8-b846-45b5b359059b"},"vehicle_type_id":"4","last_reported":1761235994,"current_range_meters":20800,"station_id":"","pricing_plan_id":"cebpf4jnsgd1na2vs0mg"},{"bike_id":"d73517f6-d19d-4528-bcf2-10d7aba64146","system_id":"levelo_inurba_marseille","lat":43.28514,"lon":5.44114,"is_reserved":false,"is_disabled":false,"rental_uris":{"android":"levelo://app?vid=d73517f6-d19d-4528-bcf2-10d7aba64146","ios":"levelo://app?vid=d73517f6-d19d-4528-bcf2-10d7aba64146"},"vehicle_type_id":"4","last_reported":1761235994,"current_range_meters":20800,"station_id":"st_d3j3df2ikq2c7380ej80","pricing_plan_id":"cebpf4jnsgd1na2vs0mg"},