{"last_updated":1731942594,"ttl":60,"version":"2.2","data":{"bikes":[{"bike_id":"6b893b8c-4f33-465a-bddc-64f5161d5051","system_id":"levelo_inurba_marseille","lat":43.28721,"lon":5.37906,"is_reserved":false,"is_disabled":false,"rental_uris":{"android":"levelo://app?vid=6b893b8c-4f33-465a-bddc-64f5161d5051","ios":"levelo://app?vid=6b893b8c-4f33-465a-bddc-64f5161d5051"},"vehicle_type_id":"4","last_reported":1731942594,"current_range_meters":35600,"station_id":"ce4bh9p2rcd13ifvqec0","pricing_plan_id":"cebpf4jnsgd1na2vs0mg"},{"bike_id":"82acd50d-28e4-48db-a93f-d9af8580c852","system_id":"levelo_inurba_marseille","lat":43.30138,"lon":5.39872,"is_reserved":false,"is_disabled":false,"rental_uris":{"android":"levelo://app?vid=82acd50d-28e4-48db-a93f-d9af8580c852","ios":"levelo://app?vid=82acd50d-28e4-48db-a93f-d9af8580c852"},"vehicle_type_id":"4","last_reported":1731942594,"current_range_meters":24000,"station_id":"ce4bh0h2rcd13ifvqd40","pricing_plan_id":"cebpf4jnsgd1na2vs0mg"},{"bike_id":"5f6c7179-f2fb-41ee-9df8-5b95e6cd697c","system_id":"levelo_inurba_marseille","lat":43.30419,"lon":5.41289,"is_reserved":false,"is_disabled":false,"rental_uris":{"android":"levelo://app?vid=5f6c7179-f2fb-41ee-9df8-5b95e6cd697c","ios":"levelo://app?vid=5f6c7179-f2fb-41ee-9df8-5b95e6cd697c"},"vehicle_type_id":"4","last_reported":1731942594,"current_range_meters":28800,"station_id":"ce4bhop2rcd13ifvqh8g","pricing_plan_id":"cebpf4jnsgd1na2vs0mg"},{"bike_id":"fb3af305-4514-454e-b4a1-f28931733540","system_id":"levelo_inurba_marseille","lat":43.23178,"lon":5.39987,"is_reserved":false,"is_disabled":false,"rental_uris":{"android":"levelo://app?vid=fb3af305-4514-454e-b4a1-f28931733540","ios":"levelo://app?vid=fb3af305-4514-454e-b4a1-f28931733540"},"vehicle_type_id":"4","last_reported":1731942594,"current_range_meters":32800,"station_id":"ce4bhn12rcd13ifvqgqg","pricing_plan_id":"cebpf4jnsgd1na2vs0mg"},{"bike_id":"d6d6e01c-1dd2-4c4e-9e17-cd6012080766","system_id":"levelo_inurba_marseille","lat":43.28971,"lon":5.37839,"is_reserved":false,"is_disabled":false,"rental_uris":{"android":"levelo://app?vid=d6d6e01c-1dd2-4c4e-9e17-cd6012080766","ios":"levelo://app?vid=d6d6e01c-1dd2-4c4e-9e17-cd6012080766"},"vehicle_type_id":"4","last_reported":1731942594,"current_range_meters":35200,"station_id":"ce4bh9p2rcd13ifvqed0","pricing_plan_id":"cebpf4jnsgd1na2vs0mg"},{"bike_id":"4516902f-7d15-44b5-a4d9-cb8c226a485f","system_id":"levelo_inurba_marseille","lat":43.2916,"lon":5.37173,"is_reserved":false,"is_disabled":false,"rental_uris":{"android":"levelo://app?vid=4516902f-7d15-44b5-a4d9-cb8c226a485f","ios":"levelo://app?vid=4516902f-7d15-44b5-a4d9-cb8c226a485f"},"vehicle_type_id":"4","last_reported":1731942594,"current_range_meters":23200,"station_id":"ce4bha92rcd13ifvqeh0","pricing_plan_id":"cebpf4jnsgd1na2vs0mg"},{"bike_id":"e22c1f96-d3b0-4a4a-9688-98a62fd05cf9","system_id":"levelo_inurba_marseille","lat":43.30084,"lon":5.39089,"is_reserved":false,"is_disabled":false,"rental_uris":{"android":"levelo://app?vid=e22c1f96-d3b0-4a4a-9688-98a62fd05cf9","ios":"levelo://app?vid=e22c1f96-d3b0-4a4a-9688-98a62fd05cf9"},"vehicle_type_id":"4","last_reported":1731942594,"current_range_meters":22000,"station_id":"ce4bh192rcd13ifvqdb0","pricing_plan_id":"cebpf4jnsgd1na2vs0mg"},{"bike_id":"a6403a7f-2b0d-4bad-9bf9-978cdb47cfbb","system_id":"levelo_inurba_marseille","lat":43.25936,"lon":5.40915,"is_reserved":false,"is_disabled":false,"rental_uris":{"android":"levelo://app?vid=a6403a7f-2b0d-4bad-9bf9-978cdb47cfbb","ios":"levelo://app?vid=a6403a7f-2b0d-4bad-9bf9-978cdb47cfbb"},"vehicle_type_id":"4","last_reported":1731942594,"current_range_meters":17200,"station_id":"ce4bhm92rcd13ifvqglg","pricing_plan_id":"cebpf4jnsgd1na2vs0mg"},{"bike_id":"41fac2c1-5c60-4f0d-adaf-9408c37eb491","system_id":"levelo_inurba_marseille","lat":43.29802,"lon":5.38091,"is_reserved":false,"is_disabled":false,"rental_uris":{"android":"levelo://app?vid=41fac2c1-5c60-4f0d-adaf-9408c37eb491","ios":"levelo://app?vid=41fac2c1-5c60-4f0d-adaf-9408c37eb491"},"vehicle_type_id":"4","last_reported":1731942594,"current_range_meters":26000,"station_id":"ce4bgip2rcd13ifvqbb0","pricing_plan_id":"cebpf4jnsgd1na2vs0mg"},{"bike_id":"dd619c0c-dd3c-4dce-abbc-9c97ef935d0d","system_id":"levelo_inurba_marseille","lat":43.29798,"lon":5.38094,"is_reserved":false,"is_disabled":false,"rental_uris":{"android":"levelo://app?vid=dd619c0c-dd3c-4dce-abbc-9c97ef935d0d","ios":"levelo://app?vid=dd619c0c-dd3c-4dce-abbc-9c97ef935d0d"},"vehicle_type_id":"4","last_reported":1731942594,"current_range_meters":22800,"station_id":"ce4bgip2rcd13ifvqbb0","pricing_plan_id":"cebpf4jnsgd1na2vs0mg"},{"bike_id":"3d931d75-d710-4a94-bc9b-adb0f29cf7c4","system_id":"levelo_inurba_marseille","lat":43.337444,"lon":5.374475,"is_reserved":false,"is_disabled":false,"rental_uris":{"android":"levelo://app?vid=3d931d75-d710-4a94-bc9b-adb0f29cf7c4","ios":"levelo://app?vid=3d931d75-d710-4a94-bc9b-adb0f29cf7c4"},"vehicle_type_id":"4","last_reported":1731942594,"current_range_meters":38400,"station_id":"","pricing_plan_id":"cebpf4jnsgd1na2vs0mg"},{"bike_id":"0672d165-d197-4474-bbec-2df95543fd2f","system_id":"levelo_inurba_marseille","lat":43.29897,"lon":5.43659,"is_reserved":false,"is_disabled":false,"rental_uris":{"android":"levelo://app?vid=0672d165-d197-4474-bbec-2df95543fd2f","ios":"levelo://app?vid=0672d165-d197-4474-bbec-2df95543fd2f"},"vehicle_type_id":"4","last_reported":1731942594,"current_range_meters":37600,"station_id":"ce4bhpp2rcd13ifvqhfg","pricing_plan_id":"cebpf4jnsgd1na2vs0mg"},{"bike_id":"a23e7fbf-6ffb-494a-b265-5e9ca328a13d","system_id":"levelo_inurba_marseille","lat":43.25834,"lon":5.39928,"is_reserved":false,"is_disabled":false,"rental_uris":{"android":"levelo://app?vid=a23e7fbf-6ffb-494a-b265-5e9ca328a13d","ios":"levelo://app?vid=a23e7fbf-6ffb-494a-b265-5e9ca328a13d"},"vehicle_type_id":"4","last_reported":1731942594,"current_range_meters":36800,"station_id":"ce4bhl92rcd13ifvqghg","pricing_plan_id":"cebpf4jnsgd1na2vs0mg"},{"bike_id":"5cf6163b-0b69-4ea6-9575-0a2ed6c16fe9","system_id":"levelo_inurba_marseille","lat":43.27065,"lon":5.42272,"is_reserved":false,"is_disabled":false,"rental_uris":{"android":"levelo://app?vid=5cf6163b-0b69-4ea6-9575-0a2ed6c16fe9","ios":"levelo://app?vid=5cf6163b-0b69-4ea6-9575-0a2ed6c16fe9"},"vehicle_type_id":"4","last_reported":1731942594,"current_range_meters":4800,"station_id":"ce4bhk92rcd13ifvqgb0","pricing_plan_id":"cebpf4jnsgd1na2vs0mg"},{"bike_id":"b646b0ba-31b1-444c-ab68-83c939345631","system_id":"levelo_inurba_marseille","lat":43.29417,"lon":5.38623,"is_reserved":false,"is_disabled":false,"rental_uris":{"android":"levelo://app?vid=b646b0ba-31b1-444c-ab68-83c939345631","ios":"levelo://app?vid=b646b0ba-31b1-444c-ab68-83c939345631"},"vehicle_type_id":"4","last_reported":1731942594,"current_range_meters":38800,"station_id":"ce4bh2h2rcd13ifvqdh0","pricing_plan_id":"cebpf4jnsgd1na2vs0mg"},{"bike_id":"71ffd298-4ab9-490f-8b64-1d6c8d571b36","system_id":"levelo_inurba_marseille","lat":43.28644,"lon":5.3742,"is_reserved":false,"is_disabled":false,"rental_uris":{"android":"levelo://app?vid=71ffd298-4ab9-490f-8b64-1d6c8d571b36","ios":"levelo://app?vid=71ffd298-4ab9-490f-8b64-1d6c8d571b36"},"vehicle_type_id":"4","last_reported":1731942594,"current_range_meters":37600,"station_id":"ce4bh3p2rcd13ifvqdq0","pricing_plan_id":"cebpf4jnsgd1na2vs0mg"},{"bike_id":"806357e9-5e87-4cc4-9d1a-1619bb471c43","system_id":"levelo_inurba_marseille","lat":43.29574,"lon":5.3675,"is_reserved":false,"is_disabled":false,"rental_uris":{"android":"levelo://app?vid=806357e9-5e87-4cc4-9d1a-1619bb471c43","ios":"levelo://app?vid=806357e9-5e87-4cc4-9d1a-1619bb471c43"},"vehicle_type_id":"4","last_reported":1731942594,"current_range_meters":33600,"station_id":"ce4bgph2rcd13ifvqc2g","pricing_plan_id":"cebpf4jnsgd1na2vs0mg"},{"bike_id":"6ecb5bb5-428b-46e1-8dee-ba2f5973282b","system_id":"levelo_inurba_marseille","lat":43.29362,"lon":5.37851,"is_reserved":false,"is_disabled":false,"rental_uris":{"android":"levelo://app?vid=6ecb5bb5-428b-46e1-8dee-ba2f5973282b","ios":"levelo://app?vid=6ecb5bb5-428b-46e1-8dee-ba2f5973282b"},"vehicle_type_id":"4","last_reported":1731942594,"current_range_meters":36400,"station_id":"ce4bgjh2rcd13ifvqbf0","pricing_plan_id":"cebpf4jnsgd1na2vs0mg"},{"bike_id":"4c167bc3-2964-4625-adc0-c92e539ad80f","system_id":"levelo_inurba_marseille","lat":43.28274,"lon":5.40813,"is_reserved":false,"is_disabled":false,"rental_uris":{"android":"levelo://app?vid=4c167bc3-2964-4625-adc0-c92e539ad80f","ios":"levelo://app?vid=4c167bc3-2964-4625-adc0-c92e539ad80f"},"vehicle_type_id":"4","last_reported":1731942594,"current_range_meters":28800,"station_id":"","pricing_plan_id":"cebpf4jnsgd1na2vs0mg"},{"bike_id":"dc24ccdd-f78a-4bfd-b60d-87b5aafd671c","system_id":"levelo_inurba_marseille","lat":43.30541,"lon":5.36542,"is_reserved":false,"is_disabled":false,"rental_uris":{"android":"levelo://app?vid=dc24ccdd-f78a-4bfd-b60d-87b5aafd671c","ios":"levelo://app?vid=dc24ccdd-f78a-4bfd-b60d-87b5aafd671c"},"vehicle_type_id":"4","last_reported":1731942594,"current_range_meters":31200,"station_id":"ce4bgs12rcd13ifvqcag","pricing_plan_id":"cebpf4jnsgd1na2vs0mg"},{"bike_id":"fd90b2be-17c3-448c-87ed-c2405e6cafd2","system_id":"levelo_inurba_marseille","lat":43.30214,"lon":5.39465,"is_reserved":false,"is_disabled":false,"rental_uris":{"android":"levelo://app?vid=fd90b2be-17c3-448c-87ed-c2405e6cafd2","ios":"levelo://app?vid=fd90b2be-17c3-448c-87ed-c2405e6cafd2"},"vehicle_type_id":"4","last_reported":1731942594,"current_range_meters":20800,"station_id":"ce4bh0p2rcd13ifvqd70","pricing_plan_id":"cebpf4jnsgd1na2vs0mg"},{"bike_id":"8f6520f2-335d-482c-810c-776d824c6443","system_id":"levelo_inurba_marseille","lat":43.31077,"lon":5.38351,"is_reserved":false,"is_disabled":false,"rental_uris":{"android":"levelo://app?vid=8f6520f2-335d-482c-810c-776d824c6443","ios":"levelo://app?vid=8f6520f2-335d-482c-810c-776d824c6443"},"vehicle_type_id":"4","last_reported":1731942594,"current_range_meters":24000,"station_id":"ce4bgv92rcd13ifvqcr0","pricing_plan_id":"cebpf4jnsgd1na2vs0mg"},{"bike_id":"63a30041-96cc-4561-b219-a077bcef2bec","system_id":"levelo_inurba_marseille","lat":43.29093,"lon":5.38138,"is_reserved":false,"is_disabled":false,"rental_uris":{"android":"levelo://app?vid=63a30041-96cc-4561-b219-a077bcef2bec","ios":"levelo://app?vid=63a30041-96cc-4561-b219-a077bcef2bec"},"vehicle_type_id":"4","last_reported":1731942594,"current_range_meters":37600,"station_id":"ce4bh512rcd13ifvqe2g","pricing_plan_id":"cebpf4jnsgd1na2vs0mg"},{"bike_id":"e10b2cd6-49bb-48dc-a68d-115373465715","system_id":"levelo_inurba_marseille","lat":43.29575,"lon":5.3674,"is_reserved":false,"is_disabled":false,"rental_uris":{"android":"levelo://app?vid=e10b2cd6-49bb-48dc-a68d-115373465715","ios":"levelo://app?vid=e10b2cd6-49bb-48dc-a68d-115373465715"},"vehicle_type_id":"4","last_reported":1731942594,"current_range_meters":38000,"station_id":"ce4bgph2rcd13ifvqc2g","pricing_plan_id":"cebpf4jnsgd1na2vs0mg"},{"bike_id":"e0f453cb-3132-42ab-921c-0d33066f47c1","system_id":"levelo_inurba_marseille","lat":43.3266,"lon":5.41017,"is_reserved":false,"is_disabled":false,"rental_uris":{"android":"levelo://app?vid=e0f453cb-3132-42ab-921c-0d33066f47c1","ios":"levelo://app?vid=e0f453cb-3132-42ab-921c-0d33066f47c1"},"vehicle_type_id":"4","last_reported":1731942594,"current_range_meters":38800,"station_id":"ce4bhpp2rcd13ifvqhgg","pricing_plan_id":"cebpf4jnsgd1na2vs0mg"},{"bike_id":"3de79762-7d3a-4ddd-9398-05d2c68d3618","system_id":"levelo_inurba_marseille","lat":43.33754,"lon":5.37465,"is_reserved":false,"is_disabled":false,"rental_uris":{"android":"levelo://app?vid=3de79762-7d3a-4ddd-9398-05d2c68d3618","ios":"levelo://app?vid=3de79762-7d3a-4ddd-9398-05d2c68d3618"},"vehicle_type_id":"4","last_reported":1731942594,"current_range_meters":36000,"station_id":"","pricing_plan_id":"cebpf4jnsgd1na2vs0mg"},{"bike_id":"7ebe0e53-d93d-442b-be81-8bba96a71242","system_id":"levelo_inurba_marseille","lat":43.30917,"lon":5.40163,"is_reserved":false,"is_disabled":false,"rental_uris":{"android":"levelo://app?vid=7ebe0e53-d93d-442b-be81-8bba96a71242","ios":"levelo://app?vid=7ebe0e53-d93d-442b-be81-8bba96a71242"},"vehicle_type_id":"4","last_reported":1731942594,"current_range_meters":34000,"station_id":"ce4bgvp2rcd13ifvqct0","pricing_plan_id":"cebpf4jnsgd1na2vs0mg"},{"bike_id":"f65f2de6-593f-43d7-85e7-8d6d4605c51b","system_id":"levelo_inurba_marseille","lat":43.2481,"lon":5.37462,"is_reserved":false,"is_disabled":false,"rental_uris":{"android":"levelo://app?vid=f65f2de6-593f-43d7-85e7-8d6d4605c51b","ios":"levelo://app?vid=f65f2de6-593f-43d7-85e7-8d6d4605c51b"},"vehicle_type_id":"4","last_reported":1731942594,"current_range_meters":6400,"station_id":"ce4bhgh2rcd13ifvqfb0","pricing_plan_id":"cebpf4jnsgd1na2vs0mg"},{"bike_id":"f198e29a-0a44-4d60-9616-59d5b9c7009a","system_id":"levelo_inurba_marseille","lat":43.28191,"lon":5.44257,"is_reserved":false,"is_disabled":false,"rental_uris":{"android":"levelo://app?vid=f198e29a-0a44-4d60-9616-59d5b9c7009a","ios":"levelo://app?vid=f198e29a-0a44-4d60-9616-59d5b9c7009a"},"vehicle_type_id":"4","last_reported":1731942594,"current_range_meters":2000,"station_id":"","pricing_plan_id":"cebpf4jnsgd1na2vs0mg"},{"bike_id":"b4634dd0-96e6-4562-92c2-27602befc25f","system_id":"levelo_inurba_marseille","lat":43.24809,"lon":5.37461,"is_reserved":false,"is_disabled":false,"rental_uris":{"android":"levelo://app?vid=b4634dd0-96e6-4562-92c2-27602befc25f","ios":"levelo://app?vid=b4634dd0-96e6-4562-92c2-27602befc25f"},"vehicle_type_id":"4","last_reported":1731942594,"current_range_meters":18800,"station_id":"ce4bhgh2rcd13ifvqfb0","pricing_plan_id":"cebpf4jnsgd1na2vs0mg"},{"bike_id":"0b38b36a-cb8f-48e5-a013-7abb6c4dcc0e","system_id":"levelo_inurba_marseille","lat":43.2799,"lon":5.40015,"is_reserved":false,"is_disabled":false,"rental_uris":{"android":"levelo://app?vid=0b38b36a-cb8f-48e5-a013-7abb6c4dcc0e","ios":"levelo://app?vid=0b38b36a-cb8f-48e5-a013-7abb6c4dcc0e"},"vehicle_type_id":"4","last_reported":1731942594,"current_range_meters":28800,"station_id":"ce4bho92rcd13ifvqh4g","pricing_plan_id":"cebpf4jnsgd1na2vs0mg"},{"bike_id":"110ec820-d660-4aa4-8bb9-78227d43b052","system_id":"levelo_inurba_marseille","lat":43.2989,"lon":5.38151,"is_reserved":false,"is_disabled":false,"rental_uris":{"android":"levelo://app?vid=110ec820-d660-4aa4-8bb9-78227d43b052","ios":"levelo://app?vid=110ec820-d660-4aa4-8bb9-78227d43b052"},"vehicle_type_id":"4","last_reported":1731942594,"current_range_meters":17200,"station_id":"ce4bgj12rcd13ifvqbc0","pricing_plan_id":"cebpf4jnsgd1na2vs0mg"},{"bike_id":"8897db0a-7250-4950-a96f-c678f9a09805","system_id":"levelo_inurba_marseille","lat":43.30459,"lon":5.37911,"is_reserved":false,"is_disabled":false,"rental_uris":{"android":"levelo://app?vid=8897db0a-7250-4950-a96f-c678f9a09805","ios":"levelo://app?vid=8897db0a-7250-4950-a96f-c678f9a09805"},"vehicle_type_id":"4","last_reported":1731942594,"current_range_meters":38000,"station_id":"ce4bgup2rcd13ifvqcn0","pricing_plan_id":"cebpf4jnsgd1na2vs0mg"},{"bike_id":"45aaf411-8352-46a7-9f53-ea21681af78e","system_id":"levelo_inurba_marseille","lat":43.27175,"lon":5.40997,"is_reserved":false,"is_disabled":false,"rental_uris":{"android":"levelo://app?vid=45aaf411-8352-46a7-9f53-ea21681af78e","ios":"levelo://app?vid=45aaf411-8352-46a7-9f53-ea21681af78e"},"vehicle_type_id":"4","last_reported":1731942594,"current_range_meters":38800,"station_id":"ce4bhl12rcd13ifvqgf0","pricing_plan_id":"cebpf4jnsgd1na2vs0mg"},{"bike_id":"fa24f433-8299-40f7-ad0e-56445a05e40f","system_id":"levelo_inurba_marseille","lat":43.297255,"lon":5.376881,"is_reserved":false,"is_disabled":false,"rental_uris":{"android":"levelo://app?vid=fa24f433-8299-40f7-ad0e-56445a05e40f","ios":"levelo://app?vid=fa24f433-8299-40f7-ad0e-56445a05e40f"},"vehicle_type_id":"4","last_reported":1731942594,"current_range_meters":35200,"station_id":"ce4bgkh2rcd13ifvqbl0","pricing_plan_id":"cebpf4jnsgd1na2vs0mg"},{"bike_id":"e8ba4c6e-4e95-4a9d-82db-33ad12bf8895","system_id":"levelo_inurba_marseille","lat":43.27378,"lon":5.4141,"is_reserved":false,"is_disabled":false,"rental_uris":{"android":"levelo://app?vid=e8ba4c6e-4e95-4a9d-82db-33ad12bf8895","ios":"levelo://app?vid=e8ba4c6e-4e95-4a9d-82db-33ad12bf8895"},"vehicle_type_id":"4","last_reported":1731942594,"current_range_meters":8000,"station_id":"ce4bhnh2rcd13ifvqgug","pricing_plan_id":"cebpf4jnsgd1na2vs0mg"},{"bike_id":"9ecc0447-c94b-4478-b1c8-5644ea0be66d","system_id":"levelo_inurba_marseille","lat":43.27655,"lon":5.38881,"is_reserved":false,"is_disabled":false,"rental_uris":{"android":"levelo://app?vid=9ecc0447-c94b-4478-b1c8-5644ea0be66d","ios":"levelo://app?vid=9ecc0447-c94b-4478-b1c8-5644ea0be66d"},"vehicle_type_id":"4","last_reported":1731942594,"current_range_meters":36400,"station_id":"ce4bhi12rcd13ifvqfo0","pricing_plan_id":"cebpf4jnsgd1na2vs0mg"},{"bike_id":"4305c1d1-ca62-4e47-ac96-b9970d6e957d","system_id":"levelo_inurba_marseille","lat":43.2319,"lon":5.35549,"is_reserved":false,"is_disabled":false,"rental_uris":{"android":"levelo://app?vid=4305c1d1-ca62-4e47-ac96-b9970d6e957d","ios":"levelo://app?vid=4305c1d1-ca62-4e47-ac96-b9970d6e957d"},"vehicle_type_id":"4","last_reported":1731942594,"current_range_meters":38800,"station_id":"ce4bhu92rcd13ifvqi70","pricing_plan_id":"cebpf4jnsgd1na2vs0mg"},{"bike_id":"1eebc482-b51b-41c3-8049-375a598fbcc6","system_id":"levelo_inurba_marseille","lat":43.32659,"lon":5.40994,"is_reserved":false,"is_disabled":false,"rental_uris":{"android":"levelo://app?vid=1eebc482-b51b-41c3-8049-375a598fbcc6","ios":"levelo://app?vid=1eebc482-b51b-41c3-8049-375a598fbcc6"},"vehicle_type_id":"4","last_reported":1731942594,"current_range_meters":6800,"station_id":"ce4bhpp2rcd13ifvqhgg","pricing_plan_id":"cebpf4jnsgd1na2vs0mg"},{"bike_id":"9d421720-c653-45ba-857c-ce8e93494795","system_id":"levelo_inurba_marseille","lat":43.32531,"lon":5.41433,"is_reserved":false,"is_disabled":false,"rental_uris":{"android":"levelo://app?vid=9d421720-c653-45ba-857c-ce8e93494795","ios":"levelo://app?vid=9d421720-c653-45ba-857c-ce8e93494795"},"vehicle_type_id":"4","last_reported":1731942594,"current_range_meters":7200,"station_id":"ce4bhq12rcd13ifvqhhg","pricing_plan_id":"cebpf4jnsgd1na2vs0mg"},{"bike_id":"43cef654-d5ca-4905-95d5-e54788e09d69","system_id":"levelo_inurba_marseille","lat":43.32531,"lon":5.4144,"is_reserved":false,"is_disabled":false,"rental_uris":{"android":"levelo://app?vid=43cef654-d5ca-4905-95d5-e54788e09d69","ios":"levelo://app?vid=43cef654-d5ca-4905-95d5-e54788e09d69"},"vehicle_type_id":"4","last_reported":1731942594,"current_range_meters":20000,"station_id":"ce4bhq12rcd13ifvqhhg","pricing_plan_id":"cebpf4jnsgd1na2vs0mg"},{"bike_id":"9a9db904-ecd7-4fc3-b6d5-a1be79196d87","system_id":"levelo_inurba_marseille","lat":43.27427,"lon":5.39424,"is_reserved":false,"is_disabled":false,"rental_uris":{"android":"levelo://app?vid=9a9db904-ecd7-4fc3-b6d5-a1be79196d87","ios":"levelo://app?vid=9a9db904-ecd7-4fc3-b6d5-a1be79196d87"},"vehicle_type_id":"4","last_reported":1731942594,"current_range_meters":9600,"station_id":"ce4bhdp2rcd13ifvqf20","pricing_plan_id":"cebpf4jnsgd1na2vs0mg"},{"bike_id":"57ad4db7-d586-447b-b87c-ff696e31b362","system_id":"levelo_inurba_marseille","lat":43.3175,"lon":5.39024,"is_reserved":false,"is_disabled":false,"rental_uris":{"android":"levelo://app?vid=57ad4db7-d586-447b-b87c-ff696e31b362","ios":"levelo://app?vid=57ad4db7-d586-447b-b87c-ff696e31b362"},"vehicle_type_id":"4","last_reported":1731942594,"current_range_meters":36800,"station_id":"ce4bhqp2rcd13ifvqhng","pricing_plan_id":"cebpf4jnsgd1na2vs0mg"},{"bike_id":"73c78af7-a401-4426-99bb-e9b9d8293b2f","system_id":"levelo_inurba_marseille","lat":43.26673,"lon":5.38269,"is_reserved":false,"is_disabled":false,"rental_uris":{"android":"levelo://app?vid=73c78af7-a401-4426-99bb-e9b9d8293b2f","ios":"levelo://app?vid=73c78af7-a401-4426-99bb-e9b9d8293b2f"},"vehicle_type_id":"4","last_reported":1731942594,"current_range_meters":38800,"station_id":"ce4bhg92rcd13ifvqf90","pricing_plan_id":"cebpf4jnsgd1na2vs0mg"},{"bike_id":"869fb619-99ff-406e-a5fc-04083911acc3","system_id":"levelo_inurba_marseille","lat":43.30585,"lon":5.37226,"is_reserved":false,"is_disabled":false,"rental_uris":{"android":"levelo://app?vid=869fb619-99ff-406e-a5fc-04083911acc3","ios":"levelo://app?vid=869fb619-99ff-406e-a5fc-04083911acc3"},"vehicle_type_id":"4","last_reported":1731942594,"current_range_meters":38800,"station_id":"ce4bgqh2rcd13ifvqc4g","pricing_plan_id":"cebpf4jnsgd1na2vs0mg"},{"bike_id":"ea84334a-850b-43e4-8803-f31653391df4","system_id":"levelo_inurba_marseille","lat":43.26196,"lon":5.37454,"is_reserved":false,"is_disabled":false,"rental_uris":{"android":"levelo://app?vid=ea84334a-850b-43e4-8803-f31653391df4","ios":"levelo://app?vid=ea84334a-850b-43e4-8803-f31653391df4"},"vehicle_type_id":"4","last_reported":1731942594,"current_range_meters":16000,"station_id":"ce4bhgp2rcd13ifvqfc0","pricing_plan_id":"cebpf4jnsgd1na2vs0mg"},{"bike_id":"20b8bb00-4fa4-49d3-b00f-f353e411e243","system_id":"levelo_inurba_marseille","lat":43.27063,"lon":5.42275,"is_reserved":false,"is_disabled":false,"rental_uris":{"android":"levelo://app?vid=20b8bb00-4fa4-49d3-b00f-f353e411e243","ios":"levelo://app?vid=20b8bb00-4fa4-49d3-b00f-f353e411e243"},"vehicle_type_id":"4","last_reported":1731942594,"current_range_meters":14800,"station_id":"ce4bhk92rcd13ifvqgb0","pricing_plan_id":"cebpf4jnsgd1na2vs0mg"},{"bike_id":"6369b596-5f82-4c8d-a650-c48bf46b4e6f","system_id":"levelo_inurba_marseille","lat":43.28286,"lon":5.35049,"is_reserved":false,"is_disabled":false,"rental_uris":{"android":"levelo://app?vid=6369b596-5f82-4c8d-a650-c48bf46b4e6f","ios":"levelo://app?vid=6369b596-5f82-4c8d-a650-c48bf46b4e6f"},"vehicle_type_id":"4","last_reported":1731942594,"current_range_meters":31200,"station_id":"ce4bhbp2rcd13ifvqerg","pricing_plan_id":"cebpf4jnsgd1na2vs0mg"},{"bike_id":"b13d8285-c95b-434b-9cea-e7cee1eba7be","system_id":"levelo_inurba_marseille","lat":43.29519,"lon":5.39414,"is_reserved":false,"is_disabled":false,"rental_uris":{"android":"levelo://app?vid=b13d8285-c95b-434b-9cea-e7cee1eba7be","ios":"levelo://app?vid=b13d8285-c95b-434b-9cea-e7cee1eba7be"},"vehicle_type_id":"4","last_reported":1731942594,"current_range_meters":28000,"station_id":"ce4bh292rcd13ifvqdf0","pricing_plan_id":"cebpf4jnsgd1na2vs0mg"},{"bike_id":"6bfc7366-0d55-412d-9d43-5a76f76083bd","system_id":"levelo_inurba_marseille","lat":43.29895,"lon":5.43669,"is_reserved":false,"is_disabled":false,"rental_uris":{"android":"levelo://app?vid=6bfc7366-0d55-412d-9d43-5a76f76083bd","ios":"levelo://app?vid=6bfc7366-0d55-412d-9d43-5a76f76083bd"},"vehicle_type_id":"4","last_reported":1731942594,"current_range_meters":8800,"station_id":"ce4bhpp2rcd13ifvqhfg","pricing_plan_id":"cebpf4jnsgd1na2vs0mg"},{"bike_id":"558a9e33-c32b-41dd-beea-17039f42d1d0","system_id":"levelo_inurba_marseille","lat":43.29513,"lon":5.39041,"is_reserved":false,"is_disabled":false,"rental_uris":{"android":"levelo://app?vid=558a9e33-c32b-41dd-beea-17039f42d1d0","ios":"levelo://app?vid=558a9e33-c32b-41dd-beea-17039f42d1d0"},"vehicle_type_id":"4","last_reported":1731942594,"current_range_meters":31200,"station_id":"ce4bh3p2rcd13ifvqdp0","pricing_plan_id":"cebpf4jnsgd1na2vs0mg"},{"bike_id":"960d47d8-aa68-4b5d-930b-9add54451aa3","system_id":"levelo_inurba_marseille","lat":43.279032,"lon":5.395727,"is_reserved":false,"is_disabled":false,"rental_uris":{"android":"levelo://app?vid=960d47d8-aa68-4b5d-930b-9add54451aa3","ios":"levelo://app?vid=960d47d8-aa68-4b5d-930b-9add54451aa3"},"vehicle_type_id":"4","last_reported":1731942594,"current_range_meters":39200,"station_id":"ce4bhf92rcd13ifvqf40","pricing_plan_id":"cebpf4jnsgd1na2vs0mg"},{"bike_id":"6c220f5e-5a0f-42c9-8779-ab7889b1a0ff","system_id":"levelo_inurba_marseille","lat":43.29036,"lon":5.3863,"is_reserved":false,"is_disabled":false,"rental_uris":{"android":"levelo://app?vid=6c220f5e-5a0f-42c9-8779-ab7889b1a0ff","ios":"levelo://app?vid=6c220f5e-5a0f-42c9-8779-ab7889b1a0ff"},"vehicle_type_id":"4","last_reported":1731942594,"current_range_meters":38400,"station_id":"ce4bh4p2rcd13ifvqe0g","pricing_plan_id":"cebpf4jnsgd1na2vs0mg"},{"bike_id":"53238208-a97e-4bfd-b0d6-1870d5e03961","system_id":"levelo_inurba_marseille","lat":43.28715,"lon":5.37932,"is_reserved":false,"is_disabled":false,"rental_uris":{"android":"levelo://app?vid=53238208-a97e-4bfd-b0d6-1870d5e03961","ios":"levelo://app?vid=53238208-a97e-4bfd-b0d6-1870d5e03961"},"vehicle_type_id":"4","last_reported":1731942594,"current_range_meters":38800,"station_id":"ce4bh9p2rcd13ifvqec0","pricing_plan_id":"cebpf4jnsgd1na2vs0mg"},{"bike_id":"fad9ce1b-1148-4dba-be50-1c0919168bc9","system_id":"levelo_inurba_marseille","lat":43.2693,"lon":5.3892,"is_reserved":false,"is_disabled":false,"rental_uris":{"android":"levelo://app?vid=fad9ce1b-1148-4dba-be50-1c0919168bc9","ios":"levelo://app?vid=fad9ce1b-1148-4dba-be50-1c0919168bc9"},"vehicle_type_id":"4","last_reported":1731942594,"current_range_meters":36800,"station_id":"ce4bhhh2rcd13ifvqfl0","pricing_plan_id":"cebpf4jnsgd1na2vs0mg"},{"bike_id":"bacc94c0-4762-4a04-b73b-4feeb9ab08ed","system_id":"levelo_inurba_marseille","lat":43.28391,"lon":5.37528,"is_reserved":false,"is_disabled":false,"rental_uris":{"android":"levelo://app?vid=bacc94c0-4762-4a04-b73b-4feeb9ab08ed","ios":"levelo://app?vid=bacc94c0-4762-4a04-b73b-4feeb9ab08ed"},"vehicle_type_id":"4","last_reported":1731942594,"current_range_meters":20400,"station_id":"ce4bh412rcd13ifvqds0","pricing_plan_id":"cebpf4jnsgd1na2vs0mg"},{"bike_id":"d3679e10-516e-43d9-a286-be844464e741","system_id":"levelo_inurba_marseille","lat":43.26541,"lon":5.39055,"is_reserved":false,"is_disabled":false,"rental_uris":{"android":"levelo://app?vid=d3679e10-516e-43d9-a286-be844464e741","ios":"levelo://app?vid=d3679e10-516e-43d9-a286-be844464e741"},"vehicle_type_id":"4","last_reported":1731942594,"current_range_meters":30000,"station_id":"ce4bhe12rcd13ifvqf30","pricing_plan_id":"cebpf4jnsgd1na2vs0mg"},{"bike_id":"598cfbcb-80f3-406c-a727-489022107cc0","system_id":"levelo_inurba_marseille","lat":43.303019,"lon":5.389755,"is_reserved":false,"is_disabled":false,"rental_uris":{"android":"levelo://app?vid=598cfbcb-80f3-406c-a727-489022107cc0","ios":"levelo://app?vid=598cfbcb-80f3-406c-a727-489022107cc0"},"vehicle_type_id":"4","last_reported":1731942594,"current_range_meters":0,"station_id":"ce4bgt12rcd13ifvqcd0","pricing_plan_id":"cebpf4jnsgd1na2vs0mg"},{"bike_id":"69c4f412-1a28-47cc-88f3-b01cae5afbf9","system_id":"levelo_inurba_marseille","lat":43.26933,"lon":5.40262,"is_reserved":false,"is_disabled":false,"rental_uris":{"android":"levelo://app?vid=69c4f412-1a28-47cc-88f3-b01cae5afbf9","ios":"levelo://app?vid=69c4f412-1a28-47cc-88f3-b01cae5afbf9"},"vehicle_type_id":"4","last_reported":1731942594,"current_range_meters":27200,"station_id":"cjm6bp8fraef2m0cb0m0","pricing_plan_id":"cebpf4jnsgd1na2vs0mg"},{"bike_id":"4c521251-6677-4340-b730-6ae914498eee","system_id":"levelo_inurba_marseille","lat":43.31337,"lon":5.36717,"is_reserved":false,"is_disabled":false,"rental_uris":{"android":"levelo://app?vid=4c521251-6677-4340-b730-6ae914498eee","ios":"levelo://app?vid=4c521251-6677-4340-b730-6ae914498eee"},"vehicle_type_id":"4","last_reported":1731942594,"current_range_meters":38800,"station_id":"ce4bgr92rcd13ifvqc6g","pricing_plan_id":"cebpf4jnsgd1na2vs0mg"},{"bike_id":"b2ba89af-6757-479d-bac0-4ca56f0725ca","system_id":"levelo_inurba_marseille","lat":43.31206,"lon":5.37018,"is_reserved":false,"is_disabled":false,"rental_uris":{"android":"levelo://app?vid=b2ba89af-6757-479d-bac0-4ca56f0725ca","ios":"levelo://app?vid=b2ba89af-6757-479d-bac0-4ca56f0725ca"},"vehicle_type_id":"4","last_reported":1731942594,"current_range_meters":31200,"station_id":"","pricing_plan_id":"cebpf4jnsgd1na2vs0mg"},{"bike_id":"8a7b9b67-54cb-4ccb-b39f-3f7c6d633e5c","system_id":"levelo_inurba_marseille","lat":43.29977,"lon":5.37191,"is_reserved":false,"is_disabled":false,"rental_uris":{"android":"levelo://app?vid=8a7b9b67-54cb-4ccb-b39f-3f7c6d633e5c","ios":"levelo://app?vid=8a7b9b67-54cb-4ccb-b39f-3f7c6d633e5c"},"vehicle_type_id":"4","last_reported":1731942594,"current_range_meters":39200,"station_id":"ce4bgr92rcd13ifvqc7g","pricing_plan_id":"cebpf4jnsgd1na2vs0mg"},{"bike_id":"bd62a05e-c457-4c11-8df5-104c68618dab","system_id":"levelo_inurba_marseille","lat":43.337444,"lon":5.374475,"is_reserved":false,"is_disabled":false,"rental_uris":{"android":"levelo://app?vid=bd62a05e-c457-4c11-8df5-104c68618dab","ios":"levelo://app?vid=bd62a05e-c457-4c11-8df5-104c68618dab"},"vehicle_type_id":"4","last_reported":1731942594,"current_range_meters":36800,"station_id":"","pricing_plan_id":"cebpf4jnsgd1na2vs0mg"},{"bike_id":"0ecd2994-5694-47c3-b5ef-6f9f94d9a678","system_id":"levelo_inurba_marseille","lat":43.26787,"lon":5.39422,"is_reserved":false,"is_disabled":false,"rental_uris":{"android":"levelo://app?vid=0ecd2994-5694-47c3-b5ef-6f9f94d9a678","ios":"levelo://app?vid=0ecd2994-5694-47c3-b5ef-6f9f94d9a678"},"vehicle_type_id":"4","last_reported":1731942594,"current_range_meters":20800,"station_id":"ce4bhh12rcd13ifvqfg0","pricing_plan_id":"cebpf4jnsgd1na2vs0mg"},{"bike_id":"f493fbd1-a6d2-46e7-bd5f-a282c47329e6","system_id":"levelo_inurba_marseille","lat":43.29892,"lon":5.43667,"is_reserved":false,"is_disabled":false,"rental_uris":{"android":"levelo://app?vid=f493fbd1-a6d2-46e7-bd5f-a282c47329e6","ios":"levelo://app?vid=f493fbd1-a6d2-46e7-bd5f-a282c47329e6"},"vehicle_type_id":"4","last_reported":1731942594,"current_range_meters":39200,"station_id":"ce4bhpp2rcd13ifvqhfg","pricing_plan_id":"cebpf4jnsgd1na2vs0mg"},{"bike_id":"8467e19d-e02a-4987-8621-eb197a3e9976","system_id":"levelo_inurba_marseille","lat":43.28078,"lon":5.39666,"is_reserved":false,"is_disabled":false,"rental_uris":{"android":"levelo://app?vid=8467e19d-e02a-4987-8621-eb197a3e9976","ios":"levelo://app?vid=8467e19d-e02a-4987-8621-eb197a3e9976"},"vehicle_type_id":"4","last_reported":1731942594,"current_range_meters":38800,"station_id":"ce4bho12rcd13ifvqh2g","pricing_plan_id":"cebpf4jnsgd1na2vs0mg"},{"bike_id":"f302c6e8-8ccb-4c57-9877-a6289c22a1f9","system_id":"levelo_inurba_marseille","lat":43.27949,"lon":5.38702,"is_reserved":false,"is_disabled":false,"rental_uris":{"android":"levelo://app?vid=f302c6e8-8ccb-4c57-9877-a6289c22a1f9","ios":"levelo://app?vid=f302c6e8-8ccb-4c57-9877-a6289c22a1f9"},"vehicle_type_id":"4","last_reported":1731942594,"current_range_meters":36400,"station_id":"ce4bhg12rcd13ifvqf80","pricing_plan_id":"cebpf4jnsgd1na2vs0mg"},{"bike_id":"0e841474-d88b-404e-8cc1-c96b9af392c3","system_id":"levelo_inurba_marseille","lat":43.24661,"lon":5.38165,"is_reserved":false,"is_disabled":false,"rental_uris":{"android":"levelo://app?vid=0e841474-d88b-404e-8cc1-c96b9af392c3","ios":"levelo://app?vid=0e841474-d88b-404e-8cc1-c96b9af392c3"},"vehicle_type_id":"4","last_reported":1731942594,"current_range_meters":38800,"station_id":"ce4bhih2rcd13ifvqfr0","pricing_plan_id":"cebpf4jnsgd1na2vs0mg"},{"bike_id":"5f7af20b-8740-416c-a770-66f799e39f12","system_id":"levelo_inurba_marseille","lat":43.30529,"lon":5.36541,"is_reserved":false,"is_disabled":false,"rental_uris":{"android":"levelo://app?vid=5f7af20b-8740-416c-a770-66f799e39f12","ios":"levelo://app?vid=5f7af20b-8740-416c-a770-66f799e39f12"},"vehicle_type_id":"4","last_reported":1731942594,"current_range_meters":38800,"station_id":"ce4bgs12rcd13ifvqcag","pricing_plan_id":"cebpf4jnsgd1na2vs0mg"},{"bike_id":"84224ccb-c473-401a-82b7-1eb00590305a","system_id":"levelo_inurba_marseille","lat":43.29966,"lon":5.41322,"is_reserved":false,"is_disabled":false,"rental_uris":{"android":"levelo://app?vid=84224ccb-c473-401a-82b7-1eb00590305a","ios":"levelo://app?vid=84224ccb-c473-401a-82b7-1eb00590305a"},"vehicle_type_id":"4","last_reported":1731942594,"current_range_meters":38400,"station_id":"ce4bhp12rcd13ifvqh9g","pricing_plan_id":"cebpf4jnsgd1na2vs0mg"},{"bike_id":"bda6c3e6-ef39-4a09-9550-83db497746cc","system_id":"levelo_inurba_marseille","lat":43.28708,"lon":5.3794,"is_reserved":false,"is_disabled":false,"rental_uris":{"android":"levelo://app?vid=bda6c3e6-ef39-4a09-9550-83db497746cc","ios":"levelo://app?vid=bda6c3e6-ef39-4a09-9550-83db497746cc"},"vehicle_type_id":"4","last_reported":1731942594,"current_range_meters":38800,"station_id":"ce4bh9p2rcd13ifvqec0","pricing_plan_id":"cebpf4jnsgd1na2vs0mg"},{"bike_id":"c3b2f2e4-a56b-4032-90ec-36bdae251001","system_id":"levelo_inurba_marseille","lat":43.30536,"lon":5.36547,"is_reserved":false,"is_disabled":false,"rental_uris":{"android":"levelo://app?vid=c3b2f2e4-a56b-4032-90ec-36bdae251001","ios":"levelo://app?vid=c3b2f2e4-a56b-4032-90ec-36bdae251001"},"vehicle_type_id":"4","last_reported":1731942594,"current_range_meters":38800,"station_id":"ce4bgs12rcd13ifvqcag","pricing_plan_id":"cebpf4jnsgd1na2vs0mg"},{"bike_id":"6b75bb88-b668-4a1b-989e-77151dadea7a","system_id":"levelo_inurba_marseille","lat":43.29959,"lon":5.38511,"is_reserved":false,"is_disabled":false,"rental_uris":{"android":"levelo://app?vid=6b75bb88-b668-4a1b-989e-77151dadea7a","ios":"levelo://app?vid=6b75bb88-b668-4a1b-989e-77151dadea7a"},"vehicle_type_id":"4","last_reported":1731942594,"current_range_meters":21600,"station_id":"ce4bgj92rcd13ifvqbd0","pricing_plan_id":"cebpf4jnsgd1na2vs0mg"},{"bike_id":"3b4558d2-0411-41a3-85b0-03bfe46b8b45","system_id":"levelo_inurba_marseille","lat":43.29255,"lon":5.38451,"is_reserved":false,"is_disabled":false,"rental_uris":{"android":"levelo://app?vid=3b4558d2-0411-41a3-85b0-03bfe46b8b45","ios":"levelo://app?vid=3b4558d2-0411-41a3-85b0-03bfe46b8b45"},"vehicle_type_id":"4","last_reported":1731942594,"current_range_meters":26000,"station_id":"ce4bh692rcd13ifvqea0","pricing_plan_id":"cebpf4jnsgd1na2vs0mg"},{"bike_id":"d12e9715-76a1-43cb-8fc3-63af6f7317e3","system_id":"levelo_inurba_marseille","lat":43.26213,"lon":5.37442,"is_reserved":false,"is_disabled":false,"rental_uris":{"android":"levelo://app?vid=d12e9715-76a1-43cb-8fc3-63af6f7317e3","ios":"levelo://app?vid=d12e9715-76a1-43cb-8fc3-63af6f7317e3"},"vehicle_type_id":"4","last_reported":1731942594,"current_range_meters":17200,"station_id":"ce4bhgp2rcd13ifvqfc0","pricing_plan_id":"cebpf4jnsgd1na2vs0mg"},{"bike_id":"7e79dce0-7f1a-45cb-91da-b4632d85d6e2","system_id":"levelo_inurba_marseille","lat":43.31071,"lon":5.3835,"is_reserved":false,"is_disabled":false,"rental_uris":{"android":"levelo://app?vid=7e79dce0-7f1a-45cb-91da-b4632d85d6e2","ios":"levelo://app?vid=7e79dce0-7f1a-45cb-91da-b4632d85d6e2"},"vehicle_type_id":"4","last_reported":1731942594,"current_range_meters":20400,"station_id":"ce4bgv92rcd13ifvqcr0","pricing_plan_id":"cebpf4jnsgd1na2vs0mg"},{"bike_id":"ceb84fcc-0f95-4cb7-9f42-da8fc6cf8a05","system_id":"levelo_inurba_marseille","lat":43.26487,"lon":5.39545,"is_reserved":false,"is_disabled":false,"rental_uris":{"android":"levelo://app?vid=ceb84fcc-0f95-4cb7-9f42-da8fc6cf8a05","ios":"levelo://app?vid=ceb84fcc-0f95-4cb7-9f42-da8fc6cf8a05"},"vehicle_type_id":"4","last_reported":1731942594,"current_range_meters":18000,"station_id":"ce4bhi12rcd13ifvqfq0","pricing_plan_id":"cebpf4jnsgd1na2vs0mg"},{"bike_id":"4e13ee85-235b-4b2e-917c-bf2e8441dea0","system_id":"levelo_inurba_marseille","lat":43.29158,"lon":5.37152,"is_reserved":false,"is_disabled":false,"rental_uris":{"android":"levelo://app?vid=4e13ee85-235b-4b2e-917c-bf2e8441dea0","ios":"levelo://app?vid=4e13ee85-235b-4b2e-917c-bf2e8441dea0"},"vehicle_type_id":"4","last_reported":1731942594,"current_range_meters":27600,"station_id":"ce4bha92rcd13ifvqeh0","pricing_plan_id":"cebpf4jnsgd1na2vs0mg"},{"bike_id":"2ceb381d-055b-443a-a811-465434289111","system_id":"levelo_inurba_marseille","lat":43.30312,"lon":5.40446,"is_reserved":false,"is_disabled":false,"rental_uris":{"android":"levelo://app?vid=2ceb381d-055b-443a-a811-465434289111","ios":"levelo://app?vid=2ceb381d-055b-443a-a811-465434289111"},"vehicle_type_id":"4","last_reported":1731942594,"current_range_meters":24400,"station_id":"ce4bh012rcd13ifvqd10","pricing_plan_id":"cebpf4jnsgd1na2vs0mg"},{"bike_id":"39a8296c-ef63-4e5a-95f7-12c2260127b5","system_id":"levelo_inurba_marseille","lat":43.29003,"lon":5.38655,"is_reserved":false,"is_disabled":false,"rental_uris":{"android":"levelo://app?vid=39a8296c-ef63-4e5a-95f7-12c2260127b5","ios":"levelo://app?vid=39a8296c-ef63-4e5a-95f7-12c2260127b5"},"vehicle_type_id":"4","last_reported":1731942594,"current_range_meters":28400,"station_id":"ce4bh4p2rcd13ifvqe0g","pricing_plan_id":"cebpf4jnsgd1na2vs0mg"},{"bike_id":"686f7aac-3b09-4535-bb65-bd5180cb6ffc","system_id":"levelo_inurba_marseille","lat":43.2737,"lon":5.3626,"is_reserved":false,"is_disabled":false,"rental_uris":{"android":"levelo://app?vid=686f7aac-3b09-4535-bb65-bd5180cb6ffc","ios":"levelo://app?vid=686f7aac-3b09-4535-bb65-bd5180cb6ffc"},"vehicle_type_id":"4","last_reported":1731942594,"current_range_meters":36800,"station_id":"ce4bhbh2rcd13ifvqeo0","pricing_plan_id":"cebpf4jnsgd1na2vs0mg"},{"bike_id":"87aeddb8-5c6a-470f-b943-4a471568686e","system_id":"levelo_inurba_marseille","lat":43.27984,"lon":5.41662,"is_reserved":false,"is_disabled":false,"rental_uris":{"android":"levelo://app?vid=87aeddb8-5c6a-470f-b943-4a471568686e","ios":"levelo://app?vid=87aeddb8-5c6a-470f-b943-4a471568686e"},"vehicle_type_id":"4","last_reported":1731942594,"current_range_meters":25600,"station_id":"ce4bho12rcd13ifvqh1g","pricing_plan_id":"cebpf4jnsgd1na2vs0mg"},{"bike_id":"1ef4bfe9-28a0-4830-84f7-40202539e756","system_id":"levelo_inurba_marseille","lat":43.29433,"lon":5.39738,"is_reserved":false,"is_disabled":false,"rental_uris":{"android":"levelo://app?vid=1ef4bfe9-28a0-4830-84f7-40202539e756","ios":"levelo://app?vid=1ef4bfe9-28a0-4830-84f7-40202539e756"},"vehicle_type_id":"4","last_reported":1731942594,"current_range_meters":10800,"station_id":"ce4bh3h2rcd13ifvqdo0","pricing_plan_id":"cebpf4jnsgd1na2vs0mg"},{"bike_id":"5938f129-0be9-4612-acac-86791f6673ad","system_id":"levelo_inurba_marseille","lat":43.28193,"lon":5.4438,"is_reserved":false,"is_disabled":false,"rental_uris":{"android":"levelo://app?vid=5938f129-0be9-4612-acac-86791f6673ad","ios":"levelo://app?vid=5938f129-0be9-4612-acac-86791f6673ad"},"vehicle_type_id":"4","last_reported":1731942594,"current_range_meters":8000,"station_id":"","pricing_plan_id":"cebpf4jnsgd1na2vs0mg"},{"bike_id":"5f9844db-864b-4273-b2a8-4cbeb78b624b","system_id":"levelo_inurba_marseille","lat":43.29699,"lon":5.37696,"is_reserved":false,"is_disabled":false,"rental_uris":{"android":"levelo://app?vid=5f9844db-864b-4273-b2a8-4cbeb78b624b","ios":"levelo://app?vid=5f9844db-864b-4273-b2a8-4cbeb78b624b"},"vehicle_type_id":"4","last_reported":1731942594,"current_range_meters":8000,"station_id":"ce4bgkh2rcd13ifvqbl0","pricing_plan_id":"cebpf4jnsgd1na2vs0mg"},{"bike_id":"b3c69ae4-5ee9-4041-b5a4-be3bfe7ad4eb","system_id":"levelo_inurba_marseille","lat":43.30095,"lon":5.39086,"is_reserved":false,"is_disabled":false,"rental_uris":{"android":"levelo://app?vid=b3c69ae4-5ee9-4041-b5a4-be3bfe7ad4eb","ios":"levelo://app?vid=b3c69ae4-5ee9-4041-b5a4-be3bfe7ad4eb"},"vehicle_type_id":"4","last_reported":1731942594,"current_range_meters":35600,"station_id":"ce4bh192rcd13ifvqdb0","pricing_plan_id":"cebpf4jnsgd1na2vs0mg"},{"bike_id":"8c999fe6-29f7-45ca-9a35-61fa73ac885a","system_id":"levelo_inurba_marseille","lat":43.337444,"lon":5.374475,"is_reserved":false,"is_disabled":false,"rental_uris":{"android":"levelo://app?vid=8c999fe6-29f7-45ca-9a35-61fa73ac885a","ios":"levelo://app?vid=8c999fe6-29f7-45ca-9a35-61fa73ac885a"},"vehicle_type_id":"4","last_reported":1731942594,"current_range_meters":31200,"station_id":"","pricing_plan_id":"cebpf4jnsgd1na2vs0mg"},{"bike_id":"55a046e2-4e0a-45d3-8285-361db32f7d97","system_id":"levelo_inurba_marseille","lat":43.29618,"lon":5.37155,"is_reserved":false,"is_disabled":false,"rental_uris":{"android":"levelo://app?vid=55a046e2-4e0a-45d3-8285-361db32f7d97","ios":"levelo://app?vid=55a046e2-4e0a-45d3-8285-361db32f7d97"},"vehicle_type_id":"4","last_reported":1731942594,"current_range_meters":26800,"station_id":"ce4bgnh2rcd13ifvqc0g","pricing_plan_id":"cebpf4jnsgd1na2vs0mg"},{"bike_id":"27955258-328f-4f80-ad3a-16bbf0b55c19","system_id":"levelo_inurba_marseille","lat":43.31333,"lon":5.36718,"is_reserved":false,"is_disabled":false,"rental_uris":{"android":"levelo://app?vid=27955258-328f-4f80-ad3a-16bbf0b55c19","ios":"levelo://app?vid=27955258-328f-4f80-ad3a-16bbf0b55c19"},"vehicle_type_id":"4","last_reported":1731942594,"current_range_meters":31200,"station_id":"ce4bgr92rcd13ifvqc6g","pricing_plan_id":"cebpf4jnsgd1na2vs0mg"},{"bike_id":"5ed22230-ed97-489b-a6af-ba06152c21b7","system_id":"levelo_inurba_marseille","lat":43.2315,"lon":5.43722,"is_reserved":false,"is_disabled":false,"rental_uris":{"android":"levelo://app?vid=5ed22230-ed97-489b-a6af-ba06152c21b7","ios":"levelo://app?vid=5ed22230-ed97-489b-a6af-ba06152c21b7"},"vehicle_type_id":"4","last_reported":1731942594,"current_range_meters":30000,"station_id":"ce4bhmp2rcd13ifvqgog","pricing_plan_id":"cebpf4jnsgd1na2vs0mg"},{"bike_id":"dd95171b-b7cd-481f-acac-ba220ac8462f","system_id":"levelo_inurba_marseille","lat":43.29262,"lon":5.38441,"is_reserved":false,"is_disabled":false,"rental_uris":{"android":"levelo://app?vid=dd95171b-b7cd-481f-acac-ba220ac8462f","ios":"levelo://app?vid=dd95171b-b7cd-481f-acac-ba220ac8462f"},"vehicle_type_id":"4","last_reported":1731942594,"current_range_meters":38800,"station_id":"ce4bh692rcd13ifvqea0","pricing_plan_id":"cebpf4jnsgd1na2vs0mg"},{"bike_id":"125256db-a38a-43d8-8545-a121bbbb0abe","system_id":"levelo_inurba_marseille","lat":43.29596,"lon":5.38097,"is_reserved":false,"is_disabled":false,"rental_uris":{"android":"levelo://app?vid=125256db-a38a-43d8-8545-a121bbbb0abe","ios":"levelo://app?vid=125256db-a38a-43d8-8545-a121bbbb0abe"},"vehicle_type_id":"4","last_reported":1731942594,"current_range_meters":32000,"station_id":"ce4bgl12rcd13ifvqbo0","pricing_plan_id":"cebpf4jnsgd1na2vs0mg"},{"bike_id":"5fd7adc8-6a31-423d-812b-a6fc38a8ff73","system_id":"levelo_inurba_marseille","lat":43.292633,"lon":5.408293,"is_reserved":false,"is_disabled":false,"rental_uris":{"android":"levelo://app?vid=5fd7adc8-6a31-423d-812b-a6fc38a8ff73","ios":"levelo://app?vid=5fd7adc8-6a31-423d-812b-a6fc38a8ff73"},"vehicle_type_id":"4","last_reported":1731942594,"current_range_meters":20400,"station_id":"ce4bh192rcd13ifvqdc0","pricing_plan_id":"cebpf4jnsgd1na2vs0mg"},{"bike_id":"06ef0ee3-e5dd-4caf-8c65-17c91fab4090","system_id":"levelo_inurba_marseille","lat":43.3236,"lon":5.38886,"is_reserved":false,"is_disabled":false,"rental_uris":{"android":"levelo://app?vid=06ef0ee3-e5dd-4caf-8c65-17c91fab4090","ios":"levelo://app?vid=06ef0ee3-e5dd-4caf-8c65-17c91fab4090"},"vehicle_type_id":"4","last_reported":1731942594,"current_range_meters":4000,"station_id":"ce4bhqp2rcd13ifvqhog","pricing_plan_id":"cebpf4jnsgd1na2vs0mg"},{"bike_id":"bf19e9e0-777d-4f4c-b96e-77cb5959a858","system_id":"levelo_inurba_marseille","lat":43.2842,"lon":5.34995,"is_reserved":false,"is_disabled":false,"rental_uris":{"android":"levelo://app?vid=bf19e9e0-777d-4f4c-b96e-77cb5959a858","ios":"levelo://app?vid=bf19e9e0-777d-4f4c-b96e-77cb5959a858"},"vehicle_type_id":"4","last_reported":1731942594,"current_range_meters":26800,"station_id":"ce4bhbh2rcd13ifvqepg","pricing_plan_id":"cebpf4jnsgd1na2vs0mg"},{"bike_id":"b3ec17fb-3876-4d40-ae8e-85c8e1939a7c","system_id":"levelo_inurba_marseille","lat":43.29902,"lon":5.38142,"is_reserved":false,"is_disabled":false,"rental_uris":{"android":"levelo://app?vid=b3ec17fb-3876-4d40-ae8e-85c8e1939a7c","ios":"levelo://app?vid=b3ec17fb-3876-4d40-ae8e-85c8e1939a7c"},"vehicle_type_id":"4","last_reported":1731942594,"current_range_meters":38800,"station_id":"ce4bgj12rcd13ifvqbc0","pricing_plan_id":"cebpf4jnsgd1na2vs0mg"},{"bike_id":"cac93446-cc2c-4a53-be42-a1845861f162","system_id":"levelo_inurba_marseille","lat":43.29525,"lon":5.38554,"is_reserved":false,"is_disabled":false,"rental_uris":{"android":"levelo://app?vid=cac93446-cc2c-4a53-be42-a1845861f162","ios":"levelo://app?vid=cac93446-cc2c-4a53-be42-a1845861f162"},"vehicle_type_id":"4","last_reported":1731942594,"current_range_meters":21600,"station_id":"ce4bgih2rcd13ifvqba0","pricing_plan_id":"cebpf4jnsgd1na2vs0mg"},{"bike_id":"bafa68d1-9314-4f14-81ef-23aaf842b279","system_id":"levelo_inurba_marseille","lat":43.28266,"lon":5.35092,"is_reserved":false,"is_disabled":false,"rental_uris":{"android":"levelo://app?vid=bafa68d1-9314-4f14-81ef-23aaf842b279","ios":"levelo://app?vid=bafa68d1-9314-4f14-81ef-23aaf842b279"},"vehicle_type_id":"4","last_reported":1731942594,"current_range_meters":18800,"station_id":"ce4bhbp2rcd13ifvqerg","pricing_plan_id":"cebpf4jnsgd1na2vs0mg"},{"bike_id":"7a771648-63f5-4c34-b7b5-423a1240d23d","system_id":"levelo_inurba_marseille","lat":43.29837,"lon":5.36259,"is_reserved":false,"is_disabled":false,"rental_uris":{"android":"levelo://app?vid=7a771648-63f5-4c34-b7b5-423a1240d23d","ios":"levelo://app?vid=7a771648-63f5-4c34-b7b5-423a1240d23d"},"vehicle_type_id":"4","last_reported":1731942594,"current_range_meters":38800,"station_id":"ce4bgpp2rcd13ifvqc3g","pricing_plan_id":"cebpf4jnsgd1na2vs0mg"},{"bike_id":"26312c2b-cc9f-49cb-9980-2f93531a666e","system_id":"levelo_inurba_marseille","lat":43.29792,"lon":5.38097,"is_reserved":false,"is_disabled":false,"rental_uris":{"android":"levelo://app?vid=26312c2b-cc9f-49cb-9980-2f93531a666e","ios":"levelo://app?vid=26312c2b-cc9f-49cb-9980-2f93531a666e"},"vehicle_type_id":"4","last_reported":1731942594,"current_range_meters":30400,"station_id":"ce4bgip2rcd13ifvqbb0","pricing_plan_id":"cebpf4jnsgd1na2vs0mg"},{"bike_id":"dc7a4f6e-5d90-4fac-963e-8395e397f35b","system_id":"levelo_inurba_marseille","lat":43.28662,"lon":5.38672,"is_reserved":false,"is_disabled":false,"rental_uris":{"android":"levelo://app?vid=dc7a4f6e-5d90-4fac-963e-8395e397f35b","ios":"levelo://app?vid=dc7a4f6e-5d90-4fac-963e-8395e397f35b"},"vehicle_type_id":"4","last_reported":1731942594,"current_range_meters":31200,"station_id":"ce4bh492rcd13ifvqdug","pricing_plan_id":"cebpf4jnsgd1na2vs0mg"},{"bike_id":"d7858290-a409-4351-861d-a1a90bf483cf","system_id":"levelo_inurba_marseille","lat":43.30523,"lon":5.36543,"is_reserved":false,"is_disabled":false,"rental_uris":{"android":"levelo://app?vid=d7858290-a409-4351-861d-a1a90bf483cf","ios":"levelo://app?vid=d7858290-a409-4351-861d-a1a90bf483cf"},"vehicle_type_id":"4","last_reported":1731942594,"current_range_meters":38800,"station_id":"ce4bgs12rcd13ifvqcag","pricing_plan_id":"cebpf4jnsgd1na2vs0mg"},{"bike_id":"761d8e76-039b-4707-8e13-6846d1cb3450","system_id":"levelo_inurba_marseille","lat":43.29258,"lon":5.38438,"is_reserved":false,"is_disabled":false,"rental_uris":{"android":"levelo://app?vid=761d8e76-039b-4707-8e13-6846d1cb3450","ios":"levelo://app?vid=761d8e76-039b-4707-8e13-6846d1cb3450"},"vehicle_type_id":"4","last_reported":1731942594,"current_range_meters":35600,"station_id":"ce4bh692rcd13ifvqea0","pricing_plan_id":"cebpf4jnsgd1na2vs0mg"},{"bike_id":"bc9ac672-8d0e-448c-8569-31e51194c70e","system_id":"levelo_inurba_marseille","lat":43.29368,"lon":5.37848,"is_reserved":false,"is_disabled":false,"rental_uris":{"android":"levelo://app?vid=bc9ac672-8d0e-448c-8569-31e51194c70e","ios":"levelo://app?vid=bc9ac672-8d0e-448c-8569-31e51194c70e"},"vehicle_type_id":"4","last_reported":1731942594,"current_range_meters":28800,"station_id":"ce4bgjh2rcd13ifvqbf0","pricing_plan_id":"cebpf4jnsgd1na2vs0mg"},{"bike_id":"bd5a58f3-1770-4ff8-9b17-5488958a7444","system_id":"levelo_inurba_marseille","lat":43.29258,"lon":5.36846,"is_reserved":false,"is_disabled":false,"rental_uris":{"android":"levelo://app?vid=bd5a58f3-1770-4ff8-9b17-5488958a7444","ios":"levelo://app?vid=bd5a58f3-1770-4ff8-9b17-5488958a7444"},"vehicle_type_id":"4","last_reported":1731942594,"current_range_meters":34000,"station_id":"ce4bhbp2rcd13ifvqesg","pricing_plan_id":"cebpf4jnsgd1na2vs0mg"},{"bike_id":"dcf110cd-44af-49f4-88c7-0037c5e288dd","system_id":"levelo_inurba_marseille","lat":43.28441,"lon":5.39207,"is_reserved":false,"is_disabled":false,"rental_uris":{"android":"levelo://app?vid=dcf110cd-44af-49f4-88c7-0037c5e288dd","ios":"levelo://app?vid=dcf110cd-44af-49f4-88c7-0037c5e288dd"},"vehicle_type_id":"4","last_reported":1731942594,"current_range_meters":38800,"station_id":"ce4bhoh2rcd13ifvqh5g","pricing_plan_id":"cebpf4jnsgd1na2vs0mg"},{"bike_id":"3030fe04-d94f-466f-8288-c2c2252d769a","system_id":"levelo_inurba_marseille","lat":43.30878,"lon":5.36859,"is_reserved":false,"is_disabled":false,"rental_uris":{"android":"levelo://app?vid=3030fe04-d94f-466f-8288-c2c2252d769a","ios":"levelo://app?vid=3030fe04-d94f-466f-8288-c2c2252d769a"},"vehicle_type_id":"4","last_reported":1731942594,"current_range_meters":35200,"station_id":"","pricing_plan_id":"cebpf4jnsgd1na2vs0mg"},{"bike_id":"466afc8c-28e4-4403-8cdd-60bf293a6d82","system_id":"levelo_inurba_marseille","lat":43.31523,"lon":5.38036,"is_reserved":false,"is_disabled":false,"rental_uris":{"android":"levelo://app?vid=466afc8c-28e4-4403-8cdd-60bf293a6d82","ios":"levelo://app?vid=466afc8c-28e4-4403-8cdd-60bf293a6d82"},"vehicle_type_id":"4","last_reported":1731942594,"current_range_meters":18800,"station_id":"ce4bhsp2rcd13ifvqi50","pricing_plan_id":"cebpf4jnsgd1na2vs0mg"},{"bike_id":"438c7460-0f2d-492b-8a11-5a4b3f82e315","system_id":"levelo_inurba_marseille","lat":43.27981,"lon":5.4166,"is_reserved":false,"is_disabled":false,"rental_uris":{"android":"levelo://app?vid=438c7460-0f2d-492b-8a11-5a4b3f82e315","ios":"levelo://app?vid=438c7460-0f2d-492b-8a11-5a4b3f82e315"},"vehicle_type_id":"4","last_reported":1731942594,"current_range_meters":38800,"station_id":"ce4bho12rcd13ifvqh1g","pricing_plan_id":"cebpf4jnsgd1na2vs0mg"},{"bike_id":"7a33c110-f890-4511-b7a8-b65b18bdb57c","system_id":"levelo_inurba_marseille","lat":43.2871,"lon":5.37953,"is_reserved":false,"is_disabled":false,"rental_uris":{"android":"levelo://app?vid=7a33c110-f890-4511-b7a8-b65b18bdb57c","ios":"levelo://app?vid=7a33c110-f890-4511-b7a8-b65b18bdb57c"},"vehicle_type_id":"4","last_reported":1731942594,"current_range_meters":38800,"station_id":"ce4bh9p2rcd13ifvqec0","pricing_plan_id":"cebpf4jnsgd1na2vs0mg"},{"bike_id":"a3ef79bc-6537-4bec-a5f9-217a3795a8a5","system_id":"levelo_inurba_marseille","lat":43.25501,"lon":5.37656,"is_reserved":false,"is_disabled":false,"rental_uris":{"android":"levelo://app?vid=a3ef79bc-6537-4bec-a5f9-217a3795a8a5","ios":"levelo://app?vid=a3ef79bc-6537-4bec-a5f9-217a3795a8a5"},"vehicle_type_id":"4","last_reported":1731942594,"current_range_meters":36400,"station_id":"ce4bhh12rcd13ifvqff0","pricing_plan_id":"cebpf4jnsgd1na2vs0mg"},{"bike_id":"49c730d6-390d-438c-92e1-0e035898b4a6","system_id":"levelo_inurba_marseille","lat":43.29516,"lon":5.39033,"is_reserved":false,"is_disabled":false,"rental_uris":{"android":"levelo://app?vid=49c730d6-390d-438c-92e1-0e035898b4a6","ios":"levelo://app?vid=49c730d6-390d-438c-92e1-0e035898b4a6"},"vehicle_type_id":"4","last_reported":1731942594,"current_range_meters":29600,"station_id":"ce4bh3p2rcd13ifvqdp0","pricing_plan_id":"cebpf4jnsgd1na2vs0mg"},{"bike_id":"935a1d3c-edb6-4382-a6ee-9bb8fac647d1","system_id":"levelo_inurba_marseille","lat":43.30804,"lon":5.38158,"is_reserved":false,"is_disabled":false,"rental_uris":{"android":"levelo://app?vid=935a1d3c-edb6-4382-a6ee-9bb8fac647d1","ios":"levelo://app?vid=935a1d3c-edb6-4382-a6ee-9bb8fac647d1"},"vehicle_type_id":"4","last_reported":1731942594,"current_range_meters":2800,"station_id":"ce4bgt12rcd13ifvqce0","pricing_plan_id":"cebpf4jnsgd1na2vs0mg"},{"bike_id":"c6282b7a-3584-41fa-adf1-7d6d7f409cec","system_id":"levelo_inurba_marseille","lat":43.2902,"lon":5.3864,"is_reserved":false,"is_disabled":false,"rental_uris":{"android":"levelo://app?vid=c6282b7a-3584-41fa-adf1-7d6d7f409cec","ios":"levelo://app?vid=c6282b7a-3584-41fa-adf1-7d6d7f409cec"},"vehicle_type_id":"4","last_reported":1731942594,"current_range_meters":38800,"station_id":"ce4bh4p2rcd13ifvqe0g","pricing_plan_id":"cebpf4jnsgd1na2vs0mg"},{"bike_id":"914e9dc2-91a0-46dc-bd97-5433a548b2af","system_id":"levelo_inurba_marseille","lat":43.2871,"lon":5.37944,"is_reserved":false,"is_disabled":false,"rental_uris":{"android":"levelo://app?vid=914e9dc2-91a0-46dc-bd97-5433a548b2af","ios":"levelo://app?vid=914e9dc2-91a0-46dc-bd97-5433a548b2af"},"vehicle_type_id":"4","last_reported":1731942594,"current_range_meters":25600,"station_id":"ce4bh9p2rcd13ifvqec0","pricing_plan_id":"cebpf4jnsgd1na2vs0mg"},{"bike_id":"2ec448d8-ab1e-4b5b-9ab7-4092c37c8982","system_id":"levelo_inurba_marseille","lat":43.31218,"lon":5.36857,"is_reserved":false,"is_disabled":false,"rental_uris":{"android":"levelo://app?vid=2ec448d8-ab1e-4b5b-9ab7-4092c37c8982","ios":"levelo://app?vid=2ec448d8-ab1e-4b5b-9ab7-4092c37c8982"},"vehicle_type_id":"4","last_reported":1731942594,"current_range_meters":38800,"station_id":"ce4bgl92rcd13ifvqbq0","pricing_plan_id":"cebpf4jnsgd1na2vs0mg"},{"bike_id":"3128ae3b-25fb-4c7f-89de-871b56323141","system_id":"levelo_inurba_marseille","lat":43.24801,"lon":5.37462,"is_reserved":false,"is_disabled":false,"rental_uris":{"android":"levelo://app?vid=3128ae3b-25fb-4c7f-89de-871b56323141","ios":"levelo://app?vid=3128ae3b-25fb-4c7f-89de-871b56323141"},"vehicle_type_id":"4","last_reported":1731942594,"current_range_meters":3600,"station_id":"ce4bhgh2rcd13ifvqfb0","pricing_plan_id":"cebpf4jnsgd1na2vs0mg"},{"bike_id":"0e66bea2-12f3-4df9-97d3-859fe61e01a4","system_id":"levelo_inurba_marseille","lat":43.31082,"lon":5.42438,"is_reserved":false,"is_disabled":false,"rental_uris":{"android":"levelo://app?vid=0e66bea2-12f3-4df9-97d3-859fe61e01a4","ios":"levelo://app?vid=0e66bea2-12f3-4df9-97d3-859fe61e01a4"},"vehicle_type_id":"4","last_reported":1731942594,"current_range_meters":28800,"station_id":"ce4bhp92rcd13ifvqhag","pricing_plan_id":"cebpf4jnsgd1na2vs0mg"},{"bike_id":"6270ed28-16ff-4bd6-bad3-571e23977127","system_id":"levelo_inurba_marseille","lat":43.30779,"lon":5.37662,"is_reserved":false,"is_disabled":false,"rental_uris":{"android":"levelo://app?vid=6270ed28-16ff-4bd6-bad3-571e23977127","ios":"levelo://app?vid=6270ed28-16ff-4bd6-bad3-571e23977127"},"vehicle_type_id":"4","last_reported":1731942594,"current_range_meters":38000,"station_id":"ce4bgv92rcd13ifvqcq0","pricing_plan_id":"cebpf4jnsgd1na2vs0mg"},{"bike_id":"8349ef56-06bc-449b-bc4f-0a396b21684b","system_id":"levelo_inurba_marseille","lat":43.29518,"lon":5.38551,"is_reserved":false,"is_disabled":false,"rental_uris":{"android":"levelo://app?vid=8349ef56-06bc-449b-bc4f-0a396b21684b","ios":"levelo://app?vid=8349ef56-06bc-449b-bc4f-0a396b21684b"},"vehicle_type_id":"4","last_reported":1731942594,"current_range_meters":24000,"station_id":"ce4bgih2rcd13ifvqba0","pricing_plan_id":"cebpf4jnsgd1na2vs0mg"},{"bike_id":"88287dca-2bbd-4607-9d69-749d3b5798fd","system_id":"levelo_inurba_marseille","lat":43.27931,"lon":5.41048,"is_reserved":false,"is_disabled":false,"rental_uris":{"android":"levelo://app?vid=88287dca-2bbd-4607-9d69-749d3b5798fd","ios":"levelo://app?vid=88287dca-2bbd-4607-9d69-749d3b5798fd"},"vehicle_type_id":"4","last_reported":1731942594,"current_range_meters":34000,"station_id":"ce4bhnp2rcd13ifvqh0g","pricing_plan_id":"cebpf4jnsgd1na2vs0mg"},{"bike_id":"293b5653-2da4-4761-aaca-79db6c049e99","system_id":"levelo_inurba_marseille","lat":43.29,"lon":5.35608,"is_reserved":false,"is_disabled":false,"rental_uris":{"android":"levelo://app?vid=293b5653-2da4-4761-aaca-79db6c049e99","ios":"levelo://app?vid=293b5653-2da4-4761-aaca-79db6c049e99"},"vehicle_type_id":"4","last_reported":1731942594,"current_range_meters":35200,"station_id":"ce4bhb92rcd13ifvqen0","pricing_plan_id":"cebpf4jnsgd1na2vs0mg"},{"bike_id":"ed1d5a4c-bfba-49b0-96cc-7ae65c681acc","system_id":"levelo_inurba_marseille","lat":43.2953,"lon":5.3855,"is_reserved":false,"is_disabled":false,"rental_uris":{"android":"levelo://app?vid=ed1d5a4c-bfba-49b0-96cc-7ae65c681acc","ios":"levelo://app?vid=ed1d5a4c-bfba-49b0-96cc-7ae65c681acc"},"vehicle_type_id":"4","last_reported":1731942594,"current_range_meters":25200,"station_id":"ce4bgih2rcd13ifvqba0","pricing_plan_id":"cebpf4jnsgd1na2vs0mg"},{"bike_id":"0fe417ea-457e-4f72-9503-57894c995363","system_id":"levelo_inurba_marseille","lat":43.29876,"lon":5.38914,"is_reserved":false,"is_disabled":false,"rental_uris":{"android":"levelo://app?vid=0fe417ea-457e-4f72-9503-57894c995363","ios":"levelo://app?vid=0fe417ea-457e-4f72-9503-57894c995363"},"vehicle_type_id":"4","last_reported":1731942594,"current_range_meters":38800,"station_id":"ce4bh392rcd13ifvqdl0","pricing_plan_id":"cebpf4jnsgd1na2vs0mg"},{"bike_id":"12ec6117-7104-46df-b1c8-51406fe90ad5","system_id":"levelo_inurba_marseille","lat":43.29024,"lon":5.35929,"is_reserved":false,"is_disabled":false,"rental_uris":{"android":"levelo://app?vid=12ec6117-7104-46df-b1c8-51406fe90ad5","ios":"levelo://app?vid=12ec6117-7104-46df-b1c8-51406fe90ad5"},"vehicle_type_id":"4","last_reported":1731942594,"current_range_meters":36400,"station_id":"ce4bha92rcd13ifvqeg0","pricing_plan_id":"cebpf4jnsgd1na2vs0mg"},{"bike_id":"a728eb73-b224-4e2f-a6e1-070bcba1296c","system_id":"levelo_inurba_marseille","lat":43.30142,"lon":5.3986,"is_reserved":false,"is_disabled":false,"rental_uris":{"android":"levelo://app?vid=a728eb73-b224-4e2f-a6e1-070bcba1296c","ios":"levelo://app?vid=a728eb73-b224-4e2f-a6e1-070bcba1296c"},"vehicle_type_id":"4","last_reported":1731942594,"current_range_meters":4400,"station_id":"ce4bh0h2rcd13ifvqd40","pricing_plan_id":"cebpf4jnsgd1na2vs0mg"},{"bike_id":"d6e20374-3939-4cac-b1b0-b1024a1a302c","system_id":"levelo_inurba_marseille","lat":43.25107,"lon":5.40328,"is_reserved":false,"is_disabled":false,"rental_uris":{"android":"levelo://app?vid=d6e20374-3939-4cac-b1b0-b1024a1a302c","ios":"levelo://app?vid=d6e20374-3939-4cac-b1b0-b1024a1a302c"},"vehicle_type_id":"4","last_reported":1731942594,"current_range_meters":28800,"station_id":"ce4bhlh2rcd13ifvqgig","pricing_plan_id":"cebpf4jnsgd1na2vs0mg"},{"bike_id":"23be3f3a-c5dc-434f-a988-4b81909ea48e","system_id":"levelo_inurba_marseille","lat":43.33023,"lon":5.39041,"is_reserved":false,"is_disabled":false,"rental_uris":{"android":"levelo://app?vid=23be3f3a-c5dc-434f-a988-4b81909ea48e","ios":"levelo://app?vid=23be3f3a-c5dc-434f-a988-4b81909ea48e"},"vehicle_type_id":"4","last_reported":1731942594,"current_range_meters":36000,"station_id":"ce4bhr92rcd13ifvqhrg","pricing_plan_id":"cebpf4jnsgd1na2vs0mg"},{"bike_id":"4a52afc6-1fc3-4663-8368-b79c0bead902","system_id":"levelo_inurba_marseille","lat":43.29609,"lon":5.37714,"is_reserved":false,"is_disabled":false,"rental_uris":{"android":"levelo://app?vid=4a52afc6-1fc3-4663-8368-b79c0bead902","ios":"levelo://app?vid=4a52afc6-1fc3-4663-8368-b79c0bead902"},"vehicle_type_id":"4","last_reported":1731942594,"current_range_meters":38800,"station_id":"ce4bgi92rcd13ifvqb90","pricing_plan_id":"cebpf4jnsgd1na2vs0mg"},{"bike_id":"53739fb7-4843-4474-aaeb-689dd9669665","system_id":"levelo_inurba_marseille","lat":43.26219,"lon":5.37441,"is_reserved":false,"is_disabled":false,"rental_uris":{"android":"levelo://app?vid=53739fb7-4843-4474-aaeb-689dd9669665","ios":"levelo://app?vid=53739fb7-4843-4474-aaeb-689dd9669665"},"vehicle_type_id":"4","last_reported":1731942594,"current_range_meters":36800,"station_id":"ce4bhgp2rcd13ifvqfc0","pricing_plan_id":"cebpf4jnsgd1na2vs0mg"},{"bike_id":"90d75165-e93d-4a9f-98ce-8622e0aaa885","system_id":"levelo_inurba_marseille","lat":43.30148,"lon":5.38078,"is_reserved":false,"is_disabled":false,"rental_uris":{"android":"levelo://app?vid=90d75165-e93d-4a9f-98ce-8622e0aaa885","ios":"levelo://app?vid=90d75165-e93d-4a9f-98ce-8622e0aaa885"},"vehicle_type_id":"4","last_reported":1731942594,"current_range_meters":36800,"station_id":"ce4bgjp2rcd13ifvqbh0","pricing_plan_id":"cebpf4jnsgd1na2vs0mg"},{"bike_id":"2831a421-b6d9-4b4a-bef0-b960399d0032","system_id":"levelo_inurba_marseille","lat":43.29291,"lon":5.37155,"is_reserved":false,"is_disabled":false,"rental_uris":{"android":"levelo://app?vid=2831a421-b6d9-4b4a-bef0-b960399d0032","ios":"levelo://app?vid=2831a421-b6d9-4b4a-bef0-b960399d0032"},"vehicle_type_id":"4","last_reported":1731942594,"current_range_meters":38800,"station_id":"ce4bgh92rcd13ifvqb40","pricing_plan_id":"cebpf4jnsgd1na2vs0mg"},{"bike_id":"b4d9d088-57d6-4dd5-89c3-7854e196b249","system_id":"levelo_inurba_marseille","lat":43.29294,"lon":5.37445,"is_reserved":false,"is_disabled":false,"rental_uris":{"android":"levelo://app?vid=b4d9d088-57d6-4dd5-89c3-7854e196b249","ios":"levelo://app?vid=b4d9d088-57d6-4dd5-89c3-7854e196b249"},"vehicle_type_id":"4","last_reported":1731942594,"current_range_meters":36400,"station_id":"ce4bgi12rcd13ifvqb70","pricing_plan_id":"cebpf4jnsgd1na2vs0mg"},{"bike_id":"6d64f1ce-6ac4-45c9-908e-7924696f8caa","system_id":"levelo_inurba_marseille","lat":43.304607,"lon":5.379033,"is_reserved":false,"is_disabled":false,"rental_uris":{"android":"levelo://app?vid=6d64f1ce-6ac4-45c9-908e-7924696f8caa","ios":"levelo://app?vid=6d64f1ce-6ac4-45c9-908e-7924696f8caa"},"vehicle_type_id":"4","last_reported":1731942594,"current_range_meters":36000,"station_id":"ce4bgup2rcd13ifvqcn0","pricing_plan_id":"cebpf4jnsgd1na2vs0mg"},{"bike_id":"7660ecc9-221a-494a-a296-1fbdbb42ed39","system_id":"levelo_inurba_marseille","lat":43.3077,"lon":5.37665,"is_reserved":false,"is_disabled":false,"rental_uris":{"android":"levelo://app?vid=7660ecc9-221a-494a-a296-1fbdbb42ed39","ios":"levelo://app?vid=7660ecc9-221a-494a-a296-1fbdbb42ed39"},"vehicle_type_id":"4","last_reported":1731942594,"current_range_meters":24400,"station_id":"ce4bgv92rcd13ifvqcq0","pricing_plan_id":"cebpf4jnsgd1na2vs0mg"},{"bike_id":"27658506-17e4-4f10-b0ad-c4ec380be793","system_id":"levelo_inurba_marseille","lat":43.25832,"lon":5.39442,"is_reserved":false,"is_disabled":false,"rental_uris":{"android":"levelo://app?vid=27658506-17e4-4f10-b0ad-c4ec380be793","ios":"levelo://app?vid=27658506-17e4-4f10-b0ad-c4ec380be793"},"vehicle_type_id":"4","last_reported":1731942594,"current_range_meters":38400,"station_id":"ce4bhip2rcd13ifvqft0","pricing_plan_id":"cebpf4jnsgd1na2vs0mg"},{"bike_id":"b52f5ae8-6981-4ce0-a00a-563f189d748f","system_id":"levelo_inurba_marseille","lat":43.29692,"lon":5.37695,"is_reserved":false,"is_disabled":false,"rental_uris":{"android":"levelo://app?vid=b52f5ae8-6981-4ce0-a00a-563f189d748f","ios":"levelo://app?vid=b52f5ae8-6981-4ce0-a00a-563f189d748f"},"vehicle_type_id":"4","last_reported":1731942594,"current_range_meters":28000,"station_id":"ce4bgkh2rcd13ifvqbl0","pricing_plan_id":"cebpf4jnsgd1na2vs0mg"},{"bike_id":"4780f20e-8b74-4414-a7c0-318b062ad3ac","system_id":"levelo_inurba_marseille","lat":43.29192,"lon":5.39324,"is_reserved":false,"is_disabled":false,"rental_uris":{"android":"levelo://app?vid=4780f20e-8b74-4414-a7c0-318b062ad3ac","ios":"levelo://app?vid=4780f20e-8b74-4414-a7c0-318b062ad3ac"},"vehicle_type_id":"4","last_reported":1731942594,"current_range_meters":7200,"station_id":"ce4bh192rcd13ifvqdd0","pricing_plan_id":"cebpf4jnsgd1na2vs0mg"},{"bike_id":"bf1c144c-f9d3-4903-8962-6df8f77b8814","system_id":"levelo_inurba_marseille","lat":43.25931,"lon":5.40917,"is_reserved":false,"is_disabled":false,"rental_uris":{"android":"levelo://app?vid=bf1c144c-f9d3-4903-8962-6df8f77b8814","ios":"levelo://app?vid=bf1c144c-f9d3-4903-8962-6df8f77b8814"},"vehicle_type_id":"4","last_reported":1731942594,"current_range_meters":14000,"station_id":"ce4bhm92rcd13ifvqglg","pricing_plan_id":"cebpf4jnsgd1na2vs0mg"},{"bike_id":"8c485897-ff32-4938-8d01-a01a0e258010","system_id":"levelo_inurba_marseille","lat":43.29528,"lon":5.38542,"is_reserved":false,"is_disabled":false,"rental_uris":{"android":"levelo://app?vid=8c485897-ff32-4938-8d01-a01a0e258010","ios":"levelo://app?vid=8c485897-ff32-4938-8d01-a01a0e258010"},"vehicle_type_id":"4","last_reported":1731942594,"current_range_meters":34800,"station_id":"ce4bgih2rcd13ifvqba0","pricing_plan_id":"cebpf4jnsgd1na2vs0mg"},{"bike_id":"e150caea-119d-4fee-a5d7-7010da4309a1","system_id":"levelo_inurba_marseille","lat":43.2953,"lon":5.38547,"is_reserved":false,"is_disabled":false,"rental_uris":{"android":"levelo://app?vid=e150caea-119d-4fee-a5d7-7010da4309a1","ios":"levelo://app?vid=e150caea-119d-4fee-a5d7-7010da4309a1"},"vehicle_type_id":"4","last_reported":1731942594,"current_range_meters":38800,"station_id":"ce4bgih2rcd13ifvqba0","pricing_plan_id":"cebpf4jnsgd1na2vs0mg"},{"bike_id":"99e250a3-df4c-4b34-9509-c05720c8abf5","system_id":"levelo_inurba_marseille","lat":43.30539,"lon":5.36542,"is_reserved":false,"is_disabled":false,"rental_uris":{"android":"levelo://app?vid=99e250a3-df4c-4b34-9509-c05720c8abf5","ios":"levelo://app?vid=99e250a3-df4c-4b34-9509-c05720c8abf5"},"vehicle_type_id":"4","last_reported":1731942594,"current_range_meters":38800,"station_id":"ce4bgs12rcd13ifvqcag","pricing_plan_id":"cebpf4jnsgd1na2vs0mg"},{"bike_id":"fbcf9b8e-c524-46bc-a44b-88a3c6ecbd4b","system_id":"levelo_inurba_marseille","lat":43.26801,"lon":5.40271,"is_reserved":false,"is_disabled":false,"rental_uris":{"android":"levelo://app?vid=fbcf9b8e-c524-46bc-a44b-88a3c6ecbd4b","ios":"levelo://app?vid=fbcf9b8e-c524-46bc-a44b-88a3c6ecbd4b"},"vehicle_type_id":"4","last_reported":1731942594,"current_range_meters":27200,"station_id":"ce501612rcd8frsf0b60","pricing_plan_id":"cebpf4jnsgd1na2vs0mg"},{"bike_id":"c137ad19-1d76-4102-b396-b36fb3e5c779","system_id":"levelo_inurba_marseille","lat":43.31223,"lon":5.36865,"is_reserved":false,"is_disabled":false,"rental_uris":{"android":"levelo://app?vid=c137ad19-1d76-4102-b396-b36fb3e5c779","ios":"levelo://app?vid=c137ad19-1d76-4102-b396-b36fb3e5c779"},"vehicle_type_id":"4","last_reported":1731942594,"current_range_meters":30800,"station_id":"ce4bgl92rcd13ifvqbq0","pricing_plan_id":"cebpf4jnsgd1na2vs0mg"},{"bike_id":"8058c8cd-ade9-41bc-9113-45d654642975","system_id":"levelo_inurba_marseille","lat":43.23963,"lon":5.36629,"is_reserved":false,"is_disabled":false,"rental_uris":{"android":"levelo://app?vid=8058c8cd-ade9-41bc-9113-45d654642975","ios":"levelo://app?vid=8058c8cd-ade9-41bc-9113-45d654642975"},"vehicle_type_id":"4","last_reported":1731942594,"current_range_meters":38800,"station_id":"ce4bhi12rcd13ifvqfp0","pricing_plan_id":"cebpf4jnsgd1na2vs0mg"},{"bike_id":"e251dd69-e8d6-4f89-818b-923ca8a99242","system_id":"levelo_inurba_marseille","lat":43.30144,"lon":5.38019,"is_reserved":false,"is_disabled":false,"rental_uris":{"android":"levelo://app?vid=e251dd69-e8d6-4f89-818b-923ca8a99242","ios":"levelo://app?vid=e251dd69-e8d6-4f89-818b-923ca8a99242"},"vehicle_type_id":"4","last_reported":1731942594,"current_range_meters":32400,"station_id":"ce4bhjp2rcd13ifvqga0","pricing_plan_id":"cebpf4jnsgd1na2vs0mg"},{"bike_id":"e6fb4116-da88-433e-ae11-f57636d59021","system_id":"levelo_inurba_marseille","lat":43.282616,"lon":5.350647,"is_reserved":false,"is_disabled":false,"rental_uris":{"android":"levelo://app?vid=e6fb4116-da88-433e-ae11-f57636d59021","ios":"levelo://app?vid=e6fb4116-da88-433e-ae11-f57636d59021"},"vehicle_type_id":"4","last_reported":1731942594,"current_range_meters":24000,"station_id":"ce4bhbp2rcd13ifvqerg","pricing_plan_id":"cebpf4jnsgd1na2vs0mg"},{"bike_id":"bdadc3b0-cd9b-4292-8488-1c834c12b9bd","system_id":"levelo_inurba_marseille","lat":43.29623,"lon":5.37151,"is_reserved":false,"is_disabled":false,"rental_uris":{"android":"levelo://app?vid=bdadc3b0-cd9b-4292-8488-1c834c12b9bd","ios":"levelo://app?vid=bdadc3b0-cd9b-4292-8488-1c834c12b9bd"},"vehicle_type_id":"4","last_reported":1731942594,"current_range_meters":36800,"station_id":"ce4bgnh2rcd13ifvqc0g","pricing_plan_id":"cebpf4jnsgd1na2vs0mg"},{"bike_id":"f981cacc-2582-4fbe-81b8-c5320ba9db2a","system_id":"levelo_inurba_marseille","lat":43.298,"lon":5.38095,"is_reserved":false,"is_disabled":false,"rental_uris":{"android":"levelo://app?vid=f981cacc-2582-4fbe-81b8-c5320ba9db2a","ios":"levelo://app?vid=f981cacc-2582-4fbe-81b8-c5320ba9db2a"},"vehicle_type_id":"4","last_reported":1731942594,"current_range_meters":22000,"station_id":"ce4bgip2rcd13ifvqbb0","pricing_plan_id":"cebpf4jnsgd1na2vs0mg"},{"bike_id":"26757cf4-309e-4eaa-afed-5a021dff1240","system_id":"levelo_inurba_marseille","lat":43.31116,"lon":5.37768,"is_reserved":false,"is_disabled":false,"rental_uris":{"android":"levelo://app?vid=26757cf4-309e-4eaa-afed-5a021dff1240","ios":"levelo://app?vid=26757cf4-309e-4eaa-afed-5a021dff1240"},"vehicle_type_id":"4","last_reported":1731942594,"current_range_meters":36400,"station_id":"ce4bgt92rcd13ifvqcg0","pricing_plan_id":"cebpf4jnsgd1na2vs0mg"},{"bike_id":"486cab66-9549-4871-9ae8-bfe5fc8f0aa4","system_id":"levelo_inurba_marseille","lat":43.28709,"lon":5.37944,"is_reserved":false,"is_disabled":false,"rental_uris":{"android":"levelo://app?vid=486cab66-9549-4871-9ae8-bfe5fc8f0aa4","ios":"levelo://app?vid=486cab66-9549-4871-9ae8-bfe5fc8f0aa4"},"vehicle_type_id":"4","last_reported":1731942594,"current_range_meters":27600,"station_id":"ce4bh9p2rcd13ifvqec0","pricing_plan_id":"cebpf4jnsgd1na2vs0mg"},{"bike_id":"ce249102-5132-45ee-9b83-fc2ea0c15102","system_id":"levelo_inurba_marseille","lat":43.25871,"lon":5.39893,"is_reserved":false,"is_disabled":false,"rental_uris":{"android":"levelo://app?vid=ce249102-5132-45ee-9b83-fc2ea0c15102","ios":"levelo://app?vid=ce249102-5132-45ee-9b83-fc2ea0c15102"},"vehicle_type_id":"4","last_reported":1731942594,"current_range_meters":38800,"station_id":"ce4bhl92rcd13ifvqghg","pricing_plan_id":"cebpf4jnsgd1na2vs0mg"},{"bike_id":"94f27bd2-53d7-4501-a7e0-f59cc75bd6d4","system_id":"levelo_inurba_marseille","lat":43.27983,"lon":5.41649,"is_reserved":false,"is_disabled":false,"rental_uris":{"android":"levelo://app?vid=94f27bd2-53d7-4501-a7e0-f59cc75bd6d4","ios":"levelo://app?vid=94f27bd2-53d7-4501-a7e0-f59cc75bd6d4"},"vehicle_type_id":"4","last_reported":1731942594,"current_range_meters":36400,"station_id":"ce4bho12rcd13ifvqh1g","pricing_plan_id":"cebpf4jnsgd1na2vs0mg"},{"bike_id":"6d757fef-4f26-43f9-ac2c-ffab39bf7dae","system_id":"levelo_inurba_marseille","lat":43.32249,"lon":5.36901,"is_reserved":false,"is_disabled":false,"rental_uris":{"android":"levelo://app?vid=6d757fef-4f26-43f9-ac2c-ffab39bf7dae","ios":"levelo://app?vid=6d757fef-4f26-43f9-ac2c-ffab39bf7dae"},"vehicle_type_id":"4","last_reported":1731942594,"current_range_meters":10000,"station_id":"","pricing_plan_id":"cebpf4jnsgd1na2vs0mg"},{"bike_id":"03aa34e1-e2d9-402b-8af3-6b7e73ddb9c4","system_id":"levelo_inurba_marseille","lat":43.24993,"lon":5.38939,"is_reserved":false,"is_disabled":false,"rental_uris":{"android":"levelo://app?vid=03aa34e1-e2d9-402b-8af3-6b7e73ddb9c4","ios":"levelo://app?vid=03aa34e1-e2d9-402b-8af3-6b7e73ddb9c4"},"vehicle_type_id":"4","last_reported":1731942594,"current_range_meters":16800,"station_id":"ce4bhgp2rcd13ifvqfd0","pricing_plan_id":"cebpf4jnsgd1na2vs0mg"},{"bike_id":"d21d17e7-2f48-45e6-a424-c15abbaa2ab7","system_id":"levelo_inurba_marseille","lat":43.24544,"lon":5.39525,"is_reserved":false,"is_disabled":false,"rental_uris":{"android":"levelo://app?vid=d21d17e7-2f48-45e6-a424-c15abbaa2ab7","ios":"levelo://app?vid=d21d17e7-2f48-45e6-a424-c15abbaa2ab7"},"vehicle_type_id":"4","last_reported":1731942594,"current_range_meters":21600,"station_id":"ce4bhlp2rcd13ifvqgjg","pricing_plan_id":"cebpf4jnsgd1na2vs0mg"},{"bike_id":"8fdd224c-40e5-482c-a23a-c45c3b9ae0a1","system_id":"levelo_inurba_marseille","lat":43.29517,"lon":5.39037,"is_reserved":false,"is_disabled":false,"rental_uris":{"android":"levelo://app?vid=8fdd224c-40e5-482c-a23a-c45c3b9ae0a1","ios":"levelo://app?vid=8fdd224c-40e5-482c-a23a-c45c3b9ae0a1"},"vehicle_type_id":"4","last_reported":1731942594,"current_range_meters":38800,"station_id":"ce4bh3p2rcd13ifvqdp0","pricing_plan_id":"cebpf4jnsgd1na2vs0mg"},{"bike_id":"9629a9bc-af16-495b-9209-d1d39e5dd208","system_id":"levelo_inurba_marseille","lat":43.23066,"lon":5.35493,"is_reserved":false,"is_disabled":false,"rental_uris":{"android":"levelo://app?vid=9629a9bc-af16-495b-9209-d1d39e5dd208","ios":"levelo://app?vid=9629a9bc-af16-495b-9209-d1d39e5dd208"},"vehicle_type_id":"4","last_reported":1731942594,"current_range_meters":9200,"station_id":"cpo3342slgdg3j2ifvpg","pricing_plan_id":"cebpf4jnsgd1na2vs0mg"},{"bike_id":"eb0c467f-8f8d-4a80-aec4-472cf60b053f","system_id":"levelo_inurba_marseille","lat":43.29255,"lon":5.38442,"is_reserved":false,"is_disabled":false,"rental_uris":{"android":"levelo://app?vid=eb0c467f-8f8d-4a80-aec4-472cf60b053f","ios":"levelo://app?vid=eb0c467f-8f8d-4a80-aec4-472cf60b053f"},"vehicle_type_id":"4","last_reported":1731942594,"current_range_meters":36400,"station_id":"ce4bh692rcd13ifvqea0","pricing_plan_id":"cebpf4jnsgd1na2vs0mg"},{"bike_id":"75b66428-5871-4589-82ab-98c7167f27df","system_id":"levelo_inurba_marseille","lat":43.29785,"lon":5.3812,"is_reserved":false,"is_disabled":false,"rental_uris":{"android":"levelo://app?vid=75b66428-5871-4589-82ab-98c7167f27df","ios":"levelo://app?vid=75b66428-5871-4589-82ab-98c7167f27df"},"vehicle_type_id":"4","last_reported":1731942594,"current_range_meters":6000,"station_id":"ce4bgip2rcd13ifvqbb0","pricing_plan_id":"cebpf4jnsgd1na2vs0mg"},{"bike_id":"fdca06ae-ab02-40c7-b198-309af33dd329","system_id":"levelo_inurba_marseille","lat":43.26482,"lon":5.39554,"is_reserved":false,"is_disabled":false,"rental_uris":{"android":"levelo://app?vid=fdca06ae-ab02-40c7-b198-309af33dd329","ios":"levelo://app?vid=fdca06ae-ab02-40c7-b198-309af33dd329"},"vehicle_type_id":"4","last_reported":1731942594,"current_range_meters":22800,"station_id":"ce4bhi12rcd13ifvqfq0","pricing_plan_id":"cebpf4jnsgd1na2vs0mg"},{"bike_id":"f3226602-1e37-4891-970a-ea68caff7bd9","system_id":"levelo_inurba_marseille","lat":43.27048,"lon":5.40268,"is_reserved":false,"is_disabled":false,"rental_uris":{"android":"levelo://app?vid=f3226602-1e37-4891-970a-ea68caff7bd9","ios":"levelo://app?vid=f3226602-1e37-4891-970a-ea68caff7bd9"},"vehicle_type_id":"4","last_reported":1731942594,"current_range_meters":31200,"station_id":"ce4bhk92rcd13ifvqgc0","pricing_plan_id":"cebpf4jnsgd1na2vs0mg"},{"bike_id":"bb1913e1-009a-4a58-bc51-7156383d6a0c","system_id":"levelo_inurba_marseille","lat":43.28076,"lon":5.39659,"is_reserved":false,"is_disabled":false,"rental_uris":{"android":"levelo://app?vid=bb1913e1-009a-4a58-bc51-7156383d6a0c","ios":"levelo://app?vid=bb1913e1-009a-4a58-bc51-7156383d6a0c"},"vehicle_type_id":"4","last_reported":1731942594,"current_range_meters":30000,"station_id":"ce4bho12rcd13ifvqh2g","pricing_plan_id":"cebpf4jnsgd1na2vs0mg"},{"bike_id":"6b8c4514-cb85-4a2a-9925-6fb4153b9632","system_id":"levelo_inurba_marseille","lat":43.29553,"lon":5.42277,"is_reserved":false,"is_disabled":false,"rental_uris":{"android":"levelo://app?vid=6b8c4514-cb85-4a2a-9925-6fb4153b9632","ios":"levelo://app?vid=6b8c4514-cb85-4a2a-9925-6fb4153b9632"},"vehicle_type_id":"4","last_reported":1731942594,"current_range_meters":37600,"station_id":"ce4bhph2rcd13ifvqhdg","pricing_plan_id":"cebpf4jnsgd1na2vs0mg"},{"bike_id":"71e6baab-cc15-4ef1-847c-c06b2b830c83","system_id":"levelo_inurba_marseille","lat":43.28707,"lon":5.37935,"is_reserved":false,"is_disabled":false,"rental_uris":{"android":"levelo://app?vid=71e6baab-cc15-4ef1-847c-c06b2b830c83","ios":"levelo://app?vid=71e6baab-cc15-4ef1-847c-c06b2b830c83"},"vehicle_type_id":"4","last_reported":1731942594,"current_range_meters":38800,"station_id":"ce4bh9p2rcd13ifvqec0","pricing_plan_id":"cebpf4jnsgd1na2vs0mg"},{"bike_id":"e0f5da7b-9e8e-4d73-a3fe-b92673f9289c","system_id":"levelo_inurba_marseille","lat":43.31484,"lon":5.37306,"is_reserved":false,"is_disabled":false,"rental_uris":{"android":"levelo://app?vid=e0f5da7b-9e8e-4d73-a3fe-b92673f9289c","ios":"levelo://app?vid=e0f5da7b-9e8e-4d73-a3fe-b92673f9289c"},"vehicle_type_id":"4","last_reported":1731942594,"current_range_meters":26800,"station_id":"ce4bgt12rcd13ifvqcd0","pricing_plan_id":"cebpf4jnsgd1na2vs0mg"},{"bike_id":"39c901a7-8e5b-430a-a98d-5337103a46bc","system_id":"levelo_inurba_marseille","lat":43.27618,"lon":5.36111,"is_reserved":false,"is_disabled":false,"rental_uris":{"android":"levelo://app?vid=39c901a7-8e5b-430a-a98d-5337103a46bc","ios":"levelo://app?vid=39c901a7-8e5b-430a-a98d-5337103a46bc"},"vehicle_type_id":"4","last_reported":1731942594,"current_range_meters":38400,"station_id":"ce4bgj92rcd13ifvqbe0","pricing_plan_id":"cebpf4jnsgd1na2vs0mg"},{"bike_id":"ce38a7cc-141d-4c9e-9566-94e1fcb274c6","system_id":"levelo_inurba_marseille","lat":43.29513,"lon":5.39044,"is_reserved":false,"is_disabled":false,"rental_uris":{"android":"levelo://app?vid=ce38a7cc-141d-4c9e-9566-94e1fcb274c6","ios":"levelo://app?vid=ce38a7cc-141d-4c9e-9566-94e1fcb274c6"},"vehicle_type_id":"4","last_reported":1731942594,"current_range_meters":38800,"station_id":"ce4bh3p2rcd13ifvqdp0","pricing_plan_id":"cebpf4jnsgd1na2vs0mg"},{"bike_id":"1648b433-26ee-4cd6-8cfd-b0f40190cfa5","system_id":"levelo_inurba_marseille","lat":43.24182,"lon":5.39724,"is_reserved":false,"is_disabled":false,"rental_uris":{"android":"levelo://app?vid=1648b433-26ee-4cd6-8cfd-b0f40190cfa5","ios":"levelo://app?vid=1648b433-26ee-4cd6-8cfd-b0f40190cfa5"},"vehicle_type_id":"4","last_reported":1731942594,"current_range_meters":27200,"station_id":"ce4bhn12rcd13ifvqgpg","pricing_plan_id":"cebpf4jnsgd1na2vs0mg"},{"bike_id":"7e981d3d-3bbd-44a0-a657-93ab2fe8999e","system_id":"levelo_inurba_marseille","lat":43.27911,"lon":5.39585,"is_reserved":false,"is_disabled":false,"rental_uris":{"android":"levelo://app?vid=7e981d3d-3bbd-44a0-a657-93ab2fe8999e","ios":"levelo://app?vid=7e981d3d-3bbd-44a0-a657-93ab2fe8999e"},"vehicle_type_id":"4","last_reported":1731942594,"current_range_meters":30400,"station_id":"ce4bhf92rcd13ifvqf40","pricing_plan_id":"cebpf4jnsgd1na2vs0mg"},{"bike_id":"a49b82ea-556b-475b-a228-26cdd0e313f0","system_id":"levelo_inurba_marseille","lat":43.29879,"lon":5.389063,"is_reserved":false,"is_disabled":false,"rental_uris":{"android":"levelo://app?vid=a49b82ea-556b-475b-a228-26cdd0e313f0","ios":"levelo://app?vid=a49b82ea-556b-475b-a228-26cdd0e313f0"},"vehicle_type_id":"4","last_reported":1731942594,"current_range_meters":34000,"station_id":"ce4bh392rcd13ifvqdl0","pricing_plan_id":"cebpf4jnsgd1na2vs0mg"},{"bike_id":"d9cad4a3-71ca-4a8a-a992-2eb6d379fa9f","system_id":"levelo_inurba_marseille","lat":43.32655,"lon":5.40999,"is_reserved":false,"is_disabled":false,"rental_uris":{"android":"levelo://app?vid=d9cad4a3-71ca-4a8a-a992-2eb6d379fa9f","ios":"levelo://app?vid=d9cad4a3-71ca-4a8a-a992-2eb6d379fa9f"},"vehicle_type_id":"4","last_reported":1731942594,"current_range_meters":16000,"station_id":"ce4bhpp2rcd13ifvqhgg","pricing_plan_id":"cebpf4jnsgd1na2vs0mg"},{"bike_id":"cc911dbc-2c04-4373-b6ec-a968894c44ba","system_id":"levelo_inurba_marseille","lat":43.29932,"lon":5.36552,"is_reserved":false,"is_disabled":false,"rental_uris":{"android":"levelo://app?vid=cc911dbc-2c04-4373-b6ec-a968894c44ba","ios":"levelo://app?vid=cc911dbc-2c04-4373-b6ec-a968894c44ba"},"vehicle_type_id":"4","last_reported":1731942594,"current_range_meters":30000,"station_id":"ce4bgm92rcd13ifvqbr0","pricing_plan_id":"cebpf4jnsgd1na2vs0mg"},{"bike_id":"7371f526-9038-466d-aff6-1d3e8139d586","system_id":"levelo_inurba_marseille","lat":43.2871,"lon":5.37939,"is_reserved":false,"is_disabled":false,"rental_uris":{"android":"levelo://app?vid=7371f526-9038-466d-aff6-1d3e8139d586","ios":"levelo://app?vid=7371f526-9038-466d-aff6-1d3e8139d586"},"vehicle_type_id":"4","last_reported":1731942594,"current_range_meters":38800,"station_id":"ce4bh9p2rcd13ifvqec0","pricing_plan_id":"cebpf4jnsgd1na2vs0mg"},{"bike_id":"9df3800f-aaa2-4382-adca-65785364c61a","system_id":"levelo_inurba_marseille","lat":43.28367,"lon":5.38622,"is_reserved":false,"is_disabled":false,"rental_uris":{"android":"levelo://app?vid=9df3800f-aaa2-4382-adca-65785364c61a","ios":"levelo://app?vid=9df3800f-aaa2-4382-adca-65785364c61a"},"vehicle_type_id":"4","last_reported":1731942594,"current_range_meters":8400,"station_id":"ce4bh492rcd13ifvqdvg","pricing_plan_id":"cebpf4jnsgd1na2vs0mg"},{"bike_id":"70953ba8-c1d0-4850-95c1-592e9cf5db66","system_id":"levelo_inurba_marseille","lat":43.3095,"lon":5.3904,"is_reserved":false,"is_disabled":false,"rental_uris":{"android":"levelo://app?vid=70953ba8-c1d0-4850-95c1-592e9cf5db66","ios":"levelo://app?vid=70953ba8-c1d0-4850-95c1-592e9cf5db66"},"vehicle_type_id":"4","last_reported":1731942594,"current_range_meters":30000,"station_id":"ce4bgup2rcd13ifvqco0","pricing_plan_id":"cebpf4jnsgd1na2vs0mg"},{"bike_id":"3d7a639d-a9ad-4956-b42e-e19d859da00c","system_id":"levelo_inurba_marseille","lat":43.29533,"lon":5.38549,"is_reserved":false,"is_disabled":false,"rental_uris":{"android":"levelo://app?vid=3d7a639d-a9ad-4956-b42e-e19d859da00c","ios":"levelo://app?vid=3d7a639d-a9ad-4956-b42e-e19d859da00c"},"vehicle_type_id":"4","last_reported":1731942594,"current_range_meters":38800,"station_id":"ce4bgih2rcd13ifvqba0","pricing_plan_id":"cebpf4jnsgd1na2vs0mg"},{"bike_id":"7202f72a-e747-4a7a-ba9b-2b526c88b4c3","system_id":"levelo_inurba_marseille","lat":43.22927,"lon":5.35376,"is_reserved":false,"is_disabled":false,"rental_uris":{"android":"levelo://app?vid=7202f72a-e747-4a7a-ba9b-2b526c88b4c3","ios":"levelo://app?vid=7202f72a-e747-4a7a-ba9b-2b526c88b4c3"},"vehicle_type_id":"4","last_reported":1731942594,"current_range_meters":16800,"station_id":"cpo3532slgdg3j2ikp40","pricing_plan_id":"cebpf4jnsgd1na2vs0mg"},{"bike_id":"4a8dbd06-6945-4cc6-a59a-5e9c911a002a","system_id":"levelo_inurba_marseille","lat":43.27811,"lon":5.4072,"is_reserved":false,"is_disabled":false,"rental_uris":{"android":"levelo://app?vid=4a8dbd06-6945-4cc6-a59a-5e9c911a002a","ios":"levelo://app?vid=4a8dbd06-6945-4cc6-a59a-5e9c911a002a"},"vehicle_type_id":"4","last_reported":1731942594,"current_range_meters":15200,"station_id":"ce4bhnh2rcd13ifvqgtg","pricing_plan_id":"cebpf4jnsgd1na2vs0mg"},{"bike_id":"18cdf0b1-0772-4340-a682-1c734cd9d7dc","system_id":"levelo_inurba_marseille","lat":43.27429,"lon":5.39418,"is_reserved":false,"is_disabled":false,"rental_uris":{"android":"levelo://app?vid=18cdf0b1-0772-4340-a682-1c734cd9d7dc","ios":"levelo://app?vid=18cdf0b1-0772-4340-a682-1c734cd9d7dc"},"vehicle_type_id":"4","last_reported":1731942594,"current_range_meters":9600,"station_id":"ce4bhdp2rcd13ifvqf20","pricing_plan_id":"cebpf4jnsgd1na2vs0mg"},{"bike_id":"5657292d-cbb4-439c-81c5-bb02027734b1","system_id":"levelo_inurba_marseille","lat":43.27654,"lon":5.38918,"is_reserved":false,"is_disabled":false,"rental_uris":{"android":"levelo://app?vid=5657292d-cbb4-439c-81c5-bb02027734b1","ios":"levelo://app?vid=5657292d-cbb4-439c-81c5-bb02027734b1"},"vehicle_type_id":"4","last_reported":1731942594,"current_range_meters":38800,"station_id":"ce4bhi12rcd13ifvqfo0","pricing_plan_id":"cebpf4jnsgd1na2vs0mg"},{"bike_id":"bcfae24b-e804-4d53-b9bc-0a4b45e72e6e","system_id":"levelo_inurba_marseille","lat":43.28702,"lon":5.37951,"is_reserved":false,"is_disabled":false,"rental_uris":{"android":"levelo://app?vid=bcfae24b-e804-4d53-b9bc-0a4b45e72e6e","ios":"levelo://app?vid=bcfae24b-e804-4d53-b9bc-0a4b45e72e6e"},"vehicle_type_id":"4","last_reported":1731942594,"current_range_meters":14400,"station_id":"ce4bh9p2rcd13ifvqec0","pricing_plan_id":"cebpf4jnsgd1na2vs0mg"},{"bike_id":"e75e2119-d837-403f-9abd-1e303afada11","system_id":"levelo_inurba_marseille","lat":43.2396,"lon":5.36631,"is_reserved":false,"is_disabled":false,"rental_uris":{"android":"levelo://app?vid=e75e2119-d837-403f-9abd-1e303afada11","ios":"levelo://app?vid=e75e2119-d837-403f-9abd-1e303afada11"},"vehicle_type_id":"4","last_reported":1731942594,"current_range_meters":39200,"station_id":"ce4bhi12rcd13ifvqfp0","pricing_plan_id":"cebpf4jnsgd1na2vs0mg"},{"bike_id":"9c577393-f35c-4b59-82b1-f7c1bb6a1b8f","system_id":"levelo_inurba_marseille","lat":43.24566,"lon":5.39509,"is_reserved":false,"is_disabled":false,"rental_uris":{"android":"levelo://app?vid=9c577393-f35c-4b59-82b1-f7c1bb6a1b8f","ios":"levelo://app?vid=9c577393-f35c-4b59-82b1-f7c1bb6a1b8f"},"vehicle_type_id":"4","last_reported":1731942594,"current_range_meters":16400,"station_id":"ce4bhlp2rcd13ifvqgjg","pricing_plan_id":"cebpf4jnsgd1na2vs0mg"},{"bike_id":"81ef1c69-b66e-42d4-8c0f-cd41b6796b35","system_id":"levelo_inurba_marseille","lat":43.299072,"lon":5.374756,"is_reserved":false,"is_disabled":false,"rental_uris":{"android":"levelo://app?vid=81ef1c69-b66e-42d4-8c0f-cd41b6796b35","ios":"levelo://app?vid=81ef1c69-b66e-42d4-8c0f-cd41b6796b35"},"vehicle_type_id":"4","last_reported":1731942594,"current_range_meters":36000,"station_id":"ce4bgjh2rcd13ifvqbg0","pricing_plan_id":"cebpf4jnsgd1na2vs0mg"},{"bike_id":"000bbcc5-291b-4365-9f84-9ac6e1b6e584","system_id":"levelo_inurba_marseille","lat":43.27998,"lon":5.4002,"is_reserved":false,"is_disabled":false,"rental_uris":{"android":"levelo://app?vid=000bbcc5-291b-4365-9f84-9ac6e1b6e584","ios":"levelo://app?vid=000bbcc5-291b-4365-9f84-9ac6e1b6e584"},"vehicle_type_id":"4","last_reported":1731942594,"current_range_meters":34000,"station_id":"ce4bho92rcd13ifvqh4g","pricing_plan_id":"cebpf4jnsgd1na2vs0mg"},{"bike_id":"b8d16368-e148-4da7-8947-ef6db91a8977","system_id":"levelo_inurba_marseille","lat":43.29524,"lon":5.37503,"is_reserved":false,"is_disabled":false,"rental_uris":{"android":"levelo://app?vid=b8d16368-e148-4da7-8947-ef6db91a8977","ios":"levelo://app?vid=b8d16368-e148-4da7-8947-ef6db91a8977"},"vehicle_type_id":"4","last_reported":1731942594,"current_range_meters":18000,"station_id":"ce4bgkp2rcd13ifvqbmg","pricing_plan_id":"cebpf4jnsgd1na2vs0mg"},{"bike_id":"1204551e-1731-45fc-ad6e-69f86735d437","system_id":"levelo_inurba_marseille","lat":43.25821,"lon":5.39441,"is_reserved":false,"is_disabled":false,"rental_uris":{"android":"levelo://app?vid=1204551e-1731-45fc-ad6e-69f86735d437","ios":"levelo://app?vid=1204551e-1731-45fc-ad6e-69f86735d437"},"vehicle_type_id":"4","last_reported":1731942594,"current_range_meters":19600,"station_id":"ce4bhip2rcd13ifvqft0","pricing_plan_id":"cebpf4jnsgd1na2vs0mg"},{"bike_id":"dcb3b600-d992-4ebd-912f-790462b8c30f","system_id":"levelo_inurba_marseille","lat":43.247317,"lon":5.389601,"is_reserved":false,"is_disabled":false,"rental_uris":{"android":"levelo://app?vid=dcb3b600-d992-4ebd-912f-790462b8c30f","ios":"levelo://app?vid=dcb3b600-d992-4ebd-912f-790462b8c30f"},"vehicle_type_id":"4","last_reported":1731942594,"current_range_meters":38400,"station_id":"ce4bhg12rcd13ifvqf60","pricing_plan_id":"cebpf4jnsgd1na2vs0mg"},{"bike_id":"48a9996f-d95f-47d6-b8b6-1a3091a08b32","system_id":"levelo_inurba_marseille","lat":43.276713,"lon":5.388977,"is_reserved":false,"is_disabled":false,"rental_uris":{"android":"levelo://app?vid=48a9996f-d95f-47d6-b8b6-1a3091a08b32","ios":"levelo://app?vid=48a9996f-d95f-47d6-b8b6-1a3091a08b32"},"vehicle_type_id":"4","last_reported":1731942594,"current_range_meters":36800,"station_id":"ce4bhi12rcd13ifvqfo0","pricing_plan_id":"cebpf4jnsgd1na2vs0mg"},{"bike_id":"662cad4e-cdc8-4ef1-9dc3-07da8d49fa3e","system_id":"levelo_inurba_marseille","lat":43.29791,"lon":5.38101,"is_reserved":false,"is_disabled":false,"rental_uris":{"android":"levelo://app?vid=662cad4e-cdc8-4ef1-9dc3-07da8d49fa3e","ios":"levelo://app?vid=662cad4e-cdc8-4ef1-9dc3-07da8d49fa3e"},"vehicle_type_id":"4","last_reported":1731942594,"current_range_meters":22400,"station_id":"ce4bgip2rcd13ifvqbb0","pricing_plan_id":"cebpf4jnsgd1na2vs0mg"},{"bike_id":"f2cf744a-362f-4ec0-a942-9b72a2ded9a5","system_id":"levelo_inurba_marseille","lat":43.337444,"lon":5.374475,"is_reserved":false,"is_disabled":false,"rental_uris":{"android":"levelo://app?vid=f2cf744a-362f-4ec0-a942-9b72a2ded9a5","ios":"levelo://app?vid=f2cf744a-362f-4ec0-a942-9b72a2ded9a5"},"vehicle_type_id":"4","last_reported":1731942594,"current_range_meters":29600,"station_id":"","pricing_plan_id":"cebpf4jnsgd1na2vs0mg"},{"bike_id":"df1bd21f-55b3-42fd-a65b-b67999211f2e","system_id":"levelo_inurba_marseille","lat":43.29186,"lon":5.35812,"is_reserved":false,"is_disabled":false,"rental_uris":{"android":"levelo://app?vid=df1bd21f-55b3-42fd-a65b-b67999211f2e","ios":"levelo://app?vid=df1bd21f-55b3-42fd-a65b-b67999211f2e"},"vehicle_type_id":"4","last_reported":1731942594,"current_range_meters":4400,"station_id":"ce4bhb12rcd13ifvqel0","pricing_plan_id":"cebpf4jnsgd1na2vs0mg"},{"bike_id":"10bdb162-ecb1-41b2-9f6d-5e2e8b269c29","system_id":"levelo_inurba_marseille","lat":43.25114,"lon":5.40326,"is_reserved":false,"is_disabled":false,"rental_uris":{"android":"levelo://app?vid=10bdb162-ecb1-41b2-9f6d-5e2e8b269c29","ios":"levelo://app?vid=10bdb162-ecb1-41b2-9f6d-5e2e8b269c29"},"vehicle_type_id":"4","last_reported":1731942594,"current_range_meters":18000,"station_id":"ce4bhlh2rcd13ifvqgig","pricing_plan_id":"cebpf4jnsgd1na2vs0mg"},{"bike_id":"4eff7712-a7ec-48e4-b9e1-f0c027db5128","system_id":"levelo_inurba_marseille","lat":43.27667,"lon":5.38899,"is_reserved":false,"is_disabled":false,"rental_uris":{"android":"levelo://app?vid=4eff7712-a7ec-48e4-b9e1-f0c027db5128","ios":"levelo://app?vid=4eff7712-a7ec-48e4-b9e1-f0c027db5128"},"vehicle_type_id":"4","last_reported":1731942594,"current_range_meters":24000,"station_id":"ce4bhi12rcd13ifvqfo0","pricing_plan_id":"cebpf4jnsgd1na2vs0mg"},{"bike_id":"a6b8c285-acc9-4039-9531-1aae39136a33","system_id":"levelo_inurba_marseille","lat":43.312042,"lon":5.367348,"is_reserved":false,"is_disabled":false,"rental_uris":{"android":"levelo://app?vid=a6b8c285-acc9-4039-9531-1aae39136a33","ios":"levelo://app?vid=a6b8c285-acc9-4039-9531-1aae39136a33"},"vehicle_type_id":"4","last_reported":1731942594,"current_range_meters":5600,"station_id":"","pricing_plan_id":"cebpf4jnsgd1na2vs0mg"},{"bike_id":"11f81d72-c8e7-4ef6-b62d-17f40c3efe62","system_id":"levelo_inurba_marseille","lat":43.320988,"lon":5.36783,"is_reserved":false,"is_disabled":false,"rental_uris":{"android":"levelo://app?vid=11f81d72-c8e7-4ef6-b62d-17f40c3efe62","ios":"levelo://app?vid=11f81d72-c8e7-4ef6-b62d-17f40c3efe62"},"vehicle_type_id":"4","last_reported":1731942594,"current_range_meters":35600,"station_id":"ce4bhrh2rcd13ifvqhug","pricing_plan_id":"cebpf4jnsgd1na2vs0mg"},{"bike_id":"34b9f970-27e7-43cb-bb06-ac9397ebf150","system_id":"levelo_inurba_marseille","lat":43.24083,"lon":5.37741,"is_reserved":false,"is_disabled":false,"rental_uris":{"android":"levelo://app?vid=34b9f970-27e7-43cb-bb06-ac9397ebf150","ios":"levelo://app?vid=34b9f970-27e7-43cb-bb06-ac9397ebf150"},"vehicle_type_id":"4","last_reported":1731942594,"current_range_meters":17200,"station_id":"ce4bhnp2rcd13ifvqgvg","pricing_plan_id":"cebpf4jnsgd1na2vs0mg"},{"bike_id":"39208c10-828e-4392-9aa2-019dd2bc97c3","system_id":"levelo_inurba_marseille","lat":43.27998,"lon":5.40023,"is_reserved":false,"is_disabled":false,"rental_uris":{"android":"levelo://app?vid=39208c10-828e-4392-9aa2-019dd2bc97c3","ios":"levelo://app?vid=39208c10-828e-4392-9aa2-019dd2bc97c3"},"vehicle_type_id":"4","last_reported":1731942594,"current_range_meters":24800,"station_id":"ce4bho92rcd13ifvqh4g","pricing_plan_id":"cebpf4jnsgd1na2vs0mg"},{"bike_id":"35f7531c-6810-460e-b2bc-ebd73d870cfe","system_id":"levelo_inurba_marseille","lat":43.27804,"lon":5.40721,"is_reserved":false,"is_disabled":false,"rental_uris":{"android":"levelo://app?vid=35f7531c-6810-460e-b2bc-ebd73d870cfe","ios":"levelo://app?vid=35f7531c-6810-460e-b2bc-ebd73d870cfe"},"vehicle_type_id":"4","last_reported":1731942594,"current_range_meters":30800,"station_id":"ce4bhnh2rcd13ifvqgtg","pricing_plan_id":"cebpf4jnsgd1na2vs0mg"},{"bike_id":"3eff64f0-857b-4d48-833a-5ea1620db137","system_id":"levelo_inurba_marseille","lat":43.29787,"lon":5.37099,"is_reserved":false,"is_disabled":false,"rental_uris":{"android":"levelo://app?vid=3eff64f0-857b-4d48-833a-5ea1620db137","ios":"levelo://app?vid=3eff64f0-857b-4d48-833a-5ea1620db137"},"vehicle_type_id":"4","last_reported":1731942594,"current_range_meters":28800,"station_id":"ce4bgop2rcd13ifvqc1g","pricing_plan_id":"cebpf4jnsgd1na2vs0mg"},{"bike_id":"034fdf6f-4f78-44c1-9981-8a8407a03a87","system_id":"levelo_inurba_marseille","lat":43.2803,"lon":5.36952,"is_reserved":false,"is_disabled":false,"rental_uris":{"android":"levelo://app?vid=034fdf6f-4f78-44c1-9981-8a8407a03a87","ios":"levelo://app?vid=034fdf6f-4f78-44c1-9981-8a8407a03a87"},"vehicle_type_id":"4","last_reported":1731942594,"current_range_meters":38800,"station_id":"ce4bha12rcd13ifvqef0","pricing_plan_id":"cebpf4jnsgd1na2vs0mg"},{"bike_id":"dea47267-ead3-4a38-8e51-2b910e9fa9dc","system_id":"levelo_inurba_marseille","lat":43.2648,"lon":5.39558,"is_reserved":false,"is_disabled":false,"rental_uris":{"android":"levelo://app?vid=dea47267-ead3-4a38-8e51-2b910e9fa9dc","ios":"levelo://app?vid=dea47267-ead3-4a38-8e51-2b910e9fa9dc"},"vehicle_type_id":"4","last_reported":1731942594,"current_range_meters":22000,"station_id":"ce4bhi12rcd13ifvqfq0","pricing_plan_id":"cebpf4jnsgd1na2vs0mg"},{"bike_id":"30623e0d-666e-459c-8ee2-dd2be51ba16a","system_id":"levelo_inurba_marseille","lat":43.27992,"lon":5.40021,"is_reserved":false,"is_disabled":false,"rental_uris":{"android":"levelo://app?vid=30623e0d-666e-459c-8ee2-dd2be51ba16a","ios":"levelo://app?vid=30623e0d-666e-459c-8ee2-dd2be51ba16a"},"vehicle_type_id":"4","last_reported":1731942594,"current_range_meters":28800,"station_id":"ce4bho92rcd13ifvqh4g","pricing_plan_id":"cebpf4jnsgd1na2vs0mg"},{"bike_id":"2c23006b-9ddb-466d-a1a9-568a7492296a","system_id":"levelo_inurba_marseille","lat":43.24388,"lon":5.37061,"is_reserved":false,"is_disabled":false,"rental_uris":{"android":"levelo://app?vid=2c23006b-9ddb-466d-a1a9-568a7492296a","ios":"levelo://app?vid=2c23006b-9ddb-466d-a1a9-568a7492296a"},"vehicle_type_id":"4","last_reported":1731942594,"current_range_meters":10000,"station_id":"ce4bhhh2rcd13ifvqfk0","pricing_plan_id":"cebpf4jnsgd1na2vs0mg"},{"bike_id":"72f62598-1a11-49af-8685-276b8b1b520f","system_id":"levelo_inurba_marseille","lat":43.3096,"lon":5.39048,"is_reserved":false,"is_disabled":false,"rental_uris":{"android":"levelo://app?vid=72f62598-1a11-49af-8685-276b8b1b520f","ios":"levelo://app?vid=72f62598-1a11-49af-8685-276b8b1b520f"},"vehicle_type_id":"4","last_reported":1731942594,"current_range_meters":30000,"station_id":"ce4bgup2rcd13ifvqco0","pricing_plan_id":"cebpf4jnsgd1na2vs0mg"},{"bike_id":"bd830d89-0dce-4c60-ac94-7dd332c9ce6b","system_id":"levelo_inurba_marseille","lat":43.2621,"lon":5.37448,"is_reserved":false,"is_disabled":false,"rental_uris":{"android":"levelo://app?vid=bd830d89-0dce-4c60-ac94-7dd332c9ce6b","ios":"levelo://app?vid=bd830d89-0dce-4c60-ac94-7dd332c9ce6b"},"vehicle_type_id":"4","last_reported":1731942594,"current_range_meters":19600,"station_id":"ce4bhb12rcd13ifvqel0","pricing_plan_id":"cebpf4jnsgd1na2vs0mg"},{"bike_id":"92ac4858-87d6-4ceb-8f6e-004635a816a8","system_id":"levelo_inurba_marseille","lat":43.27789,"lon":5.40729,"is_reserved":false,"is_disabled":false,"rental_uris":{"android":"levelo://app?vid=92ac4858-87d6-4ceb-8f6e-004635a816a8","ios":"levelo://app?vid=92ac4858-87d6-4ceb-8f6e-004635a816a8"},"vehicle_type_id":"4","last_reported":1731942594,"current_range_meters":22000,"station_id":"ce4bhnh2rcd13ifvqgtg","pricing_plan_id":"cebpf4jnsgd1na2vs0mg"},{"bike_id":"7eb7896a-ef31-4b53-8efc-be3f4f148de3","system_id":"levelo_inurba_marseille","lat":43.30631,"lon":5.4008,"is_reserved":false,"is_disabled":false,"rental_uris":{"android":"levelo://app?vid=7eb7896a-ef31-4b53-8efc-be3f4f148de3","ios":"levelo://app?vid=7eb7896a-ef31-4b53-8efc-be3f4f148de3"},"vehicle_type_id":"4","last_reported":1731942594,"current_range_meters":38800,"station_id":"ce4bh112rcd13ifvqda0","pricing_plan_id":"cebpf4jnsgd1na2vs0mg"},{"bike_id":"81172b09-1d2e-4132-88d9-7a7c14c6afe4","system_id":"levelo_inurba_marseille","lat":43.29514,"lon":5.39035,"is_reserved":false,"is_disabled":false,"rental_uris":{"android":"levelo://app?vid=81172b09-1d2e-4132-88d9-7a7c14c6afe4","ios":"levelo://app?vid=81172b09-1d2e-4132-88d9-7a7c14c6afe4"},"vehicle_type_id":"4","last_reported":1731942594,"current_range_meters":28400,"station_id":"ce4bh3p2rcd13ifvqdp0","pricing_plan_id":"cebpf4jnsgd1na2vs0mg"},{"bike_id":"9f96840b-a50e-4a44-b234-fb428b9d6bd5","system_id":"levelo_inurba_marseille","lat":43.24171,"lon":5.39731,"is_reserved":false,"is_disabled":false,"rental_uris":{"android":"levelo://app?vid=9f96840b-a50e-4a44-b234-fb428b9d6bd5","ios":"levelo://app?vid=9f96840b-a50e-4a44-b234-fb428b9d6bd5"},"vehicle_type_id":"4","last_reported":1731942594,"current_range_meters":38800,"station_id":"ce4bhn12rcd13ifvqgpg","pricing_plan_id":"cebpf4jnsgd1na2vs0mg"},{"bike_id":"851554df-e4f2-4dbd-b86c-4a9ce3beada6","system_id":"levelo_inurba_marseille","lat":43.337444,"lon":5.374475,"is_reserved":false,"is_disabled":false,"rental_uris":{"android":"levelo://app?vid=851554df-e4f2-4dbd-b86c-4a9ce3beada6","ios":"levelo://app?vid=851554df-e4f2-4dbd-b86c-4a9ce3beada6"},"vehicle_type_id":"4","last_reported":1731942594,"current_range_meters":20800,"station_id":"ce4bhdp2rcd13ifvqf20","pricing_plan_id":"cebpf4jnsgd1na2vs0mg"},{"bike_id":"9b3d4254-d25b-49f9-8bdd-e90ba7636d51","system_id":"levelo_inurba_marseille","lat":43.29844,"lon":5.36279,"is_reserved":false,"is_disabled":false,"rental_uris":{"android":"levelo://app?vid=9b3d4254-d25b-49f9-8bdd-e90ba7636d51","ios":"levelo://app?vid=9b3d4254-d25b-49f9-8bdd-e90ba7636d51"},"vehicle_type_id":"4","last_reported":1731942594,"current_range_meters":19200,"station_id":"ce4bgpp2rcd13ifvqc3g","pricing_plan_id":"cebpf4jnsgd1na2vs0mg"},{"bike_id":"7465bc4b-7341-47ef-959d-45c0a1d37e4c","system_id":"levelo_inurba_marseille","lat":43.24084,"lon":5.37742,"is_reserved":false,"is_disabled":false,"rental_uris":{"android":"levelo://app?vid=7465bc4b-7341-47ef-959d-45c0a1d37e4c","ios":"levelo://app?vid=7465bc4b-7341-47ef-959d-45c0a1d37e4c"},"vehicle_type_id":"4","last_reported":1731942594,"current_range_meters":24400,"station_id":"ce4bhnp2rcd13ifvqgvg","pricing_plan_id":"cebpf4jnsgd1na2vs0mg"},{"bike_id":"7a3f9c6f-68a8-40b1-9059-11a5f928907d","system_id":"levelo_inurba_marseille","lat":43.30973,"lon":5.3906,"is_reserved":false,"is_disabled":false,"rental_uris":{"android":"levelo://app?vid=7a3f9c6f-68a8-40b1-9059-11a5f928907d","ios":"levelo://app?vid=7a3f9c6f-68a8-40b1-9059-11a5f928907d"},"vehicle_type_id":"4","last_reported":1731942594,"current_range_meters":20400,"station_id":"ce4bgup2rcd13ifvqco0","pricing_plan_id":"cebpf4jnsgd1na2vs0mg"},{"bike_id":"14ba6d6d-1a42-4554-bbec-02c6b7c75f58","system_id":"levelo_inurba_marseille","lat":43.24549,"lon":5.39519,"is_reserved":false,"is_disabled":false,"rental_uris":{"android":"levelo://app?vid=14ba6d6d-1a42-4554-bbec-02c6b7c75f58","ios":"levelo://app?vid=14ba6d6d-1a42-4554-bbec-02c6b7c75f58"},"vehicle_type_id":"4","last_reported":1731942594,"current_range_meters":8400,"station_id":"ce4bhlp2rcd13ifvqgjg","pricing_plan_id":"cebpf4jnsgd1na2vs0mg"},{"bike_id":"789a67a8-1f0e-4396-a1d9-6ddffd0dcc14","system_id":"levelo_inurba_marseille","lat":43.27416,"lon":5.39408,"is_reserved":false,"is_disabled":false,"rental_uris":{"android":"levelo://app?vid=789a67a8-1f0e-4396-a1d9-6ddffd0dcc14","ios":"levelo://app?vid=789a67a8-1f0e-4396-a1d9-6ddffd0dcc14"},"vehicle_type_id":"4","last_reported":1731942594,"current_range_meters":18000,"station_id":"ce4bhdp2rcd13ifvqf20","pricing_plan_id":"cebpf4jnsgd1na2vs0mg"},{"bike_id":"c0c4f497-2339-42b5-9c47-a7f018a18c61","system_id":"levelo_inurba_marseille","lat":43.29532,"lon":5.38546,"is_reserved":false,"is_disabled":false,"rental_uris":{"android":"levelo://app?vid=c0c4f497-2339-42b5-9c47-a7f018a18c61","ios":"levelo://app?vid=c0c4f497-2339-42b5-9c47-a7f018a18c61"},"vehicle_type_id":"4","last_reported":1731942594,"current_range_meters":25200,"station_id":"ce4bgih2rcd13ifvqba0","pricing_plan_id":"cebpf4jnsgd1na2vs0mg"},{"bike_id":"351e5071-6979-4fa9-8ce9-6ff0af5ec824","system_id":"levelo_inurba_marseille","lat":43.33021,"lon":5.39044,"is_reserved":false,"is_disabled":false,"rental_uris":{"android":"levelo://app?vid=351e5071-6979-4fa9-8ce9-6ff0af5ec824","ios":"levelo://app?vid=351e5071-6979-4fa9-8ce9-6ff0af5ec824"},"vehicle_type_id":"4","last_reported":1731942594,"current_range_meters":33600,"station_id":"ce4bhr92rcd13ifvqhrg","pricing_plan_id":"cebpf4jnsgd1na2vs0mg"},