{"last_updated":1701536742,"ttl":30,"version":"2.2","data":{"bikes":[{"bike_id":"86230556-d574-49e5-bbd1-99130cf824ac","system_id":"levelo_inurba_marseille","lat":43.312239,"lon":5.368562,"is_reserved":false,"is_disabled":false,"rental_uris":{"android":"levelo://app?vid=86230556-d574-49e5-bbd1-99130cf824ac","ios":"levelo://app?vid=86230556-d574-49e5-bbd1-99130cf824ac"},"vehicle_type_id":"4","last_reported":1701536742,"current_range_meters":18400,"station_id":"ce4bgl92rcd13ifvqbq0","pricing_plan_id":"free"},{"bike_id":"ab1a45bc-5c86-4dc9-86c5-b3cdd9eb5b1a","system_id":"levelo_inurba_marseille","lat":43.31535,"lon":5.37012,"is_reserved":false,"is_disabled":false,"rental_uris":{"android":"levelo://app?vid=ab1a45bc-5c86-4dc9-86c5-b3cdd9eb5b1a","ios":"levelo://app?vid=ab1a45bc-5c86-4dc9-86c5-b3cdd9eb5b1a"},"vehicle_type_id":"4","last_reported":1701536742,"current_range_meters":0,"station_id":"","pricing_plan_id":"free"},{"bike_id":"cb12f4b8-270a-4354-8cd4-c5bda755e939","system_id":"levelo_inurba_marseille","lat":43.309076,"lon":5.368465,"is_reserved":false,"is_disabled":false,"rental_uris":{"android":"levelo://app?vid=cb12f4b8-270a-4354-8cd4-c5bda755e939","ios":"levelo://app?vid=cb12f4b8-270a-4354-8cd4-c5bda755e939"},"vehicle_type_id":"4","last_reported":1701536742,"current_range_meters":9200,"station_id":"ce4bgn92rcd13ifvqbvg","pricing_plan_id":"free"},{"bike_id":"1af889a2-7512-4716-bfac-0e5c3103097c","system_id":"levelo_inurba_marseille","lat":43.314811,"lon":5.373104,"is_reserved":false,"is_disabled":false,"rental_uris":{"android":"levelo://app?vid=1af889a2-7512-4716-bfac-0e5c3103097c","ios":"levelo://app?vid=1af889a2-7512-4716-bfac-0e5c3103097c"},"vehicle_type_id":"4","last_reported":1701536742,"current_range_meters":30000,"station_id":"ce4bgt12rcd13ifvqcd0","pricing_plan_id":"free"},{"bike_id":"65df9b6a-2b19-4085-bfed-4c9be22bc4df","system_id":"levelo_inurba_marseille","lat":43.30543,"lon":5.365505,"is_reserved":false,"is_disabled":false,"rental_uris":{"android":"levelo://app?vid=65df9b6a-2b19-4085-bfed-4c9be22bc4df","ios":"levelo://app?vid=65df9b6a-2b19-4085-bfed-4c9be22bc4df"},"vehicle_type_id":"4","last_reported":1701536742,"current_range_meters":0,"station_id":"ce4bgs12rcd13ifvqcag","pricing_plan_id":"free"},{"bike_id":"b97c65d1-66da-4e2d-8e72-50523eb9c6f6","system_id":"levelo_inurba_marseille","lat":43.305424,"lon":5.365546,"is_reserved":false,"is_disabled":false,"rental_uris":{"android":"levelo://app?vid=b97c65d1-66da-4e2d-8e72-50523eb9c6f6","ios":"levelo://app?vid=b97c65d1-66da-4e2d-8e72-50523eb9c6f6"},"vehicle_type_id":"4","last_reported":1701536742,"current_range_meters":0,"station_id":"ce4bgs12rcd13ifvqcag","pricing_plan_id":"free"},{"bike_id":"cfd3bb51-5657-4943-be4a-4ca2f802bb01","system_id":"levelo_inurba_marseille","lat":43.308162,"lon":5.376605,"is_reserved":false,"is_disabled":false,"rental_uris":{"android":"levelo://app?vid=cfd3bb51-5657-4943-be4a-4ca2f802bb01","ios":"levelo://app?vid=cfd3bb51-5657-4943-be4a-4ca2f802bb01"},"vehicle_type_id":"4","last_reported":1701536742,"current_range_meters":10000,"station_id":"ce4bgv92rcd13ifvqcq0","pricing_plan_id":"free"},{"bike_id":"f427a2c3-6e4a-446b-ae2f-9be8aa7f4122","system_id":"levelo_inurba_marseille","lat":43.31719,"lon":5.376813,"is_reserved":false,"is_disabled":false,"rental_uris":{"android":"levelo://app?vid=f427a2c3-6e4a-446b-ae2f-9be8aa7f4122","ios":"levelo://app?vid=f427a2c3-6e4a-446b-ae2f-9be8aa7f4122"},"vehicle_type_id":"4","last_reported":1701536742,"current_range_meters":0,"station_id":"","pricing_plan_id":"free"},{"bike_id":"e913f328-1e31-4c22-bd87-f809ea246de4","system_id":"levelo_inurba_marseille","lat":43.317168,"lon":5.376883,"is_reserved":false,"is_disabled":false,"rental_uris":{"android":"levelo://app?vid=e913f328-1e31-4c22-bd87-f809ea246de4","ios":"levelo://app?vid=e913f328-1e31-4c22-bd87-f809ea246de4"},"vehicle_type_id":"4","last_reported":1701536742,"current_range_meters":0,"station_id":"","pricing_plan_id":"free"},{"bike_id":"39a0a4dd-7815-42b2-8c52-ad823031fe2a","system_id":"levelo_inurba_marseille","lat":43.307945,"lon":5.376487,"is_reserved":false,"is_disabled":false,"rental_uris":{"android":"levelo://app?vid=39a0a4dd-7815-42b2-8c52-ad823031fe2a","ios":"levelo://app?vid=39a0a4dd-7815-42b2-8c52-ad823031fe2a"},"vehicle_type_id":"4","last_reported":1701536742,"current_range_meters":9600,"station_id":"ce4bgv92rcd13ifvqcq0","pricing_plan_id":"free"},{"bike_id":"fb6fd937-527b-4585-9058-0dfdc6436ac8","system_id":"levelo_inurba_marseille","lat":43.31351,"lon":5.37909,"is_reserved":false,"is_disabled":false,"rental_uris":{"android":"levelo://app?vid=fb6fd937-527b-4585-9058-0dfdc6436ac8","ios":"levelo://app?vid=fb6fd937-527b-4585-9058-0dfdc6436ac8"},"vehicle_type_id":"4","last_reported":1701536742,"current_range_meters":21200,"station_id":"","pricing_plan_id":"free"},{"bike_id":"9e69d542-96f9-4893-ae1a-d13d97fb2616","system_id":"levelo_inurba_marseille","lat":43.301939,"lon":5.366286,"is_reserved":false,"is_disabled":false,"rental_uris":{"android":"levelo://app?vid=9e69d542-96f9-4893-ae1a-d13d97fb2616","ios":"levelo://app?vid=9e69d542-96f9-4893-ae1a-d13d97fb2616"},"vehicle_type_id":"4","last_reported":1701536742,"current_range_meters":8400,"station_id":"ce4bgrh2rcd13ifvqc8g","pricing_plan_id":"free"},{"bike_id":"ce669172-a6fc-4371-ad3d-f3dc9c207572","system_id":"levelo_inurba_marseille","lat":43.301939,"lon":5.366286,"is_reserved":false,"is_disabled":false,"rental_uris":{"android":"levelo://app?vid=ce669172-a6fc-4371-ad3d-f3dc9c207572","ios":"levelo://app?vid=ce669172-a6fc-4371-ad3d-f3dc9c207572"},"vehicle_type_id":"4","last_reported":1701536742,"current_range_meters":24400,"station_id":"ce4bgrh2rcd13ifvqc8g","pricing_plan_id":"free"},{"bike_id":"1c2d9ee4-8784-4b29-b7c6-88b68bec751f","system_id":"levelo_inurba_marseille","lat":43.31019,"lon":5.38163,"is_reserved":false,"is_disabled":false,"rental_uris":{"android":"levelo://app?vid=1c2d9ee4-8784-4b29-b7c6-88b68bec751f","ios":"levelo://app?vid=1c2d9ee4-8784-4b29-b7c6-88b68bec751f"},"vehicle_type_id":"4","last_reported":1701536742,"current_range_meters":28000,"station_id":"","pricing_plan_id":"free"},{"bike_id":"8c6725c5-5ff6-4a6a-9768-66e32939cf43","system_id":"levelo_inurba_marseille","lat":43.32482,"lon":5.36569,"is_reserved":false,"is_disabled":false,"rental_uris":{"android":"levelo://app?vid=8c6725c5-5ff6-4a6a-9768-66e32939cf43","ios":"levelo://app?vid=8c6725c5-5ff6-4a6a-9768-66e32939cf43"},"vehicle_type_id":"4","last_reported":1701536742,"current_range_meters":26000,"station_id":"ce4bhs12rcd13ifvqhvg","pricing_plan_id":"free"},{"bike_id":"e56c4c03-d6ac-416d-8380-bbaf7fb49559","system_id":"levelo_inurba_marseille","lat":43.324835,"lon":5.365555,"is_reserved":false,"is_disabled":false,"rental_uris":{"android":"levelo://app?vid=e56c4c03-d6ac-416d-8380-bbaf7fb49559","ios":"levelo://app?vid=e56c4c03-d6ac-416d-8380-bbaf7fb49559"},"vehicle_type_id":"4","last_reported":1701536742,"current_range_meters":1600,"station_id":"ce4bhs12rcd13ifvqhvg","pricing_plan_id":"free"},{"bike_id":"bc8eac31-4b5b-48b3-aa99-5c3fdd18d82e","system_id":"levelo_inurba_marseille","lat":43.324872,"lon":5.365649,"is_reserved":false,"is_disabled":false,"rental_uris":{"android":"levelo://app?vid=bc8eac31-4b5b-48b3-aa99-5c3fdd18d82e","ios":"levelo://app?vid=bc8eac31-4b5b-48b3-aa99-5c3fdd18d82e"},"vehicle_type_id":"4","last_reported":1701536742,"current_range_meters":18000,"station_id":"ce4bhs12rcd13ifvqhvg","pricing_plan_id":"free"},{"bike_id":"2275aca5-3158-4c2c-8022-ca5d2714bc86","system_id":"levelo_inurba_marseille","lat":43.319997,"lon":5.381594,"is_reserved":false,"is_disabled":false,"rental_uris":{"android":"levelo://app?vid=2275aca5-3158-4c2c-8022-ca5d2714bc86","ios":"levelo://app?vid=2275aca5-3158-4c2c-8022-ca5d2714bc86"},"vehicle_type_id":"4","last_reported":1701536742,"current_range_meters":14800,"station_id":"ce4bhr12rcd13ifvqhpg","pricing_plan_id":"free"},{"bike_id":"7f15fa98-4fd6-4e24-9803-c2d688f4a999","system_id":"levelo_inurba_marseille","lat":43.299724,"lon":5.371829,"is_reserved":false,"is_disabled":false,"rental_uris":{"android":"levelo://app?vid=7f15fa98-4fd6-4e24-9803-c2d688f4a999","ios":"levelo://app?vid=7f15fa98-4fd6-4e24-9803-c2d688f4a999"},"vehicle_type_id":"4","last_reported":1701536742,"current_range_meters":27200,"station_id":"ce4bgr92rcd13ifvqc7g","pricing_plan_id":"free"},{"bike_id":"9fdb7f97-586d-42d2-befd-15216ba2e422","system_id":"levelo_inurba_marseille","lat":43.31183,"lon":5.38523,"is_reserved":false,"is_disabled":false,"rental_uris":{"android":"levelo://app?vid=9fdb7f97-586d-42d2-befd-15216ba2e422","ios":"levelo://app?vid=9fdb7f97-586d-42d2-befd-15216ba2e422"},"vehicle_type_id":"4","last_reported":1701536742,"current_range_meters":800,"station_id":"","pricing_plan_id":"free"},{"bike_id":"748d12ab-8e09-4ecd-b2d2-cbe0ea9624f6","system_id":"levelo_inurba_marseille","lat":43.298943,"lon":5.367383,"is_reserved":false,"is_disabled":false,"rental_uris":{"android":"levelo://app?vid=748d12ab-8e09-4ecd-b2d2-cbe0ea9624f6","ios":"levelo://app?vid=748d12ab-8e09-4ecd-b2d2-cbe0ea9624f6"},"vehicle_type_id":"4","last_reported":1701536742,"current_range_meters":5600,"station_id":"","pricing_plan_id":"free"},{"bike_id":"d4bc959c-3f22-44c7-ad3b-671b5895dc95","system_id":"levelo_inurba_marseille","lat":43.298433,"lon":5.362774,"is_reserved":false,"is_disabled":false,"rental_uris":{"android":"levelo://app?vid=d4bc959c-3f22-44c7-ad3b-671b5895dc95","ios":"levelo://app?vid=d4bc959c-3f22-44c7-ad3b-671b5895dc95"},"vehicle_type_id":"4","last_reported":1701536742,"current_range_meters":31200,"station_id":"ce4bgpp2rcd13ifvqc3g","pricing_plan_id":"free"},{"bike_id":"afeab52e-b50d-43da-af4b-882e54b22f6f","system_id":"levelo_inurba_marseille","lat":43.298433,"lon":5.362774,"is_reserved":false,"is_disabled":false,"rental_uris":{"android":"levelo://app?vid=afeab52e-b50d-43da-af4b-882e54b22f6f","ios":"levelo://app?vid=afeab52e-b50d-43da-af4b-882e54b22f6f"},"vehicle_type_id":"4","last_reported":1701536742,"current_range_meters":29200,"station_id":"ce4bgpp2rcd13ifvqc3g","pricing_plan_id":"free"},{"bike_id":"fd1f1229-18d8-4493-a2bd-dd724cf4d50b","system_id":"levelo_inurba_marseille","lat":43.298433,"lon":5.362774,"is_reserved":false,"is_disabled":false,"rental_uris":{"android":"levelo://app?vid=fd1f1229-18d8-4493-a2bd-dd724cf4d50b","ios":"levelo://app?vid=fd1f1229-18d8-4493-a2bd-dd724cf4d50b"},"vehicle_type_id":"4","last_reported":1701536742,"current_range_meters":16400,"station_id":"ce4bgpp2rcd13ifvqc3g","pricing_plan_id":"free"},{"bike_id":"b6bdb944-db60-4c51-a6aa-73b32e993db1","system_id":"levelo_inurba_marseille","lat":43.297794,"lon":5.370888,"is_reserved":false,"is_disabled":false,"rental_uris":{"android":"levelo://app?vid=b6bdb944-db60-4c51-a6aa-73b32e993db1","ios":"levelo://app?vid=b6bdb944-db60-4c51-a6aa-73b32e993db1"},"vehicle_type_id":"4","last_reported":1701536742,"current_range_meters":31200,"station_id":"ce4bgop2rcd13ifvqc1g","pricing_plan_id":"free"},{"bike_id":"8d7cbc3a-dc89-4ffe-af66-a05dd6e38785","system_id":"levelo_inurba_marseille","lat":43.322872,"lon":5.382756,"is_reserved":false,"is_disabled":false,"rental_uris":{"android":"levelo://app?vid=8d7cbc3a-dc89-4ffe-af66-a05dd6e38785","ios":"levelo://app?vid=8d7cbc3a-dc89-4ffe-af66-a05dd6e38785"},"vehicle_type_id":"4","last_reported":1701536742,"current_range_meters":30400,"station_id":"ce4bhr12rcd13ifvqhqg","pricing_plan_id":"free"},{"bike_id":"c0284961-478e-4ccd-b43e-321d6e4c5580","system_id":"levelo_inurba_marseille","lat":43.32829,"lon":5.36683,"is_reserved":false,"is_disabled":false,"rental_uris":{"android":"levelo://app?vid=c0284961-478e-4ccd-b43e-321d6e4c5580","ios":"levelo://app?vid=c0284961-478e-4ccd-b43e-321d6e4c5580"},"vehicle_type_id":"4","last_reported":1701536742,"current_range_meters":2400,"station_id":"ce4bhs92rcd13ifvqi0g","pricing_plan_id":"free"},{"bike_id":"3c6eacad-63e8-42f7-9988-09cf64b64dd8","system_id":"levelo_inurba_marseille","lat":43.32831,"lon":5.36677,"is_reserved":false,"is_disabled":false,"rental_uris":{"android":"levelo://app?vid=3c6eacad-63e8-42f7-9988-09cf64b64dd8","ios":"levelo://app?vid=3c6eacad-63e8-42f7-9988-09cf64b64dd8"},"vehicle_type_id":"4","last_reported":1701536742,"current_range_meters":7200,"station_id":"ce4bhs92rcd13ifvqi0g","pricing_plan_id":"free"},{"bike_id":"5c26bdfb-7b7c-43fb-8a01-250128a1a6f8","system_id":"levelo_inurba_marseille","lat":43.32834,"lon":5.36685,"is_reserved":false,"is_disabled":false,"rental_uris":{"android":"levelo://app?vid=5c26bdfb-7b7c-43fb-8a01-250128a1a6f8","ios":"levelo://app?vid=5c26bdfb-7b7c-43fb-8a01-250128a1a6f8"},"vehicle_type_id":"4","last_reported":1701536742,"current_range_meters":20800,"station_id":"ce4bhs92rcd13ifvqi0g","pricing_plan_id":"free"},{"bike_id":"791a00e9-d29d-4a4a-a9a6-509469a34db5","system_id":"levelo_inurba_marseille","lat":43.297163,"lon":5.365866,"is_reserved":false,"is_disabled":false,"rental_uris":{"android":"levelo://app?vid=791a00e9-d29d-4a4a-a9a6-509469a34db5","ios":"levelo://app?vid=791a00e9-d29d-4a4a-a9a6-509469a34db5"},"vehicle_type_id":"4","last_reported":1701536742,"current_range_meters":17600,"station_id":"ce4bgn12rcd13ifvqbt0","pricing_plan_id":"free"},{"bike_id":"863e68e6-f678-4404-9035-1f0c001016cb","system_id":"levelo_inurba_marseille","lat":43.32835,"lon":5.36691,"is_reserved":false,"is_disabled":false,"rental_uris":{"android":"levelo://app?vid=863e68e6-f678-4404-9035-1f0c001016cb","ios":"levelo://app?vid=863e68e6-f678-4404-9035-1f0c001016cb"},"vehicle_type_id":"4","last_reported":1701536742,"current_range_meters":18800,"station_id":"ce4bhs92rcd13ifvqi0g","pricing_plan_id":"free"},{"bike_id":"09da9c9d-034a-473c-8a19-0301f9290c30","system_id":"levelo_inurba_marseille","lat":43.297163,"lon":5.365866,"is_reserved":false,"is_disabled":false,"rental_uris":{"android":"levelo://app?vid=09da9c9d-034a-473c-8a19-0301f9290c30","ios":"levelo://app?vid=09da9c9d-034a-473c-8a19-0301f9290c30"},"vehicle_type_id":"4","last_reported":1701536742,"current_range_meters":7200,"station_id":"ce4bgn12rcd13ifvqbt0","pricing_plan_id":"free"},{"bike_id":"c334d9db-4e56-462d-a913-efb82062da06","system_id":"levelo_inurba_marseille","lat":43.296131,"lon":5.370791,"is_reserved":false,"is_disabled":false,"rental_uris":{"android":"levelo://app?vid=c334d9db-4e56-462d-a913-efb82062da06","ios":"levelo://app?vid=c334d9db-4e56-462d-a913-efb82062da06"},"vehicle_type_id":"4","last_reported":1701536742,"current_range_meters":0,"station_id":"ce4bgnh2rcd13ifvqc0g","pricing_plan_id":"free"},{"bike_id":"eaa0e7e7-2390-47fa-909b-7b240952cbef","system_id":"levelo_inurba_marseille","lat":43.316532,"lon":5.389585,"is_reserved":false,"is_disabled":false,"rental_uris":{"android":"levelo://app?vid=eaa0e7e7-2390-47fa-909b-7b240952cbef","ios":"levelo://app?vid=eaa0e7e7-2390-47fa-909b-7b240952cbef"},"vehicle_type_id":"4","last_reported":1701536742,"current_range_meters":16400,"station_id":"","pricing_plan_id":"free"},{"bike_id":"411f3ab2-cc28-47e9-8638-ac26e6f2f147","system_id":"levelo_inurba_marseille","lat":43.296935,"lon":5.376544,"is_reserved":false,"is_disabled":false,"rental_uris":{"android":"levelo://app?vid=411f3ab2-cc28-47e9-8638-ac26e6f2f147","ios":"levelo://app?vid=411f3ab2-cc28-47e9-8638-ac26e6f2f147"},"vehicle_type_id":"4","last_reported":1701536742,"current_range_meters":25200,"station_id":"ce4bgkh2rcd13ifvqbl0","pricing_plan_id":"free"},{"bike_id":"8de24b39-4a28-4cf9-9fd5-bf97cdfe7575","system_id":"levelo_inurba_marseille","lat":43.296921,"lon":5.376579,"is_reserved":false,"is_disabled":false,"rental_uris":{"android":"levelo://app?vid=8de24b39-4a28-4cf9-9fd5-bf97cdfe7575","ios":"levelo://app?vid=8de24b39-4a28-4cf9-9fd5-bf97cdfe7575"},"vehicle_type_id":"4","last_reported":1701536742,"current_range_meters":16400,"station_id":"ce4bgkh2rcd13ifvqbl0","pricing_plan_id":"free"},{"bike_id":"0f552c72-e99e-4dae-b4e9-9f2076ab0458","system_id":"levelo_inurba_marseille","lat":43.309589,"lon":5.390258,"is_reserved":false,"is_disabled":false,"rental_uris":{"android":"levelo://app?vid=0f552c72-e99e-4dae-b4e9-9f2076ab0458","ios":"levelo://app?vid=0f552c72-e99e-4dae-b4e9-9f2076ab0458"},"vehicle_type_id":"4","last_reported":1701536742,"current_range_meters":18000,"station_id":"ce4bgup2rcd13ifvqco0","pricing_plan_id":"free"},{"bike_id":"33037d58-c279-4eed-ad18-ffc395ead96f","system_id":"levelo_inurba_marseille","lat":43.309589,"lon":5.390258,"is_reserved":false,"is_disabled":false,"rental_uris":{"android":"levelo://app?vid=33037d58-c279-4eed-ad18-ffc395ead96f","ios":"levelo://app?vid=33037d58-c279-4eed-ad18-ffc395ead96f"},"vehicle_type_id":"4","last_reported":1701536742,"current_range_meters":18800,"station_id":"ce4bgup2rcd13ifvqco0","pricing_plan_id":"free"},{"bike_id":"9852a39e-a48f-4892-a754-cf53c8e681db","system_id":"levelo_inurba_marseille","lat":43.317557,"lon":5.390173,"is_reserved":false,"is_disabled":false,"rental_uris":{"android":"levelo://app?vid=9852a39e-a48f-4892-a754-cf53c8e681db","ios":"levelo://app?vid=9852a39e-a48f-4892-a754-cf53c8e681db"},"vehicle_type_id":"4","last_reported":1701536742,"current_range_meters":25600,"station_id":"ce4bhqp2rcd13ifvqhng","pricing_plan_id":"free"},{"bike_id":"db07029f-77da-430a-b958-bdfc4c4cb5f0","system_id":"levelo_inurba_marseille","lat":43.298037,"lon":5.381066,"is_reserved":false,"is_disabled":false,"rental_uris":{"android":"levelo://app?vid=db07029f-77da-430a-b958-bdfc4c4cb5f0","ios":"levelo://app?vid=db07029f-77da-430a-b958-bdfc4c4cb5f0"},"vehicle_type_id":"4","last_reported":1701536742,"current_range_meters":27600,"station_id":"ce4bgip2rcd13ifvqbb0","pricing_plan_id":"free"},{"bike_id":"2156124f-bef2-473b-801a-18fdb966c44b","system_id":"levelo_inurba_marseille","lat":43.295279,"lon":5.375048,"is_reserved":false,"is_disabled":false,"rental_uris":{"android":"levelo://app?vid=2156124f-bef2-473b-801a-18fdb966c44b","ios":"levelo://app?vid=2156124f-bef2-473b-801a-18fdb966c44b"},"vehicle_type_id":"4","last_reported":1701536742,"current_range_meters":12800,"station_id":"ce4bgkp2rcd13ifvqbmg","pricing_plan_id":"free"},{"bike_id":"a534380e-82e1-4eff-afa3-6ae039e7d361","system_id":"levelo_inurba_marseille","lat":43.29273,"lon":5.36842,"is_reserved":false,"is_disabled":false,"rental_uris":{"android":"levelo://app?vid=a534380e-82e1-4eff-afa3-6ae039e7d361","ios":"levelo://app?vid=a534380e-82e1-4eff-afa3-6ae039e7d361"},"vehicle_type_id":"4","last_reported":1701536742,"current_range_meters":0,"station_id":"ce4bhbp2rcd13ifvqesg","pricing_plan_id":"free"},{"bike_id":"e1bdea2a-1eb6-4663-a0fa-aa8480c66340","system_id":"levelo_inurba_marseille","lat":43.29302,"lon":5.37189,"is_reserved":false,"is_disabled":false,"rental_uris":{"android":"levelo://app?vid=e1bdea2a-1eb6-4663-a0fa-aa8480c66340","ios":"levelo://app?vid=e1bdea2a-1eb6-4663-a0fa-aa8480c66340"},"vehicle_type_id":"4","last_reported":1701536742,"current_range_meters":0,"station_id":"ce4bgh92rcd13ifvqb40","pricing_plan_id":"free"},{"bike_id":"e06a9be0-7cb6-4e3b-8d0b-88a3757b7e94","system_id":"levelo_inurba_marseille","lat":43.305994,"lon":5.393687,"is_reserved":false,"is_disabled":false,"rental_uris":{"android":"levelo://app?vid=e06a9be0-7cb6-4e3b-8d0b-88a3757b7e94","ios":"levelo://app?vid=e06a9be0-7cb6-4e3b-8d0b-88a3757b7e94"},"vehicle_type_id":"4","last_reported":1701536742,"current_range_meters":2000,"station_id":"ce4bh0p2rcd13ifvqd80","pricing_plan_id":"free"},{"bike_id":"17e21bbb-a6d4-4b57-8dc0-f1637e67eb05","system_id":"levelo_inurba_marseille","lat":43.305994,"lon":5.393687,"is_reserved":false,"is_disabled":false,"rental_uris":{"android":"levelo://app?vid=17e21bbb-a6d4-4b57-8dc0-f1637e67eb05","ios":"levelo://app?vid=17e21bbb-a6d4-4b57-8dc0-f1637e67eb05"},"vehicle_type_id":"4","last_reported":1701536742,"current_range_meters":25200,"station_id":"ce4bh0p2rcd13ifvqd80","pricing_plan_id":"free"},{"bike_id":"5921e05e-fcfd-4f2e-9f5c-b3ce0bee0939","system_id":"levelo_inurba_marseille","lat":43.303002,"lon":5.392142,"is_reserved":false,"is_disabled":false,"rental_uris":{"android":"levelo://app?vid=5921e05e-fcfd-4f2e-9f5c-b3ce0bee0939","ios":"levelo://app?vid=5921e05e-fcfd-4f2e-9f5c-b3ce0bee0939"},"vehicle_type_id":"4","last_reported":1701536742,"current_range_meters":2400,"station_id":"ce4bgkh2rcd13ifvqbk0","pricing_plan_id":"free"},{"bike_id":"1a8f944e-362a-48a1-a380-bf65d4b52d9d","system_id":"levelo_inurba_marseille","lat":43.303002,"lon":5.392142,"is_reserved":false,"is_disabled":false,"rental_uris":{"android":"levelo://app?vid=1a8f944e-362a-48a1-a380-bf65d4b52d9d","ios":"levelo://app?vid=1a8f944e-362a-48a1-a380-bf65d4b52d9d"},"vehicle_type_id":"4","last_reported":1701536742,"current_range_meters":29600,"station_id":"ce4bgkh2rcd13ifvqbk0","pricing_plan_id":"free"},{"bike_id":"0b746535-2099-432d-9d29-17e8194941c4","system_id":"levelo_inurba_marseille","lat":43.2936,"lon":5.37835,"is_reserved":false,"is_disabled":false,"rental_uris":{"android":"levelo://app?vid=0b746535-2099-432d-9d29-17e8194941c4","ios":"levelo://app?vid=0b746535-2099-432d-9d29-17e8194941c4"},"vehicle_type_id":"4","last_reported":1701536742,"current_range_meters":9600,"station_id":"ce4bgjh2rcd13ifvqbf0","pricing_plan_id":"free"},{"bike_id":"fd0b2deb-1e69-4cca-95e9-365d71c6356c","system_id":"levelo_inurba_marseille","lat":43.29869,"lon":5.38901,"is_reserved":false,"is_disabled":false,"rental_uris":{"android":"levelo://app?vid=fd0b2deb-1e69-4cca-95e9-365d71c6356c","ios":"levelo://app?vid=fd0b2deb-1e69-4cca-95e9-365d71c6356c"},"vehicle_type_id":"4","last_reported":1701536742,"current_range_meters":26800,"station_id":"ce4bh392rcd13ifvqdl0","pricing_plan_id":"free"},{"bike_id":"1480c094-176e-4c94-bf32-425943209478","system_id":"levelo_inurba_marseille","lat":43.298733,"lon":5.389103,"is_reserved":false,"is_disabled":false,"rental_uris":{"android":"levelo://app?vid=1480c094-176e-4c94-bf32-425943209478","ios":"levelo://app?vid=1480c094-176e-4c94-bf32-425943209478"},"vehicle_type_id":"4","last_reported":1701536742,"current_range_meters":31200,"station_id":"ce4bh392rcd13ifvqdl0","pricing_plan_id":"free"},{"bike_id":"765207d2-55fe-4c6f-978b-26d997139380","system_id":"levelo_inurba_marseille","lat":43.291994,"lon":5.357886,"is_reserved":false,"is_disabled":false,"rental_uris":{"android":"levelo://app?vid=765207d2-55fe-4c6f-978b-26d997139380","ios":"levelo://app?vid=765207d2-55fe-4c6f-978b-26d997139380"},"vehicle_type_id":"4","last_reported":1701536742,"current_range_meters":23200,"station_id":"ce4bhb12rcd13ifvqel0","pricing_plan_id":"free"},{"bike_id":"3fa46ff4-b17b-43b1-b201-677c640bcd89","system_id":"levelo_inurba_marseille","lat":43.29529,"lon":5.385581,"is_reserved":false,"is_disabled":false,"rental_uris":{"android":"levelo://app?vid=3fa46ff4-b17b-43b1-b201-677c640bcd89","ios":"levelo://app?vid=3fa46ff4-b17b-43b1-b201-677c640bcd89"},"vehicle_type_id":"4","last_reported":1701536742,"current_range_meters":6000,"station_id":"ce4bgih2rcd13ifvqba0","pricing_plan_id":"free"},{"bike_id":"a9acc292-c093-4ced-a2c1-b92abe28e014","system_id":"levelo_inurba_marseille","lat":43.290779,"lon":5.371482,"is_reserved":false,"is_disabled":false,"rental_uris":{"android":"levelo://app?vid=a9acc292-c093-4ced-a2c1-b92abe28e014","ios":"levelo://app?vid=a9acc292-c093-4ced-a2c1-b92abe28e014"},"vehicle_type_id":"4","last_reported":1701536742,"current_range_meters":28000,"station_id":"ce4bh5p2rcd13ifvqe4g","pricing_plan_id":"free"},{"bike_id":"c9bd755f-07fb-4e1b-9991-4d74504fe606","system_id":"levelo_inurba_marseille","lat":43.302008,"lon":5.394694,"is_reserved":false,"is_disabled":false,"rental_uris":{"android":"levelo://app?vid=c9bd755f-07fb-4e1b-9991-4d74504fe606","ios":"levelo://app?vid=c9bd755f-07fb-4e1b-9991-4d74504fe606"},"vehicle_type_id":"4","last_reported":1701536742,"current_range_meters":6400,"station_id":"ce4bh0p2rcd13ifvqd70","pricing_plan_id":"free"},{"bike_id":"3f0a94c6-7c93-4bdd-b802-e46b00db5015","system_id":"levelo_inurba_marseille","lat":43.290624,"lon":5.359245,"is_reserved":false,"is_disabled":false,"rental_uris":{"android":"levelo://app?vid=3f0a94c6-7c93-4bdd-b802-e46b00db5015","ios":"levelo://app?vid=3f0a94c6-7c93-4bdd-b802-e46b00db5015"},"vehicle_type_id":"4","last_reported":1701536742,"current_range_meters":12400,"station_id":"ce4bha92rcd13ifvqeg0","pricing_plan_id":"free"},{"bike_id":"8ed3ca95-2f7b-4d5a-bd42-8bf0ed0b7744","system_id":"levelo_inurba_marseille","lat":43.29146,"lon":5.37948,"is_reserved":false,"is_disabled":false,"rental_uris":{"android":"levelo://app?vid=8ed3ca95-2f7b-4d5a-bd42-8bf0ed0b7744","ios":"levelo://app?vid=8ed3ca95-2f7b-4d5a-bd42-8bf0ed0b7744"},"vehicle_type_id":"4","last_reported":1701536742,"current_range_meters":18000,"station_id":"","pricing_plan_id":"free"},{"bike_id":"861c7358-6511-4ef4-a692-996a24f4874a","system_id":"levelo_inurba_marseille","lat":43.29421,"lon":5.38623,"is_reserved":false,"is_disabled":false,"rental_uris":{"android":"levelo://app?vid=861c7358-6511-4ef4-a692-996a24f4874a","ios":"levelo://app?vid=861c7358-6511-4ef4-a692-996a24f4874a"},"vehicle_type_id":"4","last_reported":1701536742,"current_range_meters":0,"station_id":"ce4bh2h2rcd13ifvqdh0","pricing_plan_id":"free"},{"bike_id":"93454e66-02a3-4a29-b4fc-1ac3f54fd21e","system_id":"levelo_inurba_marseille","lat":43.304296,"lon":5.397513,"is_reserved":false,"is_disabled":false,"rental_uris":{"android":"levelo://app?vid=93454e66-02a3-4a29-b4fc-1ac3f54fd21e","ios":"levelo://app?vid=93454e66-02a3-4a29-b4fc-1ac3f54fd21e"},"vehicle_type_id":"4","last_reported":1701536742,"current_range_meters":21600,"station_id":"ce4bh092rcd13ifvqd20","pricing_plan_id":"free"},{"bike_id":"ea5bedc7-1c01-4b83-9c48-63a890d86625","system_id":"levelo_inurba_marseille","lat":43.304296,"lon":5.397513,"is_reserved":false,"is_disabled":false,"rental_uris":{"android":"levelo://app?vid=ea5bedc7-1c01-4b83-9c48-63a890d86625","ios":"levelo://app?vid=ea5bedc7-1c01-4b83-9c48-63a890d86625"},"vehicle_type_id":"4","last_reported":1701536742,"current_range_meters":13200,"station_id":"ce4bh092rcd13ifvqd20","pricing_plan_id":"free"},{"bike_id":"72919f1f-3c5b-4fb1-bbc0-5812dd8199bf","system_id":"levelo_inurba_marseille","lat":43.292688,"lon":5.384537,"is_reserved":false,"is_disabled":false,"rental_uris":{"android":"levelo://app?vid=72919f1f-3c5b-4fb1-bbc0-5812dd8199bf","ios":"levelo://app?vid=72919f1f-3c5b-4fb1-bbc0-5812dd8199bf"},"vehicle_type_id":"4","last_reported":1701536742,"current_range_meters":21200,"station_id":"","pricing_plan_id":"free"},{"bike_id":"e5bb23e5-10e8-42fc-98a5-f75c7156ba65","system_id":"levelo_inurba_marseille","lat":43.292642,"lon":5.384254,"is_reserved":false,"is_disabled":false,"rental_uris":{"android":"levelo://app?vid=e5bb23e5-10e8-42fc-98a5-f75c7156ba65","ios":"levelo://app?vid=e5bb23e5-10e8-42fc-98a5-f75c7156ba65"},"vehicle_type_id":"4","last_reported":1701536742,"current_range_meters":26800,"station_id":"ce4bh692rcd13ifvqea0","pricing_plan_id":"free"},{"bike_id":"1ec5c587-ccfc-4a0d-802f-4dab66883e0a","system_id":"levelo_inurba_marseille","lat":43.292642,"lon":5.384254,"is_reserved":false,"is_disabled":false,"rental_uris":{"android":"levelo://app?vid=1ec5c587-ccfc-4a0d-802f-4dab66883e0a","ios":"levelo://app?vid=1ec5c587-ccfc-4a0d-802f-4dab66883e0a"},"vehicle_type_id":"4","last_reported":1701536742,"current_range_meters":4400,"station_id":"ce4bh692rcd13ifvqea0","pricing_plan_id":"free"},{"bike_id":"a23ab9d2-c98a-49f2-9fb9-d01f3ae7a210","system_id":"levelo_inurba_marseille","lat":43.290104,"lon":5.356111,"is_reserved":false,"is_disabled":false,"rental_uris":{"android":"levelo://app?vid=a23ab9d2-c98a-49f2-9fb9-d01f3ae7a210","ios":"levelo://app?vid=a23ab9d2-c98a-49f2-9fb9-d01f3ae7a210"},"vehicle_type_id":"4","last_reported":1701536742,"current_range_meters":10800,"station_id":"ce4bhb92rcd13ifvqen0","pricing_plan_id":"free"},{"bike_id":"470f742c-049b-4a2d-a69b-ad9da2c7cb4e","system_id":"levelo_inurba_marseille","lat":43.290995,"lon":5.381361,"is_reserved":false,"is_disabled":false,"rental_uris":{"android":"levelo://app?vid=470f742c-049b-4a2d-a69b-ad9da2c7cb4e","ios":"levelo://app?vid=470f742c-049b-4a2d-a69b-ad9da2c7cb4e"},"vehicle_type_id":"4","last_reported":1701536742,"current_range_meters":11600,"station_id":"ce4bh512rcd13ifvqe2g","pricing_plan_id":"free"},{"bike_id":"b38135b0-bb14-4c25-bf29-b49d406cc922","system_id":"levelo_inurba_marseille","lat":43.33056,"lon":5.39058,"is_reserved":false,"is_disabled":false,"rental_uris":{"android":"levelo://app?vid=b38135b0-bb14-4c25-bf29-b49d406cc922","ios":"levelo://app?vid=b38135b0-bb14-4c25-bf29-b49d406cc922"},"vehicle_type_id":"4","last_reported":1701536742,"current_range_meters":400,"station_id":"","pricing_plan_id":"free"},{"bike_id":"75ee5a35-25e5-4210-a426-2d92cbb1b782","system_id":"levelo_inurba_marseille","lat":43.33111,"lon":5.3902,"is_reserved":false,"is_disabled":false,"rental_uris":{"android":"levelo://app?vid=75ee5a35-25e5-4210-a426-2d92cbb1b782","ios":"levelo://app?vid=75ee5a35-25e5-4210-a426-2d92cbb1b782"},"vehicle_type_id":"4","last_reported":1701536742,"current_range_meters":0,"station_id":"","pricing_plan_id":"free"},{"bike_id":"ad8604d7-c3ea-4df5-83bc-547a2dabd035","system_id":"levelo_inurba_marseille","lat":43.312609,"lon":5.401662,"is_reserved":false,"is_disabled":false,"rental_uris":{"android":"levelo://app?vid=ad8604d7-c3ea-4df5-83bc-547a2dabd035","ios":"levelo://app?vid=ad8604d7-c3ea-4df5-83bc-547a2dabd035"},"vehicle_type_id":"4","last_reported":1701536742,"current_range_meters":11200,"station_id":"ce4bh092rcd13ifvqd30","pricing_plan_id":"free"},{"bike_id":"135a25bb-f24d-45d5-a217-3648219a6278","system_id":"levelo_inurba_marseille","lat":43.284534,"lon":5.358662,"is_reserved":false,"is_disabled":false,"rental_uris":{"android":"levelo://app?vid=135a25bb-f24d-45d5-a217-3648219a6278","ios":"levelo://app?vid=135a25bb-f24d-45d5-a217-3648219a6278"},"vehicle_type_id":"4","last_reported":1701536742,"current_range_meters":20400,"station_id":"ce4bhah2rcd13ifvqei0","pricing_plan_id":"free"},{"bike_id":"81399bbb-4fe3-4dbb-9731-a5572b9d2fda","system_id":"levelo_inurba_marseille","lat":43.285856,"lon":5.350771,"is_reserved":false,"is_disabled":false,"rental_uris":{"android":"levelo://app?vid=81399bbb-4fe3-4dbb-9731-a5572b9d2fda","ios":"levelo://app?vid=81399bbb-4fe3-4dbb-9731-a5572b9d2fda"},"vehicle_type_id":"4","last_reported":1701536742,"current_range_meters":0,"station_id":"ce4bhch2rcd13ifvqeug","pricing_plan_id":"free"},{"bike_id":"3b7ba15b-8c65-4fcd-826d-b82c270ff007","system_id":"levelo_inurba_marseille","lat":43.283998,"lon":5.375062,"is_reserved":false,"is_disabled":false,"rental_uris":{"android":"levelo://app?vid=3b7ba15b-8c65-4fcd-826d-b82c270ff007","ios":"levelo://app?vid=3b7ba15b-8c65-4fcd-826d-b82c270ff007"},"vehicle_type_id":"4","last_reported":1701536742,"current_range_meters":0,"station_id":"ce4bh412rcd13ifvqds0","pricing_plan_id":"free"},{"bike_id":"ee193b29-49a1-4796-a6bc-4b4ff9273041","system_id":"levelo_inurba_marseille","lat":43.286595,"lon":5.386795,"is_reserved":false,"is_disabled":false,"rental_uris":{"android":"levelo://app?vid=ee193b29-49a1-4796-a6bc-4b4ff9273041","ios":"levelo://app?vid=ee193b29-49a1-4796-a6bc-4b4ff9273041"},"vehicle_type_id":"4","last_reported":1701536742,"current_range_meters":8400,"station_id":"ce4bh492rcd13ifvqdug","pricing_plan_id":"free"},{"bike_id":"f99fc4d8-709b-4cee-a32c-2cdd6f1e8b1e","system_id":"levelo_inurba_marseille","lat":43.33749,"lon":5.39111,"is_reserved":false,"is_disabled":false,"rental_uris":{"android":"levelo://app?vid=f99fc4d8-709b-4cee-a32c-2cdd6f1e8b1e","ios":"levelo://app?vid=f99fc4d8-709b-4cee-a32c-2cdd6f1e8b1e"},"vehicle_type_id":"4","last_reported":1701536742,"current_range_meters":25200,"station_id":"","pricing_plan_id":"free"},{"bike_id":"23a6e18e-5ad6-40cf-b6fb-7a4b1a6034c9","system_id":"levelo_inurba_marseille","lat":43.33717,"lon":5.391857,"is_reserved":false,"is_disabled":false,"rental_uris":{"android":"levelo://app?vid=23a6e18e-5ad6-40cf-b6fb-7a4b1a6034c9","ios":"levelo://app?vid=23a6e18e-5ad6-40cf-b6fb-7a4b1a6034c9"},"vehicle_type_id":"4","last_reported":1701536742,"current_range_meters":16800,"station_id":"ce4bhr92rcd13ifvqhsg","pricing_plan_id":"free"},{"bike_id":"5d43c80a-e905-4a1b-b08d-d8fd0dc6fc4e","system_id":"levelo_inurba_marseille","lat":43.323464,"lon":5.406297,"is_reserved":false,"is_disabled":false,"rental_uris":{"android":"levelo://app?vid=5d43c80a-e905-4a1b-b08d-d8fd0dc6fc4e","ios":"levelo://app?vid=5d43c80a-e905-4a1b-b08d-d8fd0dc6fc4e"},"vehicle_type_id":"4","last_reported":1701536742,"current_range_meters":16800,"station_id":"ce4bhq92rcd13ifvqhjg","pricing_plan_id":"free"},{"bike_id":"42f84ca9-466a-4dfc-bb8e-adf6c1b3f1d7","system_id":"levelo_inurba_marseille","lat":43.297946,"lon":5.404063,"is_reserved":false,"is_disabled":false,"rental_uris":{"android":"levelo://app?vid=42f84ca9-466a-4dfc-bb8e-adf6c1b3f1d7","ios":"levelo://app?vid=42f84ca9-466a-4dfc-bb8e-adf6c1b3f1d7"},"vehicle_type_id":"4","last_reported":1701536742,"current_range_meters":28800,"station_id":"ce4bh112rcd13ifvqd90","pricing_plan_id":"free"},{"bike_id":"cede4729-c03e-46c2-8c4d-427b2c344bc8","system_id":"levelo_inurba_marseille","lat":43.288501,"lon":5.393087,"is_reserved":false,"is_disabled":false,"rental_uris":{"android":"levelo://app?vid=cede4729-c03e-46c2-8c4d-427b2c344bc8","ios":"levelo://app?vid=cede4729-c03e-46c2-8c4d-427b2c344bc8"},"vehicle_type_id":"4","last_reported":1701536742,"current_range_meters":29200,"station_id":"ce4bh2p2rcd13ifvqdi0","pricing_plan_id":"free"},{"bike_id":"0cb2d7a7-0c00-470b-9bcf-a83060a158c5","system_id":"levelo_inurba_marseille","lat":43.288501,"lon":5.393087,"is_reserved":false,"is_disabled":false,"rental_uris":{"android":"levelo://app?vid=0cb2d7a7-0c00-470b-9bcf-a83060a158c5","ios":"levelo://app?vid=0cb2d7a7-0c00-470b-9bcf-a83060a158c5"},"vehicle_type_id":"4","last_reported":1701536742,"current_range_meters":0,"station_id":"ce4bh2p2rcd13ifvqdi0","pricing_plan_id":"free"},{"bike_id":"4b3fa4d1-139e-4c54-9bf1-8cfc52627b40","system_id":"levelo_inurba_marseille","lat":43.283494,"lon":5.380945,"is_reserved":false,"is_disabled":false,"rental_uris":{"android":"levelo://app?vid=4b3fa4d1-139e-4c54-9bf1-8cfc52627b40","ios":"levelo://app?vid=4b3fa4d1-139e-4c54-9bf1-8cfc52627b40"},"vehicle_type_id":"4","last_reported":1701536742,"current_range_meters":8800,"station_id":"ce4bh412rcd13ifvqdr0","pricing_plan_id":"free"},{"bike_id":"cbfb6bdf-52c5-471c-be74-dd0dac9d06de","system_id":"levelo_inurba_marseille","lat":43.292724,"lon":5.401131,"is_reserved":false,"is_disabled":false,"rental_uris":{"android":"levelo://app?vid=cbfb6bdf-52c5-471c-be74-dd0dac9d06de","ios":"levelo://app?vid=cbfb6bdf-52c5-471c-be74-dd0dac9d06de"},"vehicle_type_id":"4","last_reported":1701536742,"current_range_meters":15600,"station_id":"ce4bh312rcd13ifvqdk0","pricing_plan_id":"free"},{"bike_id":"d67ab5db-34f4-4fed-88e8-e97a883b95a0","system_id":"levelo_inurba_marseille","lat":43.2828,"lon":5.3507,"is_reserved":false,"is_disabled":false,"rental_uris":{"android":"levelo://app?vid=d67ab5db-34f4-4fed-88e8-e97a883b95a0","ios":"levelo://app?vid=d67ab5db-34f4-4fed-88e8-e97a883b95a0"},"vehicle_type_id":"4","last_reported":1701536742,"current_range_meters":0,"station_id":"ce4bhbp2rcd13ifvqerg","pricing_plan_id":"free"},{"bike_id":"3ffe2381-791e-4dfc-ab55-b1a1afebe7c4","system_id":"levelo_inurba_marseille","lat":43.28039,"lon":5.369297,"is_reserved":false,"is_disabled":false,"rental_uris":{"android":"levelo://app?vid=3ffe2381-791e-4dfc-ab55-b1a1afebe7c4","ios":"levelo://app?vid=3ffe2381-791e-4dfc-ab55-b1a1afebe7c4"},"vehicle_type_id":"4","last_reported":1701536742,"current_range_meters":2800,"station_id":"ce4bha12rcd13ifvqef0","pricing_plan_id":"free"},{"bike_id":"8b6b1a4a-e2e4-42ec-b0f2-8a517edadf67","system_id":"levelo_inurba_marseille","lat":43.281044,"lon":5.378308,"is_reserved":false,"is_disabled":false,"rental_uris":{"android":"levelo://app?vid=8b6b1a4a-e2e4-42ec-b0f2-8a517edadf67","ios":"levelo://app?vid=8b6b1a4a-e2e4-42ec-b0f2-8a517edadf67"},"vehicle_type_id":"4","last_reported":1701536742,"current_range_meters":7600,"station_id":"ce4bha12rcd13ifvqee0","pricing_plan_id":"free"},{"bike_id":"860e94fd-4fca-4304-826e-50d0d9c850f5","system_id":"levelo_inurba_marseille","lat":43.304188,"lon":5.412904,"is_reserved":false,"is_disabled":false,"rental_uris":{"android":"levelo://app?vid=860e94fd-4fca-4304-826e-50d0d9c850f5","ios":"levelo://app?vid=860e94fd-4fca-4304-826e-50d0d9c850f5"},"vehicle_type_id":"4","last_reported":1701536742,"current_range_meters":23200,"station_id":"ce4bhop2rcd13ifvqh8g","pricing_plan_id":"free"},{"bike_id":"7468d0f3-86e0-4816-acb1-b6847bb8aacd","system_id":"levelo_inurba_marseille","lat":43.304188,"lon":5.412904,"is_reserved":false,"is_disabled":false,"rental_uris":{"android":"levelo://app?vid=7468d0f3-86e0-4816-acb1-b6847bb8aacd","ios":"levelo://app?vid=7468d0f3-86e0-4816-acb1-b6847bb8aacd"},"vehicle_type_id":"4","last_reported":1701536742,"current_range_meters":0,"station_id":"ce4bhop2rcd13ifvqh8g","pricing_plan_id":"free"},{"bike_id":"dad5c218-5988-4901-bef7-5142e3dade32","system_id":"levelo_inurba_marseille","lat":43.279087,"lon":5.380114,"is_reserved":false,"is_disabled":false,"rental_uris":{"android":"levelo://app?vid=dad5c218-5988-4901-bef7-5142e3dade32","ios":"levelo://app?vid=dad5c218-5988-4901-bef7-5142e3dade32"},"vehicle_type_id":"4","last_reported":1701536742,"current_range_meters":4800,"station_id":"ce4bhf92rcd13ifvqf50","pricing_plan_id":"free"},{"bike_id":"df8e323a-cb1b-42b2-bdf2-a233d3ff90dd","system_id":"levelo_inurba_marseille","lat":43.279087,"lon":5.380114,"is_reserved":false,"is_disabled":false,"rental_uris":{"android":"levelo://app?vid=df8e323a-cb1b-42b2-bdf2-a233d3ff90dd","ios":"levelo://app?vid=df8e323a-cb1b-42b2-bdf2-a233d3ff90dd"},"vehicle_type_id":"4","last_reported":1701536742,"current_range_meters":27600,"station_id":"ce4bhf92rcd13ifvqf50","pricing_plan_id":"free"},{"bike_id":"9a6a3c3f-59d6-4b39-a187-c5569ddaed61","system_id":"levelo_inurba_marseille","lat":43.2871,"lon":5.39988,"is_reserved":false,"is_disabled":false,"rental_uris":{"android":"levelo://app?vid=9a6a3c3f-59d6-4b39-a187-c5569ddaed61","ios":"levelo://app?vid=9a6a3c3f-59d6-4b39-a187-c5569ddaed61"},"vehicle_type_id":"4","last_reported":1701536742,"current_range_meters":21600,"station_id":"ce4bho92rcd13ifvqh3g","pricing_plan_id":"free"},{"bike_id":"71a02c85-c219-4535-9c48-f8f398135475","system_id":"levelo_inurba_marseille","lat":43.28698,"lon":5.3998,"is_reserved":false,"is_disabled":false,"rental_uris":{"android":"levelo://app?vid=71a02c85-c219-4535-9c48-f8f398135475","ios":"levelo://app?vid=71a02c85-c219-4535-9c48-f8f398135475"},"vehicle_type_id":"4","last_reported":1701536742,"current_range_meters":0,"station_id":"","pricing_plan_id":"free"},{"bike_id":"a86b05ec-d6e9-4108-9eb9-985025562aa2","system_id":"levelo_inurba_marseille","lat":43.299579,"lon":5.413255,"is_reserved":false,"is_disabled":false,"rental_uris":{"android":"levelo://app?vid=a86b05ec-d6e9-4108-9eb9-985025562aa2","ios":"levelo://app?vid=a86b05ec-d6e9-4108-9eb9-985025562aa2"},"vehicle_type_id":"4","last_reported":1701536742,"current_range_meters":26000,"station_id":"ce4bhp12rcd13ifvqh9g","pricing_plan_id":"free"},{"bike_id":"84b9469e-662f-49ed-9119-09b74453ef70","system_id":"levelo_inurba_marseille","lat":43.293398,"lon":5.409693,"is_reserved":false,"is_disabled":false,"rental_uris":{"android":"levelo://app?vid=84b9469e-662f-49ed-9119-09b74453ef70","ios":"levelo://app?vid=84b9469e-662f-49ed-9119-09b74453ef70"},"vehicle_type_id":"4","last_reported":1701536742,"current_range_meters":22000,"station_id":"","pricing_plan_id":"free"},{"bike_id":"79bef162-5c7c-4d39-b39b-7e934257755a","system_id":"levelo_inurba_marseille","lat":43.3254,"lon":5.41438,"is_reserved":false,"is_disabled":false,"rental_uris":{"android":"levelo://app?vid=79bef162-5c7c-4d39-b39b-7e934257755a","ios":"levelo://app?vid=79bef162-5c7c-4d39-b39b-7e934257755a"},"vehicle_type_id":"4","last_reported":1701536742,"current_range_meters":6800,"station_id":"ce4bhq12rcd13ifvqhhg","pricing_plan_id":"free"},{"bike_id":"efdd9243-206c-4f71-9b5f-2270830b4801","system_id":"levelo_inurba_marseille","lat":43.276183,"lon":5.361077,"is_reserved":false,"is_disabled":false,"rental_uris":{"android":"levelo://app?vid=efdd9243-206c-4f71-9b5f-2270830b4801","ios":"levelo://app?vid=efdd9243-206c-4f71-9b5f-2270830b4801"},"vehicle_type_id":"4","last_reported":1701536742,"current_range_meters":20800,"station_id":"","pricing_plan_id":"free"},{"bike_id":"451e5711-912b-4e6f-ba92-14f20d0093e3","system_id":"levelo_inurba_marseille","lat":43.336943,"lon":5.406547,"is_reserved":false,"is_disabled":false,"rental_uris":{"android":"levelo://app?vid=451e5711-912b-4e6f-ba92-14f20d0093e3","ios":"levelo://app?vid=451e5711-912b-4e6f-ba92-14f20d0093e3"},"vehicle_type_id":"4","last_reported":1701536742,"current_range_meters":19600,"station_id":"","pricing_plan_id":"free"},{"bike_id":"bcdb50df-13be-4393-adc8-1a79a4e56c43","system_id":"levelo_inurba_marseille","lat":43.28619,"lon":5.40406,"is_reserved":false,"is_disabled":false,"rental_uris":{"android":"levelo://app?vid=bcdb50df-13be-4393-adc8-1a79a4e56c43","ios":"levelo://app?vid=bcdb50df-13be-4393-adc8-1a79a4e56c43"},"vehicle_type_id":"4","last_reported":1701536742,"current_range_meters":0,"station_id":"","pricing_plan_id":"free"},{"bike_id":"9a3a2a34-121b-4c81-ab56-4e44e85d9290","system_id":"levelo_inurba_marseille","lat":43.280784,"lon":5.396622,"is_reserved":false,"is_disabled":false,"rental_uris":{"android":"levelo://app?vid=9a3a2a34-121b-4c81-ab56-4e44e85d9290","ios":"levelo://app?vid=9a3a2a34-121b-4c81-ab56-4e44e85d9290"},"vehicle_type_id":"4","last_reported":1701536742,"current_range_meters":24800,"station_id":"ce4bho12rcd13ifvqh2g","pricing_plan_id":"free"},{"bike_id":"5e4ecfbb-5200-4667-b944-267200ed1bee","system_id":"levelo_inurba_marseille","lat":43.278401,"lon":5.392152,"is_reserved":false,"is_disabled":false,"rental_uris":{"android":"levelo://app?vid=5e4ecfbb-5200-4667-b944-267200ed1bee","ios":"levelo://app?vid=5e4ecfbb-5200-4667-b944-267200ed1bee"},"vehicle_type_id":"4","last_reported":1701536742,"current_range_meters":12000,"station_id":"ce4bhjp2rcd13ifvqga0","pricing_plan_id":"free"},{"bike_id":"f72e4428-b475-41c0-ba8a-600431fbbaf6","system_id":"levelo_inurba_marseille","lat":43.273613,"lon":5.362705,"is_reserved":false,"is_disabled":false,"rental_uris":{"android":"levelo://app?vid=f72e4428-b475-41c0-ba8a-600431fbbaf6","ios":"levelo://app?vid=f72e4428-b475-41c0-ba8a-600431fbbaf6"},"vehicle_type_id":"4","last_reported":1701536742,"current_range_meters":25600,"station_id":"ce4bhbh2rcd13ifvqeo0","pricing_plan_id":"free"},{"bike_id":"dd1614ba-585e-450a-834b-1c03d5d026e1","system_id":"levelo_inurba_marseille","lat":43.273613,"lon":5.362705,"is_reserved":false,"is_disabled":false,"rental_uris":{"android":"levelo://app?vid=dd1614ba-585e-450a-834b-1c03d5d026e1","ios":"levelo://app?vid=dd1614ba-585e-450a-834b-1c03d5d026e1"},"vehicle_type_id":"4","last_reported":1701536742,"current_range_meters":31200,"station_id":"ce4bhbh2rcd13ifvqeo0","pricing_plan_id":"free"},{"bike_id":"bff0e3b4-5d61-4619-939c-c1d6ae13e4fc","system_id":"levelo_inurba_marseille","lat":43.273613,"lon":5.362705,"is_reserved":false,"is_disabled":false,"rental_uris":{"android":"levelo://app?vid=bff0e3b4-5d61-4619-939c-c1d6ae13e4fc","ios":"levelo://app?vid=bff0e3b4-5d61-4619-939c-c1d6ae13e4fc"},"vehicle_type_id":"4","last_reported":1701536742,"current_range_meters":17200,"station_id":"ce4bhbh2rcd13ifvqeo0","pricing_plan_id":"free"},{"bike_id":"c4ce3d6d-4c43-445f-9ea2-3ef0def9a62a","system_id":"levelo_inurba_marseille","lat":43.273609,"lon":5.362708,"is_reserved":false,"is_disabled":false,"rental_uris":{"android":"levelo://app?vid=c4ce3d6d-4c43-445f-9ea2-3ef0def9a62a","ios":"levelo://app?vid=c4ce3d6d-4c43-445f-9ea2-3ef0def9a62a"},"vehicle_type_id":"4","last_reported":1701536742,"current_range_meters":9600,"station_id":"ce4bhbh2rcd13ifvqeo0","pricing_plan_id":"free"},{"bike_id":"6c6dfa43-2cc5-48c4-9b7a-5ea1c94db2ec","system_id":"levelo_inurba_marseille","lat":43.273609,"lon":5.362708,"is_reserved":false,"is_disabled":false,"rental_uris":{"android":"levelo://app?vid=6c6dfa43-2cc5-48c4-9b7a-5ea1c94db2ec","ios":"levelo://app?vid=6c6dfa43-2cc5-48c4-9b7a-5ea1c94db2ec"},"vehicle_type_id":"4","last_reported":1701536742,"current_range_meters":26800,"station_id":"ce4bhbh2rcd13ifvqeo0","pricing_plan_id":"free"},{"bike_id":"4f44e41c-5d5f-40b0-808d-6fe2cbe6b56b","system_id":"levelo_inurba_marseille","lat":43.33604,"lon":5.41032,"is_reserved":false,"is_disabled":false,"rental_uris":{"android":"levelo://app?vid=4f44e41c-5d5f-40b0-808d-6fe2cbe6b56b","ios":"levelo://app?vid=4f44e41c-5d5f-40b0-808d-6fe2cbe6b56b"},"vehicle_type_id":"4","last_reported":1701536742,"current_range_meters":30000,"station_id":"ce4bhqh2rcd13ifvqhmg","pricing_plan_id":"free"},{"bike_id":"031638a0-bfc0-4060-8e2b-d5c6505097a4","system_id":"levelo_inurba_marseille","lat":43.336116,"lon":5.410294,"is_reserved":false,"is_disabled":false,"rental_uris":{"android":"levelo://app?vid=031638a0-bfc0-4060-8e2b-d5c6505097a4","ios":"levelo://app?vid=031638a0-bfc0-4060-8e2b-d5c6505097a4"},"vehicle_type_id":"4","last_reported":1701536742,"current_range_meters":7200,"station_id":"ce4bhqh2rcd13ifvqhmg","pricing_plan_id":"free"},{"bike_id":"75269014-fd84-4a1f-9fa5-95a0080041c8","system_id":"levelo_inurba_marseille","lat":43.310785,"lon":5.424305,"is_reserved":false,"is_disabled":false,"rental_uris":{"android":"levelo://app?vid=75269014-fd84-4a1f-9fa5-95a0080041c8","ios":"levelo://app?vid=75269014-fd84-4a1f-9fa5-95a0080041c8"},"vehicle_type_id":"4","last_reported":1701536742,"current_range_meters":26800,"station_id":"ce4bhp92rcd13ifvqhag","pricing_plan_id":"free"},{"bike_id":"910fd3aa-d2e0-4553-894a-6161d41c7fcd","system_id":"levelo_inurba_marseille","lat":43.27609,"lon":5.39475,"is_reserved":false,"is_disabled":false,"rental_uris":{"android":"levelo://app?vid=910fd3aa-d2e0-4553-894a-6161d41c7fcd","ios":"levelo://app?vid=910fd3aa-d2e0-4553-894a-6161d41c7fcd"},"vehicle_type_id":"4","last_reported":1701536742,"current_range_meters":20800,"station_id":"","pricing_plan_id":"free"},{"bike_id":"1029ab0c-e692-4651-b8c9-72c4c80f9558","system_id":"levelo_inurba_marseille","lat":43.274103,"lon":5.394016,"is_reserved":false,"is_disabled":false,"rental_uris":{"android":"levelo://app?vid=1029ab0c-e692-4651-b8c9-72c4c80f9558","ios":"levelo://app?vid=1029ab0c-e692-4651-b8c9-72c4c80f9558"},"vehicle_type_id":"4","last_reported":1701536742,"current_range_meters":28800,"station_id":"ce4bhdp2rcd13ifvqf20","pricing_plan_id":"free"},{"bike_id":"ac66a036-a10d-4f8c-83e4-715d71e292f8","system_id":"levelo_inurba_marseille","lat":43.295523,"lon":5.422926,"is_reserved":false,"is_disabled":false,"rental_uris":{"android":"levelo://app?vid=ac66a036-a10d-4f8c-83e4-715d71e292f8","ios":"levelo://app?vid=ac66a036-a10d-4f8c-83e4-715d71e292f8"},"vehicle_type_id":"4","last_reported":1701536742,"current_range_meters":30000,"station_id":"ce4bhph2rcd13ifvqhdg","pricing_plan_id":"free"},{"bike_id":"a73624e3-76fe-4779-9cf9-d17b0eb3018d","system_id":"levelo_inurba_marseille","lat":43.278128,"lon":5.407195,"is_reserved":false,"is_disabled":false,"rental_uris":{"android":"levelo://app?vid=a73624e3-76fe-4779-9cf9-d17b0eb3018d","ios":"levelo://app?vid=a73624e3-76fe-4779-9cf9-d17b0eb3018d"},"vehicle_type_id":"4","last_reported":1701536742,"current_range_meters":30000,"station_id":"ce4bhnh2rcd13ifvqgtg","pricing_plan_id":"free"},{"bike_id":"9a208d93-5df6-4bf9-9b06-ff4846694260","system_id":"levelo_inurba_marseille","lat":43.269467,"lon":5.386439,"is_reserved":false,"is_disabled":false,"rental_uris":{"android":"levelo://app?vid=9a208d93-5df6-4bf9-9b06-ff4846694260","ios":"levelo://app?vid=9a208d93-5df6-4bf9-9b06-ff4846694260"},"vehicle_type_id":"4","last_reported":1701536742,"current_range_meters":0,"station_id":"ce4bhh92rcd13ifvqfh0","pricing_plan_id":"free"},{"bike_id":"aaf5e808-296a-478c-a084-dae14df8f966","system_id":"levelo_inurba_marseille","lat":43.269467,"lon":5.386439,"is_reserved":false,"is_disabled":false,"rental_uris":{"android":"levelo://app?vid=aaf5e808-296a-478c-a084-dae14df8f966","ios":"levelo://app?vid=aaf5e808-296a-478c-a084-dae14df8f966"},"vehicle_type_id":"4","last_reported":1701536742,"current_range_meters":23200,"station_id":"ce4bhh92rcd13ifvqfh0","pricing_plan_id":"free"},{"bike_id":"ae7e6379-6e6f-4c41-bbba-63283f5b4fbd","system_id":"levelo_inurba_marseille","lat":43.279465,"lon":5.410561,"is_reserved":false,"is_disabled":false,"rental_uris":{"android":"levelo://app?vid=ae7e6379-6e6f-4c41-bbba-63283f5b4fbd","ios":"levelo://app?vid=ae7e6379-6e6f-4c41-bbba-63283f5b4fbd"},"vehicle_type_id":"4","last_reported":1701536742,"current_range_meters":0,"station_id":"ce4bhnp2rcd13ifvqh0g","pricing_plan_id":"free"},{"bike_id":"f436ebdd-f5be-44f1-b8e6-df0e1c3d83a9","system_id":"levelo_inurba_marseille","lat":43.279493,"lon":5.410497,"is_reserved":false,"is_disabled":false,"rental_uris":{"android":"levelo://app?vid=f436ebdd-f5be-44f1-b8e6-df0e1c3d83a9","ios":"levelo://app?vid=f436ebdd-f5be-44f1-b8e6-df0e1c3d83a9"},"vehicle_type_id":"4","last_reported":1701536742,"current_range_meters":5600,"station_id":"ce4bhnp2rcd13ifvqh0g","pricing_plan_id":"free"},{"bike_id":"45ca89f9-3042-4d03-89e3-bb8495c4f33a","system_id":"levelo_inurba_marseille","lat":43.27996,"lon":5.416624,"is_reserved":false,"is_disabled":false,"rental_uris":{"android":"levelo://app?vid=45ca89f9-3042-4d03-89e3-bb8495c4f33a","ios":"levelo://app?vid=45ca89f9-3042-4d03-89e3-bb8495c4f33a"},"vehicle_type_id":"4","last_reported":1701536742,"current_range_meters":11600,"station_id":"ce4bho12rcd13ifvqh1g","pricing_plan_id":"free"},{"bike_id":"12090fa8-005f-497d-b441-ae58c816e8cf","system_id":"levelo_inurba_marseille","lat":43.27996,"lon":5.416624,"is_reserved":false,"is_disabled":false,"rental_uris":{"android":"levelo://app?vid=12090fa8-005f-497d-b441-ae58c816e8cf","ios":"levelo://app?vid=12090fa8-005f-497d-b441-ae58c816e8cf"},"vehicle_type_id":"4","last_reported":1701536742,"current_range_meters":17200,"station_id":"ce4bho12rcd13ifvqh1g","pricing_plan_id":"free"},{"bike_id":"d59ed76b-448b-461b-bd29-0950456c9979","system_id":"levelo_inurba_marseille","lat":43.271368,"lon":5.40928,"is_reserved":false,"is_disabled":false,"rental_uris":{"android":"levelo://app?vid=d59ed76b-448b-461b-bd29-0950456c9979","ios":"levelo://app?vid=d59ed76b-448b-461b-bd29-0950456c9979"},"vehicle_type_id":"4","last_reported":1701536742,"current_range_meters":26000,"station_id":"ce4bhl12rcd13ifvqgf0","pricing_plan_id":"free"},{"bike_id":"a2098ae3-4622-458a-9278-259c6e8caef1","system_id":"levelo_inurba_marseille","lat":43.267959,"lon":5.402685,"is_reserved":false,"is_disabled":false,"rental_uris":{"android":"levelo://app?vid=a2098ae3-4622-458a-9278-259c6e8caef1","ios":"levelo://app?vid=a2098ae3-4622-458a-9278-259c6e8caef1"},"vehicle_type_id":"4","last_reported":1701536742,"current_range_meters":29600,"station_id":"ce501612rcd8frsf0b60","pricing_plan_id":"free"},{"bike_id":"42c2f902-b92f-4293-bd7f-ace0b830882b","system_id":"levelo_inurba_marseille","lat":43.281548,"lon":5.42643,"is_reserved":false,"is_disabled":false,"rental_uris":{"android":"levelo://app?vid=42c2f902-b92f-4293-bd7f-ace0b830882b","ios":"levelo://app?vid=42c2f902-b92f-4293-bd7f-ace0b830882b"},"vehicle_type_id":"4","last_reported":1701536742,"current_range_meters":0,"station_id":"ce4bhnh2rcd13ifvqgug","pricing_plan_id":"free"},{"bike_id":"17af9e80-8bc8-42cb-91c0-1cc66c74fe88","system_id":"levelo_inurba_marseille","lat":43.2607,"lon":5.393983,"is_reserved":false,"is_disabled":false,"rental_uris":{"android":"levelo://app?vid=17af9e80-8bc8-42cb-91c0-1cc66c74fe88","ios":"levelo://app?vid=17af9e80-8bc8-42cb-91c0-1cc66c74fe88"},"vehicle_type_id":"4","last_reported":1701536742,"current_range_meters":7200,"station_id":"ce4bhh92rcd13ifvqfj0","pricing_plan_id":"free"},{"bike_id":"aae89ef0-82b9-4330-b64e-eaeb9e0441da","system_id":"levelo_inurba_marseille","lat":43.2607,"lon":5.393983,"is_reserved":false,"is_disabled":false,"rental_uris":{"android":"levelo://app?vid=aae89ef0-82b9-4330-b64e-eaeb9e0441da","ios":"levelo://app?vid=aae89ef0-82b9-4330-b64e-eaeb9e0441da"},"vehicle_type_id":"4","last_reported":1701536742,"current_range_meters":4000,"station_id":"ce4bhh92rcd13ifvqfj0","pricing_plan_id":"free"},{"bike_id":"b0782dec-239e-40f9-bc45-23b8c10fc16b","system_id":"levelo_inurba_marseille","lat":43.2607,"lon":5.393983,"is_reserved":false,"is_disabled":false,"rental_uris":{"android":"levelo://app?vid=b0782dec-239e-40f9-bc45-23b8c10fc16b","ios":"levelo://app?vid=b0782dec-239e-40f9-bc45-23b8c10fc16b"},"vehicle_type_id":"4","last_reported":1701536742,"current_range_meters":9200,"station_id":"ce4bhh92rcd13ifvqfj0","pricing_plan_id":"free"},{"bike_id":"1db1d37b-3490-4d59-9b4a-2203597152f6","system_id":"levelo_inurba_marseille","lat":43.258224,"lon":5.394369,"is_reserved":false,"is_disabled":false,"rental_uris":{"android":"levelo://app?vid=1db1d37b-3490-4d59-9b4a-2203597152f6","ios":"levelo://app?vid=1db1d37b-3490-4d59-9b4a-2203597152f6"},"vehicle_type_id":"4","last_reported":1701536742,"current_range_meters":27200,"station_id":"ce4bhip2rcd13ifvqft0","pricing_plan_id":"free"},{"bike_id":"d83e48ac-2a86-45c4-af3a-74f38c183d44","system_id":"levelo_inurba_marseille","lat":43.258224,"lon":5.394369,"is_reserved":false,"is_disabled":false,"rental_uris":{"android":"levelo://app?vid=d83e48ac-2a86-45c4-af3a-74f38c183d44","ios":"levelo://app?vid=d83e48ac-2a86-45c4-af3a-74f38c183d44"},"vehicle_type_id":"4","last_reported":1701536742,"current_range_meters":4800,"station_id":"ce4bhip2rcd13ifvqft0","pricing_plan_id":"free"},{"bike_id":"b19339bd-8b27-48d6-889b-67fd9c72d504","system_id":"levelo_inurba_marseille","lat":43.270721,"lon":5.422764,"is_reserved":false,"is_disabled":false,"rental_uris":{"android":"levelo://app?vid=b19339bd-8b27-48d6-889b-67fd9c72d504","ios":"levelo://app?vid=b19339bd-8b27-48d6-889b-67fd9c72d504"},"vehicle_type_id":"4","last_reported":1701536742,"current_range_meters":10000,"station_id":"ce4bhk92rcd13ifvqgb0","pricing_plan_id":"free"},{"bike_id":"1058092d-5c89-4a10-9402-b6ed81d5deeb","system_id":"levelo_inurba_marseille","lat":43.270721,"lon":5.422764,"is_reserved":false,"is_disabled":false,"rental_uris":{"android":"levelo://app?vid=1058092d-5c89-4a10-9402-b6ed81d5deeb","ios":"levelo://app?vid=1058092d-5c89-4a10-9402-b6ed81d5deeb"},"vehicle_type_id":"4","last_reported":1701536742,"current_range_meters":4800,"station_id":"ce4bhk92rcd13ifvqgb0","pricing_plan_id":"free"},{"bike_id":"bdc72d7c-9d46-4016-8a92-851cd50823f9","system_id":"levelo_inurba_marseille","lat":43.259009,"lon":5.40929,"is_reserved":false,"is_disabled":false,"rental_uris":{"android":"levelo://app?vid=bdc72d7c-9d46-4016-8a92-851cd50823f9","ios":"levelo://app?vid=bdc72d7c-9d46-4016-8a92-851cd50823f9"},"vehicle_type_id":"4","last_reported":1701536742,"current_range_meters":27600,"station_id":"ce4bhm92rcd13ifvqglg","pricing_plan_id":"free"},{"bike_id":"8b461cd2-ef6a-465d-beba-fe65f8253827","system_id":"levelo_inurba_marseille","lat":43.25727,"lon":5.41103,"is_reserved":false,"is_disabled":false,"rental_uris":{"android":"levelo://app?vid=8b461cd2-ef6a-465d-beba-fe65f8253827","ios":"levelo://app?vid=8b461cd2-ef6a-465d-beba-fe65f8253827"},"vehicle_type_id":"4","last_reported":1701536742,"current_range_meters":11600,"station_id":"ce4bhkp2rcd13ifvqgd0","pricing_plan_id":"free"},{"bike_id":"37717797-9043-42d5-9389-d65f6e6d555b","system_id":"levelo_inurba_marseille","lat":43.250009,"lon":5.389195,"is_reserved":false,"is_disabled":false,"rental_uris":{"android":"levelo://app?vid=37717797-9043-42d5-9389-d65f6e6d555b","ios":"levelo://app?vid=37717797-9043-42d5-9389-d65f6e6d555b"},"vehicle_type_id":"4","last_reported":1701536742,"current_range_meters":4400,"station_id":"ce4bhgp2rcd13ifvqfd0","pricing_plan_id":"free"},{"bike_id":"c2c54c96-8911-41ce-9741-6ecbcb115f60","system_id":"levelo_inurba_marseille","lat":43.250009,"lon":5.389195,"is_reserved":false,"is_disabled":false,"rental_uris":{"android":"levelo://app?vid=c2c54c96-8911-41ce-9741-6ecbcb115f60","ios":"levelo://app?vid=c2c54c96-8911-41ce-9741-6ecbcb115f60"},"vehicle_type_id":"4","last_reported":1701536742,"current_range_meters":31600,"station_id":"ce4bhgp2rcd13ifvqfd0","pricing_plan_id":"free"},{"bike_id":"b1d811c7-344a-434e-a4b1-43d51165f3eb","system_id":"levelo_inurba_marseille","lat":43.250023,"lon":5.38919,"is_reserved":false,"is_disabled":false,"rental_uris":{"android":"levelo://app?vid=b1d811c7-344a-434e-a4b1-43d51165f3eb","ios":"levelo://app?vid=b1d811c7-344a-434e-a4b1-43d51165f3eb"},"vehicle_type_id":"4","last_reported":1701536742,"current_range_meters":26400,"station_id":"ce4bhgp2rcd13ifvqfd0","pricing_plan_id":"free"},{"bike_id":"09a4ee21-c0a4-41eb-b4fe-14da8c31cf7b","system_id":"levelo_inurba_marseille","lat":43.250009,"lon":5.389195,"is_reserved":false,"is_disabled":false,"rental_uris":{"android":"levelo://app?vid=09a4ee21-c0a4-41eb-b4fe-14da8c31cf7b","ios":"levelo://app?vid=09a4ee21-c0a4-41eb-b4fe-14da8c31cf7b"},"vehicle_type_id":"4","last_reported":1701536742,"current_range_meters":13200,"station_id":"ce4bhgp2rcd13ifvqfd0","pricing_plan_id":"free"},{"bike_id":"d53c3682-70bc-4675-ab09-c3fdc1de8af4","system_id":"levelo_inurba_marseille","lat":43.25086,"lon":5.39523,"is_reserved":false,"is_disabled":false,"rental_uris":{"android":"levelo://app?vid=d53c3682-70bc-4675-ab09-c3fdc1de8af4","ios":"levelo://app?vid=d53c3682-70bc-4675-ab09-c3fdc1de8af4"},"vehicle_type_id":"4","last_reported":1701536742,"current_range_meters":31200,"station_id":"ce4bhm12rcd13ifvqgkg","pricing_plan_id":"free"},{"bike_id":"003e078d-7fce-40f0-94a9-6c10ca3ae848","system_id":"levelo_inurba_marseille","lat":43.24693,"lon":5.382096,"is_reserved":false,"is_disabled":false,"rental_uris":{"android":"levelo://app?vid=003e078d-7fce-40f0-94a9-6c10ca3ae848","ios":"levelo://app?vid=003e078d-7fce-40f0-94a9-6c10ca3ae848"},"vehicle_type_id":"4","last_reported":1701536742,"current_range_meters":4000,"station_id":"ce4bhih2rcd13ifvqfr0","pricing_plan_id":"free"},{"bike_id":"52748dec-6a2b-4e48-a00a-d0dbf38ea35e","system_id":"levelo_inurba_marseille","lat":43.24693,"lon":5.382096,"is_reserved":false,"is_disabled":false,"rental_uris":{"android":"levelo://app?vid=52748dec-6a2b-4e48-a00a-d0dbf38ea35e","ios":"levelo://app?vid=52748dec-6a2b-4e48-a00a-d0dbf38ea35e"},"vehicle_type_id":"4","last_reported":1701536742,"current_range_meters":10400,"station_id":"ce4bhih2rcd13ifvqfr0","pricing_plan_id":"free"},{"bike_id":"8c1e3f91-0625-4f6f-ad01-1f5fb2757871","system_id":"levelo_inurba_marseille","lat":43.25102,"lon":5.403214,"is_reserved":false,"is_disabled":false,"rental_uris":{"android":"levelo://app?vid=8c1e3f91-0625-4f6f-ad01-1f5fb2757871","ios":"levelo://app?vid=8c1e3f91-0625-4f6f-ad01-1f5fb2757871"},"vehicle_type_id":"4","last_reported":1701536742,"current_range_meters":24800,"station_id":"ce4bhlh2rcd13ifvqgig","pricing_plan_id":"free"},{"bike_id":"7836fd84-aec4-4aa7-a629-7a9d72e7e012","system_id":"levelo_inurba_marseille","lat":43.246461,"lon":5.389014,"is_reserved":false,"is_disabled":false,"rental_uris":{"android":"levelo://app?vid=7836fd84-aec4-4aa7-a629-7a9d72e7e012","ios":"levelo://app?vid=7836fd84-aec4-4aa7-a629-7a9d72e7e012"},"vehicle_type_id":"4","last_reported":1701536742,"current_range_meters":21600,"station_id":"ce4bhg12rcd13ifvqf60","pricing_plan_id":"free"},{"bike_id":"27036a54-dc63-4fa5-b6ae-081f9e58f542","system_id":"levelo_inurba_marseille","lat":43.246467,"lon":5.388984,"is_reserved":false,"is_disabled":false,"rental_uris":{"android":"levelo://app?vid=27036a54-dc63-4fa5-b6ae-081f9e58f542","ios":"levelo://app?vid=27036a54-dc63-4fa5-b6ae-081f9e58f542"},"vehicle_type_id":"4","last_reported":1701536742,"current_range_meters":25200,"station_id":"ce4bhg12rcd13ifvqf60","pricing_plan_id":"free"},{"bike_id":"5e2525d2-97ba-4430-9d59-e21eba679f8b","system_id":"levelo_inurba_marseille","lat":43.243884,"lon":5.370737,"is_reserved":false,"is_disabled":false,"rental_uris":{"android":"levelo://app?vid=5e2525d2-97ba-4430-9d59-e21eba679f8b","ios":"levelo://app?vid=5e2525d2-97ba-4430-9d59-e21eba679f8b"},"vehicle_type_id":"4","last_reported":1701536742,"current_range_meters":27200,"station_id":"ce4bhhh2rcd13ifvqfk0","pricing_plan_id":"free"},{"bike_id":"f1b72691-285f-4e1f-897f-931672087f72","system_id":"levelo_inurba_marseille","lat":43.243884,"lon":5.370736,"is_reserved":false,"is_disabled":false,"rental_uris":{"android":"levelo://app?vid=f1b72691-285f-4e1f-897f-931672087f72","ios":"levelo://app?vid=f1b72691-285f-4e1f-897f-931672087f72"},"vehicle_type_id":"4","last_reported":1701536742,"current_range_meters":18800,"station_id":"ce4bhhh2rcd13ifvqfk0","pricing_plan_id":"free"},{"bike_id":"ada0aadf-ed1c-44ae-be81-695ed7b96fa8","system_id":"levelo_inurba_marseille","lat":43.240623,"lon":5.377642,"is_reserved":false,"is_disabled":false,"rental_uris":{"android":"levelo://app?vid=ada0aadf-ed1c-44ae-be81-695ed7b96fa8","ios":"levelo://app?vid=ada0aadf-ed1c-44ae-be81-695ed7b96fa8"},"vehicle_type_id":"4","last_reported":1701536742,"current_range_meters":8800,"station_id":"ce4bhnp2rcd13ifvqgvg","pricing_plan_id":"free"},{"bike_id":"253842fc-929c-41d1-9477-59c41002129c","system_id":"levelo_inurba_marseille","lat":43.239588,"lon":5.366238,"is_reserved":false,"is_disabled":false,"rental_uris":{"android":"levelo://app?vid=253842fc-929c-41d1-9477-59c41002129c","ios":"levelo://app?vid=253842fc-929c-41d1-9477-59c41002129c"},"vehicle_type_id":"4","last_reported":1701536742,"current_range_meters":28800,"station_id":"ce4bhi12rcd13ifvqfp0","pricing_plan_id":"free"},{"bike_id":"cbdc48ab-3827-42d6-a340-83fab12ae087","system_id":"levelo_inurba_marseille","lat":43.23965,"lon":5.3663,"is_reserved":false,"is_disabled":false,"rental_uris":{"android":"levelo://app?vid=cbdc48ab-3827-42d6-a340-83fab12ae087","ios":"levelo://app?vid=cbdc48ab-3827-42d6-a340-83fab12ae087"},"vehicle_type_id":"4","last_reported":1701536742,"current_range_meters":2400,"station_id":"ce4bhi12rcd13ifvqfp0","pricing_plan_id":"free"},{"bike_id":"3452a94e-ff8d-4ec6-81ce-87de2d2f7901","system_id":"levelo_inurba_marseille","lat":43.23958,"lon":5.36632,"is_reserved":false,"is_disabled":false,"rental_uris":{"android":"levelo://app?vid=3452a94e-ff8d-4ec6-81ce-87de2d2f7901","ios":"levelo://app?vid=3452a94e-ff8d-4ec6-81ce-87de2d2f7901"},"vehicle_type_id":"4","last_reported":1701536742,"current_range_meters":14400,"station_id":"ce4bhi12rcd13ifvqfp0","pricing_plan_id":"free"},{"bike_id":"b101f295-ac85-402a-8afe-c635c176f114","system_id":"levelo_inurba_marseille","lat":43.28527,"lon":5.46058,"is_reserved":false,"is_disabled":false,"rental_uris":{"android":"levelo://app?vid=b101f295-ac85-402a-8afe-c635c176f114","ios":"levelo://app?vid=b101f295-ac85-402a-8afe-c635c176f114"},"vehicle_type_id":"4","last_reported":1701536742,"current_range_meters":22800,"station_id":"","pricing_plan_id":"free"},{"bike_id":"dd365663-6076-46d3-98ec-f79fcb03f908","system_id":"levelo_inurba_marseille","lat":43.241782,"lon":5.397261,"is_reserved":false,"is_disabled":false,"rental_uris":{"android":"levelo://app?vid=dd365663-6076-46d3-98ec-f79fcb03f908","ios":"levelo://app?vid=dd365663-6076-46d3-98ec-f79fcb03f908"},"vehicle_type_id":"4","last_reported":1701536742,"current_range_meters":24800,"station_id":"ce4bhn12rcd13ifvqgpg","pricing_plan_id":"free"},{"bike_id":"6382809b-45d0-4ad2-8be7-697249f82077","system_id":"levelo_inurba_marseille","lat":43.231919,"lon":5.355532,"is_reserved":false,"is_disabled":false,"rental_uris":{"android":"levelo://app?vid=6382809b-45d0-4ad2-8be7-697249f82077","ios":"levelo://app?vid=6382809b-45d0-4ad2-8be7-697249f82077"},"vehicle_type_id":"4","last_reported":1701536742,"current_range_meters":31200,"station_id":"ce4bhu92rcd13ifvqi70","pricing_plan_id":"free"},{"bike_id":"e1e0ee00-25b6-4b3e-9528-4dc4d90295d8","system_id":"levelo_inurba_marseille","lat":43.231923,"lon":5.355545,"is_reserved":false,"is_disabled":false,"rental_uris":{"android":"levelo://app?vid=e1e0ee00-25b6-4b3e-9528-4dc4d90295d8","ios":"levelo://app?vid=e1e0ee00-25b6-4b3e-9528-4dc4d90295d8"},"vehicle_type_id":"4","last_reported":1701536742,"current_range_meters":9600,"station_id":"ce4bhu92rcd13ifvqi70","pricing_plan_id":"free"},{"bike_id":"4506c45e-2d09-462d-97b5-d051c36d1044","system_id":"levelo_inurba_marseille","lat":43.231919,"lon":5.355532,"is_reserved":false,"is_disabled":false,"rental_uris":{"android":"levelo://app?vid=4506c45e-2d09-462d-97b5-d051c36d1044","ios":"levelo://app?vid=4506c45e-2d09-462d-97b5-d051c36d1044"},"vehicle_type_id":"4","last_reported":1701536742,"current_range_meters":15600,"station_id":"ce4bhu92rcd13ifvqi70","pricing_plan_id":"free"},{"bike_id":"2b04708e-eed8-4471-916a-9fdeea01eec7","system_id":"levelo_inurba_marseille","lat":43.231923,"lon":5.355545,"is_reserved":false,"is_disabled":false,"rental_uris":{"android":"levelo://app?vid=2b04708e-eed8-4471-916a-9fdeea01eec7","ios":"levelo://app?vid=2b04708e-eed8-4471-916a-9fdeea01eec7"},"vehicle_type_id":"4","last_reported":1701536742,"current_range_meters":13600,"station_id":"ce4bhu92rcd13ifvqi70","pricing_plan_id":"free"},{"bike_id":"4dae0f2e-3beb-46e8-877b-0143e05c3e8e","system_id":"levelo_inurba_marseille","lat":43.231919,"lon":5.355532,"is_reserved":false,"is_disabled":false,"rental_uris":{"android":"levelo://app?vid=4dae0f2e-3beb-46e8-877b-0143e05c3e8e","ios":"levelo://app?vid=4dae0f2e-3beb-46e8-877b-0143e05c3e8e"},"vehicle_type_id":"4","last_reported":1701536742,"current_range_meters":0,"station_id":"ce4bhu92rcd13ifvqi70","pricing_plan_id":"free"},{"bike_id":"b8f295a9-10f8-4746-b4a0-4491480d1fc4","system_id":"levelo_inurba_marseille","lat":43.231919,"lon":5.355532,"is_reserved":false,"is_disabled":false,"rental_uris":{"android":"levelo://app?vid=b8f295a9-10f8-4746-b4a0-4491480d1fc4","ios":"levelo://app?vid=b8f295a9-10f8-4746-b4a0-4491480d1fc4"},"vehicle_type_id":"4","last_reported":1701536742,"current_range_meters":24000,"station_id":"ce4bhu92rcd13ifvqi70","pricing_plan_id":"free"},{"bike_id":"9e01ee59-41e6-425c-ae1f-3e33312fefcd","system_id":"levelo_inurba_marseille","lat":43.231923,"lon":5.355545,"is_reserved":false,"is_disabled":false,"rental_uris":{"android":"levelo://app?vid=9e01ee59-41e6-425c-ae1f-3e33312fefcd","ios":"levelo://app?vid=9e01ee59-41e6-425c-ae1f-3e33312fefcd"},"vehicle_type_id":"4","last_reported":1701536742,"current_range_meters":20000,"station_id":"ce4bhu92rcd13ifvqi70","pricing_plan_id":"free"},{"bike_id":"cf3102c4-88e0-4a41-86b7-69a76932d3e6","system_id":"levelo_inurba_marseille","lat":43.231923,"lon":5.355545,"is_reserved":false,"is_disabled":false,"rental_uris":{"android":"levelo://app?vid=cf3102c4-88e0-4a41-86b7-69a76932d3e6","ios":"levelo://app?vid=cf3102c4-88e0-4a41-86b7-69a76932d3e6"},"vehicle_type_id":"4","last_reported":1701536742,"current_range_meters":31200,"station_id":"ce4bhu92rcd13ifvqi70","pricing_plan_id":"free"},{"bike_id":"4e176977-ccb9-4a01-b3da-279fd61eadf6","system_id":"levelo_inurba_marseille","lat":43.231919,"lon":5.355532,"is_reserved":false,"is_disabled":false,"rental_uris":{"android":"levelo://app?vid=4e176977-ccb9-4a01-b3da-279fd61eadf6","ios":"levelo://app?vid=4e176977-ccb9-4a01-b3da-279fd61eadf6"},"vehicle_type_id":"4","last_reported":1701536742,"current_range_meters":22400,"station_id":"ce4bhu92rcd13ifvqi70","pricing_plan_id":"free"},{"bike_id":"6462fbc5-ceb8-47e3-b56d-fc1e69bef19f","system_id":"levelo_inurba_marseille","lat":43.231919,"lon":5.355532,"is_reserved":false,"is_disabled":false,"rental_uris":{"android":"levelo://app?vid=6462fbc5-ceb8-47e3-b56d-fc1e69bef19f","ios":"levelo://app?vid=6462fbc5-ceb8-47e3-b56d-fc1e69bef19f"},"vehicle_type_id":"4","last_reported":1701536742,"current_range_meters":29200,"station_id":"ce4bhu92rcd13ifvqi70","pricing_plan_id":"free"},{"bike_id":"177a82e2-68da-4975-a68b-b32649f3d1f2","system_id":"levelo_inurba_marseille","lat":43.231923,"lon":5.355545,"is_reserved":false,"is_disabled":false,"rental_uris":{"android":"levelo://app?vid=177a82e2-68da-4975-a68b-b32649f3d1f2","ios":"levelo://app?vid=177a82e2-68da-4975-a68b-b32649f3d1f2"},"vehicle_type_id":"4","last_reported":1701536742,"current_range_meters":13200,"station_id":"ce4bhu92rcd13ifvqi70","pricing_plan_id":"free"},{"bike_id":"88cf855f-bb31-40e0-8afc-686df3c193ab","system_id":"levelo_inurba_marseille","lat":43.231794,"lon":5.400052,"is_reserved":false,"is_disabled":false,"rental_uris":{"android":"levelo://app?vid=88cf855f-bb31-40e0-8afc-686df3c193ab","ios":"levelo://app?vid=88cf855f-bb31-40e0-8afc-686df3c193ab"},"vehicle_type_id":"4","last_reported":1701536742,"current_range_meters":28800,"station_id":"ce4bhn12rcd13ifvqgqg","pricing_plan_id":"free"},{"bike_id":"a926f4bb-1e59-4822-80ea-1d5ff6f2a5c5","system_id":"levelo_inurba_marseille","lat":43.23194,"lon":5.399805,"is_reserved":false,"is_disabled":false,"rental_uris":{"android":"levelo://app?vid=a926f4bb-1e59-4822-80ea-1d5ff6f2a5c5","ios":"levelo://app?vid=a926f4bb-1e59-4822-80ea-1d5ff6f2a5c5"},"vehicle_type_id":"4","last_reported":1701536742,"current_range_meters":18400,"station_id":"ce4bhn12rcd13ifvqgqg","pricing_plan_id":"free"},{"bike_id":"d0b35396-6769-42d4-8160-8b44cb829902","system_id":"levelo_inurba_marseille","lat":43.23193,"lon":5.39983,"is_reserved":false,"is_disabled":false,"rental_uris":{"android":"levelo://app?vid=d0b35396-6769-42d4-8160-8b44cb829902","ios":"levelo://app?vid=d0b35396-6769-42d4-8160-8b44cb829902"},"vehicle_type_id":"4","last_reported":1701536742,"current_range_meters":31200,"station_id":"ce4bhn12rcd13ifvqgqg","pricing_plan_id":"free"},{"bike_id":"22bd98e3-c33f-4c44-ae2b-f96729d36f4f","system_id":"levelo_inurba_marseille","lat":43.231793,"lon":5.400044,"is_reserved":false,"is_disabled":false,"rental_uris":{"android":"levelo://app?vid=22bd98e3-c33f-4c44-ae2b-f96729d36f4f","ios":"levelo://app?vid=22bd98e3-c33f-4c44-ae2b-f96729d36f4f"},"vehicle_type_id":"4","last_reported":1701536742,"current_range_meters":30000,"station_id":"ce4bhn12rcd13ifvqgqg","pricing_plan_id":"free"},{"bike_id":"6bd9f065-50d9-4657-9ca0-a006f413d305","system_id":"levelo_inurba_marseille","lat":43.231794,"lon":5.400052,"is_reserved":false,"is_disabled":false,"rental_uris":{"android":"levelo://app?vid=6bd9f065-50d9-4657-9ca0-a006f413d305","ios":"levelo://app?vid=6bd9f065-50d9-4657-9ca0-a006f413d305"},"vehicle_type_id":"4","last_reported":1701536742,"current_range_meters":31200,"station_id":"ce4bhn12rcd13ifvqgqg","pricing_plan_id":"free"},{"bike_id":"457c552c-8af5-4b7b-9f6b-8c901265a623","system_id":"levelo_inurba_marseille","lat":43.23188,"lon":5.39989,"is_reserved":false,"is_disabled":false,"rental_uris":{"android":"levelo://app?vid=457c552c-8af5-4b7b-9f6b-8c901265a623","ios":"levelo://app?vid=457c552c-8af5-4b7b-9f6b-8c901265a623"},"vehicle_type_id":"4","last_reported":1701536742,"current_range_meters":31200,"station_id":"ce4bhn12rcd13ifvqgqg","pricing_plan_id":"free"},{"bike_id":"27852c29-47dc-4826-817e-c88bd3a0386e","system_id":"levelo_inurba_marseille","lat":43.231868,"lon":5.399889,"is_reserved":false,"is_disabled":false,"rental_uris":{"android":"levelo://app?vid=27852c29-47dc-4826-817e-c88bd3a0386e","ios":"levelo://app?vid=27852c29-47dc-4826-817e-c88bd3a0386e"},"vehicle_type_id":"4","last_reported":1701536742,"current_range_meters":22000,"station_id":"ce4bhn12rcd13ifvqgqg","pricing_plan_id":"free"},{"bike_id":"78f53433-040f-4233-aa84-06b0d095f95e","system_id":"levelo_inurba_marseille","lat":43.231794,"lon":5.400052,"is_reserved":false,"is_disabled":false,"rental_uris":{"android":"levelo://app?vid=78f53433-040f-4233-aa84-06b0d095f95e","ios":"levelo://app?vid=78f53433-040f-4233-aa84-06b0d095f95e"},"vehicle_type_id":"4","last_reported":1701536742,"current_range_meters":27200,"station_id":"ce4bhn12rcd13ifvqgqg","pricing_plan_id":"free"},{"bike_id":"83862a0a-d647-45eb-9884-693fce6366ab","system_id":"levelo_inurba_marseille","lat":43.23186,"lon":5.39986,"is_reserved":false,"is_disabled":false,"rental_uris":{"android":"levelo://app?vid=83862a0a-d647-45eb-9884-693fce6366ab","ios":"levelo://app?vid=83862a0a-d647-45eb-9884-693fce6366ab"},"vehicle_type_id":"4","last_reported":1701536742,"current_range_meters":18000,"station_id":"ce4bhn12rcd13ifvqgqg","pricing_plan_id":"free"},{"bike_id":"77b1a551-da7f-429a-980e-bfc6767a5958","system_id":"levelo_inurba_marseille","lat":43.231794,"lon":5.400052,"is_reserved":false,"is_disabled":false,"rental_uris":{"android":"levelo://app?vid=77b1a551-da7f-429a-980e-bfc6767a5958","ios":"levelo://app?vid=77b1a551-da7f-429a-980e-bfc6767a5958"},"vehicle_type_id":"4","last_reported":1701536742,"current_range_meters":31200,"station_id":"ce4bhn12rcd13ifvqgqg","pricing_plan_id":"free"},{"bike_id":"6c2dc1c9-372c-445d-814a-4d69ce499bdb","system_id":"levelo_inurba_marseille","lat":43.2318,"lon":5.39996,"is_reserved":false,"is_disabled":false,"rental_uris":{"android":"levelo://app?vid=6c2dc1c9-372c-445d-814a-4d69ce499bdb","ios":"levelo://app?vid=6c2dc1c9-372c-445d-814a-4d69ce499bdb"},"vehicle_type_id":"4","last_reported":1701536742,"current_range_meters":0,"station_id":"ce4bhn12rcd13ifvqgqg","pricing_plan_id":"free"},{"bike_id":"f3e5dbd0-38d3-4385-bdb9-5e5e49538664","system_id":"levelo_inurba_marseille","lat":43.23177,"lon":5.39992,"is_reserved":false,"is_disabled":false,"rental_uris":{"android":"levelo://app?vid=f3e5dbd0-38d3-4385-bdb9-5e5e49538664","ios":"levelo://app?vid=f3e5dbd0-38d3-4385-bdb9-5e5e49538664"},"vehicle_type_id":"4","last_reported":1701536742,"current_range_meters":6000,"station_id":"ce4bhn12rcd13ifvqgqg","pricing_plan_id":"free"},{"bike_id":"f50c292b-cc74-4220-88ff-ce7e4d6e67ca","system_id":"levelo_inurba_marseille","lat":43.231562,"lon":5.436933,"is_reserved":false,"is_disabled":false,"rental_uris":{"android":"levelo://app?vid=f50c292b-cc74-4220-88ff-ce7e4d6e67ca","ios":"levelo://app?vid=f50c292b-cc74-4220-88ff-ce7e4d6e67ca"},"vehicle_type_id":"4","last_reported":1701536742,"current_range_meters":30400,"station_id":"ce4bhmp2rcd13ifvqgog","pricing_plan_id":"free"}]}}