{"last_updated":1736428614,"ttl":60,"version":"2.2","data":{"bikes":[{"bike_id":"502ea0ff-d435-4e36-ba3d-0d03eaa55dbc","system_id":"levelo_inurba_marseille","lat":43.298,"lon":5.38093,"is_reserved":false,"is_disabled":false,"rental_uris":{"android":"levelo://app?vid=502ea0ff-d435-4e36-ba3d-0d03eaa55dbc","ios":"levelo://app?vid=502ea0ff-d435-4e36-ba3d-0d03eaa55dbc"},"vehicle_type_id":"4","last_reported":1736428614,"current_range_meters":32400,"station_id":"ce4bgip2rcd13ifvqbb0","pricing_plan_id":"cebpf4jnsgd1na2vs0mg"},{"bike_id":"dd9e4985-c802-454b-a5ad-227d583dd231","system_id":"levelo_inurba_marseille","lat":43.22943,"lon":5.35378,"is_reserved":false,"is_disabled":false,"rental_uris":{"android":"levelo://app?vid=dd9e4985-c802-454b-a5ad-227d583dd231","ios":"levelo://app?vid=dd9e4985-c802-454b-a5ad-227d583dd231"},"vehicle_type_id":"4","last_reported":1736428614,"current_range_meters":19200,"station_id":"cpo3532slgdg3j2ikp40","pricing_plan_id":"cebpf4jnsgd1na2vs0mg"},{"bike_id":"e4d80df9-b243-42a0-8bb6-bc679da78bfc","system_id":"levelo_inurba_marseille","lat":43.30909,"lon":5.40142,"is_reserved":false,"is_disabled":false,"rental_uris":{"android":"levelo://app?vid=e4d80df9-b243-42a0-8bb6-bc679da78bfc","ios":"levelo://app?vid=e4d80df9-b243-42a0-8bb6-bc679da78bfc"},"vehicle_type_id":"4","last_reported":1736428614,"current_range_meters":30400,"station_id":"ce4bgvp2rcd13ifvqct0","pricing_plan_id":"cebpf4jnsgd1na2vs0mg"},{"bike_id":"3d4cf351-e861-4a0a-aa76-5e2a06bb0d14","system_id":"levelo_inurba_marseille","lat":43.26942,"lon":5.3866,"is_reserved":false,"is_disabled":false,"rental_uris":{"android":"levelo://app?vid=3d4cf351-e861-4a0a-aa76-5e2a06bb0d14","ios":"levelo://app?vid=3d4cf351-e861-4a0a-aa76-5e2a06bb0d14"},"vehicle_type_id":"4","last_reported":1736428614,"current_range_meters":24400,"station_id":"ce4bhh92rcd13ifvqfh0","pricing_plan_id":"cebpf4jnsgd1na2vs0mg"},{"bike_id":"bd79f785-a877-4813-8d8f-22c9692def75","system_id":"levelo_inurba_marseille","lat":43.30538,"lon":5.36709,"is_reserved":false,"is_disabled":false,"rental_uris":{"android":"levelo://app?vid=bd79f785-a877-4813-8d8f-22c9692def75","ios":"levelo://app?vid=bd79f785-a877-4813-8d8f-22c9692def75"},"vehicle_type_id":"4","last_reported":1736428614,"current_range_meters":38800,"station_id":"ce4bgrp2rcd13ifvqc9g","pricing_plan_id":"cebpf4jnsgd1na2vs0mg"},{"bike_id":"079a2489-d193-414b-8b47-82e93bfb4b65","system_id":"levelo_inurba_marseille","lat":43.288963,"lon":5.380069,"is_reserved":false,"is_disabled":false,"rental_uris":{"android":"levelo://app?vid=079a2489-d193-414b-8b47-82e93bfb4b65","ios":"levelo://app?vid=079a2489-d193-414b-8b47-82e93bfb4b65"},"vehicle_type_id":"4","last_reported":1736428614,"current_range_meters":32800,"station_id":"","pricing_plan_id":"cebpf4jnsgd1na2vs0mg"},{"bike_id":"38b313e7-9a2f-452f-bdb8-d453ae7237a3","system_id":"levelo_inurba_marseille","lat":43.275,"lon":5.4245,"is_reserved":false,"is_disabled":false,"rental_uris":{"android":"levelo://app?vid=38b313e7-9a2f-452f-bdb8-d453ae7237a3","ios":"levelo://app?vid=38b313e7-9a2f-452f-bdb8-d453ae7237a3"},"vehicle_type_id":"4","last_reported":1736428614,"current_range_meters":38400,"station_id":"ce4bhn92rcd13ifvqgrg","pricing_plan_id":"cebpf4jnsgd1na2vs0mg"},{"bike_id":"4db8df72-e91e-4df3-bbfd-430afaeb23e0","system_id":"levelo_inurba_marseille","lat":43.26957,"lon":5.38632,"is_reserved":false,"is_disabled":false,"rental_uris":{"android":"levelo://app?vid=4db8df72-e91e-4df3-bbfd-430afaeb23e0","ios":"levelo://app?vid=4db8df72-e91e-4df3-bbfd-430afaeb23e0"},"vehicle_type_id":"4","last_reported":1736428614,"current_range_meters":39200,"station_id":"ce4bhh92rcd13ifvqfh0","pricing_plan_id":"cebpf4jnsgd1na2vs0mg"},{"bike_id":"d449355c-3fa2-4785-bb0b-c93bac5f2186","system_id":"levelo_inurba_marseille","lat":43.3015,"lon":5.38769,"is_reserved":false,"is_disabled":false,"rental_uris":{"android":"levelo://app?vid=d449355c-3fa2-4785-bb0b-c93bac5f2186","ios":"levelo://app?vid=d449355c-3fa2-4785-bb0b-c93bac5f2186"},"vehicle_type_id":"4","last_reported":1736428614,"current_range_meters":29600,"station_id":"ce4bghh2rcd13ifvqb60","pricing_plan_id":"cebpf4jnsgd1na2vs0mg"},{"bike_id":"c25da445-2bd6-4668-92d8-67b9db836116","system_id":"levelo_inurba_marseille","lat":43.30599,"lon":5.37224,"is_reserved":false,"is_disabled":false,"rental_uris":{"android":"levelo://app?vid=c25da445-2bd6-4668-92d8-67b9db836116","ios":"levelo://app?vid=c25da445-2bd6-4668-92d8-67b9db836116"},"vehicle_type_id":"4","last_reported":1736428614,"current_range_meters":38800,"station_id":"ce4bgqh2rcd13ifvqc4g","pricing_plan_id":"cebpf4jnsgd1na2vs0mg"},{"bike_id":"04ec267b-172c-4ae8-9840-d2882657cc57","system_id":"levelo_inurba_marseille","lat":43.27484,"lon":5.42447,"is_reserved":false,"is_disabled":false,"rental_uris":{"android":"levelo://app?vid=04ec267b-172c-4ae8-9840-d2882657cc57","ios":"levelo://app?vid=04ec267b-172c-4ae8-9840-d2882657cc57"},"vehicle_type_id":"4","last_reported":1736428614,"current_range_meters":33600,"station_id":"ce4bhn92rcd13ifvqgrg","pricing_plan_id":"cebpf4jnsgd1na2vs0mg"},{"bike_id":"051ee3d7-17a2-401e-9bd5-08261edf66ab","system_id":"levelo_inurba_marseille","lat":43.25942,"lon":5.40921,"is_reserved":false,"is_disabled":false,"rental_uris":{"android":"levelo://app?vid=051ee3d7-17a2-401e-9bd5-08261edf66ab","ios":"levelo://app?vid=051ee3d7-17a2-401e-9bd5-08261edf66ab"},"vehicle_type_id":"4","last_reported":1736428614,"current_range_meters":22400,"station_id":"ce4bhm92rcd13ifvqglg","pricing_plan_id":"cebpf4jnsgd1na2vs0mg"},{"bike_id":"bf887147-63c1-446c-9415-5e82581b5a97","system_id":"levelo_inurba_marseille","lat":43.30264,"lon":5.37738,"is_reserved":false,"is_disabled":false,"rental_uris":{"android":"levelo://app?vid=bf887147-63c1-446c-9415-5e82581b5a97","ios":"levelo://app?vid=bf887147-63c1-446c-9415-5e82581b5a97"},"vehicle_type_id":"4","last_reported":1736428614,"current_range_meters":39200,"station_id":"ce4bguh2rcd13ifvqcj0","pricing_plan_id":"cebpf4jnsgd1na2vs0mg"},{"bike_id":"6a388891-a8a3-4c55-81a7-db6eace9c423","system_id":"levelo_inurba_marseille","lat":43.27206,"lon":5.3918,"is_reserved":false,"is_disabled":false,"rental_uris":{"android":"levelo://app?vid=6a388891-a8a3-4c55-81a7-db6eace9c423","ios":"levelo://app?vid=6a388891-a8a3-4c55-81a7-db6eace9c423"},"vehicle_type_id":"4","last_reported":1736428614,"current_range_meters":18000,"station_id":"ce4bhhp2rcd13ifvqfm0","pricing_plan_id":"cebpf4jnsgd1na2vs0mg"},{"bike_id":"d544f307-b602-457b-9165-38a51eab1d91","system_id":"levelo_inurba_marseille","lat":43.30301,"lon":5.39213,"is_reserved":false,"is_disabled":false,"rental_uris":{"android":"levelo://app?vid=d544f307-b602-457b-9165-38a51eab1d91","ios":"levelo://app?vid=d544f307-b602-457b-9165-38a51eab1d91"},"vehicle_type_id":"4","last_reported":1736428614,"current_range_meters":38800,"station_id":"ce4bgkh2rcd13ifvqbk0","pricing_plan_id":"cebpf4jnsgd1na2vs0mg"},{"bike_id":"ece82557-6569-4215-9027-5b44a37fe52e","system_id":"levelo_inurba_marseille","lat":43.29086,"lon":5.38019,"is_reserved":false,"is_disabled":true,"rental_uris":{"android":"levelo://app?vid=ece82557-6569-4215-9027-5b44a37fe52e","ios":"levelo://app?vid=ece82557-6569-4215-9027-5b44a37fe52e"},"vehicle_type_id":"4","last_reported":1736428614,"current_range_meters":0,"station_id":"","pricing_plan_id":"cebpf4jnsgd1na2vs0mg"},{"bike_id":"27867ec6-dc38-4e93-906a-9fa049ef4236","system_id":"levelo_inurba_marseille","lat":43.30542,"lon":5.36715,"is_reserved":false,"is_disabled":false,"rental_uris":{"android":"levelo://app?vid=27867ec6-dc38-4e93-906a-9fa049ef4236","ios":"levelo://app?vid=27867ec6-dc38-4e93-906a-9fa049ef4236"},"vehicle_type_id":"4","last_reported":1736428614,"current_range_meters":38800,"station_id":"ce4bgrp2rcd13ifvqc9g","pricing_plan_id":"cebpf4jnsgd1na2vs0mg"},{"bike_id":"dcf1ef89-c84d-46fc-8e95-d52a8bcf65ff","system_id":"levelo_inurba_marseille","lat":43.29411,"lon":5.38622,"is_reserved":false,"is_disabled":false,"rental_uris":{"android":"levelo://app?vid=dcf1ef89-c84d-46fc-8e95-d52a8bcf65ff","ios":"levelo://app?vid=dcf1ef89-c84d-46fc-8e95-d52a8bcf65ff"},"vehicle_type_id":"4","last_reported":1736428614,"current_range_meters":16800,"station_id":"ce4bh2h2rcd13ifvqdh0","pricing_plan_id":"cebpf4jnsgd1na2vs0mg"},{"bike_id":"f4256393-3a4a-431c-a5ee-1a5b389117d2","system_id":"levelo_inurba_marseille","lat":43.25572,"lon":5.40922,"is_reserved":false,"is_disabled":false,"rental_uris":{"android":"levelo://app?vid=f4256393-3a4a-431c-a5ee-1a5b389117d2","ios":"levelo://app?vid=f4256393-3a4a-431c-a5ee-1a5b389117d2"},"vehicle_type_id":"4","last_reported":1736428614,"current_range_meters":22000,"station_id":"","pricing_plan_id":"cebpf4jnsgd1na2vs0mg"},{"bike_id":"8a7e5dc1-965d-446d-b14a-4d1d49fc914c","system_id":"levelo_inurba_marseille","lat":43.29807,"lon":5.38089,"is_reserved":false,"is_disabled":false,"rental_uris":{"android":"levelo://app?vid=8a7e5dc1-965d-446d-b14a-4d1d49fc914c","ios":"levelo://app?vid=8a7e5dc1-965d-446d-b14a-4d1d49fc914c"},"vehicle_type_id":"4","last_reported":1736428614,"current_range_meters":27200,"station_id":"ce4bgip2rcd13ifvqbb0","pricing_plan_id":"cebpf4jnsgd1na2vs0mg"},{"bike_id":"7119dada-9f0f-4c87-a172-b208226f68b9","system_id":"levelo_inurba_marseille","lat":43.2418,"lon":5.39725,"is_reserved":false,"is_disabled":false,"rental_uris":{"android":"levelo://app?vid=7119dada-9f0f-4c87-a172-b208226f68b9","ios":"levelo://app?vid=7119dada-9f0f-4c87-a172-b208226f68b9"},"vehicle_type_id":"4","last_reported":1736428614,"current_range_meters":6000,"station_id":"ce4bhn12rcd13ifvqgpg","pricing_plan_id":"cebpf4jnsgd1na2vs0mg"},{"bike_id":"269e3f58-dd4c-495c-a072-9614a2e0d44a","system_id":"levelo_inurba_marseille","lat":43.30948,"lon":5.39056,"is_reserved":false,"is_disabled":false,"rental_uris":{"android":"levelo://app?vid=269e3f58-dd4c-495c-a072-9614a2e0d44a","ios":"levelo://app?vid=269e3f58-dd4c-495c-a072-9614a2e0d44a"},"vehicle_type_id":"4","last_reported":1736428614,"current_range_meters":35600,"station_id":"ce4bgup2rcd13ifvqco0","pricing_plan_id":"cebpf4jnsgd1na2vs0mg"},{"bike_id":"004c2ac5-7f25-4e48-8a80-9a02537f6ba6","system_id":"levelo_inurba_marseille","lat":43.32114,"lon":5.36781,"is_reserved":false,"is_disabled":false,"rental_uris":{"android":"levelo://app?vid=004c2ac5-7f25-4e48-8a80-9a02537f6ba6","ios":"levelo://app?vid=004c2ac5-7f25-4e48-8a80-9a02537f6ba6"},"vehicle_type_id":"4","last_reported":1736428614,"current_range_meters":12400,"station_id":"ce4bhrh2rcd13ifvqhug","pricing_plan_id":"cebpf4jnsgd1na2vs0mg"},{"bike_id":"f1e6581d-2217-4498-9d8f-4611572bd581","system_id":"levelo_inurba_marseille","lat":43.27302,"lon":5.39105,"is_reserved":false,"is_disabled":false,"rental_uris":{"android":"levelo://app?vid=f1e6581d-2217-4498-9d8f-4611572bd581","ios":"levelo://app?vid=f1e6581d-2217-4498-9d8f-4611572bd581"},"vehicle_type_id":"4","last_reported":1736428614,"current_range_meters":19200,"station_id":"ce4bhgp2rcd13ifvqfe0","pricing_plan_id":"cebpf4jnsgd1na2vs0mg"},{"bike_id":"acf3df7b-f083-4692-997a-4f534a4a5e66","system_id":"levelo_inurba_marseille","lat":43.28749,"lon":5.37896,"is_reserved":false,"is_disabled":false,"rental_uris":{"android":"levelo://app?vid=acf3df7b-f083-4692-997a-4f534a4a5e66","ios":"levelo://app?vid=acf3df7b-f083-4692-997a-4f534a4a5e66"},"vehicle_type_id":"4","last_reported":1736428614,"current_range_meters":31200,"station_id":"ce4bh9p2rcd13ifvqec0","pricing_plan_id":"cebpf4jnsgd1na2vs0mg"},{"bike_id":"99ed20f4-03db-4a39-a00a-188ecb3fb63a","system_id":"levelo_inurba_marseille","lat":43.23154,"lon":5.43704,"is_reserved":false,"is_disabled":false,"rental_uris":{"android":"levelo://app?vid=99ed20f4-03db-4a39-a00a-188ecb3fb63a","ios":"levelo://app?vid=99ed20f4-03db-4a39-a00a-188ecb3fb63a"},"vehicle_type_id":"4","last_reported":1736428614,"current_range_meters":38800,"station_id":"ce4bhmp2rcd13ifvqgog","pricing_plan_id":"cebpf4jnsgd1na2vs0mg"},{"bike_id":"a092e852-192b-406b-b576-cf3b1c245cdb","system_id":"levelo_inurba_marseille","lat":43.24662,"lon":5.38164,"is_reserved":false,"is_disabled":false,"rental_uris":{"android":"levelo://app?vid=a092e852-192b-406b-b576-cf3b1c245cdb","ios":"levelo://app?vid=a092e852-192b-406b-b576-cf3b1c245cdb"},"vehicle_type_id":"4","last_reported":1736428614,"current_range_meters":14800,"station_id":"ce4bhih2rcd13ifvqfr0","pricing_plan_id":"cebpf4jnsgd1na2vs0mg"},{"bike_id":"8716db54-126d-408a-8960-149e8432745d","system_id":"levelo_inurba_marseille","lat":43.2593,"lon":5.40895,"is_reserved":false,"is_disabled":false,"rental_uris":{"android":"levelo://app?vid=8716db54-126d-408a-8960-149e8432745d","ios":"levelo://app?vid=8716db54-126d-408a-8960-149e8432745d"},"vehicle_type_id":"4","last_reported":1736428614,"current_range_meters":34800,"station_id":"ce4bhm92rcd13ifvqglg","pricing_plan_id":"cebpf4jnsgd1na2vs0mg"},{"bike_id":"914fd059-461c-4822-8fc2-a58c80fb5624","system_id":"levelo_inurba_marseille","lat":43.29755,"lon":5.37674,"is_reserved":false,"is_disabled":false,"rental_uris":{"android":"levelo://app?vid=914fd059-461c-4822-8fc2-a58c80fb5624","ios":"levelo://app?vid=914fd059-461c-4822-8fc2-a58c80fb5624"},"vehicle_type_id":"4","last_reported":1736428614,"current_range_meters":2800,"station_id":"ce4bgkh2rcd13ifvqbl0","pricing_plan_id":"cebpf4jnsgd1na2vs0mg"},{"bike_id":"c75d4175-c9eb-4dc6-a6fe-60d1e39a072b","system_id":"levelo_inurba_marseille","lat":43.2742,"lon":5.39412,"is_reserved":false,"is_disabled":false,"rental_uris":{"android":"levelo://app?vid=c75d4175-c9eb-4dc6-a6fe-60d1e39a072b","ios":"levelo://app?vid=c75d4175-c9eb-4dc6-a6fe-60d1e39a072b"},"vehicle_type_id":"4","last_reported":1736428614,"current_range_meters":32400,"station_id":"ce4bhdp2rcd13ifvqf20","pricing_plan_id":"cebpf4jnsgd1na2vs0mg"},{"bike_id":"c59c87e6-421d-4251-89bb-d94aa90ce9ad","system_id":"levelo_inurba_marseille","lat":43.23149,"lon":5.43713,"is_reserved":false,"is_disabled":false,"rental_uris":{"android":"levelo://app?vid=c59c87e6-421d-4251-89bb-d94aa90ce9ad","ios":"levelo://app?vid=c59c87e6-421d-4251-89bb-d94aa90ce9ad"},"vehicle_type_id":"4","last_reported":1736428614,"current_range_meters":38800,"station_id":"ce4bhmp2rcd13ifvqgog","pricing_plan_id":"cebpf4jnsgd1na2vs0mg"},{"bike_id":"28124403-4641-4134-9690-2e14fdffce01","system_id":"levelo_inurba_marseille","lat":43.29685,"lon":5.37299,"is_reserved":false,"is_disabled":false,"rental_uris":{"android":"levelo://app?vid=28124403-4641-4134-9690-2e14fdffce01","ios":"levelo://app?vid=28124403-4641-4134-9690-2e14fdffce01"},"vehicle_type_id":"4","last_reported":1736428614,"current_range_meters":38000,"station_id":"ce4bgk12rcd13ifvqbj0","pricing_plan_id":"cebpf4jnsgd1na2vs0mg"},{"bike_id":"50f8ee15-cb32-4521-b4fa-58b41ff9f783","system_id":"levelo_inurba_marseille","lat":43.27489,"lon":5.42452,"is_reserved":false,"is_disabled":false,"rental_uris":{"android":"levelo://app?vid=50f8ee15-cb32-4521-b4fa-58b41ff9f783","ios":"levelo://app?vid=50f8ee15-cb32-4521-b4fa-58b41ff9f783"},"vehicle_type_id":"4","last_reported":1736428614,"current_range_meters":19200,"station_id":"ce4bhn92rcd13ifvqgrg","pricing_plan_id":"cebpf4jnsgd1na2vs0mg"},{"bike_id":"1993da4c-22e5-43ae-a5b2-f5be3ed8f937","system_id":"levelo_inurba_marseille","lat":43.33603,"lon":5.41034,"is_reserved":false,"is_disabled":false,"rental_uris":{"android":"levelo://app?vid=1993da4c-22e5-43ae-a5b2-f5be3ed8f937","ios":"levelo://app?vid=1993da4c-22e5-43ae-a5b2-f5be3ed8f937"},"vehicle_type_id":"4","last_reported":1736428614,"current_range_meters":31200,"station_id":"ce4bhqh2rcd13ifvqhmg","pricing_plan_id":"cebpf4jnsgd1na2vs0mg"},{"bike_id":"6fa4a0b7-3bc7-4cab-82aa-608d21b68d70","system_id":"levelo_inurba_marseille","lat":43.33005,"lon":5.3907,"is_reserved":false,"is_disabled":false,"rental_uris":{"android":"levelo://app?vid=6fa4a0b7-3bc7-4cab-82aa-608d21b68d70","ios":"levelo://app?vid=6fa4a0b7-3bc7-4cab-82aa-608d21b68d70"},"vehicle_type_id":"4","last_reported":1736428614,"current_range_meters":37600,"station_id":"ce4bhr92rcd13ifvqhrg","pricing_plan_id":"cebpf4jnsgd1na2vs0mg"},{"bike_id":"1ddb9a9e-3843-4e4c-a499-4810817c9bef","system_id":"levelo_inurba_marseille","lat":43.27493,"lon":5.42451,"is_reserved":false,"is_disabled":false,"rental_uris":{"android":"levelo://app?vid=1ddb9a9e-3843-4e4c-a499-4810817c9bef","ios":"levelo://app?vid=1ddb9a9e-3843-4e4c-a499-4810817c9bef"},"vehicle_type_id":"4","last_reported":1736428614,"current_range_meters":18800,"station_id":"ce4bhn92rcd13ifvqgrg","pricing_plan_id":"cebpf4jnsgd1na2vs0mg"},{"bike_id":"67eebbdd-1551-4992-9741-a866f96bf22f","system_id":"levelo_inurba_marseille","lat":43.28358,"lon":5.38118,"is_reserved":false,"is_disabled":false,"rental_uris":{"android":"levelo://app?vid=67eebbdd-1551-4992-9741-a866f96bf22f","ios":"levelo://app?vid=67eebbdd-1551-4992-9741-a866f96bf22f"},"vehicle_type_id":"4","last_reported":1736428614,"current_range_meters":9200,"station_id":"ce4bh412rcd13ifvqdr0","pricing_plan_id":"cebpf4jnsgd1na2vs0mg"},{"bike_id":"7dbfaf48-d8ed-490a-9aa7-fe6e528a238b","system_id":"levelo_inurba_marseille","lat":43.29307,"lon":5.37186,"is_reserved":false,"is_disabled":false,"rental_uris":{"android":"levelo://app?vid=7dbfaf48-d8ed-490a-9aa7-fe6e528a238b","ios":"levelo://app?vid=7dbfaf48-d8ed-490a-9aa7-fe6e528a238b"},"vehicle_type_id":"4","last_reported":1736428614,"current_range_meters":29600,"station_id":"ce4bgh92rcd13ifvqb40","pricing_plan_id":"cebpf4jnsgd1na2vs0mg"},{"bike_id":"86a34a90-c113-4686-8d24-6b16fb9cdabf","system_id":"levelo_inurba_marseille","lat":43.28984,"lon":5.37847,"is_reserved":false,"is_disabled":false,"rental_uris":{"android":"levelo://app?vid=86a34a90-c113-4686-8d24-6b16fb9cdabf","ios":"levelo://app?vid=86a34a90-c113-4686-8d24-6b16fb9cdabf"},"vehicle_type_id":"4","last_reported":1736428614,"current_range_meters":39200,"station_id":"ce4bh9p2rcd13ifvqed0","pricing_plan_id":"cebpf4jnsgd1na2vs0mg"},{"bike_id":"64b15e4f-4089-45af-9b53-9a7fa82abf72","system_id":"levelo_inurba_marseille","lat":43.28428,"lon":5.34992,"is_reserved":false,"is_disabled":false,"rental_uris":{"android":"levelo://app?vid=64b15e4f-4089-45af-9b53-9a7fa82abf72","ios":"levelo://app?vid=64b15e4f-4089-45af-9b53-9a7fa82abf72"},"vehicle_type_id":"4","last_reported":1736428614,"current_range_meters":6400,"station_id":"ce4bhbh2rcd13ifvqepg","pricing_plan_id":"cebpf4jnsgd1na2vs0mg"},{"bike_id":"feeeae9a-4bcc-477a-bc8c-e9391fa8aedd","system_id":"levelo_inurba_marseille","lat":43.29179,"lon":5.39301,"is_reserved":false,"is_disabled":true,"rental_uris":{"android":"levelo://app?vid=feeeae9a-4bcc-477a-bc8c-e9391fa8aedd","ios":"levelo://app?vid=feeeae9a-4bcc-477a-bc8c-e9391fa8aedd"},"vehicle_type_id":"4","last_reported":1736428614,"current_range_meters":0,"station_id":"ce4bh192rcd13ifvqdd0","pricing_plan_id":"cebpf4jnsgd1na2vs0mg"},{"bike_id":"bbb42691-618e-438b-93dc-2acd2c34e075","system_id":"levelo_inurba_marseille","lat":43.307964,"lon":5.43528,"is_reserved":false,"is_disabled":false,"rental_uris":{"android":"levelo://app?vid=bbb42691-618e-438b-93dc-2acd2c34e075","ios":"levelo://app?vid=bbb42691-618e-438b-93dc-2acd2c34e075"},"vehicle_type_id":"4","last_reported":1736428614,"current_range_meters":38800,"station_id":"ce4bhph2rcd13ifvqheg","pricing_plan_id":"cebpf4jnsgd1na2vs0mg"},{"bike_id":"dbe4d7d2-95f9-4a28-b000-f9ac7c3f52eb","system_id":"levelo_inurba_marseille","lat":43.29183,"lon":5.39308,"is_reserved":false,"is_disabled":true,"rental_uris":{"android":"levelo://app?vid=dbe4d7d2-95f9-4a28-b000-f9ac7c3f52eb","ios":"levelo://app?vid=dbe4d7d2-95f9-4a28-b000-f9ac7c3f52eb"},"vehicle_type_id":"4","last_reported":1736428614,"current_range_meters":0,"station_id":"ce4bh192rcd13ifvqdd0","pricing_plan_id":"cebpf4jnsgd1na2vs0mg"},{"bike_id":"444e25c0-fc8c-40ce-9295-6e0fedcacc03","system_id":"levelo_inurba_marseille","lat":43.28616,"lon":5.35108,"is_reserved":false,"is_disabled":false,"rental_uris":{"android":"levelo://app?vid=444e25c0-fc8c-40ce-9295-6e0fedcacc03","ios":"levelo://app?vid=444e25c0-fc8c-40ce-9295-6e0fedcacc03"},"vehicle_type_id":"4","last_reported":1736428614,"current_range_meters":20400,"station_id":"ce4bhch2rcd13ifvqeug","pricing_plan_id":"cebpf4jnsgd1na2vs0mg"},{"bike_id":"bc51dc04-a6f6-46bc-8627-1954fd72d704","system_id":"levelo_inurba_marseille","lat":43.30907,"lon":5.3686,"is_reserved":false,"is_disabled":false,"rental_uris":{"android":"levelo://app?vid=bc51dc04-a6f6-46bc-8627-1954fd72d704","ios":"levelo://app?vid=bc51dc04-a6f6-46bc-8627-1954fd72d704"},"vehicle_type_id":"4","last_reported":1736428614,"current_range_meters":38800,"station_id":"ce4bgn92rcd13ifvqbvg","pricing_plan_id":"cebpf4jnsgd1na2vs0mg"},{"bike_id":"a8a84dc5-7bf4-4a37-8403-cdfc0fb502b0","system_id":"levelo_inurba_marseille","lat":43.30535,"lon":5.36703,"is_reserved":false,"is_disabled":false,"rental_uris":{"android":"levelo://app?vid=a8a84dc5-7bf4-4a37-8403-cdfc0fb502b0","ios":"levelo://app?vid=a8a84dc5-7bf4-4a37-8403-cdfc0fb502b0"},"vehicle_type_id":"4","last_reported":1736428614,"current_range_meters":33600,"station_id":"ce4bgrp2rcd13ifvqc9g","pricing_plan_id":"cebpf4jnsgd1na2vs0mg"},{"bike_id":"850c8c32-31ea-45fe-8c48-610c59d15175","system_id":"levelo_inurba_marseille","lat":43.25582,"lon":5.38232,"is_reserved":false,"is_disabled":false,"rental_uris":{"android":"levelo://app?vid=850c8c32-31ea-45fe-8c48-610c59d15175","ios":"levelo://app?vid=850c8c32-31ea-45fe-8c48-610c59d15175"},"vehicle_type_id":"4","last_reported":1736428614,"current_range_meters":39200,"station_id":"ce4bhih2rcd13ifvqfs0","pricing_plan_id":"cebpf4jnsgd1na2vs0mg"},{"bike_id":"bb574482-1966-4a4c-94fd-4f6844db76aa","system_id":"levelo_inurba_marseille","lat":43.25575,"lon":5.38231,"is_reserved":false,"is_disabled":false,"rental_uris":{"android":"levelo://app?vid=bb574482-1966-4a4c-94fd-4f6844db76aa","ios":"levelo://app?vid=bb574482-1966-4a4c-94fd-4f6844db76aa"},"vehicle_type_id":"4","last_reported":1736428614,"current_range_meters":30800,"station_id":"ce4bhih2rcd13ifvqfs0","pricing_plan_id":"cebpf4jnsgd1na2vs0mg"},{"bike_id":"4e491390-63a3-4127-bd2a-135d511ec258","system_id":"levelo_inurba_marseille","lat":43.26941,"lon":5.38633,"is_reserved":false,"is_disabled":false,"rental_uris":{"android":"levelo://app?vid=4e491390-63a3-4127-bd2a-135d511ec258","ios":"levelo://app?vid=4e491390-63a3-4127-bd2a-135d511ec258"},"vehicle_type_id":"4","last_reported":1736428614,"current_range_meters":7200,"station_id":"ce4bhh92rcd13ifvqfh0","pricing_plan_id":"cebpf4jnsgd1na2vs0mg"},{"bike_id":"55437ac1-09e4-48b8-a9ad-511e0f43f743","system_id":"levelo_inurba_marseille","lat":43.30595,"lon":5.3722,"is_reserved":false,"is_disabled":false,"rental_uris":{"android":"levelo://app?vid=55437ac1-09e4-48b8-a9ad-511e0f43f743","ios":"levelo://app?vid=55437ac1-09e4-48b8-a9ad-511e0f43f743"},"vehicle_type_id":"4","last_reported":1736428614,"current_range_meters":35600,"station_id":"ce4bgqh2rcd13ifvqc4g","pricing_plan_id":"cebpf4jnsgd1na2vs0mg"},{"bike_id":"07e82d96-2b36-4368-a217-0bee627ae6e1","system_id":"levelo_inurba_marseille","lat":43.305328,"lon":5.365282,"is_reserved":false,"is_disabled":false,"rental_uris":{"android":"levelo://app?vid=07e82d96-2b36-4368-a217-0bee627ae6e1","ios":"levelo://app?vid=07e82d96-2b36-4368-a217-0bee627ae6e1"},"vehicle_type_id":"4","last_reported":1736428614,"current_range_meters":35200,"station_id":"ce4bgs12rcd13ifvqcag","pricing_plan_id":"cebpf4jnsgd1na2vs0mg"},{"bike_id":"e752ded6-6fdb-4c56-b252-c79f0149665e","system_id":"levelo_inurba_marseille","lat":43.26564,"lon":5.39007,"is_reserved":false,"is_disabled":false,"rental_uris":{"android":"levelo://app?vid=e752ded6-6fdb-4c56-b252-c79f0149665e","ios":"levelo://app?vid=e752ded6-6fdb-4c56-b252-c79f0149665e"},"vehicle_type_id":"4","last_reported":1736428614,"current_range_meters":29600,"station_id":"ce4bhe12rcd13ifvqf30","pricing_plan_id":"cebpf4jnsgd1na2vs0mg"},{"bike_id":"a816258e-3246-4099-b421-3c9b784b731d","system_id":"levelo_inurba_marseille","lat":43.24168,"lon":5.3971,"is_reserved":false,"is_disabled":false,"rental_uris":{"android":"levelo://app?vid=a816258e-3246-4099-b421-3c9b784b731d","ios":"levelo://app?vid=a816258e-3246-4099-b421-3c9b784b731d"},"vehicle_type_id":"4","last_reported":1736428614,"current_range_meters":38800,"station_id":"ce4bhn12rcd13ifvqgpg","pricing_plan_id":"cebpf4jnsgd1na2vs0mg"},{"bike_id":"fa4e1d94-57a7-4fd9-8196-d235d2c57bf0","system_id":"levelo_inurba_marseille","lat":43.30528,"lon":5.36725,"is_reserved":false,"is_disabled":false,"rental_uris":{"android":"levelo://app?vid=fa4e1d94-57a7-4fd9-8196-d235d2c57bf0","ios":"levelo://app?vid=fa4e1d94-57a7-4fd9-8196-d235d2c57bf0"},"vehicle_type_id":"4","last_reported":1736428614,"current_range_meters":39200,"station_id":"ce4bgrp2rcd13ifvqc9g","pricing_plan_id":"cebpf4jnsgd1na2vs0mg"},{"bike_id":"0cc8ba6d-1357-49f3-ab90-5bcdae44a0bc","system_id":"levelo_inurba_marseille","lat":43.31075,"lon":5.38359,"is_reserved":false,"is_disabled":false,"rental_uris":{"android":"levelo://app?vid=0cc8ba6d-1357-49f3-ab90-5bcdae44a0bc","ios":"levelo://app?vid=0cc8ba6d-1357-49f3-ab90-5bcdae44a0bc"},"vehicle_type_id":"4","last_reported":1736428614,"current_range_meters":32800,"station_id":"ce4bgv92rcd13ifvqcr0","pricing_plan_id":"cebpf4jnsgd1na2vs0mg"},{"bike_id":"25af51bb-7736-4c00-bca1-2ab6d9c3a71c","system_id":"levelo_inurba_marseille","lat":43.32323,"lon":5.40609,"is_reserved":false,"is_disabled":false,"rental_uris":{"android":"levelo://app?vid=25af51bb-7736-4c00-bca1-2ab6d9c3a71c","ios":"levelo://app?vid=25af51bb-7736-4c00-bca1-2ab6d9c3a71c"},"vehicle_type_id":"4","last_reported":1736428614,"current_range_meters":23200,"station_id":"ce4bhq92rcd13ifvqhjg","pricing_plan_id":"cebpf4jnsgd1na2vs0mg"},{"bike_id":"3c007811-d6fd-4d56-accd-dc593d461170","system_id":"levelo_inurba_marseille","lat":43.25709,"lon":5.41807,"is_reserved":false,"is_disabled":false,"rental_uris":{"android":"levelo://app?vid=3c007811-d6fd-4d56-accd-dc593d461170","ios":"levelo://app?vid=3c007811-d6fd-4d56-accd-dc593d461170"},"vehicle_type_id":"4","last_reported":1736428614,"current_range_meters":38800,"station_id":"","pricing_plan_id":"cebpf4jnsgd1na2vs0mg"},{"bike_id":"0530eaa3-fb41-4962-802b-8de744954c6a","system_id":"levelo_inurba_marseille","lat":43.24389,"lon":5.37058,"is_reserved":false,"is_disabled":false,"rental_uris":{"android":"levelo://app?vid=0530eaa3-fb41-4962-802b-8de744954c6a","ios":"levelo://app?vid=0530eaa3-fb41-4962-802b-8de744954c6a"},"vehicle_type_id":"4","last_reported":1736428614,"current_range_meters":36000,"station_id":"ce4bhhh2rcd13ifvqfk0","pricing_plan_id":"cebpf4jnsgd1na2vs0mg"},{"bike_id":"1fe4de93-a972-46c6-bbc7-b129ab9b60fe","system_id":"levelo_inurba_marseille","lat":43.275005,"lon":5.424585,"is_reserved":false,"is_disabled":false,"rental_uris":{"android":"levelo://app?vid=1fe4de93-a972-46c6-bbc7-b129ab9b60fe","ios":"levelo://app?vid=1fe4de93-a972-46c6-bbc7-b129ab9b60fe"},"vehicle_type_id":"4","last_reported":1736428614,"current_range_meters":28800,"station_id":"ce4bhn92rcd13ifvqgrg","pricing_plan_id":"cebpf4jnsgd1na2vs0mg"},{"bike_id":"2efead72-824c-45ef-8cf3-b657af317181","system_id":"levelo_inurba_marseille","lat":43.29853,"lon":5.36287,"is_reserved":false,"is_disabled":false,"rental_uris":{"android":"levelo://app?vid=2efead72-824c-45ef-8cf3-b657af317181","ios":"levelo://app?vid=2efead72-824c-45ef-8cf3-b657af317181"},"vehicle_type_id":"4","last_reported":1736428614,"current_range_meters":38800,"station_id":"ce4bgpp2rcd13ifvqc3g","pricing_plan_id":"cebpf4jnsgd1na2vs0mg"},{"bike_id":"0c9f26e2-be7f-4990-af23-4023b9fc089b","system_id":"levelo_inurba_marseille","lat":43.310837,"lon":5.424453,"is_reserved":false,"is_disabled":false,"rental_uris":{"android":"levelo://app?vid=0c9f26e2-be7f-4990-af23-4023b9fc089b","ios":"levelo://app?vid=0c9f26e2-be7f-4990-af23-4023b9fc089b"},"vehicle_type_id":"4","last_reported":1736428614,"current_range_meters":38800,"station_id":"ce4bhp92rcd13ifvqhag","pricing_plan_id":"cebpf4jnsgd1na2vs0mg"},{"bike_id":"3965b4bc-83b0-48b6-8bba-edbef38dd6c5","system_id":"levelo_inurba_marseille","lat":43.29419,"lon":5.38615,"is_reserved":false,"is_disabled":false,"rental_uris":{"android":"levelo://app?vid=3965b4bc-83b0-48b6-8bba-edbef38dd6c5","ios":"levelo://app?vid=3965b4bc-83b0-48b6-8bba-edbef38dd6c5"},"vehicle_type_id":"4","last_reported":1736428614,"current_range_meters":38000,"station_id":"ce4bh2h2rcd13ifvqdh0","pricing_plan_id":"cebpf4jnsgd1na2vs0mg"},{"bike_id":"44744da6-8adf-4188-bb07-011098685ab4","system_id":"levelo_inurba_marseille","lat":43.3048,"lon":5.37907,"is_reserved":false,"is_disabled":false,"rental_uris":{"android":"levelo://app?vid=44744da6-8adf-4188-bb07-011098685ab4","ios":"levelo://app?vid=44744da6-8adf-4188-bb07-011098685ab4"},"vehicle_type_id":"4","last_reported":1736428614,"current_range_meters":22000,"station_id":"ce4bgup2rcd13ifvqcn0","pricing_plan_id":"cebpf4jnsgd1na2vs0mg"},{"bike_id":"d0b63980-ee75-4159-99b8-45fbe5cb8173","system_id":"levelo_inurba_marseille","lat":43.28492,"lon":5.38552,"is_reserved":false,"is_disabled":false,"rental_uris":{"android":"levelo://app?vid=d0b63980-ee75-4159-99b8-45fbe5cb8173","ios":"levelo://app?vid=d0b63980-ee75-4159-99b8-45fbe5cb8173"},"vehicle_type_id":"4","last_reported":1736428614,"current_range_meters":33200,"station_id":"ce4bh8p2rcd13ifvqeb0","pricing_plan_id":"cebpf4jnsgd1na2vs0mg"},{"bike_id":"fa9a7671-3abf-41cd-86b5-80c458ec5d68","system_id":"levelo_inurba_marseille","lat":43.3119,"lon":5.38711,"is_reserved":false,"is_disabled":false,"rental_uris":{"android":"levelo://app?vid=fa9a7671-3abf-41cd-86b5-80c458ec5d68","ios":"levelo://app?vid=fa9a7671-3abf-41cd-86b5-80c458ec5d68"},"vehicle_type_id":"4","last_reported":1736428614,"current_range_meters":8400,"station_id":"ce4bgv12rcd13ifvqcp0","pricing_plan_id":"cebpf4jnsgd1na2vs0mg"},{"bike_id":"ef55feca-657c-488b-9e32-b2fe658b0af8","system_id":"levelo_inurba_marseille","lat":43.2721,"lon":5.39172,"is_reserved":false,"is_disabled":false,"rental_uris":{"android":"levelo://app?vid=ef55feca-657c-488b-9e32-b2fe658b0af8","ios":"levelo://app?vid=ef55feca-657c-488b-9e32-b2fe658b0af8"},"vehicle_type_id":"4","last_reported":1736428614,"current_range_meters":38800,"station_id":"ce4bhhp2rcd13ifvqfm0","pricing_plan_id":"cebpf4jnsgd1na2vs0mg"},{"bike_id":"24ee9e5e-a93d-4f4d-b87b-22ef6d532579","system_id":"levelo_inurba_marseille","lat":43.29026,"lon":5.38131,"is_reserved":false,"is_disabled":false,"rental_uris":{"android":"levelo://app?vid=24ee9e5e-a93d-4f4d-b87b-22ef6d532579","ios":"levelo://app?vid=24ee9e5e-a93d-4f4d-b87b-22ef6d532579"},"vehicle_type_id":"4","last_reported":1736428614,"current_range_meters":12400,"station_id":"ce4bh4p2rcd13ifvqe1g","pricing_plan_id":"cebpf4jnsgd1na2vs0mg"},{"bike_id":"9fd9a3de-90df-466c-8510-f29e450ec62b","system_id":"levelo_inurba_marseille","lat":43.31089,"lon":5.42428,"is_reserved":false,"is_disabled":false,"rental_uris":{"android":"levelo://app?vid=9fd9a3de-90df-466c-8510-f29e450ec62b","ios":"levelo://app?vid=9fd9a3de-90df-466c-8510-f29e450ec62b"},"vehicle_type_id":"4","last_reported":1736428614,"current_range_meters":12400,"station_id":"ce4bhp92rcd13ifvqhag","pricing_plan_id":"cebpf4jnsgd1na2vs0mg"},{"bike_id":"7e647b87-ee39-48c8-8a57-8ca415c7293d","system_id":"levelo_inurba_marseille","lat":43.23059,"lon":5.35495,"is_reserved":false,"is_disabled":false,"rental_uris":{"android":"levelo://app?vid=7e647b87-ee39-48c8-8a57-8ca415c7293d","ios":"levelo://app?vid=7e647b87-ee39-48c8-8a57-8ca415c7293d"},"vehicle_type_id":"4","last_reported":1736428614,"current_range_meters":33600,"station_id":"cpo3342slgdg3j2ifvpg","pricing_plan_id":"cebpf4jnsgd1na2vs0mg"},{"bike_id":"a0df9193-55f6-4a03-826a-744e803b6ed4","system_id":"levelo_inurba_marseille","lat":43.24662,"lon":5.38158,"is_reserved":false,"is_disabled":false,"rental_uris":{"android":"levelo://app?vid=a0df9193-55f6-4a03-826a-744e803b6ed4","ios":"levelo://app?vid=a0df9193-55f6-4a03-826a-744e803b6ed4"},"vehicle_type_id":"4","last_reported":1736428614,"current_range_meters":32400,"station_id":"ce4bhih2rcd13ifvqfr0","pricing_plan_id":"cebpf4jnsgd1na2vs0mg"},{"bike_id":"b3235d33-613c-4817-b2d7-f386fe4e079a","system_id":"levelo_inurba_marseille","lat":43.30904,"lon":5.36844,"is_reserved":false,"is_disabled":false,"rental_uris":{"android":"levelo://app?vid=b3235d33-613c-4817-b2d7-f386fe4e079a","ios":"levelo://app?vid=b3235d33-613c-4817-b2d7-f386fe4e079a"},"vehicle_type_id":"4","last_reported":1736428614,"current_range_meters":28800,"station_id":"ce4bgn92rcd13ifvqbvg","pricing_plan_id":"cebpf4jnsgd1na2vs0mg"},{"bike_id":"f3ac7703-aae0-4932-9e81-9257657457ab","system_id":"levelo_inurba_marseille","lat":43.23154,"lon":5.4372,"is_reserved":false,"is_disabled":false,"rental_uris":{"android":"levelo://app?vid=f3ac7703-aae0-4932-9e81-9257657457ab","ios":"levelo://app?vid=f3ac7703-aae0-4932-9e81-9257657457ab"},"vehicle_type_id":"4","last_reported":1736428614,"current_range_meters":19600,"station_id":"ce4bhmp2rcd13ifvqgog","pricing_plan_id":"cebpf4jnsgd1na2vs0mg"},{"bike_id":"00e9ae50-e0de-4a0b-82ae-9d2d5db35cee","system_id":"levelo_inurba_marseille","lat":43.24081,"lon":5.37711,"is_reserved":false,"is_disabled":false,"rental_uris":{"android":"levelo://app?vid=00e9ae50-e0de-4a0b-82ae-9d2d5db35cee","ios":"levelo://app?vid=00e9ae50-e0de-4a0b-82ae-9d2d5db35cee"},"vehicle_type_id":"4","last_reported":1736428614,"current_range_meters":30800,"station_id":"ce4bhnp2rcd13ifvqgvg","pricing_plan_id":"cebpf4jnsgd1na2vs0mg"},{"bike_id":"1f50cc2d-c6ef-46fb-9c7f-27b6608a6555","system_id":"levelo_inurba_marseille","lat":43.30905,"lon":5.36869,"is_reserved":false,"is_disabled":false,"rental_uris":{"android":"levelo://app?vid=1f50cc2d-c6ef-46fb-9c7f-27b6608a6555","ios":"levelo://app?vid=1f50cc2d-c6ef-46fb-9c7f-27b6608a6555"},"vehicle_type_id":"4","last_reported":1736428614,"current_range_meters":31200,"station_id":"ce4bgn92rcd13ifvqbvg","pricing_plan_id":"cebpf4jnsgd1na2vs0mg"},{"bike_id":"66262c96-b45c-4483-b296-8a78ef082310","system_id":"levelo_inurba_marseille","lat":43.30267,"lon":5.37728,"is_reserved":false,"is_disabled":false,"rental_uris":{"android":"levelo://app?vid=66262c96-b45c-4483-b296-8a78ef082310","ios":"levelo://app?vid=66262c96-b45c-4483-b296-8a78ef082310"},"vehicle_type_id":"4","last_reported":1736428614,"current_range_meters":39200,"station_id":"ce4bguh2rcd13ifvqcj0","pricing_plan_id":"cebpf4jnsgd1na2vs0mg"},{"bike_id":"ee596c16-5641-49e9-b0a6-13128c205250","system_id":"levelo_inurba_marseille","lat":43.28729,"lon":5.37946,"is_reserved":false,"is_disabled":false,"rental_uris":{"android":"levelo://app?vid=ee596c16-5641-49e9-b0a6-13128c205250","ios":"levelo://app?vid=ee596c16-5641-49e9-b0a6-13128c205250"},"vehicle_type_id":"4","last_reported":1736428614,"current_range_meters":35600,"station_id":"ce4bh9p2rcd13ifvqec0","pricing_plan_id":"cebpf4jnsgd1na2vs0mg"},{"bike_id":"95080515-c909-4d80-b47e-bd910cceccba","system_id":"levelo_inurba_marseille","lat":43.27403,"lon":5.39401,"is_reserved":false,"is_disabled":false,"rental_uris":{"android":"levelo://app?vid=95080515-c909-4d80-b47e-bd910cceccba","ios":"levelo://app?vid=95080515-c909-4d80-b47e-bd910cceccba"},"vehicle_type_id":"4","last_reported":1736428614,"current_range_meters":6800,"station_id":"ce4bhdp2rcd13ifvqf20","pricing_plan_id":"cebpf4jnsgd1na2vs0mg"},{"bike_id":"8143880a-3116-43a6-934b-338592099cc0","system_id":"levelo_inurba_marseille","lat":43.28662,"lon":5.38653,"is_reserved":false,"is_disabled":false,"rental_uris":{"android":"levelo://app?vid=8143880a-3116-43a6-934b-338592099cc0","ios":"levelo://app?vid=8143880a-3116-43a6-934b-338592099cc0"},"vehicle_type_id":"4","last_reported":1736428614,"current_range_meters":25200,"station_id":"ce4bh492rcd13ifvqdug","pricing_plan_id":"cebpf4jnsgd1na2vs0mg"},{"bike_id":"7212e8a5-1e9f-4e15-8bd4-2f3ab6b3b5a8","system_id":"levelo_inurba_marseille","lat":43.28723,"lon":5.37939,"is_reserved":false,"is_disabled":false,"rental_uris":{"android":"levelo://app?vid=7212e8a5-1e9f-4e15-8bd4-2f3ab6b3b5a8","ios":"levelo://app?vid=7212e8a5-1e9f-4e15-8bd4-2f3ab6b3b5a8"},"vehicle_type_id":"4","last_reported":1736428614,"current_range_meters":11200,"station_id":"ce4bh9p2rcd13ifvqec0","pricing_plan_id":"cebpf4jnsgd1na2vs0mg"},{"bike_id":"a1705e72-c4af-4983-b5c5-5bc88eb55bc2","system_id":"levelo_inurba_marseille","lat":43.30592,"lon":5.39347,"is_reserved":false,"is_disabled":false,"rental_uris":{"android":"levelo://app?vid=a1705e72-c4af-4983-b5c5-5bc88eb55bc2","ios":"levelo://app?vid=a1705e72-c4af-4983-b5c5-5bc88eb55bc2"},"vehicle_type_id":"4","last_reported":1736428614,"current_range_meters":18800,"station_id":"ce4bh0p2rcd13ifvqd80","pricing_plan_id":"cebpf4jnsgd1na2vs0mg"},{"bike_id":"c293c08a-2fe9-4b3c-a5fe-766b76712af7","system_id":"levelo_inurba_marseille","lat":43.29796,"lon":5.38119,"is_reserved":false,"is_disabled":false,"rental_uris":{"android":"levelo://app?vid=c293c08a-2fe9-4b3c-a5fe-766b76712af7","ios":"levelo://app?vid=c293c08a-2fe9-4b3c-a5fe-766b76712af7"},"vehicle_type_id":"4","last_reported":1736428614,"current_range_meters":27600,"station_id":"ce4bgip2rcd13ifvqbb0","pricing_plan_id":"cebpf4jnsgd1na2vs0mg"},{"bike_id":"fccbecdc-7f6b-4c85-b510-cd5a92912b79","system_id":"levelo_inurba_marseille","lat":43.29681,"lon":5.37281,"is_reserved":false,"is_disabled":false,"rental_uris":{"android":"levelo://app?vid=fccbecdc-7f6b-4c85-b510-cd5a92912b79","ios":"levelo://app?vid=fccbecdc-7f6b-4c85-b510-cd5a92912b79"},"vehicle_type_id":"4","last_reported":1736428614,"current_range_meters":38800,"station_id":"ce4bgk12rcd13ifvqbj0","pricing_plan_id":"cebpf4jnsgd1na2vs0mg"},{"bike_id":"2d1536de-ed9a-4813-bbd6-10bda74ca621","system_id":"levelo_inurba_marseille","lat":43.24806,"lon":5.37451,"is_reserved":false,"is_disabled":false,"rental_uris":{"android":"levelo://app?vid=2d1536de-ed9a-4813-bbd6-10bda74ca621","ios":"levelo://app?vid=2d1536de-ed9a-4813-bbd6-10bda74ca621"},"vehicle_type_id":"4","last_reported":1736428614,"current_range_meters":38800,"station_id":"ce4bhgh2rcd13ifvqfb0","pricing_plan_id":"cebpf4jnsgd1na2vs0mg"},{"bike_id":"dd95b172-24fd-4056-9bb1-1ba37d74b460","system_id":"levelo_inurba_marseille","lat":43.25578,"lon":5.38226,"is_reserved":false,"is_disabled":false,"rental_uris":{"android":"levelo://app?vid=dd95b172-24fd-4056-9bb1-1ba37d74b460","ios":"levelo://app?vid=dd95b172-24fd-4056-9bb1-1ba37d74b460"},"vehicle_type_id":"4","last_reported":1736428614,"current_range_meters":20000,"station_id":"ce4bhih2rcd13ifvqfs0","pricing_plan_id":"cebpf4jnsgd1na2vs0mg"},{"bike_id":"61b53924-0e35-404c-b0a4-3fa2e5335468","system_id":"levelo_inurba_marseille","lat":43.320034,"lon":5.38165,"is_reserved":false,"is_disabled":false,"rental_uris":{"android":"levelo://app?vid=61b53924-0e35-404c-b0a4-3fa2e5335468","ios":"levelo://app?vid=61b53924-0e35-404c-b0a4-3fa2e5335468"},"vehicle_type_id":"4","last_reported":1736428614,"current_range_meters":37600,"station_id":"ce4bhr12rcd13ifvqhpg","pricing_plan_id":"cebpf4jnsgd1na2vs0mg"},{"bike_id":"c805142b-1ce4-4316-aec5-0d0e6e7f344d","system_id":"levelo_inurba_marseille","lat":43.29557,"lon":5.42293,"is_reserved":false,"is_disabled":false,"rental_uris":{"android":"levelo://app?vid=c805142b-1ce4-4316-aec5-0d0e6e7f344d","ios":"levelo://app?vid=c805142b-1ce4-4316-aec5-0d0e6e7f344d"},"vehicle_type_id":"4","last_reported":1736428614,"current_range_meters":32800,"station_id":"ce4bhph2rcd13ifvqhdg","pricing_plan_id":"cebpf4jnsgd1na2vs0mg"},{"bike_id":"80f089d1-6208-4daa-bf1d-e077f22470f1","system_id":"levelo_inurba_marseille","lat":43.3372,"lon":5.39189,"is_reserved":false,"is_disabled":false,"rental_uris":{"android":"levelo://app?vid=80f089d1-6208-4daa-bf1d-e077f22470f1","ios":"levelo://app?vid=80f089d1-6208-4daa-bf1d-e077f22470f1"},"vehicle_type_id":"4","last_reported":1736428614,"current_range_meters":38000,"station_id":"ce4bhr92rcd13ifvqhsg","pricing_plan_id":"cebpf4jnsgd1na2vs0mg"},{"bike_id":"4c3bd439-e92c-4064-a51f-879c6f698614","system_id":"levelo_inurba_marseille","lat":43.267486,"lon":5.38347,"is_reserved":false,"is_disabled":false,"rental_uris":{"android":"levelo://app?vid=4c3bd439-e92c-4064-a51f-879c6f698614","ios":"levelo://app?vid=4c3bd439-e92c-4064-a51f-879c6f698614"},"vehicle_type_id":"4","last_reported":1736428614,"current_range_meters":33600,"station_id":"ce4bhg92rcd13ifvqf90","pricing_plan_id":"cebpf4jnsgd1na2vs0mg"},{"bike_id":"1565e8de-a7c0-4b5d-bab6-a5c2edfdb606","system_id":"levelo_inurba_marseille","lat":43.29706,"lon":5.37703,"is_reserved":false,"is_disabled":false,"rental_uris":{"android":"levelo://app?vid=1565e8de-a7c0-4b5d-bab6-a5c2edfdb606","ios":"levelo://app?vid=1565e8de-a7c0-4b5d-bab6-a5c2edfdb606"},"vehicle_type_id":"4","last_reported":1736428614,"current_range_meters":22000,"station_id":"ce4bgkh2rcd13ifvqbl0","pricing_plan_id":"cebpf4jnsgd1na2vs0mg"},{"bike_id":"ddb1db70-5f5e-4822-bff4-8a9bf7a75a8f","system_id":"levelo_inurba_marseille","lat":43.25123,"lon":5.40317,"is_reserved":false,"is_disabled":false,"rental_uris":{"android":"levelo://app?vid=ddb1db70-5f5e-4822-bff4-8a9bf7a75a8f","ios":"levelo://app?vid=ddb1db70-5f5e-4822-bff4-8a9bf7a75a8f"},"vehicle_type_id":"4","last_reported":1736428614,"current_range_meters":37600,"station_id":"ce4bhlh2rcd13ifvqgig","pricing_plan_id":"cebpf4jnsgd1na2vs0mg"},{"bike_id":"f2536309-8d2b-4ccd-86e1-4c168080c77c","system_id":"levelo_inurba_marseille","lat":43.23189,"lon":5.35554,"is_reserved":false,"is_disabled":false,"rental_uris":{"android":"levelo://app?vid=f2536309-8d2b-4ccd-86e1-4c168080c77c","ios":"levelo://app?vid=f2536309-8d2b-4ccd-86e1-4c168080c77c"},"vehicle_type_id":"4","last_reported":1736428614,"current_range_meters":7200,"station_id":"ce4bhu92rcd13ifvqi70","pricing_plan_id":"cebpf4jnsgd1na2vs0mg"},{"bike_id":"98acfbe9-5036-4f04-be90-e65f01ce50b5","system_id":"levelo_inurba_marseille","lat":43.24084,"lon":5.37756,"is_reserved":false,"is_disabled":false,"rental_uris":{"android":"levelo://app?vid=98acfbe9-5036-4f04-be90-e65f01ce50b5","ios":"levelo://app?vid=98acfbe9-5036-4f04-be90-e65f01ce50b5"},"vehicle_type_id":"4","last_reported":1736428614,"current_range_meters":24800,"station_id":"ce4bhnp2rcd13ifvqgvg","pricing_plan_id":"cebpf4jnsgd1na2vs0mg"},{"bike_id":"6b640b87-7556-44b6-bc74-75d5376a29ae","system_id":"levelo_inurba_marseille","lat":43.3135,"lon":5.36766,"is_reserved":false,"is_disabled":false,"rental_uris":{"android":"levelo://app?vid=6b640b87-7556-44b6-bc74-75d5376a29ae","ios":"levelo://app?vid=6b640b87-7556-44b6-bc74-75d5376a29ae"},"vehicle_type_id":"4","last_reported":1736428614,"current_range_meters":30400,"station_id":"ce4bgr92rcd13ifvqc6g","pricing_plan_id":"cebpf4jnsgd1na2vs0mg"},{"bike_id":"3cefbaf9-7230-40e5-a940-ea81300716e2","system_id":"levelo_inurba_marseille","lat":43.28939,"lon":5.36402,"is_reserved":false,"is_disabled":false,"rental_uris":{"android":"levelo://app?vid=3cefbaf9-7230-40e5-a940-ea81300716e2","ios":"levelo://app?vid=3cefbaf9-7230-40e5-a940-ea81300716e2"},"vehicle_type_id":"4","last_reported":1736428614,"current_range_meters":35200,"station_id":"ce4bhc92rcd13ifvqetg","pricing_plan_id":"cebpf4jnsgd1na2vs0mg"},{"bike_id":"f22dc914-cd15-4647-8a03-e5a6171f0700","system_id":"levelo_inurba_marseille","lat":43.2911,"lon":5.38147,"is_reserved":false,"is_disabled":true,"rental_uris":{"android":"levelo://app?vid=f22dc914-cd15-4647-8a03-e5a6171f0700","ios":"levelo://app?vid=f22dc914-cd15-4647-8a03-e5a6171f0700"},"vehicle_type_id":"4","last_reported":1736428614,"current_range_meters":9200,"station_id":"ce4bh512rcd13ifvqe2g","pricing_plan_id":"cebpf4jnsgd1na2vs0mg"},{"bike_id":"2beb9efa-831a-4432-8bed-57f7ba689c69","system_id":"levelo_inurba_marseille","lat":43.30131,"lon":5.3878,"is_reserved":false,"is_disabled":false,"rental_uris":{"android":"levelo://app?vid=2beb9efa-831a-4432-8bed-57f7ba689c69","ios":"levelo://app?vid=2beb9efa-831a-4432-8bed-57f7ba689c69"},"vehicle_type_id":"4","last_reported":1736428614,"current_range_meters":10000,"station_id":"ce4bhoh2rcd13ifvqh6g","pricing_plan_id":"cebpf4jnsgd1na2vs0mg"},{"bike_id":"7525d5bc-d5cb-4998-a508-14f64c28c58c","system_id":"levelo_inurba_marseille","lat":43.25864,"lon":5.39901,"is_reserved":false,"is_disabled":false,"rental_uris":{"android":"levelo://app?vid=7525d5bc-d5cb-4998-a508-14f64c28c58c","ios":"levelo://app?vid=7525d5bc-d5cb-4998-a508-14f64c28c58c"},"vehicle_type_id":"4","last_reported":1736428614,"current_range_meters":36800,"station_id":"ce4bhl92rcd13ifvqghg","pricing_plan_id":"cebpf4jnsgd1na2vs0mg"},{"bike_id":"a28a3e15-60b0-475a-aeb2-1b107b1039c9","system_id":"levelo_inurba_marseille","lat":43.23152,"lon":5.43706,"is_reserved":false,"is_disabled":false,"rental_uris":{"android":"levelo://app?vid=a28a3e15-60b0-475a-aeb2-1b107b1039c9","ios":"levelo://app?vid=a28a3e15-60b0-475a-aeb2-1b107b1039c9"},"vehicle_type_id":"4","last_reported":1736428614,"current_range_meters":27200,"station_id":"ce4bhmp2rcd13ifvqgog","pricing_plan_id":"cebpf4jnsgd1na2vs0mg"},{"bike_id":"96457425-f787-481c-9953-6eb971189693","system_id":"levelo_inurba_marseille","lat":43.29869,"lon":5.39734,"is_reserved":false,"is_disabled":false,"rental_uris":{"android":"levelo://app?vid=96457425-f787-481c-9953-6eb971189693","ios":"levelo://app?vid=96457425-f787-481c-9953-6eb971189693"},"vehicle_type_id":"4","last_reported":1736428614,"current_range_meters":38800,"station_id":"ce4bh0h2rcd13ifvqd50","pricing_plan_id":"cebpf4jnsgd1na2vs0mg"},{"bike_id":"5afcec18-bbaf-49e3-b45b-9ce489a332c2","system_id":"levelo_inurba_marseille","lat":43.305445,"lon":5.384707,"is_reserved":false,"is_disabled":false,"rental_uris":{"android":"levelo://app?vid=5afcec18-bbaf-49e3-b45b-9ce489a332c2","ios":"levelo://app?vid=5afcec18-bbaf-49e3-b45b-9ce489a332c2"},"vehicle_type_id":"4","last_reported":1736428614,"current_range_meters":16000,"station_id":"ce4bgg92rcd13ifvqb30","pricing_plan_id":"cebpf4jnsgd1na2vs0mg"},{"bike_id":"a023b9e2-2413-4b3d-a218-b9727e7097b5","system_id":"levelo_inurba_marseille","lat":43.292991,"lon":5.374633,"is_reserved":false,"is_disabled":true,"rental_uris":{"android":"levelo://app?vid=a023b9e2-2413-4b3d-a218-b9727e7097b5","ios":"levelo://app?vid=a023b9e2-2413-4b3d-a218-b9727e7097b5"},"vehicle_type_id":"4","last_reported":1736428614,"current_range_meters":29600,"station_id":"ce4bgi12rcd13ifvqb70","pricing_plan_id":"cebpf4jnsgd1na2vs0mg"},{"bike_id":"71caec89-f1eb-45db-8ad3-161cc518e9b3","system_id":"levelo_inurba_marseille","lat":43.29885,"lon":5.39756,"is_reserved":false,"is_disabled":false,"rental_uris":{"android":"levelo://app?vid=71caec89-f1eb-45db-8ad3-161cc518e9b3","ios":"levelo://app?vid=71caec89-f1eb-45db-8ad3-161cc518e9b3"},"vehicle_type_id":"4","last_reported":1736428614,"current_range_meters":38800,"station_id":"ce4bh0h2rcd13ifvqd50","pricing_plan_id":"cebpf4jnsgd1na2vs0mg"},{"bike_id":"87afc1b3-0e71-4196-9e42-05651450c37e","system_id":"levelo_inurba_marseille","lat":43.31204,"lon":5.36894,"is_reserved":false,"is_disabled":false,"rental_uris":{"android":"levelo://app?vid=87afc1b3-0e71-4196-9e42-05651450c37e","ios":"levelo://app?vid=87afc1b3-0e71-4196-9e42-05651450c37e"},"vehicle_type_id":"4","last_reported":1736428614,"current_range_meters":8400,"station_id":"ce4bgl92rcd13ifvqbq0","pricing_plan_id":"cebpf4jnsgd1na2vs0mg"},{"bike_id":"dca00bba-2f39-40a8-ad4d-72c38ee8461a","system_id":"levelo_inurba_marseille","lat":43.27427,"lon":5.39423,"is_reserved":false,"is_disabled":false,"rental_uris":{"android":"levelo://app?vid=dca00bba-2f39-40a8-ad4d-72c38ee8461a","ios":"levelo://app?vid=dca00bba-2f39-40a8-ad4d-72c38ee8461a"},"vehicle_type_id":"4","last_reported":1736428614,"current_range_meters":35200,"station_id":"ce4bhdp2rcd13ifvqf20","pricing_plan_id":"cebpf4jnsgd1na2vs0mg"},{"bike_id":"2c0cbe75-2499-458f-ac44-bf318325c2e7","system_id":"levelo_inurba_marseille","lat":43.28485,"lon":5.38541,"is_reserved":false,"is_disabled":false,"rental_uris":{"android":"levelo://app?vid=2c0cbe75-2499-458f-ac44-bf318325c2e7","ios":"levelo://app?vid=2c0cbe75-2499-458f-ac44-bf318325c2e7"},"vehicle_type_id":"4","last_reported":1736428614,"current_range_meters":22000,"station_id":"ce4bh8p2rcd13ifvqeb0","pricing_plan_id":"cebpf4jnsgd1na2vs0mg"},{"bike_id":"fcda1bf7-c69b-4557-a8f1-0ada65d0d425","system_id":"levelo_inurba_marseille","lat":43.29909,"lon":5.38144,"is_reserved":false,"is_disabled":false,"rental_uris":{"android":"levelo://app?vid=fcda1bf7-c69b-4557-a8f1-0ada65d0d425","ios":"levelo://app?vid=fcda1bf7-c69b-4557-a8f1-0ada65d0d425"},"vehicle_type_id":"4","last_reported":1736428614,"current_range_meters":36400,"station_id":"ce4bgj12rcd13ifvqbc0","pricing_plan_id":"cebpf4jnsgd1na2vs0mg"},{"bike_id":"2a611997-d70e-4c6d-ac36-17e21435ec55","system_id":"levelo_inurba_marseille","lat":43.30555,"lon":5.36706,"is_reserved":false,"is_disabled":false,"rental_uris":{"android":"levelo://app?vid=2a611997-d70e-4c6d-ac36-17e21435ec55","ios":"levelo://app?vid=2a611997-d70e-4c6d-ac36-17e21435ec55"},"vehicle_type_id":"4","last_reported":1736428614,"current_range_meters":38800,"station_id":"ce4bgrp2rcd13ifvqc9g","pricing_plan_id":"cebpf4jnsgd1na2vs0mg"},{"bike_id":"cb48e406-20b3-4b58-92d8-3ee9253b03ee","system_id":"levelo_inurba_marseille","lat":43.2953,"lon":5.38541,"is_reserved":false,"is_disabled":false,"rental_uris":{"android":"levelo://app?vid=cb48e406-20b3-4b58-92d8-3ee9253b03ee","ios":"levelo://app?vid=cb48e406-20b3-4b58-92d8-3ee9253b03ee"},"vehicle_type_id":"4","last_reported":1736428614,"current_range_meters":36000,"station_id":"ce4bgih2rcd13ifvqba0","pricing_plan_id":"cebpf4jnsgd1na2vs0mg"},{"bike_id":"5e498754-bb3d-4823-a378-a06f7dd04975","system_id":"levelo_inurba_marseille","lat":43.28259,"lon":5.35061,"is_reserved":false,"is_disabled":false,"rental_uris":{"android":"levelo://app?vid=5e498754-bb3d-4823-a378-a06f7dd04975","ios":"levelo://app?vid=5e498754-bb3d-4823-a378-a06f7dd04975"},"vehicle_type_id":"4","last_reported":1736428614,"current_range_meters":19200,"station_id":"ce4bhbp2rcd13ifvqerg","pricing_plan_id":"cebpf4jnsgd1na2vs0mg"},{"bike_id":"af28fc47-2be9-4812-bb75-50801798be32","system_id":"levelo_inurba_marseille","lat":43.33748,"lon":5.37423,"is_reserved":false,"is_disabled":false,"rental_uris":{"android":"levelo://app?vid=af28fc47-2be9-4812-bb75-50801798be32","ios":"levelo://app?vid=af28fc47-2be9-4812-bb75-50801798be32"},"vehicle_type_id":"4","last_reported":1736428614,"current_range_meters":38800,"station_id":"","pricing_plan_id":"cebpf4jnsgd1na2vs0mg"},{"bike_id":"3402ac95-fc9f-4aa7-8d06-c5e0b4779208","system_id":"levelo_inurba_marseille","lat":43.24401,"lon":5.37039,"is_reserved":false,"is_disabled":false,"rental_uris":{"android":"levelo://app?vid=3402ac95-fc9f-4aa7-8d06-c5e0b4779208","ios":"levelo://app?vid=3402ac95-fc9f-4aa7-8d06-c5e0b4779208"},"vehicle_type_id":"4","last_reported":1736428614,"current_range_meters":37600,"station_id":"ce4bhhh2rcd13ifvqfk0","pricing_plan_id":"cebpf4jnsgd1na2vs0mg"},{"bike_id":"58a1600f-e5ba-4deb-8b32-702a3c8183b4","system_id":"levelo_inurba_marseille","lat":43.27997,"lon":5.40024,"is_reserved":false,"is_disabled":false,"rental_uris":{"android":"levelo://app?vid=58a1600f-e5ba-4deb-8b32-702a3c8183b4","ios":"levelo://app?vid=58a1600f-e5ba-4deb-8b32-702a3c8183b4"},"vehicle_type_id":"4","last_reported":1736428614,"current_range_meters":24800,"station_id":"ce4bho92rcd13ifvqh4g","pricing_plan_id":"cebpf4jnsgd1na2vs0mg"},{"bike_id":"4efd2084-9715-446a-aae8-df22bb0734d5","system_id":"levelo_inurba_marseille","lat":43.25919,"lon":5.40903,"is_reserved":false,"is_disabled":false,"rental_uris":{"android":"levelo://app?vid=4efd2084-9715-446a-aae8-df22bb0734d5","ios":"levelo://app?vid=4efd2084-9715-446a-aae8-df22bb0734d5"},"vehicle_type_id":"4","last_reported":1736428614,"current_range_meters":22800,"station_id":"ce4bhm92rcd13ifvqglg","pricing_plan_id":"cebpf4jnsgd1na2vs0mg"},{"bike_id":"554ccb52-e5dc-4bcd-bd8b-469a2eb140da","system_id":"levelo_inurba_marseille","lat":43.29635,"lon":5.40606,"is_reserved":false,"is_disabled":false,"rental_uris":{"android":"levelo://app?vid=554ccb52-e5dc-4bcd-bd8b-469a2eb140da","ios":"levelo://app?vid=554ccb52-e5dc-4bcd-bd8b-469a2eb140da"},"vehicle_type_id":"4","last_reported":1736428614,"current_range_meters":35600,"station_id":"ce4bh0h2rcd13ifvqd60","pricing_plan_id":"cebpf4jnsgd1na2vs0mg"},{"bike_id":"a9b6393a-afe2-41b2-8370-dc893e0b832a","system_id":"levelo_inurba_marseille","lat":43.30464,"lon":5.37907,"is_reserved":false,"is_disabled":false,"rental_uris":{"android":"levelo://app?vid=a9b6393a-afe2-41b2-8370-dc893e0b832a","ios":"levelo://app?vid=a9b6393a-afe2-41b2-8370-dc893e0b832a"},"vehicle_type_id":"4","last_reported":1736428614,"current_range_meters":28000,"station_id":"ce4bgup2rcd13ifvqcn0","pricing_plan_id":"cebpf4jnsgd1na2vs0mg"},{"bike_id":"7a0a8a69-615c-43f3-a001-073b74f4a57b","system_id":"levelo_inurba_marseille","lat":43.25564,"lon":5.38244,"is_reserved":false,"is_disabled":false,"rental_uris":{"android":"levelo://app?vid=7a0a8a69-615c-43f3-a001-073b74f4a57b","ios":"levelo://app?vid=7a0a8a69-615c-43f3-a001-073b74f4a57b"},"vehicle_type_id":"4","last_reported":1736428614,"current_range_meters":30400,"station_id":"ce4bhih2rcd13ifvqfs0","pricing_plan_id":"cebpf4jnsgd1na2vs0mg"},{"bike_id":"54d881c1-9733-41b1-bcb8-a3547a618e6d","system_id":"levelo_inurba_marseille","lat":43.26573,"lon":5.39035,"is_reserved":false,"is_disabled":false,"rental_uris":{"android":"levelo://app?vid=54d881c1-9733-41b1-bcb8-a3547a618e6d","ios":"levelo://app?vid=54d881c1-9733-41b1-bcb8-a3547a618e6d"},"vehicle_type_id":"4","last_reported":1736428614,"current_range_meters":6000,"station_id":"ce4bhe12rcd13ifvqf30","pricing_plan_id":"cebpf4jnsgd1na2vs0mg"},{"bike_id":"d03baa4e-a1ff-4dbb-aa3a-8f7610789178","system_id":"levelo_inurba_marseille","lat":43.33735,"lon":5.39183,"is_reserved":false,"is_disabled":false,"rental_uris":{"android":"levelo://app?vid=d03baa4e-a1ff-4dbb-aa3a-8f7610789178","ios":"levelo://app?vid=d03baa4e-a1ff-4dbb-aa3a-8f7610789178"},"vehicle_type_id":"4","last_reported":1736428614,"current_range_meters":38800,"station_id":"ce4bhr92rcd13ifvqhsg","pricing_plan_id":"cebpf4jnsgd1na2vs0mg"},{"bike_id":"373f9adc-1c85-4ead-bb1d-5a706b5c55e3","system_id":"levelo_inurba_marseille","lat":43.30143,"lon":5.3808,"is_reserved":false,"is_disabled":false,"rental_uris":{"android":"levelo://app?vid=373f9adc-1c85-4ead-bb1d-5a706b5c55e3","ios":"levelo://app?vid=373f9adc-1c85-4ead-bb1d-5a706b5c55e3"},"vehicle_type_id":"4","last_reported":1736428614,"current_range_meters":24800,"station_id":"ce4bgjp2rcd13ifvqbh0","pricing_plan_id":"cebpf4jnsgd1na2vs0mg"},{"bike_id":"121d2b7f-02c4-4e7e-a442-57e420399f1e","system_id":"levelo_inurba_marseille","lat":43.24084,"lon":5.37747,"is_reserved":false,"is_disabled":false,"rental_uris":{"android":"levelo://app?vid=121d2b7f-02c4-4e7e-a442-57e420399f1e","ios":"levelo://app?vid=121d2b7f-02c4-4e7e-a442-57e420399f1e"},"vehicle_type_id":"4","last_reported":1736428614,"current_range_meters":38800,"station_id":"ce4bhnp2rcd13ifvqgvg","pricing_plan_id":"cebpf4jnsgd1na2vs0mg"},{"bike_id":"1c071016-4426-4a79-86fe-c7a9f2cb5431","system_id":"levelo_inurba_marseille","lat":43.28347,"lon":5.38102,"is_reserved":false,"is_disabled":false,"rental_uris":{"android":"levelo://app?vid=1c071016-4426-4a79-86fe-c7a9f2cb5431","ios":"levelo://app?vid=1c071016-4426-4a79-86fe-c7a9f2cb5431"},"vehicle_type_id":"4","last_reported":1736428614,"current_range_meters":14400,"station_id":"ce4bh412rcd13ifvqdr0","pricing_plan_id":"cebpf4jnsgd1na2vs0mg"},{"bike_id":"e55df270-5810-4b23-940b-dee821cadcec","system_id":"levelo_inurba_marseille","lat":43.27032,"lon":5.38786,"is_reserved":false,"is_disabled":false,"rental_uris":{"android":"levelo://app?vid=e55df270-5810-4b23-940b-dee821cadcec","ios":"levelo://app?vid=e55df270-5810-4b23-940b-dee821cadcec"},"vehicle_type_id":"4","last_reported":1736428614,"current_range_meters":35200,"station_id":"","pricing_plan_id":"cebpf4jnsgd1na2vs0mg"},{"bike_id":"6634f8bf-9d52-4118-86a1-d5dfb9f73ba8","system_id":"levelo_inurba_marseille","lat":43.28449,"lon":5.39192,"is_reserved":false,"is_disabled":true,"rental_uris":{"android":"levelo://app?vid=6634f8bf-9d52-4118-86a1-d5dfb9f73ba8","ios":"levelo://app?vid=6634f8bf-9d52-4118-86a1-d5dfb9f73ba8"},"vehicle_type_id":"4","last_reported":1736428614,"current_range_meters":36400,"station_id":"ce4bhoh2rcd13ifvqh5g","pricing_plan_id":"cebpf4jnsgd1na2vs0mg"},{"bike_id":"03150058-0a35-42f2-a29e-9a2d94dc6c68","system_id":"levelo_inurba_marseille","lat":43.27832,"lon":5.40739,"is_reserved":false,"is_disabled":false,"rental_uris":{"android":"levelo://app?vid=03150058-0a35-42f2-a29e-9a2d94dc6c68","ios":"levelo://app?vid=03150058-0a35-42f2-a29e-9a2d94dc6c68"},"vehicle_type_id":"4","last_reported":1736428614,"current_range_meters":3200,"station_id":"ce4bhnh2rcd13ifvqgtg","pricing_plan_id":"cebpf4jnsgd1na2vs0mg"},{"bike_id":"ec319423-7fa8-45ee-b7f8-ab3cf86bce10","system_id":"levelo_inurba_marseille","lat":43.29937,"lon":5.36538,"is_reserved":false,"is_disabled":true,"rental_uris":{"android":"levelo://app?vid=ec319423-7fa8-45ee-b7f8-ab3cf86bce10","ios":"levelo://app?vid=ec319423-7fa8-45ee-b7f8-ab3cf86bce10"},"vehicle_type_id":"4","last_reported":1736428614,"current_range_meters":0,"station_id":"ce4bgm92rcd13ifvqbr0","pricing_plan_id":"cebpf4jnsgd1na2vs0mg"},{"bike_id":"9605a8b5-1b73-4c78-b5b4-78ee68418838","system_id":"levelo_inurba_marseille","lat":43.27074,"lon":5.42283,"is_reserved":false,"is_disabled":false,"rental_uris":{"android":"levelo://app?vid=9605a8b5-1b73-4c78-b5b4-78ee68418838","ios":"levelo://app?vid=9605a8b5-1b73-4c78-b5b4-78ee68418838"},"vehicle_type_id":"4","last_reported":1736428614,"current_range_meters":39200,"station_id":"ce4bhk92rcd13ifvqgb0","pricing_plan_id":"cebpf4jnsgd1na2vs0mg"},{"bike_id":"526503e8-93a6-418c-be12-1eb1aa5129ec","system_id":"levelo_inurba_marseille","lat":43.29567,"lon":5.37508,"is_reserved":false,"is_disabled":false,"rental_uris":{"android":"levelo://app?vid=526503e8-93a6-418c-be12-1eb1aa5129ec","ios":"levelo://app?vid=526503e8-93a6-418c-be12-1eb1aa5129ec"},"vehicle_type_id":"4","last_reported":1736428614,"current_range_meters":22400,"station_id":"ce4bgh92rcd13ifvqb50","pricing_plan_id":"cebpf4jnsgd1na2vs0mg"},{"bike_id":"c8715b1d-b413-4b2c-b6c2-dc7edfd3607d","system_id":"levelo_inurba_marseille","lat":43.31325,"lon":5.397,"is_reserved":false,"is_disabled":false,"rental_uris":{"android":"levelo://app?vid=c8715b1d-b413-4b2c-b6c2-dc7edfd3607d","ios":"levelo://app?vid=c8715b1d-b413-4b2c-b6c2-dc7edfd3607d"},"vehicle_type_id":"4","last_reported":1736428614,"current_range_meters":32800,"station_id":"ce4bgvp2rcd13ifvqcu0","pricing_plan_id":"cebpf4jnsgd1na2vs0mg"},{"bike_id":"f799bb7a-9933-4b5a-8f9e-1b8361cf1c45","system_id":"levelo_inurba_marseille","lat":43.27499,"lon":5.42465,"is_reserved":false,"is_disabled":false,"rental_uris":{"android":"levelo://app?vid=f799bb7a-9933-4b5a-8f9e-1b8361cf1c45","ios":"levelo://app?vid=f799bb7a-9933-4b5a-8f9e-1b8361cf1c45"},"vehicle_type_id":"4","last_reported":1736428614,"current_range_meters":24000,"station_id":"ce4bhn92rcd13ifvqgrg","pricing_plan_id":"cebpf4jnsgd1na2vs0mg"},{"bike_id":"e93f83ab-0e3e-4fd9-8d9e-6775678c8e02","system_id":"levelo_inurba_marseille","lat":43.32992,"lon":5.39051,"is_reserved":false,"is_disabled":false,"rental_uris":{"android":"levelo://app?vid=e93f83ab-0e3e-4fd9-8d9e-6775678c8e02","ios":"levelo://app?vid=e93f83ab-0e3e-4fd9-8d9e-6775678c8e02"},"vehicle_type_id":"4","last_reported":1736428614,"current_range_meters":39200,"station_id":"ce4bhr92rcd13ifvqhrg","pricing_plan_id":"cebpf4jnsgd1na2vs0mg"},{"bike_id":"2a688222-c53a-43b7-8662-6814af84e9d9","system_id":"levelo_inurba_marseille","lat":43.25581,"lon":5.3824,"is_reserved":false,"is_disabled":false,"rental_uris":{"android":"levelo://app?vid=2a688222-c53a-43b7-8662-6814af84e9d9","ios":"levelo://app?vid=2a688222-c53a-43b7-8662-6814af84e9d9"},"vehicle_type_id":"4","last_reported":1736428614,"current_range_meters":29600,"station_id":"ce4bhih2rcd13ifvqfs0","pricing_plan_id":"cebpf4jnsgd1na2vs0mg"},{"bike_id":"de68c0ed-ca17-4377-aa01-b8161dea2dd1","system_id":"levelo_inurba_marseille","lat":43.30531,"lon":5.36715,"is_reserved":false,"is_disabled":false,"rental_uris":{"android":"levelo://app?vid=de68c0ed-ca17-4377-aa01-b8161dea2dd1","ios":"levelo://app?vid=de68c0ed-ca17-4377-aa01-b8161dea2dd1"},"vehicle_type_id":"4","last_reported":1736428614,"current_range_meters":36000,"station_id":"ce4bgrp2rcd13ifvqc9g","pricing_plan_id":"cebpf4jnsgd1na2vs0mg"},{"bike_id":"bb5f7b1b-fafb-45b0-a6b7-306e5a25c30d","system_id":"levelo_inurba_marseille","lat":43.23144,"lon":5.43719,"is_reserved":false,"is_disabled":false,"rental_uris":{"android":"levelo://app?vid=bb5f7b1b-fafb-45b0-a6b7-306e5a25c30d","ios":"levelo://app?vid=bb5f7b1b-fafb-45b0-a6b7-306e5a25c30d"},"vehicle_type_id":"4","last_reported":1736428614,"current_range_meters":38800,"station_id":"ce4bhmp2rcd13ifvqgog","pricing_plan_id":"cebpf4jnsgd1na2vs0mg"},{"bike_id":"945846a1-273e-4ff7-b4fa-22eab695956b","system_id":"levelo_inurba_marseille","lat":43.2407,"lon":5.37755,"is_reserved":false,"is_disabled":false,"rental_uris":{"android":"levelo://app?vid=945846a1-273e-4ff7-b4fa-22eab695956b","ios":"levelo://app?vid=945846a1-273e-4ff7-b4fa-22eab695956b"},"vehicle_type_id":"4","last_reported":1736428614,"current_range_meters":33600,"station_id":"ce4bhnp2rcd13ifvqgvg","pricing_plan_id":"cebpf4jnsgd1na2vs0mg"},{"bike_id":"22ef06b5-960c-4594-a9ce-bdfe76cc1abf","system_id":"levelo_inurba_marseille","lat":43.30928,"lon":5.40141,"is_reserved":false,"is_disabled":false,"rental_uris":{"android":"levelo://app?vid=22ef06b5-960c-4594-a9ce-bdfe76cc1abf","ios":"levelo://app?vid=22ef06b5-960c-4594-a9ce-bdfe76cc1abf"},"vehicle_type_id":"4","last_reported":1736428614,"current_range_meters":39200,"station_id":"ce4bgvp2rcd13ifvqct0","pricing_plan_id":"cebpf4jnsgd1na2vs0mg"},{"bike_id":"90003230-2351-4373-82c1-2444b1a3fd68","system_id":"levelo_inurba_marseille","lat":43.29967,"lon":5.37178,"is_reserved":false,"is_disabled":false,"rental_uris":{"android":"levelo://app?vid=90003230-2351-4373-82c1-2444b1a3fd68","ios":"levelo://app?vid=90003230-2351-4373-82c1-2444b1a3fd68"},"vehicle_type_id":"4","last_reported":1736428614,"current_range_meters":35200,"station_id":"ce4bgr92rcd13ifvqc7g","pricing_plan_id":"cebpf4jnsgd1na2vs0mg"},{"bike_id":"ca929e17-2c3f-4af7-bd21-94ba0b28a269","system_id":"levelo_inurba_marseille","lat":43.3265,"lon":5.40977,"is_reserved":false,"is_disabled":false,"rental_uris":{"android":"levelo://app?vid=ca929e17-2c3f-4af7-bd21-94ba0b28a269","ios":"levelo://app?vid=ca929e17-2c3f-4af7-bd21-94ba0b28a269"},"vehicle_type_id":"4","last_reported":1736428614,"current_range_meters":37600,"station_id":"ce4bhpp2rcd13ifvqhgg","pricing_plan_id":"cebpf4jnsgd1na2vs0mg"},{"bike_id":"fa573424-5251-41d0-8cc9-a981f6ca3bf5","system_id":"levelo_inurba_marseille","lat":43.28021,"lon":5.36928,"is_reserved":false,"is_disabled":false,"rental_uris":{"android":"levelo://app?vid=fa573424-5251-41d0-8cc9-a981f6ca3bf5","ios":"levelo://app?vid=fa573424-5251-41d0-8cc9-a981f6ca3bf5"},"vehicle_type_id":"4","last_reported":1736428614,"current_range_meters":28000,"station_id":"ce4bha12rcd13ifvqef0","pricing_plan_id":"cebpf4jnsgd1na2vs0mg"},{"bike_id":"494822bd-666e-4933-8362-e9915c3e969d","system_id":"levelo_inurba_marseille","lat":43.30167,"lon":5.38098,"is_reserved":false,"is_disabled":false,"rental_uris":{"android":"levelo://app?vid=494822bd-666e-4933-8362-e9915c3e969d","ios":"levelo://app?vid=494822bd-666e-4933-8362-e9915c3e969d"},"vehicle_type_id":"4","last_reported":1736428614,"current_range_meters":24800,"station_id":"ce4bgjp2rcd13ifvqbh0","pricing_plan_id":"cebpf4jnsgd1na2vs0mg"},{"bike_id":"8c9aa14a-afd0-46c9-878e-5da92e1bc233","system_id":"levelo_inurba_marseille","lat":43.23139,"lon":5.43699,"is_reserved":false,"is_disabled":false,"rental_uris":{"android":"levelo://app?vid=8c9aa14a-afd0-46c9-878e-5da92e1bc233","ios":"levelo://app?vid=8c9aa14a-afd0-46c9-878e-5da92e1bc233"},"vehicle_type_id":"4","last_reported":1736428614,"current_range_meters":38800,"station_id":"ce4bhmp2rcd13ifvqgog","pricing_plan_id":"cebpf4jnsgd1na2vs0mg"},{"bike_id":"a5b17657-42e5-456b-bb59-7c63a1f42c97","system_id":"levelo_inurba_marseille","lat":43.23149,"lon":5.43699,"is_reserved":false,"is_disabled":false,"rental_uris":{"android":"levelo://app?vid=a5b17657-42e5-456b-bb59-7c63a1f42c97","ios":"levelo://app?vid=a5b17657-42e5-456b-bb59-7c63a1f42c97"},"vehicle_type_id":"4","last_reported":1736428614,"current_range_meters":36800,"station_id":"ce4bhmp2rcd13ifvqgog","pricing_plan_id":"cebpf4jnsgd1na2vs0mg"},{"bike_id":"37d8e1ef-d932-49d7-b893-49542cf44d13","system_id":"levelo_inurba_marseille","lat":43.32345,"lon":5.40629,"is_reserved":false,"is_disabled":true,"rental_uris":{"android":"levelo://app?vid=37d8e1ef-d932-49d7-b893-49542cf44d13","ios":"levelo://app?vid=37d8e1ef-d932-49d7-b893-49542cf44d13"},"vehicle_type_id":"4","last_reported":1736428614,"current_range_meters":0,"station_id":"ce4bhq92rcd13ifvqhjg","pricing_plan_id":"cebpf4jnsgd1na2vs0mg"},{"bike_id":"458c3d58-e6a5-4d1a-8df2-05d9cb3e0072","system_id":"levelo_inurba_marseille","lat":43.25582,"lon":5.38251,"is_reserved":false,"is_disabled":false,"rental_uris":{"android":"levelo://app?vid=458c3d58-e6a5-4d1a-8df2-05d9cb3e0072","ios":"levelo://app?vid=458c3d58-e6a5-4d1a-8df2-05d9cb3e0072"},"vehicle_type_id":"4","last_reported":1736428614,"current_range_meters":21600,"station_id":"ce4bhih2rcd13ifvqfs0","pricing_plan_id":"cebpf4jnsgd1na2vs0mg"},{"bike_id":"ce4b177f-527a-4fe7-8a07-ad28f2fa6bec","system_id":"levelo_inurba_marseille","lat":43.30583,"lon":5.39325,"is_reserved":false,"is_disabled":false,"rental_uris":{"android":"levelo://app?vid=ce4b177f-527a-4fe7-8a07-ad28f2fa6bec","ios":"levelo://app?vid=ce4b177f-527a-4fe7-8a07-ad28f2fa6bec"},"vehicle_type_id":"4","last_reported":1736428614,"current_range_meters":18800,"station_id":"ce4bh0p2rcd13ifvqd80","pricing_plan_id":"cebpf4jnsgd1na2vs0mg"},{"bike_id":"f138e714-233c-45f3-9098-6b0938784952","system_id":"levelo_inurba_marseille","lat":43.24072,"lon":5.37769,"is_reserved":false,"is_disabled":false,"rental_uris":{"android":"levelo://app?vid=f138e714-233c-45f3-9098-6b0938784952","ios":"levelo://app?vid=f138e714-233c-45f3-9098-6b0938784952"},"vehicle_type_id":"4","last_reported":1736428614,"current_range_meters":24400,"station_id":"ce4bhnp2rcd13ifvqgvg","pricing_plan_id":"cebpf4jnsgd1na2vs0mg"},{"bike_id":"ea5f9666-7784-4571-9696-674ce37af201","system_id":"levelo_inurba_marseille","lat":43.23961,"lon":5.36631,"is_reserved":false,"is_disabled":false,"rental_uris":{"android":"levelo://app?vid=ea5f9666-7784-4571-9696-674ce37af201","ios":"levelo://app?vid=ea5f9666-7784-4571-9696-674ce37af201"},"vehicle_type_id":"4","last_reported":1736428614,"current_range_meters":14800,"station_id":"ce4bhi12rcd13ifvqfp0","pricing_plan_id":"cebpf4jnsgd1na2vs0mg"},{"bike_id":"263d3f02-c0ce-4595-baad-e0e05c6a3c4c","system_id":"levelo_inurba_marseille","lat":43.25576,"lon":5.38234,"is_reserved":false,"is_disabled":false,"rental_uris":{"android":"levelo://app?vid=263d3f02-c0ce-4595-baad-e0e05c6a3c4c","ios":"levelo://app?vid=263d3f02-c0ce-4595-baad-e0e05c6a3c4c"},"vehicle_type_id":"4","last_reported":1736428614,"current_range_meters":28400,"station_id":"ce4bhih2rcd13ifvqfs0","pricing_plan_id":"cebpf4jnsgd1na2vs0mg"},{"bike_id":"e162055e-04f8-4e16-85e5-e66d7339ffa3","system_id":"levelo_inurba_marseille","lat":43.28418,"lon":5.39197,"is_reserved":false,"is_disabled":false,"rental_uris":{"android":"levelo://app?vid=e162055e-04f8-4e16-85e5-e66d7339ffa3","ios":"levelo://app?vid=e162055e-04f8-4e16-85e5-e66d7339ffa3"},"vehicle_type_id":"4","last_reported":1736428614,"current_range_meters":30000,"station_id":"ce4bhoh2rcd13ifvqh5g","pricing_plan_id":"cebpf4jnsgd1na2vs0mg"},{"bike_id":"57f7aac0-4f05-432a-9657-d1b1f32da88a","system_id":"levelo_inurba_marseille","lat":43.29061,"lon":5.37161,"is_reserved":false,"is_disabled":false,"rental_uris":{"android":"levelo://app?vid=57f7aac0-4f05-432a-9657-d1b1f32da88a","ios":"levelo://app?vid=57f7aac0-4f05-432a-9657-d1b1f32da88a"},"vehicle_type_id":"4","last_reported":1736428614,"current_range_meters":10800,"station_id":"ce4bh5p2rcd13ifvqe4g","pricing_plan_id":"cebpf4jnsgd1na2vs0mg"},{"bike_id":"73506a2a-d06c-45de-92d0-b96c574a5cbc","system_id":"levelo_inurba_marseille","lat":43.293762,"lon":5.378704,"is_reserved":false,"is_disabled":false,"rental_uris":{"android":"levelo://app?vid=73506a2a-d06c-45de-92d0-b96c574a5cbc","ios":"levelo://app?vid=73506a2a-d06c-45de-92d0-b96c574a5cbc"},"vehicle_type_id":"4","last_reported":1736428614,"current_range_meters":30400,"station_id":"ce4bgjh2rcd13ifvqbf0","pricing_plan_id":"cebpf4jnsgd1na2vs0mg"},{"bike_id":"4b9552e7-7313-44cc-ba72-6ebb3cfea997","system_id":"levelo_inurba_marseille","lat":43.26059,"lon":5.394,"is_reserved":false,"is_disabled":false,"rental_uris":{"android":"levelo://app?vid=4b9552e7-7313-44cc-ba72-6ebb3cfea997","ios":"levelo://app?vid=4b9552e7-7313-44cc-ba72-6ebb3cfea997"},"vehicle_type_id":"4","last_reported":1736428614,"current_range_meters":35200,"station_id":"ce4bhh92rcd13ifvqfj0","pricing_plan_id":"cebpf4jnsgd1na2vs0mg"},{"bike_id":"c150f8af-fc8f-4eb5-ac98-0b06dadf4ce0","system_id":"levelo_inurba_marseille","lat":43.25576,"lon":5.38238,"is_reserved":false,"is_disabled":false,"rental_uris":{"android":"levelo://app?vid=c150f8af-fc8f-4eb5-ac98-0b06dadf4ce0","ios":"levelo://app?vid=c150f8af-fc8f-4eb5-ac98-0b06dadf4ce0"},"vehicle_type_id":"4","last_reported":1736428614,"current_range_meters":37600,"station_id":"ce4bhih2rcd13ifvqfs0","pricing_plan_id":"cebpf4jnsgd1na2vs0mg"},{"bike_id":"531d7216-cfc6-4c0c-bf5a-f9d97fc08c1c","system_id":"levelo_inurba_marseille","lat":43.27813,"lon":5.40716,"is_reserved":false,"is_disabled":false,"rental_uris":{"android":"levelo://app?vid=531d7216-cfc6-4c0c-bf5a-f9d97fc08c1c","ios":"levelo://app?vid=531d7216-cfc6-4c0c-bf5a-f9d97fc08c1c"},"vehicle_type_id":"4","last_reported":1736428614,"current_range_meters":28800,"station_id":"ce4bhnh2rcd13ifvqgtg","pricing_plan_id":"cebpf4jnsgd1na2vs0mg"},{"bike_id":"2af25184-fbf6-4f87-b14f-9536f0c73dd2","system_id":"levelo_inurba_marseille","lat":43.29907,"lon":5.38144,"is_reserved":false,"is_disabled":false,"rental_uris":{"android":"levelo://app?vid=2af25184-fbf6-4f87-b14f-9536f0c73dd2","ios":"levelo://app?vid=2af25184-fbf6-4f87-b14f-9536f0c73dd2"},"vehicle_type_id":"4","last_reported":1736428614,"current_range_meters":24000,"station_id":"ce4bgj12rcd13ifvqbc0","pricing_plan_id":"cebpf4jnsgd1na2vs0mg"},{"bike_id":"7277abf6-1732-4723-9bef-c0330eccd972","system_id":"levelo_inurba_marseille","lat":43.27499,"lon":5.42455,"is_reserved":false,"is_disabled":false,"rental_uris":{"android":"levelo://app?vid=7277abf6-1732-4723-9bef-c0330eccd972","ios":"levelo://app?vid=7277abf6-1732-4723-9bef-c0330eccd972"},"vehicle_type_id":"4","last_reported":1736428614,"current_range_meters":35200,"station_id":"ce4bhn92rcd13ifvqgrg","pricing_plan_id":"cebpf4jnsgd1na2vs0mg"},{"bike_id":"1c6a8ec7-5ae9-44c9-a9ca-e14034f04ace","system_id":"levelo_inurba_marseille","lat":43.28402,"lon":5.37514,"is_reserved":false,"is_disabled":false,"rental_uris":{"android":"levelo://app?vid=1c6a8ec7-5ae9-44c9-a9ca-e14034f04ace","ios":"levelo://app?vid=1c6a8ec7-5ae9-44c9-a9ca-e14034f04ace"},"vehicle_type_id":"4","last_reported":1736428614,"current_range_meters":26000,"station_id":"ce4bh412rcd13ifvqds0","pricing_plan_id":"cebpf4jnsgd1na2vs0mg"},{"bike_id":"1c11ee91-002d-4256-9dda-22026d6fe12a","system_id":"levelo_inurba_marseille","lat":43.3117,"lon":5.38726,"is_reserved":false,"is_disabled":false,"rental_uris":{"android":"levelo://app?vid=1c11ee91-002d-4256-9dda-22026d6fe12a","ios":"levelo://app?vid=1c11ee91-002d-4256-9dda-22026d6fe12a"},"vehicle_type_id":"4","last_reported":1736428614,"current_range_meters":16000,"station_id":"ce4bgv12rcd13ifvqcp0","pricing_plan_id":"cebpf4jnsgd1na2vs0mg"},{"bike_id":"8caee6a7-a343-4e7e-92cc-a74facb40f4e","system_id":"levelo_inurba_marseille","lat":43.23145,"lon":5.43697,"is_reserved":false,"is_disabled":false,"rental_uris":{"android":"levelo://app?vid=8caee6a7-a343-4e7e-92cc-a74facb40f4e","ios":"levelo://app?vid=8caee6a7-a343-4e7e-92cc-a74facb40f4e"},"vehicle_type_id":"4","last_reported":1736428614,"current_range_meters":38800,"station_id":"ce4bhmp2rcd13ifvqgog","pricing_plan_id":"cebpf4jnsgd1na2vs0mg"},{"bike_id":"60ce1b70-e47d-4caf-abee-52e7d5bfe299","system_id":"levelo_inurba_marseille","lat":43.24633,"lon":5.38898,"is_reserved":false,"is_disabled":false,"rental_uris":{"android":"levelo://app?vid=60ce1b70-e47d-4caf-abee-52e7d5bfe299","ios":"levelo://app?vid=60ce1b70-e47d-4caf-abee-52e7d5bfe299"},"vehicle_type_id":"4","last_reported":1736428614,"current_range_meters":38000,"station_id":"ce4bhg12rcd13ifvqf60","pricing_plan_id":"cebpf4jnsgd1na2vs0mg"},{"bike_id":"7627c0f8-e30b-4018-a991-3dd21750fc78","system_id":"levelo_inurba_marseille","lat":43.286996,"lon":5.379378,"is_reserved":false,"is_disabled":true,"rental_uris":{"android":"levelo://app?vid=7627c0f8-e30b-4018-a991-3dd21750fc78","ios":"levelo://app?vid=7627c0f8-e30b-4018-a991-3dd21750fc78"},"vehicle_type_id":"4","last_reported":1736428614,"current_range_meters":38800,"station_id":"ce4bh9p2rcd13ifvqec0","pricing_plan_id":"cebpf4jnsgd1na2vs0mg"},{"bike_id":"66471134-25e4-4211-abd7-23c33d84503b","system_id":"levelo_inurba_marseille","lat":43.25934,"lon":5.40916,"is_reserved":false,"is_disabled":false,"rental_uris":{"android":"levelo://app?vid=66471134-25e4-4211-abd7-23c33d84503b","ios":"levelo://app?vid=66471134-25e4-4211-abd7-23c33d84503b"},"vehicle_type_id":"4","last_reported":1736428614,"current_range_meters":38800,"station_id":"ce4bhm92rcd13ifvqglg","pricing_plan_id":"cebpf4jnsgd1na2vs0mg"},{"bike_id":"a4127fdb-7dda-47f7-9ce6-cc0390d00482","system_id":"levelo_inurba_marseille","lat":43.28368,"lon":5.38094,"is_reserved":false,"is_disabled":false,"rental_uris":{"android":"levelo://app?vid=a4127fdb-7dda-47f7-9ce6-cc0390d00482","ios":"levelo://app?vid=a4127fdb-7dda-47f7-9ce6-cc0390d00482"},"vehicle_type_id":"4","last_reported":1736428614,"current_range_meters":35200,"station_id":"ce4bh412rcd13ifvqdr0","pricing_plan_id":"cebpf4jnsgd1na2vs0mg"},{"bike_id":"a04c750d-c2a3-4826-bb16-b9d8bd34b860","system_id":"levelo_inurba_marseille","lat":43.25559,"lon":5.38266,"is_reserved":false,"is_disabled":false,"rental_uris":{"android":"levelo://app?vid=a04c750d-c2a3-4826-bb16-b9d8bd34b860","ios":"levelo://app?vid=a04c750d-c2a3-4826-bb16-b9d8bd34b860"},"vehicle_type_id":"4","last_reported":1736428614,"current_range_meters":39200,"station_id":"ce4bhih2rcd13ifvqfs0","pricing_plan_id":"cebpf4jnsgd1na2vs0mg"},{"bike_id":"03c15d26-5db6-4340-918c-6ed83008547c","system_id":"levelo_inurba_marseille","lat":43.30891,"lon":5.39665,"is_reserved":false,"is_disabled":false,"rental_uris":{"android":"levelo://app?vid=03c15d26-5db6-4340-918c-6ed83008547c","ios":"levelo://app?vid=03c15d26-5db6-4340-918c-6ed83008547c"},"vehicle_type_id":"4","last_reported":1736428614,"current_range_meters":23200,"station_id":"ce4bh012rcd13ifvqcv0","pricing_plan_id":"cebpf4jnsgd1na2vs0mg"},{"bike_id":"d1b092d3-a407-46bf-b987-f5eda0e6e805","system_id":"levelo_inurba_marseille","lat":43.29769,"lon":5.37093,"is_reserved":false,"is_disabled":false,"rental_uris":{"android":"levelo://app?vid=d1b092d3-a407-46bf-b987-f5eda0e6e805","ios":"levelo://app?vid=d1b092d3-a407-46bf-b987-f5eda0e6e805"},"vehicle_type_id":"4","last_reported":1736428614,"current_range_meters":37600,"station_id":"ce4bgop2rcd13ifvqc1g","pricing_plan_id":"cebpf4jnsgd1na2vs0mg"},{"bike_id":"eb9e7f11-40b0-4740-a3cf-085cd019d8d1","system_id":"levelo_inurba_marseille","lat":43.301449,"lon":5.380819,"is_reserved":false,"is_disabled":false,"rental_uris":{"android":"levelo://app?vid=eb9e7f11-40b0-4740-a3cf-085cd019d8d1","ios":"levelo://app?vid=eb9e7f11-40b0-4740-a3cf-085cd019d8d1"},"vehicle_type_id":"4","last_reported":1736428614,"current_range_meters":38800,"station_id":"ce4bgjp2rcd13ifvqbh0","pricing_plan_id":"cebpf4jnsgd1na2vs0mg"},{"bike_id":"ee025aae-8bdc-4842-8c51-8f9e41b08cac","system_id":"levelo_inurba_marseille","lat":43.30186,"lon":5.36628,"is_reserved":false,"is_disabled":false,"rental_uris":{"android":"levelo://app?vid=ee025aae-8bdc-4842-8c51-8f9e41b08cac","ios":"levelo://app?vid=ee025aae-8bdc-4842-8c51-8f9e41b08cac"},"vehicle_type_id":"4","last_reported":1736428614,"current_range_meters":7200,"station_id":"ce4bgrh2rcd13ifvqc8g","pricing_plan_id":"cebpf4jnsgd1na2vs0mg"},{"bike_id":"957803de-4daa-424b-9453-98777059ba5f","system_id":"levelo_inurba_marseille","lat":43.26554,"lon":5.38998,"is_reserved":false,"is_disabled":false,"rental_uris":{"android":"levelo://app?vid=957803de-4daa-424b-9453-98777059ba5f","ios":"levelo://app?vid=957803de-4daa-424b-9453-98777059ba5f"},"vehicle_type_id":"4","last_reported":1736428614,"current_range_meters":20800,"station_id":"ce4bhe12rcd13ifvqf30","pricing_plan_id":"cebpf4jnsgd1na2vs0mg"},{"bike_id":"7c02d5fd-e220-446a-a8ce-23e0ab103fee","system_id":"levelo_inurba_marseille","lat":43.30952,"lon":5.39038,"is_reserved":false,"is_disabled":false,"rental_uris":{"android":"levelo://app?vid=7c02d5fd-e220-446a-a8ce-23e0ab103fee","ios":"levelo://app?vid=7c02d5fd-e220-446a-a8ce-23e0ab103fee"},"vehicle_type_id":"4","last_reported":1736428614,"current_range_meters":26000,"station_id":"ce4bgup2rcd13ifvqco0","pricing_plan_id":"cebpf4jnsgd1na2vs0mg"},{"bike_id":"6c9daffc-e174-4a9a-8b3e-30a6cf4027c8","system_id":"levelo_inurba_marseille","lat":43.3211,"lon":5.36776,"is_reserved":false,"is_disabled":false,"rental_uris":{"android":"levelo://app?vid=6c9daffc-e174-4a9a-8b3e-30a6cf4027c8","ios":"levelo://app?vid=6c9daffc-e174-4a9a-8b3e-30a6cf4027c8"},"vehicle_type_id":"4","last_reported":1736428614,"current_range_meters":14800,"station_id":"ce4bhrh2rcd13ifvqhug","pricing_plan_id":"cebpf4jnsgd1na2vs0mg"},{"bike_id":"d9a70281-b132-494a-a389-4e9a9ff76397","system_id":"levelo_inurba_marseille","lat":43.28941,"lon":5.36396,"is_reserved":false,"is_disabled":false,"rental_uris":{"android":"levelo://app?vid=d9a70281-b132-494a-a389-4e9a9ff76397","ios":"levelo://app?vid=d9a70281-b132-494a-a389-4e9a9ff76397"},"vehicle_type_id":"4","last_reported":1736428614,"current_range_meters":9600,"station_id":"ce4bhc92rcd13ifvqetg","pricing_plan_id":"cebpf4jnsgd1na2vs0mg"},{"bike_id":"355798b5-9f19-4468-ab35-5d5928887f31","system_id":"levelo_inurba_marseille","lat":43.26691,"lon":5.38295,"is_reserved":false,"is_disabled":false,"rental_uris":{"android":"levelo://app?vid=355798b5-9f19-4468-ab35-5d5928887f31","ios":"levelo://app?vid=355798b5-9f19-4468-ab35-5d5928887f31"},"vehicle_type_id":"4","last_reported":1736428614,"current_range_meters":20400,"station_id":"ce4bhg92rcd13ifvqf90","pricing_plan_id":"cebpf4jnsgd1na2vs0mg"},{"bike_id":"feb1c606-2341-4918-8abd-da8a12f4e1f7","system_id":"levelo_inurba_marseille","lat":43.31359,"lon":5.38506,"is_reserved":false,"is_disabled":false,"rental_uris":{"android":"levelo://app?vid=feb1c606-2341-4918-8abd-da8a12f4e1f7","ios":"levelo://app?vid=feb1c606-2341-4918-8abd-da8a12f4e1f7"},"vehicle_type_id":"4","last_reported":1736428614,"current_range_meters":38400,"station_id":"ce4bgt92rcd13ifvqcf0","pricing_plan_id":"cebpf4jnsgd1na2vs0mg"},{"bike_id":"f5d718ff-d7d5-4fdf-b12e-e6eeafe05555","system_id":"levelo_inurba_marseille","lat":43.30128,"lon":5.37426,"is_reserved":false,"is_disabled":false,"rental_uris":{"android":"levelo://app?vid=f5d718ff-d7d5-4fdf-b12e-e6eeafe05555","ios":"levelo://app?vid=f5d718ff-d7d5-4fdf-b12e-e6eeafe05555"},"vehicle_type_id":"4","last_reported":1736428614,"current_range_meters":31200,"station_id":"ce4bgs92rcd13ifvqcc0","pricing_plan_id":"cebpf4jnsgd1na2vs0mg"},{"bike_id":"cfb415c6-da59-4905-81c1-91453da2b754","system_id":"levelo_inurba_marseille","lat":43.22933,"lon":5.35381,"is_reserved":false,"is_disabled":false,"rental_uris":{"android":"levelo://app?vid=cfb415c6-da59-4905-81c1-91453da2b754","ios":"levelo://app?vid=cfb415c6-da59-4905-81c1-91453da2b754"},"vehicle_type_id":"4","last_reported":1736428614,"current_range_meters":11600,"station_id":"cpo3532slgdg3j2ikp40","pricing_plan_id":"cebpf4jnsgd1na2vs0mg"},{"bike_id":"f1b6bf01-78fe-4518-922e-ca94ee2b9527","system_id":"levelo_inurba_marseille","lat":43.26938,"lon":5.38616,"is_reserved":false,"is_disabled":false,"rental_uris":{"android":"levelo://app?vid=f1b6bf01-78fe-4518-922e-ca94ee2b9527","ios":"levelo://app?vid=f1b6bf01-78fe-4518-922e-ca94ee2b9527"},"vehicle_type_id":"4","last_reported":1736428614,"current_range_meters":12800,"station_id":"ce4bhh92rcd13ifvqfh0","pricing_plan_id":"cebpf4jnsgd1na2vs0mg"},{"bike_id":"2581e438-acdf-4d21-8721-6bb36b3adbc3","system_id":"levelo_inurba_marseille","lat":43.31232,"lon":5.36871,"is_reserved":false,"is_disabled":false,"rental_uris":{"android":"levelo://app?vid=2581e438-acdf-4d21-8721-6bb36b3adbc3","ios":"levelo://app?vid=2581e438-acdf-4d21-8721-6bb36b3adbc3"},"vehicle_type_id":"4","last_reported":1736428614,"current_range_meters":17600,"station_id":"ce4bgl92rcd13ifvqbq0","pricing_plan_id":"cebpf4jnsgd1na2vs0mg"},{"bike_id":"95d3448a-591f-493e-a463-7ae24e6b0478","system_id":"levelo_inurba_marseille","lat":43.30124,"lon":5.38785,"is_reserved":false,"is_disabled":true,"rental_uris":{"android":"levelo://app?vid=95d3448a-591f-493e-a463-7ae24e6b0478","ios":"levelo://app?vid=95d3448a-591f-493e-a463-7ae24e6b0478"},"vehicle_type_id":"4","last_reported":1736428614,"current_range_meters":14800,"station_id":"ce4bghh2rcd13ifvqb60","pricing_plan_id":"cebpf4jnsgd1na2vs0mg"},{"bike_id":"47b52840-ae6f-45a2-91dd-47029d990ad8","system_id":"levelo_inurba_marseille","lat":43.29003,"lon":5.3561,"is_reserved":false,"is_disabled":false,"rental_uris":{"android":"levelo://app?vid=47b52840-ae6f-45a2-91dd-47029d990ad8","ios":"levelo://app?vid=47b52840-ae6f-45a2-91dd-47029d990ad8"},"vehicle_type_id":"4","last_reported":1736428614,"current_range_meters":28400,"station_id":"ce4bhb92rcd13ifvqen0","pricing_plan_id":"cebpf4jnsgd1na2vs0mg"},{"bike_id":"2eb264c8-1e8d-4f17-a831-3cda07857865","system_id":"levelo_inurba_marseille","lat":43.32109,"lon":5.3677,"is_reserved":false,"is_disabled":false,"rental_uris":{"android":"levelo://app?vid=2eb264c8-1e8d-4f17-a831-3cda07857865","ios":"levelo://app?vid=2eb264c8-1e8d-4f17-a831-3cda07857865"},"vehicle_type_id":"4","last_reported":1736428614,"current_range_meters":38000,"station_id":"ce4bhrh2rcd13ifvqhug","pricing_plan_id":"cebpf4jnsgd1na2vs0mg"},{"bike_id":"e34313e7-b5cf-4ae2-ba4c-9aa43f89c13c","system_id":"levelo_inurba_marseille","lat":43.29033,"lon":5.38648,"is_reserved":false,"is_disabled":false,"rental_uris":{"android":"levelo://app?vid=e34313e7-b5cf-4ae2-ba4c-9aa43f89c13c","ios":"levelo://app?vid=e34313e7-b5cf-4ae2-ba4c-9aa43f89c13c"},"vehicle_type_id":"4","last_reported":1736428614,"current_range_meters":36400,"station_id":"ce4bh4p2rcd13ifvqe0g","pricing_plan_id":"cebpf4jnsgd1na2vs0mg"},{"bike_id":"1e2223a2-c032-49e7-8dbf-982df86a0520","system_id":"levelo_inurba_marseille","lat":43.22926,"lon":5.35381,"is_reserved":false,"is_disabled":false,"rental_uris":{"android":"levelo://app?vid=1e2223a2-c032-49e7-8dbf-982df86a0520","ios":"levelo://app?vid=1e2223a2-c032-49e7-8dbf-982df86a0520"},"vehicle_type_id":"4","last_reported":1736428614,"current_range_meters":36800,"station_id":"cpo3532slgdg3j2ikp40","pricing_plan_id":"cebpf4jnsgd1na2vs0mg"},{"bike_id":"4e7cbf55-d486-4530-99d9-9fd07d231bef","system_id":"levelo_inurba_marseille","lat":43.28426,"lon":5.39181,"is_reserved":false,"is_disabled":false,"rental_uris":{"android":"levelo://app?vid=4e7cbf55-d486-4530-99d9-9fd07d231bef","ios":"levelo://app?vid=4e7cbf55-d486-4530-99d9-9fd07d231bef"},"vehicle_type_id":"4","last_reported":1736428614,"current_range_meters":38800,"station_id":"ce4bhoh2rcd13ifvqh5g","pricing_plan_id":"cebpf4jnsgd1na2vs0mg"},{"bike_id":"3aefb9c1-3e4a-487c-b413-b90ef97c7063","system_id":"levelo_inurba_marseille","lat":43.23153,"lon":5.43718,"is_reserved":false,"is_disabled":false,"rental_uris":{"android":"levelo://app?vid=3aefb9c1-3e4a-487c-b413-b90ef97c7063","ios":"levelo://app?vid=3aefb9c1-3e4a-487c-b413-b90ef97c7063"},"vehicle_type_id":"4","last_reported":1736428614,"current_range_meters":14800,"station_id":"ce4bhmp2rcd13ifvqgog","pricing_plan_id":"cebpf4jnsgd1na2vs0mg"},{"bike_id":"be8a233f-ad85-41b2-af03-bfa1e3033438","system_id":"levelo_inurba_marseille","lat":43.23185,"lon":5.35599,"is_reserved":false,"is_disabled":false,"rental_uris":{"android":"levelo://app?vid=be8a233f-ad85-41b2-af03-bfa1e3033438","ios":"levelo://app?vid=be8a233f-ad85-41b2-af03-bfa1e3033438"},"vehicle_type_id":"4","last_reported":1736428614,"current_range_meters":28000,"station_id":"ce4bhu92rcd13ifvqi70","pricing_plan_id":"cebpf4jnsgd1na2vs0mg"},{"bike_id":"b124ca2f-2fd0-4c56-960f-1b8a90949c3b","system_id":"levelo_inurba_marseille","lat":43.29536,"lon":5.37501,"is_reserved":false,"is_disabled":true,"rental_uris":{"android":"levelo://app?vid=b124ca2f-2fd0-4c56-960f-1b8a90949c3b","ios":"levelo://app?vid=b124ca2f-2fd0-4c56-960f-1b8a90949c3b"},"vehicle_type_id":"4","last_reported":1736428614,"current_range_meters":28800,"station_id":"ce4bgkp2rcd13ifvqbmg","pricing_plan_id":"cebpf4jnsgd1na2vs0mg"},{"bike_id":"ea158219-3684-43aa-90c8-68b1428516a3","system_id":"levelo_inurba_marseille","lat":43.28729,"lon":5.37935,"is_reserved":false,"is_disabled":false,"rental_uris":{"android":"levelo://app?vid=ea158219-3684-43aa-90c8-68b1428516a3","ios":"levelo://app?vid=ea158219-3684-43aa-90c8-68b1428516a3"},"vehicle_type_id":"4","last_reported":1736428614,"current_range_meters":13600,"station_id":"ce4bh9p2rcd13ifvqec0","pricing_plan_id":"cebpf4jnsgd1na2vs0mg"},{"bike_id":"b2f7753d-8fb6-4260-976a-6e6284e03d97","system_id":"levelo_inurba_marseille","lat":43.2904,"lon":5.3757,"is_reserved":false,"is_disabled":false,"rental_uris":{"android":"levelo://app?vid=b2f7753d-8fb6-4260-976a-6e6284e03d97","ios":"levelo://app?vid=b2f7753d-8fb6-4260-976a-6e6284e03d97"},"vehicle_type_id":"4","last_reported":1736428614,"current_range_meters":27600,"station_id":"ce4bh692rcd13ifvqe90","pricing_plan_id":"cebpf4jnsgd1na2vs0mg"},{"bike_id":"2bf137df-75b1-44ad-8782-8d7ae5906911","system_id":"levelo_inurba_marseille","lat":43.304328,"lon":5.389117,"is_reserved":false,"is_disabled":false,"rental_uris":{"android":"levelo://app?vid=2bf137df-75b1-44ad-8782-8d7ae5906911","ios":"levelo://app?vid=2bf137df-75b1-44ad-8782-8d7ae5906911"},"vehicle_type_id":"4","last_reported":1736428614,"current_range_meters":38000,"station_id":"ce4bgk12rcd13ifvqbi0","pricing_plan_id":"cebpf4jnsgd1na2vs0mg"},{"bike_id":"287633ea-6643-4c73-914c-6c8a3520dcbc","system_id":"levelo_inurba_marseille","lat":43.27979,"lon":5.38744,"is_reserved":false,"is_disabled":true,"rental_uris":{"android":"levelo://app?vid=287633ea-6643-4c73-914c-6c8a3520dcbc","ios":"levelo://app?vid=287633ea-6643-4c73-914c-6c8a3520dcbc"},"vehicle_type_id":"4","last_reported":1736428614,"current_range_meters":0,"station_id":"ce4bhg12rcd13ifvqf80","pricing_plan_id":"cebpf4jnsgd1na2vs0mg"},{"bike_id":"3cebf9a3-0c25-460c-94d4-af04dc81215b","system_id":"levelo_inurba_marseille","lat":43.30911,"lon":5.36874,"is_reserved":false,"is_disabled":false,"rental_uris":{"android":"levelo://app?vid=3cebf9a3-0c25-460c-94d4-af04dc81215b","ios":"levelo://app?vid=3cebf9a3-0c25-460c-94d4-af04dc81215b"},"vehicle_type_id":"4","last_reported":1736428614,"current_range_meters":38800,"station_id":"ce4bgn92rcd13ifvqbvg","pricing_plan_id":"cebpf4jnsgd1na2vs0mg"},{"bike_id":"363b71f0-6185-416e-9aed-097caf5f4dfa","system_id":"levelo_inurba_marseille","lat":43.28716,"lon":5.37935,"is_reserved":false,"is_disabled":false,"rental_uris":{"android":"levelo://app?vid=363b71f0-6185-416e-9aed-097caf5f4dfa","ios":"levelo://app?vid=363b71f0-6185-416e-9aed-097caf5f4dfa"},"vehicle_type_id":"4","last_reported":1736428614,"current_range_meters":9200,"station_id":"ce4bh9p2rcd13ifvqec0","pricing_plan_id":"cebpf4jnsgd1na2vs0mg"},{"bike_id":"a2cdc16c-2ab6-429a-9af3-90d7981a1f04","system_id":"levelo_inurba_marseille","lat":43.2796,"lon":5.3874,"is_reserved":false,"is_disabled":true,"rental_uris":{"android":"levelo://app?vid=a2cdc16c-2ab6-429a-9af3-90d7981a1f04","ios":"levelo://app?vid=a2cdc16c-2ab6-429a-9af3-90d7981a1f04"},"vehicle_type_id":"4","last_reported":1736428614,"current_range_meters":400,"station_id":"ce4bhg12rcd13ifvqf80","pricing_plan_id":"cebpf4jnsgd1na2vs0mg"},{"bike_id":"6dd3cd51-2d39-490e-95d5-84d2711792f0","system_id":"levelo_inurba_marseille","lat":43.27072,"lon":5.42285,"is_reserved":false,"is_disabled":false,"rental_uris":{"android":"levelo://app?vid=6dd3cd51-2d39-490e-95d5-84d2711792f0","ios":"levelo://app?vid=6dd3cd51-2d39-490e-95d5-84d2711792f0"},"vehicle_type_id":"4","last_reported":1736428614,"current_range_meters":19200,"station_id":"ce4bhk92rcd13ifvqgb0","pricing_plan_id":"cebpf4jnsgd1na2vs0mg"},{"bike_id":"aca58d84-ee45-42b2-bfa7-a284870e32cc","system_id":"levelo_inurba_marseille","lat":43.30903,"lon":5.36859,"is_reserved":false,"is_disabled":false,"rental_uris":{"android":"levelo://app?vid=aca58d84-ee45-42b2-bfa7-a284870e32cc","ios":"levelo://app?vid=aca58d84-ee45-42b2-bfa7-a284870e32cc"},"vehicle_type_id":"4","last_reported":1736428614,"current_range_meters":38800,"station_id":"ce4bgn92rcd13ifvqbvg","pricing_plan_id":"cebpf4jnsgd1na2vs0mg"},{"bike_id":"661421ef-43d8-4a9a-9b63-a317032c4e73","system_id":"levelo_inurba_marseille","lat":43.30135,"lon":5.38789,"is_reserved":false,"is_disabled":true,"rental_uris":{"android":"levelo://app?vid=661421ef-43d8-4a9a-9b63-a317032c4e73","ios":"levelo://app?vid=661421ef-43d8-4a9a-9b63-a317032c4e73"},"vehicle_type_id":"4","last_reported":1736428614,"current_range_meters":38800,"station_id":"ce4bghh2rcd13ifvqb60","pricing_plan_id":"cebpf4jnsgd1na2vs0mg"},{"bike_id":"fc9288ed-9da0-4c7f-9aba-d64070cdbf51","system_id":"levelo_inurba_marseille","lat":43.23158,"lon":5.43707,"is_reserved":false,"is_disabled":true,"rental_uris":{"android":"levelo://app?vid=fc9288ed-9da0-4c7f-9aba-d64070cdbf51","ios":"levelo://app?vid=fc9288ed-9da0-4c7f-9aba-d64070cdbf51"},"vehicle_type_id":"4","last_reported":1736428614,"current_range_meters":2000,"station_id":"ce4bhmp2rcd13ifvqgog","pricing_plan_id":"cebpf4jnsgd1na2vs0mg"},{"bike_id":"0819326e-4c9e-46b6-a47f-46eef59e79b2","system_id":"levelo_inurba_marseille","lat":43.24084,"lon":5.37762,"is_reserved":false,"is_disabled":false,"rental_uris":{"android":"levelo://app?vid=0819326e-4c9e-46b6-a47f-46eef59e79b2","ios":"levelo://app?vid=0819326e-4c9e-46b6-a47f-46eef59e79b2"},"vehicle_type_id":"4","last_reported":1736428614,"current_range_meters":28800,"station_id":"ce4bhnp2rcd13ifvqgvg","pricing_plan_id":"cebpf4jnsgd1na2vs0mg"},{"bike_id":"ad28bd53-1c8c-44ea-9a1c-1e5a5b2498fe","system_id":"levelo_inurba_marseille","lat":43.241632,"lon":5.364254,"is_reserved":false,"is_disabled":false,"rental_uris":{"android":"levelo://app?vid=ad28bd53-1c8c-44ea-9a1c-1e5a5b2498fe","ios":"levelo://app?vid=ad28bd53-1c8c-44ea-9a1c-1e5a5b2498fe"},"vehicle_type_id":"4","last_reported":1736428614,"current_range_meters":15200,"station_id":"cpo36qri1sfpv3e86is0","pricing_plan_id":"cebpf4jnsgd1na2vs0mg"},{"bike_id":"c6f5202e-f115-4b0f-953e-5b95cb1987d4","system_id":"levelo_inurba_marseille","lat":43.26805,"lon":5.40267,"is_reserved":false,"is_disabled":false,"rental_uris":{"android":"levelo://app?vid=c6f5202e-f115-4b0f-953e-5b95cb1987d4","ios":"levelo://app?vid=c6f5202e-f115-4b0f-953e-5b95cb1987d4"},"vehicle_type_id":"4","last_reported":1736428614,"current_range_meters":14000,"station_id":"ce501612rcd8frsf0b60","pricing_plan_id":"cebpf4jnsgd1na2vs0mg"},{"bike_id":"2d2fbc61-7484-43d8-82f1-4c77f4e113dc","system_id":"levelo_inurba_marseille","lat":43.240804,"lon":5.377334,"is_reserved":false,"is_disabled":false,"rental_uris":{"android":"levelo://app?vid=2d2fbc61-7484-43d8-82f1-4c77f4e113dc","ios":"levelo://app?vid=2d2fbc61-7484-43d8-82f1-4c77f4e113dc"},"vehicle_type_id":"4","last_reported":1736428614,"current_range_meters":22400,"station_id":"ce4bhnp2rcd13ifvqgvg","pricing_plan_id":"cebpf4jnsgd1na2vs0mg"},{"bike_id":"c573e959-5924-4ebe-9936-544074586eea","system_id":"levelo_inurba_marseille","lat":43.27148,"lon":5.41004,"is_reserved":false,"is_disabled":false,"rental_uris":{"android":"levelo://app?vid=c573e959-5924-4ebe-9936-544074586eea","ios":"levelo://app?vid=c573e959-5924-4ebe-9936-544074586eea"},"vehicle_type_id":"4","last_reported":1736428614,"current_range_meters":36800,"station_id":"ce4bhl12rcd13ifvqgf0","pricing_plan_id":"cebpf4jnsgd1na2vs0mg"},{"bike_id":"beceaf1c-b3bb-4418-826f-ccba131c6a10","system_id":"levelo_inurba_marseille","lat":43.23146,"lon":5.43731,"is_reserved":false,"is_disabled":false,"rental_uris":{"android":"levelo://app?vid=beceaf1c-b3bb-4418-826f-ccba131c6a10","ios":"levelo://app?vid=beceaf1c-b3bb-4418-826f-ccba131c6a10"},"vehicle_type_id":"4","last_reported":1736428614,"current_range_meters":38800,"station_id":"ce4bhmp2rcd13ifvqgog","pricing_plan_id":"cebpf4jnsgd1na2vs0mg"},{"bike_id":"9af0ea47-5673-4051-b0c8-1ac27575b7ca","system_id":"levelo_inurba_marseille","lat":43.28498,"lon":5.38549,"is_reserved":false,"is_disabled":false,"rental_uris":{"android":"levelo://app?vid=9af0ea47-5673-4051-b0c8-1ac27575b7ca","ios":"levelo://app?vid=9af0ea47-5673-4051-b0c8-1ac27575b7ca"},"vehicle_type_id":"4","last_reported":1736428614,"current_range_meters":17600,"station_id":"ce4bh8p2rcd13ifvqeb0","pricing_plan_id":"cebpf4jnsgd1na2vs0mg"},{"bike_id":"18b0a90e-86f9-47ef-995b-7c670951c6f4","system_id":"levelo_inurba_marseille","lat":43.24183,"lon":5.39726,"is_reserved":false,"is_disabled":false,"rental_uris":{"android":"levelo://app?vid=18b0a90e-86f9-47ef-995b-7c670951c6f4","ios":"levelo://app?vid=18b0a90e-86f9-47ef-995b-7c670951c6f4"},"vehicle_type_id":"4","last_reported":1736428614,"current_range_meters":30400,"station_id":"ce4bhn12rcd13ifvqgpg","pricing_plan_id":"cebpf4jnsgd1na2vs0mg"},{"bike_id":"c27611f9-1c81-43d5-a1b9-b12209022e52","system_id":"levelo_inurba_marseille","lat":43.26689,"lon":5.38274,"is_reserved":false,"is_disabled":false,"rental_uris":{"android":"levelo://app?vid=c27611f9-1c81-43d5-a1b9-b12209022e52","ios":"levelo://app?vid=c27611f9-1c81-43d5-a1b9-b12209022e52"},"vehicle_type_id":"4","last_reported":1736428614,"current_range_meters":39200,"station_id":"ce4bhg92rcd13ifvqf90","pricing_plan_id":"cebpf4jnsgd1na2vs0mg"},{"bike_id":"b528ae1f-1cef-4319-8c5e-71132ca99ac1","system_id":"levelo_inurba_marseille","lat":43.30188,"lon":5.36634,"is_reserved":false,"is_disabled":false,"rental_uris":{"android":"levelo://app?vid=b528ae1f-1cef-4319-8c5e-71132ca99ac1","ios":"levelo://app?vid=b528ae1f-1cef-4319-8c5e-71132ca99ac1"},"vehicle_type_id":"4","last_reported":1736428614,"current_range_meters":21600,"station_id":"ce4bgrh2rcd13ifvqc8g","pricing_plan_id":"cebpf4jnsgd1na2vs0mg"},{"bike_id":"8029e61c-f393-4487-ba78-a27ebc425fa5","system_id":"levelo_inurba_marseille","lat":43.27075,"lon":5.4228,"is_reserved":false,"is_disabled":false,"rental_uris":{"android":"levelo://app?vid=8029e61c-f393-4487-ba78-a27ebc425fa5","ios":"levelo://app?vid=8029e61c-f393-4487-ba78-a27ebc425fa5"},"vehicle_type_id":"4","last_reported":1736428614,"current_range_meters":26800,"station_id":"ce4bhk92rcd13ifvqgb0","pricing_plan_id":"cebpf4jnsgd1na2vs0mg"},{"bike_id":"b8acbba0-a715-4ced-a2aa-0517db10ac9d","system_id":"levelo_inurba_marseille","lat":43.22932,"lon":5.35359,"is_reserved":false,"is_disabled":false,"rental_uris":{"android":"levelo://app?vid=b8acbba0-a715-4ced-a2aa-0517db10ac9d","ios":"levelo://app?vid=b8acbba0-a715-4ced-a2aa-0517db10ac9d"},"vehicle_type_id":"4","last_reported":1736428614,"current_range_meters":11200,"station_id":"cpo3532slgdg3j2ikp40","pricing_plan_id":"cebpf4jnsgd1na2vs0mg"},{"bike_id":"b450dfde-eda4-42e3-a726-8a34fd665df8","system_id":"levelo_inurba_marseille","lat":43.24071,"lon":5.37748,"is_reserved":false,"is_disabled":false,"rental_uris":{"android":"levelo://app?vid=b450dfde-eda4-42e3-a726-8a34fd665df8","ios":"levelo://app?vid=b450dfde-eda4-42e3-a726-8a34fd665df8"},"vehicle_type_id":"4","last_reported":1736428614,"current_range_meters":38800,"station_id":"ce4bhnp2rcd13ifvqgvg","pricing_plan_id":"cebpf4jnsgd1na2vs0mg"},{"bike_id":"c68400b7-0236-4e72-a5c8-07e776ed0eca","system_id":"levelo_inurba_marseille","lat":43.29042,"lon":5.35906,"is_reserved":false,"is_disabled":false,"rental_uris":{"android":"levelo://app?vid=c68400b7-0236-4e72-a5c8-07e776ed0eca","ios":"levelo://app?vid=c68400b7-0236-4e72-a5c8-07e776ed0eca"},"vehicle_type_id":"4","last_reported":1736428614,"current_range_meters":36400,"station_id":"ce4bha92rcd13ifvqeg0","pricing_plan_id":"cebpf4jnsgd1na2vs0mg"},{"bike_id":"584e93ba-4d72-45aa-90e0-c26a9ff8e2ac","system_id":"levelo_inurba_marseille","lat":43.29274,"lon":5.36853,"is_reserved":false,"is_disabled":false,"rental_uris":{"android":"levelo://app?vid=584e93ba-4d72-45aa-90e0-c26a9ff8e2ac","ios":"levelo://app?vid=584e93ba-4d72-45aa-90e0-c26a9ff8e2ac"},"vehicle_type_id":"4","last_reported":1736428614,"current_range_meters":8400,"station_id":"ce4bhbp2rcd13ifvqesg","pricing_plan_id":"cebpf4jnsgd1na2vs0mg"},{"bike_id":"ca28c05e-bfc5-443c-b699-0afa6d6ec689","system_id":"levelo_inurba_marseille","lat":43.298505,"lon":5.362874,"is_reserved":false,"is_disabled":false,"rental_uris":{"android":"levelo://app?vid=ca28c05e-bfc5-443c-b699-0afa6d6ec689","ios":"levelo://app?vid=ca28c05e-bfc5-443c-b699-0afa6d6ec689"},"vehicle_type_id":"4","last_reported":1736428614,"current_range_meters":35200,"station_id":"ce4bgpp2rcd13ifvqc3g","pricing_plan_id":"cebpf4jnsgd1na2vs0mg"},{"bike_id":"94d7f15d-c2eb-48e0-ab06-c718661b3572","system_id":"levelo_inurba_marseille","lat":43.30915,"lon":5.36841,"is_reserved":false,"is_disabled":false,"rental_uris":{"android":"levelo://app?vid=94d7f15d-c2eb-48e0-ab06-c718661b3572","ios":"levelo://app?vid=94d7f15d-c2eb-48e0-ab06-c718661b3572"},"vehicle_type_id":"4","last_reported":1736428614,"current_range_meters":26800,"station_id":"ce4bgn92rcd13ifvqbvg","pricing_plan_id":"cebpf4jnsgd1na2vs0mg"},{"bike_id":"9f45806b-0439-44e8-9147-35b59088d5f3","system_id":"levelo_inurba_marseille","lat":43.24159,"lon":5.36403,"is_reserved":false,"is_disabled":false,"rental_uris":{"android":"levelo://app?vid=9f45806b-0439-44e8-9147-35b59088d5f3","ios":"levelo://app?vid=9f45806b-0439-44e8-9147-35b59088d5f3"},"vehicle_type_id":"4","last_reported":1736428614,"current_range_meters":19200,"station_id":"cpo36qri1sfpv3e86is0","pricing_plan_id":"cebpf4jnsgd1na2vs0mg"},{"bike_id":"cbe61088-8cda-4b9a-b6fc-038219455931","system_id":"levelo_inurba_marseille","lat":43.30541,"lon":5.36737,"is_reserved":false,"is_disabled":false,"rental_uris":{"android":"levelo://app?vid=cbe61088-8cda-4b9a-b6fc-038219455931","ios":"levelo://app?vid=cbe61088-8cda-4b9a-b6fc-038219455931"},"vehicle_type_id":"4","last_reported":1736428614,"current_range_meters":38800,"station_id":"ce4bgrp2rcd13ifvqc9g","pricing_plan_id":"cebpf4jnsgd1na2vs0mg"},{"bike_id":"852f75e6-084b-4ee8-8fbe-725a495f89fb","system_id":"levelo_inurba_marseille","lat":43.2873,"lon":5.37946,"is_reserved":false,"is_disabled":false,"rental_uris":{"android":"levelo://app?vid=852f75e6-084b-4ee8-8fbe-725a495f89fb","ios":"levelo://app?vid=852f75e6-084b-4ee8-8fbe-725a495f89fb"},"vehicle_type_id":"4","last_reported":1736428614,"current_range_meters":36400,"station_id":"ce4bh9p2rcd13ifvqec0","pricing_plan_id":"cebpf4jnsgd1na2vs0mg"},{"bike_id":"8cc99899-76e3-4500-b5c5-68be1ad880f2","system_id":"levelo_inurba_marseille","lat":43.29365,"lon":5.37845,"is_reserved":false,"is_disabled":false,"rental_uris":{"android":"levelo://app?vid=8cc99899-76e3-4500-b5c5-68be1ad880f2","ios":"levelo://app?vid=8cc99899-76e3-4500-b5c5-68be1ad880f2"},"vehicle_type_id":"4","last_reported":1736428614,"current_range_meters":38000,"station_id":"ce4bgjh2rcd13ifvqbf0","pricing_plan_id":"cebpf4jnsgd1na2vs0mg"},{"bike_id":"c0844158-4fb1-4ef7-ad06-a01804611734","system_id":"levelo_inurba_marseille","lat":43.3027,"lon":5.37734,"is_reserved":false,"is_disabled":false,"rental_uris":{"android":"levelo://app?vid=c0844158-4fb1-4ef7-ad06-a01804611734","ios":"levelo://app?vid=c0844158-4fb1-4ef7-ad06-a01804611734"},"vehicle_type_id":"4","last_reported":1736428614,"current_range_meters":38800,"station_id":"ce4bguh2rcd13ifvqcj0","pricing_plan_id":"cebpf4jnsgd1na2vs0mg"},