{"last_updated":1733491205,"ttl":60,"version":"2.2","data":{"bikes":[{"bike_id":"37812571-f862-4717-a4fd-e91f72950680","system_id":"levelo_inurba_marseille","lat":43.23187,"lon":5.39979,"is_reserved":false,"is_disabled":false,"rental_uris":{"android":"levelo://app?vid=37812571-f862-4717-a4fd-e91f72950680","ios":"levelo://app?vid=37812571-f862-4717-a4fd-e91f72950680"},"vehicle_type_id":"4","last_reported":1733491205,"current_range_meters":3600,"station_id":"ce4bhn12rcd13ifvqgqg","pricing_plan_id":"cebpf4jnsgd1na2vs0mg"},{"bike_id":"89737d8f-64eb-4fdd-ac9a-86079e5f5ae3","system_id":"levelo_inurba_marseille","lat":43.29576,"lon":5.37512,"is_reserved":false,"is_disabled":true,"rental_uris":{"android":"levelo://app?vid=89737d8f-64eb-4fdd-ac9a-86079e5f5ae3","ios":"levelo://app?vid=89737d8f-64eb-4fdd-ac9a-86079e5f5ae3"},"vehicle_type_id":"4","last_reported":1733491205,"current_range_meters":1600,"station_id":"ce4bgh92rcd13ifvqb50","pricing_plan_id":"cebpf4jnsgd1na2vs0mg"},{"bike_id":"df479c2c-35ac-44ad-b9d6-81c89ed769ce","system_id":"levelo_inurba_marseille","lat":43.29699,"lon":5.37054,"is_reserved":false,"is_disabled":true,"rental_uris":{"android":"levelo://app?vid=df479c2c-35ac-44ad-b9d6-81c89ed769ce","ios":"levelo://app?vid=df479c2c-35ac-44ad-b9d6-81c89ed769ce"},"vehicle_type_id":"4","last_reported":1733491205,"current_range_meters":0,"station_id":"","pricing_plan_id":"cebpf4jnsgd1na2vs0mg"},{"bike_id":"8e029eaf-e104-4c5d-858d-6cd39de73d09","system_id":"levelo_inurba_marseille","lat":43.24169,"lon":5.36397,"is_reserved":false,"is_disabled":false,"rental_uris":{"android":"levelo://app?vid=8e029eaf-e104-4c5d-858d-6cd39de73d09","ios":"levelo://app?vid=8e029eaf-e104-4c5d-858d-6cd39de73d09"},"vehicle_type_id":"4","last_reported":1733491205,"current_range_meters":36400,"station_id":"cpo36qri1sfpv3e86is0","pricing_plan_id":"cebpf4jnsgd1na2vs0mg"},{"bike_id":"d04a747e-8453-4560-9b6e-d14f748d644b","system_id":"levelo_inurba_marseille","lat":43.30276,"lon":5.3771,"is_reserved":false,"is_disabled":false,"rental_uris":{"android":"levelo://app?vid=d04a747e-8453-4560-9b6e-d14f748d644b","ios":"levelo://app?vid=d04a747e-8453-4560-9b6e-d14f748d644b"},"vehicle_type_id":"4","last_reported":1733491205,"current_range_meters":28800,"station_id":"ce4bguh2rcd13ifvqcj0","pricing_plan_id":"cebpf4jnsgd1na2vs0mg"},{"bike_id":"3fd5cd3e-82d6-473c-b81c-57ae159deea3","system_id":"levelo_inurba_marseille","lat":43.30542,"lon":5.38429,"is_reserved":false,"is_disabled":false,"rental_uris":{"android":"levelo://app?vid=3fd5cd3e-82d6-473c-b81c-57ae159deea3","ios":"levelo://app?vid=3fd5cd3e-82d6-473c-b81c-57ae159deea3"},"vehicle_type_id":"4","last_reported":1733491205,"current_range_meters":22000,"station_id":"ce4bgg92rcd13ifvqb30","pricing_plan_id":"cebpf4jnsgd1na2vs0mg"},{"bike_id":"1ae85db0-7e8e-459d-9e5d-22febb61d589","system_id":"levelo_inurba_marseille","lat":43.28705,"lon":5.36023,"is_reserved":false,"is_disabled":false,"rental_uris":{"android":"levelo://app?vid=1ae85db0-7e8e-459d-9e5d-22febb61d589","ios":"levelo://app?vid=1ae85db0-7e8e-459d-9e5d-22febb61d589"},"vehicle_type_id":"4","last_reported":1733491205,"current_range_meters":37600,"station_id":"cki0cbj6b192h4jlfktg","pricing_plan_id":"cebpf4jnsgd1na2vs0mg"},{"bike_id":"24b2d811-18aa-4358-b8b5-6722dc5df2a9","system_id":"levelo_inurba_marseille","lat":43.29715,"lon":5.377,"is_reserved":false,"is_disabled":false,"rental_uris":{"android":"levelo://app?vid=24b2d811-18aa-4358-b8b5-6722dc5df2a9","ios":"levelo://app?vid=24b2d811-18aa-4358-b8b5-6722dc5df2a9"},"vehicle_type_id":"4","last_reported":1733491205,"current_range_meters":4400,"station_id":"ce4bgkh2rcd13ifvqbl0","pricing_plan_id":"cebpf4jnsgd1na2vs0mg"},{"bike_id":"be407bbe-d1ce-48de-8db2-09114af9efd7","system_id":"levelo_inurba_marseille","lat":43.32362,"lon":5.36762,"is_reserved":false,"is_disabled":false,"rental_uris":{"android":"levelo://app?vid=be407bbe-d1ce-48de-8db2-09114af9efd7","ios":"levelo://app?vid=be407bbe-d1ce-48de-8db2-09114af9efd7"},"vehicle_type_id":"4","last_reported":1733491205,"current_range_meters":24800,"station_id":"ce4bhsh2rcd13ifvqi2g","pricing_plan_id":"cebpf4jnsgd1na2vs0mg"},{"bike_id":"f1f5c2d3-474d-4b4c-91ae-77db6b5c601c","system_id":"levelo_inurba_marseille","lat":43.30883,"lon":5.37203,"is_reserved":false,"is_disabled":false,"rental_uris":{"android":"levelo://app?vid=f1f5c2d3-474d-4b4c-91ae-77db6b5c601c","ios":"levelo://app?vid=f1f5c2d3-474d-4b4c-91ae-77db6b5c601c"},"vehicle_type_id":"4","last_reported":1733491205,"current_range_meters":10000,"station_id":"ce4bguh2rcd13ifvqckg","pricing_plan_id":"cebpf4jnsgd1na2vs0mg"},{"bike_id":"42dd3a08-3ce8-453a-9e94-fb7b0fd02f07","system_id":"levelo_inurba_marseille","lat":43.27176,"lon":5.4099,"is_reserved":false,"is_disabled":false,"rental_uris":{"android":"levelo://app?vid=42dd3a08-3ce8-453a-9e94-fb7b0fd02f07","ios":"levelo://app?vid=42dd3a08-3ce8-453a-9e94-fb7b0fd02f07"},"vehicle_type_id":"4","last_reported":1733491205,"current_range_meters":19200,"station_id":"ce4bhl12rcd13ifvqgf0","pricing_plan_id":"cebpf4jnsgd1na2vs0mg"},{"bike_id":"53b2021f-2d76-4c3d-be13-d01d30021086","system_id":"levelo_inurba_marseille","lat":43.33718,"lon":5.39189,"is_reserved":false,"is_disabled":false,"rental_uris":{"android":"levelo://app?vid=53b2021f-2d76-4c3d-be13-d01d30021086","ios":"levelo://app?vid=53b2021f-2d76-4c3d-be13-d01d30021086"},"vehicle_type_id":"4","last_reported":1733491205,"current_range_meters":16400,"station_id":"ce4bhr92rcd13ifvqhsg","pricing_plan_id":"cebpf4jnsgd1na2vs0mg"},{"bike_id":"8bd642b2-0279-44c7-9ee2-fc3b57332c83","system_id":"levelo_inurba_marseille","lat":43.27455,"lon":5.40073,"is_reserved":false,"is_disabled":true,"rental_uris":{"android":"levelo://app?vid=8bd642b2-0279-44c7-9ee2-fc3b57332c83","ios":"levelo://app?vid=8bd642b2-0279-44c7-9ee2-fc3b57332c83"},"vehicle_type_id":"4","last_reported":1733491205,"current_range_meters":0,"station_id":"","pricing_plan_id":"cebpf4jnsgd1na2vs0mg"},{"bike_id":"ec204e6b-02a9-4b03-a600-92d59b5fb364","system_id":"levelo_inurba_marseille","lat":43.23194,"lon":5.35551,"is_reserved":false,"is_disabled":false,"rental_uris":{"android":"levelo://app?vid=ec204e6b-02a9-4b03-a600-92d59b5fb364","ios":"levelo://app?vid=ec204e6b-02a9-4b03-a600-92d59b5fb364"},"vehicle_type_id":"4","last_reported":1733491205,"current_range_meters":6000,"station_id":"ce4bhu92rcd13ifvqi70","pricing_plan_id":"cebpf4jnsgd1na2vs0mg"},{"bike_id":"ae964992-71f9-4c0f-838a-370277517699","system_id":"levelo_inurba_marseille","lat":43.26947,"lon":5.38633,"is_reserved":false,"is_disabled":false,"rental_uris":{"android":"levelo://app?vid=ae964992-71f9-4c0f-838a-370277517699","ios":"levelo://app?vid=ae964992-71f9-4c0f-838a-370277517699"},"vehicle_type_id":"4","last_reported":1733491205,"current_range_meters":37600,"station_id":"ce4bhh92rcd13ifvqfh0","pricing_plan_id":"cebpf4jnsgd1na2vs0mg"},{"bike_id":"746bf4f8-b50b-42c0-a0ee-4fe1d82b9669","system_id":"levelo_inurba_marseille","lat":43.27497,"lon":5.42453,"is_reserved":false,"is_disabled":false,"rental_uris":{"android":"levelo://app?vid=746bf4f8-b50b-42c0-a0ee-4fe1d82b9669","ios":"levelo://app?vid=746bf4f8-b50b-42c0-a0ee-4fe1d82b9669"},"vehicle_type_id":"4","last_reported":1733491205,"current_range_meters":5600,"station_id":"ce4bhn92rcd13ifvqgrg","pricing_plan_id":"cebpf4jnsgd1na2vs0mg"},{"bike_id":"0301c31a-7a78-414c-bad8-e19e2323fd6d","system_id":"levelo_inurba_marseille","lat":43.29188,"lon":5.39322,"is_reserved":false,"is_disabled":false,"rental_uris":{"android":"levelo://app?vid=0301c31a-7a78-414c-bad8-e19e2323fd6d","ios":"levelo://app?vid=0301c31a-7a78-414c-bad8-e19e2323fd6d"},"vehicle_type_id":"4","last_reported":1733491205,"current_range_meters":35600,"station_id":"ce4bh192rcd13ifvqdd0","pricing_plan_id":"cebpf4jnsgd1na2vs0mg"},{"bike_id":"572d5e03-1d52-4091-aed3-aef7accba865","system_id":"levelo_inurba_marseille","lat":43.2454,"lon":5.39531,"is_reserved":false,"is_disabled":false,"rental_uris":{"android":"levelo://app?vid=572d5e03-1d52-4091-aed3-aef7accba865","ios":"levelo://app?vid=572d5e03-1d52-4091-aed3-aef7accba865"},"vehicle_type_id":"4","last_reported":1733491205,"current_range_meters":38800,"station_id":"ce4bhlp2rcd13ifvqgjg","pricing_plan_id":"cebpf4jnsgd1na2vs0mg"},{"bike_id":"500942b9-3cba-4db8-b7da-b77e52af7f89","system_id":"levelo_inurba_marseille","lat":43.26954,"lon":5.38615,"is_reserved":false,"is_disabled":false,"rental_uris":{"android":"levelo://app?vid=500942b9-3cba-4db8-b7da-b77e52af7f89","ios":"levelo://app?vid=500942b9-3cba-4db8-b7da-b77e52af7f89"},"vehicle_type_id":"4","last_reported":1733491205,"current_range_meters":39200,"station_id":"ce4bhh92rcd13ifvqfh0","pricing_plan_id":"cebpf4jnsgd1na2vs0mg"},{"bike_id":"716790f7-31f4-4201-beeb-7d8b47d0a42b","system_id":"levelo_inurba_marseille","lat":43.29099,"lon":5.38145,"is_reserved":false,"is_disabled":false,"rental_uris":{"android":"levelo://app?vid=716790f7-31f4-4201-beeb-7d8b47d0a42b","ios":"levelo://app?vid=716790f7-31f4-4201-beeb-7d8b47d0a42b"},"vehicle_type_id":"4","last_reported":1733491205,"current_range_meters":38400,"station_id":"ce4bh512rcd13ifvqe2g","pricing_plan_id":"cebpf4jnsgd1na2vs0mg"},{"bike_id":"ee5e8650-9279-4c03-8b07-19bdc701e373","system_id":"levelo_inurba_marseille","lat":43.26945,"lon":5.38637,"is_reserved":false,"is_disabled":false,"rental_uris":{"android":"levelo://app?vid=ee5e8650-9279-4c03-8b07-19bdc701e373","ios":"levelo://app?vid=ee5e8650-9279-4c03-8b07-19bdc701e373"},"vehicle_type_id":"4","last_reported":1733491205,"current_range_meters":35600,"station_id":"ce4bhh92rcd13ifvqfh0","pricing_plan_id":"cebpf4jnsgd1na2vs0mg"},{"bike_id":"28b52837-d828-49e4-b4be-cfbac010c328","system_id":"levelo_inurba_marseille","lat":43.33731,"lon":5.39187,"is_reserved":false,"is_disabled":false,"rental_uris":{"android":"levelo://app?vid=28b52837-d828-49e4-b4be-cfbac010c328","ios":"levelo://app?vid=28b52837-d828-49e4-b4be-cfbac010c328"},"vehicle_type_id":"4","last_reported":1733491205,"current_range_meters":24800,"station_id":"ce4bhr92rcd13ifvqhsg","pricing_plan_id":"cebpf4jnsgd1na2vs0mg"},{"bike_id":"b3f478ac-3b05-4edf-bdbf-76399090f8e9","system_id":"levelo_inurba_marseille","lat":43.29994,"lon":5.37639,"is_reserved":false,"is_disabled":true,"rental_uris":{"android":"levelo://app?vid=b3f478ac-3b05-4edf-bdbf-76399090f8e9","ios":"levelo://app?vid=b3f478ac-3b05-4edf-bdbf-76399090f8e9"},"vehicle_type_id":"4","last_reported":1733491205,"current_range_meters":0,"station_id":"","pricing_plan_id":"cebpf4jnsgd1na2vs0mg"},{"bike_id":"e9f79471-4ff3-4676-918f-e60f2e151b99","system_id":"levelo_inurba_marseille","lat":43.337444,"lon":5.374475,"is_reserved":false,"is_disabled":false,"rental_uris":{"android":"levelo://app?vid=e9f79471-4ff3-4676-918f-e60f2e151b99","ios":"levelo://app?vid=e9f79471-4ff3-4676-918f-e60f2e151b99"},"vehicle_type_id":"4","last_reported":1733491205,"current_range_meters":37600,"station_id":"","pricing_plan_id":"cebpf4jnsgd1na2vs0mg"},{"bike_id":"82383da8-e1a3-41dd-b408-c55ab2b01ce2","system_id":"levelo_inurba_marseille","lat":43.3377,"lon":5.37414,"is_reserved":false,"is_disabled":false,"rental_uris":{"android":"levelo://app?vid=82383da8-e1a3-41dd-b408-c55ab2b01ce2","ios":"levelo://app?vid=82383da8-e1a3-41dd-b408-c55ab2b01ce2"},"vehicle_type_id":"4","last_reported":1733491205,"current_range_meters":30800,"station_id":"","pricing_plan_id":"cebpf4jnsgd1na2vs0mg"},{"bike_id":"e05119fd-fd4d-4fc7-9786-f468bbb9ad6c","system_id":"levelo_inurba_marseille","lat":43.3229,"lon":5.382598,"is_reserved":false,"is_disabled":false,"rental_uris":{"android":"levelo://app?vid=e05119fd-fd4d-4fc7-9786-f468bbb9ad6c","ios":"levelo://app?vid=e05119fd-fd4d-4fc7-9786-f468bbb9ad6c"},"vehicle_type_id":"4","last_reported":1733491205,"current_range_meters":38800,"station_id":"ce4bhr12rcd13ifvqhqg","pricing_plan_id":"cebpf4jnsgd1na2vs0mg"},{"bike_id":"c78c9148-c32e-4faf-8bb1-080aba830917","system_id":"levelo_inurba_marseille","lat":43.29034,"lon":5.39961,"is_reserved":false,"is_disabled":false,"rental_uris":{"android":"levelo://app?vid=c78c9148-c32e-4faf-8bb1-080aba830917","ios":"levelo://app?vid=c78c9148-c32e-4faf-8bb1-080aba830917"},"vehicle_type_id":"4","last_reported":1733491205,"current_range_meters":35600,"station_id":"ce4bh392rcd13ifvqdm0","pricing_plan_id":"cebpf4jnsgd1na2vs0mg"},{"bike_id":"8636251f-6dc9-49ea-9707-2b010bf46f36","system_id":"levelo_inurba_marseille","lat":43.28476,"lon":5.3841,"is_reserved":false,"is_disabled":false,"rental_uris":{"android":"levelo://app?vid=8636251f-6dc9-49ea-9707-2b010bf46f36","ios":"levelo://app?vid=8636251f-6dc9-49ea-9707-2b010bf46f36"},"vehicle_type_id":"4","last_reported":1733491205,"current_range_meters":30800,"station_id":"ce4bh512rcd13ifvqe3g","pricing_plan_id":"cebpf4jnsgd1na2vs0mg"},{"bike_id":"92c1e117-f0fb-499c-b1b6-dfcc6283b817","system_id":"levelo_inurba_marseille","lat":43.24999,"lon":5.38929,"is_reserved":false,"is_disabled":false,"rental_uris":{"android":"levelo://app?vid=92c1e117-f0fb-499c-b1b6-dfcc6283b817","ios":"levelo://app?vid=92c1e117-f0fb-499c-b1b6-dfcc6283b817"},"vehicle_type_id":"4","last_reported":1733491205,"current_range_meters":38800,"station_id":"ce4bhgp2rcd13ifvqfd0","pricing_plan_id":"cebpf4jnsgd1na2vs0mg"},{"bike_id":"d180c708-c2eb-468f-bde2-cc174dfe962e","system_id":"levelo_inurba_marseille","lat":43.23959,"lon":5.36641,"is_reserved":false,"is_disabled":false,"rental_uris":{"android":"levelo://app?vid=d180c708-c2eb-468f-bde2-cc174dfe962e","ios":"levelo://app?vid=d180c708-c2eb-468f-bde2-cc174dfe962e"},"vehicle_type_id":"4","last_reported":1733491205,"current_range_meters":36800,"station_id":"ce4bhi12rcd13ifvqfp0","pricing_plan_id":"cebpf4jnsgd1na2vs0mg"},{"bike_id":"c995de29-1f5c-48d6-9e31-a9fba088583d","system_id":"levelo_inurba_marseille","lat":43.26937,"lon":5.38929,"is_reserved":false,"is_disabled":true,"rental_uris":{"android":"levelo://app?vid=c995de29-1f5c-48d6-9e31-a9fba088583d","ios":"levelo://app?vid=c995de29-1f5c-48d6-9e31-a9fba088583d"},"vehicle_type_id":"4","last_reported":1733491205,"current_range_meters":12400,"station_id":"ce4bhhh2rcd13ifvqfl0","pricing_plan_id":"cebpf4jnsgd1na2vs0mg"},{"bike_id":"0f2cc434-3b5d-40c6-96cc-f2b504075a8b","system_id":"levelo_inurba_marseille","lat":43.259347,"lon":5.409161,"is_reserved":false,"is_disabled":false,"rental_uris":{"android":"levelo://app?vid=0f2cc434-3b5d-40c6-96cc-f2b504075a8b","ios":"levelo://app?vid=0f2cc434-3b5d-40c6-96cc-f2b504075a8b"},"vehicle_type_id":"4","last_reported":1733491205,"current_range_meters":23200,"station_id":"ce4bhm92rcd13ifvqglg","pricing_plan_id":"cebpf4jnsgd1na2vs0mg"},{"bike_id":"65ea8a13-f7a8-486f-90be-0a6dbaf33713","system_id":"levelo_inurba_marseille","lat":43.30884,"lon":5.3719,"is_reserved":false,"is_disabled":false,"rental_uris":{"android":"levelo://app?vid=65ea8a13-f7a8-486f-90be-0a6dbaf33713","ios":"levelo://app?vid=65ea8a13-f7a8-486f-90be-0a6dbaf33713"},"vehicle_type_id":"4","last_reported":1733491205,"current_range_meters":27200,"station_id":"ce4bguh2rcd13ifvqckg","pricing_plan_id":"cebpf4jnsgd1na2vs0mg"},{"bike_id":"8eb4c787-ff69-4c43-98c1-dcbd2862d3c4","system_id":"levelo_inurba_marseille","lat":43.30084,"lon":5.39081,"is_reserved":false,"is_disabled":false,"rental_uris":{"android":"levelo://app?vid=8eb4c787-ff69-4c43-98c1-dcbd2862d3c4","ios":"levelo://app?vid=8eb4c787-ff69-4c43-98c1-dcbd2862d3c4"},"vehicle_type_id":"4","last_reported":1733491205,"current_range_meters":24400,"station_id":"ce4bh192rcd13ifvqdb0","pricing_plan_id":"cebpf4jnsgd1na2vs0mg"},{"bike_id":"0d76dbf6-5e40-455b-a0e6-70fb0b70c5f9","system_id":"levelo_inurba_marseille","lat":43.32365,"lon":5.38883,"is_reserved":false,"is_disabled":false,"rental_uris":{"android":"levelo://app?vid=0d76dbf6-5e40-455b-a0e6-70fb0b70c5f9","ios":"levelo://app?vid=0d76dbf6-5e40-455b-a0e6-70fb0b70c5f9"},"vehicle_type_id":"4","last_reported":1733491205,"current_range_meters":36800,"station_id":"ce4bhqp2rcd13ifvqhog","pricing_plan_id":"cebpf4jnsgd1na2vs0mg"},{"bike_id":"bb33fa0c-b703-4470-8119-8d67c160e4d2","system_id":"levelo_inurba_marseille","lat":43.25083,"lon":5.39517,"is_reserved":false,"is_disabled":false,"rental_uris":{"android":"levelo://app?vid=bb33fa0c-b703-4470-8119-8d67c160e4d2","ios":"levelo://app?vid=bb33fa0c-b703-4470-8119-8d67c160e4d2"},"vehicle_type_id":"4","last_reported":1733491205,"current_range_meters":38800,"station_id":"ce4bhm12rcd13ifvqgkg","pricing_plan_id":"cebpf4jnsgd1na2vs0mg"},{"bike_id":"2f3968e7-9336-4ee4-ba78-8e92c0a818cc","system_id":"levelo_inurba_marseille","lat":43.31322,"lon":5.36647,"is_reserved":false,"is_disabled":true,"rental_uris":{"android":"levelo://app?vid=2f3968e7-9336-4ee4-ba78-8e92c0a818cc","ios":"levelo://app?vid=2f3968e7-9336-4ee4-ba78-8e92c0a818cc"},"vehicle_type_id":"4","last_reported":1733491205,"current_range_meters":0,"station_id":"","pricing_plan_id":"cebpf4jnsgd1na2vs0mg"},{"bike_id":"a936cc66-af2b-428d-a4ad-ec5e9853d170","system_id":"levelo_inurba_marseille","lat":43.24974,"lon":5.39617,"is_reserved":false,"is_disabled":false,"rental_uris":{"android":"levelo://app?vid=a936cc66-af2b-428d-a4ad-ec5e9853d170","ios":"levelo://app?vid=a936cc66-af2b-428d-a4ad-ec5e9853d170"},"vehicle_type_id":"4","last_reported":1733491205,"current_range_meters":23200,"station_id":"ce4bhgp2rcd13ifvqfd0","pricing_plan_id":"cebpf4jnsgd1na2vs0mg"},{"bike_id":"4d3faf3b-c455-4a80-9648-56dd8a851d4f","system_id":"levelo_inurba_marseille","lat":43.24183,"lon":5.39722,"is_reserved":false,"is_disabled":false,"rental_uris":{"android":"levelo://app?vid=4d3faf3b-c455-4a80-9648-56dd8a851d4f","ios":"levelo://app?vid=4d3faf3b-c455-4a80-9648-56dd8a851d4f"},"vehicle_type_id":"4","last_reported":1733491205,"current_range_meters":22000,"station_id":"ce4bhn12rcd13ifvqgpg","pricing_plan_id":"cebpf4jnsgd1na2vs0mg"},{"bike_id":"9537ead7-cfd2-40c1-89fd-1e8c65f06850","system_id":"levelo_inurba_marseille","lat":43.32484,"lon":5.36564,"is_reserved":false,"is_disabled":false,"rental_uris":{"android":"levelo://app?vid=9537ead7-cfd2-40c1-89fd-1e8c65f06850","ios":"levelo://app?vid=9537ead7-cfd2-40c1-89fd-1e8c65f06850"},"vehicle_type_id":"4","last_reported":1733491205,"current_range_meters":9600,"station_id":"ce4bhs12rcd13ifvqhvg","pricing_plan_id":"cebpf4jnsgd1na2vs0mg"},{"bike_id":"a4195ee0-472a-4f03-b955-5b202da4d03a","system_id":"levelo_inurba_marseille","lat":43.23179,"lon":5.39987,"is_reserved":false,"is_disabled":false,"rental_uris":{"android":"levelo://app?vid=a4195ee0-472a-4f03-b955-5b202da4d03a","ios":"levelo://app?vid=a4195ee0-472a-4f03-b955-5b202da4d03a"},"vehicle_type_id":"4","last_reported":1733491205,"current_range_meters":38400,"station_id":"ce4bhn12rcd13ifvqgqg","pricing_plan_id":"cebpf4jnsgd1na2vs0mg"},{"bike_id":"220121a7-9eea-440f-a7bc-692266d7597f","system_id":"levelo_inurba_marseille","lat":43.305893,"lon":5.366661,"is_reserved":false,"is_disabled":false,"rental_uris":{"android":"levelo://app?vid=220121a7-9eea-440f-a7bc-692266d7597f","ios":"levelo://app?vid=220121a7-9eea-440f-a7bc-692266d7597f"},"vehicle_type_id":"4","last_reported":1733491205,"current_range_meters":26000,"station_id":"ce4bgrp2rcd13ifvqc9g","pricing_plan_id":"cebpf4jnsgd1na2vs0mg"},{"bike_id":"4f364583-ef31-4fd7-b03f-e8563c2d4cc3","system_id":"levelo_inurba_marseille","lat":43.26682,"lon":5.38269,"is_reserved":false,"is_disabled":false,"rental_uris":{"android":"levelo://app?vid=4f364583-ef31-4fd7-b03f-e8563c2d4cc3","ios":"levelo://app?vid=4f364583-ef31-4fd7-b03f-e8563c2d4cc3"},"vehicle_type_id":"4","last_reported":1733491205,"current_range_meters":15200,"station_id":"ce4bhg92rcd13ifvqf90","pricing_plan_id":"cebpf4jnsgd1na2vs0mg"},{"bike_id":"aa8e0b68-f9c4-4a7e-9d62-755eb275655a","system_id":"levelo_inurba_marseille","lat":43.32476,"lon":5.36563,"is_reserved":false,"is_disabled":false,"rental_uris":{"android":"levelo://app?vid=aa8e0b68-f9c4-4a7e-9d62-755eb275655a","ios":"levelo://app?vid=aa8e0b68-f9c4-4a7e-9d62-755eb275655a"},"vehicle_type_id":"4","last_reported":1733491205,"current_range_meters":17200,"station_id":"ce4bhs12rcd13ifvqhvg","pricing_plan_id":"cebpf4jnsgd1na2vs0mg"},{"bike_id":"18c465ad-16a0-4d72-a337-11a15929aab8","system_id":"levelo_inurba_marseille","lat":43.239606,"lon":5.366203,"is_reserved":false,"is_disabled":false,"rental_uris":{"android":"levelo://app?vid=18c465ad-16a0-4d72-a337-11a15929aab8","ios":"levelo://app?vid=18c465ad-16a0-4d72-a337-11a15929aab8"},"vehicle_type_id":"4","last_reported":1733491205,"current_range_meters":10800,"station_id":"ce4bhi12rcd13ifvqfp0","pricing_plan_id":"cebpf4jnsgd1na2vs0mg"},{"bike_id":"f825a6e3-d202-4ddc-917b-5da49c4114c4","system_id":"levelo_inurba_marseille","lat":43.23187,"lon":5.3555,"is_reserved":false,"is_disabled":false,"rental_uris":{"android":"levelo://app?vid=f825a6e3-d202-4ddc-917b-5da49c4114c4","ios":"levelo://app?vid=f825a6e3-d202-4ddc-917b-5da49c4114c4"},"vehicle_type_id":"4","last_reported":1733491205,"current_range_meters":15200,"station_id":"ce4bhu92rcd13ifvqi70","pricing_plan_id":"cebpf4jnsgd1na2vs0mg"},{"bike_id":"c65c3696-c1d5-4fa4-a9ff-3f106772a0e6","system_id":"levelo_inurba_marseille","lat":43.33723,"lon":5.39192,"is_reserved":false,"is_disabled":false,"rental_uris":{"android":"levelo://app?vid=c65c3696-c1d5-4fa4-a9ff-3f106772a0e6","ios":"levelo://app?vid=c65c3696-c1d5-4fa4-a9ff-3f106772a0e6"},"vehicle_type_id":"4","last_reported":1733491205,"current_range_meters":33600,"station_id":"ce4bhr92rcd13ifvqhsg","pricing_plan_id":"cebpf4jnsgd1na2vs0mg"},{"bike_id":"1425627e-6340-4d9a-b112-c701c5f71ea7","system_id":"levelo_inurba_marseille","lat":43.31369,"lon":5.36681,"is_reserved":false,"is_disabled":false,"rental_uris":{"android":"levelo://app?vid=1425627e-6340-4d9a-b112-c701c5f71ea7","ios":"levelo://app?vid=1425627e-6340-4d9a-b112-c701c5f71ea7"},"vehicle_type_id":"4","last_reported":1733491205,"current_range_meters":33600,"station_id":"ce4bgr92rcd13ifvqc6g","pricing_plan_id":"cebpf4jnsgd1na2vs0mg"},{"bike_id":"604dc610-1f39-448a-b1d5-d227d9ef09f4","system_id":"levelo_inurba_marseille","lat":43.29548,"lon":5.42288,"is_reserved":false,"is_disabled":false,"rental_uris":{"android":"levelo://app?vid=604dc610-1f39-448a-b1d5-d227d9ef09f4","ios":"levelo://app?vid=604dc610-1f39-448a-b1d5-d227d9ef09f4"},"vehicle_type_id":"4","last_reported":1733491205,"current_range_meters":35600,"station_id":"ce4bhph2rcd13ifvqhdg","pricing_plan_id":"cebpf4jnsgd1na2vs0mg"},{"bike_id":"23139102-282c-430a-beeb-7e9a4cc5173c","system_id":"levelo_inurba_marseille","lat":43.30888,"lon":5.37234,"is_reserved":false,"is_disabled":true,"rental_uris":{"android":"levelo://app?vid=23139102-282c-430a-beeb-7e9a4cc5173c","ios":"levelo://app?vid=23139102-282c-430a-beeb-7e9a4cc5173c"},"vehicle_type_id":"4","last_reported":1733491205,"current_range_meters":24800,"station_id":"ce4bguh2rcd13ifvqckg","pricing_plan_id":"cebpf4jnsgd1na2vs0mg"},{"bike_id":"f110c4f3-c558-4a1d-a057-5cbe11975c78","system_id":"levelo_inurba_marseille","lat":43.26565,"lon":5.37285,"is_reserved":false,"is_disabled":false,"rental_uris":{"android":"levelo://app?vid=f110c4f3-c558-4a1d-a057-5cbe11975c78","ios":"levelo://app?vid=f110c4f3-c558-4a1d-a057-5cbe11975c78"},"vehicle_type_id":"4","last_reported":1733491205,"current_range_meters":28000,"station_id":"ce4bhg12rcd13ifvqf70","pricing_plan_id":"cebpf4jnsgd1na2vs0mg"},{"bike_id":"c18f072d-1e51-4e64-b027-076e62d7834b","system_id":"levelo_inurba_marseille","lat":43.28929,"lon":5.38385,"is_reserved":false,"is_disabled":false,"rental_uris":{"android":"levelo://app?vid=c18f072d-1e51-4e64-b027-076e62d7834b","ios":"levelo://app?vid=c18f072d-1e51-4e64-b027-076e62d7834b"},"vehicle_type_id":"4","last_reported":1733491205,"current_range_meters":29600,"station_id":"ce4bh612rcd13ifvqe6g","pricing_plan_id":"cebpf4jnsgd1na2vs0mg"},{"bike_id":"f10c5e90-601b-4bd4-87e7-4cbb6a13a4fb","system_id":"levelo_inurba_marseille","lat":43.26124,"lon":5.39272,"is_reserved":false,"is_disabled":true,"rental_uris":{"android":"levelo://app?vid=f10c5e90-601b-4bd4-87e7-4cbb6a13a4fb","ios":"levelo://app?vid=f10c5e90-601b-4bd4-87e7-4cbb6a13a4fb"},"vehicle_type_id":"4","last_reported":1733491205,"current_range_meters":0,"station_id":"","pricing_plan_id":"cebpf4jnsgd1na2vs0mg"},{"bike_id":"d06c4b4e-6f60-4c96-b405-3090b606f7f3","system_id":"levelo_inurba_marseille","lat":43.30525,"lon":5.36558,"is_reserved":false,"is_disabled":false,"rental_uris":{"android":"levelo://app?vid=d06c4b4e-6f60-4c96-b405-3090b606f7f3","ios":"levelo://app?vid=d06c4b4e-6f60-4c96-b405-3090b606f7f3"},"vehicle_type_id":"4","last_reported":1733491205,"current_range_meters":22800,"station_id":"ce4bgs12rcd13ifvqcag","pricing_plan_id":"cebpf4jnsgd1na2vs0mg"},{"bike_id":"e1997e5e-4416-448a-b708-daa9ded786aa","system_id":"levelo_inurba_marseille","lat":43.26692,"lon":5.38264,"is_reserved":false,"is_disabled":false,"rental_uris":{"android":"levelo://app?vid=e1997e5e-4416-448a-b708-daa9ded786aa","ios":"levelo://app?vid=e1997e5e-4416-448a-b708-daa9ded786aa"},"vehicle_type_id":"4","last_reported":1733491205,"current_range_meters":32000,"station_id":"ce4bhg92rcd13ifvqf90","pricing_plan_id":"cebpf4jnsgd1na2vs0mg"},{"bike_id":"cf3359ab-15cc-403f-9361-c21219682c19","system_id":"levelo_inurba_marseille","lat":43.28358,"lon":5.38109,"is_reserved":false,"is_disabled":false,"rental_uris":{"android":"levelo://app?vid=cf3359ab-15cc-403f-9361-c21219682c19","ios":"levelo://app?vid=cf3359ab-15cc-403f-9361-c21219682c19"},"vehicle_type_id":"4","last_reported":1733491205,"current_range_meters":28000,"station_id":"ce4bh412rcd13ifvqdr0","pricing_plan_id":"cebpf4jnsgd1na2vs0mg"},{"bike_id":"0e516958-fe02-46a6-9187-d1cfa5dfa278","system_id":"levelo_inurba_marseille","lat":43.25932,"lon":5.40919,"is_reserved":false,"is_disabled":false,"rental_uris":{"android":"levelo://app?vid=0e516958-fe02-46a6-9187-d1cfa5dfa278","ios":"levelo://app?vid=0e516958-fe02-46a6-9187-d1cfa5dfa278"},"vehicle_type_id":"4","last_reported":1733491205,"current_range_meters":16000,"station_id":"ce4bhm92rcd13ifvqglg","pricing_plan_id":"cebpf4jnsgd1na2vs0mg"},{"bike_id":"0cc869a7-4a25-4cb2-a4ce-55f22ebafaae","system_id":"levelo_inurba_marseille","lat":43.28934,"lon":5.36645,"is_reserved":false,"is_disabled":false,"rental_uris":{"android":"levelo://app?vid=0cc869a7-4a25-4cb2-a4ce-55f22ebafaae","ios":"levelo://app?vid=0cc869a7-4a25-4cb2-a4ce-55f22ebafaae"},"vehicle_type_id":"4","last_reported":1733491205,"current_range_meters":25600,"station_id":"ce4bhap2rcd13ifvqek0","pricing_plan_id":"cebpf4jnsgd1na2vs0mg"},{"bike_id":"ea8f35d4-5ba1-4d5e-9874-6463d045bf6a","system_id":"levelo_inurba_marseille","lat":43.30609,"lon":5.3724,"is_reserved":false,"is_disabled":false,"rental_uris":{"android":"levelo://app?vid=ea8f35d4-5ba1-4d5e-9874-6463d045bf6a","ios":"levelo://app?vid=ea8f35d4-5ba1-4d5e-9874-6463d045bf6a"},"vehicle_type_id":"4","last_reported":1733491205,"current_range_meters":20800,"station_id":"ce4bgqh2rcd13ifvqc4g","pricing_plan_id":"cebpf4jnsgd1na2vs0mg"},{"bike_id":"20b7188f-e505-43bb-9200-5e9953d9e57f","system_id":"levelo_inurba_marseille","lat":43.2396,"lon":5.36637,"is_reserved":false,"is_disabled":false,"rental_uris":{"android":"levelo://app?vid=20b7188f-e505-43bb-9200-5e9953d9e57f","ios":"levelo://app?vid=20b7188f-e505-43bb-9200-5e9953d9e57f"},"vehicle_type_id":"4","last_reported":1733491205,"current_range_meters":28800,"station_id":"ce4bhi12rcd13ifvqfp0","pricing_plan_id":"cebpf4jnsgd1na2vs0mg"},{"bike_id":"8701139b-c9ad-44e4-ab13-5cc49a843881","system_id":"levelo_inurba_marseille","lat":43.27994,"lon":5.40018,"is_reserved":false,"is_disabled":false,"rental_uris":{"android":"levelo://app?vid=8701139b-c9ad-44e4-ab13-5cc49a843881","ios":"levelo://app?vid=8701139b-c9ad-44e4-ab13-5cc49a843881"},"vehicle_type_id":"4","last_reported":1733491205,"current_range_meters":2800,"station_id":"ce4bho92rcd13ifvqh4g","pricing_plan_id":"cebpf4jnsgd1na2vs0mg"},{"bike_id":"adab60dd-8844-4ab1-9ab7-1db6245b3881","system_id":"levelo_inurba_marseille","lat":43.23963,"lon":5.36634,"is_reserved":false,"is_disabled":false,"rental_uris":{"android":"levelo://app?vid=adab60dd-8844-4ab1-9ab7-1db6245b3881","ios":"levelo://app?vid=adab60dd-8844-4ab1-9ab7-1db6245b3881"},"vehicle_type_id":"4","last_reported":1733491205,"current_range_meters":6000,"station_id":"ce4bhi12rcd13ifvqfp0","pricing_plan_id":"cebpf4jnsgd1na2vs0mg"},{"bike_id":"a974f069-3bd7-4983-927a-557ae749f591","system_id":"levelo_inurba_marseille","lat":43.29451,"lon":5.39745,"is_reserved":false,"is_disabled":false,"rental_uris":{"android":"levelo://app?vid=a974f069-3bd7-4983-927a-557ae749f591","ios":"levelo://app?vid=a974f069-3bd7-4983-927a-557ae749f591"},"vehicle_type_id":"4","last_reported":1733491205,"current_range_meters":35200,"station_id":"ce4bh3h2rcd13ifvqdo0","pricing_plan_id":"cebpf4jnsgd1na2vs0mg"},{"bike_id":"358b0e07-f47a-4ab9-9dd0-5a1783b5e9d0","system_id":"levelo_inurba_marseille","lat":43.31494,"lon":5.37302,"is_reserved":false,"is_disabled":false,"rental_uris":{"android":"levelo://app?vid=358b0e07-f47a-4ab9-9dd0-5a1783b5e9d0","ios":"levelo://app?vid=358b0e07-f47a-4ab9-9dd0-5a1783b5e9d0"},"vehicle_type_id":"4","last_reported":1733491205,"current_range_meters":33600,"station_id":"ce4bgt12rcd13ifvqcd0","pricing_plan_id":"cebpf4jnsgd1na2vs0mg"},{"bike_id":"cdfe6590-4984-4014-86c8-6dd70747c27a","system_id":"levelo_inurba_marseille","lat":43.29737,"lon":5.37434,"is_reserved":false,"is_disabled":true,"rental_uris":{"android":"levelo://app?vid=cdfe6590-4984-4014-86c8-6dd70747c27a","ios":"levelo://app?vid=cdfe6590-4984-4014-86c8-6dd70747c27a"},"vehicle_type_id":"4","last_reported":1733491205,"current_range_meters":0,"station_id":"","pricing_plan_id":"cebpf4jnsgd1na2vs0mg"},{"bike_id":"5b83c4ba-ed91-44fe-a96c-15b47ae6cf05","system_id":"levelo_inurba_marseille","lat":43.28412,"lon":5.34982,"is_reserved":false,"is_disabled":false,"rental_uris":{"android":"levelo://app?vid=5b83c4ba-ed91-44fe-a96c-15b47ae6cf05","ios":"levelo://app?vid=5b83c4ba-ed91-44fe-a96c-15b47ae6cf05"},"vehicle_type_id":"4","last_reported":1733491205,"current_range_meters":8800,"station_id":"ce4bhbh2rcd13ifvqepg","pricing_plan_id":"cebpf4jnsgd1na2vs0mg"},{"bike_id":"afb1464f-7837-4f63-8da0-b44a6f3f6e3c","system_id":"levelo_inurba_marseille","lat":43.31254,"lon":5.40191,"is_reserved":false,"is_disabled":false,"rental_uris":{"android":"levelo://app?vid=afb1464f-7837-4f63-8da0-b44a6f3f6e3c","ios":"levelo://app?vid=afb1464f-7837-4f63-8da0-b44a6f3f6e3c"},"vehicle_type_id":"4","last_reported":1733491205,"current_range_meters":37600,"station_id":"ce4bh092rcd13ifvqd30","pricing_plan_id":"cebpf4jnsgd1na2vs0mg"},{"bike_id":"9cfb1313-64f8-4531-ad90-1dc3d6fb9e2b","system_id":"levelo_inurba_marseille","lat":43.24385,"lon":5.37057,"is_reserved":false,"is_disabled":false,"rental_uris":{"android":"levelo://app?vid=9cfb1313-64f8-4531-ad90-1dc3d6fb9e2b","ios":"levelo://app?vid=9cfb1313-64f8-4531-ad90-1dc3d6fb9e2b"},"vehicle_type_id":"4","last_reported":1733491205,"current_range_meters":25600,"station_id":"ce4bhhh2rcd13ifvqfk0","pricing_plan_id":"cebpf4jnsgd1na2vs0mg"},{"bike_id":"72f15fbe-6b69-48cd-ad6b-ef8dd0e03f30","system_id":"levelo_inurba_marseille","lat":43.299422,"lon":5.387015,"is_reserved":false,"is_disabled":false,"rental_uris":{"android":"levelo://app?vid=72f15fbe-6b69-48cd-ad6b-ef8dd0e03f30","ios":"levelo://app?vid=72f15fbe-6b69-48cd-ad6b-ef8dd0e03f30"},"vehicle_type_id":"4","last_reported":1733491205,"current_range_meters":28400,"station_id":"ce4bgih2rcd13ifvqba0","pricing_plan_id":"cebpf4jnsgd1na2vs0mg"},{"bike_id":"62bceb0a-a7a9-4105-ad51-93c374749a47","system_id":"levelo_inurba_marseille","lat":43.29791,"lon":5.38089,"is_reserved":false,"is_disabled":false,"rental_uris":{"android":"levelo://app?vid=62bceb0a-a7a9-4105-ad51-93c374749a47","ios":"levelo://app?vid=62bceb0a-a7a9-4105-ad51-93c374749a47"},"vehicle_type_id":"4","last_reported":1733491205,"current_range_meters":19600,"station_id":"ce4bgip2rcd13ifvqbb0","pricing_plan_id":"cebpf4jnsgd1na2vs0mg"},{"bike_id":"fcd9936f-372a-4782-a0a1-fe2ee8690016","system_id":"levelo_inurba_marseille","lat":43.26677,"lon":5.38273,"is_reserved":false,"is_disabled":false,"rental_uris":{"android":"levelo://app?vid=fcd9936f-372a-4782-a0a1-fe2ee8690016","ios":"levelo://app?vid=fcd9936f-372a-4782-a0a1-fe2ee8690016"},"vehicle_type_id":"4","last_reported":1733491205,"current_range_meters":39200,"station_id":"ce4bhg92rcd13ifvqf90","pricing_plan_id":"cebpf4jnsgd1na2vs0mg"},{"bike_id":"987a5ab4-d60c-480c-94b6-7cab38975402","system_id":"levelo_inurba_marseille","lat":43.29748,"lon":5.37971,"is_reserved":false,"is_disabled":true,"rental_uris":{"android":"levelo://app?vid=987a5ab4-d60c-480c-94b6-7cab38975402","ios":"levelo://app?vid=987a5ab4-d60c-480c-94b6-7cab38975402"},"vehicle_type_id":"4","last_reported":1733491205,"current_range_meters":0,"station_id":"","pricing_plan_id":"cebpf4jnsgd1na2vs0mg"},{"bike_id":"2c4596ad-0ad9-4016-b92b-0093349de2b4","system_id":"levelo_inurba_marseille","lat":43.30755,"lon":5.38187,"is_reserved":false,"is_disabled":true,"rental_uris":{"android":"levelo://app?vid=2c4596ad-0ad9-4016-b92b-0093349de2b4","ios":"levelo://app?vid=2c4596ad-0ad9-4016-b92b-0093349de2b4"},"vehicle_type_id":"4","last_reported":1733491205,"current_range_meters":0,"station_id":"","pricing_plan_id":"cebpf4jnsgd1na2vs0mg"},{"bike_id":"25a33d2c-2601-4adf-8b03-9c7b44512e72","system_id":"levelo_inurba_marseille","lat":43.29573,"lon":5.37519,"is_reserved":false,"is_disabled":true,"rental_uris":{"android":"levelo://app?vid=25a33d2c-2601-4adf-8b03-9c7b44512e72","ios":"levelo://app?vid=25a33d2c-2601-4adf-8b03-9c7b44512e72"},"vehicle_type_id":"4","last_reported":1733491205,"current_range_meters":1200,"station_id":"ce4bgh92rcd13ifvqb50","pricing_plan_id":"cebpf4jnsgd1na2vs0mg"},{"bike_id":"8a696230-0cd8-4e37-adec-e0ada77baafb","system_id":"levelo_inurba_marseille","lat":43.29531,"lon":5.38539,"is_reserved":false,"is_disabled":true,"rental_uris":{"android":"levelo://app?vid=8a696230-0cd8-4e37-adec-e0ada77baafb","ios":"levelo://app?vid=8a696230-0cd8-4e37-adec-e0ada77baafb"},"vehicle_type_id":"4","last_reported":1733491205,"current_range_meters":30400,"station_id":"ce4bgih2rcd13ifvqba0","pricing_plan_id":"cebpf4jnsgd1na2vs0mg"},{"bike_id":"b7ab8c01-033f-4395-8276-23c850ad3d02","system_id":"levelo_inurba_marseille","lat":43.30348,"lon":5.36626,"is_reserved":false,"is_disabled":true,"rental_uris":{"android":"levelo://app?vid=b7ab8c01-033f-4395-8276-23c850ad3d02","ios":"levelo://app?vid=b7ab8c01-033f-4395-8276-23c850ad3d02"},"vehicle_type_id":"4","last_reported":1733491205,"current_range_meters":0,"station_id":"","pricing_plan_id":"cebpf4jnsgd1na2vs0mg"},{"bike_id":"0c510e57-1970-423e-bbb5-06ef7b64837c","system_id":"levelo_inurba_marseille","lat":43.317485,"lon":5.390072,"is_reserved":false,"is_disabled":false,"rental_uris":{"android":"levelo://app?vid=0c510e57-1970-423e-bbb5-06ef7b64837c","ios":"levelo://app?vid=0c510e57-1970-423e-bbb5-06ef7b64837c"},"vehicle_type_id":"4","last_reported":1733491205,"current_range_meters":23200,"station_id":"ce4bhqp2rcd13ifvqhng","pricing_plan_id":"cebpf4jnsgd1na2vs0mg"},{"bike_id":"aabdb257-8888-4229-a0a4-2fbdece78663","system_id":"levelo_inurba_marseille","lat":43.3248,"lon":5.36571,"is_reserved":false,"is_disabled":false,"rental_uris":{"android":"levelo://app?vid=aabdb257-8888-4229-a0a4-2fbdece78663","ios":"levelo://app?vid=aabdb257-8888-4229-a0a4-2fbdece78663"},"vehicle_type_id":"4","last_reported":1733491205,"current_range_meters":25600,"station_id":"ce4bhs12rcd13ifvqhvg","pricing_plan_id":"cebpf4jnsgd1na2vs0mg"},{"bike_id":"01fc086f-11d0-4126-a5a7-f83f36005f81","system_id":"levelo_inurba_marseille","lat":43.31729,"lon":5.36881,"is_reserved":false,"is_disabled":false,"rental_uris":{"android":"levelo://app?vid=01fc086f-11d0-4126-a5a7-f83f36005f81","ios":"levelo://app?vid=01fc086f-11d0-4126-a5a7-f83f36005f81"},"vehicle_type_id":"4","last_reported":1733491205,"current_range_meters":34800,"station_id":"","pricing_plan_id":"cebpf4jnsgd1na2vs0mg"},{"bike_id":"6866a22a-0466-4ba5-9661-626d9d248080","system_id":"levelo_inurba_marseille","lat":43.28265,"lon":5.35082,"is_reserved":false,"is_disabled":false,"rental_uris":{"android":"levelo://app?vid=6866a22a-0466-4ba5-9661-626d9d248080","ios":"levelo://app?vid=6866a22a-0466-4ba5-9661-626d9d248080"},"vehicle_type_id":"4","last_reported":1733491205,"current_range_meters":38000,"station_id":"ce4bhbp2rcd13ifvqerg","pricing_plan_id":"cebpf4jnsgd1na2vs0mg"},{"bike_id":"11e86528-eb6b-4391-86a5-9b1822d069a4","system_id":"levelo_inurba_marseille","lat":43.278805,"lon":5.388003,"is_reserved":false,"is_disabled":true,"rental_uris":{"android":"levelo://app?vid=11e86528-eb6b-4391-86a5-9b1822d069a4","ios":"levelo://app?vid=11e86528-eb6b-4391-86a5-9b1822d069a4"},"vehicle_type_id":"4","last_reported":1733491205,"current_range_meters":5600,"station_id":"","pricing_plan_id":"cebpf4jnsgd1na2vs0mg"},{"bike_id":"6cc6805f-c0ca-4585-bdf1-b5a0339762b0","system_id":"levelo_inurba_marseille","lat":43.29027,"lon":5.42744,"is_reserved":false,"is_disabled":true,"rental_uris":{"android":"levelo://app?vid=6cc6805f-c0ca-4585-bdf1-b5a0339762b0","ios":"levelo://app?vid=6cc6805f-c0ca-4585-bdf1-b5a0339762b0"},"vehicle_type_id":"4","last_reported":1733491205,"current_range_meters":0,"station_id":"","pricing_plan_id":"cebpf4jnsgd1na2vs0mg"},{"bike_id":"a7d66c61-18ac-49b5-8156-5863f8a63b6b","system_id":"levelo_inurba_marseille","lat":43.29034,"lon":5.38673,"is_reserved":false,"is_disabled":false,"rental_uris":{"android":"levelo://app?vid=a7d66c61-18ac-49b5-8156-5863f8a63b6b","ios":"levelo://app?vid=a7d66c61-18ac-49b5-8156-5863f8a63b6b"},"vehicle_type_id":"4","last_reported":1733491205,"current_range_meters":24800,"station_id":"ce4bh4p2rcd13ifvqe0g","pricing_plan_id":"cebpf4jnsgd1na2vs0mg"},{"bike_id":"4e6fc26f-c1d5-4d84-ac5b-7d384b8c30d5","system_id":"levelo_inurba_marseille","lat":43.32358,"lon":5.36568,"is_reserved":false,"is_disabled":false,"rental_uris":{"android":"levelo://app?vid=4e6fc26f-c1d5-4d84-ac5b-7d384b8c30d5","ios":"levelo://app?vid=4e6fc26f-c1d5-4d84-ac5b-7d384b8c30d5"},"vehicle_type_id":"4","last_reported":1733491205,"current_range_meters":38800,"station_id":"ce4bhs12rcd13ifvqhvg","pricing_plan_id":"cebpf4jnsgd1na2vs0mg"},{"bike_id":"8d1c8b92-79bb-4181-b0d2-5e94db1a14d0","system_id":"levelo_inurba_marseille","lat":43.29972,"lon":5.3826,"is_reserved":false,"is_disabled":true,"rental_uris":{"android":"levelo://app?vid=8d1c8b92-79bb-4181-b0d2-5e94db1a14d0","ios":"levelo://app?vid=8d1c8b92-79bb-4181-b0d2-5e94db1a14d0"},"vehicle_type_id":"4","last_reported":1733491205,"current_range_meters":0,"station_id":"","pricing_plan_id":"cebpf4jnsgd1na2vs0mg"},{"bike_id":"66988d75-a9f0-423c-89be-11e06668ead3","system_id":"levelo_inurba_marseille","lat":43.26555,"lon":5.37293,"is_reserved":false,"is_disabled":false,"rental_uris":{"android":"levelo://app?vid=66988d75-a9f0-423c-89be-11e06668ead3","ios":"levelo://app?vid=66988d75-a9f0-423c-89be-11e06668ead3"},"vehicle_type_id":"4","last_reported":1733491205,"current_range_meters":36000,"station_id":"ce4bhg12rcd13ifvqf70","pricing_plan_id":"cebpf4jnsgd1na2vs0mg"},{"bike_id":"ab783f5c-556c-4bb2-b72a-18606393f833","system_id":"levelo_inurba_marseille","lat":43.24544,"lon":5.39524,"is_reserved":false,"is_disabled":false,"rental_uris":{"android":"levelo://app?vid=ab783f5c-556c-4bb2-b72a-18606393f833","ios":"levelo://app?vid=ab783f5c-556c-4bb2-b72a-18606393f833"},"vehicle_type_id":"4","last_reported":1733491205,"current_range_meters":30000,"station_id":"ce4bhlp2rcd13ifvqgjg","pricing_plan_id":"cebpf4jnsgd1na2vs0mg"},{"bike_id":"92cb1211-4e82-42cc-87f8-4a0f9ca72995","system_id":"levelo_inurba_marseille","lat":43.3377,"lon":5.37437,"is_reserved":false,"is_disabled":false,"rental_uris":{"android":"levelo://app?vid=92cb1211-4e82-42cc-87f8-4a0f9ca72995","ios":"levelo://app?vid=92cb1211-4e82-42cc-87f8-4a0f9ca72995"},"vehicle_type_id":"4","last_reported":1733491205,"current_range_meters":38800,"station_id":"","pricing_plan_id":"cebpf4jnsgd1na2vs0mg"},{"bike_id":"7401184e-dcdc-4f69-89e9-1615045c1f8c","system_id":"levelo_inurba_marseille","lat":43.30031,"lon":5.38922,"is_reserved":false,"is_disabled":true,"rental_uris":{"android":"levelo://app?vid=7401184e-dcdc-4f69-89e9-1615045c1f8c","ios":"levelo://app?vid=7401184e-dcdc-4f69-89e9-1615045c1f8c"},"vehicle_type_id":"4","last_reported":1733491205,"current_range_meters":0,"station_id":"","pricing_plan_id":"cebpf4jnsgd1na2vs0mg"},{"bike_id":"7e501446-896c-47e6-ae89-ec1f72f3ff45","system_id":"levelo_inurba_marseille","lat":43.27617,"lon":5.36113,"is_reserved":false,"is_disabled":false,"rental_uris":{"android":"levelo://app?vid=7e501446-896c-47e6-ae89-ec1f72f3ff45","ios":"levelo://app?vid=7e501446-896c-47e6-ae89-ec1f72f3ff45"},"vehicle_type_id":"4","last_reported":1733491205,"current_range_meters":30000,"station_id":"ce4bgj92rcd13ifvqbe0","pricing_plan_id":"cebpf4jnsgd1na2vs0mg"},{"bike_id":"6f045a1e-11fa-4f3a-a2b6-3abb64b9c649","system_id":"levelo_inurba_marseille","lat":43.29919,"lon":5.38129,"is_reserved":false,"is_disabled":false,"rental_uris":{"android":"levelo://app?vid=6f045a1e-11fa-4f3a-a2b6-3abb64b9c649","ios":"levelo://app?vid=6f045a1e-11fa-4f3a-a2b6-3abb64b9c649"},"vehicle_type_id":"4","last_reported":1733491205,"current_range_meters":36800,"station_id":"ce4bgj12rcd13ifvqbc0","pricing_plan_id":"cebpf4jnsgd1na2vs0mg"},{"bike_id":"90b954b0-8077-4825-b5b0-8a1c9633aaaf","system_id":"levelo_inurba_marseille","lat":43.23187,"lon":5.39987,"is_reserved":false,"is_disabled":false,"rental_uris":{"android":"levelo://app?vid=90b954b0-8077-4825-b5b0-8a1c9633aaaf","ios":"levelo://app?vid=90b954b0-8077-4825-b5b0-8a1c9633aaaf"},"vehicle_type_id":"4","last_reported":1733491205,"current_range_meters":36800,"station_id":"ce4bhn12rcd13ifvqgqg","pricing_plan_id":"cebpf4jnsgd1na2vs0mg"},{"bike_id":"d1664eee-63a1-464b-a844-7dfb42454c93","system_id":"levelo_inurba_marseille","lat":43.28269,"lon":5.35068,"is_reserved":false,"is_disabled":true,"rental_uris":{"android":"levelo://app?vid=d1664eee-63a1-464b-a844-7dfb42454c93","ios":"levelo://app?vid=d1664eee-63a1-464b-a844-7dfb42454c93"},"vehicle_type_id":"4","last_reported":1733491205,"current_range_meters":800,"station_id":"ce4bhbp2rcd13ifvqerg","pricing_plan_id":"cebpf4jnsgd1na2vs0mg"},{"bike_id":"c74c78a8-85e3-45a0-a28a-1371480c9f4c","system_id":"levelo_inurba_marseille","lat":43.30153,"lon":5.37419,"is_reserved":false,"is_disabled":false,"rental_uris":{"android":"levelo://app?vid=c74c78a8-85e3-45a0-a28a-1371480c9f4c","ios":"levelo://app?vid=c74c78a8-85e3-45a0-a28a-1371480c9f4c"},"vehicle_type_id":"4","last_reported":1733491205,"current_range_meters":3600,"station_id":"ce4bgs92rcd13ifvqcc0","pricing_plan_id":"cebpf4jnsgd1na2vs0mg"},{"bike_id":"71035d7b-3618-424a-b253-0dd32d69fd6d","system_id":"levelo_inurba_marseille","lat":43.30886,"lon":5.37192,"is_reserved":false,"is_disabled":false,"rental_uris":{"android":"levelo://app?vid=71035d7b-3618-424a-b253-0dd32d69fd6d","ios":"levelo://app?vid=71035d7b-3618-424a-b253-0dd32d69fd6d"},"vehicle_type_id":"4","last_reported":1733491205,"current_range_meters":34800,"station_id":"ce4bguh2rcd13ifvqckg","pricing_plan_id":"cebpf4jnsgd1na2vs0mg"},{"bike_id":"2192e276-8ae2-4e00-8d2a-d3a83978fbd6","system_id":"levelo_inurba_marseille","lat":43.23156,"lon":5.43712,"is_reserved":false,"is_disabled":false,"rental_uris":{"android":"levelo://app?vid=2192e276-8ae2-4e00-8d2a-d3a83978fbd6","ios":"levelo://app?vid=2192e276-8ae2-4e00-8d2a-d3a83978fbd6"},"vehicle_type_id":"4","last_reported":1733491205,"current_range_meters":38800,"station_id":"ce4bhmp2rcd13ifvqgog","pricing_plan_id":"cebpf4jnsgd1na2vs0mg"},{"bike_id":"cf315912-6fc6-4c2f-9885-dbef65eb8065","system_id":"levelo_inurba_marseille","lat":43.28816,"lon":5.38873,"is_reserved":false,"is_disabled":false,"rental_uris":{"android":"levelo://app?vid=cf315912-6fc6-4c2f-9885-dbef65eb8065","ios":"levelo://app?vid=cf315912-6fc6-4c2f-9885-dbef65eb8065"},"vehicle_type_id":"4","last_reported":1733491205,"current_range_meters":10800,"station_id":"","pricing_plan_id":"cebpf4jnsgd1na2vs0mg"},{"bike_id":"a97d9048-b939-41ad-ab95-f9b6a84fd90b","system_id":"levelo_inurba_marseille","lat":43.28354,"lon":5.38105,"is_reserved":false,"is_disabled":false,"rental_uris":{"android":"levelo://app?vid=a97d9048-b939-41ad-ab95-f9b6a84fd90b","ios":"levelo://app?vid=a97d9048-b939-41ad-ab95-f9b6a84fd90b"},"vehicle_type_id":"4","last_reported":1733491205,"current_range_meters":32000,"station_id":"ce4bh412rcd13ifvqdr0","pricing_plan_id":"cebpf4jnsgd1na2vs0mg"},{"bike_id":"9cfb8fd8-6c4b-4034-ac4a-772d59138e69","system_id":"levelo_inurba_marseille","lat":43.26688,"lon":5.38278,"is_reserved":false,"is_disabled":false,"rental_uris":{"android":"levelo://app?vid=9cfb8fd8-6c4b-4034-ac4a-772d59138e69","ios":"levelo://app?vid=9cfb8fd8-6c4b-4034-ac4a-772d59138e69"},"vehicle_type_id":"4","last_reported":1733491205,"current_range_meters":24800,"station_id":"ce4bhg92rcd13ifvqf90","pricing_plan_id":"cebpf4jnsgd1na2vs0mg"},{"bike_id":"da92aff9-3fbb-4007-90fe-1a4d9eeeb4c2","system_id":"levelo_inurba_marseille","lat":43.30183,"lon":5.36631,"is_reserved":false,"is_disabled":false,"rental_uris":{"android":"levelo://app?vid=da92aff9-3fbb-4007-90fe-1a4d9eeeb4c2","ios":"levelo://app?vid=da92aff9-3fbb-4007-90fe-1a4d9eeeb4c2"},"vehicle_type_id":"4","last_reported":1733491205,"current_range_meters":29600,"station_id":"ce4bgrh2rcd13ifvqc8g","pricing_plan_id":"cebpf4jnsgd1na2vs0mg"},{"bike_id":"abe6bd0a-98a8-45a3-b574-221cc7d656ff","system_id":"levelo_inurba_marseille","lat":43.29304,"lon":5.37451,"is_reserved":false,"is_disabled":true,"rental_uris":{"android":"levelo://app?vid=abe6bd0a-98a8-45a3-b574-221cc7d656ff","ios":"levelo://app?vid=abe6bd0a-98a8-45a3-b574-221cc7d656ff"},"vehicle_type_id":"4","last_reported":1733491205,"current_range_meters":37600,"station_id":"ce4bgi12rcd13ifvqb70","pricing_plan_id":"cebpf4jnsgd1na2vs0mg"},{"bike_id":"9c77a68d-2e99-44e9-b903-950fb6644d35","system_id":"levelo_inurba_marseille","lat":43.25265,"lon":5.39465,"is_reserved":false,"is_disabled":true,"rental_uris":{"android":"levelo://app?vid=9c77a68d-2e99-44e9-b903-950fb6644d35","ios":"levelo://app?vid=9c77a68d-2e99-44e9-b903-950fb6644d35"},"vehicle_type_id":"4","last_reported":1733491205,"current_range_meters":0,"station_id":"","pricing_plan_id":"cebpf4jnsgd1na2vs0mg"},{"bike_id":"2c432ea7-61bb-48f0-a572-43ba3c9a82e0","system_id":"levelo_inurba_marseille","lat":43.29099,"lon":5.38118,"is_reserved":false,"is_disabled":false,"rental_uris":{"android":"levelo://app?vid=2c432ea7-61bb-48f0-a572-43ba3c9a82e0","ios":"levelo://app?vid=2c432ea7-61bb-48f0-a572-43ba3c9a82e0"},"vehicle_type_id":"4","last_reported":1733491205,"current_range_meters":8400,"station_id":"ce4bh512rcd13ifvqe2g","pricing_plan_id":"cebpf4jnsgd1na2vs0mg"},{"bike_id":"f28e5e27-da33-4708-aeb3-913bb2017f28","system_id":"levelo_inurba_marseille","lat":43.24073,"lon":5.37759,"is_reserved":false,"is_disabled":false,"rental_uris":{"android":"levelo://app?vid=f28e5e27-da33-4708-aeb3-913bb2017f28","ios":"levelo://app?vid=f28e5e27-da33-4708-aeb3-913bb2017f28"},"vehicle_type_id":"4","last_reported":1733491205,"current_range_meters":17600,"station_id":"ce4bhnp2rcd13ifvqgvg","pricing_plan_id":"cebpf4jnsgd1na2vs0mg"},{"bike_id":"45a99d3d-18c7-4943-8d60-ad1491c0fa82","system_id":"levelo_inurba_marseille","lat":43.27564,"lon":5.38434,"is_reserved":false,"is_disabled":true,"rental_uris":{"android":"levelo://app?vid=45a99d3d-18c7-4943-8d60-ad1491c0fa82","ios":"levelo://app?vid=45a99d3d-18c7-4943-8d60-ad1491c0fa82"},"vehicle_type_id":"4","last_reported":1733491205,"current_range_meters":38800,"station_id":"ce4bhh92rcd13ifvqfi0","pricing_plan_id":"cebpf4jnsgd1na2vs0mg"},{"bike_id":"2a76e2c4-f345-433e-ba85-e0577d027046","system_id":"levelo_inurba_marseille","lat":43.26552,"lon":5.37287,"is_reserved":false,"is_disabled":false,"rental_uris":{"android":"levelo://app?vid=2a76e2c4-f345-433e-ba85-e0577d027046","ios":"levelo://app?vid=2a76e2c4-f345-433e-ba85-e0577d027046"},"vehicle_type_id":"4","last_reported":1733491205,"current_range_meters":38000,"station_id":"ce4bhg12rcd13ifvqf70","pricing_plan_id":"cebpf4jnsgd1na2vs0mg"},{"bike_id":"83985555-c848-4b28-808f-8a7e7cf8519e","system_id":"levelo_inurba_marseille","lat":43.28115,"lon":5.43955,"is_reserved":false,"is_disabled":true,"rental_uris":{"android":"levelo://app?vid=83985555-c848-4b28-808f-8a7e7cf8519e","ios":"levelo://app?vid=83985555-c848-4b28-808f-8a7e7cf8519e"},"vehicle_type_id":"4","last_reported":1733491205,"current_range_meters":0,"station_id":"","pricing_plan_id":"cebpf4jnsgd1na2vs0mg"},{"bike_id":"f91c8cbe-f769-4278-963e-44c1e32d34d6","system_id":"levelo_inurba_marseille","lat":43.30907,"lon":5.36861,"is_reserved":false,"is_disabled":false,"rental_uris":{"android":"levelo://app?vid=f91c8cbe-f769-4278-963e-44c1e32d34d6","ios":"levelo://app?vid=f91c8cbe-f769-4278-963e-44c1e32d34d6"},"vehicle_type_id":"4","last_reported":1733491205,"current_range_meters":5600,"station_id":"ce4bgn92rcd13ifvqbvg","pricing_plan_id":"cebpf4jnsgd1na2vs0mg"},{"bike_id":"84eddd35-4076-462c-b0e4-9c17c748aeff","system_id":"levelo_inurba_marseille","lat":43.337444,"lon":5.374475,"is_reserved":false,"is_disabled":false,"rental_uris":{"android":"levelo://app?vid=84eddd35-4076-462c-b0e4-9c17c748aeff","ios":"levelo://app?vid=84eddd35-4076-462c-b0e4-9c17c748aeff"},"vehicle_type_id":"4","last_reported":1733491205,"current_range_meters":38000,"station_id":"","pricing_plan_id":"cebpf4jnsgd1na2vs0mg"},{"bike_id":"f0d3a8b0-7f91-4a10-9d7c-db78ae274294","system_id":"levelo_inurba_marseille","lat":43.30889,"lon":5.37202,"is_reserved":false,"is_disabled":false,"rental_uris":{"android":"levelo://app?vid=f0d3a8b0-7f91-4a10-9d7c-db78ae274294","ios":"levelo://app?vid=f0d3a8b0-7f91-4a10-9d7c-db78ae274294"},"vehicle_type_id":"4","last_reported":1733491205,"current_range_meters":30000,"station_id":"ce4bguh2rcd13ifvqckg","pricing_plan_id":"cebpf4jnsgd1na2vs0mg"},{"bike_id":"40930a3c-eb2c-4622-be85-0b34e5724872","system_id":"levelo_inurba_marseille","lat":43.31486,"lon":5.37312,"is_reserved":false,"is_disabled":false,"rental_uris":{"android":"levelo://app?vid=40930a3c-eb2c-4622-be85-0b34e5724872","ios":"levelo://app?vid=40930a3c-eb2c-4622-be85-0b34e5724872"},"vehicle_type_id":"4","last_reported":1733491205,"current_range_meters":34800,"station_id":"ce4bgt12rcd13ifvqcd0","pricing_plan_id":"cebpf4jnsgd1na2vs0mg"},{"bike_id":"ecde016c-9d1a-4711-96ef-81f19b57e2c0","system_id":"levelo_inurba_marseille","lat":43.30539,"lon":5.38433,"is_reserved":false,"is_disabled":false,"rental_uris":{"android":"levelo://app?vid=ecde016c-9d1a-4711-96ef-81f19b57e2c0","ios":"levelo://app?vid=ecde016c-9d1a-4711-96ef-81f19b57e2c0"},"vehicle_type_id":"4","last_reported":1733491205,"current_range_meters":8000,"station_id":"ce4bgg92rcd13ifvqb30","pricing_plan_id":"cebpf4jnsgd1na2vs0mg"},{"bike_id":"a8264fb2-dad4-4c52-9230-cf80b47302d6","system_id":"levelo_inurba_marseille","lat":43.31995,"lon":5.3816,"is_reserved":false,"is_disabled":false,"rental_uris":{"android":"levelo://app?vid=a8264fb2-dad4-4c52-9230-cf80b47302d6","ios":"levelo://app?vid=a8264fb2-dad4-4c52-9230-cf80b47302d6"},"vehicle_type_id":"4","last_reported":1733491205,"current_range_meters":12400,"station_id":"ce4bhr12rcd13ifvqhpg","pricing_plan_id":"cebpf4jnsgd1na2vs0mg"},{"bike_id":"5edf82fa-e9d0-4d1f-98f1-37c98092771a","system_id":"levelo_inurba_marseille","lat":43.232,"lon":5.35552,"is_reserved":false,"is_disabled":false,"rental_uris":{"android":"levelo://app?vid=5edf82fa-e9d0-4d1f-98f1-37c98092771a","ios":"levelo://app?vid=5edf82fa-e9d0-4d1f-98f1-37c98092771a"},"vehicle_type_id":"4","last_reported":1733491205,"current_range_meters":38800,"station_id":"ce4bhu92rcd13ifvqi70","pricing_plan_id":"cebpf4jnsgd1na2vs0mg"},{"bike_id":"b78486dc-2228-495e-b45a-5e3bac63a2d4","system_id":"levelo_inurba_marseille","lat":43.25937,"lon":5.40898,"is_reserved":false,"is_disabled":false,"rental_uris":{"android":"levelo://app?vid=b78486dc-2228-495e-b45a-5e3bac63a2d4","ios":"levelo://app?vid=b78486dc-2228-495e-b45a-5e3bac63a2d4"},"vehicle_type_id":"4","last_reported":1733491205,"current_range_meters":15200,"station_id":"ce4bhm92rcd13ifvqglg","pricing_plan_id":"cebpf4jnsgd1na2vs0mg"},{"bike_id":"a87d8c14-4963-4d3a-93d4-e166abfb1bc7","system_id":"levelo_inurba_marseille","lat":43.28465,"lon":5.35888,"is_reserved":false,"is_disabled":false,"rental_uris":{"android":"levelo://app?vid=a87d8c14-4963-4d3a-93d4-e166abfb1bc7","ios":"levelo://app?vid=a87d8c14-4963-4d3a-93d4-e166abfb1bc7"},"vehicle_type_id":"4","last_reported":1733491205,"current_range_meters":37600,"station_id":"ce4bhah2rcd13ifvqei0","pricing_plan_id":"cebpf4jnsgd1na2vs0mg"},{"bike_id":"0f890d77-904d-427a-bc8a-19a42832a805","system_id":"levelo_inurba_marseille","lat":43.24178,"lon":5.39719,"is_reserved":false,"is_disabled":false,"rental_uris":{"android":"levelo://app?vid=0f890d77-904d-427a-bc8a-19a42832a805","ios":"levelo://app?vid=0f890d77-904d-427a-bc8a-19a42832a805"},"vehicle_type_id":"4","last_reported":1733491205,"current_range_meters":38800,"station_id":"ce4bhn12rcd13ifvqgpg","pricing_plan_id":"cebpf4jnsgd1na2vs0mg"},{"bike_id":"9e60a383-7cb2-47b0-b5af-e7de90dc74ff","system_id":"levelo_inurba_marseille","lat":43.29278,"lon":5.40116,"is_reserved":false,"is_disabled":false,"rental_uris":{"android":"levelo://app?vid=9e60a383-7cb2-47b0-b5af-e7de90dc74ff","ios":"levelo://app?vid=9e60a383-7cb2-47b0-b5af-e7de90dc74ff"},"vehicle_type_id":"4","last_reported":1733491205,"current_range_meters":19200,"station_id":"ce4bh312rcd13ifvqdk0","pricing_plan_id":"cebpf4jnsgd1na2vs0mg"},{"bike_id":"e0cdff71-7de8-4bae-9271-c4c1e8df374e","system_id":"levelo_inurba_marseille","lat":43.25815,"lon":5.39432,"is_reserved":false,"is_disabled":false,"rental_uris":{"android":"levelo://app?vid=e0cdff71-7de8-4bae-9271-c4c1e8df374e","ios":"levelo://app?vid=e0cdff71-7de8-4bae-9271-c4c1e8df374e"},"vehicle_type_id":"4","last_reported":1733491205,"current_range_meters":34800,"station_id":"ce4bhip2rcd13ifvqft0","pricing_plan_id":"cebpf4jnsgd1na2vs0mg"},{"bike_id":"6ab99516-c9b5-4294-ac9c-0785f1b2c910","system_id":"levelo_inurba_marseille","lat":43.27572,"lon":5.38426,"is_reserved":false,"is_disabled":false,"rental_uris":{"android":"levelo://app?vid=6ab99516-c9b5-4294-ac9c-0785f1b2c910","ios":"levelo://app?vid=6ab99516-c9b5-4294-ac9c-0785f1b2c910"},"vehicle_type_id":"4","last_reported":1733491205,"current_range_meters":38800,"station_id":"ce4bhh92rcd13ifvqfi0","pricing_plan_id":"cebpf4jnsgd1na2vs0mg"},{"bike_id":"9202c63e-372c-4469-a5c1-8e35757d1940","system_id":"levelo_inurba_marseille","lat":43.30053,"lon":5.38832,"is_reserved":false,"is_disabled":true,"rental_uris":{"android":"levelo://app?vid=9202c63e-372c-4469-a5c1-8e35757d1940","ios":"levelo://app?vid=9202c63e-372c-4469-a5c1-8e35757d1940"},"vehicle_type_id":"4","last_reported":1733491205,"current_range_meters":0,"station_id":"","pricing_plan_id":"cebpf4jnsgd1na2vs0mg"},{"bike_id":"b4cd33de-bf33-4455-ba13-73de6efe02f8","system_id":"levelo_inurba_marseille","lat":43.29568,"lon":5.37532,"is_reserved":false,"is_disabled":false,"rental_uris":{"android":"levelo://app?vid=b4cd33de-bf33-4455-ba13-73de6efe02f8","ios":"levelo://app?vid=b4cd33de-bf33-4455-ba13-73de6efe02f8"},"vehicle_type_id":"4","last_reported":1733491205,"current_range_meters":14400,"station_id":"ce4bgh92rcd13ifvqb50","pricing_plan_id":"cebpf4jnsgd1na2vs0mg"},{"bike_id":"c923f3d2-d02d-4df4-a0ef-952231f720d2","system_id":"levelo_inurba_marseille","lat":43.24082,"lon":5.37734,"is_reserved":false,"is_disabled":false,"rental_uris":{"android":"levelo://app?vid=c923f3d2-d02d-4df4-a0ef-952231f720d2","ios":"levelo://app?vid=c923f3d2-d02d-4df4-a0ef-952231f720d2"},"vehicle_type_id":"4","last_reported":1733491205,"current_range_meters":3600,"station_id":"ce4bhnp2rcd13ifvqgvg","pricing_plan_id":"cebpf4jnsgd1na2vs0mg"},{"bike_id":"0deb7b46-3bee-4382-87b1-3984fb62457f","system_id":"levelo_inurba_marseille","lat":43.28742,"lon":5.38914,"is_reserved":false,"is_disabled":true,"rental_uris":{"android":"levelo://app?vid=0deb7b46-3bee-4382-87b1-3984fb62457f","ios":"levelo://app?vid=0deb7b46-3bee-4382-87b1-3984fb62457f"},"vehicle_type_id":"4","last_reported":1733491205,"current_range_meters":30800,"station_id":"","pricing_plan_id":"cebpf4jnsgd1na2vs0mg"},{"bike_id":"cf3e6ea0-09ff-406c-b357-28a6a6117f94","system_id":"levelo_inurba_marseille","lat":43.22932,"lon":5.35378,"is_reserved":false,"is_disabled":false,"rental_uris":{"android":"levelo://app?vid=cf3e6ea0-09ff-406c-b357-28a6a6117f94","ios":"levelo://app?vid=cf3e6ea0-09ff-406c-b357-28a6a6117f94"},"vehicle_type_id":"4","last_reported":1733491205,"current_range_meters":38800,"station_id":"cpo3532slgdg3j2ikp40","pricing_plan_id":"cebpf4jnsgd1na2vs0mg"},{"bike_id":"1bfd8ca3-8a0d-4e18-9e5d-d6b17b568f65","system_id":"levelo_inurba_marseille","lat":43.28935,"lon":5.36647,"is_reserved":false,"is_disabled":false,"rental_uris":{"android":"levelo://app?vid=1bfd8ca3-8a0d-4e18-9e5d-d6b17b568f65","ios":"levelo://app?vid=1bfd8ca3-8a0d-4e18-9e5d-d6b17b568f65"},"vehicle_type_id":"4","last_reported":1733491205,"current_range_meters":27600,"station_id":"ce4bhap2rcd13ifvqek0","pricing_plan_id":"cebpf4jnsgd1na2vs0mg"},{"bike_id":"edee8b31-7499-41df-931c-a64abb6cddf9","system_id":"levelo_inurba_marseille","lat":43.31362,"lon":5.36689,"is_reserved":false,"is_disabled":false,"rental_uris":{"android":"levelo://app?vid=edee8b31-7499-41df-931c-a64abb6cddf9","ios":"levelo://app?vid=edee8b31-7499-41df-931c-a64abb6cddf9"},"vehicle_type_id":"4","last_reported":1733491205,"current_range_meters":28000,"station_id":"ce4bgr92rcd13ifvqc6g","pricing_plan_id":"cebpf4jnsgd1na2vs0mg"},{"bike_id":"5ae341a8-40b3-423a-b8fd-03f037018098","system_id":"levelo_inurba_marseille","lat":43.27962,"lon":5.38735,"is_reserved":false,"is_disabled":true,"rental_uris":{"android":"levelo://app?vid=5ae341a8-40b3-423a-b8fd-03f037018098","ios":"levelo://app?vid=5ae341a8-40b3-423a-b8fd-03f037018098"},"vehicle_type_id":"4","last_reported":1733491205,"current_range_meters":0,"station_id":"ce4bhg12rcd13ifvqf80","pricing_plan_id":"cebpf4jnsgd1na2vs0mg"},{"bike_id":"719e509a-25e4-4b1b-9830-f708d85d7593","system_id":"levelo_inurba_marseille","lat":43.29404,"lon":5.37451,"is_reserved":false,"is_disabled":true,"rental_uris":{"android":"levelo://app?vid=719e509a-25e4-4b1b-9830-f708d85d7593","ios":"levelo://app?vid=719e509a-25e4-4b1b-9830-f708d85d7593"},"vehicle_type_id":"4","last_reported":1733491205,"current_range_meters":0,"station_id":"","pricing_plan_id":"cebpf4jnsgd1na2vs0mg"},{"bike_id":"72a452ab-15ef-472f-a845-bee81bb6c961","system_id":"levelo_inurba_marseille","lat":43.27496,"lon":5.42449,"is_reserved":false,"is_disabled":false,"rental_uris":{"android":"levelo://app?vid=72a452ab-15ef-472f-a845-bee81bb6c961","ios":"levelo://app?vid=72a452ab-15ef-472f-a845-bee81bb6c961"},"vehicle_type_id":"4","last_reported":1733491205,"current_range_meters":18800,"station_id":"ce4bhn92rcd13ifvqgrg","pricing_plan_id":"cebpf4jnsgd1na2vs0mg"},{"bike_id":"7a0a2714-105e-4622-8b3e-a7dd62dc6941","system_id":"levelo_inurba_marseille","lat":43.29266,"lon":5.384189,"is_reserved":false,"is_disabled":true,"rental_uris":{"android":"levelo://app?vid=7a0a2714-105e-4622-8b3e-a7dd62dc6941","ios":"levelo://app?vid=7a0a2714-105e-4622-8b3e-a7dd62dc6941"},"vehicle_type_id":"4","last_reported":1733491205,"current_range_meters":0,"station_id":"","pricing_plan_id":"cebpf4jnsgd1na2vs0mg"},{"bike_id":"25e2a43e-a99f-4fd4-9ba3-8fbb7d6784ba","system_id":"levelo_inurba_marseille","lat":43.26548,"lon":5.37293,"is_reserved":false,"is_disabled":false,"rental_uris":{"android":"levelo://app?vid=25e2a43e-a99f-4fd4-9ba3-8fbb7d6784ba","ios":"levelo://app?vid=25e2a43e-a99f-4fd4-9ba3-8fbb7d6784ba"},"vehicle_type_id":"4","last_reported":1733491205,"current_range_meters":16800,"station_id":"ce4bhg12rcd13ifvqf70","pricing_plan_id":"cebpf4jnsgd1na2vs0mg"},{"bike_id":"d58c6100-d497-4193-a627-5c824ac6dcba","system_id":"levelo_inurba_marseille","lat":43.28939,"lon":5.36634,"is_reserved":false,"is_disabled":false,"rental_uris":{"android":"levelo://app?vid=d58c6100-d497-4193-a627-5c824ac6dcba","ios":"levelo://app?vid=d58c6100-d497-4193-a627-5c824ac6dcba"},"vehicle_type_id":"4","last_reported":1733491205,"current_range_meters":22000,"station_id":"ce4bhap2rcd13ifvqek0","pricing_plan_id":"cebpf4jnsgd1na2vs0mg"},{"bike_id":"41cd85ba-06b1-41a9-80cd-57c477bd458f","system_id":"levelo_inurba_marseille","lat":43.30001,"lon":5.37085,"is_reserved":false,"is_disabled":false,"rental_uris":{"android":"levelo://app?vid=41cd85ba-06b1-41a9-80cd-57c477bd458f","ios":"levelo://app?vid=41cd85ba-06b1-41a9-80cd-57c477bd458f"},"vehicle_type_id":"4","last_reported":1733491205,"current_range_meters":30800,"station_id":"ce4bgk12rcd13ifvqbj0","pricing_plan_id":"cebpf4jnsgd1na2vs0mg"},{"bike_id":"2b6d8e3a-eba6-48ab-ae54-ba4181438667","system_id":"levelo_inurba_marseille","lat":43.28938,"lon":5.39642,"is_reserved":false,"is_disabled":true,"rental_uris":{"android":"levelo://app?vid=2b6d8e3a-eba6-48ab-ae54-ba4181438667","ios":"levelo://app?vid=2b6d8e3a-eba6-48ab-ae54-ba4181438667"},"vehicle_type_id":"4","last_reported":1733491205,"current_range_meters":0,"station_id":"ce4bh3h2rcd13ifvqdn0","pricing_plan_id":"cebpf4jnsgd1na2vs0mg"},{"bike_id":"04de926a-3f6b-4530-9548-309994107f31","system_id":"levelo_inurba_marseille","lat":43.30194,"lon":5.36624,"is_reserved":false,"is_disabled":false,"rental_uris":{"android":"levelo://app?vid=04de926a-3f6b-4530-9548-309994107f31","ios":"levelo://app?vid=04de926a-3f6b-4530-9548-309994107f31"},"vehicle_type_id":"4","last_reported":1733491205,"current_range_meters":38800,"station_id":"ce4bgrh2rcd13ifvqc8g","pricing_plan_id":"cebpf4jnsgd1na2vs0mg"},{"bike_id":"49212fa0-b672-419d-a122-9b35df58f5b6","system_id":"levelo_inurba_marseille","lat":43.23182,"lon":5.39986,"is_reserved":false,"is_disabled":false,"rental_uris":{"android":"levelo://app?vid=49212fa0-b672-419d-a122-9b35df58f5b6","ios":"levelo://app?vid=49212fa0-b672-419d-a122-9b35df58f5b6"},"vehicle_type_id":"4","last_reported":1733491205,"current_range_meters":19600,"station_id":"ce4bhn12rcd13ifvqgqg","pricing_plan_id":"cebpf4jnsgd1na2vs0mg"},{"bike_id":"7cab2b0e-b85d-461c-a6ff-00d3bd0ccb9d","system_id":"levelo_inurba_marseille","lat":43.29099,"lon":5.38125,"is_reserved":false,"is_disabled":true,"rental_uris":{"android":"levelo://app?vid=7cab2b0e-b85d-461c-a6ff-00d3bd0ccb9d","ios":"levelo://app?vid=7cab2b0e-b85d-461c-a6ff-00d3bd0ccb9d"},"vehicle_type_id":"4","last_reported":1733491205,"current_range_meters":0,"station_id":"ce4bh512rcd13ifvqe2g","pricing_plan_id":"cebpf4jnsgd1na2vs0mg"},{"bike_id":"505217fb-c1a1-4404-bab9-a11810c75a76","system_id":"levelo_inurba_marseille","lat":43.30607,"lon":5.37238,"is_reserved":false,"is_disabled":false,"rental_uris":{"android":"levelo://app?vid=505217fb-c1a1-4404-bab9-a11810c75a76","ios":"levelo://app?vid=505217fb-c1a1-4404-bab9-a11810c75a76"},"vehicle_type_id":"4","last_reported":1733491205,"current_range_meters":9200,"station_id":"ce4bgqh2rcd13ifvqc4g","pricing_plan_id":"cebpf4jnsgd1na2vs0mg"},{"bike_id":"b01ba929-1580-401b-973d-e4a15d746d4a","system_id":"levelo_inurba_marseille","lat":43.22928,"lon":5.35377,"is_reserved":false,"is_disabled":false,"rental_uris":{"android":"levelo://app?vid=b01ba929-1580-401b-973d-e4a15d746d4a","ios":"levelo://app?vid=b01ba929-1580-401b-973d-e4a15d746d4a"},"vehicle_type_id":"4","last_reported":1733491205,"current_range_meters":9200,"station_id":"cpo3532slgdg3j2ikp40","pricing_plan_id":"cebpf4jnsgd1na2vs0mg"},{"bike_id":"7519ef7a-d08a-49a3-a099-389c2c29dff3","system_id":"levelo_inurba_marseille","lat":43.31367,"lon":5.36689,"is_reserved":false,"is_disabled":true,"rental_uris":{"android":"levelo://app?vid=7519ef7a-d08a-49a3-a099-389c2c29dff3","ios":"levelo://app?vid=7519ef7a-d08a-49a3-a099-389c2c29dff3"},"vehicle_type_id":"4","last_reported":1733491205,"current_range_meters":0,"station_id":"ce4bgr92rcd13ifvqc6g","pricing_plan_id":"cebpf4jnsgd1na2vs0mg"},{"bike_id":"8c1e28b4-904f-48d7-ba6d-d3b5b5d05922","system_id":"levelo_inurba_marseille","lat":43.29384,"lon":5.40112,"is_reserved":false,"is_disabled":true,"rental_uris":{"android":"levelo://app?vid=8c1e28b4-904f-48d7-ba6d-d3b5b5d05922","ios":"levelo://app?vid=8c1e28b4-904f-48d7-ba6d-d3b5b5d05922"},"vehicle_type_id":"4","last_reported":1733491205,"current_range_meters":0,"station_id":"","pricing_plan_id":"cebpf4jnsgd1na2vs0mg"},{"bike_id":"0a43f817-3d21-4907-aab1-172705ef3170","system_id":"levelo_inurba_marseille","lat":43.27814,"lon":5.40717,"is_reserved":false,"is_disabled":false,"rental_uris":{"android":"levelo://app?vid=0a43f817-3d21-4907-aab1-172705ef3170","ios":"levelo://app?vid=0a43f817-3d21-4907-aab1-172705ef3170"},"vehicle_type_id":"4","last_reported":1733491205,"current_range_meters":28800,"station_id":"ce4bhnh2rcd13ifvqgtg","pricing_plan_id":"cebpf4jnsgd1na2vs0mg"},{"bike_id":"7b9b3679-8df0-485d-a17a-ac62ea96167a","system_id":"levelo_inurba_marseille","lat":43.27972,"lon":5.38712,"is_reserved":false,"is_disabled":true,"rental_uris":{"android":"levelo://app?vid=7b9b3679-8df0-485d-a17a-ac62ea96167a","ios":"levelo://app?vid=7b9b3679-8df0-485d-a17a-ac62ea96167a"},"vehicle_type_id":"4","last_reported":1733491205,"current_range_meters":14000,"station_id":"ce4bhg12rcd13ifvqf80","pricing_plan_id":"cebpf4jnsgd1na2vs0mg"},{"bike_id":"d36c4494-2b7d-4ca5-bb7f-91b248fbc160","system_id":"levelo_inurba_marseille","lat":43.30543,"lon":5.36558,"is_reserved":false,"is_disabled":false,"rental_uris":{"android":"levelo://app?vid=d36c4494-2b7d-4ca5-bb7f-91b248fbc160","ios":"levelo://app?vid=d36c4494-2b7d-4ca5-bb7f-91b248fbc160"},"vehicle_type_id":"4","last_reported":1733491205,"current_range_meters":30000,"station_id":"ce4bgs12rcd13ifvqcag","pricing_plan_id":"cebpf4jnsgd1na2vs0mg"},{"bike_id":"0739cb89-586c-4275-beff-81c62ae67a52","system_id":"levelo_inurba_marseille","lat":43.27815,"lon":5.40717,"is_reserved":false,"is_disabled":true,"rental_uris":{"android":"levelo://app?vid=0739cb89-586c-4275-beff-81c62ae67a52","ios":"levelo://app?vid=0739cb89-586c-4275-beff-81c62ae67a52"},"vehicle_type_id":"4","last_reported":1733491205,"current_range_meters":0,"station_id":"ce4bhnh2rcd13ifvqgtg","pricing_plan_id":"cebpf4jnsgd1na2vs0mg"},{"bike_id":"0c2da304-8edc-4bf0-82b3-7afe723ef86c","system_id":"levelo_inurba_marseille","lat":43.32536,"lon":5.41445,"is_reserved":false,"is_disabled":false,"rental_uris":{"android":"levelo://app?vid=0c2da304-8edc-4bf0-82b3-7afe723ef86c","ios":"levelo://app?vid=0c2da304-8edc-4bf0-82b3-7afe723ef86c"},"vehicle_type_id":"4","last_reported":1733491205,"current_range_meters":17200,"station_id":"ce4bhq12rcd13ifvqhhg","pricing_plan_id":"cebpf4jnsgd1na2vs0mg"},{"bike_id":"b847676b-f2fe-4a6a-9788-f3302aebe2cb","system_id":"levelo_inurba_marseille","lat":43.29278,"lon":5.3685,"is_reserved":false,"is_disabled":false,"rental_uris":{"android":"levelo://app?vid=b847676b-f2fe-4a6a-9788-f3302aebe2cb","ios":"levelo://app?vid=b847676b-f2fe-4a6a-9788-f3302aebe2cb"},"vehicle_type_id":"4","last_reported":1733491205,"current_range_meters":38800,"station_id":"ce4bhbp2rcd13ifvqesg","pricing_plan_id":"cebpf4jnsgd1na2vs0mg"},{"bike_id":"32606ff1-9852-4fb0-9e6e-fa19ea9d99bb","system_id":"levelo_inurba_marseille","lat":43.2319,"lon":5.35561,"is_reserved":false,"is_disabled":false,"rental_uris":{"android":"levelo://app?vid=32606ff1-9852-4fb0-9e6e-fa19ea9d99bb","ios":"levelo://app?vid=32606ff1-9852-4fb0-9e6e-fa19ea9d99bb"},"vehicle_type_id":"4","last_reported":1733491205,"current_range_meters":26800,"station_id":"ce4bhu92rcd13ifvqi70","pricing_plan_id":"cebpf4jnsgd1na2vs0mg"},{"bike_id":"1ee74f47-c25e-4fca-8cea-1505429867e2","system_id":"levelo_inurba_marseille","lat":43.30297,"lon":5.39348,"is_reserved":false,"is_disabled":false,"rental_uris":{"android":"levelo://app?vid=1ee74f47-c25e-4fca-8cea-1505429867e2","ios":"levelo://app?vid=1ee74f47-c25e-4fca-8cea-1505429867e2"},"vehicle_type_id":"4","last_reported":1733491205,"current_range_meters":24800,"station_id":"","pricing_plan_id":"cebpf4jnsgd1na2vs0mg"},{"bike_id":"8dbb18ec-950b-4221-bf67-c1e18ff84f9e","system_id":"levelo_inurba_marseille","lat":43.28663,"lon":5.38661,"is_reserved":false,"is_disabled":false,"rental_uris":{"android":"levelo://app?vid=8dbb18ec-950b-4221-bf67-c1e18ff84f9e","ios":"levelo://app?vid=8dbb18ec-950b-4221-bf67-c1e18ff84f9e"},"vehicle_type_id":"4","last_reported":1733491205,"current_range_meters":8800,"station_id":"ce4bh492rcd13ifvqdug","pricing_plan_id":"cebpf4jnsgd1na2vs0mg"},{"bike_id":"5fa3baa6-4a87-449f-b166-d4720e1f8a88","system_id":"levelo_inurba_marseille","lat":43.2408,"lon":5.37718,"is_reserved":false,"is_disabled":false,"rental_uris":{"android":"levelo://app?vid=5fa3baa6-4a87-449f-b166-d4720e1f8a88","ios":"levelo://app?vid=5fa3baa6-4a87-449f-b166-d4720e1f8a88"},"vehicle_type_id":"4","last_reported":1733491205,"current_range_meters":38800,"station_id":"ce4bhnp2rcd13ifvqgvg","pricing_plan_id":"cebpf4jnsgd1na2vs0mg"},{"bike_id":"2138e226-c447-4f36-b6ba-d89b86682f24","system_id":"levelo_inurba_marseille","lat":43.26569,"lon":5.38996,"is_reserved":false,"is_disabled":false,"rental_uris":{"android":"levelo://app?vid=2138e226-c447-4f36-b6ba-d89b86682f24","ios":"levelo://app?vid=2138e226-c447-4f36-b6ba-d89b86682f24"},"vehicle_type_id":"4","last_reported":1733491205,"current_range_meters":9200,"station_id":"ce4bhe12rcd13ifvqf30","pricing_plan_id":"cebpf4jnsgd1na2vs0mg"},{"bike_id":"581367ce-481c-40c1-a0e2-d5680f7b4da1","system_id":"levelo_inurba_marseille","lat":43.25926,"lon":5.4091,"is_reserved":false,"is_disabled":false,"rental_uris":{"android":"levelo://app?vid=581367ce-481c-40c1-a0e2-d5680f7b4da1","ios":"levelo://app?vid=581367ce-481c-40c1-a0e2-d5680f7b4da1"},"vehicle_type_id":"4","last_reported":1733491205,"current_range_meters":38000,"station_id":"ce4bhm92rcd13ifvqglg","pricing_plan_id":"cebpf4jnsgd1na2vs0mg"},{"bike_id":"61ee06b9-7915-4070-9583-b8d6d72a8eb5","system_id":"levelo_inurba_marseille","lat":43.28611,"lon":5.37065,"is_reserved":false,"is_disabled":false,"rental_uris":{"android":"levelo://app?vid=61ee06b9-7915-4070-9583-b8d6d72a8eb5","ios":"levelo://app?vid=61ee06b9-7915-4070-9583-b8d6d72a8eb5"},"vehicle_type_id":"4","last_reported":1733491205,"current_range_meters":25200,"station_id":"ce4bht12rcd13ifvqi60","pricing_plan_id":"cebpf4jnsgd1na2vs0mg"},{"bike_id":"92793eb0-63d0-4667-9caa-cff3c9ab621e","system_id":"levelo_inurba_marseille","lat":43.24801,"lon":5.37455,"is_reserved":false,"is_disabled":false,"rental_uris":{"android":"levelo://app?vid=92793eb0-63d0-4667-9caa-cff3c9ab621e","ios":"levelo://app?vid=92793eb0-63d0-4667-9caa-cff3c9ab621e"},"vehicle_type_id":"4","last_reported":1733491205,"current_range_meters":32400,"station_id":"ce4bhgh2rcd13ifvqfb0","pricing_plan_id":"cebpf4jnsgd1na2vs0mg"},{"bike_id":"0ada4ac8-82be-41ab-a4d6-04558624c236","system_id":"levelo_inurba_marseille","lat":43.32483,"lon":5.36569,"is_reserved":false,"is_disabled":false,"rental_uris":{"android":"levelo://app?vid=0ada4ac8-82be-41ab-a4d6-04558624c236","ios":"levelo://app?vid=0ada4ac8-82be-41ab-a4d6-04558624c236"},"vehicle_type_id":"4","last_reported":1733491205,"current_range_meters":28000,"station_id":"ce4bhs12rcd13ifvqhvg","pricing_plan_id":"cebpf4jnsgd1na2vs0mg"},{"bike_id":"8800324d-73b8-4bae-95a8-e93d063d21d7","system_id":"levelo_inurba_marseille","lat":43.28701,"lon":5.39986,"is_reserved":false,"is_disabled":false,"rental_uris":{"android":"levelo://app?vid=8800324d-73b8-4bae-95a8-e93d063d21d7","ios":"levelo://app?vid=8800324d-73b8-4bae-95a8-e93d063d21d7"},"vehicle_type_id":"4","last_reported":1733491205,"current_range_meters":38800,"station_id":"ce4bho92rcd13ifvqh3g","pricing_plan_id":"cebpf4jnsgd1na2vs0mg"},{"bike_id":"710c9d13-8a64-4ca7-ba64-fd3194714b19","system_id":"levelo_inurba_marseille","lat":43.30801,"lon":5.3733,"is_reserved":false,"is_disabled":false,"rental_uris":{"android":"levelo://app?vid=710c9d13-8a64-4ca7-ba64-fd3194714b19","ios":"levelo://app?vid=710c9d13-8a64-4ca7-ba64-fd3194714b19"},"vehicle_type_id":"4","last_reported":1733491205,"current_range_meters":16400,"station_id":"","pricing_plan_id":"cebpf4jnsgd1na2vs0mg"},{"bike_id":"a4b9e425-64b8-4ce2-a5ab-5fcc5d1230a4","system_id":"levelo_inurba_marseille","lat":43.32103,"lon":5.36775,"is_reserved":false,"is_disabled":false,"rental_uris":{"android":"levelo://app?vid=a4b9e425-64b8-4ce2-a5ab-5fcc5d1230a4","ios":"levelo://app?vid=a4b9e425-64b8-4ce2-a5ab-5fcc5d1230a4"},"vehicle_type_id":"4","last_reported":1733491205,"current_range_meters":30000,"station_id":"ce4bhrh2rcd13ifvqhug","pricing_plan_id":"cebpf4jnsgd1na2vs0mg"},{"bike_id":"51991a0a-fe9c-412b-8c2b-242ee7813ef4","system_id":"levelo_inurba_marseille","lat":43.23961,"lon":5.36645,"is_reserved":false,"is_disabled":false,"rental_uris":{"android":"levelo://app?vid=51991a0a-fe9c-412b-8c2b-242ee7813ef4","ios":"levelo://app?vid=51991a0a-fe9c-412b-8c2b-242ee7813ef4"},"vehicle_type_id":"4","last_reported":1733491205,"current_range_meters":39200,"station_id":"ce4bhi12rcd13ifvqfp0","pricing_plan_id":"cebpf4jnsgd1na2vs0mg"},{"bike_id":"fd98eaa9-4d55-4e7b-aa90-0d14707466d9","system_id":"levelo_inurba_marseille","lat":43.337444,"lon":5.374475,"is_reserved":false,"is_disabled":true,"rental_uris":{"android":"levelo://app?vid=fd98eaa9-4d55-4e7b-aa90-0d14707466d9","ios":"levelo://app?vid=fd98eaa9-4d55-4e7b-aa90-0d14707466d9"},"vehicle_type_id":"4","last_reported":1733491205,"current_range_meters":0,"station_id":"","pricing_plan_id":"cebpf4jnsgd1na2vs0mg"},{"bike_id":"cce6f420-4439-4f23-b16c-85a1cc91ce44","system_id":"levelo_inurba_marseille","lat":43.26212,"lon":5.37442,"is_reserved":false,"is_disabled":false,"rental_uris":{"android":"levelo://app?vid=cce6f420-4439-4f23-b16c-85a1cc91ce44","ios":"levelo://app?vid=cce6f420-4439-4f23-b16c-85a1cc91ce44"},"vehicle_type_id":"4","last_reported":1733491205,"current_range_meters":39200,"station_id":"ce4bhgp2rcd13ifvqfc0","pricing_plan_id":"cebpf4jnsgd1na2vs0mg"},{"bike_id":"a1db3802-79d4-4039-a731-c62e05392c64","system_id":"levelo_inurba_marseille","lat":43.30188,"lon":5.36629,"is_reserved":false,"is_disabled":false,"rental_uris":{"android":"levelo://app?vid=a1db3802-79d4-4039-a731-c62e05392c64","ios":"levelo://app?vid=a1db3802-79d4-4039-a731-c62e05392c64"},"vehicle_type_id":"4","last_reported":1733491205,"current_range_meters":38800,"station_id":"ce4bgrh2rcd13ifvqc8g","pricing_plan_id":"cebpf4jnsgd1na2vs0mg"},{"bike_id":"58ae90bf-28dc-4332-a45b-369b54ae3a67","system_id":"levelo_inurba_marseille","lat":43.2841,"lon":5.34995,"is_reserved":false,"is_disabled":false,"rental_uris":{"android":"levelo://app?vid=58ae90bf-28dc-4332-a45b-369b54ae3a67","ios":"levelo://app?vid=58ae90bf-28dc-4332-a45b-369b54ae3a67"},"vehicle_type_id":"4","last_reported":1733491205,"current_range_meters":38800,"station_id":"ce4bhbh2rcd13ifvqepg","pricing_plan_id":"cebpf4jnsgd1na2vs0mg"},{"bike_id":"e25dc6e3-1f83-4e32-ad60-7f8ea4cb5b47","system_id":"levelo_inurba_marseille","lat":43.29794,"lon":5.39351,"is_reserved":false,"is_disabled":true,"rental_uris":{"android":"levelo://app?vid=e25dc6e3-1f83-4e32-ad60-7f8ea4cb5b47","ios":"levelo://app?vid=e25dc6e3-1f83-4e32-ad60-7f8ea4cb5b47"},"vehicle_type_id":"4","last_reported":1733491205,"current_range_meters":0,"station_id":"chh1huq6cuj3fo74tm60","pricing_plan_id":"cebpf4jnsgd1na2vs0mg"},{"bike_id":"bbbb29db-aba5-46de-a2b7-5de4a47a24d3","system_id":"levelo_inurba_marseille","lat":43.2979,"lon":5.38095,"is_reserved":false,"is_disabled":false,"rental_uris":{"android":"levelo://app?vid=bbbb29db-aba5-46de-a2b7-5de4a47a24d3","ios":"levelo://app?vid=bbbb29db-aba5-46de-a2b7-5de4a47a24d3"},"vehicle_type_id":"4","last_reported":1733491205,"current_range_meters":12000,"station_id":"ce4bgip2rcd13ifvqbb0","pricing_plan_id":"cebpf4jnsgd1na2vs0mg"},{"bike_id":"9784a79c-4c75-456b-b8fd-810d76bf8fc5","system_id":"levelo_inurba_marseille","lat":43.326592,"lon":5.409943,"is_reserved":false,"is_disabled":false,"rental_uris":{"android":"levelo://app?vid=9784a79c-4c75-456b-b8fd-810d76bf8fc5","ios":"levelo://app?vid=9784a79c-4c75-456b-b8fd-810d76bf8fc5"},"vehicle_type_id":"4","last_reported":1733491205,"current_range_meters":38000,"station_id":"ce4bhpp2rcd13ifvqhgg","pricing_plan_id":"cebpf4jnsgd1na2vs0mg"},{"bike_id":"c2b5ada1-c5fe-4d99-be49-97fe3e3670c6","system_id":"levelo_inurba_marseille","lat":43.29684,"lon":5.37288,"is_reserved":false,"is_disabled":false,"rental_uris":{"android":"levelo://app?vid=c2b5ada1-c5fe-4d99-be49-97fe3e3670c6","ios":"levelo://app?vid=c2b5ada1-c5fe-4d99-be49-97fe3e3670c6"},"vehicle_type_id":"4","last_reported":1733491205,"current_range_meters":17600,"station_id":"ce4bgk12rcd13ifvqbj0","pricing_plan_id":"cebpf4jnsgd1na2vs0mg"},{"bike_id":"c2d8a1c2-d166-4a36-b32f-beec95c93bd5","system_id":"levelo_inurba_marseille","lat":43.33756,"lon":5.37459,"is_reserved":false,"is_disabled":false,"rental_uris":{"android":"levelo://app?vid=c2d8a1c2-d166-4a36-b32f-beec95c93bd5","ios":"levelo://app?vid=c2d8a1c2-d166-4a36-b32f-beec95c93bd5"},"vehicle_type_id":"4","last_reported":1733491205,"current_range_meters":4400,"station_id":"","pricing_plan_id":"cebpf4jnsgd1na2vs0mg"},{"bike_id":"08f9d4e8-dfb0-4a92-8494-27fba90e30bf","system_id":"levelo_inurba_marseille","lat":43.28917,"lon":5.3667,"is_reserved":false,"is_disabled":false,"rental_uris":{"android":"levelo://app?vid=08f9d4e8-dfb0-4a92-8494-27fba90e30bf","ios":"levelo://app?vid=08f9d4e8-dfb0-4a92-8494-27fba90e30bf"},"vehicle_type_id":"4","last_reported":1733491205,"current_range_meters":11600,"station_id":"ce4bhap2rcd13ifvqek0","pricing_plan_id":"cebpf4jnsgd1na2vs0mg"},{"bike_id":"7a7888d2-4b0b-4186-8376-568c3b2ce15a","system_id":"levelo_inurba_marseille","lat":43.29389,"lon":5.38614,"is_reserved":false,"is_disabled":true,"rental_uris":{"android":"levelo://app?vid=7a7888d2-4b0b-4186-8376-568c3b2ce15a","ios":"levelo://app?vid=7a7888d2-4b0b-4186-8376-568c3b2ce15a"},"vehicle_type_id":"4","last_reported":1733491205,"current_range_meters":400,"station_id":"ce4bh2h2rcd13ifvqdh0","pricing_plan_id":"cebpf4jnsgd1na2vs0mg"},{"bike_id":"5976e944-e79a-451d-8f85-b143b67e5e11","system_id":"levelo_inurba_marseille","lat":43.25515,"lon":5.37633,"is_reserved":false,"is_disabled":true,"rental_uris":{"android":"levelo://app?vid=5976e944-e79a-451d-8f85-b143b67e5e11","ios":"levelo://app?vid=5976e944-e79a-451d-8f85-b143b67e5e11"},"vehicle_type_id":"4","last_reported":1733491205,"current_range_meters":0,"station_id":"ce4bhh12rcd13ifvqff0","pricing_plan_id":"cebpf4jnsgd1na2vs0mg"},{"bike_id":"61da5d92-0f70-47ba-ba8c-b8b885b6a162","system_id":"levelo_inurba_marseille","lat":43.30147,"lon":5.38084,"is_reserved":false,"is_disabled":false,"rental_uris":{"android":"levelo://app?vid=61da5d92-0f70-47ba-ba8c-b8b885b6a162","ios":"levelo://app?vid=61da5d92-0f70-47ba-ba8c-b8b885b6a162"},"vehicle_type_id":"4","last_reported":1733491205,"current_range_meters":39200,"station_id":"ce4bgjp2rcd13ifvqbh0","pricing_plan_id":"cebpf4jnsgd1na2vs0mg"},{"bike_id":"d8012e0b-9a79-4412-a5e7-54cfcf3eacf4","system_id":"levelo_inurba_marseille","lat":43.30783,"lon":5.37661,"is_reserved":false,"is_disabled":false,"rental_uris":{"android":"levelo://app?vid=d8012e0b-9a79-4412-a5e7-54cfcf3eacf4","ios":"levelo://app?vid=d8012e0b-9a79-4412-a5e7-54cfcf3eacf4"},"vehicle_type_id":"4","last_reported":1733491205,"current_range_meters":31200,"station_id":"ce4bgv92rcd13ifvqcq0","pricing_plan_id":"cebpf4jnsgd1na2vs0mg"},{"bike_id":"dce35d6a-08b0-4b4c-b89b-7b5e69e85874","system_id":"levelo_inurba_marseille","lat":43.32433,"lon":5.36378,"is_reserved":false,"is_disabled":false,"rental_uris":{"android":"levelo://app?vid=dce35d6a-08b0-4b4c-b89b-7b5e69e85874","ios":"levelo://app?vid=dce35d6a-08b0-4b4c-b89b-7b5e69e85874"},"vehicle_type_id":"4","last_reported":1733491205,"current_range_meters":6400,"station_id":"","pricing_plan_id":"cebpf4jnsgd1na2vs0mg"},{"bike_id":"37727576-2d28-4525-b065-40affdaee0f8","system_id":"levelo_inurba_marseille","lat":43.32364,"lon":5.38883,"is_reserved":false,"is_disabled":false,"rental_uris":{"android":"levelo://app?vid=37727576-2d28-4525-b065-40affdaee0f8","ios":"levelo://app?vid=37727576-2d28-4525-b065-40affdaee0f8"},"vehicle_type_id":"4","last_reported":1733491205,"current_range_meters":36400,"station_id":"ce4bhqp2rcd13ifvqhog","pricing_plan_id":"cebpf4jnsgd1na2vs0mg"},{"bike_id":"3a352b39-ea88-4938-aca7-0d30863305b9","system_id":"levelo_inurba_marseille","lat":43.30591,"lon":5.3722,"is_reserved":false,"is_disabled":true,"rental_uris":{"android":"levelo://app?vid=3a352b39-ea88-4938-aca7-0d30863305b9","ios":"levelo://app?vid=3a352b39-ea88-4938-aca7-0d30863305b9"},"vehicle_type_id":"4","last_reported":1733491205,"current_range_meters":12000,"station_id":"ce4bgqh2rcd13ifvqc4g","pricing_plan_id":"cebpf4jnsgd1na2vs0mg"},{"bike_id":"232593bd-31e9-42d5-ac0d-00231dedcbf5","system_id":"levelo_inurba_marseille","lat":43.24067,"lon":5.3777,"is_reserved":false,"is_disabled":false,"rental_uris":{"android":"levelo://app?vid=232593bd-31e9-42d5-ac0d-00231dedcbf5","ios":"levelo://app?vid=232593bd-31e9-42d5-ac0d-00231dedcbf5"},"vehicle_type_id":"4","last_reported":1733491205,"current_range_meters":39200,"station_id":"ce4bhnp2rcd13ifvqgvg","pricing_plan_id":"cebpf4jnsgd1na2vs0mg"},{"bike_id":"2497263a-1e49-446f-8ac2-aedcbe0b5ea4","system_id":"levelo_inurba_marseille","lat":43.26212,"lon":5.37449,"is_reserved":false,"is_disabled":false,"rental_uris":{"android":"levelo://app?vid=2497263a-1e49-446f-8ac2-aedcbe0b5ea4","ios":"levelo://app?vid=2497263a-1e49-446f-8ac2-aedcbe0b5ea4"},"vehicle_type_id":"4","last_reported":1733491205,"current_range_meters":28400,"station_id":"ce4bhgp2rcd13ifvqfc0","pricing_plan_id":"cebpf4jnsgd1na2vs0mg"},{"bike_id":"2e25e5ac-189e-491e-a8a8-90c3dd347a2d","system_id":"levelo_inurba_marseille","lat":43.31376,"lon":5.3672,"is_reserved":false,"is_disabled":false,"rental_uris":{"android":"levelo://app?vid=2e25e5ac-189e-491e-a8a8-90c3dd347a2d","ios":"levelo://app?vid=2e25e5ac-189e-491e-a8a8-90c3dd347a2d"},"vehicle_type_id":"4","last_reported":1733491205,"current_range_meters":38800,"station_id":"ce4bgr92rcd13ifvqc6g","pricing_plan_id":"cebpf4jnsgd1na2vs0mg"},{"bike_id":"b9c7bee0-5635-4d39-88e9-1a74f07b42a9","system_id":"levelo_inurba_marseille","lat":43.26188,"lon":5.37455,"is_reserved":false,"is_disabled":false,"rental_uris":{"android":"levelo://app?vid=b9c7bee0-5635-4d39-88e9-1a74f07b42a9","ios":"levelo://app?vid=b9c7bee0-5635-4d39-88e9-1a74f07b42a9"},"vehicle_type_id":"4","last_reported":1733491205,"current_range_meters":38000,"station_id":"ce4bhgp2rcd13ifvqfc0","pricing_plan_id":"cebpf4jnsgd1na2vs0mg"},{"bike_id":"2e2547d4-336d-4d9b-ac40-cf4833de027f","system_id":"levelo_inurba_marseille","lat":43.28938,"lon":5.36642,"is_reserved":false,"is_disabled":false,"rental_uris":{"android":"levelo://app?vid=2e2547d4-336d-4d9b-ac40-cf4833de027f","ios":"levelo://app?vid=2e2547d4-336d-4d9b-ac40-cf4833de027f"},"vehicle_type_id":"4","last_reported":1733491205,"current_range_meters":16800,"station_id":"ce4bhap2rcd13ifvqek0","pricing_plan_id":"cebpf4jnsgd1na2vs0mg"},{"bike_id":"4c731081-4465-4ee0-a99d-5a9339d6530d","system_id":"levelo_inurba_marseille","lat":43.23153,"lon":5.43726,"is_reserved":false,"is_disabled":false,"rental_uris":{"android":"levelo://app?vid=4c731081-4465-4ee0-a99d-5a9339d6530d","ios":"levelo://app?vid=4c731081-4465-4ee0-a99d-5a9339d6530d"},"vehicle_type_id":"4","last_reported":1733491205,"current_range_meters":36000,"station_id":"ce4bhmp2rcd13ifvqgog","pricing_plan_id":"cebpf4jnsgd1na2vs0mg"},{"bike_id":"d235925a-856b-419b-8add-63577881caa4","system_id":"levelo_inurba_marseille","lat":43.2808,"lon":5.39656,"is_reserved":false,"is_disabled":false,"rental_uris":{"android":"levelo://app?vid=d235925a-856b-419b-8add-63577881caa4","ios":"levelo://app?vid=d235925a-856b-419b-8add-63577881caa4"},"vehicle_type_id":"4","last_reported":1733491205,"current_range_meters":30400,"station_id":"ce4bho12rcd13ifvqh2g","pricing_plan_id":"cebpf4jnsgd1na2vs0mg"},{"bike_id":"7cec87ae-5cf8-4ac3-b0bf-8d42d1422b1f","system_id":"levelo_inurba_marseille","lat":43.30438,"lon":5.40759,"is_reserved":false,"is_disabled":false,"rental_uris":{"android":"levelo://app?vid=7cec87ae-5cf8-4ac3-b0bf-8d42d1422b1f","ios":"levelo://app?vid=7cec87ae-5cf8-4ac3-b0bf-8d42d1422b1f"},"vehicle_type_id":"4","last_reported":1733491205,"current_range_meters":34800,"station_id":"","pricing_plan_id":"cebpf4jnsgd1na2vs0mg"},{"bike_id":"ecaa7486-30a2-425c-b593-abe219c45233","system_id":"levelo_inurba_marseille","lat":43.30149,"lon":5.38079,"is_reserved":false,"is_disabled":false,"rental_uris":{"android":"levelo://app?vid=ecaa7486-30a2-425c-b593-abe219c45233","ios":"levelo://app?vid=ecaa7486-30a2-425c-b593-abe219c45233"},"vehicle_type_id":"4","last_reported":1733491205,"current_range_meters":22000,"station_id":"ce4bgjp2rcd13ifvqbh0","pricing_plan_id":"cebpf4jnsgd1na2vs0mg"},{"bike_id":"06fa5d7c-3b9b-4c5d-a878-9f9d07eac2da","system_id":"levelo_inurba_marseille","lat":43.27951,"lon":5.41058,"is_reserved":false,"is_disabled":false,"rental_uris":{"android":"levelo://app?vid=06fa5d7c-3b9b-4c5d-a878-9f9d07eac2da","ios":"levelo://app?vid=06fa5d7c-3b9b-4c5d-a878-9f9d07eac2da"},"vehicle_type_id":"4","last_reported":1733491205,"current_range_meters":32400,"station_id":"ce4bhnp2rcd13ifvqh0g","pricing_plan_id":"cebpf4jnsgd1na2vs0mg"},{"bike_id":"28121aa3-7c19-4b1b-a44a-d17aed6b8d94","system_id":"levelo_inurba_marseille","lat":43.337444,"lon":5.374475,"is_reserved":false,"is_disabled":false,"rental_uris":{"android":"levelo://app?vid=28121aa3-7c19-4b1b-a44a-d17aed6b8d94","ios":"levelo://app?vid=28121aa3-7c19-4b1b-a44a-d17aed6b8d94"},"vehicle_type_id":"4","last_reported":1733491205,"current_range_meters":33600,"station_id":"","pricing_plan_id":"cebpf4jnsgd1na2vs0mg"},{"bike_id":"62dddee1-1100-4d8c-839c-64951e09afde","system_id":"levelo_inurba_marseille","lat":43.252457,"lon":5.40521,"is_reserved":false,"is_disabled":true,"rental_uris":{"android":"levelo://app?vid=62dddee1-1100-4d8c-839c-64951e09afde","ios":"levelo://app?vid=62dddee1-1100-4d8c-839c-64951e09afde"},"vehicle_type_id":"4","last_reported":1733491205,"current_range_meters":22800,"station_id":"","pricing_plan_id":"cebpf4jnsgd1na2vs0mg"},{"bike_id":"eb72db87-3e65-4b58-abc7-e1fe4b051445","system_id":"levelo_inurba_marseille","lat":43.30525,"lon":5.3655,"is_reserved":false,"is_disabled":false,"rental_uris":{"android":"levelo://app?vid=eb72db87-3e65-4b58-abc7-e1fe4b051445","ios":"levelo://app?vid=eb72db87-3e65-4b58-abc7-e1fe4b051445"},"vehicle_type_id":"4","last_reported":1733491205,"current_range_meters":38400,"station_id":"ce4bgs12rcd13ifvqcag","pricing_plan_id":"cebpf4jnsgd1na2vs0mg"},{"bike_id":"0d9aa434-05a4-4768-997c-26811b8b4f2d","system_id":"levelo_inurba_marseille","lat":43.28931,"lon":5.36645,"is_reserved":false,"is_disabled":false,"rental_uris":{"android":"levelo://app?vid=0d9aa434-05a4-4768-997c-26811b8b4f2d","ios":"levelo://app?vid=0d9aa434-05a4-4768-997c-26811b8b4f2d"},"vehicle_type_id":"4","last_reported":1733491205,"current_range_meters":30000,"station_id":"ce4bhap2rcd13ifvqek0","pricing_plan_id":"cebpf4jnsgd1na2vs0mg"},{"bike_id":"21c61b3f-2ae1-41ed-96e8-21fc1b01a387","system_id":"levelo_inurba_marseille","lat":43.30089,"lon":5.37257,"is_reserved":false,"is_disabled":false,"rental_uris":{"android":"levelo://app?vid=21c61b3f-2ae1-41ed-96e8-21fc1b01a387","ios":"levelo://app?vid=21c61b3f-2ae1-41ed-96e8-21fc1b01a387"},"vehicle_type_id":"4","last_reported":1733491205,"current_range_meters":10000,"station_id":"","pricing_plan_id":"cebpf4jnsgd1na2vs0mg"},{"bike_id":"9d601b44-18de-420f-afc6-2cb5de397159","system_id":"levelo_inurba_marseille","lat":43.30588,"lon":5.37218,"is_reserved":false,"is_disabled":false,"rental_uris":{"android":"levelo://app?vid=9d601b44-18de-420f-afc6-2cb5de397159","ios":"levelo://app?vid=9d601b44-18de-420f-afc6-2cb5de397159"},"vehicle_type_id":"4","last_reported":1733491205,"current_range_meters":16400,"station_id":"ce4bgqh2rcd13ifvqc4g","pricing_plan_id":"cebpf4jnsgd1na2vs0mg"},{"bike_id":"3a9149f3-357c-4d0a-859b-18382ef024a5","system_id":"levelo_inurba_marseille","lat":43.32107,"lon":5.36772,"is_reserved":false,"is_disabled":false,"rental_uris":{"android":"levelo://app?vid=3a9149f3-357c-4d0a-859b-18382ef024a5","ios":"levelo://app?vid=3a9149f3-357c-4d0a-859b-18382ef024a5"},"vehicle_type_id":"4","last_reported":1733491205,"current_range_meters":18000,"station_id":"ce4bhrh2rcd13ifvqhug","pricing_plan_id":"cebpf4jnsgd1na2vs0mg"},{"bike_id":"0923f2db-d88b-4671-8593-f5da9fd2dc14","system_id":"levelo_inurba_marseille","lat":43.29774,"lon":5.3812,"is_reserved":false,"is_disabled":false,"rental_uris":{"android":"levelo://app?vid=0923f2db-d88b-4671-8593-f5da9fd2dc14","ios":"levelo://app?vid=0923f2db-d88b-4671-8593-f5da9fd2dc14"},"vehicle_type_id":"4","last_reported":1733491205,"current_range_meters":12000,"station_id":"ce4bgip2rcd13ifvqbb0","pricing_plan_id":"cebpf4jnsgd1na2vs0mg"},{"bike_id":"868a434e-7c11-4b20-84c6-7ecdbf24c83b","system_id":"levelo_inurba_marseille","lat":43.33022,"lon":5.39037,"is_reserved":false,"is_disabled":false,"rental_uris":{"android":"levelo://app?vid=868a434e-7c11-4b20-84c6-7ecdbf24c83b","ios":"levelo://app?vid=868a434e-7c11-4b20-84c6-7ecdbf24c83b"},"vehicle_type_id":"4","last_reported":1733491205,"current_range_meters":27600,"station_id":"ce4bhr92rcd13ifvqhrg","pricing_plan_id":"cebpf4jnsgd1na2vs0mg"},{"bike_id":"a90edf1f-a50f-4556-8541-4eafae33c950","system_id":"levelo_inurba_marseille","lat":43.30294,"lon":5.36872,"is_reserved":false,"is_disabled":false,"rental_uris":{"android":"levelo://app?vid=a90edf1f-a50f-4556-8541-4eafae33c950","ios":"levelo://app?vid=a90edf1f-a50f-4556-8541-4eafae33c950"},"vehicle_type_id":"4","last_reported":1733491205,"current_range_meters":33200,"station_id":"ce4bgqh2rcd13ifvqc5g","pricing_plan_id":"cebpf4jnsgd1na2vs0mg"},{"bike_id":"98df377c-5b46-4a4e-a80e-95ded7d1b7b9","system_id":"levelo_inurba_marseille","lat":43.29025,"lon":5.38616,"is_reserved":false,"is_disabled":true,"rental_uris":{"android":"levelo://app?vid=98df377c-5b46-4a4e-a80e-95ded7d1b7b9","ios":"levelo://app?vid=98df377c-5b46-4a4e-a80e-95ded7d1b7b9"},"vehicle_type_id":"4","last_reported":1733491205,"current_range_meters":24000,"station_id":"ce4bh4p2rcd13ifvqe0g","pricing_plan_id":"cebpf4jnsgd1na2vs0mg"},{"bike_id":"da6a7a1d-e653-4950-af8c-8137b06f7d40","system_id":"levelo_inurba_marseille","lat":43.3004,"lon":5.37551,"is_reserved":false,"is_disabled":true,"rental_uris":{"android":"levelo://app?vid=da6a7a1d-e653-4950-af8c-8137b06f7d40","ios":"levelo://app?vid=da6a7a1d-e653-4950-af8c-8137b06f7d40"},"vehicle_type_id":"4","last_reported":1733491205,"current_range_meters":0,"station_id":"","pricing_plan_id":"cebpf4jnsgd1na2vs0mg"},{"bike_id":"f7252cae-ba4c-4699-a0b4-4edea22fdb53","system_id":"levelo_inurba_marseille","lat":43.26204,"lon":5.37927,"is_reserved":false,"is_disabled":false,"rental_uris":{"android":"levelo://app?vid=f7252cae-ba4c-4699-a0b4-4edea22fdb53","ios":"levelo://app?vid=f7252cae-ba4c-4699-a0b4-4edea22fdb53"},"vehicle_type_id":"4","last_reported":1733491205,"current_range_meters":18000,"station_id":"ce4bhjp2rcd13ifvqg90","pricing_plan_id":"cebpf4jnsgd1na2vs0mg"},{"bike_id":"d1391f75-0844-4b44-be23-1c381e54fd43","system_id":"levelo_inurba_marseille","lat":43.23965,"lon":5.36644,"is_reserved":false,"is_disabled":false,"rental_uris":{"android":"levelo://app?vid=d1391f75-0844-4b44-be23-1c381e54fd43","ios":"levelo://app?vid=d1391f75-0844-4b44-be23-1c381e54fd43"},"vehicle_type_id":"4","last_reported":1733491205,"current_range_meters":38800,"station_id":"ce4bhi12rcd13ifvqfp0","pricing_plan_id":"cebpf4jnsgd1na2vs0mg"},{"bike_id":"a95eae29-aa20-4222-9376-00ae9a63c64c","system_id":"levelo_inurba_marseille","lat":43.28477,"lon":5.38414,"is_reserved":false,"is_disabled":false,"rental_uris":{"android":"levelo://app?vid=a95eae29-aa20-4222-9376-00ae9a63c64c","ios":"levelo://app?vid=a95eae29-aa20-4222-9376-00ae9a63c64c"},"vehicle_type_id":"4","last_reported":1733491205,"current_range_meters":16400,"station_id":"ce4bh512rcd13ifvqe3g","pricing_plan_id":"cebpf4jnsgd1na2vs0mg"},{"bike_id":"a605b757-e0f5-4518-86d8-fb017306fbd1","system_id":"levelo_inurba_marseille","lat":43.28936,"lon":5.3839,"is_reserved":false,"is_disabled":false,"rental_uris":{"android":"levelo://app?vid=a605b757-e0f5-4518-86d8-fb017306fbd1","ios":"levelo://app?vid=a605b757-e0f5-4518-86d8-fb017306fbd1"},"vehicle_type_id":"4","last_reported":1733491205,"current_range_meters":22400,"station_id":"ce4bh612rcd13ifvqe6g","pricing_plan_id":"cebpf4jnsgd1na2vs0mg"},{"bike_id":"9d8c1055-130a-48d2-b59c-f6513095f987","system_id":"levelo_inurba_marseille","lat":43.28931,"lon":5.3664,"is_reserved":false,"is_disabled":false,"rental_uris":{"android":"levelo://app?vid=9d8c1055-130a-48d2-b59c-f6513095f987","ios":"levelo://app?vid=9d8c1055-130a-48d2-b59c-f6513095f987"},"vehicle_type_id":"4","last_reported":1733491205,"current_range_meters":17600,"station_id":"ce4bhap2rcd13ifvqek0","pricing_plan_id":"cebpf4jnsgd1na2vs0mg"},{"bike_id":"219ae136-072e-441b-b137-5e02954ce2f5","system_id":"levelo_inurba_marseille","lat":43.29096,"lon":5.35583,"is_reserved":false,"is_disabled":false,"rental_uris":{"android":"levelo://app?vid=219ae136-072e-441b-b137-5e02954ce2f5","ios":"levelo://app?vid=219ae136-072e-441b-b137-5e02954ce2f5"},"vehicle_type_id":"4","last_reported":1733491205,"current_range_meters":17600,"station_id":"ce4bhb92rcd13ifvqen0","pricing_plan_id":"cebpf4jnsgd1na2vs0mg"},{"bike_id":"7e3d2614-e763-4cd0-9c8a-2a5a64c426c0","system_id":"levelo_inurba_marseille","lat":43.29568,"lon":5.3999,"is_reserved":false,"is_disabled":false,"rental_uris":{"android":"levelo://app?vid=7e3d2614-e763-4cd0-9c8a-2a5a64c426c0","ios":"levelo://app?vid=7e3d2614-e763-4cd0-9c8a-2a5a64c426c0"},"vehicle_type_id":"4","last_reported":1733491205,"current_range_meters":6800,"station_id":"ce4bh312rcd13ifvqdj0","pricing_plan_id":"cebpf4jnsgd1na2vs0mg"},{"bike_id":"b983f700-39e1-418f-84a3-1c3c95a84b96","system_id":"levelo_inurba_marseille","lat":43.337752,"lon":5.375048,"is_reserved":false,"is_disabled":false,"rental_uris":{"android":"levelo://app?vid=b983f700-39e1-418f-84a3-1c3c95a84b96","ios":"levelo://app?vid=b983f700-39e1-418f-84a3-1c3c95a84b96"},"vehicle_type_id":"4","last_reported":1733491205,"current_range_meters":36800,"station_id":"","pricing_plan_id":"cebpf4jnsgd1na2vs0mg"},{"bike_id":"30de221a-4ae9-44c8-af60-f5843b67f535","system_id":"levelo_inurba_marseille","lat":43.337444,"lon":5.374475,"is_reserved":false,"is_disabled":false,"rental_uris":{"android":"levelo://app?vid=30de221a-4ae9-44c8-af60-f5843b67f535","ios":"levelo://app?vid=30de221a-4ae9-44c8-af60-f5843b67f535"},"vehicle_type_id":"4","last_reported":1733491205,"current_range_meters":33600,"station_id":"","pricing_plan_id":"cebpf4jnsgd1na2vs0mg"},{"bike_id":"777c4a98-7b72-4b69-8b88-8f39af2e67ee","system_id":"levelo_inurba_marseille","lat":43.2926,"lon":5.38441,"is_reserved":false,"is_disabled":false,"rental_uris":{"android":"levelo://app?vid=777c4a98-7b72-4b69-8b88-8f39af2e67ee","ios":"levelo://app?vid=777c4a98-7b72-4b69-8b88-8f39af2e67ee"},"vehicle_type_id":"4","last_reported":1733491205,"current_range_meters":38000,"station_id":"ce4bh692rcd13ifvqea0","pricing_plan_id":"cebpf4jnsgd1na2vs0mg"},{"bike_id":"38c57fa0-e1ea-4923-b61c-26cf37c8fe12","system_id":"levelo_inurba_marseille","lat":43.26565,"lon":5.39012,"is_reserved":false,"is_disabled":false,"rental_uris":{"android":"levelo://app?vid=38c57fa0-e1ea-4923-b61c-26cf37c8fe12","ios":"levelo://app?vid=38c57fa0-e1ea-4923-b61c-26cf37c8fe12"},"vehicle_type_id":"4","last_reported":1733491205,"current_range_meters":36800,"station_id":"ce4bhe12rcd13ifvqf30","pricing_plan_id":"cebpf4jnsgd1na2vs0mg"},{"bike_id":"0926a58f-f7f1-456e-826c-66fceeca260f","system_id":"levelo_inurba_marseille","lat":43.29895,"lon":5.43655,"is_reserved":false,"is_disabled":false,"rental_uris":{"android":"levelo://app?vid=0926a58f-f7f1-456e-826c-66fceeca260f","ios":"levelo://app?vid=0926a58f-f7f1-456e-826c-66fceeca260f"},"vehicle_type_id":"4","last_reported":1733491205,"current_range_meters":16000,"station_id":"ce4bhpp2rcd13ifvqhfg","pricing_plan_id":"cebpf4jnsgd1na2vs0mg"},{"bike_id":"fe9e2035-4ee8-42b6-a8bd-e1e6763c91a5","system_id":"levelo_inurba_marseille","lat":43.27178,"lon":5.40987,"is_reserved":false,"is_disabled":false,"rental_uris":{"android":"levelo://app?vid=fe9e2035-4ee8-42b6-a8bd-e1e6763c91a5","ios":"levelo://app?vid=fe9e2035-4ee8-42b6-a8bd-e1e6763c91a5"},"vehicle_type_id":"4","last_reported":1733491205,"current_range_meters":32400,"station_id":"ce4bhl12rcd13ifvqgf0","pricing_plan_id":"cebpf4jnsgd1na2vs0mg"},{"bike_id":"698d6a44-4e7a-4bea-ac28-a6b7d5b8307d","system_id":"levelo_inurba_marseille","lat":43.30117,"lon":5.39882,"is_reserved":false,"is_disabled":false,"rental_uris":{"android":"levelo://app?vid=698d6a44-4e7a-4bea-ac28-a6b7d5b8307d","ios":"levelo://app?vid=698d6a44-4e7a-4bea-ac28-a6b7d5b8307d"},"vehicle_type_id":"4","last_reported":1733491205,"current_range_meters":400,"station_id":"ce4bh0h2rcd13ifvqd40","pricing_plan_id":"cebpf4jnsgd1na2vs0mg"},{"bike_id":"770176c3-dcad-4da0-8e7e-be1bdf49f564","system_id":"levelo_inurba_marseille","lat":43.26557,"lon":5.37284,"is_reserved":false,"is_disabled":false,"rental_uris":{"android":"levelo://app?vid=770176c3-dcad-4da0-8e7e-be1bdf49f564","ios":"levelo://app?vid=770176c3-dcad-4da0-8e7e-be1bdf49f564"},"vehicle_type_id":"4","last_reported":1733491205,"current_range_meters":30800,"station_id":"ce4bhg12rcd13ifvqf70","pricing_plan_id":"cebpf4jnsgd1na2vs0mg"},{"bike_id":"7714ce30-465c-426d-9621-0f0245a19ff8","system_id":"levelo_inurba_marseille","lat":43.27179,"lon":5.41,"is_reserved":false,"is_disabled":false,"rental_uris":{"android":"levelo://app?vid=7714ce30-465c-426d-9621-0f0245a19ff8","ios":"levelo://app?vid=7714ce30-465c-426d-9621-0f0245a19ff8"},"vehicle_type_id":"4","last_reported":1733491205,"current_range_meters":22400,"station_id":"ce4bhl12rcd13ifvqgf0","pricing_plan_id":"cebpf4jnsgd1na2vs0mg"},{"bike_id":"2e38f9e4-f6de-4fae-9004-b11bb52a4773","system_id":"levelo_inurba_marseille","lat":43.27063,"lon":5.40258,"is_reserved":false,"is_disabled":true,"rental_uris":{"android":"levelo://app?vid=2e38f9e4-f6de-4fae-9004-b11bb52a4773","ios":"levelo://app?vid=2e38f9e4-f6de-4fae-9004-b11bb52a4773"},"vehicle_type_id":"4","last_reported":1733491205,"current_range_meters":0,"station_id":"ce4bhk92rcd13ifvqgc0","pricing_plan_id":"cebpf4jnsgd1na2vs0mg"},{"bike_id":"cce3eecc-cb69-4101-857b-0cac7483201c","system_id":"levelo_inurba_marseille","lat":43.27494,"lon":5.4246,"is_reserved":false,"is_disabled":true,"rental_uris":{"android":"levelo://app?vid=cce3eecc-cb69-4101-857b-0cac7483201c","ios":"levelo://app?vid=cce3eecc-cb69-4101-857b-0cac7483201c"},"vehicle_type_id":"4","last_reported":1733491205,"current_range_meters":38400,"station_id":"ce4bhn92rcd13ifvqgrg","pricing_plan_id":"cebpf4jnsgd1na2vs0mg"},{"bike_id":"b2039a02-7432-4de4-8ac0-b5c854bc3491","system_id":"levelo_inurba_marseille","lat":43.277037,"lon":5.395134,"is_reserved":false,"is_disabled":false,"rental_uris":{"android":"levelo://app?vid=b2039a02-7432-4de4-8ac0-b5c854bc3491","ios":"levelo://app?vid=b2039a02-7432-4de4-8ac0-b5c854bc3491"},"vehicle_type_id":"4","last_reported":1733491205,"current_range_meters":32000,"station_id":"ce4bhf92rcd13ifvqf40","pricing_plan_id":"cebpf4jnsgd1na2vs0mg"},{"bike_id":"5efa639b-8eb4-47aa-b99d-5928fe3809eb","system_id":"levelo_inurba_marseille","lat":43.245462,"lon":5.395312,"is_reserved":false,"is_disabled":false,"rental_uris":{"android":"levelo://app?vid=5efa639b-8eb4-47aa-b99d-5928fe3809eb","ios":"levelo://app?vid=5efa639b-8eb4-47aa-b99d-5928fe3809eb"},"vehicle_type_id":"4","last_reported":1733491205,"current_range_meters":38800,"station_id":"ce4bhlp2rcd13ifvqgjg","pricing_plan_id":"cebpf4jnsgd1na2vs0mg"},{"bike_id":"45b65137-572c-4379-b219-d3399485f9a0","system_id":"levelo_inurba_marseille","lat":43.26065,"lon":5.39395,"is_reserved":false,"is_disabled":false,"rental_uris":{"android":"levelo://app?vid=45b65137-572c-4379-b219-d3399485f9a0","ios":"levelo://app?vid=45b65137-572c-4379-b219-d3399485f9a0"},