{"last_updated":1747017666,"ttl":60,"version":"2.2","data":{"bikes":[{"bike_id":"c0b9fd4f-e181-46ce-b0bf-f5119973334f","system_id":"levelo_inurba_marseille","lat":43.33771,"lon":5.37424,"is_reserved":false,"is_disabled":false,"rental_uris":{"android":"levelo://app?vid=c0b9fd4f-e181-46ce-b0bf-f5119973334f","ios":"levelo://app?vid=c0b9fd4f-e181-46ce-b0bf-f5119973334f"},"vehicle_type_id":"4","last_reported":1747017666,"current_range_meters":30000,"station_id":"","pricing_plan_id":"cebpf4jnsgd1na2vs0mg"},{"bike_id":"229001d2-7627-43e0-aeea-2d75580fd339","system_id":"levelo_inurba_marseille","lat":43.282924,"lon":5.432348,"is_reserved":false,"is_disabled":true,"rental_uris":{"android":"levelo://app?vid=229001d2-7627-43e0-aeea-2d75580fd339","ios":"levelo://app?vid=229001d2-7627-43e0-aeea-2d75580fd339"},"vehicle_type_id":"4","last_reported":1747017666,"current_range_meters":0,"station_id":"","pricing_plan_id":"cebpf4jnsgd1na2vs0mg"},{"bike_id":"ad17c5b4-973a-4cb5-ad8c-32068ccae9d2","system_id":"levelo_inurba_marseille","lat":43.28915,"lon":5.43324,"is_reserved":false,"is_disabled":true,"rental_uris":{"android":"levelo://app?vid=ad17c5b4-973a-4cb5-ad8c-32068ccae9d2","ios":"levelo://app?vid=ad17c5b4-973a-4cb5-ad8c-32068ccae9d2"},"vehicle_type_id":"4","last_reported":1747017666,"current_range_meters":0,"station_id":"","pricing_plan_id":"cebpf4jnsgd1na2vs0mg"},{"bike_id":"a72028ca-425b-4f2c-9e2d-16be28a01f65","system_id":"levelo_inurba_marseille","lat":43.26004,"lon":5.41767,"is_reserved":false,"is_disabled":true,"rental_uris":{"android":"levelo://app?vid=a72028ca-425b-4f2c-9e2d-16be28a01f65","ios":"levelo://app?vid=a72028ca-425b-4f2c-9e2d-16be28a01f65"},"vehicle_type_id":"4","last_reported":1747017666,"current_range_meters":0,"station_id":"","pricing_plan_id":"cebpf4jnsgd1na2vs0mg"},{"bike_id":"e43d995b-a136-4201-b650-ca62eacfe18a","system_id":"levelo_inurba_marseille","lat":43.27135,"lon":5.36371,"is_reserved":false,"is_disabled":true,"rental_uris":{"android":"levelo://app?vid=e43d995b-a136-4201-b650-ca62eacfe18a","ios":"levelo://app?vid=e43d995b-a136-4201-b650-ca62eacfe18a"},"vehicle_type_id":"4","last_reported":1747017666,"current_range_meters":0,"station_id":"","pricing_plan_id":"cebpf4jnsgd1na2vs0mg"},{"bike_id":"59bbc484-ce81-45fc-9ad9-76ee5bc49652","system_id":"levelo_inurba_marseille","lat":43.26556,"lon":5.372849,"is_reserved":false,"is_disabled":true,"rental_uris":{"android":"levelo://app?vid=59bbc484-ce81-45fc-9ad9-76ee5bc49652","ios":"levelo://app?vid=59bbc484-ce81-45fc-9ad9-76ee5bc49652"},"vehicle_type_id":"4","last_reported":1747017666,"current_range_meters":2000,"station_id":"ce4bhg12rcd13ifvqf70","pricing_plan_id":"cebpf4jnsgd1na2vs0mg"},{"bike_id":"a56fb59c-734b-47d4-95f8-eb040692ba64","system_id":"levelo_inurba_marseille","lat":43.283451,"lon":5.381096,"is_reserved":false,"is_disabled":false,"rental_uris":{"android":"levelo://app?vid=a56fb59c-734b-47d4-95f8-eb040692ba64","ios":"levelo://app?vid=a56fb59c-734b-47d4-95f8-eb040692ba64"},"vehicle_type_id":"4","last_reported":1747017666,"current_range_meters":3200,"station_id":"ce4bh412rcd13ifvqdr0","pricing_plan_id":"cebpf4jnsgd1na2vs0mg"},{"bike_id":"648b85e8-8c21-4098-a1c7-e87f5a57ea13","system_id":"levelo_inurba_marseille","lat":43.27913,"lon":5.39577,"is_reserved":false,"is_disabled":false,"rental_uris":{"android":"levelo://app?vid=648b85e8-8c21-4098-a1c7-e87f5a57ea13","ios":"levelo://app?vid=648b85e8-8c21-4098-a1c7-e87f5a57ea13"},"vehicle_type_id":"4","last_reported":1747017666,"current_range_meters":3200,"station_id":"ce4bhf92rcd13ifvqf40","pricing_plan_id":"cebpf4jnsgd1na2vs0mg"},{"bike_id":"712c3a92-936e-42bc-8c2c-8b4dac8faebc","system_id":"levelo_inurba_marseille","lat":43.25866,"lon":5.39907,"is_reserved":false,"is_disabled":false,"rental_uris":{"android":"levelo://app?vid=712c3a92-936e-42bc-8c2c-8b4dac8faebc","ios":"levelo://app?vid=712c3a92-936e-42bc-8c2c-8b4dac8faebc"},"vehicle_type_id":"4","last_reported":1747017666,"current_range_meters":3200,"station_id":"ce4bhl92rcd13ifvqghg","pricing_plan_id":"cebpf4jnsgd1na2vs0mg"},{"bike_id":"b639e3ef-1110-4c97-a908-ecdeaf1f634f","system_id":"levelo_inurba_marseille","lat":43.29422,"lon":5.38626,"is_reserved":false,"is_disabled":false,"rental_uris":{"android":"levelo://app?vid=b639e3ef-1110-4c97-a908-ecdeaf1f634f","ios":"levelo://app?vid=b639e3ef-1110-4c97-a908-ecdeaf1f634f"},"vehicle_type_id":"4","last_reported":1747017666,"current_range_meters":3600,"station_id":"ce4bh2h2rcd13ifvqdh0","pricing_plan_id":"cebpf4jnsgd1na2vs0mg"},{"bike_id":"35556d0d-c412-462b-a9ac-1e498ca348ef","system_id":"levelo_inurba_marseille","lat":43.287113,"lon":5.399803,"is_reserved":false,"is_disabled":false,"rental_uris":{"android":"levelo://app?vid=35556d0d-c412-462b-a9ac-1e498ca348ef","ios":"levelo://app?vid=35556d0d-c412-462b-a9ac-1e498ca348ef"},"vehicle_type_id":"4","last_reported":1747017666,"current_range_meters":3600,"station_id":"ce4bho92rcd13ifvqh3g","pricing_plan_id":"cebpf4jnsgd1na2vs0mg"},{"bike_id":"c7b2effd-ed37-4223-a0c6-29d0e842dbd5","system_id":"levelo_inurba_marseille","lat":43.30054,"lon":5.378141,"is_reserved":false,"is_disabled":false,"rental_uris":{"android":"levelo://app?vid=c7b2effd-ed37-4223-a0c6-29d0e842dbd5","ios":"levelo://app?vid=c7b2effd-ed37-4223-a0c6-29d0e842dbd5"},"vehicle_type_id":"4","last_reported":1747017666,"current_range_meters":4000,"station_id":"","pricing_plan_id":"cebpf4jnsgd1na2vs0mg"},{"bike_id":"22932bc6-1947-449b-a3ce-701d2ddc38d2","system_id":"levelo_inurba_marseille","lat":43.240698,"lon":5.377671,"is_reserved":false,"is_disabled":false,"rental_uris":{"android":"levelo://app?vid=22932bc6-1947-449b-a3ce-701d2ddc38d2","ios":"levelo://app?vid=22932bc6-1947-449b-a3ce-701d2ddc38d2"},"vehicle_type_id":"4","last_reported":1747017666,"current_range_meters":6400,"station_id":"ce4bhnp2rcd13ifvqgvg","pricing_plan_id":"cebpf4jnsgd1na2vs0mg"},{"bike_id":"349ab267-2d63-414f-8605-837bf3d40763","system_id":"levelo_inurba_marseille","lat":43.26493,"lon":5.39577,"is_reserved":false,"is_disabled":false,"rental_uris":{"android":"levelo://app?vid=349ab267-2d63-414f-8605-837bf3d40763","ios":"levelo://app?vid=349ab267-2d63-414f-8605-837bf3d40763"},"vehicle_type_id":"4","last_reported":1747017666,"current_range_meters":7200,"station_id":"ce4bhi12rcd13ifvqfq0","pricing_plan_id":"cebpf4jnsgd1na2vs0mg"},{"bike_id":"63bdd50a-b728-4d10-9320-dbc9bfa5973f","system_id":"levelo_inurba_marseille","lat":43.27058,"lon":5.42285,"is_reserved":false,"is_disabled":false,"rental_uris":{"android":"levelo://app?vid=63bdd50a-b728-4d10-9320-dbc9bfa5973f","ios":"levelo://app?vid=63bdd50a-b728-4d10-9320-dbc9bfa5973f"},"vehicle_type_id":"4","last_reported":1747017666,"current_range_meters":7200,"station_id":"ce4bhk92rcd13ifvqgb0","pricing_plan_id":"cebpf4jnsgd1na2vs0mg"},{"bike_id":"a2caaaf9-7893-49ed-8650-aedce0e60aba","system_id":"levelo_inurba_marseille","lat":43.250867,"lon":5.395124,"is_reserved":false,"is_disabled":false,"rental_uris":{"android":"levelo://app?vid=a2caaaf9-7893-49ed-8650-aedce0e60aba","ios":"levelo://app?vid=a2caaaf9-7893-49ed-8650-aedce0e60aba"},"vehicle_type_id":"4","last_reported":1747017666,"current_range_meters":7200,"station_id":"ce4bhm12rcd13ifvqgkg","pricing_plan_id":"cebpf4jnsgd1na2vs0mg"},{"bike_id":"fc2577e7-1497-425b-9d4f-ab8d7dc843c6","system_id":"levelo_inurba_marseille","lat":43.33771,"lon":5.37485,"is_reserved":false,"is_disabled":false,"rental_uris":{"android":"levelo://app?vid=fc2577e7-1497-425b-9d4f-ab8d7dc843c6","ios":"levelo://app?vid=fc2577e7-1497-425b-9d4f-ab8d7dc843c6"},"vehicle_type_id":"4","last_reported":1747017666,"current_range_meters":8000,"station_id":"","pricing_plan_id":"cebpf4jnsgd1na2vs0mg"},{"bike_id":"06f516e2-a624-409e-9fe6-be2ca00c1950","system_id":"levelo_inurba_marseille","lat":43.24674,"lon":5.38166,"is_reserved":false,"is_disabled":false,"rental_uris":{"android":"levelo://app?vid=06f516e2-a624-409e-9fe6-be2ca00c1950","ios":"levelo://app?vid=06f516e2-a624-409e-9fe6-be2ca00c1950"},"vehicle_type_id":"4","last_reported":1747017666,"current_range_meters":8000,"station_id":"ce4bhih2rcd13ifvqfr0","pricing_plan_id":"cebpf4jnsgd1na2vs0mg"},{"bike_id":"4be526c1-c099-4e56-8476-6a072fafda70","system_id":"levelo_inurba_marseille","lat":43.25111,"lon":5.403195,"is_reserved":false,"is_disabled":false,"rental_uris":{"android":"levelo://app?vid=4be526c1-c099-4e56-8476-6a072fafda70","ios":"levelo://app?vid=4be526c1-c099-4e56-8476-6a072fafda70"},"vehicle_type_id":"4","last_reported":1747017666,"current_range_meters":8000,"station_id":"ce4bhlh2rcd13ifvqgig","pricing_plan_id":"cebpf4jnsgd1na2vs0mg"},{"bike_id":"bfd5e787-a75e-4dab-9738-e35cbb0c870a","system_id":"levelo_inurba_marseille","lat":43.32483,"lon":5.36566,"is_reserved":false,"is_disabled":false,"rental_uris":{"android":"levelo://app?vid=bfd5e787-a75e-4dab-9738-e35cbb0c870a","ios":"levelo://app?vid=bfd5e787-a75e-4dab-9738-e35cbb0c870a"},"vehicle_type_id":"4","last_reported":1747017666,"current_range_meters":8000,"station_id":"ce4bhs12rcd13ifvqhvg","pricing_plan_id":"cebpf4jnsgd1na2vs0mg"},{"bike_id":"c7e49f24-e3ee-4dae-9794-2cd6113e9290","system_id":"levelo_inurba_marseille","lat":43.30592,"lon":5.37268,"is_reserved":false,"is_disabled":false,"rental_uris":{"android":"levelo://app?vid=c7e49f24-e3ee-4dae-9794-2cd6113e9290","ios":"levelo://app?vid=c7e49f24-e3ee-4dae-9794-2cd6113e9290"},"vehicle_type_id":"4","last_reported":1747017666,"current_range_meters":8400,"station_id":"ce4bgqh2rcd13ifvqc4g","pricing_plan_id":"cebpf4jnsgd1na2vs0mg"},{"bike_id":"f018f5c6-c6b7-4074-a0cf-dfa642308961","system_id":"levelo_inurba_marseille","lat":43.28373,"lon":5.38631,"is_reserved":false,"is_disabled":false,"rental_uris":{"android":"levelo://app?vid=f018f5c6-c6b7-4074-a0cf-dfa642308961","ios":"levelo://app?vid=f018f5c6-c6b7-4074-a0cf-dfa642308961"},"vehicle_type_id":"4","last_reported":1747017666,"current_range_meters":8400,"station_id":"ce4bh492rcd13ifvqdvg","pricing_plan_id":"cebpf4jnsgd1na2vs0mg"},{"bike_id":"79ae0aca-448b-4e6b-b2a5-1eca06e4ee41","system_id":"levelo_inurba_marseille","lat":43.27367,"lon":5.3626,"is_reserved":false,"is_disabled":false,"rental_uris":{"android":"levelo://app?vid=79ae0aca-448b-4e6b-b2a5-1eca06e4ee41","ios":"levelo://app?vid=79ae0aca-448b-4e6b-b2a5-1eca06e4ee41"},"vehicle_type_id":"4","last_reported":1747017666,"current_range_meters":8400,"station_id":"ce4bhbh2rcd13ifvqeo0","pricing_plan_id":"cebpf4jnsgd1na2vs0mg"},{"bike_id":"f9d16859-c623-411e-bbcb-c426981ab6d7","system_id":"levelo_inurba_marseille","lat":43.265549,"lon":5.390292,"is_reserved":false,"is_disabled":false,"rental_uris":{"android":"levelo://app?vid=f9d16859-c623-411e-bbcb-c426981ab6d7","ios":"levelo://app?vid=f9d16859-c623-411e-bbcb-c426981ab6d7"},"vehicle_type_id":"4","last_reported":1747017666,"current_range_meters":8400,"station_id":"ce4bhe12rcd13ifvqf30","pricing_plan_id":"cebpf4jnsgd1na2vs0mg"},{"bike_id":"3aa75863-fce6-4b94-9f5b-9c0ad58d1acf","system_id":"levelo_inurba_marseille","lat":43.24158,"lon":5.36416,"is_reserved":false,"is_disabled":false,"rental_uris":{"android":"levelo://app?vid=3aa75863-fce6-4b94-9f5b-9c0ad58d1acf","ios":"levelo://app?vid=3aa75863-fce6-4b94-9f5b-9c0ad58d1acf"},"vehicle_type_id":"4","last_reported":1747017666,"current_range_meters":8400,"station_id":"cpo36qri1sfpv3e86is0","pricing_plan_id":"cebpf4jnsgd1na2vs0mg"},{"bike_id":"a02ff3d0-dabc-4f80-a7ca-75d2665902bc","system_id":"levelo_inurba_marseille","lat":43.28442,"lon":5.37469,"is_reserved":false,"is_disabled":false,"rental_uris":{"android":"levelo://app?vid=a02ff3d0-dabc-4f80-a7ca-75d2665902bc","ios":"levelo://app?vid=a02ff3d0-dabc-4f80-a7ca-75d2665902bc"},"vehicle_type_id":"4","last_reported":1747017666,"current_range_meters":8800,"station_id":"","pricing_plan_id":"cebpf4jnsgd1na2vs0mg"},{"bike_id":"e7fa570d-84b5-4cf9-a1d8-279172e9675f","system_id":"levelo_inurba_marseille","lat":43.301339,"lon":5.398688,"is_reserved":false,"is_disabled":false,"rental_uris":{"android":"levelo://app?vid=e7fa570d-84b5-4cf9-a1d8-279172e9675f","ios":"levelo://app?vid=e7fa570d-84b5-4cf9-a1d8-279172e9675f"},"vehicle_type_id":"4","last_reported":1747017666,"current_range_meters":8800,"station_id":"ce4bh0h2rcd13ifvqd40","pricing_plan_id":"cebpf4jnsgd1na2vs0mg"},{"bike_id":"237c3cfb-c5b3-4b77-a847-367a3775064d","system_id":"levelo_inurba_marseille","lat":43.31957,"lon":5.38185,"is_reserved":false,"is_disabled":false,"rental_uris":{"android":"levelo://app?vid=237c3cfb-c5b3-4b77-a847-367a3775064d","ios":"levelo://app?vid=237c3cfb-c5b3-4b77-a847-367a3775064d"},"vehicle_type_id":"4","last_reported":1747017666,"current_range_meters":8800,"station_id":"ce4bhr12rcd13ifvqhpg","pricing_plan_id":"cebpf4jnsgd1na2vs0mg"},{"bike_id":"a1121b36-b5cd-4dda-96ef-13a3dfaa55e1","system_id":"levelo_inurba_marseille","lat":43.301401,"lon":5.387791,"is_reserved":false,"is_disabled":false,"rental_uris":{"android":"levelo://app?vid=a1121b36-b5cd-4dda-96ef-13a3dfaa55e1","ios":"levelo://app?vid=a1121b36-b5cd-4dda-96ef-13a3dfaa55e1"},"vehicle_type_id":"4","last_reported":1747017666,"current_range_meters":9200,"station_id":"","pricing_plan_id":"cebpf4jnsgd1na2vs0mg"},{"bike_id":"ae1f67bc-0901-4c10-87b9-0244857ff5e3","system_id":"levelo_inurba_marseille","lat":43.29249,"lon":5.40909,"is_reserved":false,"is_disabled":false,"rental_uris":{"android":"levelo://app?vid=ae1f67bc-0901-4c10-87b9-0244857ff5e3","ios":"levelo://app?vid=ae1f67bc-0901-4c10-87b9-0244857ff5e3"},"vehicle_type_id":"4","last_reported":1747017666,"current_range_meters":9200,"station_id":"ce4bh192rcd13ifvqdc0","pricing_plan_id":"cebpf4jnsgd1na2vs0mg"},{"bike_id":"c781db57-0d15-4bd3-ae62-a55ba5955038","system_id":"levelo_inurba_marseille","lat":43.23192,"lon":5.3999,"is_reserved":false,"is_disabled":false,"rental_uris":{"android":"levelo://app?vid=c781db57-0d15-4bd3-ae62-a55ba5955038","ios":"levelo://app?vid=c781db57-0d15-4bd3-ae62-a55ba5955038"},"vehicle_type_id":"4","last_reported":1747017666,"current_range_meters":9200,"station_id":"ce4bhn12rcd13ifvqgqg","pricing_plan_id":"cebpf4jnsgd1na2vs0mg"},{"bike_id":"3ee007b4-701a-43a3-a268-87c67c8eea49","system_id":"levelo_inurba_marseille","lat":43.262338,"lon":5.40457,"is_reserved":false,"is_disabled":false,"rental_uris":{"android":"levelo://app?vid=3ee007b4-701a-43a3-a268-87c67c8eea49","ios":"levelo://app?vid=3ee007b4-701a-43a3-a268-87c67c8eea49"},"vehicle_type_id":"4","last_reported":1747017666,"current_range_meters":9600,"station_id":"ce4bhmh2rcd13ifvqgmg","pricing_plan_id":"cebpf4jnsgd1na2vs0mg"},{"bike_id":"f9991513-006a-404a-a4c9-d13d14a98cb1","system_id":"levelo_inurba_marseille","lat":43.28433,"lon":5.39188,"is_reserved":false,"is_disabled":false,"rental_uris":{"android":"levelo://app?vid=f9991513-006a-404a-a4c9-d13d14a98cb1","ios":"levelo://app?vid=f9991513-006a-404a-a4c9-d13d14a98cb1"},"vehicle_type_id":"4","last_reported":1747017666,"current_range_meters":9600,"station_id":"ce4bhoh2rcd13ifvqh5g","pricing_plan_id":"cebpf4jnsgd1na2vs0mg"},{"bike_id":"d83b7170-8eed-47c1-b0ec-1140d3a45dea","system_id":"levelo_inurba_marseille","lat":43.308024,"lon":5.435388,"is_reserved":false,"is_disabled":false,"rental_uris":{"android":"levelo://app?vid=d83b7170-8eed-47c1-b0ec-1140d3a45dea","ios":"levelo://app?vid=d83b7170-8eed-47c1-b0ec-1140d3a45dea"},"vehicle_type_id":"4","last_reported":1747017666,"current_range_meters":9600,"station_id":"ce4bhph2rcd13ifvqheg","pricing_plan_id":"cebpf4jnsgd1na2vs0mg"},{"bike_id":"8affc4c7-38d4-40a1-adbe-55ee2ff78715","system_id":"levelo_inurba_marseille","lat":43.297,"lon":5.37286,"is_reserved":false,"is_disabled":false,"rental_uris":{"android":"levelo://app?vid=8affc4c7-38d4-40a1-adbe-55ee2ff78715","ios":"levelo://app?vid=8affc4c7-38d4-40a1-adbe-55ee2ff78715"},"vehicle_type_id":"4","last_reported":1747017666,"current_range_meters":10000,"station_id":"ce4bgk12rcd13ifvqbj0","pricing_plan_id":"cebpf4jnsgd1na2vs0mg"},{"bike_id":"e52bd7d4-e04d-400f-87c6-90264f742d5d","system_id":"levelo_inurba_marseille","lat":43.28422,"lon":5.37518,"is_reserved":false,"is_disabled":false,"rental_uris":{"android":"levelo://app?vid=e52bd7d4-e04d-400f-87c6-90264f742d5d","ios":"levelo://app?vid=e52bd7d4-e04d-400f-87c6-90264f742d5d"},"vehicle_type_id":"4","last_reported":1747017666,"current_range_meters":10000,"station_id":"ce4bh412rcd13ifvqds0","pricing_plan_id":"cebpf4jnsgd1na2vs0mg"},{"bike_id":"9c54648a-e987-4681-990c-bc1749d61914","system_id":"levelo_inurba_marseille","lat":43.251119,"lon":5.403583,"is_reserved":false,"is_disabled":false,"rental_uris":{"android":"levelo://app?vid=9c54648a-e987-4681-990c-bc1749d61914","ios":"levelo://app?vid=9c54648a-e987-4681-990c-bc1749d61914"},"vehicle_type_id":"4","last_reported":1747017666,"current_range_meters":10000,"station_id":"ce4bhlh2rcd13ifvqgig","pricing_plan_id":"cebpf4jnsgd1na2vs0mg"},{"bike_id":"b1b013fd-f0df-4fdf-b291-26a881a8b080","system_id":"levelo_inurba_marseille","lat":43.23185,"lon":5.39981,"is_reserved":false,"is_disabled":false,"rental_uris":{"android":"levelo://app?vid=b1b013fd-f0df-4fdf-b291-26a881a8b080","ios":"levelo://app?vid=b1b013fd-f0df-4fdf-b291-26a881a8b080"},"vehicle_type_id":"4","last_reported":1747017666,"current_range_meters":10000,"station_id":"ce4bhn12rcd13ifvqgqg","pricing_plan_id":"cebpf4jnsgd1na2vs0mg"},{"bike_id":"de4a530f-3b17-41b9-bd98-d22e64d46bdc","system_id":"levelo_inurba_marseille","lat":43.321069,"lon":5.367731,"is_reserved":false,"is_disabled":false,"rental_uris":{"android":"levelo://app?vid=de4a530f-3b17-41b9-bd98-d22e64d46bdc","ios":"levelo://app?vid=de4a530f-3b17-41b9-bd98-d22e64d46bdc"},"vehicle_type_id":"4","last_reported":1747017666,"current_range_meters":10800,"station_id":"ce4bhrh2rcd13ifvqhug","pricing_plan_id":"cebpf4jnsgd1na2vs0mg"},{"bike_id":"19708695-a8ee-4716-9e14-a794ed2f1a40","system_id":"levelo_inurba_marseille","lat":43.26559,"lon":5.39028,"is_reserved":false,"is_disabled":false,"rental_uris":{"android":"levelo://app?vid=19708695-a8ee-4716-9e14-a794ed2f1a40","ios":"levelo://app?vid=19708695-a8ee-4716-9e14-a794ed2f1a40"},"vehicle_type_id":"4","last_reported":1747017666,"current_range_meters":11200,"station_id":"ce4bhe12rcd13ifvqf30","pricing_plan_id":"cebpf4jnsgd1na2vs0mg"},{"bike_id":"83a5dddc-f08f-476e-a316-d0e0dfb65037","system_id":"levelo_inurba_marseille","lat":43.31729,"lon":5.42407,"is_reserved":false,"is_disabled":false,"rental_uris":{"android":"levelo://app?vid=83a5dddc-f08f-476e-a316-d0e0dfb65037","ios":"levelo://app?vid=83a5dddc-f08f-476e-a316-d0e0dfb65037"},"vehicle_type_id":"4","last_reported":1747017666,"current_range_meters":11200,"station_id":"ce4bhp92rcd13ifvqhbg","pricing_plan_id":"cebpf4jnsgd1na2vs0mg"},{"bike_id":"f52c819d-ca4b-4640-b458-b877db1bf990","system_id":"levelo_inurba_marseille","lat":43.29862,"lon":5.41025,"is_reserved":false,"is_disabled":false,"rental_uris":{"android":"levelo://app?vid=f52c819d-ca4b-4640-b458-b877db1bf990","ios":"levelo://app?vid=f52c819d-ca4b-4640-b458-b877db1bf990"},"vehicle_type_id":"4","last_reported":1747017666,"current_range_meters":11600,"station_id":"","pricing_plan_id":"cebpf4jnsgd1na2vs0mg"},{"bike_id":"fe8a300c-df4c-42e1-b092-cce77e5975ce","system_id":"levelo_inurba_marseille","lat":43.25735,"lon":5.41083,"is_reserved":false,"is_disabled":false,"rental_uris":{"android":"levelo://app?vid=fe8a300c-df4c-42e1-b092-cce77e5975ce","ios":"levelo://app?vid=fe8a300c-df4c-42e1-b092-cce77e5975ce"},"vehicle_type_id":"4","last_reported":1747017666,"current_range_meters":11600,"station_id":"ce4bhkp2rcd13ifvqgd0","pricing_plan_id":"cebpf4jnsgd1na2vs0mg"},{"bike_id":"350f96e5-9d35-4552-ab8b-75cc94649a94","system_id":"levelo_inurba_marseille","lat":43.25107,"lon":5.40342,"is_reserved":false,"is_disabled":false,"rental_uris":{"android":"levelo://app?vid=350f96e5-9d35-4552-ab8b-75cc94649a94","ios":"levelo://app?vid=350f96e5-9d35-4552-ab8b-75cc94649a94"},"vehicle_type_id":"4","last_reported":1747017666,"current_range_meters":12000,"station_id":"ce4bhlh2rcd13ifvqgig","pricing_plan_id":"cebpf4jnsgd1na2vs0mg"},{"bike_id":"9a892d3c-b3eb-435d-a189-a0c7090eab98","system_id":"levelo_inurba_marseille","lat":43.31096,"lon":5.37802,"is_reserved":false,"is_disabled":false,"rental_uris":{"android":"levelo://app?vid=9a892d3c-b3eb-435d-a189-a0c7090eab98","ios":"levelo://app?vid=9a892d3c-b3eb-435d-a189-a0c7090eab98"},"vehicle_type_id":"4","last_reported":1747017666,"current_range_meters":12400,"station_id":"ce4bgt92rcd13ifvqcg0","pricing_plan_id":"cebpf4jnsgd1na2vs0mg"},{"bike_id":"aa81dda7-4d92-4e75-8e3c-3c1bf1df7bb3","system_id":"levelo_inurba_marseille","lat":43.302444,"lon":5.400526,"is_reserved":false,"is_disabled":false,"rental_uris":{"android":"levelo://app?vid=aa81dda7-4d92-4e75-8e3c-3c1bf1df7bb3","ios":"levelo://app?vid=aa81dda7-4d92-4e75-8e3c-3c1bf1df7bb3"},"vehicle_type_id":"4","last_reported":1747017666,"current_range_meters":12400,"station_id":"ce4bgvh2rcd13ifvqcs0","pricing_plan_id":"cebpf4jnsgd1na2vs0mg"},{"bike_id":"ef551541-9d23-4760-a47c-ef4b9d35b0ec","system_id":"levelo_inurba_marseille","lat":43.265681,"lon":5.3901,"is_reserved":false,"is_disabled":false,"rental_uris":{"android":"levelo://app?vid=ef551541-9d23-4760-a47c-ef4b9d35b0ec","ios":"levelo://app?vid=ef551541-9d23-4760-a47c-ef4b9d35b0ec"},"vehicle_type_id":"4","last_reported":1747017666,"current_range_meters":12400,"station_id":"ce4bhe12rcd13ifvqf30","pricing_plan_id":"cebpf4jnsgd1na2vs0mg"},{"bike_id":"9401e170-3654-4a41-bf35-9a468db0c37f","system_id":"levelo_inurba_marseille","lat":43.251073,"lon":5.403274,"is_reserved":false,"is_disabled":false,"rental_uris":{"android":"levelo://app?vid=9401e170-3654-4a41-bf35-9a468db0c37f","ios":"levelo://app?vid=9401e170-3654-4a41-bf35-9a468db0c37f"},"vehicle_type_id":"4","last_reported":1747017666,"current_range_meters":12400,"station_id":"ce4bhlh2rcd13ifvqgig","pricing_plan_id":"cebpf4jnsgd1na2vs0mg"},{"bike_id":"d9937dd6-e4c2-4ca6-b3ad-8e2542d9c843","system_id":"levelo_inurba_marseille","lat":43.30266,"lon":5.400593,"is_reserved":false,"is_disabled":false,"rental_uris":{"android":"levelo://app?vid=d9937dd6-e4c2-4ca6-b3ad-8e2542d9c843","ios":"levelo://app?vid=d9937dd6-e4c2-4ca6-b3ad-8e2542d9c843"},"vehicle_type_id":"4","last_reported":1747017666,"current_range_meters":13600,"station_id":"ce4bgvh2rcd13ifvqcs0","pricing_plan_id":"cebpf4jnsgd1na2vs0mg"},{"bike_id":"fedd6fb9-2c7e-403d-9f52-1e84f1e88c43","system_id":"levelo_inurba_marseille","lat":43.25114,"lon":5.4029,"is_reserved":false,"is_disabled":false,"rental_uris":{"android":"levelo://app?vid=fedd6fb9-2c7e-403d-9f52-1e84f1e88c43","ios":"levelo://app?vid=fedd6fb9-2c7e-403d-9f52-1e84f1e88c43"},"vehicle_type_id":"4","last_reported":1747017666,"current_range_meters":13600,"station_id":"ce4bhlh2rcd13ifvqgig","pricing_plan_id":"cebpf4jnsgd1na2vs0mg"},{"bike_id":"5a887c7d-f6a0-42fb-a17f-21172866132c","system_id":"levelo_inurba_marseille","lat":43.28615,"lon":5.35106,"is_reserved":false,"is_disabled":false,"rental_uris":{"android":"levelo://app?vid=5a887c7d-f6a0-42fb-a17f-21172866132c","ios":"levelo://app?vid=5a887c7d-f6a0-42fb-a17f-21172866132c"},"vehicle_type_id":"4","last_reported":1747017666,"current_range_meters":14000,"station_id":"ce4bhch2rcd13ifvqeug","pricing_plan_id":"cebpf4jnsgd1na2vs0mg"},{"bike_id":"f3bc9fe4-a9bd-43c8-8a47-ffaeebc00913","system_id":"levelo_inurba_marseille","lat":43.323462,"lon":5.406133,"is_reserved":false,"is_disabled":false,"rental_uris":{"android":"levelo://app?vid=f3bc9fe4-a9bd-43c8-8a47-ffaeebc00913","ios":"levelo://app?vid=f3bc9fe4-a9bd-43c8-8a47-ffaeebc00913"},"vehicle_type_id":"4","last_reported":1747017666,"current_range_meters":14000,"station_id":"ce4bhq92rcd13ifvqhjg","pricing_plan_id":"cebpf4jnsgd1na2vs0mg"},{"bike_id":"f73cf722-6d28-410b-96d0-7787b89b0f79","system_id":"levelo_inurba_marseille","lat":43.28851,"lon":5.393073,"is_reserved":false,"is_disabled":false,"rental_uris":{"android":"levelo://app?vid=f73cf722-6d28-410b-96d0-7787b89b0f79","ios":"levelo://app?vid=f73cf722-6d28-410b-96d0-7787b89b0f79"},"vehicle_type_id":"4","last_reported":1747017666,"current_range_meters":14800,"station_id":"ce4bh2p2rcd13ifvqdi0","pricing_plan_id":"cebpf4jnsgd1na2vs0mg"},{"bike_id":"60512959-6991-44e5-b4c6-284f5149eb0d","system_id":"levelo_inurba_marseille","lat":43.255802,"lon":5.382444,"is_reserved":false,"is_disabled":false,"rental_uris":{"android":"levelo://app?vid=60512959-6991-44e5-b4c6-284f5149eb0d","ios":"levelo://app?vid=60512959-6991-44e5-b4c6-284f5149eb0d"},"vehicle_type_id":"4","last_reported":1747017666,"current_range_meters":15200,"station_id":"ce4bhih2rcd13ifvqfs0","pricing_plan_id":"cebpf4jnsgd1na2vs0mg"},{"bike_id":"0b1c8292-c329-4aa8-92d1-c391c9c0fef8","system_id":"levelo_inurba_marseille","lat":43.278474,"lon":5.421574,"is_reserved":false,"is_disabled":false,"rental_uris":{"android":"levelo://app?vid=0b1c8292-c329-4aa8-92d1-c391c9c0fef8","ios":"levelo://app?vid=0b1c8292-c329-4aa8-92d1-c391c9c0fef8"},"vehicle_type_id":"4","last_reported":1747017666,"current_range_meters":16000,"station_id":"","pricing_plan_id":"cebpf4jnsgd1na2vs0mg"},{"bike_id":"c2d26363-c111-4e54-98d2-ac34f8d787a8","system_id":"levelo_inurba_marseille","lat":43.251157,"lon":5.403327,"is_reserved":false,"is_disabled":false,"rental_uris":{"android":"levelo://app?vid=c2d26363-c111-4e54-98d2-ac34f8d787a8","ios":"levelo://app?vid=c2d26363-c111-4e54-98d2-ac34f8d787a8"},"vehicle_type_id":"4","last_reported":1747017666,"current_range_meters":16000,"station_id":"ce4bhlh2rcd13ifvqgig","pricing_plan_id":"cebpf4jnsgd1na2vs0mg"},{"bike_id":"58d6adba-6679-41d8-bdc9-d9413f61af87","system_id":"levelo_inurba_marseille","lat":43.314877,"lon":5.369217,"is_reserved":false,"is_disabled":false,"rental_uris":{"android":"levelo://app?vid=58d6adba-6679-41d8-bdc9-d9413f61af87","ios":"levelo://app?vid=58d6adba-6679-41d8-bdc9-d9413f61af87"},"vehicle_type_id":"4","last_reported":1747017666,"current_range_meters":16400,"station_id":"","pricing_plan_id":"cebpf4jnsgd1na2vs0mg"},{"bike_id":"b6f0504a-f7d7-4a97-b810-e7c9e7b1c671","system_id":"levelo_inurba_marseille","lat":43.27891,"lon":5.41236,"is_reserved":false,"is_disabled":false,"rental_uris":{"android":"levelo://app?vid=b6f0504a-f7d7-4a97-b810-e7c9e7b1c671","ios":"levelo://app?vid=b6f0504a-f7d7-4a97-b810-e7c9e7b1c671"},"vehicle_type_id":"4","last_reported":1747017666,"current_range_meters":16400,"station_id":"","pricing_plan_id":"cebpf4jnsgd1na2vs0mg"},{"bike_id":"33efc886-db58-4320-9ae7-1448d6c89aeb","system_id":"levelo_inurba_marseille","lat":43.257264,"lon":5.411076,"is_reserved":false,"is_disabled":false,"rental_uris":{"android":"levelo://app?vid=33efc886-db58-4320-9ae7-1448d6c89aeb","ios":"levelo://app?vid=33efc886-db58-4320-9ae7-1448d6c89aeb"},"vehicle_type_id":"4","last_reported":1747017666,"current_range_meters":16400,"station_id":"ce4bhkp2rcd13ifvqgd0","pricing_plan_id":"cebpf4jnsgd1na2vs0mg"},{"bike_id":"2a2e92a8-9be2-42a0-8f8b-e8c99ed20b3a","system_id":"levelo_inurba_marseille","lat":43.23137,"lon":5.39948,"is_reserved":false,"is_disabled":false,"rental_uris":{"android":"levelo://app?vid=2a2e92a8-9be2-42a0-8f8b-e8c99ed20b3a","ios":"levelo://app?vid=2a2e92a8-9be2-42a0-8f8b-e8c99ed20b3a"},"vehicle_type_id":"4","last_reported":1747017666,"current_range_meters":16800,"station_id":"","pricing_plan_id":"cebpf4jnsgd1na2vs0mg"},{"bike_id":"923bc3c8-9653-42f6-ab2d-a12cb585d499","system_id":"levelo_inurba_marseille","lat":43.294522,"lon":5.386916,"is_reserved":false,"is_disabled":false,"rental_uris":{"android":"levelo://app?vid=923bc3c8-9653-42f6-ab2d-a12cb585d499","ios":"levelo://app?vid=923bc3c8-9653-42f6-ab2d-a12cb585d499"},"vehicle_type_id":"4","last_reported":1747017666,"current_range_meters":16800,"station_id":"","pricing_plan_id":"cebpf4jnsgd1na2vs0mg"},{"bike_id":"a7cd4073-a883-4aad-acc4-778fd72fe9e7","system_id":"levelo_inurba_marseille","lat":43.30797,"lon":5.381615,"is_reserved":false,"is_disabled":false,"rental_uris":{"android":"levelo://app?vid=a7cd4073-a883-4aad-acc4-778fd72fe9e7","ios":"levelo://app?vid=a7cd4073-a883-4aad-acc4-778fd72fe9e7"},"vehicle_type_id":"4","last_reported":1747017666,"current_range_meters":16800,"station_id":"ce4bgt12rcd13ifvqce0","pricing_plan_id":"cebpf4jnsgd1na2vs0mg"},{"bike_id":"d03ecfbd-67b2-4b9a-8cb7-50731ba0a2cc","system_id":"levelo_inurba_marseille","lat":43.284126,"lon":5.375193,"is_reserved":false,"is_disabled":false,"rental_uris":{"android":"levelo://app?vid=d03ecfbd-67b2-4b9a-8cb7-50731ba0a2cc","ios":"levelo://app?vid=d03ecfbd-67b2-4b9a-8cb7-50731ba0a2cc"},"vehicle_type_id":"4","last_reported":1747017666,"current_range_meters":16800,"station_id":"ce4bh412rcd13ifvqds0","pricing_plan_id":"cebpf4jnsgd1na2vs0mg"},{"bike_id":"aca142bd-2716-4ee3-8c04-bd27c952c647","system_id":"levelo_inurba_marseille","lat":43.264723,"lon":5.375064,"is_reserved":false,"is_disabled":false,"rental_uris":{"android":"levelo://app?vid=aca142bd-2716-4ee3-8c04-bd27c952c647","ios":"levelo://app?vid=aca142bd-2716-4ee3-8c04-bd27c952c647"},"vehicle_type_id":"4","last_reported":1747017666,"current_range_meters":17200,"station_id":"","pricing_plan_id":"cebpf4jnsgd1na2vs0mg"},{"bike_id":"58ca3082-502b-4f40-858f-4a60772f8be9","system_id":"levelo_inurba_marseille","lat":43.305943,"lon":5.393525,"is_reserved":false,"is_disabled":false,"rental_uris":{"android":"levelo://app?vid=58ca3082-502b-4f40-858f-4a60772f8be9","ios":"levelo://app?vid=58ca3082-502b-4f40-858f-4a60772f8be9"},"vehicle_type_id":"4","last_reported":1747017666,"current_range_meters":17200,"station_id":"ce4bh0p2rcd13ifvqd80","pricing_plan_id":"cebpf4jnsgd1na2vs0mg"},{"bike_id":"4b6c1528-1d2a-4eef-acaf-0e2c8aa28257","system_id":"levelo_inurba_marseille","lat":43.305946,"lon":5.393559,"is_reserved":false,"is_disabled":false,"rental_uris":{"android":"levelo://app?vid=4b6c1528-1d2a-4eef-acaf-0e2c8aa28257","ios":"levelo://app?vid=4b6c1528-1d2a-4eef-acaf-0e2c8aa28257"},"vehicle_type_id":"4","last_reported":1747017666,"current_range_meters":17200,"station_id":"ce4bh0p2rcd13ifvqd80","pricing_plan_id":"cebpf4jnsgd1na2vs0mg"},{"bike_id":"b07bfc09-4ee4-480d-951d-bf310d1d8d6c","system_id":"levelo_inurba_marseille","lat":43.32144,"lon":5.38477,"is_reserved":false,"is_disabled":false,"rental_uris":{"android":"levelo://app?vid=b07bfc09-4ee4-480d-951d-bf310d1d8d6c","ios":"levelo://app?vid=b07bfc09-4ee4-480d-951d-bf310d1d8d6c"},"vehicle_type_id":"4","last_reported":1747017666,"current_range_meters":17600,"station_id":"","pricing_plan_id":"cebpf4jnsgd1na2vs0mg"},{"bike_id":"99dbe6a3-f5d7-427a-b808-17b5bb6cd725","system_id":"levelo_inurba_marseille","lat":43.2979,"lon":5.393452,"is_reserved":false,"is_disabled":false,"rental_uris":{"android":"levelo://app?vid=99dbe6a3-f5d7-427a-b808-17b5bb6cd725","ios":"levelo://app?vid=99dbe6a3-f5d7-427a-b808-17b5bb6cd725"},"vehicle_type_id":"4","last_reported":1747017666,"current_range_meters":17600,"station_id":"chh1huq6cuj3fo74tm60","pricing_plan_id":"cebpf4jnsgd1na2vs0mg"},{"bike_id":"f38dbfb2-4b2c-49d8-b825-d3246ee3dd23","system_id":"levelo_inurba_marseille","lat":43.31483,"lon":5.373111,"is_reserved":false,"is_disabled":false,"rental_uris":{"android":"levelo://app?vid=f38dbfb2-4b2c-49d8-b825-d3246ee3dd23","ios":"levelo://app?vid=f38dbfb2-4b2c-49d8-b825-d3246ee3dd23"},"vehicle_type_id":"4","last_reported":1747017666,"current_range_meters":18000,"station_id":"ce4bgt12rcd13ifvqcd0","pricing_plan_id":"cebpf4jnsgd1na2vs0mg"},{"bike_id":"4d7e69b3-fd69-4c4f-9d4c-d3a4ecae472a","system_id":"levelo_inurba_marseille","lat":43.306,"lon":5.39378,"is_reserved":false,"is_disabled":false,"rental_uris":{"android":"levelo://app?vid=4d7e69b3-fd69-4c4f-9d4c-d3a4ecae472a","ios":"levelo://app?vid=4d7e69b3-fd69-4c4f-9d4c-d3a4ecae472a"},"vehicle_type_id":"4","last_reported":1747017666,"current_range_meters":18000,"station_id":"ce4bh0p2rcd13ifvqd80","pricing_plan_id":"cebpf4jnsgd1na2vs0mg"},{"bike_id":"e58e2ce6-f326-47d4-94dc-2a7bac20a6f5","system_id":"levelo_inurba_marseille","lat":43.28406,"lon":5.37547,"is_reserved":false,"is_disabled":false,"rental_uris":{"android":"levelo://app?vid=e58e2ce6-f326-47d4-94dc-2a7bac20a6f5","ios":"levelo://app?vid=e58e2ce6-f326-47d4-94dc-2a7bac20a6f5"},"vehicle_type_id":"4","last_reported":1747017666,"current_range_meters":18000,"station_id":"ce4bh412rcd13ifvqds0","pricing_plan_id":"cebpf4jnsgd1na2vs0mg"},{"bike_id":"c1a87d98-ae1b-4a96-8676-6f3473b69ff6","system_id":"levelo_inurba_marseille","lat":43.284106,"lon":5.375126,"is_reserved":false,"is_disabled":false,"rental_uris":{"android":"levelo://app?vid=c1a87d98-ae1b-4a96-8676-6f3473b69ff6","ios":"levelo://app?vid=c1a87d98-ae1b-4a96-8676-6f3473b69ff6"},"vehicle_type_id":"4","last_reported":1747017666,"current_range_meters":18000,"station_id":"ce4bh412rcd13ifvqds0","pricing_plan_id":"cebpf4jnsgd1na2vs0mg"},{"bike_id":"552a2edc-97c2-4e6b-be49-82bbd491069a","system_id":"levelo_inurba_marseille","lat":43.28404,"lon":5.37536,"is_reserved":false,"is_disabled":false,"rental_uris":{"android":"levelo://app?vid=552a2edc-97c2-4e6b-be49-82bbd491069a","ios":"levelo://app?vid=552a2edc-97c2-4e6b-be49-82bbd491069a"},"vehicle_type_id":"4","last_reported":1747017666,"current_range_meters":18800,"station_id":"ce4bh412rcd13ifvqds0","pricing_plan_id":"cebpf4jnsgd1na2vs0mg"},{"bike_id":"188758f6-692a-41e7-8487-79133bbf1856","system_id":"levelo_inurba_marseille","lat":43.284108,"lon":5.375147,"is_reserved":false,"is_disabled":false,"rental_uris":{"android":"levelo://app?vid=188758f6-692a-41e7-8487-79133bbf1856","ios":"levelo://app?vid=188758f6-692a-41e7-8487-79133bbf1856"},"vehicle_type_id":"4","last_reported":1747017666,"current_range_meters":18800,"station_id":"ce4bh412rcd13ifvqds0","pricing_plan_id":"cebpf4jnsgd1na2vs0mg"},{"bike_id":"b563129d-dbe8-41ec-ad41-e58670601124","system_id":"levelo_inurba_marseille","lat":43.28349,"lon":5.38104,"is_reserved":false,"is_disabled":false,"rental_uris":{"android":"levelo://app?vid=b563129d-dbe8-41ec-ad41-e58670601124","ios":"levelo://app?vid=b563129d-dbe8-41ec-ad41-e58670601124"},"vehicle_type_id":"4","last_reported":1747017666,"current_range_meters":19200,"station_id":"ce4bh412rcd13ifvqdr0","pricing_plan_id":"cebpf4jnsgd1na2vs0mg"},{"bike_id":"c6f94e68-7c7b-43ef-8184-27f8965ee836","system_id":"levelo_inurba_marseille","lat":43.251115,"lon":5.403293,"is_reserved":false,"is_disabled":false,"rental_uris":{"android":"levelo://app?vid=c6f94e68-7c7b-43ef-8184-27f8965ee836","ios":"levelo://app?vid=c6f94e68-7c7b-43ef-8184-27f8965ee836"},"vehicle_type_id":"4","last_reported":1747017666,"current_range_meters":19600,"station_id":"ce4bhlh2rcd13ifvqgig","pricing_plan_id":"cebpf4jnsgd1na2vs0mg"},{"bike_id":"873127f0-5960-43b7-af15-7b68eacdf132","system_id":"levelo_inurba_marseille","lat":43.31333,"lon":5.39702,"is_reserved":false,"is_disabled":false,"rental_uris":{"android":"levelo://app?vid=873127f0-5960-43b7-af15-7b68eacdf132","ios":"levelo://app?vid=873127f0-5960-43b7-af15-7b68eacdf132"},"vehicle_type_id":"4","last_reported":1747017666,"current_range_meters":20000,"station_id":"ce4bgvp2rcd13ifvqcu0","pricing_plan_id":"cebpf4jnsgd1na2vs0mg"},{"bike_id":"0ac4699c-2936-47e4-a58a-a815c837d0ea","system_id":"levelo_inurba_marseille","lat":43.305944,"lon":5.393665,"is_reserved":false,"is_disabled":false,"rental_uris":{"android":"levelo://app?vid=0ac4699c-2936-47e4-a58a-a815c837d0ea","ios":"levelo://app?vid=0ac4699c-2936-47e4-a58a-a815c837d0ea"},"vehicle_type_id":"4","last_reported":1747017666,"current_range_meters":20000,"station_id":"ce4bh0p2rcd13ifvqd80","pricing_plan_id":"cebpf4jnsgd1na2vs0mg"},{"bike_id":"7aab6e21-5b14-4648-99c5-d3a099671233","system_id":"levelo_inurba_marseille","lat":43.292786,"lon":5.401125,"is_reserved":false,"is_disabled":false,"rental_uris":{"android":"levelo://app?vid=7aab6e21-5b14-4648-99c5-d3a099671233","ios":"levelo://app?vid=7aab6e21-5b14-4648-99c5-d3a099671233"},"vehicle_type_id":"4","last_reported":1747017666,"current_range_meters":20000,"station_id":"ce4bh312rcd13ifvqdk0","pricing_plan_id":"cebpf4jnsgd1na2vs0mg"},{"bike_id":"12fd312b-a236-4b26-878b-0432501ea6fd","system_id":"levelo_inurba_marseille","lat":43.302419,"lon":5.400375,"is_reserved":false,"is_disabled":false,"rental_uris":{"android":"levelo://app?vid=12fd312b-a236-4b26-878b-0432501ea6fd","ios":"levelo://app?vid=12fd312b-a236-4b26-878b-0432501ea6fd"},"vehicle_type_id":"4","last_reported":1747017666,"current_range_meters":20400,"station_id":"","pricing_plan_id":"cebpf4jnsgd1na2vs0mg"},{"bike_id":"b336a229-0bf1-452c-97d8-afd000b0f02e","system_id":"levelo_inurba_marseille","lat":43.324765,"lon":5.365883,"is_reserved":false,"is_disabled":false,"rental_uris":{"android":"levelo://app?vid=b336a229-0bf1-452c-97d8-afd000b0f02e","ios":"levelo://app?vid=b336a229-0bf1-452c-97d8-afd000b0f02e"},"vehicle_type_id":"4","last_reported":1747017666,"current_range_meters":20400,"station_id":"ce4bhs12rcd13ifvqhvg","pricing_plan_id":"cebpf4jnsgd1na2vs0mg"},{"bike_id":"e6adc396-be82-4a12-97e0-95dd6dbe63be","system_id":"levelo_inurba_marseille","lat":43.2623,"lon":5.404515,"is_reserved":false,"is_disabled":false,"rental_uris":{"android":"levelo://app?vid=e6adc396-be82-4a12-97e0-95dd6dbe63be","ios":"levelo://app?vid=e6adc396-be82-4a12-97e0-95dd6dbe63be"},"vehicle_type_id":"4","last_reported":1747017666,"current_range_meters":20800,"station_id":"ce4bhmh2rcd13ifvqgmg","pricing_plan_id":"cebpf4jnsgd1na2vs0mg"},{"bike_id":"bf8ab2b3-a5b8-4b44-9ccf-e0d7e23d9454","system_id":"levelo_inurba_marseille","lat":43.284609,"lon":5.358889,"is_reserved":false,"is_disabled":false,"rental_uris":{"android":"levelo://app?vid=bf8ab2b3-a5b8-4b44-9ccf-e0d7e23d9454","ios":"levelo://app?vid=bf8ab2b3-a5b8-4b44-9ccf-e0d7e23d9454"},"vehicle_type_id":"4","last_reported":1747017666,"current_range_meters":22000,"station_id":"ce4bhah2rcd13ifvqei0","pricing_plan_id":"cebpf4jnsgd1na2vs0mg"},{"bike_id":"fcf9463b-401b-4157-a5a9-4c36ca7d015d","system_id":"levelo_inurba_marseille","lat":43.306795,"lon":5.370534,"is_reserved":false,"is_disabled":false,"rental_uris":{"android":"levelo://app?vid=fcf9463b-401b-4157-a5a9-4c36ca7d015d","ios":"levelo://app?vid=fcf9463b-401b-4157-a5a9-4c36ca7d015d"},"vehicle_type_id":"4","last_reported":1747017666,"current_range_meters":23200,"station_id":"","pricing_plan_id":"cebpf4jnsgd1na2vs0mg"},{"bike_id":"e9616221-7423-4bfb-9840-191e8a239b7d","system_id":"levelo_inurba_marseille","lat":43.284097,"lon":5.375268,"is_reserved":false,"is_disabled":false,"rental_uris":{"android":"levelo://app?vid=e9616221-7423-4bfb-9840-191e8a239b7d","ios":"levelo://app?vid=e9616221-7423-4bfb-9840-191e8a239b7d"},"vehicle_type_id":"4","last_reported":1747017666,"current_range_meters":23200,"station_id":"ce4bh412rcd13ifvqds0","pricing_plan_id":"cebpf4jnsgd1na2vs0mg"},{"bike_id":"beddbda8-0767-4a2f-b616-0d0902992c51","system_id":"levelo_inurba_marseille","lat":43.31737,"lon":5.40431,"is_reserved":false,"is_disabled":false,"rental_uris":{"android":"levelo://app?vid=beddbda8-0767-4a2f-b616-0d0902992c51","ios":"levelo://app?vid=beddbda8-0767-4a2f-b616-0d0902992c51"},"vehicle_type_id":"4","last_reported":1747017666,"current_range_meters":24000,"station_id":"","pricing_plan_id":"cebpf4jnsgd1na2vs0mg"},{"bike_id":"94643c87-a910-464c-8beb-f9e9d8854450","system_id":"levelo_inurba_marseille","lat":43.2808,"lon":5.39663,"is_reserved":false,"is_disabled":false,"rental_uris":{"android":"levelo://app?vid=94643c87-a910-464c-8beb-f9e9d8854450","ios":"levelo://app?vid=94643c87-a910-464c-8beb-f9e9d8854450"},"vehicle_type_id":"4","last_reported":1747017666,"current_range_meters":24000,"station_id":"ce4bho12rcd13ifvqh2g","pricing_plan_id":"cebpf4jnsgd1na2vs0mg"},{"bike_id":"bf0c4a52-4226-46a9-ba4c-0bc9d19b1429","system_id":"levelo_inurba_marseille","lat":43.29256,"lon":5.37626,"is_reserved":false,"is_disabled":false,"rental_uris":{"android":"levelo://app?vid=bf0c4a52-4226-46a9-ba4c-0bc9d19b1429","ios":"levelo://app?vid=bf0c4a52-4226-46a9-ba4c-0bc9d19b1429"},"vehicle_type_id":"4","last_reported":1747017666,"current_range_meters":24400,"station_id":"ce4bgi12rcd13ifvqb80","pricing_plan_id":"cebpf4jnsgd1na2vs0mg"},{"bike_id":"3cefa205-9db3-403f-9466-99653a0c908b","system_id":"levelo_inurba_marseille","lat":43.2511,"lon":5.40339,"is_reserved":false,"is_disabled":false,"rental_uris":{"android":"levelo://app?vid=3cefa205-9db3-403f-9466-99653a0c908b","ios":"levelo://app?vid=3cefa205-9db3-403f-9466-99653a0c908b"},"vehicle_type_id":"4","last_reported":1747017666,"current_range_meters":24400,"station_id":"ce4bhlh2rcd13ifvqgig","pricing_plan_id":"cebpf4jnsgd1na2vs0mg"},{"bike_id":"81e56a83-0f38-4053-8247-0af6d61d1407","system_id":"levelo_inurba_marseille","lat":43.31891,"lon":5.40748,"is_reserved":false,"is_disabled":false,"rental_uris":{"android":"levelo://app?vid=81e56a83-0f38-4053-8247-0af6d61d1407","ios":"levelo://app?vid=81e56a83-0f38-4053-8247-0af6d61d1407"},"vehicle_type_id":"4","last_reported":1747017666,"current_range_meters":24400,"station_id":"ce4bhq12rcd13ifvqhig","pricing_plan_id":"cebpf4jnsgd1na2vs0mg"},{"bike_id":"581a76c6-406f-436c-80cf-424046378536","system_id":"levelo_inurba_marseille","lat":43.23144,"lon":5.43718,"is_reserved":false,"is_disabled":false,"rental_uris":{"android":"levelo://app?vid=581a76c6-406f-436c-80cf-424046378536","ios":"levelo://app?vid=581a76c6-406f-436c-80cf-424046378536"},"vehicle_type_id":"4","last_reported":1747017666,"current_range_meters":24800,"station_id":"ce4bhmp2rcd13ifvqgog","pricing_plan_id":"cebpf4jnsgd1na2vs0mg"},{"bike_id":"e49ed292-ac25-4dc5-87e7-7cff6914461d","system_id":"levelo_inurba_marseille","lat":43.29885,"lon":5.39738,"is_reserved":false,"is_disabled":false,"rental_uris":{"android":"levelo://app?vid=e49ed292-ac25-4dc5-87e7-7cff6914461d","ios":"levelo://app?vid=e49ed292-ac25-4dc5-87e7-7cff6914461d"},"vehicle_type_id":"4","last_reported":1747017666,"current_range_meters":25200,"station_id":"ce4bh0h2rcd13ifvqd50","pricing_plan_id":"cebpf4jnsgd1na2vs0mg"},{"bike_id":"dacedaeb-dc46-4911-8f83-935864864d66","system_id":"levelo_inurba_marseille","lat":43.28561,"lon":5.39493,"is_reserved":false,"is_disabled":false,"rental_uris":{"android":"levelo://app?vid=dacedaeb-dc46-4911-8f83-935864864d66","ios":"levelo://app?vid=dacedaeb-dc46-4911-8f83-935864864d66"},"vehicle_type_id":"4","last_reported":1747017666,"current_range_meters":25200,"station_id":"ce4bh292rcd13ifvqdg0","pricing_plan_id":"cebpf4jnsgd1na2vs0mg"},{"bike_id":"a6403b24-ff7b-431e-a040-d2ab370a8e38","system_id":"levelo_inurba_marseille","lat":43.31163,"lon":5.3873,"is_reserved":false,"is_disabled":false,"rental_uris":{"android":"levelo://app?vid=a6403b24-ff7b-431e-a040-d2ab370a8e38","ios":"levelo://app?vid=a6403b24-ff7b-431e-a040-d2ab370a8e38"},"vehicle_type_id":"4","last_reported":1747017666,"current_range_meters":26000,"station_id":"ce4bgv12rcd13ifvqcp0","pricing_plan_id":"cebpf4jnsgd1na2vs0mg"},{"bike_id":"c2f46fcf-2d98-4a53-915b-9b0e7a792171","system_id":"levelo_inurba_marseille","lat":43.26565,"lon":5.390151,"is_reserved":false,"is_disabled":false,"rental_uris":{"android":"levelo://app?vid=c2f46fcf-2d98-4a53-915b-9b0e7a792171","ios":"levelo://app?vid=c2f46fcf-2d98-4a53-915b-9b0e7a792171"},"vehicle_type_id":"4","last_reported":1747017666,"current_range_meters":26000,"station_id":"ce4bhe12rcd13ifvqf30","pricing_plan_id":"cebpf4jnsgd1na2vs0mg"},{"bike_id":"d02e6451-e516-4f8c-9a29-efbb81ab4a82","system_id":"levelo_inurba_marseille","lat":43.3045,"lon":5.38943,"is_reserved":false,"is_disabled":false,"rental_uris":{"android":"levelo://app?vid=d02e6451-e516-4f8c-9a29-efbb81ab4a82","ios":"levelo://app?vid=d02e6451-e516-4f8c-9a29-efbb81ab4a82"},"vehicle_type_id":"4","last_reported":1747017666,"current_range_meters":26800,"station_id":"","pricing_plan_id":"cebpf4jnsgd1na2vs0mg"},{"bike_id":"2aff00df-3d4f-4caa-90ca-4c8fb72f5c08","system_id":"levelo_inurba_marseille","lat":43.313022,"lon":5.373275,"is_reserved":false,"is_disabled":false,"rental_uris":{"android":"levelo://app?vid=2aff00df-3d4f-4caa-90ca-4c8fb72f5c08","ios":"levelo://app?vid=2aff00df-3d4f-4caa-90ca-4c8fb72f5c08"},"vehicle_type_id":"4","last_reported":1747017666,"current_range_meters":26800,"station_id":"","pricing_plan_id":"cebpf4jnsgd1na2vs0mg"},{"bike_id":"09f04a62-ce78-48cf-8cdf-38bb2bf3eac8","system_id":"levelo_inurba_marseille","lat":43.2989,"lon":5.39749,"is_reserved":false,"is_disabled":false,"rental_uris":{"android":"levelo://app?vid=09f04a62-ce78-48cf-8cdf-38bb2bf3eac8","ios":"levelo://app?vid=09f04a62-ce78-48cf-8cdf-38bb2bf3eac8"},"vehicle_type_id":"4","last_reported":1747017666,"current_range_meters":26800,"station_id":"ce4bh0h2rcd13ifvqd50","pricing_plan_id":"cebpf4jnsgd1na2vs0mg"},{"bike_id":"1297402a-0699-4324-a067-80a0da342625","system_id":"levelo_inurba_marseille","lat":43.25732,"lon":5.41084,"is_reserved":false,"is_disabled":false,"rental_uris":{"android":"levelo://app?vid=1297402a-0699-4324-a067-80a0da342625","ios":"levelo://app?vid=1297402a-0699-4324-a067-80a0da342625"},"vehicle_type_id":"4","last_reported":1747017666,"current_range_meters":27200,"station_id":"ce4bhkp2rcd13ifvqgd0","pricing_plan_id":"cebpf4jnsgd1na2vs0mg"},{"bike_id":"1806c447-b7d4-41de-ab1b-359589127fc7","system_id":"levelo_inurba_marseille","lat":43.32334,"lon":5.4063,"is_reserved":false,"is_disabled":false,"rental_uris":{"android":"levelo://app?vid=1806c447-b7d4-41de-ab1b-359589127fc7","ios":"levelo://app?vid=1806c447-b7d4-41de-ab1b-359589127fc7"},"vehicle_type_id":"4","last_reported":1747017666,"current_range_meters":27200,"station_id":"ce4bhq92rcd13ifvqhjg","pricing_plan_id":"cebpf4jnsgd1na2vs0mg"},{"bike_id":"caca998f-38aa-4983-b099-0f025ff387d7","system_id":"levelo_inurba_marseille","lat":43.311764,"lon":5.387156,"is_reserved":false,"is_disabled":false,"rental_uris":{"android":"levelo://app?vid=caca998f-38aa-4983-b099-0f025ff387d7","ios":"levelo://app?vid=caca998f-38aa-4983-b099-0f025ff387d7"},"vehicle_type_id":"4","last_reported":1747017666,"current_range_meters":27600,"station_id":"ce4bgv12rcd13ifvqcp0","pricing_plan_id":"cebpf4jnsgd1na2vs0mg"},{"bike_id":"e387dba6-e784-4638-af80-a7c3d47f838d","system_id":"levelo_inurba_marseille","lat":43.3132,"lon":5.3971,"is_reserved":false,"is_disabled":false,"rental_uris":{"android":"levelo://app?vid=e387dba6-e784-4638-af80-a7c3d47f838d","ios":"levelo://app?vid=e387dba6-e784-4638-af80-a7c3d47f838d"},"vehicle_type_id":"4","last_reported":1747017666,"current_range_meters":27600,"station_id":"ce4bgvp2rcd13ifvqcu0","pricing_plan_id":"cebpf4jnsgd1na2vs0mg"},{"bike_id":"460de707-94bc-4939-a26c-73b40618a709","system_id":"levelo_inurba_marseille","lat":43.26226,"lon":5.404514,"is_reserved":false,"is_disabled":false,"rental_uris":{"android":"levelo://app?vid=460de707-94bc-4939-a26c-73b40618a709","ios":"levelo://app?vid=460de707-94bc-4939-a26c-73b40618a709"},"vehicle_type_id":"4","last_reported":1747017666,"current_range_meters":27600,"station_id":"ce4bhmh2rcd13ifvqgmg","pricing_plan_id":"cebpf4jnsgd1na2vs0mg"},{"bike_id":"15d99e4b-34d7-473a-ac95-6c9542f80136","system_id":"levelo_inurba_marseille","lat":43.31353,"lon":5.38504,"is_reserved":false,"is_disabled":false,"rental_uris":{"android":"levelo://app?vid=15d99e4b-34d7-473a-ac95-6c9542f80136","ios":"levelo://app?vid=15d99e4b-34d7-473a-ac95-6c9542f80136"},"vehicle_type_id":"4","last_reported":1747017666,"current_range_meters":28000,"station_id":"ce4bgt92rcd13ifvqcf0","pricing_plan_id":"cebpf4jnsgd1na2vs0mg"},{"bike_id":"ea92c411-d560-4476-833d-81d8858f3a16","system_id":"levelo_inurba_marseille","lat":43.29873,"lon":5.39727,"is_reserved":false,"is_disabled":false,"rental_uris":{"android":"levelo://app?vid=ea92c411-d560-4476-833d-81d8858f3a16","ios":"levelo://app?vid=ea92c411-d560-4476-833d-81d8858f3a16"},"vehicle_type_id":"4","last_reported":1747017666,"current_range_meters":28000,"station_id":"ce4bh0h2rcd13ifvqd50","pricing_plan_id":"cebpf4jnsgd1na2vs0mg"},{"bike_id":"15d7f89e-da13-4954-8ce5-17ab1bd9181f","system_id":"levelo_inurba_marseille","lat":43.273687,"lon":5.362464,"is_reserved":false,"is_disabled":false,"rental_uris":{"android":"levelo://app?vid=15d7f89e-da13-4954-8ce5-17ab1bd9181f","ios":"levelo://app?vid=15d7f89e-da13-4954-8ce5-17ab1bd9181f"},"vehicle_type_id":"4","last_reported":1747017666,"current_range_meters":28000,"station_id":"ce4bhbh2rcd13ifvqeo0","pricing_plan_id":"cebpf4jnsgd1na2vs0mg"},{"bike_id":"407ab054-7fac-4f7f-97c2-9ecc0cc6aa92","system_id":"levelo_inurba_marseille","lat":43.257229,"lon":5.411075,"is_reserved":false,"is_disabled":false,"rental_uris":{"android":"levelo://app?vid=407ab054-7fac-4f7f-97c2-9ecc0cc6aa92","ios":"levelo://app?vid=407ab054-7fac-4f7f-97c2-9ecc0cc6aa92"},"vehicle_type_id":"4","last_reported":1747017666,"current_range_meters":28000,"station_id":"ce4bhkp2rcd13ifvqgd0","pricing_plan_id":"cebpf4jnsgd1na2vs0mg"},{"bike_id":"f202ef3b-390d-4222-9c53-b7b067de17c2","system_id":"levelo_inurba_marseille","lat":43.284391,"lon":5.39195,"is_reserved":false,"is_disabled":false,"rental_uris":{"android":"levelo://app?vid=f202ef3b-390d-4222-9c53-b7b067de17c2","ios":"levelo://app?vid=f202ef3b-390d-4222-9c53-b7b067de17c2"},"vehicle_type_id":"4","last_reported":1747017666,"current_range_meters":28000,"station_id":"ce4bhoh2rcd13ifvqh5g","pricing_plan_id":"cebpf4jnsgd1na2vs0mg"},{"bike_id":"010945c0-9e1e-444b-bbcc-86fe469cc7bb","system_id":"levelo_inurba_marseille","lat":43.29872,"lon":5.39734,"is_reserved":false,"is_disabled":false,"rental_uris":{"android":"levelo://app?vid=010945c0-9e1e-444b-bbcc-86fe469cc7bb","ios":"levelo://app?vid=010945c0-9e1e-444b-bbcc-86fe469cc7bb"},"vehicle_type_id":"4","last_reported":1747017666,"current_range_meters":28400,"station_id":"ce4bh0h2rcd13ifvqd50","pricing_plan_id":"cebpf4jnsgd1na2vs0mg"},{"bike_id":"8d280afa-9953-4524-8857-a23231819228","system_id":"levelo_inurba_marseille","lat":43.28835,"lon":5.39317,"is_reserved":false,"is_disabled":false,"rental_uris":{"android":"levelo://app?vid=8d280afa-9953-4524-8857-a23231819228","ios":"levelo://app?vid=8d280afa-9953-4524-8857-a23231819228"},"vehicle_type_id":"4","last_reported":1747017666,"current_range_meters":28400,"station_id":"ce4bh2p2rcd13ifvqdi0","pricing_plan_id":"cebpf4jnsgd1na2vs0mg"},{"bike_id":"ec59990b-d542-42b5-88ae-c7b7acfb3b9e","system_id":"levelo_inurba_marseille","lat":43.2781,"lon":5.40716,"is_reserved":false,"is_disabled":false,"rental_uris":{"android":"levelo://app?vid=ec59990b-d542-42b5-88ae-c7b7acfb3b9e","ios":"levelo://app?vid=ec59990b-d542-42b5-88ae-c7b7acfb3b9e"},"vehicle_type_id":"4","last_reported":1747017666,"current_range_meters":28400,"station_id":"ce4bhnh2rcd13ifvqgtg","pricing_plan_id":"cebpf4jnsgd1na2vs0mg"},{"bike_id":"9a6c67d6-6dd0-42ec-ba7a-5d03082fdbea","system_id":"levelo_inurba_marseille","lat":43.28728,"lon":5.39998,"is_reserved":false,"is_disabled":false,"rental_uris":{"android":"levelo://app?vid=9a6c67d6-6dd0-42ec-ba7a-5d03082fdbea","ios":"levelo://app?vid=9a6c67d6-6dd0-42ec-ba7a-5d03082fdbea"},"vehicle_type_id":"4","last_reported":1747017666,"current_range_meters":28400,"station_id":"ce4bho92rcd13ifvqh3g","pricing_plan_id":"cebpf4jnsgd1na2vs0mg"},{"bike_id":"8ca7f4be-37fb-47ec-8f0d-00dcb483855b","system_id":"levelo_inurba_marseille","lat":43.28261,"lon":5.42413,"is_reserved":false,"is_disabled":false,"rental_uris":{"android":"levelo://app?vid=8ca7f4be-37fb-47ec-8f0d-00dcb483855b","ios":"levelo://app?vid=8ca7f4be-37fb-47ec-8f0d-00dcb483855b"},"vehicle_type_id":"4","last_reported":1747017666,"current_range_meters":28800,"station_id":"","pricing_plan_id":"cebpf4jnsgd1na2vs0mg"},{"bike_id":"4c553312-7a56-4420-94be-4db995548186","system_id":"levelo_inurba_marseille","lat":43.29343,"lon":5.434289,"is_reserved":false,"is_disabled":false,"rental_uris":{"android":"levelo://app?vid=4c553312-7a56-4420-94be-4db995548186","ios":"levelo://app?vid=4c553312-7a56-4420-94be-4db995548186"},"vehicle_type_id":"4","last_reported":1747017666,"current_range_meters":28800,"station_id":"","pricing_plan_id":"cebpf4jnsgd1na2vs0mg"},{"bike_id":"a54f9bbf-6ecf-4cab-b322-35c36879a63e","system_id":"levelo_inurba_marseille","lat":43.31471,"lon":5.37308,"is_reserved":false,"is_disabled":false,"rental_uris":{"android":"levelo://app?vid=a54f9bbf-6ecf-4cab-b322-35c36879a63e","ios":"levelo://app?vid=a54f9bbf-6ecf-4cab-b322-35c36879a63e"},"vehicle_type_id":"4","last_reported":1747017666,"current_range_meters":28800,"station_id":"ce4bgt12rcd13ifvqcd0","pricing_plan_id":"cebpf4jnsgd1na2vs0mg"},{"bike_id":"3212f7e1-59fe-4d36-8f76-58e962c5ec65","system_id":"levelo_inurba_marseille","lat":43.302663,"lon":5.377214,"is_reserved":false,"is_disabled":false,"rental_uris":{"android":"levelo://app?vid=3212f7e1-59fe-4d36-8f76-58e962c5ec65","ios":"levelo://app?vid=3212f7e1-59fe-4d36-8f76-58e962c5ec65"},"vehicle_type_id":"4","last_reported":1747017666,"current_range_meters":28800,"station_id":"ce4bguh2rcd13ifvqcj0","pricing_plan_id":"cebpf4jnsgd1na2vs0mg"},{"bike_id":"8eb50512-73b2-46d6-9f67-56aaa2c034c5","system_id":"levelo_inurba_marseille","lat":43.309324,"lon":5.401417,"is_reserved":false,"is_disabled":false,"rental_uris":{"android":"levelo://app?vid=8eb50512-73b2-46d6-9f67-56aaa2c034c5","ios":"levelo://app?vid=8eb50512-73b2-46d6-9f67-56aaa2c034c5"},"vehicle_type_id":"4","last_reported":1747017666,"current_range_meters":28800,"station_id":"ce4bgvp2rcd13ifvqct0","pricing_plan_id":"cebpf4jnsgd1na2vs0mg"},{"bike_id":"0f8e003d-a6f5-41bf-802a-9bf6bd0f5198","system_id":"levelo_inurba_marseille","lat":43.30921,"lon":5.40165,"is_reserved":false,"is_disabled":false,"rental_uris":{"android":"levelo://app?vid=0f8e003d-a6f5-41bf-802a-9bf6bd0f5198","ios":"levelo://app?vid=0f8e003d-a6f5-41bf-802a-9bf6bd0f5198"},"vehicle_type_id":"4","last_reported":1747017666,"current_range_meters":28800,"station_id":"ce4bgvp2rcd13ifvqct0","pricing_plan_id":"cebpf4jnsgd1na2vs0mg"},{"bike_id":"94711b95-b181-4c4e-ae63-d6e9deccc5dd","system_id":"levelo_inurba_marseille","lat":43.31331,"lon":5.39704,"is_reserved":false,"is_disabled":false,"rental_uris":{"android":"levelo://app?vid=94711b95-b181-4c4e-ae63-d6e9deccc5dd","ios":"levelo://app?vid=94711b95-b181-4c4e-ae63-d6e9deccc5dd"},"vehicle_type_id":"4","last_reported":1747017666,"current_range_meters":28800,"station_id":"ce4bgvp2rcd13ifvqcu0","pricing_plan_id":"cebpf4jnsgd1na2vs0mg"},{"bike_id":"2c2c42db-b911-491f-8432-39de642c84c5","system_id":"levelo_inurba_marseille","lat":43.28563,"lon":5.39501,"is_reserved":false,"is_disabled":false,"rental_uris":{"android":"levelo://app?vid=2c2c42db-b911-491f-8432-39de642c84c5","ios":"levelo://app?vid=2c2c42db-b911-491f-8432-39de642c84c5"},"vehicle_type_id":"4","last_reported":1747017666,"current_range_meters":28800,"station_id":"ce4bh292rcd13ifvqdg0","pricing_plan_id":"cebpf4jnsgd1na2vs0mg"},{"bike_id":"c1804f9f-9f2d-4342-98f5-bc656b529f81","system_id":"levelo_inurba_marseille","lat":43.2706,"lon":5.42283,"is_reserved":false,"is_disabled":false,"rental_uris":{"android":"levelo://app?vid=c1804f9f-9f2d-4342-98f5-bc656b529f81","ios":"levelo://app?vid=c1804f9f-9f2d-4342-98f5-bc656b529f81"},"vehicle_type_id":"4","last_reported":1747017666,"current_range_meters":28800,"station_id":"ce4bhk92rcd13ifvqgb0","pricing_plan_id":"cebpf4jnsgd1na2vs0mg"},{"bike_id":"a954b5ad-5556-48cf-b13f-3a3858ce6fc4","system_id":"levelo_inurba_marseille","lat":43.25069,"lon":5.39544,"is_reserved":false,"is_disabled":false,"rental_uris":{"android":"levelo://app?vid=a954b5ad-5556-48cf-b13f-3a3858ce6fc4","ios":"levelo://app?vid=a954b5ad-5556-48cf-b13f-3a3858ce6fc4"},"vehicle_type_id":"4","last_reported":1747017666,"current_range_meters":28800,"station_id":"ce4bhm12rcd13ifvqgkg","pricing_plan_id":"cebpf4jnsgd1na2vs0mg"},{"bike_id":"393267a4-df87-486a-9467-42ab9f216ee0","system_id":"levelo_inurba_marseille","lat":43.33268,"lon":5.41042,"is_reserved":false,"is_disabled":false,"rental_uris":{"android":"levelo://app?vid=393267a4-df87-486a-9467-42ab9f216ee0","ios":"levelo://app?vid=393267a4-df87-486a-9467-42ab9f216ee0"},"vehicle_type_id":"4","last_reported":1747017666,"current_range_meters":30000,"station_id":"","pricing_plan_id":"cebpf4jnsgd1na2vs0mg"},{"bike_id":"b5af14f9-6bf0-4bf0-995f-7a16ea11cee2","system_id":"levelo_inurba_marseille","lat":43.27051,"lon":5.40273,"is_reserved":false,"is_disabled":false,"rental_uris":{"android":"levelo://app?vid=b5af14f9-6bf0-4bf0-995f-7a16ea11cee2","ios":"levelo://app?vid=b5af14f9-6bf0-4bf0-995f-7a16ea11cee2"},"vehicle_type_id":"4","last_reported":1747017666,"current_range_meters":30000,"station_id":"ce4bhk92rcd13ifvqgc0","pricing_plan_id":"cebpf4jnsgd1na2vs0mg"},{"bike_id":"396ae758-c3dc-43b8-9a90-ceda290c87c2","system_id":"levelo_inurba_marseille","lat":43.28155,"lon":5.42649,"is_reserved":false,"is_disabled":false,"rental_uris":{"android":"levelo://app?vid=396ae758-c3dc-43b8-9a90-ceda290c87c2","ios":"levelo://app?vid=396ae758-c3dc-43b8-9a90-ceda290c87c2"},"vehicle_type_id":"4","last_reported":1747017666,"current_range_meters":30000,"station_id":"ce4bhnh2rcd13ifvqgug","pricing_plan_id":"cebpf4jnsgd1na2vs0mg"},{"bike_id":"cdc62916-98c5-4459-a4cd-4b71ee75b9fc","system_id":"levelo_inurba_marseille","lat":43.26011,"lon":5.41767,"is_reserved":false,"is_disabled":false,"rental_uris":{"android":"levelo://app?vid=cdc62916-98c5-4459-a4cd-4b71ee75b9fc","ios":"levelo://app?vid=cdc62916-98c5-4459-a4cd-4b71ee75b9fc"},"vehicle_type_id":"4","last_reported":1747017666,"current_range_meters":30400,"station_id":"","pricing_plan_id":"cebpf4jnsgd1na2vs0mg"},{"bike_id":"d03f9a35-4aa0-44fe-aeff-75de8e0016e4","system_id":"levelo_inurba_marseille","lat":43.30791,"lon":5.38139,"is_reserved":false,"is_disabled":false,"rental_uris":{"android":"levelo://app?vid=d03f9a35-4aa0-44fe-aeff-75de8e0016e4","ios":"levelo://app?vid=d03f9a35-4aa0-44fe-aeff-75de8e0016e4"},"vehicle_type_id":"4","last_reported":1747017666,"current_range_meters":30400,"station_id":"ce4bgt12rcd13ifvqce0","pricing_plan_id":"cebpf4jnsgd1na2vs0mg"},{"bike_id":"e613626b-0ba7-4a6e-84b7-46810540ba9b","system_id":"levelo_inurba_marseille","lat":43.24691,"lon":5.38143,"is_reserved":false,"is_disabled":false,"rental_uris":{"android":"levelo://app?vid=e613626b-0ba7-4a6e-84b7-46810540ba9b","ios":"levelo://app?vid=e613626b-0ba7-4a6e-84b7-46810540ba9b"},"vehicle_type_id":"4","last_reported":1747017666,"current_range_meters":30400,"station_id":"ce4bhih2rcd13ifvqfr0","pricing_plan_id":"cebpf4jnsgd1na2vs0mg"},{"bike_id":"e28853be-a8af-4d81-9bc0-d5634df77fba","system_id":"levelo_inurba_marseille","lat":43.284314,"lon":5.392032,"is_reserved":false,"is_disabled":false,"rental_uris":{"android":"levelo://app?vid=e28853be-a8af-4d81-9bc0-d5634df77fba","ios":"levelo://app?vid=e28853be-a8af-4d81-9bc0-d5634df77fba"},"vehicle_type_id":"4","last_reported":1747017666,"current_range_meters":30400,"station_id":"ce4bhoh2rcd13ifvqh5g","pricing_plan_id":"cebpf4jnsgd1na2vs0mg"},{"bike_id":"8f4a6b66-d486-4af6-a10a-1531e5a36789","system_id":"levelo_inurba_marseille","lat":43.32336,"lon":5.406209,"is_reserved":false,"is_disabled":false,"rental_uris":{"android":"levelo://app?vid=8f4a6b66-d486-4af6-a10a-1531e5a36789","ios":"levelo://app?vid=8f4a6b66-d486-4af6-a10a-1531e5a36789"},"vehicle_type_id":"4","last_reported":1747017666,"current_range_meters":30400,"station_id":"ce4bhq92rcd13ifvqhjg","pricing_plan_id":"cebpf4jnsgd1na2vs0mg"},{"bike_id":"a85bd4b9-4621-43d4-83f7-4ad07d6befec","system_id":"levelo_inurba_marseille","lat":43.32326,"lon":5.40602,"is_reserved":false,"is_disabled":false,"rental_uris":{"android":"levelo://app?vid=a85bd4b9-4621-43d4-83f7-4ad07d6befec","ios":"levelo://app?vid=a85bd4b9-4621-43d4-83f7-4ad07d6befec"},"vehicle_type_id":"4","last_reported":1747017666,"current_range_meters":30400,"station_id":"ce4bhq92rcd13ifvqhjg","pricing_plan_id":"cebpf4jnsgd1na2vs0mg"},{"bike_id":"5c046693-3fbd-4755-81fd-1c6b34ebf07b","system_id":"levelo_inurba_marseille","lat":43.337605,"lon":5.374426,"is_reserved":false,"is_disabled":false,"rental_uris":{"android":"levelo://app?vid=5c046693-3fbd-4755-81fd-1c6b34ebf07b","ios":"levelo://app?vid=5c046693-3fbd-4755-81fd-1c6b34ebf07b"},"vehicle_type_id":"4","last_reported":1747017666,"current_range_meters":30800,"station_id":"","pricing_plan_id":"cebpf4jnsgd1na2vs0mg"},{"bike_id":"448a3537-a4a3-485e-bcf5-c67787b4d474","system_id":"levelo_inurba_marseille","lat":43.29625,"lon":5.37719,"is_reserved":false,"is_disabled":false,"rental_uris":{"android":"levelo://app?vid=448a3537-a4a3-485e-bcf5-c67787b4d474","ios":"levelo://app?vid=448a3537-a4a3-485e-bcf5-c67787b4d474"},"vehicle_type_id":"4","last_reported":1747017666,"current_range_meters":30800,"station_id":"ce4bgi92rcd13ifvqb90","pricing_plan_id":"cebpf4jnsgd1na2vs0mg"},{"bike_id":"b45d0263-ed17-4f84-a74e-d15c84857ce8","system_id":"levelo_inurba_marseille","lat":43.28568,"lon":5.394906,"is_reserved":false,"is_disabled":false,"rental_uris":{"android":"levelo://app?vid=b45d0263-ed17-4f84-a74e-d15c84857ce8","ios":"levelo://app?vid=b45d0263-ed17-4f84-a74e-d15c84857ce8"},"vehicle_type_id":"4","last_reported":1747017666,"current_range_meters":30800,"station_id":"ce4bh292rcd13ifvqdg0","pricing_plan_id":"cebpf4jnsgd1na2vs0mg"},{"bike_id":"39ef88b7-4503-4f42-926d-fbb958a9dc24","system_id":"levelo_inurba_marseille","lat":43.271736,"lon":5.409889,"is_reserved":false,"is_disabled":false,"rental_uris":{"android":"levelo://app?vid=39ef88b7-4503-4f42-926d-fbb958a9dc24","ios":"levelo://app?vid=39ef88b7-4503-4f42-926d-fbb958a9dc24"},"vehicle_type_id":"4","last_reported":1747017666,"current_range_meters":30800,"station_id":"ce4bhl12rcd13ifvqgf0","pricing_plan_id":"cebpf4jnsgd1na2vs0mg"},{"bike_id":"6f36ba59-7c05-4042-91d4-ca32be5d5a1b","system_id":"levelo_inurba_marseille","lat":43.23143,"lon":5.43721,"is_reserved":false,"is_disabled":false,"rental_uris":{"android":"levelo://app?vid=6f36ba59-7c05-4042-91d4-ca32be5d5a1b","ios":"levelo://app?vid=6f36ba59-7c05-4042-91d4-ca32be5d5a1b"},"vehicle_type_id":"4","last_reported":1747017666,"current_range_meters":30800,"station_id":"ce4bhmp2rcd13ifvqgog","pricing_plan_id":"cebpf4jnsgd1na2vs0mg"},{"bike_id":"de77d504-95c2-4991-9418-4e5c0c5fd5fb","system_id":"levelo_inurba_marseille","lat":43.28023,"lon":5.36945,"is_reserved":false,"is_disabled":false,"rental_uris":{"android":"levelo://app?vid=de77d504-95c2-4991-9418-4e5c0c5fd5fb","ios":"levelo://app?vid=de77d504-95c2-4991-9418-4e5c0c5fd5fb"},"vehicle_type_id":"4","last_reported":1747017666,"current_range_meters":31200,"station_id":"ce4bha12rcd13ifvqef0","pricing_plan_id":"cebpf4jnsgd1na2vs0mg"},{"bike_id":"005bb5d7-d40c-416f-82d1-4004759c841b","system_id":"levelo_inurba_marseille","lat":43.298729,"lon":5.397327,"is_reserved":false,"is_disabled":false,"rental_uris":{"android":"levelo://app?vid=005bb5d7-d40c-416f-82d1-4004759c841b","ios":"levelo://app?vid=005bb5d7-d40c-416f-82d1-4004759c841b"},"vehicle_type_id":"4","last_reported":1747017666,"current_range_meters":32000,"station_id":"ce4bh0h2rcd13ifvqd50","pricing_plan_id":"cebpf4jnsgd1na2vs0mg"},{"bike_id":"18e6ed13-4439-4bda-a31b-c4b46a6cace2","system_id":"levelo_inurba_marseille","lat":43.28349,"lon":5.38098,"is_reserved":false,"is_disabled":false,"rental_uris":{"android":"levelo://app?vid=18e6ed13-4439-4bda-a31b-c4b46a6cace2","ios":"levelo://app?vid=18e6ed13-4439-4bda-a31b-c4b46a6cace2"},"vehicle_type_id":"4","last_reported":1747017666,"current_range_meters":32000,"station_id":"ce4bh412rcd13ifvqdr0","pricing_plan_id":"cebpf4jnsgd1na2vs0mg"},{"bike_id":"0f7324d5-be48-4484-95dd-ad0a0c58767c","system_id":"levelo_inurba_marseille","lat":43.25113,"lon":5.40342,"is_reserved":false,"is_disabled":false,"rental_uris":{"android":"levelo://app?vid=0f7324d5-be48-4484-95dd-ad0a0c58767c","ios":"levelo://app?vid=0f7324d5-be48-4484-95dd-ad0a0c58767c"},"vehicle_type_id":"4","last_reported":1747017666,"current_range_meters":32000,"station_id":"ce4bhlh2rcd13ifvqgig","pricing_plan_id":"cebpf4jnsgd1na2vs0mg"},{"bike_id":"561dec04-c84c-4699-85cb-54a9453d50dd","system_id":"levelo_inurba_marseille","lat":43.307818,"lon":5.376515,"is_reserved":false,"is_disabled":false,"rental_uris":{"android":"levelo://app?vid=561dec04-c84c-4699-85cb-54a9453d50dd","ios":"levelo://app?vid=561dec04-c84c-4699-85cb-54a9453d50dd"},"vehicle_type_id":"4","last_reported":1747017666,"current_range_meters":32400,"station_id":"ce4bgv92rcd13ifvqcq0","pricing_plan_id":"cebpf4jnsgd1na2vs0mg"},{"bike_id":"038313a3-112e-48a0-bc50-49bd013fc08a","system_id":"levelo_inurba_marseille","lat":43.287137,"lon":5.399891,"is_reserved":false,"is_disabled":false,"rental_uris":{"android":"levelo://app?vid=038313a3-112e-48a0-bc50-49bd013fc08a","ios":"levelo://app?vid=038313a3-112e-48a0-bc50-49bd013fc08a"},"vehicle_type_id":"4","last_reported":1747017666,"current_range_meters":32400,"station_id":"ce4bho92rcd13ifvqh3g","pricing_plan_id":"cebpf4jnsgd1na2vs0mg"},{"bike_id":"10b9a039-dd7e-4a20-9e80-3ea6aa75ce6b","system_id":"levelo_inurba_marseille","lat":43.31717,"lon":5.42407,"is_reserved":false,"is_disabled":false,"rental_uris":{"android":"levelo://app?vid=10b9a039-dd7e-4a20-9e80-3ea6aa75ce6b","ios":"levelo://app?vid=10b9a039-dd7e-4a20-9e80-3ea6aa75ce6b"},"vehicle_type_id":"4","last_reported":1747017666,"current_range_meters":32400,"station_id":"ce4bhp92rcd13ifvqhbg","pricing_plan_id":"cebpf4jnsgd1na2vs0mg"},{"bike_id":"f35a3999-63d9-455b-8709-a6592690e9d3","system_id":"levelo_inurba_marseille","lat":43.303268,"lon":5.404302,"is_reserved":false,"is_disabled":false,"rental_uris":{"android":"levelo://app?vid=f35a3999-63d9-455b-8709-a6592690e9d3","ios":"levelo://app?vid=f35a3999-63d9-455b-8709-a6592690e9d3"},"vehicle_type_id":"4","last_reported":1747017666,"current_range_meters":32800,"station_id":"ce4bh012rcd13ifvqd10","pricing_plan_id":"cebpf4jnsgd1na2vs0mg"},{"bike_id":"90bc692b-24d3-4076-99e6-3e95c95a3c14","system_id":"levelo_inurba_marseille","lat":43.29883,"lon":5.39736,"is_reserved":false,"is_disabled":false,"rental_uris":{"android":"levelo://app?vid=90bc692b-24d3-4076-99e6-3e95c95a3c14","ios":"levelo://app?vid=90bc692b-24d3-4076-99e6-3e95c95a3c14"},"vehicle_type_id":"4","last_reported":1747017666,"current_range_meters":32800,"station_id":"ce4bh0h2rcd13ifvqd50","pricing_plan_id":"cebpf4jnsgd1na2vs0mg"},{"bike_id":"b1eb6202-8298-4c5f-9842-6196fe01aace","system_id":"levelo_inurba_marseille","lat":43.28841,"lon":5.39317,"is_reserved":false,"is_disabled":false,"rental_uris":{"android":"levelo://app?vid=b1eb6202-8298-4c5f-9842-6196fe01aace","ios":"levelo://app?vid=b1eb6202-8298-4c5f-9842-6196fe01aace"},"vehicle_type_id":"4","last_reported":1747017666,"current_range_meters":32800,"station_id":"ce4bh2p2rcd13ifvqdi0","pricing_plan_id":"cebpf4jnsgd1na2vs0mg"},{"bike_id":"d99afe62-41a1-4367-a50e-55727c42a2a5","system_id":"levelo_inurba_marseille","lat":43.28728,"lon":5.39981,"is_reserved":false,"is_disabled":false,"rental_uris":{"android":"levelo://app?vid=d99afe62-41a1-4367-a50e-55727c42a2a5","ios":"levelo://app?vid=d99afe62-41a1-4367-a50e-55727c42a2a5"},"vehicle_type_id":"4","last_reported":1747017666,"current_range_meters":32800,"station_id":"ce4bho92rcd13ifvqh3g","pricing_plan_id":"cebpf4jnsgd1na2vs0mg"},{"bike_id":"bbcc9f5a-b5a5-4629-9f12-85c011033058","system_id":"levelo_inurba_marseille","lat":43.31149,"lon":5.38744,"is_reserved":false,"is_disabled":false,"rental_uris":{"android":"levelo://app?vid=bbcc9f5a-b5a5-4629-9f12-85c011033058","ios":"levelo://app?vid=bbcc9f5a-b5a5-4629-9f12-85c011033058"},"vehicle_type_id":"4","last_reported":1747017666,"current_range_meters":33200,"station_id":"ce4bgv12rcd13ifvqcp0","pricing_plan_id":"cebpf4jnsgd1na2vs0mg"},{"bike_id":"698cd362-d962-4e16-a27a-6cffe77a494b","system_id":"levelo_inurba_marseille","lat":43.298782,"lon":5.397365,"is_reserved":false,"is_disabled":false,"rental_uris":{"android":"levelo://app?vid=698cd362-d962-4e16-a27a-6cffe77a494b","ios":"levelo://app?vid=698cd362-d962-4e16-a27a-6cffe77a494b"},"vehicle_type_id":"4","last_reported":1747017666,"current_range_meters":33200,"station_id":"ce4bh0h2rcd13ifvqd50","pricing_plan_id":"cebpf4jnsgd1na2vs0mg"},{"bike_id":"1178bebb-d6ca-43aa-ad2a-bb84e3c99274","system_id":"levelo_inurba_marseille","lat":43.28484,"lon":5.3855,"is_reserved":false,"is_disabled":false,"rental_uris":{"android":"levelo://app?vid=1178bebb-d6ca-43aa-ad2a-bb84e3c99274","ios":"levelo://app?vid=1178bebb-d6ca-43aa-ad2a-bb84e3c99274"},"vehicle_type_id":"4","last_reported":1747017666,"current_range_meters":33200,"station_id":"ce4bh8p2rcd13ifvqeb0","pricing_plan_id":"cebpf4jnsgd1na2vs0mg"},{"bike_id":"2cc86227-4cc7-4652-ab37-68a079cb5f0b","system_id":"levelo_inurba_marseille","lat":43.27902,"lon":5.38788,"is_reserved":false,"is_disabled":false,"rental_uris":{"android":"levelo://app?vid=2cc86227-4cc7-4652-ab37-68a079cb5f0b","ios":"levelo://app?vid=2cc86227-4cc7-4652-ab37-68a079cb5f0b"},"vehicle_type_id":"4","last_reported":1747017666,"current_range_meters":33200,"station_id":"ce4bhg12rcd13ifvqf80","pricing_plan_id":"cebpf4jnsgd1na2vs0mg"},{"bike_id":"11171f27-f5e6-4c43-b45d-c3c7c335c7e3","system_id":"levelo_inurba_marseille","lat":43.28445,"lon":5.39165,"is_reserved":false,"is_disabled":false,"rental_uris":{"android":"levelo://app?vid=11171f27-f5e6-4c43-b45d-c3c7c335c7e3","ios":"levelo://app?vid=11171f27-f5e6-4c43-b45d-c3c7c335c7e3"},"vehicle_type_id":"4","last_reported":1747017666,"current_range_meters":33200,"station_id":"ce4bhoh2rcd13ifvqh5g","pricing_plan_id":"cebpf4jnsgd1na2vs0mg"},{"bike_id":"2182db16-b350-4283-8ae0-209071785631","system_id":"levelo_inurba_marseille","lat":43.309431,"lon":5.367313,"is_reserved":false,"is_disabled":false,"rental_uris":{"android":"levelo://app?vid=2182db16-b350-4283-8ae0-209071785631","ios":"levelo://app?vid=2182db16-b350-4283-8ae0-209071785631"},"vehicle_type_id":"4","last_reported":1747017666,"current_range_meters":33600,"station_id":"","pricing_plan_id":"cebpf4jnsgd1na2vs0mg"},{"bike_id":"a52974aa-e3ee-4017-bef0-bcbd7ff9546e","system_id":"levelo_inurba_marseille","lat":43.27934,"lon":5.41139,"is_reserved":false,"is_disabled":false,"rental_uris":{"android":"levelo://app?vid=a52974aa-e3ee-4017-bef0-bcbd7ff9546e","ios":"levelo://app?vid=a52974aa-e3ee-4017-bef0-bcbd7ff9546e"},"vehicle_type_id":"4","last_reported":1747017666,"current_range_meters":33600,"station_id":"","pricing_plan_id":"cebpf4jnsgd1na2vs0mg"},{"bike_id":"ff099131-0e3e-4e66-a5e3-5030332515d6","system_id":"levelo_inurba_marseille","lat":43.265634,"lon":5.390025,"is_reserved":false,"is_disabled":false,"rental_uris":{"android":"levelo://app?vid=ff099131-0e3e-4e66-a5e3-5030332515d6","ios":"levelo://app?vid=ff099131-0e3e-4e66-a5e3-5030332515d6"},"vehicle_type_id":"4","last_reported":1747017666,"current_range_meters":33600,"station_id":"ce4bhe12rcd13ifvqf30","pricing_plan_id":"cebpf4jnsgd1na2vs0mg"},{"bike_id":"1510557f-0c2f-4e01-9814-9652d7428595","system_id":"levelo_inurba_marseille","lat":43.24693,"lon":5.38176,"is_reserved":false,"is_disabled":false,"rental_uris":{"android":"levelo://app?vid=1510557f-0c2f-4e01-9814-9652d7428595","ios":"levelo://app?vid=1510557f-0c2f-4e01-9814-9652d7428595"},"vehicle_type_id":"4","last_reported":1747017666,"current_range_meters":33600,"station_id":"ce4bhih2rcd13ifvqfr0","pricing_plan_id":"cebpf4jnsgd1na2vs0mg"},{"bike_id":"447d10d0-d530-47a3-bd10-036a1c0ef5cd","system_id":"levelo_inurba_marseille","lat":43.270541,"lon":5.402669,"is_reserved":false,"is_disabled":false,"rental_uris":{"android":"levelo://app?vid=447d10d0-d530-47a3-bd10-036a1c0ef5cd","ios":"levelo://app?vid=447d10d0-d530-47a3-bd10-036a1c0ef5cd"},"vehicle_type_id":"4","last_reported":1747017666,"current_range_meters":33600,"station_id":"ce4bhk92rcd13ifvqgc0","pricing_plan_id":"cebpf4jnsgd1na2vs0mg"},{"bike_id":"38b2db02-1c31-4494-bdb6-f68fa693acf3","system_id":"levelo_inurba_marseille","lat":43.30337,"lon":5.40431,"is_reserved":false,"is_disabled":false,"rental_uris":{"android":"levelo://app?vid=38b2db02-1c31-4494-bdb6-f68fa693acf3","ios":"levelo://app?vid=38b2db02-1c31-4494-bdb6-f68fa693acf3"},"vehicle_type_id":"4","last_reported":1747017666,"current_range_meters":34000,"station_id":"ce4bh012rcd13ifvqd10","pricing_plan_id":"cebpf4jnsgd1na2vs0mg"},{"bike_id":"be2e2e9c-1671-438a-81c7-c62ba85a1774","system_id":"levelo_inurba_marseille","lat":43.2919,"lon":5.39303,"is_reserved":false,"is_disabled":false,"rental_uris":{"android":"levelo://app?vid=be2e2e9c-1671-438a-81c7-c62ba85a1774","ios":"levelo://app?vid=be2e2e9c-1671-438a-81c7-c62ba85a1774"},"vehicle_type_id":"4","last_reported":1747017666,"current_range_meters":34000,"station_id":"ce4bh192rcd13ifvqdd0","pricing_plan_id":"cebpf4jnsgd1na2vs0mg"},{"bike_id":"07ffa4f1-182f-4286-b0df-1e8e4502ad09","system_id":"levelo_inurba_marseille","lat":43.324862,"lon":5.365692,"is_reserved":false,"is_disabled":false,"rental_uris":{"android":"levelo://app?vid=07ffa4f1-182f-4286-b0df-1e8e4502ad09","ios":"levelo://app?vid=07ffa4f1-182f-4286-b0df-1e8e4502ad09"},"vehicle_type_id":"4","last_reported":1747017666,"current_range_meters":34000,"station_id":"ce4bhs12rcd13ifvqhvg","pricing_plan_id":"cebpf4jnsgd1na2vs0mg"},{"bike_id":"ac754be4-9e6a-4394-8db1-1077f1394b37","system_id":"levelo_inurba_marseille","lat":43.304815,"lon":5.372985,"is_reserved":false,"is_disabled":false,"rental_uris":{"android":"levelo://app?vid=ac754be4-9e6a-4394-8db1-1077f1394b37","ios":"levelo://app?vid=ac754be4-9e6a-4394-8db1-1077f1394b37"},"vehicle_type_id":"4","last_reported":1747017666,"current_range_meters":35200,"station_id":"","pricing_plan_id":"cebpf4jnsgd1na2vs0mg"},{"bike_id":"c08ee814-0b5b-49fa-9fc9-5f46a02b8c94","system_id":"levelo_inurba_marseille","lat":43.30417,"lon":5.38867,"is_reserved":false,"is_disabled":false,"rental_uris":{"android":"levelo://app?vid=c08ee814-0b5b-49fa-9fc9-5f46a02b8c94","ios":"levelo://app?vid=c08ee814-0b5b-49fa-9fc9-5f46a02b8c94"},"vehicle_type_id":"4","last_reported":1747017666,"current_range_meters":35200,"station_id":"ce4bgk12rcd13ifvqbi0","pricing_plan_id":"cebpf4jnsgd1na2vs0mg"},{"bike_id":"ef2801cc-b208-4c28-a0a3-29c51b3b7698","system_id":"levelo_inurba_marseille","lat":43.28684,"lon":5.36328,"is_reserved":false,"is_disabled":false,"rental_uris":{"android":"levelo://app?vid=ef2801cc-b208-4c28-a0a3-29c51b3b7698","ios":"levelo://app?vid=ef2801cc-b208-4c28-a0a3-29c51b3b7698"},"vehicle_type_id":"4","last_reported":1747017666,"current_range_meters":35200,"station_id":"ce4bhah2rcd13ifvqej0","pricing_plan_id":"cebpf4jnsgd1na2vs0mg"},{"bike_id":"3cd9ddf8-cdb9-41f4-b9f8-1906610f5e85","system_id":"levelo_inurba_marseille","lat":43.270723,"lon":5.422773,"is_reserved":false,"is_disabled":false,"rental_uris":{"android":"levelo://app?vid=3cd9ddf8-cdb9-41f4-b9f8-1906610f5e85","ios":"levelo://app?vid=3cd9ddf8-cdb9-41f4-b9f8-1906610f5e85"},"vehicle_type_id":"4","last_reported":1747017666,"current_range_meters":35200,"station_id":"ce4bhk92rcd13ifvqgb0","pricing_plan_id":"cebpf4jnsgd1na2vs0mg"},{"bike_id":"bac548b0-85e7-4f8c-8690-473ff718a864","system_id":"levelo_inurba_marseille","lat":43.30142,"lon":5.38084,"is_reserved":false,"is_disabled":false,"rental_uris":{"android":"levelo://app?vid=bac548b0-85e7-4f8c-8690-473ff718a864","ios":"levelo://app?vid=bac548b0-85e7-4f8c-8690-473ff718a864"},"vehicle_type_id":"4","last_reported":1747017666,"current_range_meters":36000,"station_id":"ce4bgjp2rcd13ifvqbh0","pricing_plan_id":"cebpf4jnsgd1na2vs0mg"},{"bike_id":"784c7ce9-aad4-45f6-83bf-c5a9d5fc34e9","system_id":"levelo_inurba_marseille","lat":43.30931,"lon":5.40188,"is_reserved":false,"is_disabled":false,"rental_uris":{"android":"levelo://app?vid=784c7ce9-aad4-45f6-83bf-c5a9d5fc34e9","ios":"levelo://app?vid=784c7ce9-aad4-45f6-83bf-c5a9d5fc34e9"},"vehicle_type_id":"4","last_reported":1747017666,"current_range_meters":36000,"station_id":"ce4bgvp2rcd13ifvqct0","pricing_plan_id":"cebpf4jnsgd1na2vs0mg"},{"bike_id":"4326929d-dc82-4c83-9c23-b0285927e933","system_id":"levelo_inurba_marseille","lat":43.305988,"lon":5.393568,"is_reserved":false,"is_disabled":false,"rental_uris":{"android":"levelo://app?vid=4326929d-dc82-4c83-9c23-b0285927e933","ios":"levelo://app?vid=4326929d-dc82-4c83-9c23-b0285927e933"},"vehicle_type_id":"4","last_reported":1747017666,"current_range_meters":36000,"station_id":"ce4bh0p2rcd13ifvqd80","pricing_plan_id":"cebpf4jnsgd1na2vs0mg"},{"bike_id":"af0b2712-6a5f-4350-8152-209465d0c5be","system_id":"levelo_inurba_marseille","lat":43.27923,"lon":5.39585,"is_reserved":false,"is_disabled":false,"rental_uris":{"android":"levelo://app?vid=af0b2712-6a5f-4350-8152-209465d0c5be","ios":"levelo://app?vid=af0b2712-6a5f-4350-8152-209465d0c5be"},"vehicle_type_id":"4","last_reported":1747017666,"current_range_meters":36000,"station_id":"ce4bhf92rcd13ifvqf40","pricing_plan_id":"cebpf4jnsgd1na2vs0mg"},{"bike_id":"63422ff2-53cc-4b01-8c2f-7c21da2cfeb1","system_id":"levelo_inurba_marseille","lat":43.245495,"lon":5.3954,"is_reserved":false,"is_disabled":false,"rental_uris":{"android":"levelo://app?vid=63422ff2-53cc-4b01-8c2f-7c21da2cfeb1","ios":"levelo://app?vid=63422ff2-53cc-4b01-8c2f-7c21da2cfeb1"},"vehicle_type_id":"4","last_reported":1747017666,"current_range_meters":36000,"station_id":"ce4bhlp2rcd13ifvqgjg","pricing_plan_id":"cebpf4jnsgd1na2vs0mg"},{"bike_id":"f034fb25-a413-4b3d-8a7e-3facd62258d3","system_id":"levelo_inurba_marseille","lat":43.322862,"lon":5.382803,"is_reserved":false,"is_disabled":false,"rental_uris":{"android":"levelo://app?vid=f034fb25-a413-4b3d-8a7e-3facd62258d3","ios":"levelo://app?vid=f034fb25-a413-4b3d-8a7e-3facd62258d3"},"vehicle_type_id":"4","last_reported":1747017666,"current_range_meters":36000,"station_id":"ce4bhr12rcd13ifvqhqg","pricing_plan_id":"cebpf4jnsgd1na2vs0mg"},{"bike_id":"9aa4c636-de8d-4a21-995c-8eb2ae689ea4","system_id":"levelo_inurba_marseille","lat":43.30458,"lon":5.37909,"is_reserved":false,"is_disabled":false,"rental_uris":{"android":"levelo://app?vid=9aa4c636-de8d-4a21-995c-8eb2ae689ea4","ios":"levelo://app?vid=9aa4c636-de8d-4a21-995c-8eb2ae689ea4"},"vehicle_type_id":"4","last_reported":1747017666,"current_range_meters":36400,"station_id":"ce4bgup2rcd13ifvqcn0","pricing_plan_id":"cebpf4jnsgd1na2vs0mg"},{"bike_id":"f4c123cb-30aa-42cd-87a6-10da448252b4","system_id":"levelo_inurba_marseille","lat":43.27496,"lon":5.424509,"is_reserved":false,"is_disabled":false,"rental_uris":{"android":"levelo://app?vid=f4c123cb-30aa-42cd-87a6-10da448252b4","ios":"levelo://app?vid=f4c123cb-30aa-42cd-87a6-10da448252b4"},"vehicle_type_id":"4","last_reported":1747017666,"current_range_meters":36400,"station_id":"ce4bhn92rcd13ifvqgrg","pricing_plan_id":"cebpf4jnsgd1na2vs0mg"},{"bike_id":"f474478a-9b6b-4824-89b5-7fd42d6193c2","system_id":"levelo_inurba_marseille","lat":43.287104,"lon":5.399832,"is_reserved":false,"is_disabled":false,"rental_uris":{"android":"levelo://app?vid=f474478a-9b6b-4824-89b5-7fd42d6193c2","ios":"levelo://app?vid=f474478a-9b6b-4824-89b5-7fd42d6193c2"},"vehicle_type_id":"4","last_reported":1747017666,"current_range_meters":36400,"station_id":"ce4bho92rcd13ifvqh3g","pricing_plan_id":"cebpf4jnsgd1na2vs0mg"},{"bike_id":"db4dfccc-5ea8-4d52-b10d-fe4c5d53bcc1","system_id":"levelo_inurba_marseille","lat":43.28443,"lon":5.39182,"is_reserved":false,"is_disabled":false,"rental_uris":{"android":"levelo://app?vid=db4dfccc-5ea8-4d52-b10d-fe4c5d53bcc1","ios":"levelo://app?vid=db4dfccc-5ea8-4d52-b10d-fe4c5d53bcc1"},"vehicle_type_id":"4","last_reported":1747017666,"current_range_meters":36400,"station_id":"ce4bhoh2rcd13ifvqh5g","pricing_plan_id":"cebpf4jnsgd1na2vs0mg"},{"bike_id":"689d1ebc-80c1-4c8c-9647-6e072db7ae2b","system_id":"levelo_inurba_marseille","lat":43.268625,"lon":5.370404,"is_reserved":false,"is_disabled":false,"rental_uris":{"android":"levelo://app?vid=689d1ebc-80c1-4c8c-9647-6e072db7ae2b","ios":"levelo://app?vid=689d1ebc-80c1-4c8c-9647-6e072db7ae2b"},"vehicle_type_id":"4","last_reported":1747017666,"current_range_meters":36800,"station_id":"","pricing_plan_id":"cebpf4jnsgd1na2vs0mg"},{"bike_id":"c67aa14a-a3ab-40c3-a545-54527d06c5d7","system_id":"levelo_inurba_marseille","lat":43.29241,"lon":5.37644,"is_reserved":false,"is_disabled":false,"rental_uris":{"android":"levelo://app?vid=c67aa14a-a3ab-40c3-a545-54527d06c5d7","ios":"levelo://app?vid=c67aa14a-a3ab-40c3-a545-54527d06c5d7"},"vehicle_type_id":"4","last_reported":1747017666,"current_range_meters":36800,"station_id":"ce4bgi12rcd13ifvqb80","pricing_plan_id":"cebpf4jnsgd1na2vs0mg"},{"bike_id":"7ff58ec2-0df0-4258-a0cd-10521225c440","system_id":"levelo_inurba_marseille","lat":43.314837,"lon":5.373081,"is_reserved":false,"is_disabled":false,"rental_uris":{"android":"levelo://app?vid=7ff58ec2-0df0-4258-a0cd-10521225c440","ios":"levelo://app?vid=7ff58ec2-0df0-4258-a0cd-10521225c440"},"vehicle_type_id":"4","last_reported":1747017666,"current_range_meters":36800,"station_id":"ce4bgt12rcd13ifvqcd0","pricing_plan_id":"cebpf4jnsgd1na2vs0mg"},{"bike_id":"1af5cac8-13d5-4b08-82ca-dcdc81a2592a","system_id":"levelo_inurba_marseille","lat":43.311671,"lon":5.387127,"is_reserved":false,"is_disabled":false,"rental_uris":{"android":"levelo://app?vid=1af5cac8-13d5-4b08-82ca-dcdc81a2592a","ios":"levelo://app?vid=1af5cac8-13d5-4b08-82ca-dcdc81a2592a"},"vehicle_type_id":"4","last_reported":1747017666,"current_range_meters":36800,"station_id":"ce4bgv12rcd13ifvqcp0","pricing_plan_id":"cebpf4jnsgd1na2vs0mg"},{"bike_id":"bed86854-3e0d-48af-ac48-baac8e6a5ebf","system_id":"levelo_inurba_marseille","lat":43.2901,"lon":5.38632,"is_reserved":false,"is_disabled":false,"rental_uris":{"android":"levelo://app?vid=bed86854-3e0d-48af-ac48-baac8e6a5ebf","ios":"levelo://app?vid=bed86854-3e0d-48af-ac48-baac8e6a5ebf"},"vehicle_type_id":"4","last_reported":1747017666,"current_range_meters":36800,"station_id":"ce4bh4p2rcd13ifvqe0g","pricing_plan_id":"cebpf4jnsgd1na2vs0mg"},{"bike_id":"cafaf4fc-799a-437c-9159-b8a3d11e0793","system_id":"levelo_inurba_marseille","lat":43.265424,"lon":5.390163,"is_reserved":false,"is_disabled":false,"rental_uris":{"android":"levelo://app?vid=cafaf4fc-799a-437c-9159-b8a3d11e0793","ios":"levelo://app?vid=cafaf4fc-799a-437c-9159-b8a3d11e0793"},"vehicle_type_id":"4","last_reported":1747017666,"current_range_meters":36800,"station_id":"ce4bhe12rcd13ifvqf30","pricing_plan_id":"cebpf4jnsgd1na2vs0mg"},{"bike_id":"3d6a443c-3082-46b6-b433-9c428974a537","system_id":"levelo_inurba_marseille","lat":43.257205,"lon":5.411133,"is_reserved":false,"is_disabled":false,"rental_uris":{"android":"levelo://app?vid=3d6a443c-3082-46b6-b433-9c428974a537","ios":"levelo://app?vid=3d6a443c-3082-46b6-b433-9c428974a537"},"vehicle_type_id":"4","last_reported":1747017666,"current_range_meters":36800,"station_id":"ce4bhkp2rcd13ifvqgd0","pricing_plan_id":"cebpf4jnsgd1na2vs0mg"},{"bike_id":"8d182125-350e-4042-b8fc-3ebc3bd8579b","system_id":"levelo_inurba_marseille","lat":43.241762,"lon":5.397332,"is_reserved":false,"is_disabled":false,"rental_uris":{"android":"levelo://app?vid=8d182125-350e-4042-b8fc-3ebc3bd8579b","ios":"levelo://app?vid=8d182125-350e-4042-b8fc-3ebc3bd8579b"},"vehicle_type_id":"4","last_reported":1747017666,"current_range_meters":36800,"station_id":"ce4bhn12rcd13ifvqgpg","pricing_plan_id":"cebpf4jnsgd1na2vs0mg"},{"bike_id":"8fa99676-6a43-47e4-a439-c22a77d8279c","system_id":"levelo_inurba_marseille","lat":43.23196,"lon":5.35546,"is_reserved":false,"is_disabled":false,"rental_uris":{"android":"levelo://app?vid=8fa99676-6a43-47e4-a439-c22a77d8279c","ios":"levelo://app?vid=8fa99676-6a43-47e4-a439-c22a77d8279c"},"vehicle_type_id":"4","last_reported":1747017666,"current_range_meters":36800,"station_id":"ce4bhu92rcd13ifvqi70","pricing_plan_id":"cebpf4jnsgd1na2vs0mg"},{"bike_id":"cddd1419-8bab-42a2-815b-67432a615616","system_id":"levelo_inurba_marseille","lat":43.31358,"lon":5.38045,"is_reserved":false,"is_disabled":false,"rental_uris":{"android":"levelo://app?vid=cddd1419-8bab-42a2-815b-67432a615616","ios":"levelo://app?vid=cddd1419-8bab-42a2-815b-67432a615616"},"vehicle_type_id":"4","last_reported":1747017666,"current_range_meters":37600,"station_id":"","pricing_plan_id":"cebpf4jnsgd1na2vs0mg"},{"bike_id":"ce934962-e8a9-4a38-bf4a-e85149105ca9","system_id":"levelo_inurba_marseille","lat":43.305352,"lon":5.384333,"is_reserved":false,"is_disabled":false,"rental_uris":{"android":"levelo://app?vid=ce934962-e8a9-4a38-bf4a-e85149105ca9","ios":"levelo://app?vid=ce934962-e8a9-4a38-bf4a-e85149105ca9"},"vehicle_type_id":"4","last_reported":1747017666,"current_range_meters":37600,"station_id":"ce4bgg92rcd13ifvqb30","pricing_plan_id":"cebpf4jnsgd1na2vs0mg"},{"bike_id":"d2a3ac17-910c-40ae-a0d8-d6709326ccc0","system_id":"levelo_inurba_marseille","lat":43.30134,"lon":5.39926,"is_reserved":false,"is_disabled":false,"rental_uris":{"android":"levelo://app?vid=d2a3ac17-910c-40ae-a0d8-d6709326ccc0","ios":"levelo://app?vid=d2a3ac17-910c-40ae-a0d8-d6709326ccc0"},"vehicle_type_id":"4","last_reported":1747017666,"current_range_meters":37600,"station_id":"ce4bh0h2rcd13ifvqd40","pricing_plan_id":"cebpf4jnsgd1na2vs0mg"},{"bike_id":"14b5643f-b1f9-43f8-87a5-66f1cdf902e7","system_id":"levelo_inurba_marseille","lat":43.28347,"lon":5.38114,"is_reserved":false,"is_disabled":false,"rental_uris":{"android":"levelo://app?vid=14b5643f-b1f9-43f8-87a5-66f1cdf902e7","ios":"levelo://app?vid=14b5643f-b1f9-43f8-87a5-66f1cdf902e7"},"vehicle_type_id":"4","last_reported":1747017666,"current_range_meters":37600,"station_id":"ce4bh412rcd13ifvqdr0","pricing_plan_id":"cebpf4jnsgd1na2vs0mg"},{"bike_id":"13462136-45a6-48e2-a1d3-4986fe4692db","system_id":"levelo_inurba_marseille","lat":43.286648,"lon":5.363502,"is_reserved":false,"is_disabled":false,"rental_uris":{"android":"levelo://app?vid=13462136-45a6-48e2-a1d3-4986fe4692db","ios":"levelo://app?vid=13462136-45a6-48e2-a1d3-4986fe4692db"},"vehicle_type_id":"4","last_reported":1747017666,"current_range_meters":37600,"station_id":"ce4bhah2rcd13ifvqej0","pricing_plan_id":"cebpf4jnsgd1na2vs0mg"},{"bike_id":"9e90a0e0-a05a-4a5d-8f2b-cccd81114608","system_id":"levelo_inurba_marseille","lat":43.28666,"lon":5.36351,"is_reserved":false,"is_disabled":false,"rental_uris":{"android":"levelo://app?vid=9e90a0e0-a05a-4a5d-8f2b-cccd81114608","ios":"levelo://app?vid=9e90a0e0-a05a-4a5d-8f2b-cccd81114608"},"vehicle_type_id":"4","last_reported":1747017666,"current_range_meters":37600,"station_id":"ce4bhah2rcd13ifvqej0","pricing_plan_id":"cebpf4jnsgd1na2vs0mg"},{"bike_id":"45be4e43-f09d-4f33-8f92-d0ac3a0e463e","system_id":"levelo_inurba_marseille","lat":43.27894,"lon":5.38011,"is_reserved":false,"is_disabled":false,"rental_uris":{"android":"levelo://app?vid=45be4e43-f09d-4f33-8f92-d0ac3a0e463e","ios":"levelo://app?vid=45be4e43-f09d-4f33-8f92-d0ac3a0e463e"},"vehicle_type_id":"4","last_reported":1747017666,"current_range_meters":37600,"station_id":"ce4bhf92rcd13ifvqf50","pricing_plan_id":"cebpf4jnsgd1na2vs0mg"},{"bike_id":"47e4e028-9bba-4ff7-9b4b-0918dc355bbb","system_id":"levelo_inurba_marseille","lat":43.2548,"lon":5.37679,"is_reserved":false,"is_disabled":false,"rental_uris":{"android":"levelo://app?vid=47e4e028-9bba-4ff7-9b4b-0918dc355bbb","ios":"levelo://app?vid=47e4e028-9bba-4ff7-9b4b-0918dc355bbb"},"vehicle_type_id":"4","last_reported":1747017666,"current_range_meters":37600,"station_id":"ce4bhh12rcd13ifvqff0","pricing_plan_id":"cebpf4jnsgd1na2vs0mg"},{"bike_id":"6b63f256-e4c9-423c-9099-134b1b80e406","system_id":"levelo_inurba_marseille","lat":43.26488,"lon":5.39586,"is_reserved":false,"is_disabled":false,"rental_uris":{"android":"levelo://app?vid=6b63f256-e4c9-423c-9099-134b1b80e406","ios":"levelo://app?vid=6b63f256-e4c9-423c-9099-134b1b80e406"},"vehicle_type_id":"4","last_reported":1747017666,"current_range_meters":37600,"station_id":"ce4bhi12rcd13ifvqfq0","pricing_plan_id":"cebpf4jnsgd1na2vs0mg"},{"bike_id":"a826d484-3a49-48c6-acf8-a81b099b9897","system_id":"levelo_inurba_marseille","lat":43.25712,"lon":5.41122,"is_reserved":false,"is_disabled":false,"rental_uris":{"android":"levelo://app?vid=a826d484-3a49-48c6-acf8-a81b099b9897","ios":"levelo://app?vid=a826d484-3a49-48c6-acf8-a81b099b9897"},"vehicle_type_id":"4","last_reported":1747017666,"current_range_meters":37600,"station_id":"ce4bhkp2rcd13ifvqgd0","pricing_plan_id":"cebpf4jnsgd1na2vs0mg"},{"bike_id":"a3571ddc-fff9-4b05-a012-042374fc13a9","system_id":"levelo_inurba_marseille","lat":43.24074,"lon":5.37682,"is_reserved":false,"is_disabled":false,"rental_uris":{"android":"levelo://app?vid=a3571ddc-fff9-4b05-a012-042374fc13a9","ios":"levelo://app?vid=a3571ddc-fff9-4b05-a012-042374fc13a9"},"vehicle_type_id":"4","last_reported":1747017666,"current_range_meters":37600,"station_id":"ce4bhnp2rcd13ifvqgvg","pricing_plan_id":"cebpf4jnsgd1na2vs0mg"},{"bike_id":"fd8f2c60-0cee-402f-86bd-bf9f27ea9ecc","system_id":"levelo_inurba_marseille","lat":43.287031,"lon":5.399941,"is_reserved":false,"is_disabled":false,"rental_uris":{"android":"levelo://app?vid=fd8f2c60-0cee-402f-86bd-bf9f27ea9ecc","ios":"levelo://app?vid=fd8f2c60-0cee-402f-86bd-bf9f27ea9ecc"},"vehicle_type_id":"4","last_reported":1747017666,"current_range_meters":37600,"station_id":"ce4bho92rcd13ifvqh3g","pricing_plan_id":"cebpf4jnsgd1na2vs0mg"},{"bike_id":"436ff830-5b63-492e-9713-813611e683f9","system_id":"levelo_inurba_marseille","lat":43.286984,"lon":5.399895,"is_reserved":false,"is_disabled":false,"rental_uris":{"android":"levelo://app?vid=436ff830-5b63-492e-9713-813611e683f9","ios":"levelo://app?vid=436ff830-5b63-492e-9713-813611e683f9"},"vehicle_type_id":"4","last_reported":1747017666,"current_range_meters":37600,"station_id":"ce4bho92rcd13ifvqh3g","pricing_plan_id":"cebpf4jnsgd1na2vs0mg"},{"bike_id":"7940c0d6-e844-4d87-824b-6d8453dcde0f","system_id":"levelo_inurba_marseille","lat":43.32654,"lon":5.40984,"is_reserved":false,"is_disabled":false,"rental_uris":{"android":"levelo://app?vid=7940c0d6-e844-4d87-824b-6d8453dcde0f","ios":"levelo://app?vid=7940c0d6-e844-4d87-824b-6d8453dcde0f"},"vehicle_type_id":"4","last_reported":1747017666,"current_range_meters":37600,"station_id":"ce4bhpp2rcd13ifvqhgg","pricing_plan_id":"cebpf4jnsgd1na2vs0mg"},{"bike_id":"9e20ccc5-7981-4e19-8aec-da448e4da896","system_id":"levelo_inurba_marseille","lat":43.325499,"lon":5.414344,"is_reserved":false,"is_disabled":false,"rental_uris":{"android":"levelo://app?vid=9e20ccc5-7981-4e19-8aec-da448e4da896","ios":"levelo://app?vid=9e20ccc5-7981-4e19-8aec-da448e4da896"},"vehicle_type_id":"4","last_reported":1747017666,"current_range_meters":37600,"station_id":"ce4bhq12rcd13ifvqhhg","pricing_plan_id":"cebpf4jnsgd1na2vs0mg"},{"bike_id":"e4a5b668-49d2-4f80-87ea-9e8892a9ca4c","system_id":"levelo_inurba_marseille","lat":43.3207,"lon":5.41541,"is_reserved":false,"is_disabled":false,"rental_uris":{"android":"levelo://app?vid=e4a5b668-49d2-4f80-87ea-9e8892a9ca4c","ios":"levelo://app?vid=e4a5b668-49d2-4f80-87ea-9e8892a9ca4c"},"vehicle_type_id":"4","last_reported":1747017666,"current_range_meters":37600,"station_id":"ce4bhq92rcd13ifvqhkg","pricing_plan_id":"cebpf4jnsgd1na2vs0mg"},{"bike_id":"70ce2657-bd55-46b4-8bfe-4d670279c109","system_id":"levelo_inurba_marseille","lat":43.3362,"lon":5.41022,"is_reserved":false,"is_disabled":false,"rental_uris":{"android":"levelo://app?vid=70ce2657-bd55-46b4-8bfe-4d670279c109","ios":"levelo://app?vid=70ce2657-bd55-46b4-8bfe-4d670279c109"},"vehicle_type_id":"4","last_reported":1747017666,"current_range_meters":37600,"station_id":"ce4bhqh2rcd13ifvqhmg","pricing_plan_id":"cebpf4jnsgd1na2vs0mg"},{"bike_id":"907d895f-74c8-47f1-b487-9221cba2a3f7","system_id":"levelo_inurba_marseille","lat":43.26931,"lon":5.40273,"is_reserved":false,"is_disabled":false,"rental_uris":{"android":"levelo://app?vid=907d895f-74c8-47f1-b487-9221cba2a3f7","ios":"levelo://app?vid=907d895f-74c8-47f1-b487-9221cba2a3f7"},"vehicle_type_id":"4","last_reported":1747017666,"current_range_meters":37600,"station_id":"cjm6bp8fraef2m0cb0m0","pricing_plan_id":"cebpf4jnsgd1na2vs0mg"},{"bike_id":"08f8c426-740a-464d-b7e9-59459611d40c","system_id":"levelo_inurba_marseille","lat":43.22492,"lon":5.34788,"is_reserved":false,"is_disabled":false,"rental_uris":{"android":"levelo://app?vid=08f8c426-740a-464d-b7e9-59459611d40c","ios":"levelo://app?vid=08f8c426-740a-464d-b7e9-59459611d40c"},"vehicle_type_id":"4","last_reported":1747017666,"current_range_meters":37600,"station_id":"st_cvj5dfep6f1abm77gieg","pricing_plan_id":"cebpf4jnsgd1na2vs0mg"},{"bike_id":"c62dc8d2-efe0-41ef-8067-941c6a5efe19","system_id":"levelo_inurba_marseille","lat":43.30159,"lon":5.38078,"is_reserved":false,"is_disabled":false,"rental_uris":{"android":"levelo://app?vid=c62dc8d2-efe0-41ef-8067-941c6a5efe19","ios":"levelo://app?vid=c62dc8d2-efe0-41ef-8067-941c6a5efe19"},"vehicle_type_id":"4","last_reported":1747017666,"current_range_meters":38000,"station_id":"ce4bgjp2rcd13ifvqbh0","pricing_plan_id":"cebpf4jnsgd1na2vs0mg"},{"bike_id":"36d0038b-6d93-4373-9089-48635aba4dfb","system_id":"levelo_inurba_marseille","lat":43.29665,"lon":5.36612,"is_reserved":false,"is_disabled":false,"rental_uris":{"android":"levelo://app?vid=36d0038b-6d93-4373-9089-48635aba4dfb","ios":"levelo://app?vid=36d0038b-6d93-4373-9089-48635aba4dfb"},"vehicle_type_id":"4","last_reported":1747017666,"current_range_meters":38000,"station_id":"ce4bgn12rcd13ifvqbt0","pricing_plan_id":"cebpf4jnsgd1na2vs0mg"},{"bike_id":"524e002b-a2ae-4d2e-9cd8-cfbd302bd327","system_id":"levelo_inurba_marseille","lat":43.31486,"lon":5.37267,"is_reserved":false,"is_disabled":false,"rental_uris":{"android":"levelo://app?vid=524e002b-a2ae-4d2e-9cd8-cfbd302bd327","ios":"levelo://app?vid=524e002b-a2ae-4d2e-9cd8-cfbd302bd327"},"vehicle_type_id":"4","last_reported":1747017666,"current_range_meters":38000,"station_id":"ce4bgt12rcd13ifvqcd0","pricing_plan_id":"cebpf4jnsgd1na2vs0mg"},{"bike_id":"8814ab9f-e39e-4331-9fde-2c6fe551cb85","system_id":"levelo_inurba_marseille","lat":43.30811,"lon":5.37682,"is_reserved":false,"is_disabled":false,"rental_uris":{"android":"levelo://app?vid=8814ab9f-e39e-4331-9fde-2c6fe551cb85","ios":"levelo://app?vid=8814ab9f-e39e-4331-9fde-2c6fe551cb85"},"vehicle_type_id":"4","last_reported":1747017666,"current_range_meters":38000,"station_id":"ce4bgv92rcd13ifvqcq0","pricing_plan_id":"cebpf4jnsgd1na2vs0mg"},{"bike_id":"d7d3ba9e-0e11-41c5-95a9-8c8a4ccd788a","system_id":"levelo_inurba_marseille","lat":43.307809,"lon":5.376501,"is_reserved":false,"is_disabled":false,"rental_uris":{"android":"levelo://app?vid=d7d3ba9e-0e11-41c5-95a9-8c8a4ccd788a","ios":"levelo://app?vid=d7d3ba9e-0e11-41c5-95a9-8c8a4ccd788a"},"vehicle_type_id":"4","last_reported":1747017666,"current_range_meters":38000,"station_id":"ce4bgv92rcd13ifvqcq0","pricing_plan_id":"cebpf4jnsgd1na2vs0mg"},{"bike_id":"2bf711b2-1142-4c01-9fb1-74e4fed3e63b","system_id":"levelo_inurba_marseille","lat":43.30241,"lon":5.40084,"is_reserved":false,"is_disabled":false,"rental_uris":{"android":"levelo://app?vid=2bf711b2-1142-4c01-9fb1-74e4fed3e63b","ios":"levelo://app?vid=2bf711b2-1142-4c01-9fb1-74e4fed3e63b"},"vehicle_type_id":"4","last_reported":1747017666,"current_range_meters":38000,"station_id":"ce4bgvh2rcd13ifvqcs0","pricing_plan_id":"cebpf4jnsgd1na2vs0mg"},{"bike_id":"f3c12cce-61b5-4f6f-86ec-c6e9a17f8b80","system_id":"levelo_inurba_marseille","lat":43.31331,"lon":5.39694,"is_reserved":false,"is_disabled":false,"rental_uris":{"android":"levelo://app?vid=f3c12cce-61b5-4f6f-86ec-c6e9a17f8b80","ios":"levelo://app?vid=f3c12cce-61b5-4f6f-86ec-c6e9a17f8b80"},"vehicle_type_id":"4","last_reported":1747017666,"current_range_meters":38000,"station_id":"ce4bgvp2rcd13ifvqcu0","pricing_plan_id":"cebpf4jnsgd1na2vs0mg"},{"bike_id":"97ed3292-cd8b-423f-8aab-dbc6065e3323","system_id":"levelo_inurba_marseille","lat":43.30884,"lon":5.39617,"is_reserved":false,"is_disabled":false,"rental_uris":{"android":"levelo://app?vid=97ed3292-cd8b-423f-8aab-dbc6065e3323","ios":"levelo://app?vid=97ed3292-cd8b-423f-8aab-dbc6065e3323"},"vehicle_type_id":"4","last_reported":1747017666,"current_range_meters":38000,"station_id":"ce4bh012rcd13ifvqcv0","pricing_plan_id":"cebpf4jnsgd1na2vs0mg"},{"bike_id":"01064440-d6ec-4518-b756-454acd08f67a","system_id":"levelo_inurba_marseille","lat":43.30884,"lon":5.3962,"is_reserved":false,"is_disabled":false,"rental_uris":{"android":"levelo://app?vid=01064440-d6ec-4518-b756-454acd08f67a","ios":"levelo://app?vid=01064440-d6ec-4518-b756-454acd08f67a"},"vehicle_type_id":"4","last_reported":1747017666,"current_range_meters":38000,"station_id":"ce4bh012rcd13ifvqcv0","pricing_plan_id":"cebpf4jnsgd1na2vs0mg"},{"bike_id":"006a64be-727b-4661-9ce4-41fc85f0ed76","system_id":"levelo_inurba_marseille","lat":43.303242,"lon":5.404385,"is_reserved":false,"is_disabled":false,"rental_uris":{"android":"levelo://app?vid=006a64be-727b-4661-9ce4-41fc85f0ed76","ios":"levelo://app?vid=006a64be-727b-4661-9ce4-41fc85f0ed76"},"vehicle_type_id":"4","last_reported":1747017666,"current_range_meters":38000,"station_id":"ce4bh012rcd13ifvqd10","pricing_plan_id":"cebpf4jnsgd1na2vs0mg"},{"bike_id":"c2a99405-03d6-4933-a186-7ea77056d7c0","system_id":"levelo_inurba_marseille","lat":43.29797,"lon":5.404083,"is_reserved":false,"is_disabled":false,"rental_uris":{"android":"levelo://app?vid=c2a99405-03d6-4933-a186-7ea77056d7c0","ios":"levelo://app?vid=c2a99405-03d6-4933-a186-7ea77056d7c0"},"vehicle_type_id":"4","last_reported":1747017666,"current_range_meters":38000,"station_id":"ce4bh112rcd13ifvqd90","pricing_plan_id":"cebpf4jnsgd1na2vs0mg"},{"bike_id":"1629bb5b-340a-4d23-a4ac-967a3ec04b0a","system_id":"levelo_inurba_marseille","lat":43.292465,"lon":5.409082,"is_reserved":false,"is_disabled":false,"rental_uris":{"android":"levelo://app?vid=1629bb5b-340a-4d23-a4ac-967a3ec04b0a","ios":"levelo://app?vid=1629bb5b-340a-4d23-a4ac-967a3ec04b0a"},"vehicle_type_id":"4","last_reported":1747017666,"current_range_meters":38000,"station_id":"ce4bh192rcd13ifvqdc0","pricing_plan_id":"cebpf4jnsgd1na2vs0mg"},{"bike_id":"a7a014fc-96d5-4016-b4b6-4cd6cd64bc59","system_id":"levelo_inurba_marseille","lat":43.292504,"lon":5.409081,"is_reserved":false,"is_disabled":false,"rental_uris":{"android":"levelo://app?vid=a7a014fc-96d5-4016-b4b6-4cd6cd64bc59","ios":"levelo://app?vid=a7a014fc-96d5-4016-b4b6-4cd6cd64bc59"},"vehicle_type_id":"4","last_reported":1747017666,"current_range_meters":38000,"station_id":"ce4bh192rcd13ifvqdc0","pricing_plan_id":"cebpf4jnsgd1na2vs0mg"},{"bike_id":"90e6c42d-2cbb-471b-a4a7-67ed571b6807","system_id":"levelo_inurba_marseille","lat":43.2919,"lon":5.39339,"is_reserved":false,"is_disabled":false,"rental_uris":{"android":"levelo://app?vid=90e6c42d-2cbb-471b-a4a7-67ed571b6807","ios":"levelo://app?vid=90e6c42d-2cbb-471b-a4a7-67ed571b6807"},"vehicle_type_id":"4","last_reported":1747017666,"current_range_meters":38000,"station_id":"ce4bh192rcd13ifvqdd0","pricing_plan_id":"cebpf4jnsgd1na2vs0mg"},{"bike_id":"77167601-9d95-489b-8eb8-adc53a663a92","system_id":"levelo_inurba_marseille","lat":43.28552,"lon":5.39509,"is_reserved":false,"is_disabled":false,"rental_uris":{"android":"levelo://app?vid=77167601-9d95-489b-8eb8-adc53a663a92","ios":"levelo://app?vid=77167601-9d95-489b-8eb8-adc53a663a92"},"vehicle_type_id":"4","last_reported":1747017666,"current_range_meters":38000,"station_id":"ce4bh292rcd13ifvqdg0","pricing_plan_id":"cebpf4jnsgd1na2vs0mg"},{"bike_id":"1edb4baf-8d82-4011-a946-d558d6299700","system_id":"levelo_inurba_marseille","lat":43.29405,"lon":5.38645,"is_reserved":false,"is_disabled":false,"rental_uris":{"android":"levelo://app?vid=1edb4baf-8d82-4011-a946-d558d6299700","ios":"levelo://app?vid=1edb4baf-8d82-4011-a946-d558d6299700"},"vehicle_type_id":"4","last_reported":1747017666,"current_range_meters":38000,"station_id":"ce4bh2h2rcd13ifvqdh0","pricing_plan_id":"cebpf4jnsgd1na2vs0mg"},{"bike_id":"47a3a055-db25-488d-85c7-79705f46a318","system_id":"levelo_inurba_marseille","lat":43.29416,"lon":5.38645,"is_reserved":false,"is_disabled":false,"rental_uris":{"android":"levelo://app?vid=47a3a055-db25-488d-85c7-79705f46a318","ios":"levelo://app?vid=47a3a055-db25-488d-85c7-79705f46a318"},"vehicle_type_id":"4","last_reported":1747017666,"current_range_meters":38000,"station_id":"ce4bh2h2rcd13ifvqdh0","pricing_plan_id":"cebpf4jnsgd1na2vs0mg"},{"bike_id":"8908c1b2-433d-4165-8c1c-69cc96e6273d","system_id":"levelo_inurba_marseille","lat":43.29395,"lon":5.38659,"is_reserved":false,"is_disabled":false,"rental_uris":{"android":"levelo://app?vid=8908c1b2-433d-4165-8c1c-69cc96e6273d","ios":"levelo://app?vid=8908c1b2-433d-4165-8c1c-69cc96e6273d"},