{"last_updated":1717247221,"ttl":30,"version":"2.2","data":{"bikes":[{"bike_id":"578d900a-f88b-4da2-ad35-ff2bbd11eb8f","system_id":"levelo_inurba_marseille","lat":43.31341,"lon":5.367098,"is_reserved":false,"is_disabled":false,"rental_uris":{"android":"levelo://app?vid=578d900a-f88b-4da2-ad35-ff2bbd11eb8f","ios":"levelo://app?vid=578d900a-f88b-4da2-ad35-ff2bbd11eb8f"},"vehicle_type_id":"4","last_reported":1717247221,"current_range_meters":24800,"station_id":"ce4bgr92rcd13ifvqc6g","pricing_plan_id":"cebpf4jnsgd1na2vs0mg"},{"bike_id":"cdcaeaee-e8f1-4c0e-b83f-4628f788a9e9","system_id":"levelo_inurba_marseille","lat":43.31341,"lon":5.367098,"is_reserved":false,"is_disabled":false,"rental_uris":{"android":"levelo://app?vid=cdcaeaee-e8f1-4c0e-b83f-4628f788a9e9","ios":"levelo://app?vid=cdcaeaee-e8f1-4c0e-b83f-4628f788a9e9"},"vehicle_type_id":"4","last_reported":1717247221,"current_range_meters":8800,"station_id":"ce4bgr92rcd13ifvqc6g","pricing_plan_id":"cebpf4jnsgd1na2vs0mg"},{"bike_id":"4c8feb69-d09a-4b26-b00d-849f4cccd218","system_id":"levelo_inurba_marseille","lat":43.31341,"lon":5.367098,"is_reserved":false,"is_disabled":false,"rental_uris":{"android":"levelo://app?vid=4c8feb69-d09a-4b26-b00d-849f4cccd218","ios":"levelo://app?vid=4c8feb69-d09a-4b26-b00d-849f4cccd218"},"vehicle_type_id":"4","last_reported":1717247221,"current_range_meters":17600,"station_id":"ce4bgr92rcd13ifvqc6g","pricing_plan_id":"cebpf4jnsgd1na2vs0mg"},{"bike_id":"74f49e7d-df27-4222-ad53-531666b3a6a6","system_id":"levelo_inurba_marseille","lat":43.313391,"lon":5.36706,"is_reserved":false,"is_disabled":false,"rental_uris":{"android":"levelo://app?vid=74f49e7d-df27-4222-ad53-531666b3a6a6","ios":"levelo://app?vid=74f49e7d-df27-4222-ad53-531666b3a6a6"},"vehicle_type_id":"4","last_reported":1717247221,"current_range_meters":31200,"station_id":"ce4bgr92rcd13ifvqc6g","pricing_plan_id":"cebpf4jnsgd1na2vs0mg"},{"bike_id":"dc4ba024-627a-4090-ba09-c6cc59589601","system_id":"levelo_inurba_marseille","lat":43.31341,"lon":5.367098,"is_reserved":false,"is_disabled":false,"rental_uris":{"android":"levelo://app?vid=dc4ba024-627a-4090-ba09-c6cc59589601","ios":"levelo://app?vid=dc4ba024-627a-4090-ba09-c6cc59589601"},"vehicle_type_id":"4","last_reported":1717247221,"current_range_meters":15600,"station_id":"ce4bgr92rcd13ifvqc6g","pricing_plan_id":"cebpf4jnsgd1na2vs0mg"},{"bike_id":"03bccedd-5e85-4735-8649-c0c4f12c1228","system_id":"levelo_inurba_marseille","lat":43.312239,"lon":5.368562,"is_reserved":false,"is_disabled":false,"rental_uris":{"android":"levelo://app?vid=03bccedd-5e85-4735-8649-c0c4f12c1228","ios":"levelo://app?vid=03bccedd-5e85-4735-8649-c0c4f12c1228"},"vehicle_type_id":"4","last_reported":1717247221,"current_range_meters":1200,"station_id":"ce4bgl92rcd13ifvqbq0","pricing_plan_id":"cebpf4jnsgd1na2vs0mg"},{"bike_id":"66d34d8d-a5cc-4226-86b4-0c7b8acecc1e","system_id":"levelo_inurba_marseille","lat":43.312239,"lon":5.368562,"is_reserved":false,"is_disabled":false,"rental_uris":{"android":"levelo://app?vid=66d34d8d-a5cc-4226-86b4-0c7b8acecc1e","ios":"levelo://app?vid=66d34d8d-a5cc-4226-86b4-0c7b8acecc1e"},"vehicle_type_id":"4","last_reported":1717247221,"current_range_meters":22400,"station_id":"ce4bgl92rcd13ifvqbq0","pricing_plan_id":"cebpf4jnsgd1na2vs0mg"},{"bike_id":"1946689c-75f0-40ec-b598-90b8c0ec71f8","system_id":"levelo_inurba_marseille","lat":43.312239,"lon":5.368562,"is_reserved":false,"is_disabled":false,"rental_uris":{"android":"levelo://app?vid=1946689c-75f0-40ec-b598-90b8c0ec71f8","ios":"levelo://app?vid=1946689c-75f0-40ec-b598-90b8c0ec71f8"},"vehicle_type_id":"4","last_reported":1717247221,"current_range_meters":22000,"station_id":"ce4bgl92rcd13ifvqbq0","pricing_plan_id":"cebpf4jnsgd1na2vs0mg"},{"bike_id":"f472ffd6-6e89-4b3f-a7dc-3f6c7ec1f7ea","system_id":"levelo_inurba_marseille","lat":43.312239,"lon":5.368562,"is_reserved":false,"is_disabled":false,"rental_uris":{"android":"levelo://app?vid=f472ffd6-6e89-4b3f-a7dc-3f6c7ec1f7ea","ios":"levelo://app?vid=f472ffd6-6e89-4b3f-a7dc-3f6c7ec1f7ea"},"vehicle_type_id":"4","last_reported":1717247221,"current_range_meters":27600,"station_id":"ce4bgl92rcd13ifvqbq0","pricing_plan_id":"cebpf4jnsgd1na2vs0mg"},{"bike_id":"7457e873-89f7-4844-b191-90a17cf295b6","system_id":"levelo_inurba_marseille","lat":43.312239,"lon":5.368562,"is_reserved":false,"is_disabled":false,"rental_uris":{"android":"levelo://app?vid=7457e873-89f7-4844-b191-90a17cf295b6","ios":"levelo://app?vid=7457e873-89f7-4844-b191-90a17cf295b6"},"vehicle_type_id":"4","last_reported":1717247221,"current_range_meters":26400,"station_id":"ce4bgl92rcd13ifvqbq0","pricing_plan_id":"cebpf4jnsgd1na2vs0mg"},{"bike_id":"0353bda5-5314-4cf2-879d-20651a7b0a80","system_id":"levelo_inurba_marseille","lat":43.312239,"lon":5.368562,"is_reserved":false,"is_disabled":false,"rental_uris":{"android":"levelo://app?vid=0353bda5-5314-4cf2-879d-20651a7b0a80","ios":"levelo://app?vid=0353bda5-5314-4cf2-879d-20651a7b0a80"},"vehicle_type_id":"4","last_reported":1717247221,"current_range_meters":24800,"station_id":"ce4bgl92rcd13ifvqbq0","pricing_plan_id":"cebpf4jnsgd1na2vs0mg"},{"bike_id":"207960f0-816b-4d2b-adf8-b9adce403efc","system_id":"levelo_inurba_marseille","lat":43.312239,"lon":5.368562,"is_reserved":false,"is_disabled":false,"rental_uris":{"android":"levelo://app?vid=207960f0-816b-4d2b-adf8-b9adce403efc","ios":"levelo://app?vid=207960f0-816b-4d2b-adf8-b9adce403efc"},"vehicle_type_id":"4","last_reported":1717247221,"current_range_meters":24400,"station_id":"ce4bgl92rcd13ifvqbq0","pricing_plan_id":"cebpf4jnsgd1na2vs0mg"},{"bike_id":"ae7726c8-a077-402b-9a12-45b84a7573be","system_id":"levelo_inurba_marseille","lat":43.312239,"lon":5.368562,"is_reserved":false,"is_disabled":false,"rental_uris":{"android":"levelo://app?vid=ae7726c8-a077-402b-9a12-45b84a7573be","ios":"levelo://app?vid=ae7726c8-a077-402b-9a12-45b84a7573be"},"vehicle_type_id":"4","last_reported":1717247221,"current_range_meters":1200,"station_id":"ce4bgl92rcd13ifvqbq0","pricing_plan_id":"cebpf4jnsgd1na2vs0mg"},{"bike_id":"9a28e142-1384-4f7b-9ea8-2ea3baa848df","system_id":"levelo_inurba_marseille","lat":43.312239,"lon":5.368562,"is_reserved":false,"is_disabled":false,"rental_uris":{"android":"levelo://app?vid=9a28e142-1384-4f7b-9ea8-2ea3baa848df","ios":"levelo://app?vid=9a28e142-1384-4f7b-9ea8-2ea3baa848df"},"vehicle_type_id":"4","last_reported":1717247221,"current_range_meters":21600,"station_id":"ce4bgl92rcd13ifvqbq0","pricing_plan_id":"cebpf4jnsgd1na2vs0mg"},{"bike_id":"3035ebb4-5960-4afb-b828-4e5aed16430d","system_id":"levelo_inurba_marseille","lat":43.309111,"lon":5.368476,"is_reserved":false,"is_disabled":false,"rental_uris":{"android":"levelo://app?vid=3035ebb4-5960-4afb-b828-4e5aed16430d","ios":"levelo://app?vid=3035ebb4-5960-4afb-b828-4e5aed16430d"},"vehicle_type_id":"4","last_reported":1717247221,"current_range_meters":24000,"station_id":"ce4bgn92rcd13ifvqbvg","pricing_plan_id":"cebpf4jnsgd1na2vs0mg"},{"bike_id":"41f61e64-d26d-4823-aad9-d9b3d13636a7","system_id":"levelo_inurba_marseille","lat":43.309076,"lon":5.368465,"is_reserved":false,"is_disabled":false,"rental_uris":{"android":"levelo://app?vid=41f61e64-d26d-4823-aad9-d9b3d13636a7","ios":"levelo://app?vid=41f61e64-d26d-4823-aad9-d9b3d13636a7"},"vehicle_type_id":"4","last_reported":1717247221,"current_range_meters":15600,"station_id":"ce4bgn92rcd13ifvqbvg","pricing_plan_id":"cebpf4jnsgd1na2vs0mg"},{"bike_id":"ffad55fa-c7ad-40af-99f7-05f511afaf51","system_id":"levelo_inurba_marseille","lat":43.314811,"lon":5.373103,"is_reserved":false,"is_disabled":false,"rental_uris":{"android":"levelo://app?vid=ffad55fa-c7ad-40af-99f7-05f511afaf51","ios":"levelo://app?vid=ffad55fa-c7ad-40af-99f7-05f511afaf51"},"vehicle_type_id":"4","last_reported":1717247221,"current_range_meters":6400,"station_id":"ce4bgt12rcd13ifvqcd0","pricing_plan_id":"cebpf4jnsgd1na2vs0mg"},{"bike_id":"e09546c0-4a07-4af1-8872-1513487ed5a9","system_id":"levelo_inurba_marseille","lat":43.314811,"lon":5.373103,"is_reserved":false,"is_disabled":false,"rental_uris":{"android":"levelo://app?vid=e09546c0-4a07-4af1-8872-1513487ed5a9","ios":"levelo://app?vid=e09546c0-4a07-4af1-8872-1513487ed5a9"},"vehicle_type_id":"4","last_reported":1717247221,"current_range_meters":28000,"station_id":"ce4bgt12rcd13ifvqcd0","pricing_plan_id":"cebpf4jnsgd1na2vs0mg"},{"bike_id":"121504d1-1130-4d46-b974-83325bdc46de","system_id":"levelo_inurba_marseille","lat":43.314811,"lon":5.373103,"is_reserved":false,"is_disabled":false,"rental_uris":{"android":"levelo://app?vid=121504d1-1130-4d46-b974-83325bdc46de","ios":"levelo://app?vid=121504d1-1130-4d46-b974-83325bdc46de"},"vehicle_type_id":"4","last_reported":1717247221,"current_range_meters":19200,"station_id":"ce4bgt12rcd13ifvqcd0","pricing_plan_id":"cebpf4jnsgd1na2vs0mg"},{"bike_id":"395a82ed-c16d-4fd6-8e8e-fed2d4002ff1","system_id":"levelo_inurba_marseille","lat":43.314811,"lon":5.373103,"is_reserved":false,"is_disabled":false,"rental_uris":{"android":"levelo://app?vid=395a82ed-c16d-4fd6-8e8e-fed2d4002ff1","ios":"levelo://app?vid=395a82ed-c16d-4fd6-8e8e-fed2d4002ff1"},"vehicle_type_id":"4","last_reported":1717247221,"current_range_meters":5600,"station_id":"ce4bgt12rcd13ifvqcd0","pricing_plan_id":"cebpf4jnsgd1na2vs0mg"},{"bike_id":"b2397af0-1c35-4d30-9214-60591d4f32fa","system_id":"levelo_inurba_marseille","lat":43.314811,"lon":5.373103,"is_reserved":false,"is_disabled":false,"rental_uris":{"android":"levelo://app?vid=b2397af0-1c35-4d30-9214-60591d4f32fa","ios":"levelo://app?vid=b2397af0-1c35-4d30-9214-60591d4f32fa"},"vehicle_type_id":"4","last_reported":1717247221,"current_range_meters":0,"station_id":"ce4bgt12rcd13ifvqcd0","pricing_plan_id":"cebpf4jnsgd1na2vs0mg"},{"bike_id":"01fb9439-8574-4965-a0f7-3f879f5fc5d3","system_id":"levelo_inurba_marseille","lat":43.314811,"lon":5.373104,"is_reserved":false,"is_disabled":false,"rental_uris":{"android":"levelo://app?vid=01fb9439-8574-4965-a0f7-3f879f5fc5d3","ios":"levelo://app?vid=01fb9439-8574-4965-a0f7-3f879f5fc5d3"},"vehicle_type_id":"4","last_reported":1717247221,"current_range_meters":15600,"station_id":"ce4bgt12rcd13ifvqcd0","pricing_plan_id":"cebpf4jnsgd1na2vs0mg"},{"bike_id":"ee221e19-7f10-4e80-96c7-d85f3e8e72db","system_id":"levelo_inurba_marseille","lat":43.309034,"lon":5.371783,"is_reserved":false,"is_disabled":false,"rental_uris":{"android":"levelo://app?vid=ee221e19-7f10-4e80-96c7-d85f3e8e72db","ios":"levelo://app?vid=ee221e19-7f10-4e80-96c7-d85f3e8e72db"},"vehicle_type_id":"4","last_reported":1717247221,"current_range_meters":14800,"station_id":"ce4bguh2rcd13ifvqckg","pricing_plan_id":"cebpf4jnsgd1na2vs0mg"},{"bike_id":"ebdb3118-7933-4fc8-89d6-4ef10e5c409b","system_id":"levelo_inurba_marseille","lat":43.309039,"lon":5.371797,"is_reserved":false,"is_disabled":false,"rental_uris":{"android":"levelo://app?vid=ebdb3118-7933-4fc8-89d6-4ef10e5c409b","ios":"levelo://app?vid=ebdb3118-7933-4fc8-89d6-4ef10e5c409b"},"vehicle_type_id":"4","last_reported":1717247221,"current_range_meters":24800,"station_id":"ce4bguh2rcd13ifvqckg","pricing_plan_id":"cebpf4jnsgd1na2vs0mg"},{"bike_id":"fb541173-a517-42e2-81b3-9d9da2a98467","system_id":"levelo_inurba_marseille","lat":43.305706,"lon":5.365654,"is_reserved":false,"is_disabled":false,"rental_uris":{"android":"levelo://app?vid=fb541173-a517-42e2-81b3-9d9da2a98467","ios":"levelo://app?vid=fb541173-a517-42e2-81b3-9d9da2a98467"},"vehicle_type_id":"4","last_reported":1717247221,"current_range_meters":25600,"station_id":"ce4bgs12rcd13ifvqcag","pricing_plan_id":"cebpf4jnsgd1na2vs0mg"},{"bike_id":"5a1181fc-ca37-4006-b240-2532f80352fc","system_id":"levelo_inurba_marseille","lat":43.305989,"lon":5.37225,"is_reserved":false,"is_disabled":false,"rental_uris":{"android":"levelo://app?vid=5a1181fc-ca37-4006-b240-2532f80352fc","ios":"levelo://app?vid=5a1181fc-ca37-4006-b240-2532f80352fc"},"vehicle_type_id":"4","last_reported":1717247221,"current_range_meters":1200,"station_id":"ce4bgqh2rcd13ifvqc4g","pricing_plan_id":"cebpf4jnsgd1na2vs0mg"},{"bike_id":"85569a56-5034-4463-a314-d5c0a954d30b","system_id":"levelo_inurba_marseille","lat":43.305989,"lon":5.37225,"is_reserved":false,"is_disabled":false,"rental_uris":{"android":"levelo://app?vid=85569a56-5034-4463-a314-d5c0a954d30b","ios":"levelo://app?vid=85569a56-5034-4463-a314-d5c0a954d30b"},"vehicle_type_id":"4","last_reported":1717247221,"current_range_meters":29600,"station_id":"ce4bgqh2rcd13ifvqc4g","pricing_plan_id":"cebpf4jnsgd1na2vs0mg"},{"bike_id":"c67b984f-6635-4c44-a421-fa8d75892616","system_id":"levelo_inurba_marseille","lat":43.305989,"lon":5.37225,"is_reserved":false,"is_disabled":false,"rental_uris":{"android":"levelo://app?vid=c67b984f-6635-4c44-a421-fa8d75892616","ios":"levelo://app?vid=c67b984f-6635-4c44-a421-fa8d75892616"},"vehicle_type_id":"4","last_reported":1717247221,"current_range_meters":31600,"station_id":"ce4bgqh2rcd13ifvqc4g","pricing_plan_id":"cebpf4jnsgd1na2vs0mg"},{"bike_id":"f305fecb-55c8-4f80-a115-d4268a65e7c6","system_id":"levelo_inurba_marseille","lat":43.305989,"lon":5.37225,"is_reserved":false,"is_disabled":false,"rental_uris":{"android":"levelo://app?vid=f305fecb-55c8-4f80-a115-d4268a65e7c6","ios":"levelo://app?vid=f305fecb-55c8-4f80-a115-d4268a65e7c6"},"vehicle_type_id":"4","last_reported":1717247221,"current_range_meters":30000,"station_id":"ce4bgqh2rcd13ifvqc4g","pricing_plan_id":"cebpf4jnsgd1na2vs0mg"},{"bike_id":"e7e798d3-0729-4d95-b98a-dbd53f59e915","system_id":"levelo_inurba_marseille","lat":43.306003,"lon":5.372153,"is_reserved":false,"is_disabled":false,"rental_uris":{"android":"levelo://app?vid=e7e798d3-0729-4d95-b98a-dbd53f59e915","ios":"levelo://app?vid=e7e798d3-0729-4d95-b98a-dbd53f59e915"},"vehicle_type_id":"4","last_reported":1717247221,"current_range_meters":5200,"station_id":"ce4bgqh2rcd13ifvqc4g","pricing_plan_id":"cebpf4jnsgd1na2vs0mg"},{"bike_id":"c49bf669-436d-46db-baca-51cc64ff536d","system_id":"levelo_inurba_marseille","lat":43.305989,"lon":5.37225,"is_reserved":false,"is_disabled":false,"rental_uris":{"android":"levelo://app?vid=c49bf669-436d-46db-baca-51cc64ff536d","ios":"levelo://app?vid=c49bf669-436d-46db-baca-51cc64ff536d"},"vehicle_type_id":"4","last_reported":1717247221,"current_range_meters":31200,"station_id":"ce4bgqh2rcd13ifvqc4g","pricing_plan_id":"cebpf4jnsgd1na2vs0mg"},{"bike_id":"32f2cc59-fe47-41b0-b0dd-3da3856986fe","system_id":"levelo_inurba_marseille","lat":43.305989,"lon":5.37225,"is_reserved":false,"is_disabled":false,"rental_uris":{"android":"levelo://app?vid=32f2cc59-fe47-41b0-b0dd-3da3856986fe","ios":"levelo://app?vid=32f2cc59-fe47-41b0-b0dd-3da3856986fe"},"vehicle_type_id":"4","last_reported":1717247221,"current_range_meters":31200,"station_id":"ce4bgqh2rcd13ifvqc4g","pricing_plan_id":"cebpf4jnsgd1na2vs0mg"},{"bike_id":"608f50c6-657d-49b2-996c-e86c13baf5f6","system_id":"levelo_inurba_marseille","lat":43.305987,"lon":5.37221,"is_reserved":false,"is_disabled":false,"rental_uris":{"android":"levelo://app?vid=608f50c6-657d-49b2-996c-e86c13baf5f6","ios":"levelo://app?vid=608f50c6-657d-49b2-996c-e86c13baf5f6"},"vehicle_type_id":"4","last_reported":1717247221,"current_range_meters":22400,"station_id":"ce4bgqh2rcd13ifvqc4g","pricing_plan_id":"cebpf4jnsgd1na2vs0mg"},{"bike_id":"1de427b0-9cb6-47cd-9c09-6b71dff4d5e1","system_id":"levelo_inurba_marseille","lat":43.30595,"lon":5.37219,"is_reserved":false,"is_disabled":false,"rental_uris":{"android":"levelo://app?vid=1de427b0-9cb6-47cd-9c09-6b71dff4d5e1","ios":"levelo://app?vid=1de427b0-9cb6-47cd-9c09-6b71dff4d5e1"},"vehicle_type_id":"4","last_reported":1717247221,"current_range_meters":16800,"station_id":"ce4bgqh2rcd13ifvqc4g","pricing_plan_id":"cebpf4jnsgd1na2vs0mg"},{"bike_id":"342093c9-2bb0-4f63-a881-f5bb0d74f4b5","system_id":"levelo_inurba_marseille","lat":43.305989,"lon":5.37225,"is_reserved":false,"is_disabled":false,"rental_uris":{"android":"levelo://app?vid=342093c9-2bb0-4f63-a881-f5bb0d74f4b5","ios":"levelo://app?vid=342093c9-2bb0-4f63-a881-f5bb0d74f4b5"},"vehicle_type_id":"4","last_reported":1717247221,"current_range_meters":23600,"station_id":"ce4bgqh2rcd13ifvqc4g","pricing_plan_id":"cebpf4jnsgd1na2vs0mg"},{"bike_id":"4cafb3db-0a16-4772-9dc4-f9907f434638","system_id":"levelo_inurba_marseille","lat":43.317075,"lon":5.377367,"is_reserved":false,"is_disabled":false,"rental_uris":{"android":"levelo://app?vid=4cafb3db-0a16-4772-9dc4-f9907f434638","ios":"levelo://app?vid=4cafb3db-0a16-4772-9dc4-f9907f434638"},"vehicle_type_id":"4","last_reported":1717247221,"current_range_meters":10800,"station_id":"ce4bgth2rcd13ifvqch0","pricing_plan_id":"cebpf4jnsgd1na2vs0mg"},{"bike_id":"29b1fa51-a54a-468d-9049-6a45d6e1e743","system_id":"levelo_inurba_marseille","lat":43.3172,"lon":5.377558,"is_reserved":false,"is_disabled":false,"rental_uris":{"android":"levelo://app?vid=29b1fa51-a54a-468d-9049-6a45d6e1e743","ios":"levelo://app?vid=29b1fa51-a54a-468d-9049-6a45d6e1e743"},"vehicle_type_id":"4","last_reported":1717247221,"current_range_meters":28800,"station_id":"ce4bgth2rcd13ifvqch0","pricing_plan_id":"cebpf4jnsgd1na2vs0mg"},{"bike_id":"129d64c9-9732-4603-a8eb-cb1c9a42c5c7","system_id":"levelo_inurba_marseille","lat":43.30305,"lon":5.36905,"is_reserved":false,"is_disabled":false,"rental_uris":{"android":"levelo://app?vid=129d64c9-9732-4603-a8eb-cb1c9a42c5c7","ios":"levelo://app?vid=129d64c9-9732-4603-a8eb-cb1c9a42c5c7"},"vehicle_type_id":"4","last_reported":1717247221,"current_range_meters":0,"station_id":"ce4bgqh2rcd13ifvqc5g","pricing_plan_id":"cebpf4jnsgd1na2vs0mg"},{"bike_id":"c326dffc-799f-4b80-8a83-5a7b5d7ec2e1","system_id":"levelo_inurba_marseille","lat":43.30297,"lon":5.36877,"is_reserved":false,"is_disabled":false,"rental_uris":{"android":"levelo://app?vid=c326dffc-799f-4b80-8a83-5a7b5d7ec2e1","ios":"levelo://app?vid=c326dffc-799f-4b80-8a83-5a7b5d7ec2e1"},"vehicle_type_id":"4","last_reported":1717247221,"current_range_meters":3200,"station_id":"ce4bgqh2rcd13ifvqc5g","pricing_plan_id":"cebpf4jnsgd1na2vs0mg"},{"bike_id":"3d593d6f-52bd-4125-9c7c-76d52cd6e820","system_id":"levelo_inurba_marseille","lat":43.315293,"lon":5.380349,"is_reserved":false,"is_disabled":false,"rental_uris":{"android":"levelo://app?vid=3d593d6f-52bd-4125-9c7c-76d52cd6e820","ios":"levelo://app?vid=3d593d6f-52bd-4125-9c7c-76d52cd6e820"},"vehicle_type_id":"4","last_reported":1717247221,"current_range_meters":1600,"station_id":"ce4bhsp2rcd13ifvqi50","pricing_plan_id":"cebpf4jnsgd1na2vs0mg"},{"bike_id":"7a2f22b0-ce0d-4e71-85e5-740c75b318e1","system_id":"levelo_inurba_marseille","lat":43.301939,"lon":5.366286,"is_reserved":false,"is_disabled":false,"rental_uris":{"android":"levelo://app?vid=7a2f22b0-ce0d-4e71-85e5-740c75b318e1","ios":"levelo://app?vid=7a2f22b0-ce0d-4e71-85e5-740c75b318e1"},"vehicle_type_id":"4","last_reported":1717247221,"current_range_meters":5200,"station_id":"ce4bgrh2rcd13ifvqc8g","pricing_plan_id":"cebpf4jnsgd1na2vs0mg"},{"bike_id":"54fa50e7-cace-4ae2-8f41-cdc94e0f84b9","system_id":"levelo_inurba_marseille","lat":43.301939,"lon":5.366286,"is_reserved":false,"is_disabled":false,"rental_uris":{"android":"levelo://app?vid=54fa50e7-cace-4ae2-8f41-cdc94e0f84b9","ios":"levelo://app?vid=54fa50e7-cace-4ae2-8f41-cdc94e0f84b9"},"vehicle_type_id":"4","last_reported":1717247221,"current_range_meters":6000,"station_id":"ce4bgrh2rcd13ifvqc8g","pricing_plan_id":"cebpf4jnsgd1na2vs0mg"},{"bike_id":"ff5fa241-217f-46c7-9db5-0600f833ad7a","system_id":"levelo_inurba_marseille","lat":43.301939,"lon":5.366286,"is_reserved":false,"is_disabled":false,"rental_uris":{"android":"levelo://app?vid=ff5fa241-217f-46c7-9db5-0600f833ad7a","ios":"levelo://app?vid=ff5fa241-217f-46c7-9db5-0600f833ad7a"},"vehicle_type_id":"4","last_reported":1717247221,"current_range_meters":6800,"station_id":"ce4bgrh2rcd13ifvqc8g","pricing_plan_id":"cebpf4jnsgd1na2vs0mg"},{"bike_id":"25dea9ab-88a3-4573-84c0-1bdd20feba3b","system_id":"levelo_inurba_marseille","lat":43.308012,"lon":5.381511,"is_reserved":false,"is_disabled":false,"rental_uris":{"android":"levelo://app?vid=25dea9ab-88a3-4573-84c0-1bdd20feba3b","ios":"levelo://app?vid=25dea9ab-88a3-4573-84c0-1bdd20feba3b"},"vehicle_type_id":"4","last_reported":1717247221,"current_range_meters":3600,"station_id":"ce4bgt12rcd13ifvqce0","pricing_plan_id":"cebpf4jnsgd1na2vs0mg"},{"bike_id":"cf3bfb22-0949-4d4d-add3-6e469405fcbb","system_id":"levelo_inurba_marseille","lat":43.304606,"lon":5.379026,"is_reserved":false,"is_disabled":false,"rental_uris":{"android":"levelo://app?vid=cf3bfb22-0949-4d4d-add3-6e469405fcbb","ios":"levelo://app?vid=cf3bfb22-0949-4d4d-add3-6e469405fcbb"},"vehicle_type_id":"4","last_reported":1717247221,"current_range_meters":20000,"station_id":"ce4bgup2rcd13ifvqcn0","pricing_plan_id":"cebpf4jnsgd1na2vs0mg"},{"bike_id":"f7681ffa-fede-4693-ab88-9d2e20f853d8","system_id":"levelo_inurba_marseille","lat":43.304606,"lon":5.379026,"is_reserved":false,"is_disabled":false,"rental_uris":{"android":"levelo://app?vid=f7681ffa-fede-4693-ab88-9d2e20f853d8","ios":"levelo://app?vid=f7681ffa-fede-4693-ab88-9d2e20f853d8"},"vehicle_type_id":"4","last_reported":1717247221,"current_range_meters":23200,"station_id":"ce4bgup2rcd13ifvqcn0","pricing_plan_id":"cebpf4jnsgd1na2vs0mg"},{"bike_id":"34a8ccda-ef5c-477f-a75f-4f6faca3cb57","system_id":"levelo_inurba_marseille","lat":43.304606,"lon":5.379026,"is_reserved":false,"is_disabled":false,"rental_uris":{"android":"levelo://app?vid=34a8ccda-ef5c-477f-a75f-4f6faca3cb57","ios":"levelo://app?vid=34a8ccda-ef5c-477f-a75f-4f6faca3cb57"},"vehicle_type_id":"4","last_reported":1717247221,"current_range_meters":1600,"station_id":"ce4bgup2rcd13ifvqcn0","pricing_plan_id":"cebpf4jnsgd1na2vs0mg"},{"bike_id":"41c51481-7e01-4419-a288-ec802587555d","system_id":"levelo_inurba_marseille","lat":43.32445,"lon":5.36367,"is_reserved":false,"is_disabled":false,"rental_uris":{"android":"levelo://app?vid=41c51481-7e01-4419-a288-ec802587555d","ios":"levelo://app?vid=41c51481-7e01-4419-a288-ec802587555d"},"vehicle_type_id":"4","last_reported":1717247221,"current_range_meters":0,"station_id":"ce4bhs12rcd13ifvqhvg","pricing_plan_id":"cebpf4jnsgd1na2vs0mg"},{"bike_id":"5ba3324c-9400-4574-a4dd-30cb2e575f12","system_id":"levelo_inurba_marseille","lat":43.304606,"lon":5.379026,"is_reserved":false,"is_disabled":false,"rental_uris":{"android":"levelo://app?vid=5ba3324c-9400-4574-a4dd-30cb2e575f12","ios":"levelo://app?vid=5ba3324c-9400-4574-a4dd-30cb2e575f12"},"vehicle_type_id":"4","last_reported":1717247221,"current_range_meters":28400,"station_id":"ce4bgup2rcd13ifvqcn0","pricing_plan_id":"cebpf4jnsgd1na2vs0mg"},{"bike_id":"5ac55069-c473-4e58-903a-883dbf71189d","system_id":"levelo_inurba_marseille","lat":43.304606,"lon":5.379026,"is_reserved":false,"is_disabled":false,"rental_uris":{"android":"levelo://app?vid=5ac55069-c473-4e58-903a-883dbf71189d","ios":"levelo://app?vid=5ac55069-c473-4e58-903a-883dbf71189d"},"vehicle_type_id":"4","last_reported":1717247221,"current_range_meters":2000,"station_id":"ce4bgup2rcd13ifvqcn0","pricing_plan_id":"cebpf4jnsgd1na2vs0mg"},{"bike_id":"b5afe5fd-422a-4278-b0ad-a757e538dc57","system_id":"levelo_inurba_marseille","lat":43.304606,"lon":5.379026,"is_reserved":false,"is_disabled":false,"rental_uris":{"android":"levelo://app?vid=b5afe5fd-422a-4278-b0ad-a757e538dc57","ios":"levelo://app?vid=b5afe5fd-422a-4278-b0ad-a757e538dc57"},"vehicle_type_id":"4","last_reported":1717247221,"current_range_meters":26000,"station_id":"ce4bgup2rcd13ifvqcn0","pricing_plan_id":"cebpf4jnsgd1na2vs0mg"},{"bike_id":"e0e43a1c-f50e-42be-a75c-889547f2641a","system_id":"levelo_inurba_marseille","lat":43.304606,"lon":5.379026,"is_reserved":false,"is_disabled":false,"rental_uris":{"android":"levelo://app?vid=e0e43a1c-f50e-42be-a75c-889547f2641a","ios":"levelo://app?vid=e0e43a1c-f50e-42be-a75c-889547f2641a"},"vehicle_type_id":"4","last_reported":1717247221,"current_range_meters":15600,"station_id":"ce4bgup2rcd13ifvqcn0","pricing_plan_id":"cebpf4jnsgd1na2vs0mg"},{"bike_id":"fe4a2d04-95c7-4bdf-91b4-6b842392b1ca","system_id":"levelo_inurba_marseille","lat":43.304606,"lon":5.379026,"is_reserved":false,"is_disabled":false,"rental_uris":{"android":"levelo://app?vid=fe4a2d04-95c7-4bdf-91b4-6b842392b1ca","ios":"levelo://app?vid=fe4a2d04-95c7-4bdf-91b4-6b842392b1ca"},"vehicle_type_id":"4","last_reported":1717247221,"current_range_meters":31600,"station_id":"ce4bgup2rcd13ifvqcn0","pricing_plan_id":"cebpf4jnsgd1na2vs0mg"},{"bike_id":"111f8e7c-3b49-4293-84a1-72f822a86ce6","system_id":"levelo_inurba_marseille","lat":43.324816,"lon":5.365962,"is_reserved":false,"is_disabled":false,"rental_uris":{"android":"levelo://app?vid=111f8e7c-3b49-4293-84a1-72f822a86ce6","ios":"levelo://app?vid=111f8e7c-3b49-4293-84a1-72f822a86ce6"},"vehicle_type_id":"4","last_reported":1717247221,"current_range_meters":7200,"station_id":"ce4bhs12rcd13ifvqhvg","pricing_plan_id":"cebpf4jnsgd1na2vs0mg"},{"bike_id":"43164aca-1fb2-448b-8cee-a63ae8cc3f73","system_id":"levelo_inurba_marseille","lat":43.32481,"lon":5.365785,"is_reserved":false,"is_disabled":false,"rental_uris":{"android":"levelo://app?vid=43164aca-1fb2-448b-8cee-a63ae8cc3f73","ios":"levelo://app?vid=43164aca-1fb2-448b-8cee-a63ae8cc3f73"},"vehicle_type_id":"4","last_reported":1717247221,"current_range_meters":18800,"station_id":"ce4bhs12rcd13ifvqhvg","pricing_plan_id":"cebpf4jnsgd1na2vs0mg"},{"bike_id":"e7b5d43e-79e3-471c-8dbb-1d88bd546cd5","system_id":"levelo_inurba_marseille","lat":43.324817,"lon":5.365812,"is_reserved":false,"is_disabled":false,"rental_uris":{"android":"levelo://app?vid=e7b5d43e-79e3-471c-8dbb-1d88bd546cd5","ios":"levelo://app?vid=e7b5d43e-79e3-471c-8dbb-1d88bd546cd5"},"vehicle_type_id":"4","last_reported":1717247221,"current_range_meters":16000,"station_id":"ce4bhs12rcd13ifvqhvg","pricing_plan_id":"cebpf4jnsgd1na2vs0mg"},{"bike_id":"0cce203b-70e1-4c12-bec8-e995b59c42de","system_id":"levelo_inurba_marseille","lat":43.324817,"lon":5.365753,"is_reserved":false,"is_disabled":false,"rental_uris":{"android":"levelo://app?vid=0cce203b-70e1-4c12-bec8-e995b59c42de","ios":"levelo://app?vid=0cce203b-70e1-4c12-bec8-e995b59c42de"},"vehicle_type_id":"4","last_reported":1717247221,"current_range_meters":12400,"station_id":"ce4bhs12rcd13ifvqhvg","pricing_plan_id":"cebpf4jnsgd1na2vs0mg"},{"bike_id":"bcbe4e8c-399a-4c3a-ad31-e31bd96e25bf","system_id":"levelo_inurba_marseille","lat":43.324829,"lon":5.36577,"is_reserved":false,"is_disabled":false,"rental_uris":{"android":"levelo://app?vid=bcbe4e8c-399a-4c3a-ad31-e31bd96e25bf","ios":"levelo://app?vid=bcbe4e8c-399a-4c3a-ad31-e31bd96e25bf"},"vehicle_type_id":"4","last_reported":1717247221,"current_range_meters":19200,"station_id":"ce4bhs12rcd13ifvqhvg","pricing_plan_id":"cebpf4jnsgd1na2vs0mg"},{"bike_id":"c6160334-7e44-4913-a939-f524881e8858","system_id":"levelo_inurba_marseille","lat":43.32484,"lon":5.36577,"is_reserved":false,"is_disabled":false,"rental_uris":{"android":"levelo://app?vid=c6160334-7e44-4913-a939-f524881e8858","ios":"levelo://app?vid=c6160334-7e44-4913-a939-f524881e8858"},"vehicle_type_id":"4","last_reported":1717247221,"current_range_meters":5600,"station_id":"ce4bhs12rcd13ifvqhvg","pricing_plan_id":"cebpf4jnsgd1na2vs0mg"},{"bike_id":"baf119c8-71e9-43af-aaef-d7f8a1c924b2","system_id":"levelo_inurba_marseille","lat":43.310804,"lon":5.38359,"is_reserved":false,"is_disabled":false,"rental_uris":{"android":"levelo://app?vid=baf119c8-71e9-43af-aaef-d7f8a1c924b2","ios":"levelo://app?vid=baf119c8-71e9-43af-aaef-d7f8a1c924b2"},"vehicle_type_id":"4","last_reported":1717247221,"current_range_meters":0,"station_id":"ce4bgv92rcd13ifvqcr0","pricing_plan_id":"cebpf4jnsgd1na2vs0mg"},{"bike_id":"1df55bc5-0a66-458c-9977-c13c5fbd83d7","system_id":"levelo_inurba_marseille","lat":43.302853,"lon":5.376967,"is_reserved":false,"is_disabled":false,"rental_uris":{"android":"levelo://app?vid=1df55bc5-0a66-458c-9977-c13c5fbd83d7","ios":"levelo://app?vid=1df55bc5-0a66-458c-9977-c13c5fbd83d7"},"vehicle_type_id":"4","last_reported":1717247221,"current_range_meters":0,"station_id":"ce4bguh2rcd13ifvqcj0","pricing_plan_id":"cebpf4jnsgd1na2vs0mg"},{"bike_id":"04a12eb8-6107-4357-a842-03395572a6b0","system_id":"levelo_inurba_marseille","lat":43.310804,"lon":5.38359,"is_reserved":false,"is_disabled":false,"rental_uris":{"android":"levelo://app?vid=04a12eb8-6107-4357-a842-03395572a6b0","ios":"levelo://app?vid=04a12eb8-6107-4357-a842-03395572a6b0"},"vehicle_type_id":"4","last_reported":1717247221,"current_range_meters":4400,"station_id":"ce4bgv92rcd13ifvqcr0","pricing_plan_id":"cebpf4jnsgd1na2vs0mg"},{"bike_id":"b2061fd3-ca5c-4f1c-897b-f63dbc3c79d4","system_id":"levelo_inurba_marseille","lat":43.304606,"lon":5.379026,"is_reserved":false,"is_disabled":false,"rental_uris":{"android":"levelo://app?vid=b2061fd3-ca5c-4f1c-897b-f63dbc3c79d4","ios":"levelo://app?vid=b2061fd3-ca5c-4f1c-897b-f63dbc3c79d4"},"vehicle_type_id":"4","last_reported":1717247221,"current_range_meters":13200,"station_id":"ce4bgup2rcd13ifvqcn0","pricing_plan_id":"cebpf4jnsgd1na2vs0mg"},{"bike_id":"f5e8933f-0f05-4c85-9b5c-a132288b09e4","system_id":"levelo_inurba_marseille","lat":43.302784,"lon":5.377158,"is_reserved":false,"is_disabled":false,"rental_uris":{"android":"levelo://app?vid=f5e8933f-0f05-4c85-9b5c-a132288b09e4","ios":"levelo://app?vid=f5e8933f-0f05-4c85-9b5c-a132288b09e4"},"vehicle_type_id":"4","last_reported":1717247221,"current_range_meters":9200,"station_id":"ce4bguh2rcd13ifvqcj0","pricing_plan_id":"cebpf4jnsgd1na2vs0mg"},{"bike_id":"98b29705-60e9-4b64-b496-50ea3bbe72e3","system_id":"levelo_inurba_marseille","lat":43.301429,"lon":5.37413,"is_reserved":false,"is_disabled":false,"rental_uris":{"android":"levelo://app?vid=98b29705-60e9-4b64-b496-50ea3bbe72e3","ios":"levelo://app?vid=98b29705-60e9-4b64-b496-50ea3bbe72e3"},"vehicle_type_id":"4","last_reported":1717247221,"current_range_meters":24400,"station_id":"ce4bgs92rcd13ifvqcc0","pricing_plan_id":"cebpf4jnsgd1na2vs0mg"},{"bike_id":"33dbe708-afa5-4310-8cb9-e9a8eb4135f7","system_id":"levelo_inurba_marseille","lat":43.302784,"lon":5.377158,"is_reserved":false,"is_disabled":false,"rental_uris":{"android":"levelo://app?vid=33dbe708-afa5-4310-8cb9-e9a8eb4135f7","ios":"levelo://app?vid=33dbe708-afa5-4310-8cb9-e9a8eb4135f7"},"vehicle_type_id":"4","last_reported":1717247221,"current_range_meters":2800,"station_id":"ce4bguh2rcd13ifvqcj0","pricing_plan_id":"cebpf4jnsgd1na2vs0mg"},{"bike_id":"4e29ec8d-31d3-46fc-89b0-04d52c7585bb","system_id":"levelo_inurba_marseille","lat":43.304606,"lon":5.379026,"is_reserved":false,"is_disabled":false,"rental_uris":{"android":"levelo://app?vid=4e29ec8d-31d3-46fc-89b0-04d52c7585bb","ios":"levelo://app?vid=4e29ec8d-31d3-46fc-89b0-04d52c7585bb"},"vehicle_type_id":"4","last_reported":1717247221,"current_range_meters":2000,"station_id":"ce4bgup2rcd13ifvqcn0","pricing_plan_id":"cebpf4jnsgd1na2vs0mg"},{"bike_id":"56792101-54a1-4ebd-83ef-9b399eb8b64f","system_id":"levelo_inurba_marseille","lat":43.319935,"lon":5.381699,"is_reserved":false,"is_disabled":false,"rental_uris":{"android":"levelo://app?vid=56792101-54a1-4ebd-83ef-9b399eb8b64f","ios":"levelo://app?vid=56792101-54a1-4ebd-83ef-9b399eb8b64f"},"vehicle_type_id":"4","last_reported":1717247221,"current_range_meters":18800,"station_id":"ce4bhr12rcd13ifvqhpg","pricing_plan_id":"cebpf4jnsgd1na2vs0mg"},{"bike_id":"2594bf46-5c26-44d1-a308-ec1da6e0fba5","system_id":"levelo_inurba_marseille","lat":43.313571,"lon":5.384829,"is_reserved":false,"is_disabled":false,"rental_uris":{"android":"levelo://app?vid=2594bf46-5c26-44d1-a308-ec1da6e0fba5","ios":"levelo://app?vid=2594bf46-5c26-44d1-a308-ec1da6e0fba5"},"vehicle_type_id":"4","last_reported":1717247221,"current_range_meters":2400,"station_id":"ce4bgt92rcd13ifvqcf0","pricing_plan_id":"cebpf4jnsgd1na2vs0mg"},{"bike_id":"a1b324c3-4672-4178-8f46-8f15d360dea8","system_id":"levelo_inurba_marseille","lat":43.303247,"lon":5.37925,"is_reserved":false,"is_disabled":false,"rental_uris":{"android":"levelo://app?vid=a1b324c3-4672-4178-8f46-8f15d360dea8","ios":"levelo://app?vid=a1b324c3-4672-4178-8f46-8f15d360dea8"},"vehicle_type_id":"4","last_reported":1717247221,"current_range_meters":22400,"station_id":"","pricing_plan_id":"cebpf4jnsgd1na2vs0mg"},{"bike_id":"4fc8293c-d141-4ed8-9b58-e1dff4f56d40","system_id":"levelo_inurba_marseille","lat":43.31354,"lon":5.38496,"is_reserved":false,"is_disabled":false,"rental_uris":{"android":"levelo://app?vid=4fc8293c-d141-4ed8-9b58-e1dff4f56d40","ios":"levelo://app?vid=4fc8293c-d141-4ed8-9b58-e1dff4f56d40"},"vehicle_type_id":"4","last_reported":1717247221,"current_range_meters":0,"station_id":"ce4bgt92rcd13ifvqcf0","pricing_plan_id":"cebpf4jnsgd1na2vs0mg"},{"bike_id":"a5331875-a153-4aa3-93d3-ebc190b2c435","system_id":"levelo_inurba_marseille","lat":43.313571,"lon":5.384829,"is_reserved":false,"is_disabled":false,"rental_uris":{"android":"levelo://app?vid=a5331875-a153-4aa3-93d3-ebc190b2c435","ios":"levelo://app?vid=a5331875-a153-4aa3-93d3-ebc190b2c435"},"vehicle_type_id":"4","last_reported":1717247221,"current_range_meters":3600,"station_id":"ce4bgt92rcd13ifvqcf0","pricing_plan_id":"cebpf4jnsgd1na2vs0mg"},{"bike_id":"13677fed-8d60-471f-a1fa-48820be06d41","system_id":"levelo_inurba_marseille","lat":43.31583,"lon":5.38473,"is_reserved":false,"is_disabled":false,"rental_uris":{"android":"levelo://app?vid=13677fed-8d60-471f-a1fa-48820be06d41","ios":"levelo://app?vid=13677fed-8d60-471f-a1fa-48820be06d41"},"vehicle_type_id":"4","last_reported":1717247221,"current_range_meters":0,"station_id":"","pricing_plan_id":"cebpf4jnsgd1na2vs0mg"},{"bike_id":"3016f594-ed08-4894-b683-3e45a982dd86","system_id":"levelo_inurba_marseille","lat":43.299222,"lon":5.365554,"is_reserved":false,"is_disabled":false,"rental_uris":{"android":"levelo://app?vid=3016f594-ed08-4894-b683-3e45a982dd86","ios":"levelo://app?vid=3016f594-ed08-4894-b683-3e45a982dd86"},"vehicle_type_id":"4","last_reported":1717247221,"current_range_meters":12800,"station_id":"ce4bgm92rcd13ifvqbr0","pricing_plan_id":"cebpf4jnsgd1na2vs0mg"},{"bike_id":"cbd0d848-29b8-4058-aa67-2adaea09434a","system_id":"levelo_inurba_marseille","lat":43.299222,"lon":5.365554,"is_reserved":false,"is_disabled":false,"rental_uris":{"android":"levelo://app?vid=cbd0d848-29b8-4058-aa67-2adaea09434a","ios":"levelo://app?vid=cbd0d848-29b8-4058-aa67-2adaea09434a"},"vehicle_type_id":"4","last_reported":1717247221,"current_range_meters":16400,"station_id":"ce4bgm92rcd13ifvqbr0","pricing_plan_id":"cebpf4jnsgd1na2vs0mg"},{"bike_id":"8f11fe21-ba87-4413-a469-bf6d0b282b2e","system_id":"levelo_inurba_marseille","lat":43.299222,"lon":5.365554,"is_reserved":false,"is_disabled":false,"rental_uris":{"android":"levelo://app?vid=8f11fe21-ba87-4413-a469-bf6d0b282b2e","ios":"levelo://app?vid=8f11fe21-ba87-4413-a469-bf6d0b282b2e"},"vehicle_type_id":"4","last_reported":1717247221,"current_range_meters":21600,"station_id":"ce4bgm92rcd13ifvqbr0","pricing_plan_id":"cebpf4jnsgd1na2vs0mg"},{"bike_id":"18d3bd46-f719-4413-92b4-64a0c0a5325b","system_id":"levelo_inurba_marseille","lat":43.299222,"lon":5.365554,"is_reserved":false,"is_disabled":false,"rental_uris":{"android":"levelo://app?vid=18d3bd46-f719-4413-92b4-64a0c0a5325b","ios":"levelo://app?vid=18d3bd46-f719-4413-92b4-64a0c0a5325b"},"vehicle_type_id":"4","last_reported":1717247221,"current_range_meters":16000,"station_id":"ce4bgm92rcd13ifvqbr0","pricing_plan_id":"cebpf4jnsgd1na2vs0mg"},{"bike_id":"c478a2b3-ae0c-46df-9c80-de2f9a447c55","system_id":"levelo_inurba_marseille","lat":43.299222,"lon":5.365554,"is_reserved":false,"is_disabled":false,"rental_uris":{"android":"levelo://app?vid=c478a2b3-ae0c-46df-9c80-de2f9a447c55","ios":"levelo://app?vid=c478a2b3-ae0c-46df-9c80-de2f9a447c55"},"vehicle_type_id":"4","last_reported":1717247221,"current_range_meters":19600,"station_id":"ce4bgm92rcd13ifvqbr0","pricing_plan_id":"cebpf4jnsgd1na2vs0mg"},{"bike_id":"d79f09a6-b239-4400-8690-824698b446d6","system_id":"levelo_inurba_marseille","lat":43.299798,"lon":5.37194,"is_reserved":false,"is_disabled":false,"rental_uris":{"android":"levelo://app?vid=d79f09a6-b239-4400-8690-824698b446d6","ios":"levelo://app?vid=d79f09a6-b239-4400-8690-824698b446d6"},"vehicle_type_id":"4","last_reported":1717247221,"current_range_meters":17200,"station_id":"ce4bgr92rcd13ifvqc7g","pricing_plan_id":"cebpf4jnsgd1na2vs0mg"},{"bike_id":"a6220985-dbb5-4b1f-b6d0-bf29ea1fe193","system_id":"levelo_inurba_marseille","lat":43.299222,"lon":5.365554,"is_reserved":false,"is_disabled":false,"rental_uris":{"android":"levelo://app?vid=a6220985-dbb5-4b1f-b6d0-bf29ea1fe193","ios":"levelo://app?vid=a6220985-dbb5-4b1f-b6d0-bf29ea1fe193"},"vehicle_type_id":"4","last_reported":1717247221,"current_range_meters":25600,"station_id":"ce4bgm92rcd13ifvqbr0","pricing_plan_id":"cebpf4jnsgd1na2vs0mg"},{"bike_id":"c2c5736c-16fe-46dd-b509-b896d3361ddb","system_id":"levelo_inurba_marseille","lat":43.299222,"lon":5.365554,"is_reserved":false,"is_disabled":false,"rental_uris":{"android":"levelo://app?vid=c2c5736c-16fe-46dd-b509-b896d3361ddb","ios":"levelo://app?vid=c2c5736c-16fe-46dd-b509-b896d3361ddb"},"vehicle_type_id":"4","last_reported":1717247221,"current_range_meters":12800,"station_id":"ce4bgm92rcd13ifvqbr0","pricing_plan_id":"cebpf4jnsgd1na2vs0mg"},{"bike_id":"b5abc2fa-0c38-4679-8c9c-b399d514df36","system_id":"levelo_inurba_marseille","lat":43.29962,"lon":5.37174,"is_reserved":false,"is_disabled":false,"rental_uris":{"android":"levelo://app?vid=b5abc2fa-0c38-4679-8c9c-b399d514df36","ios":"levelo://app?vid=b5abc2fa-0c38-4679-8c9c-b399d514df36"},"vehicle_type_id":"4","last_reported":1717247221,"current_range_meters":6800,"station_id":"ce4bgr92rcd13ifvqc7g","pricing_plan_id":"cebpf4jnsgd1na2vs0mg"},{"bike_id":"d19c12ca-2e94-49be-b1f1-49c8899ec80d","system_id":"levelo_inurba_marseille","lat":43.298433,"lon":5.362774,"is_reserved":false,"is_disabled":false,"rental_uris":{"android":"levelo://app?vid=d19c12ca-2e94-49be-b1f1-49c8899ec80d","ios":"levelo://app?vid=d19c12ca-2e94-49be-b1f1-49c8899ec80d"},"vehicle_type_id":"4","last_reported":1717247221,"current_range_meters":5600,"station_id":"ce4bgpp2rcd13ifvqc3g","pricing_plan_id":"cebpf4jnsgd1na2vs0mg"},{"bike_id":"47979ab3-2b44-4d82-b25d-acb0ab470592","system_id":"levelo_inurba_marseille","lat":43.298433,"lon":5.362774,"is_reserved":false,"is_disabled":false,"rental_uris":{"android":"levelo://app?vid=47979ab3-2b44-4d82-b25d-acb0ab470592","ios":"levelo://app?vid=47979ab3-2b44-4d82-b25d-acb0ab470592"},"vehicle_type_id":"4","last_reported":1717247221,"current_range_meters":26000,"station_id":"ce4bgpp2rcd13ifvqc3g","pricing_plan_id":"cebpf4jnsgd1na2vs0mg"},{"bike_id":"778eaede-4838-4afa-a473-da5e6e96f211","system_id":"levelo_inurba_marseille","lat":43.298433,"lon":5.362774,"is_reserved":false,"is_disabled":false,"rental_uris":{"android":"levelo://app?vid=778eaede-4838-4afa-a473-da5e6e96f211","ios":"levelo://app?vid=778eaede-4838-4afa-a473-da5e6e96f211"},"vehicle_type_id":"4","last_reported":1717247221,"current_range_meters":13200,"station_id":"ce4bgpp2rcd13ifvqc3g","pricing_plan_id":"cebpf4jnsgd1na2vs0mg"},{"bike_id":"c2eabe5b-4092-4126-b4c7-531c06a60f82","system_id":"levelo_inurba_marseille","lat":43.298433,"lon":5.362774,"is_reserved":false,"is_disabled":false,"rental_uris":{"android":"levelo://app?vid=c2eabe5b-4092-4126-b4c7-531c06a60f82","ios":"levelo://app?vid=c2eabe5b-4092-4126-b4c7-531c06a60f82"},"vehicle_type_id":"4","last_reported":1717247221,"current_range_meters":22800,"station_id":"ce4bgpp2rcd13ifvqc3g","pricing_plan_id":"cebpf4jnsgd1na2vs0mg"},{"bike_id":"762e1ef7-8c2d-4c13-a619-d3a8e1875c25","system_id":"levelo_inurba_marseille","lat":43.298433,"lon":5.362774,"is_reserved":false,"is_disabled":false,"rental_uris":{"android":"levelo://app?vid=762e1ef7-8c2d-4c13-a619-d3a8e1875c25","ios":"levelo://app?vid=762e1ef7-8c2d-4c13-a619-d3a8e1875c25"},"vehicle_type_id":"4","last_reported":1717247221,"current_range_meters":31200,"station_id":"ce4bgpp2rcd13ifvqc3g","pricing_plan_id":"cebpf4jnsgd1na2vs0mg"},{"bike_id":"3eeb4ae6-831c-4d43-8616-36134cddaa5d","system_id":"levelo_inurba_marseille","lat":43.298433,"lon":5.362774,"is_reserved":false,"is_disabled":false,"rental_uris":{"android":"levelo://app?vid=3eeb4ae6-831c-4d43-8616-36134cddaa5d","ios":"levelo://app?vid=3eeb4ae6-831c-4d43-8616-36134cddaa5d"},"vehicle_type_id":"4","last_reported":1717247221,"current_range_meters":24000,"station_id":"ce4bgpp2rcd13ifvqc3g","pricing_plan_id":"cebpf4jnsgd1na2vs0mg"},{"bike_id":"1c9364ee-a431-47d4-b3f2-87e55795a12e","system_id":"levelo_inurba_marseille","lat":43.298433,"lon":5.362774,"is_reserved":false,"is_disabled":false,"rental_uris":{"android":"levelo://app?vid=1c9364ee-a431-47d4-b3f2-87e55795a12e","ios":"levelo://app?vid=1c9364ee-a431-47d4-b3f2-87e55795a12e"},"vehicle_type_id":"4","last_reported":1717247221,"current_range_meters":30400,"station_id":"ce4bgpp2rcd13ifvqc3g","pricing_plan_id":"cebpf4jnsgd1na2vs0mg"},{"bike_id":"f84d3df7-fb22-4209-908f-3dea0bb2eff9","system_id":"levelo_inurba_marseille","lat":43.298433,"lon":5.362774,"is_reserved":false,"is_disabled":false,"rental_uris":{"android":"levelo://app?vid=f84d3df7-fb22-4209-908f-3dea0bb2eff9","ios":"levelo://app?vid=f84d3df7-fb22-4209-908f-3dea0bb2eff9"},"vehicle_type_id":"4","last_reported":1717247221,"current_range_meters":20000,"station_id":"ce4bgpp2rcd13ifvqc3g","pricing_plan_id":"cebpf4jnsgd1na2vs0mg"},{"bike_id":"f454c5a6-0af1-4cdd-ad2c-6562fccee135","system_id":"levelo_inurba_marseille","lat":43.298433,"lon":5.362774,"is_reserved":false,"is_disabled":false,"rental_uris":{"android":"levelo://app?vid=f454c5a6-0af1-4cdd-ad2c-6562fccee135","ios":"levelo://app?vid=f454c5a6-0af1-4cdd-ad2c-6562fccee135"},"vehicle_type_id":"4","last_reported":1717247221,"current_range_meters":26400,"station_id":"ce4bgpp2rcd13ifvqc3g","pricing_plan_id":"cebpf4jnsgd1na2vs0mg"},{"bike_id":"7c0279c4-785e-41cc-9875-11b1aa5697b0","system_id":"levelo_inurba_marseille","lat":43.298433,"lon":5.362774,"is_reserved":false,"is_disabled":false,"rental_uris":{"android":"levelo://app?vid=7c0279c4-785e-41cc-9875-11b1aa5697b0","ios":"levelo://app?vid=7c0279c4-785e-41cc-9875-11b1aa5697b0"},"vehicle_type_id":"4","last_reported":1717247221,"current_range_meters":30400,"station_id":"ce4bgpp2rcd13ifvqc3g","pricing_plan_id":"cebpf4jnsgd1na2vs0mg"},{"bike_id":"35d1f0d9-c12a-4ffd-b70b-faff209c1c16","system_id":"levelo_inurba_marseille","lat":43.298433,"lon":5.362774,"is_reserved":false,"is_disabled":false,"rental_uris":{"android":"levelo://app?vid=35d1f0d9-c12a-4ffd-b70b-faff209c1c16","ios":"levelo://app?vid=35d1f0d9-c12a-4ffd-b70b-faff209c1c16"},"vehicle_type_id":"4","last_reported":1717247221,"current_range_meters":31600,"station_id":"ce4bgpp2rcd13ifvqc3g","pricing_plan_id":"cebpf4jnsgd1na2vs0mg"},{"bike_id":"14ac5e2d-a6d5-4c09-bbd0-a0b4e0149926","system_id":"levelo_inurba_marseille","lat":43.305429,"lon":5.38437,"is_reserved":false,"is_disabled":false,"rental_uris":{"android":"levelo://app?vid=14ac5e2d-a6d5-4c09-bbd0-a0b4e0149926","ios":"levelo://app?vid=14ac5e2d-a6d5-4c09-bbd0-a0b4e0149926"},"vehicle_type_id":"4","last_reported":1717247221,"current_range_meters":28800,"station_id":"ce4bgg92rcd13ifvqb30","pricing_plan_id":"cebpf4jnsgd1na2vs0mg"},{"bike_id":"dc6102c1-8748-49ac-8b78-3c247e76394d","system_id":"levelo_inurba_marseille","lat":43.298433,"lon":5.362774,"is_reserved":false,"is_disabled":false,"rental_uris":{"android":"levelo://app?vid=dc6102c1-8748-49ac-8b78-3c247e76394d","ios":"levelo://app?vid=dc6102c1-8748-49ac-8b78-3c247e76394d"},"vehicle_type_id":"4","last_reported":1717247221,"current_range_meters":26800,"station_id":"ce4bgpp2rcd13ifvqc3g","pricing_plan_id":"cebpf4jnsgd1na2vs0mg"},{"bike_id":"cd22e9bd-c297-4bc2-b7f9-af8153c1612e","system_id":"levelo_inurba_marseille","lat":43.299243,"lon":5.374807,"is_reserved":false,"is_disabled":false,"rental_uris":{"android":"levelo://app?vid=cd22e9bd-c297-4bc2-b7f9-af8153c1612e","ios":"levelo://app?vid=cd22e9bd-c297-4bc2-b7f9-af8153c1612e"},"vehicle_type_id":"4","last_reported":1717247221,"current_range_meters":17600,"station_id":"ce4bgjh2rcd13ifvqbg0","pricing_plan_id":"cebpf4jnsgd1na2vs0mg"},{"bike_id":"c1c1fc2a-16b4-4f51-8ee6-67202bee2594","system_id":"levelo_inurba_marseille","lat":43.311722,"lon":5.387247,"is_reserved":false,"is_disabled":false,"rental_uris":{"android":"levelo://app?vid=c1c1fc2a-16b4-4f51-8ee6-67202bee2594","ios":"levelo://app?vid=c1c1fc2a-16b4-4f51-8ee6-67202bee2594"},"vehicle_type_id":"4","last_reported":1717247221,"current_range_meters":14000,"station_id":"ce4bgv12rcd13ifvqcp0","pricing_plan_id":"cebpf4jnsgd1na2vs0mg"},{"bike_id":"c43f7039-475d-43bf-864e-844b41095ea4","system_id":"levelo_inurba_marseille","lat":43.311722,"lon":5.387247,"is_reserved":false,"is_disabled":false,"rental_uris":{"android":"levelo://app?vid=c43f7039-475d-43bf-864e-844b41095ea4","ios":"levelo://app?vid=c43f7039-475d-43bf-864e-844b41095ea4"},"vehicle_type_id":"4","last_reported":1717247221,"current_range_meters":1600,"station_id":"ce4bgv12rcd13ifvqcp0","pricing_plan_id":"cebpf4jnsgd1na2vs0mg"},{"bike_id":"00ca0f62-4c47-40c8-9396-8b34aa711d9f","system_id":"levelo_inurba_marseille","lat":43.299243,"lon":5.37481,"is_reserved":false,"is_disabled":false,"rental_uris":{"android":"levelo://app?vid=00ca0f62-4c47-40c8-9396-8b34aa711d9f","ios":"levelo://app?vid=00ca0f62-4c47-40c8-9396-8b34aa711d9f"},"vehicle_type_id":"4","last_reported":1717247221,"current_range_meters":17200,"station_id":"ce4bgjh2rcd13ifvqbg0","pricing_plan_id":"cebpf4jnsgd1na2vs0mg"},{"bike_id":"10fb4334-c940-4455-979b-d3f1ca32e262","system_id":"levelo_inurba_marseille","lat":43.297774,"lon":5.370875,"is_reserved":false,"is_disabled":false,"rental_uris":{"android":"levelo://app?vid=10fb4334-c940-4455-979b-d3f1ca32e262","ios":"levelo://app?vid=10fb4334-c940-4455-979b-d3f1ca32e262"},"vehicle_type_id":"4","last_reported":1717247221,"current_range_meters":29600,"station_id":"ce4bgop2rcd13ifvqc1g","pricing_plan_id":"cebpf4jnsgd1na2vs0mg"},{"bike_id":"fb5f773c-3b64-4abb-9291-8bdd0ceb4b7d","system_id":"levelo_inurba_marseille","lat":43.29779,"lon":5.37107,"is_reserved":false,"is_disabled":false,"rental_uris":{"android":"levelo://app?vid=fb5f773c-3b64-4abb-9291-8bdd0ceb4b7d","ios":"levelo://app?vid=fb5f773c-3b64-4abb-9291-8bdd0ceb4b7d"},"vehicle_type_id":"4","last_reported":1717247221,"current_range_meters":0,"station_id":"ce4bgop2rcd13ifvqc1g","pricing_plan_id":"cebpf4jnsgd1na2vs0mg"},{"bike_id":"c8674664-0329-42f4-a28d-5fe68827d1fa","system_id":"levelo_inurba_marseille","lat":43.322872,"lon":5.382756,"is_reserved":false,"is_disabled":false,"rental_uris":{"android":"levelo://app?vid=c8674664-0329-42f4-a28d-5fe68827d1fa","ios":"levelo://app?vid=c8674664-0329-42f4-a28d-5fe68827d1fa"},"vehicle_type_id":"4","last_reported":1717247221,"current_range_meters":23600,"station_id":"ce4bhr12rcd13ifvqhqg","pricing_plan_id":"cebpf4jnsgd1na2vs0mg"},{"bike_id":"a6850727-00b1-4dd8-bb80-3e158c4e1090","system_id":"levelo_inurba_marseille","lat":43.322872,"lon":5.382756,"is_reserved":false,"is_disabled":false,"rental_uris":{"android":"levelo://app?vid=a6850727-00b1-4dd8-bb80-3e158c4e1090","ios":"levelo://app?vid=a6850727-00b1-4dd8-bb80-3e158c4e1090"},"vehicle_type_id":"4","last_reported":1717247221,"current_range_meters":30000,"station_id":"ce4bhr12rcd13ifvqhqg","pricing_plan_id":"cebpf4jnsgd1na2vs0mg"},{"bike_id":"e5d782f4-4702-47c8-9eee-86e56a037e15","system_id":"levelo_inurba_marseille","lat":43.296129,"lon":5.370777,"is_reserved":false,"is_disabled":false,"rental_uris":{"android":"levelo://app?vid=e5d782f4-4702-47c8-9eee-86e56a037e15","ios":"levelo://app?vid=e5d782f4-4702-47c8-9eee-86e56a037e15"},"vehicle_type_id":"4","last_reported":1717247221,"current_range_meters":12400,"station_id":"ce4bgnh2rcd13ifvqc0g","pricing_plan_id":"cebpf4jnsgd1na2vs0mg"},{"bike_id":"8fb44a9c-b824-4cc3-91e5-5f1e095a7e50","system_id":"levelo_inurba_marseille","lat":43.296129,"lon":5.370777,"is_reserved":false,"is_disabled":false,"rental_uris":{"android":"levelo://app?vid=8fb44a9c-b824-4cc3-91e5-5f1e095a7e50","ios":"levelo://app?vid=8fb44a9c-b824-4cc3-91e5-5f1e095a7e50"},"vehicle_type_id":"4","last_reported":1717247221,"current_range_meters":13200,"station_id":"ce4bgnh2rcd13ifvqc0g","pricing_plan_id":"cebpf4jnsgd1na2vs0mg"},{"bike_id":"d045cb7f-7b99-4c63-aa23-9002fb822372","system_id":"levelo_inurba_marseille","lat":43.296129,"lon":5.370777,"is_reserved":false,"is_disabled":false,"rental_uris":{"android":"levelo://app?vid=d045cb7f-7b99-4c63-aa23-9002fb822372","ios":"levelo://app?vid=d045cb7f-7b99-4c63-aa23-9002fb822372"},"vehicle_type_id":"4","last_reported":1717247221,"current_range_meters":0,"station_id":"ce4bgnh2rcd13ifvqc0g","pricing_plan_id":"cebpf4jnsgd1na2vs0mg"},{"bike_id":"71ab782a-0478-4a67-8682-ec4feaa3f098","system_id":"levelo_inurba_marseille","lat":43.29573,"lon":5.367355,"is_reserved":false,"is_disabled":false,"rental_uris":{"android":"levelo://app?vid=71ab782a-0478-4a67-8682-ec4feaa3f098","ios":"levelo://app?vid=71ab782a-0478-4a67-8682-ec4feaa3f098"},"vehicle_type_id":"4","last_reported":1717247221,"current_range_meters":14400,"station_id":"ce4bgph2rcd13ifvqc2g","pricing_plan_id":"cebpf4jnsgd1na2vs0mg"},{"bike_id":"0fe9df6e-3535-41f1-9e02-cc151d593def","system_id":"levelo_inurba_marseille","lat":43.299028,"lon":5.381509,"is_reserved":false,"is_disabled":false,"rental_uris":{"android":"levelo://app?vid=0fe9df6e-3535-41f1-9e02-cc151d593def","ios":"levelo://app?vid=0fe9df6e-3535-41f1-9e02-cc151d593def"},"vehicle_type_id":"4","last_reported":1717247221,"current_range_meters":27200,"station_id":"ce4bgj12rcd13ifvqbc0","pricing_plan_id":"cebpf4jnsgd1na2vs0mg"},{"bike_id":"d2ef0d70-e3f0-4ec1-934d-ab92358043de","system_id":"levelo_inurba_marseille","lat":43.297019,"lon":5.376976,"is_reserved":false,"is_disabled":false,"rental_uris":{"android":"levelo://app?vid=d2ef0d70-e3f0-4ec1-934d-ab92358043de","ios":"levelo://app?vid=d2ef0d70-e3f0-4ec1-934d-ab92358043de"},"vehicle_type_id":"4","last_reported":1717247221,"current_range_meters":0,"station_id":"ce4bgkh2rcd13ifvqbl0","pricing_plan_id":"cebpf4jnsgd1na2vs0mg"},{"bike_id":"cf398335-98db-4940-9184-fd281101984e","system_id":"levelo_inurba_marseille","lat":43.309589,"lon":5.390258,"is_reserved":false,"is_disabled":false,"rental_uris":{"android":"levelo://app?vid=cf398335-98db-4940-9184-fd281101984e","ios":"levelo://app?vid=cf398335-98db-4940-9184-fd281101984e"},"vehicle_type_id":"4","last_reported":1717247221,"current_range_meters":0,"station_id":"ce4bgup2rcd13ifvqco0","pricing_plan_id":"cebpf4jnsgd1na2vs0mg"},{"bike_id":"bf6888c7-ebc4-47bd-a255-c0d0bb411962","system_id":"levelo_inurba_marseille","lat":43.299028,"lon":5.381509,"is_reserved":false,"is_disabled":false,"rental_uris":{"android":"levelo://app?vid=bf6888c7-ebc4-47bd-a255-c0d0bb411962","ios":"levelo://app?vid=bf6888c7-ebc4-47bd-a255-c0d0bb411962"},"vehicle_type_id":"4","last_reported":1717247221,"current_range_meters":12000,"station_id":"ce4bgj12rcd13ifvqbc0","pricing_plan_id":"cebpf4jnsgd1na2vs0mg"},{"bike_id":"d10b8883-bed4-44f9-ba98-b2fe5c001107","system_id":"levelo_inurba_marseille","lat":43.304274,"lon":5.388873,"is_reserved":false,"is_disabled":false,"rental_uris":{"android":"levelo://app?vid=d10b8883-bed4-44f9-ba98-b2fe5c001107","ios":"levelo://app?vid=d10b8883-bed4-44f9-ba98-b2fe5c001107"},"vehicle_type_id":"4","last_reported":1717247221,"current_range_meters":0,"station_id":"ce4bgk12rcd13ifvqbi0","pricing_plan_id":"cebpf4jnsgd1na2vs0mg"},{"bike_id":"a0e1db86-8ba5-4bea-a89a-e879a870b2c0","system_id":"levelo_inurba_marseille","lat":43.298037,"lon":5.381066,"is_reserved":false,"is_disabled":false,"rental_uris":{"android":"levelo://app?vid=a0e1db86-8ba5-4bea-a89a-e879a870b2c0","ios":"levelo://app?vid=a0e1db86-8ba5-4bea-a89a-e879a870b2c0"},"vehicle_type_id":"4","last_reported":1717247221,"current_range_meters":15200,"station_id":"ce4bgip2rcd13ifvqbb0","pricing_plan_id":"cebpf4jnsgd1na2vs0mg"},{"bike_id":"0c9d5899-ebe8-442e-9a53-9b1ccfe1fd5a","system_id":"levelo_inurba_marseille","lat":43.304278,"lon":5.388868,"is_reserved":false,"is_disabled":false,"rental_uris":{"android":"levelo://app?vid=0c9d5899-ebe8-442e-9a53-9b1ccfe1fd5a","ios":"levelo://app?vid=0c9d5899-ebe8-442e-9a53-9b1ccfe1fd5a"},"vehicle_type_id":"4","last_reported":1717247221,"current_range_meters":0,"station_id":"ce4bgk12rcd13ifvqbi0","pricing_plan_id":"cebpf4jnsgd1na2vs0mg"},{"bike_id":"4acdc5b0-eeea-4a40-95ce-33dd1b3ff977","system_id":"levelo_inurba_marseille","lat":43.304274,"lon":5.388873,"is_reserved":false,"is_disabled":false,"rental_uris":{"android":"levelo://app?vid=4acdc5b0-eeea-4a40-95ce-33dd1b3ff977","ios":"levelo://app?vid=4acdc5b0-eeea-4a40-95ce-33dd1b3ff977"},"vehicle_type_id":"4","last_reported":1717247221,"current_range_meters":17600,"station_id":"ce4bgk12rcd13ifvqbi0","pricing_plan_id":"cebpf4jnsgd1na2vs0mg"},{"bike_id":"a291b308-1b9e-4b9c-88b3-54b23ae1792d","system_id":"levelo_inurba_marseille","lat":43.29611,"lon":5.377303,"is_reserved":false,"is_disabled":false,"rental_uris":{"android":"levelo://app?vid=a291b308-1b9e-4b9c-88b3-54b23ae1792d","ios":"levelo://app?vid=a291b308-1b9e-4b9c-88b3-54b23ae1792d"},"vehicle_type_id":"4","last_reported":1717247221,"current_range_meters":0,"station_id":"ce4bgi92rcd13ifvqb90","pricing_plan_id":"cebpf4jnsgd1na2vs0mg"},{"bike_id":"9ff30e37-7f42-4526-a666-e0b766adfc73","system_id":"levelo_inurba_marseille","lat":43.298037,"lon":5.381066,"is_reserved":false,"is_disabled":false,"rental_uris":{"android":"levelo://app?vid=9ff30e37-7f42-4526-a666-e0b766adfc73","ios":"levelo://app?vid=9ff30e37-7f42-4526-a666-e0b766adfc73"},"vehicle_type_id":"4","last_reported":1717247221,"current_range_meters":2400,"station_id":"ce4bgip2rcd13ifvqbb0","pricing_plan_id":"cebpf4jnsgd1na2vs0mg"},{"bike_id":"319866fe-d9ba-4b9d-9094-9deae993c3dd","system_id":"levelo_inurba_marseille","lat":43.299717,"lon":5.384845,"is_reserved":false,"is_disabled":false,"rental_uris":{"android":"levelo://app?vid=319866fe-d9ba-4b9d-9094-9deae993c3dd","ios":"levelo://app?vid=319866fe-d9ba-4b9d-9094-9deae993c3dd"},"vehicle_type_id":"4","last_reported":1717247221,"current_range_meters":11200,"station_id":"ce4bgj92rcd13ifvqbd0","pricing_plan_id":"cebpf4jnsgd1na2vs0mg"},{"bike_id":"eda2d1ec-cdcf-4b38-b72d-6c5fba6cadea","system_id":"levelo_inurba_marseille","lat":43.299717,"lon":5.384845,"is_reserved":false,"is_disabled":false,"rental_uris":{"android":"levelo://app?vid=eda2d1ec-cdcf-4b38-b72d-6c5fba6cadea","ios":"levelo://app?vid=eda2d1ec-cdcf-4b38-b72d-6c5fba6cadea"},"vehicle_type_id":"4","last_reported":1717247221,"current_range_meters":0,"station_id":"ce4bgj92rcd13ifvqbd0","pricing_plan_id":"cebpf4jnsgd1na2vs0mg"},{"bike_id":"5b6682b7-f4d9-4755-8a06-92450fc643da","system_id":"levelo_inurba_marseille","lat":43.299724,"lon":5.384848,"is_reserved":false,"is_disabled":false,"rental_uris":{"android":"levelo://app?vid=5b6682b7-f4d9-4755-8a06-92450fc643da","ios":"levelo://app?vid=5b6682b7-f4d9-4755-8a06-92450fc643da"},"vehicle_type_id":"4","last_reported":1717247221,"current_range_meters":18800,"station_id":"ce4bgj92rcd13ifvqbd0","pricing_plan_id":"cebpf4jnsgd1na2vs0mg"},{"bike_id":"fa1048d6-619b-4726-8c66-0ee6a2cd639c","system_id":"levelo_inurba_marseille","lat":43.293009,"lon":5.374584,"is_reserved":false,"is_disabled":false,"rental_uris":{"android":"levelo://app?vid=fa1048d6-619b-4726-8c66-0ee6a2cd639c","ios":"levelo://app?vid=fa1048d6-619b-4726-8c66-0ee6a2cd639c"},"vehicle_type_id":"4","last_reported":1717247221,"current_range_meters":22000,"station_id":"ce4bgi12rcd13ifvqb70","pricing_plan_id":"cebpf4jnsgd1na2vs0mg"},{"bike_id":"14c0076a-c7f1-4937-bda4-db96e6ccd7b9","system_id":"levelo_inurba_marseille","lat":43.293259,"lon":5.371586,"is_reserved":false,"is_disabled":false,"rental_uris":{"android":"levelo://app?vid=14c0076a-c7f1-4937-bda4-db96e6ccd7b9","ios":"levelo://app?vid=14c0076a-c7f1-4937-bda4-db96e6ccd7b9"},"vehicle_type_id":"4","last_reported":1717247221,"current_range_meters":11600,"station_id":"ce4bgh92rcd13ifvqb40","pricing_plan_id":"cebpf4jnsgd1na2vs0mg"},{"bike_id":"577d18cf-b45a-463f-a240-a154e9674dad","system_id":"levelo_inurba_marseille","lat":43.293009,"lon":5.374584,"is_reserved":false,"is_disabled":false,"rental_uris":{"android":"levelo://app?vid=577d18cf-b45a-463f-a240-a154e9674dad","ios":"levelo://app?vid=577d18cf-b45a-463f-a240-a154e9674dad"},"vehicle_type_id":"4","last_reported":1717247221,"current_range_meters":5600,"station_id":"ce4bgi12rcd13ifvqb70","pricing_plan_id":"cebpf4jnsgd1na2vs0mg"},{"bike_id":"059ee511-7e09-4890-a80e-94daec3bb61c","system_id":"levelo_inurba_marseille","lat":43.305994,"lon":5.393687,"is_reserved":false,"is_disabled":false,"rental_uris":{"android":"levelo://app?vid=059ee511-7e09-4890-a80e-94daec3bb61c","ios":"levelo://app?vid=059ee511-7e09-4890-a80e-94daec3bb61c"},"vehicle_type_id":"4","last_reported":1717247221,"current_range_meters":8800,"station_id":"ce4bh0p2rcd13ifvqd80","pricing_plan_id":"cebpf4jnsgd1na2vs0mg"},{"bike_id":"676e5729-7786-47c2-8f37-2b78f7e407d0","system_id":"levelo_inurba_marseille","lat":43.293009,"lon":5.374584,"is_reserved":false,"is_disabled":false,"rental_uris":{"android":"levelo://app?vid=676e5729-7786-47c2-8f37-2b78f7e407d0","ios":"levelo://app?vid=676e5729-7786-47c2-8f37-2b78f7e407d0"},"vehicle_type_id":"4","last_reported":1717247221,"current_range_meters":28000,"station_id":"ce4bgi12rcd13ifvqb70","pricing_plan_id":"cebpf4jnsgd1na2vs0mg"},{"bike_id":"db4818b3-8267-440b-8872-2667883e55fb","system_id":"levelo_inurba_marseille","lat":43.29235,"lon":5.36076,"is_reserved":false,"is_disabled":false,"rental_uris":{"android":"levelo://app?vid=db4818b3-8267-440b-8872-2667883e55fb","ios":"levelo://app?vid=db4818b3-8267-440b-8872-2667883e55fb"},"vehicle_type_id":"4","last_reported":1717247221,"current_range_meters":7600,"station_id":"ce4bhbh2rcd13ifvqeqg","pricing_plan_id":"cebpf4jnsgd1na2vs0mg"},{"bike_id":"1f6e4c25-382c-4cfc-bde7-a19d72b506ee","system_id":"levelo_inurba_marseille","lat":43.292311,"lon":5.360731,"is_reserved":false,"is_disabled":false,"rental_uris":{"android":"levelo://app?vid=1f6e4c25-382c-4cfc-bde7-a19d72b506ee","ios":"levelo://app?vid=1f6e4c25-382c-4cfc-bde7-a19d72b506ee"},"vehicle_type_id":"4","last_reported":1717247221,"current_range_meters":11200,"station_id":"ce4bhbh2rcd13ifvqeqg","pricing_plan_id":"cebpf4jnsgd1na2vs0mg"},{"bike_id":"63f56ece-77db-4606-ac3c-e668e07024f4","system_id":"levelo_inurba_marseille","lat":43.2923,"lon":5.36061,"is_reserved":false,"is_disabled":false,"rental_uris":{"android":"levelo://app?vid=63f56ece-77db-4606-ac3c-e668e07024f4","ios":"levelo://app?vid=63f56ece-77db-4606-ac3c-e668e07024f4"},"vehicle_type_id":"4","last_reported":1717247221,"current_range_meters":0,"station_id":"ce4bhbh2rcd13ifvqeqg","pricing_plan_id":"cebpf4jnsgd1na2vs0mg"},{"bike_id":"6bbf3791-6426-4d03-af7e-14ed1b009d8d","system_id":"levelo_inurba_marseille","lat":43.30088,"lon":5.3908,"is_reserved":false,"is_disabled":false,"rental_uris":{"android":"levelo://app?vid=6bbf3791-6426-4d03-af7e-14ed1b009d8d","ios":"levelo://app?vid=6bbf3791-6426-4d03-af7e-14ed1b009d8d"},"vehicle_type_id":"4","last_reported":1717247221,"current_range_meters":0,"station_id":"","pricing_plan_id":"cebpf4jnsgd1na2vs0mg"},{"bike_id":"fbf79270-db9f-45f7-b366-4c8c67eb08bd","system_id":"levelo_inurba_marseille","lat":43.298764,"lon":5.388973,"is_reserved":false,"is_disabled":false,"rental_uris":{"android":"levelo://app?vid=fbf79270-db9f-45f7-b366-4c8c67eb08bd","ios":"levelo://app?vid=fbf79270-db9f-45f7-b366-4c8c67eb08bd"},"vehicle_type_id":"4","last_reported":1717247221,"current_range_meters":21600,"station_id":"ce4bh392rcd13ifvqdl0","pricing_plan_id":"cebpf4jnsgd1na2vs0mg"},{"bike_id":"da501896-996b-448a-8de4-3e5ab0cb1a65","system_id":"levelo_inurba_marseille","lat":43.291675,"lon":5.371583,"is_reserved":false,"is_disabled":false,"rental_uris":{"android":"levelo://app?vid=da501896-996b-448a-8de4-3e5ab0cb1a65","ios":"levelo://app?vid=da501896-996b-448a-8de4-3e5ab0cb1a65"},"vehicle_type_id":"4","last_reported":1717247221,"current_range_meters":23200,"station_id":"ce4bha92rcd13ifvqeh0","pricing_plan_id":"cebpf4jnsgd1na2vs0mg"},{"bike_id":"924b4191-c3e7-400a-887a-dd1e0a44ec47","system_id":"levelo_inurba_marseille","lat":43.292,"lon":5.35811,"is_reserved":false,"is_disabled":false,"rental_uris":{"android":"levelo://app?vid=924b4191-c3e7-400a-887a-dd1e0a44ec47","ios":"levelo://app?vid=924b4191-c3e7-400a-887a-dd1e0a44ec47"},"vehicle_type_id":"4","last_reported":1717247221,"current_range_meters":31600,"station_id":"ce4bhb12rcd13ifvqel0","pricing_plan_id":"cebpf4jnsgd1na2vs0mg"},{"bike_id":"7a9b7777-7b94-42e3-b25c-4dbc5d64880d","system_id":"levelo_inurba_marseille","lat":43.291941,"lon":5.358082,"is_reserved":false,"is_disabled":false,"rental_uris":{"android":"levelo://app?vid=7a9b7777-7b94-42e3-b25c-4dbc5d64880d","ios":"levelo://app?vid=7a9b7777-7b94-42e3-b25c-4dbc5d64880d"},"vehicle_type_id":"4","last_reported":1717247221,"current_range_meters":15200,"station_id":"ce4bhb12rcd13ifvqel0","pricing_plan_id":"cebpf4jnsgd1na2vs0mg"},{"bike_id":"c2561abb-13d1-4656-9a6e-244191aec242","system_id":"levelo_inurba_marseille","lat":43.29192,"lon":5.35812,"is_reserved":false,"is_disabled":false,"rental_uris":{"android":"levelo://app?vid=c2561abb-13d1-4656-9a6e-244191aec242","ios":"levelo://app?vid=c2561abb-13d1-4656-9a6e-244191aec242"},"vehicle_type_id":"4","last_reported":1717247221,"current_range_meters":0,"station_id":"ce4bhb12rcd13ifvqel0","pricing_plan_id":"cebpf4jnsgd1na2vs0mg"},{"bike_id":"76123a8d-af0a-48fb-b475-282822bafa46","system_id":"levelo_inurba_marseille","lat":43.309047,"lon":5.396551,"is_reserved":false,"is_disabled":false,"rental_uris":{"android":"levelo://app?vid=76123a8d-af0a-48fb-b475-282822bafa46","ios":"levelo://app?vid=76123a8d-af0a-48fb-b475-282822bafa46"},"vehicle_type_id":"4","last_reported":1717247221,"current_range_meters":24000,"station_id":"ce4bh012rcd13ifvqcv0","pricing_plan_id":"cebpf4jnsgd1na2vs0mg"},{"bike_id":"f87e40e3-2c36-47a4-a080-ec7a5ada86b7","system_id":"levelo_inurba_marseille","lat":43.29195,"lon":5.35789,"is_reserved":false,"is_disabled":false,"rental_uris":{"android":"levelo://app?vid=f87e40e3-2c36-47a4-a080-ec7a5ada86b7","ios":"levelo://app?vid=f87e40e3-2c36-47a4-a080-ec7a5ada86b7"},"vehicle_type_id":"4","last_reported":1717247221,"current_range_meters":0,"station_id":"ce4bhb12rcd13ifvqel0","pricing_plan_id":"cebpf4jnsgd1na2vs0mg"},{"bike_id":"4d3c82a3-c6c6-4d5c-a61a-301f82f9bcdc","system_id":"levelo_inurba_marseille","lat":43.313291,"lon":5.396838,"is_reserved":false,"is_disabled":false,"rental_uris":{"android":"levelo://app?vid=4d3c82a3-c6c6-4d5c-a61a-301f82f9bcdc","ios":"levelo://app?vid=4d3c82a3-c6c6-4d5c-a61a-301f82f9bcdc"},"vehicle_type_id":"4","last_reported":1717247221,"current_range_meters":28000,"station_id":"ce4bgvp2rcd13ifvqcu0","pricing_plan_id":"cebpf4jnsgd1na2vs0mg"},{"bike_id":"a9dbcc31-a0ca-4146-8a1a-a71d41f62f94","system_id":"levelo_inurba_marseille","lat":43.29188,"lon":5.35807,"is_reserved":false,"is_disabled":false,"rental_uris":{"android":"levelo://app?vid=a9dbcc31-a0ca-4146-8a1a-a71d41f62f94","ios":"levelo://app?vid=a9dbcc31-a0ca-4146-8a1a-a71d41f62f94"},"vehicle_type_id":"4","last_reported":1717247221,"current_range_meters":8800,"station_id":"ce4bhb12rcd13ifvqel0","pricing_plan_id":"cebpf4jnsgd1na2vs0mg"},{"bike_id":"de856110-674d-4a03-95a8-66308c3bbdf8","system_id":"levelo_inurba_marseille","lat":43.309038,"lon":5.396546,"is_reserved":false,"is_disabled":false,"rental_uris":{"android":"levelo://app?vid=de856110-674d-4a03-95a8-66308c3bbdf8","ios":"levelo://app?vid=de856110-674d-4a03-95a8-66308c3bbdf8"},"vehicle_type_id":"4","last_reported":1717247221,"current_range_meters":18000,"station_id":"ce4bh012rcd13ifvqcv0","pricing_plan_id":"cebpf4jnsgd1na2vs0mg"},{"bike_id":"24a7e525-0ff2-4dea-82aa-d256caf19a0e","system_id":"levelo_inurba_marseille","lat":43.29529,"lon":5.385581,"is_reserved":false,"is_disabled":false,"rental_uris":{"android":"levelo://app?vid=24a7e525-0ff2-4dea-82aa-d256caf19a0e","ios":"levelo://app?vid=24a7e525-0ff2-4dea-82aa-d256caf19a0e"},"vehicle_type_id":"4","last_reported":1717247221,"current_range_meters":800,"station_id":"ce4bgih2rcd13ifvqba0","pricing_plan_id":"cebpf4jnsgd1na2vs0mg"},{"bike_id":"7db2ae51-f469-4cca-be37-08bc7c5ed368","system_id":"levelo_inurba_marseille","lat":43.29529,"lon":5.385581,"is_reserved":false,"is_disabled":false,"rental_uris":{"android":"levelo://app?vid=7db2ae51-f469-4cca-be37-08bc7c5ed368","ios":"levelo://app?vid=7db2ae51-f469-4cca-be37-08bc7c5ed368"},"vehicle_type_id":"4","last_reported":1717247221,"current_range_meters":9600,"station_id":"ce4bgih2rcd13ifvqba0","pricing_plan_id":"cebpf4jnsgd1na2vs0mg"},{"bike_id":"733ce059-1cf8-453f-b120-538dad9e9664","system_id":"levelo_inurba_marseille","lat":43.290779,"lon":5.371482,"is_reserved":false,"is_disabled":false,"rental_uris":{"android":"levelo://app?vid=733ce059-1cf8-453f-b120-538dad9e9664","ios":"levelo://app?vid=733ce059-1cf8-453f-b120-538dad9e9664"},"vehicle_type_id":"4","last_reported":1717247221,"current_range_meters":0,"station_id":"ce4bh5p2rcd13ifvqe4g","pricing_plan_id":"cebpf4jnsgd1na2vs0mg"},{"bike_id":"16019f25-dded-4eba-b54c-aec8aeb63025","system_id":"levelo_inurba_marseille","lat":43.289184,"lon":5.366408,"is_reserved":false,"is_disabled":false,"rental_uris":{"android":"levelo://app?vid=16019f25-dded-4eba-b54c-aec8aeb63025","ios":"levelo://app?vid=16019f25-dded-4eba-b54c-aec8aeb63025"},"vehicle_type_id":"4","last_reported":1717247221,"current_range_meters":8000,"station_id":"ce4bhap2rcd13ifvqek0","pricing_plan_id":"cebpf4jnsgd1na2vs0mg"},{"bike_id":"7ad4f5df-f2f9-42f6-bea9-580a2fefafa3","system_id":"levelo_inurba_marseille","lat":43.290624,"lon":5.359245,"is_reserved":false,"is_disabled":false,"rental_uris":{"android":"levelo://app?vid=7ad4f5df-f2f9-42f6-bea9-580a2fefafa3","ios":"levelo://app?vid=7ad4f5df-f2f9-42f6-bea9-580a2fefafa3"},"vehicle_type_id":"4","last_reported":1717247221,"current_range_meters":16800,"station_id":"ce4bha92rcd13ifvqeg0","pricing_plan_id":"cebpf4jnsgd1na2vs0mg"},{"bike_id":"e743b6b9-dcdd-4236-bae5-f023b5cbdef7","system_id":"levelo_inurba_marseille","lat":43.290631,"lon":5.359244,"is_reserved":false,"is_disabled":false,"rental_uris":{"android":"levelo://app?vid=e743b6b9-dcdd-4236-bae5-f023b5cbdef7","ios":"levelo://app?vid=e743b6b9-dcdd-4236-bae5-f023b5cbdef7"},"vehicle_type_id":"4","last_reported":1717247221,"current_range_meters":0,"station_id":"ce4bha92rcd13ifvqeg0","pricing_plan_id":"cebpf4jnsgd1na2vs0mg"},{"bike_id":"ee63f2dc-c47c-4b2b-8f4a-9e76f6136b2f","system_id":"levelo_inurba_marseille","lat":43.290631,"lon":5.359244,"is_reserved":false,"is_disabled":false,"rental_uris":{"android":"levelo://app?vid=ee63f2dc-c47c-4b2b-8f4a-9e76f6136b2f","ios":"levelo://app?vid=ee63f2dc-c47c-4b2b-8f4a-9e76f6136b2f"},"vehicle_type_id":"4","last_reported":1717247221,"current_range_meters":20400,"station_id":"ce4bha92rcd13ifvqeg0","pricing_plan_id":"cebpf4jnsgd1na2vs0mg"},{"bike_id":"a14a1ced-f4a1-486e-9bf7-70b2b2673a94","system_id":"levelo_inurba_marseille","lat":43.290624,"lon":5.359245,"is_reserved":false,"is_disabled":false,"rental_uris":{"android":"levelo://app?vid=a14a1ced-f4a1-486e-9bf7-70b2b2673a94","ios":"levelo://app?vid=a14a1ced-f4a1-486e-9bf7-70b2b2673a94"},"vehicle_type_id":"4","last_reported":1717247221,"current_range_meters":8000,"station_id":"ce4bha92rcd13ifvqeg0","pricing_plan_id":"cebpf4jnsgd1na2vs0mg"},{"bike_id":"f2e0a8d2-7949-4985-8eb8-a767f7297501","system_id":"levelo_inurba_marseille","lat":43.290624,"lon":5.359245,"is_reserved":false,"is_disabled":false,"rental_uris":{"android":"levelo://app?vid=f2e0a8d2-7949-4985-8eb8-a767f7297501","ios":"levelo://app?vid=f2e0a8d2-7949-4985-8eb8-a767f7297501"},"vehicle_type_id":"4","last_reported":1717247221,"current_range_meters":16000,"station_id":"ce4bha92rcd13ifvqeg0","pricing_plan_id":"cebpf4jnsgd1na2vs0mg"},{"bike_id":"5f34197e-c6f2-487f-aeb6-eb2a424137a7","system_id":"levelo_inurba_marseille","lat":43.290631,"lon":5.359244,"is_reserved":false,"is_disabled":false,"rental_uris":{"android":"levelo://app?vid=5f34197e-c6f2-487f-aeb6-eb2a424137a7","ios":"levelo://app?vid=5f34197e-c6f2-487f-aeb6-eb2a424137a7"},"vehicle_type_id":"4","last_reported":1717247221,"current_range_meters":400,"station_id":"ce4bha92rcd13ifvqeg0","pricing_plan_id":"cebpf4jnsgd1na2vs0mg"},{"bike_id":"4a7386cf-3871-4f0c-bfe0-af2dc7df8fed","system_id":"levelo_inurba_marseille","lat":43.282754,"lon":5.350519,"is_reserved":false,"is_disabled":false,"rental_uris":{"android":"levelo://app?vid=4a7386cf-3871-4f0c-bfe0-af2dc7df8fed","ios":"levelo://app?vid=4a7386cf-3871-4f0c-bfe0-af2dc7df8fed"},"vehicle_type_id":"4","last_reported":1717247221,"current_range_meters":30800,"station_id":"ce4bhbp2rcd13ifvqerg","pricing_plan_id":"cebpf4jnsgd1na2vs0mg"},{"bike_id":"044b45ae-5a69-44de-9a7d-f0c00d6600f5","system_id":"levelo_inurba_marseille","lat":43.290327,"lon":5.375711,"is_reserved":false,"is_disabled":false,"rental_uris":{"android":"levelo://app?vid=044b45ae-5a69-44de-9a7d-f0c00d6600f5","ios":"levelo://app?vid=044b45ae-5a69-44de-9a7d-f0c00d6600f5"},"vehicle_type_id":"4","last_reported":1717247221,"current_range_meters":1600,"station_id":"ce4bh692rcd13ifvqe90","pricing_plan_id":"cebpf4jnsgd1na2vs0mg"},{"bike_id":"434237db-9239-4f98-8c9e-2298e127fc80","system_id":"levelo_inurba_marseille","lat":43.290319,"lon":5.375732,"is_reserved":false,"is_disabled":false,"rental_uris":{"android":"levelo://app?vid=434237db-9239-4f98-8c9e-2298e127fc80","ios":"levelo://app?vid=434237db-9239-4f98-8c9e-2298e127fc80"},"vehicle_type_id":"4","last_reported":1717247221,"current_range_meters":400,"station_id":"ce4bh692rcd13ifvqe90","pricing_plan_id":"cebpf4jnsgd1na2vs0mg"},{"bike_id":"72ee3c2e-15c0-4196-b766-81e0ed7d235f","system_id":"levelo_inurba_marseille","lat":43.289184,"lon":5.366408,"is_reserved":false,"is_disabled":false,"rental_uris":{"android":"levelo://app?vid=72ee3c2e-15c0-4196-b766-81e0ed7d235f","ios":"levelo://app?vid=72ee3c2e-15c0-4196-b766-81e0ed7d235f"},"vehicle_type_id":"4","last_reported":1717247221,"current_range_meters":24000,"station_id":"ce4bhap2rcd13ifvqek0","pricing_plan_id":"cebpf4jnsgd1na2vs0mg"},{"bike_id":"8217dbcf-120d-4895-b151-634fbc8c40e9","system_id":"levelo_inurba_marseille","lat":43.292642,"lon":5.384254,"is_reserved":false,"is_disabled":false,"rental_uris":{"android":"levelo://app?vid=8217dbcf-120d-4895-b151-634fbc8c40e9","ios":"levelo://app?vid=8217dbcf-120d-4895-b151-634fbc8c40e9"},"vehicle_type_id":"4","last_reported":1717247221,"current_range_meters":0,"station_id":"ce4bh692rcd13ifvqea0","pricing_plan_id":"cebpf4jnsgd1na2vs0mg"},{"bike_id":"79eeab9e-265c-4eaa-a781-eb2af807e19a","system_id":"levelo_inurba_marseille","lat":43.290104,"lon":5.356111,"is_reserved":false,"is_disabled":false,"rental_uris":{"android":"levelo://app?vid=79eeab9e-265c-4eaa-a781-eb2af807e19a","ios":"levelo://app?vid=79eeab9e-265c-4eaa-a781-eb2af807e19a"},"vehicle_type_id":"4","last_reported":1717247221,"current_range_meters":3200,"station_id":"ce4bhb92rcd13ifvqen0","pricing_plan_id":"cebpf4jnsgd1na2vs0mg"},{"bike_id":"5bfbba38-3450-4d02-bf5d-4def3c691d1f","system_id":"levelo_inurba_marseille","lat":43.29788,"lon":5.39331,"is_reserved":false,"is_disabled":false,"rental_uris":{"android":"levelo://app?vid=5bfbba38-3450-4d02-bf5d-4def3c691d1f","ios":"levelo://app?vid=5bfbba38-3450-4d02-bf5d-4def3c691d1f"},"vehicle_type_id":"4","last_reported":1717247221,"current_range_meters":0,"station_id":"chh1huq6cuj3fo74tm60","pricing_plan_id":"cebpf4jnsgd1na2vs0mg"},{"bike_id":"9090ed6b-da4d-48d3-a17a-f3df8d3b76ff","system_id":"levelo_inurba_marseille","lat":43.297815,"lon":5.393548,"is_reserved":false,"is_disabled":false,"rental_uris":{"android":"levelo://app?vid=9090ed6b-da4d-48d3-a17a-f3df8d3b76ff","ios":"levelo://app?vid=9090ed6b-da4d-48d3-a17a-f3df8d3b76ff"},"vehicle_type_id":"4","last_reported":1717247221,"current_range_meters":16800,"station_id":"chh1huq6cuj3fo74tm60","pricing_plan_id":"cebpf4jnsgd1na2vs0mg"},{"bike_id":"58f78f79-a328-4ceb-9d73-c744722ac24d","system_id":"levelo_inurba_marseille","lat":43.330442,"lon":5.389148,"is_reserved":false,"is_disabled":false,"rental_uris":{"android":"levelo://app?vid=58f78f79-a328-4ceb-9d73-c744722ac24d","ios":"levelo://app?vid=58f78f79-a328-4ceb-9d73-c744722ac24d"},"vehicle_type_id":"4","last_reported":1717247221,"current_range_meters":17200,"station_id":"ce4bhr92rcd13ifvqhrg","pricing_plan_id":"cebpf4jnsgd1na2vs0mg"},{"bike_id":"08064811-9f9b-4683-b81f-acf2142c736f","system_id":"levelo_inurba_marseille","lat":43.2901,"lon":5.381269,"is_reserved":false,"is_disabled":false,"rental_uris":{"android":"levelo://app?vid=08064811-9f9b-4683-b81f-acf2142c736f","ios":"levelo://app?vid=08064811-9f9b-4683-b81f-acf2142c736f"},"vehicle_type_id":"4","last_reported":1717247221,"current_range_meters":6400,"station_id":"ce4bh4p2rcd13ifvqe1g","pricing_plan_id":"cebpf4jnsgd1na2vs0mg"},{"bike_id":"bc1cb3ba-afee-4c84-83d4-5462ad996ea0","system_id":"levelo_inurba_marseille","lat":43.28856,"lon":5.358371,"is_reserved":false,"is_disabled":false,"rental_uris":{"android":"levelo://app?vid=bc1cb3ba-afee-4c84-83d4-5462ad996ea0","ios":"levelo://app?vid=bc1cb3ba-afee-4c84-83d4-5462ad996ea0"},"vehicle_type_id":"4","last_reported":1717247221,"current_range_meters":24000,"station_id":"ce4bhb12rcd13ifvqem0","pricing_plan_id":"cebpf4jnsgd1na2vs0mg"},{"bike_id":"3370fc92-2c6b-4615-99af-c7ac79d02617","system_id":"levelo_inurba_marseille","lat":43.28856,"lon":5.358371,"is_reserved":false,"is_disabled":false,"rental_uris":{"android":"levelo://app?vid=3370fc92-2c6b-4615-99af-c7ac79d02617","ios":"levelo://app?vid=3370fc92-2c6b-4615-99af-c7ac79d02617"},"vehicle_type_id":"4","last_reported":1717247221,"current_range_meters":14000,"station_id":"ce4bhb12rcd13ifvqem0","pricing_plan_id":"cebpf4jnsgd1na2vs0mg"},{"bike_id":"11798597-f1f0-4c1c-a1ba-05dc781c2928","system_id":"levelo_inurba_marseille","lat":43.28856,"lon":5.358371,"is_reserved":false,"is_disabled":false,"rental_uris":{"android":"levelo://app?vid=11798597-f1f0-4c1c-a1ba-05dc781c2928","ios":"levelo://app?vid=11798597-f1f0-4c1c-a1ba-05dc781c2928"},"vehicle_type_id":"4","last_reported":1717247221,"current_range_meters":27200,"station_id":"ce4bhb12rcd13ifvqem0","pricing_plan_id":"cebpf4jnsgd1na2vs0mg"},{"bike_id":"c6355e65-bddb-4fd7-9d31-5f9d21aecbb2","system_id":"levelo_inurba_marseille","lat":43.28856,"lon":5.358371,"is_reserved":false,"is_disabled":false,"rental_uris":{"android":"levelo://app?vid=c6355e65-bddb-4fd7-9d31-5f9d21aecbb2","ios":"levelo://app?vid=c6355e65-bddb-4fd7-9d31-5f9d21aecbb2"},"vehicle_type_id":"4","last_reported":1717247221,"current_range_meters":29200,"station_id":"ce4bhb12rcd13ifvqem0","pricing_plan_id":"cebpf4jnsgd1na2vs0mg"},{"bike_id":"b8bb6552-8c4b-46ff-a957-78abab4f8dfc","system_id":"levelo_inurba_marseille","lat":43.28856,"lon":5.358371,"is_reserved":false,"is_disabled":false,"rental_uris":{"android":"levelo://app?vid=b8bb6552-8c4b-46ff-a957-78abab4f8dfc","ios":"levelo://app?vid=b8bb6552-8c4b-46ff-a957-78abab4f8dfc"},"vehicle_type_id":"4","last_reported":1717247221,"current_range_meters":31200,"station_id":"ce4bhb12rcd13ifvqem0","pricing_plan_id":"cebpf4jnsgd1na2vs0mg"},{"bike_id":"b1917eca-9bff-4595-9df7-e59523c50bb6","system_id":"levelo_inurba_marseille","lat":43.28856,"lon":5.358371,"is_reserved":false,"is_disabled":false,"rental_uris":{"android":"levelo://app?vid=b1917eca-9bff-4595-9df7-e59523c50bb6","ios":"levelo://app?vid=b1917eca-9bff-4595-9df7-e59523c50bb6"},"vehicle_type_id":"4","last_reported":1717247221,"current_range_meters":28000,"station_id":"ce4bhb12rcd13ifvqem0","pricing_plan_id":"cebpf4jnsgd1na2vs0mg"},{"bike_id":"86c7d612-89a7-45ac-a469-93121d4a191c","system_id":"levelo_inurba_marseille","lat":43.288452,"lon":5.358569,"is_reserved":false,"is_disabled":false,"rental_uris":{"android":"levelo://app?vid=86c7d612-89a7-45ac-a469-93121d4a191c","ios":"levelo://app?vid=86c7d612-89a7-45ac-a469-93121d4a191c"},"vehicle_type_id":"4","last_reported":1717247221,"current_range_meters":19200,"station_id":"ce4bhb12rcd13ifvqem0","pricing_plan_id":"cebpf4jnsgd1na2vs0mg"},{"bike_id":"51ea659b-d550-4edf-ba63-5daa39ca06b7","system_id":"levelo_inurba_marseille","lat":43.312609,"lon":5.401662,"is_reserved":false,"is_disabled":false,"rental_uris":{"android":"levelo://app?vid=51ea659b-d550-4edf-ba63-5daa39ca06b7","ios":"levelo://app?vid=51ea659b-d550-4edf-ba63-5daa39ca06b7"},"vehicle_type_id":"4","last_reported":1717247221,"current_range_meters":21600,"station_id":"ce4bh092rcd13ifvqd30","pricing_plan_id":"cebpf4jnsgd1na2vs0mg"},{"bike_id":"a3ea2339-7f28-4c31-b37f-725883015fe3","system_id":"levelo_inurba_marseille","lat":43.312609,"lon":5.401662,"is_reserved":false,"is_disabled":false,"rental_uris":{"android":"levelo://app?vid=a3ea2339-7f28-4c31-b37f-725883015fe3","ios":"levelo://app?vid=a3ea2339-7f28-4c31-b37f-725883015fe3"},"vehicle_type_id":"4","last_reported":1717247221,"current_range_meters":31200,"station_id":"ce4bh092rcd13ifvqd30","pricing_plan_id":"cebpf4jnsgd1na2vs0mg"},{"bike_id":"947a7518-63e2-42d1-a77d-be632baca7e9","system_id":"levelo_inurba_marseille","lat":43.312609,"lon":5.401662,"is_reserved":false,"is_disabled":false,"rental_uris":{"android":"levelo://app?vid=947a7518-63e2-42d1-a77d-be632baca7e9","ios":"levelo://app?vid=947a7518-63e2-42d1-a77d-be632baca7e9"},"vehicle_type_id":"4","last_reported":1717247221,"current_range_meters":31600,"station_id":"ce4bh092rcd13ifvqd30","pricing_plan_id":"cebpf4jnsgd1na2vs0mg"},{"bike_id":"1348e59a-4f7d-49c0-80b6-1c32a95a2d10","system_id":"levelo_inurba_marseille","lat":43.31272,"lon":5.40168,"is_reserved":false,"is_disabled":false,"rental_uris":{"android":"levelo://app?vid=1348e59a-4f7d-49c0-80b6-1c32a95a2d10","ios":"levelo://app?vid=1348e59a-4f7d-49c0-80b6-1c32a95a2d10"},"vehicle_type_id":"4","last_reported":1717247221,"current_range_meters":29600,"station_id":"ce4bh092rcd13ifvqd30","pricing_plan_id":"cebpf4jnsgd1na2vs0mg"},{"bike_id":"8d6b5f3f-5e13-4997-8ff6-e9ae7f3469c5","system_id":"levelo_inurba_marseille","lat":43.312609,"lon":5.401662,"is_reserved":false,"is_disabled":false,"rental_uris":{"android":"levelo://app?vid=8d6b5f3f-5e13-4997-8ff6-e9ae7f3469c5","ios":"levelo://app?vid=8d6b5f3f-5e13-4997-8ff6-e9ae7f3469c5"},"vehicle_type_id":"4","last_reported":1717247221,"current_range_meters":30000,"station_id":"ce4bh092rcd13ifvqd30","pricing_plan_id":"cebpf4jnsgd1na2vs0mg"},{"bike_id":"19577074-1fd4-446f-8830-dcad536643a1","system_id":"levelo_inurba_marseille","lat":43.312609,"lon":5.401662,"is_reserved":false,"is_disabled":false,"rental_uris":{"android":"levelo://app?vid=19577074-1fd4-446f-8830-dcad536643a1","ios":"levelo://app?vid=19577074-1fd4-446f-8830-dcad536643a1"},"vehicle_type_id":"4","last_reported":1717247221,"current_range_meters":8000,"station_id":"ce4bh092rcd13ifvqd30","pricing_plan_id":"cebpf4jnsgd1na2vs0mg"},{"bike_id":"6b0846e3-fae6-4710-adb8-9156e0c23d18","system_id":"levelo_inurba_marseille","lat":43.30938,"lon":5.40147,"is_reserved":false,"is_disabled":false,"rental_uris":{"android":"levelo://app?vid=6b0846e3-fae6-4710-adb8-9156e0c23d18","ios":"levelo://app?vid=6b0846e3-fae6-4710-adb8-9156e0c23d18"},"vehicle_type_id":"4","last_reported":1717247221,"current_range_meters":0,"station_id":"ce4bgvp2rcd13ifvqct0","pricing_plan_id":"cebpf4jnsgd1na2vs0mg"},{"bike_id":"42c6b038-e7a1-499a-a000-dd6b49e410e3","system_id":"levelo_inurba_marseille","lat":43.31269,"lon":5.4018,"is_reserved":false,"is_disabled":false,"rental_uris":{"android":"levelo://app?vid=42c6b038-e7a1-499a-a000-dd6b49e410e3","ios":"levelo://app?vid=42c6b038-e7a1-499a-a000-dd6b49e410e3"},"vehicle_type_id":"4","last_reported":1717247221,"current_range_meters":9200,"station_id":"ce4bh092rcd13ifvqd30","pricing_plan_id":"cebpf4jnsgd1na2vs0mg"},{"bike_id":"f25c7431-6852-4048-ba34-3d8f7ba5ad8e","system_id":"levelo_inurba_marseille","lat":43.319179,"lon":5.407725,"is_reserved":false,"is_disabled":false,"rental_uris":{"android":"levelo://app?vid=f25c7431-6852-4048-ba34-3d8f7ba5ad8e","ios":"levelo://app?vid=f25c7431-6852-4048-ba34-3d8f7ba5ad8e"},"vehicle_type_id":"4","last_reported":1717247221,"current_range_meters":23200,"station_id":"ce4bhq12rcd13ifvqhig","pricing_plan_id":"cebpf4jnsgd1na2vs0mg"},{"bike_id":"26e88c15-1ebf-4978-814d-f8bc280f73dc","system_id":"levelo_inurba_marseille","lat":43.337538,"lon":5.37476,"is_reserved":false,"is_disabled":false,"rental_uris":{"android":"levelo://app?vid=26e88c15-1ebf-4978-814d-f8bc280f73dc","ios":"levelo://app?vid=26e88c15-1ebf-4978-814d-f8bc280f73dc"},"vehicle_type_id":"4","last_reported":1717247221,"current_range_meters":24800,"station_id":"","pricing_plan_id":"cebpf4jnsgd1na2vs0mg"},{"bike_id":"c0fee200-1a9a-49ba-a769-99c8b0213d9f","system_id":"levelo_inurba_marseille","lat":43.289736,"lon":5.382244,"is_reserved":false,"is_disabled":false,"rental_uris":{"android":"levelo://app?vid=c0fee200-1a9a-49ba-a769-99c8b0213d9f","ios":"levelo://app?vid=c0fee200-1a9a-49ba-a769-99c8b0213d9f"},"vehicle_type_id":"4","last_reported":1717247221,"current_range_meters":0,"station_id":"","pricing_plan_id":"cebpf4jnsgd1na2vs0mg"},{"bike_id":"8aa1e16d-d0e2-41de-9a94-bc790cf9f2d8","system_id":"levelo_inurba_marseille","lat":43.301117,"lon":5.398795,"is_reserved":false,"is_disabled":false,"rental_uris":{"android":"levelo://app?vid=8aa1e16d-d0e2-41de-9a94-bc790cf9f2d8","ios":"levelo://app?vid=8aa1e16d-d0e2-41de-9a94-bc790cf9f2d8"},"vehicle_type_id":"4","last_reported":1717247221,"current_range_meters":14800,"station_id":"ce4bh0h2rcd13ifvqd40","pricing_plan_id":"cebpf4jnsgd1na2vs0mg"},{"bike_id":"8c395467-0689-4ee7-9892-ee0d2b05a323","system_id":"levelo_inurba_marseille","lat":43.301247,"lon":5.398429,"is_reserved":false,"is_disabled":false,"rental_uris":{"android":"levelo://app?vid=8c395467-0689-4ee7-9892-ee0d2b05a323","ios":"levelo://app?vid=8c395467-0689-4ee7-9892-ee0d2b05a323"},"vehicle_type_id":"4","last_reported":1717247221,"current_range_meters":16800,"station_id":"ce4bh0h2rcd13ifvqd40","pricing_plan_id":"cebpf4jnsgd1na2vs0mg"},{"bike_id":"b402d66c-6104-4794-a391-72574006cf46","system_id":"levelo_inurba_marseille","lat":43.30295,"lon":5.39954,"is_reserved":false,"is_disabled":false,"rental_uris":{"android":"levelo://app?vid=b402d66c-6104-4794-a391-72574006cf46","ios":"levelo://app?vid=b402d66c-6104-4794-a391-72574006cf46"},"vehicle_type_id":"4","last_reported":1717247221,"current_range_meters":29200,"station_id":"","pricing_plan_id":"cebpf4jnsgd1na2vs0mg"},{"bike_id":"44e54019-d8d9-48e6-8e18-aab2d7f2cc5f","system_id":"levelo_inurba_marseille","lat":43.301117,"lon":5.398795,"is_reserved":false,"is_disabled":false,"rental_uris":{"android":"levelo://app?vid=44e54019-d8d9-48e6-8e18-aab2d7f2cc5f","ios":"levelo://app?vid=44e54019-d8d9-48e6-8e18-aab2d7f2cc5f"},"vehicle_type_id":"4","last_reported":1717247221,"current_range_meters":20000,"station_id":"ce4bh0h2rcd13ifvqd40","pricing_plan_id":"cebpf4jnsgd1na2vs0mg"},{"bike_id":"38b3b860-fb66-4859-98c8-7cac841617b9","system_id":"levelo_inurba_marseille","lat":43.28727,"lon":5.36078,"is_reserved":false,"is_disabled":false,"rental_uris":{"android":"levelo://app?vid=38b3b860-fb66-4859-98c8-7cac841617b9","ios":"levelo://app?vid=38b3b860-fb66-4859-98c8-7cac841617b9"},"vehicle_type_id":"4","last_reported":1717247221,"current_range_meters":16000,"station_id":"cki0cbj6b192h4jlfktg","pricing_plan_id":"cebpf4jnsgd1na2vs0mg"},{"bike_id":"8070e5db-ade3-42d3-a452-9e77348ee44b","system_id":"levelo_inurba_marseille","lat":43.28727,"lon":5.36078,"is_reserved":false,"is_disabled":false,"rental_uris":{"android":"levelo://app?vid=8070e5db-ade3-42d3-a452-9e77348ee44b","ios":"levelo://app?vid=8070e5db-ade3-42d3-a452-9e77348ee44b"},"vehicle_type_id":"4","last_reported":1717247221,"current_range_meters":15200,"station_id":"cki0cbj6b192h4jlfktg","pricing_plan_id":"cebpf4jnsgd1na2vs0mg"},{"bike_id":"b27d5c7b-cd4b-47e6-b7df-1fba8251bb40","system_id":"levelo_inurba_marseille","lat":43.28727,"lon":5.36078,"is_reserved":false,"is_disabled":false,"rental_uris":{"android":"levelo://app?vid=b27d5c7b-cd4b-47e6-b7df-1fba8251bb40","ios":"levelo://app?vid=b27d5c7b-cd4b-47e6-b7df-1fba8251bb40"},"vehicle_type_id":"4","last_reported":1717247221,"current_range_meters":18800,"station_id":"cki0cbj6b192h4jlfktg","pricing_plan_id":"cebpf4jnsgd1na2vs0mg"},{"bike_id":"4cab075f-eff3-4f56-b414-0cb615313759","system_id":"levelo_inurba_marseille","lat":43.28727,"lon":5.36078,"is_reserved":false,"is_disabled":false,"rental_uris":{"android":"levelo://app?vid=4cab075f-eff3-4f56-b414-0cb615313759","ios":"levelo://app?vid=4cab075f-eff3-4f56-b414-0cb615313759"},"vehicle_type_id":"4","last_reported":1717247221,"current_range_meters":31200,"station_id":"cki0cbj6b192h4jlfktg","pricing_plan_id":"cebpf4jnsgd1na2vs0mg"},{"bike_id":"17a473e1-4125-4628-a4ca-6b1857fe7b92","system_id":"levelo_inurba_marseille","lat":43.28727,"lon":5.36078,"is_reserved":false,"is_disabled":false,"rental_uris":{"android":"levelo://app?vid=17a473e1-4125-4628-a4ca-6b1857fe7b92","ios":"levelo://app?vid=17a473e1-4125-4628-a4ca-6b1857fe7b92"},"vehicle_type_id":"4","last_reported":1717247221,"current_range_meters":31200,"station_id":"cki0cbj6b192h4jlfktg","pricing_plan_id":"cebpf4jnsgd1na2vs0mg"},{"bike_id":"2fded188-d5c5-4d7e-b698-050cf83be747","system_id":"levelo_inurba_marseille","lat":43.28727,"lon":5.36078,"is_reserved":false,"is_disabled":false,"rental_uris":{"android":"levelo://app?vid=2fded188-d5c5-4d7e-b698-050cf83be747","ios":"levelo://app?vid=2fded188-d5c5-4d7e-b698-050cf83be747"},"vehicle_type_id":"4","last_reported":1717247221,"current_range_meters":20400,"station_id":"cki0cbj6b192h4jlfktg","pricing_plan_id":"cebpf4jnsgd1na2vs0mg"},{"bike_id":"6267b2cc-d620-49ef-963f-4812d5f6f01a","system_id":"levelo_inurba_marseille","lat":43.298681,"lon":5.397225,"is_reserved":false,"is_disabled":false,"rental_uris":{"android":"levelo://app?vid=6267b2cc-d620-49ef-963f-4812d5f6f01a","ios":"levelo://app?vid=6267b2cc-d620-49ef-963f-4812d5f6f01a"},"vehicle_type_id":"4","last_reported":1717247221,"current_range_meters":18800,"station_id":"ce4bh0h2rcd13ifvqd50","pricing_plan_id":"cebpf4jnsgd1na2vs0mg"},{"bike_id":"aeb83130-410d-482c-8832-883bf851f43c","system_id":"levelo_inurba_marseille","lat":43.286961,"lon":5.373785,"is_reserved":false,"is_disabled":false,"rental_uris":{"android":"levelo://app?vid=aeb83130-410d-482c-8832-883bf851f43c","ios":"levelo://app?vid=aeb83130-410d-482c-8832-883bf851f43c"},"vehicle_type_id":"4","last_reported":1717247221,"current_range_meters":2800,"station_id":"ce4bh3p2rcd13ifvqdq0","pricing_plan_id":"cebpf4jnsgd1na2vs0mg"},{"bike_id":"241ab097-7e82-48e1-9bbb-414335bbe97e","system_id":"levelo_inurba_marseille","lat":43.298681,"lon":5.397225,"is_reserved":false,"is_disabled":false,"rental_uris":{"android":"levelo://app?vid=241ab097-7e82-48e1-9bbb-414335bbe97e","ios":"levelo://app?vid=241ab097-7e82-48e1-9bbb-414335bbe97e"},"vehicle_type_id":"4","last_reported":1717247221,"current_range_meters":6400,"station_id":"ce4bh0h2rcd13ifvqd50","pricing_plan_id":"cebpf4jnsgd1na2vs0mg"},{"bike_id":"2e285b2a-3430-49bd-b30b-33c8192a5ff9","system_id":"levelo_inurba_marseille","lat":43.286969,"lon":5.374124,"is_reserved":false,"is_disabled":false,"rental_uris":{"android":"levelo://app?vid=2e285b2a-3430-49bd-b30b-33c8192a5ff9","ios":"levelo://app?vid=2e285b2a-3430-49bd-b30b-33c8192a5ff9"},"vehicle_type_id":"4","last_reported":1717247221,"current_range_meters":4800,"station_id":"ce4bh3p2rcd13ifvqdq0","pricing_plan_id":"cebpf4jnsgd1na2vs0mg"},{"bike_id":"706c794a-a86a-4f40-96ab-a9b200bdf479","system_id":"levelo_inurba_marseille","lat":43.302759,"lon":5.400793,"is_reserved":false,"is_disabled":false,"rental_uris":{"android":"levelo://app?vid=706c794a-a86a-4f40-96ab-a9b200bdf479","ios":"levelo://app?vid=706c794a-a86a-4f40-96ab-a9b200bdf479"},"vehicle_type_id":"4","last_reported":1717247221,"current_range_meters":24800,"station_id":"ce4bgvh2rcd13ifvqcs0","pricing_plan_id":"cebpf4jnsgd1na2vs0mg"},{"bike_id":"675f6219-0845-4fe1-9e46-3d28bde18a08","system_id":"levelo_inurba_marseille","lat":43.289307,"lon":5.38406,"is_reserved":false,"is_disabled":false,"rental_uris":{"android":"levelo://app?vid=675f6219-0845-4fe1-9e46-3d28bde18a08","ios":"levelo://app?vid=675f6219-0845-4fe1-9e46-3d28bde18a08"},"vehicle_type_id":"4","last_reported":1717247221,"current_range_meters":800,"station_id":"ce4bh612rcd13ifvqe6g","pricing_plan_id":"cebpf4jnsgd1na2vs0mg"},{"bike_id":"9905363e-942c-4ffc-8296-187840ff7486","system_id":"levelo_inurba_marseille","lat":43.2862,"lon":5.36246,"is_reserved":false,"is_disabled":false,"rental_uris":{"android":"levelo://app?vid=9905363e-942c-4ffc-8296-187840ff7486","ios":"levelo://app?vid=9905363e-942c-4ffc-8296-187840ff7486"},"vehicle_type_id":"4","last_reported":1717247221,"current_range_meters":9200,"station_id":"","pricing_plan_id":"cebpf4jnsgd1na2vs0mg"},{"bike_id":"542a81d8-0634-4454-9ff6-3613b8bd7c88","system_id":"levelo_inurba_marseille","lat":43.28611,"lon":5.3706,"is_reserved":false,"is_disabled":false,"rental_uris":{"android":"levelo://app?vid=542a81d8-0634-4454-9ff6-3613b8bd7c88","ios":"levelo://app?vid=542a81d8-0634-4454-9ff6-3613b8bd7c88"},"vehicle_type_id":"4","last_reported":1717247221,"current_range_meters":6800,"station_id":"ce4bht12rcd13ifvqi60","pricing_plan_id":"cebpf4jnsgd1na2vs0mg"},{"bike_id":"6c0138f8-2efc-4fda-814b-6b4a4c66c061","system_id":"levelo_inurba_marseille","lat":43.28609,"lon":5.37058,"is_reserved":false,"is_disabled":false,"rental_uris":{"android":"levelo://app?vid=6c0138f8-2efc-4fda-814b-6b4a4c66c061","ios":"levelo://app?vid=6c0138f8-2efc-4fda-814b-6b4a4c66c061"},"vehicle_type_id":"4","last_reported":1717247221,"current_range_meters":23200,"station_id":"ce4bht12rcd13ifvqi60","pricing_plan_id":"cebpf4jnsgd1na2vs0mg"},{"bike_id":"efe9ee3a-ccea-4c60-8e72-e5abb5072e13","system_id":"levelo_inurba_marseille","lat":43.286039,"lon":5.370681,"is_reserved":false,"is_disabled":false,"rental_uris":{"android":"levelo://app?vid=efe9ee3a-ccea-4c60-8e72-e5abb5072e13","ios":"levelo://app?vid=efe9ee3a-ccea-4c60-8e72-e5abb5072e13"},"vehicle_type_id":"4","last_reported":1717247221,"current_range_meters":18800,"station_id":"ce4bht12rcd13ifvqi60","pricing_plan_id":"cebpf4jnsgd1na2vs0mg"},{"bike_id":"66a33816-b881-4cbf-ac32-08c2d2e7db20","system_id":"levelo_inurba_marseille","lat":43.286039,"lon":5.370681,"is_reserved":false,"is_disabled":false,"rental_uris":{"android":"levelo://app?vid=66a33816-b881-4cbf-ac32-08c2d2e7db20","ios":"levelo://app?vid=66a33816-b881-4cbf-ac32-08c2d2e7db20"},"vehicle_type_id":"4","last_reported":1717247221,"current_range_meters":24000,"station_id":"ce4bht12rcd13ifvqi60","pricing_plan_id":"cebpf4jnsgd1na2vs0mg"},{"bike_id":"c607b502-8a70-44fc-8403-860ff62687d2","system_id":"levelo_inurba_marseille","lat":43.302759,"lon":5.400793,"is_reserved":false,"is_disabled":false,"rental_uris":{"android":"levelo://app?vid=c607b502-8a70-44fc-8403-860ff62687d2","ios":"levelo://app?vid=c607b502-8a70-44fc-8403-860ff62687d2"},"vehicle_type_id":"4","last_reported":1717247221,"current_range_meters":25600,"station_id":"ce4bgvh2rcd13ifvqcs0","pricing_plan_id":"cebpf4jnsgd1na2vs0mg"},{"bike_id":"41d2b56e-6c40-4fad-a9c3-dc9be1d1b08e","system_id":"levelo_inurba_marseille","lat":43.286039,"lon":5.370681,"is_reserved":false,"is_disabled":false,"rental_uris":{"android":"levelo://app?vid=41d2b56e-6c40-4fad-a9c3-dc9be1d1b08e","ios":"levelo://app?vid=41d2b56e-6c40-4fad-a9c3-dc9be1d1b08e"},"vehicle_type_id":"4","last_reported":1717247221,"current_range_meters":2800,"station_id":"ce4bht12rcd13ifvqi60","pricing_plan_id":"cebpf4jnsgd1na2vs0mg"},{"bike_id":"02484de6-4d5c-43d7-bf63-0159a3e884c3","system_id":"levelo_inurba_marseille","lat":43.287185,"lon":5.379373,"is_reserved":false,"is_disabled":false,"rental_uris":{"android":"levelo://app?vid=02484de6-4d5c-43d7-bf63-0159a3e884c3","ios":"levelo://app?vid=02484de6-4d5c-43d7-bf63-0159a3e884c3"},"vehicle_type_id":"4","last_reported":1717247221,"current_range_meters":29600,"station_id":"ce4bh9p2rcd13ifvqec0","pricing_plan_id":"cebpf4jnsgd1na2vs0mg"},{"bike_id":"6e2667a6-9aa1-4500-a2a1-da04eb26b9d2","system_id":"levelo_inurba_marseille","lat":43.316828,"lon":5.404723,"is_reserved":false,"is_disabled":false,"rental_uris":{"android":"levelo://app?vid=6e2667a6-9aa1-4500-a2a1-da04eb26b9d2","ios":"levelo://app?vid=6e2667a6-9aa1-4500-a2a1-da04eb26b9d2"},"vehicle_type_id":"4","last_reported":1717247221,"current_range_meters":12800,"station_id":"ce4bh012rcd13ifvqd00","pricing_plan_id":"cebpf4jnsgd1na2vs0mg"},{"bike_id":"d8cff418-7604-4488-bf5e-c2a6e8756534","system_id":"levelo_inurba_marseille","lat":43.261782,"lon":5.374515,"is_reserved":false,"is_disabled":false,"rental_uris":{"android":"levelo://app?vid=d8cff418-7604-4488-bf5e-c2a6e8756534","ios":"levelo://app?vid=d8cff418-7604-4488-bf5e-c2a6e8756534"},"vehicle_type_id":"4","last_reported":1717247221,"current_range_meters":14400,"station_id":"ce4bhgp2rcd13ifvqfc0","pricing_plan_id":"cebpf4jnsgd1na2vs0mg"},{"bike_id":"b9d54194-bab9-4b8c-ac90-b8668784c9cb","system_id":"levelo_inurba_marseille","lat":43.291994,"lon":5.392907,"is_reserved":false,"is_disabled":false,"rental_uris":{"android":"levelo://app?vid=b9d54194-bab9-4b8c-ac90-b8668784c9cb","ios":"levelo://app?vid=b9d54194-bab9-4b8c-ac90-b8668784c9cb"},"vehicle_type_id":"4","last_reported":1717247221,"current_range_meters":0,"station_id":"ce4bh192rcd13ifvqdd0","pricing_plan_id":"cebpf4jnsgd1na2vs0mg"},{"bike_id":"5f2e89e2-d8d4-4f00-a1fd-87a667b3dee4","system_id":"levelo_inurba_marseille","lat":43.283998,"lon":5.375062,"is_reserved":false,"is_disabled":false,"rental_uris":{"android":"levelo://app?vid=5f2e89e2-d8d4-4f00-a1fd-87a667b3dee4","ios":"levelo://app?vid=5f2e89e2-d8d4-4f00-a1fd-87a667b3dee4"},"vehicle_type_id":"4","last_reported":1717247221,"current_range_meters":12000,"station_id":"ce4bh412rcd13ifvqds0","pricing_plan_id":"cebpf4jnsgd1na2vs0mg"},{"bike_id":"b3d7a016-3e61-4675-9c0d-b6639a31b65e","system_id":"levelo_inurba_marseille","lat":43.28627,"lon":5.35107,"is_reserved":false,"is_disabled":false,"rental_uris":{"android":"levelo://app?vid=b3d7a016-3e61-4675-9c0d-b6639a31b65e","ios":"levelo://app?vid=b3d7a016-3e61-4675-9c0d-b6639a31b65e"},"vehicle_type_id":"4","last_reported":1717247221,"current_range_meters":11600,"station_id":"ce4bhch2rcd13ifvqeug","pricing_plan_id":"cebpf4jnsgd1na2vs0mg"},{"bike_id":"2a86e474-39c0-49b1-bb19-a3caabd4378f","system_id":"levelo_inurba_marseille","lat":43.28622,"lon":5.35105,"is_reserved":false,"is_disabled":false,"rental_uris":{"android":"levelo://app?vid=2a86e474-39c0-49b1-bb19-a3caabd4378f","ios":"levelo://app?vid=2a86e474-39c0-49b1-bb19-a3caabd4378f"},"vehicle_type_id":"4","last_reported":1717247221,"current_range_meters":19200,"station_id":"ce4bhch2rcd13ifvqeug","pricing_plan_id":"cebpf4jnsgd1na2vs0mg"},{"bike_id":"64c74992-6efd-47f2-89b6-0492f36b9b31","system_id":"levelo_inurba_marseille","lat":43.2862,"lon":5.3511,"is_reserved":false,"is_disabled":false,"rental_uris":{"android":"levelo://app?vid=64c74992-6efd-47f2-89b6-0492f36b9b31","ios":"levelo://app?vid=64c74992-6efd-47f2-89b6-0492f36b9b31"},"vehicle_type_id":"4","last_reported":1717247221,"current_range_meters":6400,"station_id":"ce4bhch2rcd13ifvqeug","pricing_plan_id":"cebpf4jnsgd1na2vs0mg"},{"bike_id":"d480645e-fd7c-4790-bd14-e1f23b793bd4","system_id":"levelo_inurba_marseille","lat":43.28621,"lon":5.35106,"is_reserved":false,"is_disabled":false,"rental_uris":{"android":"levelo://app?vid=d480645e-fd7c-4790-bd14-e1f23b793bd4","ios":"levelo://app?vid=d480645e-fd7c-4790-bd14-e1f23b793bd4"},"vehicle_type_id":"4","last_reported":1717247221,"current_range_meters":4800,"station_id":"ce4bhch2rcd13ifvqeug","pricing_plan_id":"cebpf4jnsgd1na2vs0mg"},{"bike_id":"78e03307-dce5-4403-a235-3513a09049d0","system_id":"levelo_inurba_marseille","lat":43.2862,"lon":5.35104,"is_reserved":false,"is_disabled":false,"rental_uris":{"android":"levelo://app?vid=78e03307-dce5-4403-a235-3513a09049d0","ios":"levelo://app?vid=78e03307-dce5-4403-a235-3513a09049d0"},"vehicle_type_id":"4","last_reported":1717247221,"current_range_meters":22400,"station_id":"ce4bhch2rcd13ifvqeug","pricing_plan_id":"cebpf4jnsgd1na2vs0mg"},{"bike_id":"ade3bea4-59bf-48e6-9b63-915511d9dc77","system_id":"levelo_inurba_marseille","lat":43.28619,"lon":5.35104,"is_reserved":false,"is_disabled":false,"rental_uris":{"android":"levelo://app?vid=ade3bea4-59bf-48e6-9b63-915511d9dc77","ios":"levelo://app?vid=ade3bea4-59bf-48e6-9b63-915511d9dc77"},"vehicle_type_id":"4","last_reported":1717247221,"current_range_meters":26000,"station_id":"ce4bhch2rcd13ifvqeug","pricing_plan_id":"cebpf4jnsgd1na2vs0mg"},{"bike_id":"f3f3dfed-17fa-4ee0-a257-0273773dc19a","system_id":"levelo_inurba_marseille","lat":43.28617,"lon":5.3511,"is_reserved":false,"is_disabled":false,"rental_uris":{"android":"levelo://app?vid=f3f3dfed-17fa-4ee0-a257-0273773dc19a","ios":"levelo://app?vid=f3f3dfed-17fa-4ee0-a257-0273773dc19a"},"vehicle_type_id":"4","last_reported":1717247221,"current_range_meters":0,"station_id":"ce4bhch2rcd13ifvqeug","pricing_plan_id":"cebpf4jnsgd1na2vs0mg"},{"bike_id":"dbe23c51-a2e8-4db2-97f6-4919afa8fabc","system_id":"levelo_inurba_marseille","lat":43.28617,"lon":5.35108,"is_reserved":false,"is_disabled":false,"rental_uris":{"android":"levelo://app?vid=dbe23c51-a2e8-4db2-97f6-4919afa8fabc","ios":"levelo://app?vid=dbe23c51-a2e8-4db2-97f6-4919afa8fabc"},"vehicle_type_id":"4","last_reported":1717247221,"current_range_meters":23600,"station_id":"ce4bhch2rcd13ifvqeug","pricing_plan_id":"cebpf4jnsgd1na2vs0mg"},{"bike_id":"f8d5d811-6218-43cc-a999-324789f37afc","system_id":"levelo_inurba_marseille","lat":43.28617,"lon":5.35105,"is_reserved":false,"is_disabled":false,"rental_uris":{"android":"levelo://app?vid=f8d5d811-6218-43cc-a999-324789f37afc","ios":"levelo://app?vid=f8d5d811-6218-43cc-a999-324789f37afc"},"vehicle_type_id":"4","last_reported":1717247221,"current_range_meters":24000,"station_id":"ce4bhch2rcd13ifvqeug","pricing_plan_id":"cebpf4jnsgd1na2vs0mg"},{"bike_id":"9527be2e-418b-4587-ab44-a89dea543da7","system_id":"levelo_inurba_marseille","lat":43.285856,"lon":5.350771,"is_reserved":false,"is_disabled":false,"rental_uris":{"android":"levelo://app?vid=9527be2e-418b-4587-ab44-a89dea543da7","ios":"levelo://app?vid=9527be2e-418b-4587-ab44-a89dea543da7"},"vehicle_type_id":"4","last_reported":1717247221,"current_range_meters":19600,"station_id":"ce4bhch2rcd13ifvqeug","pricing_plan_id":"cebpf4jnsgd1na2vs0mg"},{"bike_id":"351b4dc8-0fb6-4916-b218-4c90ca734cf2","system_id":"levelo_inurba_marseille","lat":43.28616,"lon":5.35102,"is_reserved":false,"is_disabled":false,"rental_uris":{"android":"levelo://app?vid=351b4dc8-0fb6-4916-b218-4c90ca734cf2","ios":"levelo://app?vid=351b4dc8-0fb6-4916-b218-4c90ca734cf2"},"vehicle_type_id":"4","last_reported":1717247221,"current_range_meters":13600,"station_id":"ce4bhch2rcd13ifvqeug","pricing_plan_id":"cebpf4jnsgd1na2vs0mg"},{"bike_id":"436fa35d-1c22-4101-9361-1931bbd462a1","system_id":"levelo_inurba_marseille","lat":43.28615,"lon":5.35101,"is_reserved":false,"is_disabled":false,"rental_uris":{"android":"levelo://app?vid=436fa35d-1c22-4101-9361-1931bbd462a1","ios":"levelo://app?vid=436fa35d-1c22-4101-9361-1931bbd462a1"},"vehicle_type_id":"4","last_reported":1717247221,"current_range_meters":15600,"station_id":"ce4bhch2rcd13ifvqeug","pricing_plan_id":"cebpf4jnsgd1na2vs0mg"},{"bike_id":"b67cf65e-0051-475a-862e-f1a73816f227","system_id":"levelo_inurba_marseille","lat":43.28616,"lon":5.35096,"is_reserved":false,"is_disabled":false,"rental_uris":{"android":"levelo://app?vid=b67cf65e-0051-475a-862e-f1a73816f227","ios":"levelo://app?vid=b67cf65e-0051-475a-862e-f1a73816f227"},"vehicle_type_id":"4","last_reported":1717247221,"current_range_meters":10400,"station_id":"ce4bhch2rcd13ifvqeug","pricing_plan_id":"cebpf4jnsgd1na2vs0mg"},{"bike_id":"17802847-3bbf-4081-9607-25a41985dd8c","system_id":"levelo_inurba_marseille","lat":43.28613,"lon":5.35102,"is_reserved":false,"is_disabled":false,"rental_uris":{"android":"levelo://app?vid=17802847-3bbf-4081-9607-25a41985dd8c","ios":"levelo://app?vid=17802847-3bbf-4081-9607-25a41985dd8c"},