{"last_updated":1750482623,"ttl":60,"version":"2.2","data":{"bikes":[{"bike_id":"3da29fb8-fc97-44c6-b9ac-31dd456b2fd4","system_id":"levelo_inurba_marseille","lat":43.33771,"lon":5.37424,"is_reserved":false,"is_disabled":true,"rental_uris":{"android":"levelo://app?vid=3da29fb8-fc97-44c6-b9ac-31dd456b2fd4","ios":"levelo://app?vid=3da29fb8-fc97-44c6-b9ac-31dd456b2fd4"},"vehicle_type_id":"4","last_reported":1750482623,"current_range_meters":0,"station_id":"","pricing_plan_id":"cebpf4jnsgd1na2vs0mg"},{"bike_id":"01861ad8-a8d7-4be6-816e-651927c87584","system_id":"levelo_inurba_marseille","lat":43.33751,"lon":5.37456,"is_reserved":false,"is_disabled":true,"rental_uris":{"android":"levelo://app?vid=01861ad8-a8d7-4be6-816e-651927c87584","ios":"levelo://app?vid=01861ad8-a8d7-4be6-816e-651927c87584"},"vehicle_type_id":"4","last_reported":1750482623,"current_range_meters":0,"station_id":"","pricing_plan_id":"cebpf4jnsgd1na2vs0mg"},{"bike_id":"27c3efd2-b87f-410d-b354-97ab3c00d7d7","system_id":"levelo_inurba_marseille","lat":43.29054,"lon":5.3811,"is_reserved":false,"is_disabled":true,"rental_uris":{"android":"levelo://app?vid=27c3efd2-b87f-410d-b354-97ab3c00d7d7","ios":"levelo://app?vid=27c3efd2-b87f-410d-b354-97ab3c00d7d7"},"vehicle_type_id":"4","last_reported":1750482623,"current_range_meters":0,"station_id":"","pricing_plan_id":"cebpf4jnsgd1na2vs0mg"},{"bike_id":"7bcccf35-e344-4f00-9a7f-199c76d3c58d","system_id":"levelo_inurba_marseille","lat":43.2913,"lon":5.4166,"is_reserved":false,"is_disabled":true,"rental_uris":{"android":"levelo://app?vid=7bcccf35-e344-4f00-9a7f-199c76d3c58d","ios":"levelo://app?vid=7bcccf35-e344-4f00-9a7f-199c76d3c58d"},"vehicle_type_id":"4","last_reported":1750482623,"current_range_meters":0,"station_id":"","pricing_plan_id":"cebpf4jnsgd1na2vs0mg"},{"bike_id":"d2bd57c8-6b64-48db-ad24-5398eb3fd9d6","system_id":"levelo_inurba_marseille","lat":43.337444,"lon":5.374475,"is_reserved":false,"is_disabled":true,"rental_uris":{"android":"levelo://app?vid=d2bd57c8-6b64-48db-ad24-5398eb3fd9d6","ios":"levelo://app?vid=d2bd57c8-6b64-48db-ad24-5398eb3fd9d6"},"vehicle_type_id":"4","last_reported":1750482623,"current_range_meters":0,"station_id":"","pricing_plan_id":"cebpf4jnsgd1na2vs0mg"},{"bike_id":"62a493c7-4534-4419-ad43-0582de34a72a","system_id":"levelo_inurba_marseille","lat":43.21366,"lon":5.355183,"is_reserved":false,"is_disabled":true,"rental_uris":{"android":"levelo://app?vid=62a493c7-4534-4419-ad43-0582de34a72a","ios":"levelo://app?vid=62a493c7-4534-4419-ad43-0582de34a72a"},"vehicle_type_id":"4","last_reported":1750482623,"current_range_meters":0,"station_id":"","pricing_plan_id":"cebpf4jnsgd1na2vs0mg"},{"bike_id":"d6609b4f-333b-43c1-9ebe-8726f5e76e88","system_id":"levelo_inurba_marseille","lat":43.337444,"lon":5.374475,"is_reserved":false,"is_disabled":true,"rental_uris":{"android":"levelo://app?vid=d6609b4f-333b-43c1-9ebe-8726f5e76e88","ios":"levelo://app?vid=d6609b4f-333b-43c1-9ebe-8726f5e76e88"},"vehicle_type_id":"4","last_reported":1750482623,"current_range_meters":0,"station_id":"","pricing_plan_id":"cebpf4jnsgd1na2vs0mg"},{"bike_id":"fcf4c655-a0ab-4557-9c67-f3accfc480b8","system_id":"levelo_inurba_marseille","lat":43.31948,"lon":5.38131,"is_reserved":false,"is_disabled":true,"rental_uris":{"android":"levelo://app?vid=fcf4c655-a0ab-4557-9c67-f3accfc480b8","ios":"levelo://app?vid=fcf4c655-a0ab-4557-9c67-f3accfc480b8"},"vehicle_type_id":"4","last_reported":1750482623,"current_range_meters":0,"station_id":"","pricing_plan_id":"cebpf4jnsgd1na2vs0mg"},{"bike_id":"11e13553-c475-421d-a348-bac5f0dccdd0","system_id":"levelo_inurba_marseille","lat":43.27321,"lon":5.39937,"is_reserved":false,"is_disabled":true,"rental_uris":{"android":"levelo://app?vid=11e13553-c475-421d-a348-bac5f0dccdd0","ios":"levelo://app?vid=11e13553-c475-421d-a348-bac5f0dccdd0"},"vehicle_type_id":"4","last_reported":1750482623,"current_range_meters":0,"station_id":"","pricing_plan_id":"cebpf4jnsgd1na2vs0mg"},{"bike_id":"ac27c98f-d5e9-4435-b14c-a59e54913873","system_id":"levelo_inurba_marseille","lat":43.29967,"lon":5.38493,"is_reserved":false,"is_disabled":true,"rental_uris":{"android":"levelo://app?vid=ac27c98f-d5e9-4435-b14c-a59e54913873","ios":"levelo://app?vid=ac27c98f-d5e9-4435-b14c-a59e54913873"},"vehicle_type_id":"4","last_reported":1750482623,"current_range_meters":0,"station_id":"ce4bgj92rcd13ifvqbd0","pricing_plan_id":"cebpf4jnsgd1na2vs0mg"},{"bike_id":"c8d48a3d-d477-4c68-bf18-a427a2e7d1d1","system_id":"levelo_inurba_marseille","lat":43.29866,"lon":5.397365,"is_reserved":false,"is_disabled":true,"rental_uris":{"android":"levelo://app?vid=c8d48a3d-d477-4c68-bf18-a427a2e7d1d1","ios":"levelo://app?vid=c8d48a3d-d477-4c68-bf18-a427a2e7d1d1"},"vehicle_type_id":"4","last_reported":1750482623,"current_range_meters":0,"station_id":"ce4bh0h2rcd13ifvqd50","pricing_plan_id":"cebpf4jnsgd1na2vs0mg"},{"bike_id":"17b2af2c-1f28-4188-97fc-db08fe708787","system_id":"levelo_inurba_marseille","lat":43.28696,"lon":5.37392,"is_reserved":false,"is_disabled":true,"rental_uris":{"android":"levelo://app?vid=17b2af2c-1f28-4188-97fc-db08fe708787","ios":"levelo://app?vid=17b2af2c-1f28-4188-97fc-db08fe708787"},"vehicle_type_id":"4","last_reported":1750482623,"current_range_meters":0,"station_id":"ce4bh3p2rcd13ifvqdq0","pricing_plan_id":"cebpf4jnsgd1na2vs0mg"},{"bike_id":"bc824ca5-0243-45ce-b51f-4a47ad664adc","system_id":"levelo_inurba_marseille","lat":43.32347,"lon":5.38889,"is_reserved":false,"is_disabled":true,"rental_uris":{"android":"levelo://app?vid=bc824ca5-0243-45ce-b51f-4a47ad664adc","ios":"levelo://app?vid=bc824ca5-0243-45ce-b51f-4a47ad664adc"},"vehicle_type_id":"4","last_reported":1750482623,"current_range_meters":0,"station_id":"ce4bhqp2rcd13ifvqhog","pricing_plan_id":"cebpf4jnsgd1na2vs0mg"},{"bike_id":"a1110f62-7697-413b-89ce-a34e33f7ed77","system_id":"levelo_inurba_marseille","lat":43.231948,"lon":5.355468,"is_reserved":false,"is_disabled":true,"rental_uris":{"android":"levelo://app?vid=a1110f62-7697-413b-89ce-a34e33f7ed77","ios":"levelo://app?vid=a1110f62-7697-413b-89ce-a34e33f7ed77"},"vehicle_type_id":"4","last_reported":1750482623,"current_range_meters":0,"station_id":"ce4bhu92rcd13ifvqi70","pricing_plan_id":"cebpf4jnsgd1na2vs0mg"},{"bike_id":"24466bb8-ea46-418f-a473-cce465177766","system_id":"levelo_inurba_marseille","lat":43.217421,"lon":5.346024,"is_reserved":false,"is_disabled":true,"rental_uris":{"android":"levelo://app?vid=24466bb8-ea46-418f-a473-cce465177766","ios":"levelo://app?vid=24466bb8-ea46-418f-a473-cce465177766"},"vehicle_type_id":"4","last_reported":1750482623,"current_range_meters":0,"station_id":"st_cvj6r9ubvosntc0bgbag","pricing_plan_id":"cebpf4jnsgd1na2vs0mg"},{"bike_id":"a93a40aa-7033-4040-ad39-d4e2da8554bb","system_id":"levelo_inurba_marseille","lat":43.31335,"lon":5.39673,"is_reserved":false,"is_disabled":true,"rental_uris":{"android":"levelo://app?vid=a93a40aa-7033-4040-ad39-d4e2da8554bb","ios":"levelo://app?vid=a93a40aa-7033-4040-ad39-d4e2da8554bb"},"vehicle_type_id":"4","last_reported":1750482623,"current_range_meters":400,"station_id":"ce4bgvp2rcd13ifvqcu0","pricing_plan_id":"cebpf4jnsgd1na2vs0mg"},{"bike_id":"143d8349-ce8b-43af-a6c6-605b4869232d","system_id":"levelo_inurba_marseille","lat":43.32061,"lon":5.41533,"is_reserved":false,"is_disabled":true,"rental_uris":{"android":"levelo://app?vid=143d8349-ce8b-43af-a6c6-605b4869232d","ios":"levelo://app?vid=143d8349-ce8b-43af-a6c6-605b4869232d"},"vehicle_type_id":"4","last_reported":1750482623,"current_range_meters":400,"station_id":"ce4bhq92rcd13ifvqhkg","pricing_plan_id":"cebpf4jnsgd1na2vs0mg"},{"bike_id":"1b64f142-5df0-4ea7-a5da-5566ae0b1958","system_id":"levelo_inurba_marseille","lat":43.27565,"lon":5.38404,"is_reserved":false,"is_disabled":true,"rental_uris":{"android":"levelo://app?vid=1b64f142-5df0-4ea7-a5da-5566ae0b1958","ios":"levelo://app?vid=1b64f142-5df0-4ea7-a5da-5566ae0b1958"},"vehicle_type_id":"4","last_reported":1750482623,"current_range_meters":800,"station_id":"ce4bhh92rcd13ifvqfi0","pricing_plan_id":"cebpf4jnsgd1na2vs0mg"},{"bike_id":"9e820e1f-82e5-42f1-a082-b3598434e244","system_id":"levelo_inurba_marseille","lat":43.28689,"lon":5.38648,"is_reserved":false,"is_disabled":true,"rental_uris":{"android":"levelo://app?vid=9e820e1f-82e5-42f1-a082-b3598434e244","ios":"levelo://app?vid=9e820e1f-82e5-42f1-a082-b3598434e244"},"vehicle_type_id":"4","last_reported":1750482623,"current_range_meters":1200,"station_id":"ce4bh492rcd13ifvqdug","pricing_plan_id":"cebpf4jnsgd1na2vs0mg"},{"bike_id":"51deda71-ad3a-4bed-96a7-b3cf465a2955","system_id":"levelo_inurba_marseille","lat":43.26218,"lon":5.40449,"is_reserved":false,"is_disabled":true,"rental_uris":{"android":"levelo://app?vid=51deda71-ad3a-4bed-96a7-b3cf465a2955","ios":"levelo://app?vid=51deda71-ad3a-4bed-96a7-b3cf465a2955"},"vehicle_type_id":"4","last_reported":1750482623,"current_range_meters":1200,"station_id":"ce4bhmh2rcd13ifvqgmg","pricing_plan_id":"cebpf4jnsgd1na2vs0mg"},{"bike_id":"156717d9-5d82-4226-a389-e52555e7069b","system_id":"levelo_inurba_marseille","lat":43.30605,"lon":5.37637,"is_reserved":false,"is_disabled":true,"rental_uris":{"android":"levelo://app?vid=156717d9-5d82-4226-a389-e52555e7069b","ios":"levelo://app?vid=156717d9-5d82-4226-a389-e52555e7069b"},"vehicle_type_id":"4","last_reported":1750482623,"current_range_meters":2000,"station_id":"","pricing_plan_id":"cebpf4jnsgd1na2vs0mg"},{"bike_id":"afbf264f-afe5-4d6f-b226-78ed4d460a17","system_id":"levelo_inurba_marseille","lat":43.28728,"lon":5.39956,"is_reserved":false,"is_disabled":false,"rental_uris":{"android":"levelo://app?vid=afbf264f-afe5-4d6f-b226-78ed4d460a17","ios":"levelo://app?vid=afbf264f-afe5-4d6f-b226-78ed4d460a17"},"vehicle_type_id":"4","last_reported":1750482623,"current_range_meters":3600,"station_id":"ce4bho92rcd13ifvqh3g","pricing_plan_id":"cebpf4jnsgd1na2vs0mg"},{"bike_id":"3d9b0e2f-fd9d-433a-9469-26b505908e59","system_id":"levelo_inurba_marseille","lat":43.33728,"lon":5.39187,"is_reserved":false,"is_disabled":false,"rental_uris":{"android":"levelo://app?vid=3d9b0e2f-fd9d-433a-9469-26b505908e59","ios":"levelo://app?vid=3d9b0e2f-fd9d-433a-9469-26b505908e59"},"vehicle_type_id":"4","last_reported":1750482623,"current_range_meters":3600,"station_id":"ce4bhr92rcd13ifvqhsg","pricing_plan_id":"cebpf4jnsgd1na2vs0mg"},{"bike_id":"19d28c8f-5421-4087-a03c-a21f0650d31f","system_id":"levelo_inurba_marseille","lat":43.29847,"lon":5.36277,"is_reserved":false,"is_disabled":false,"rental_uris":{"android":"levelo://app?vid=19d28c8f-5421-4087-a03c-a21f0650d31f","ios":"levelo://app?vid=19d28c8f-5421-4087-a03c-a21f0650d31f"},"vehicle_type_id":"4","last_reported":1750482623,"current_range_meters":4000,"station_id":"ce4bgpp2rcd13ifvqc3g","pricing_plan_id":"cebpf4jnsgd1na2vs0mg"},{"bike_id":"0b4caeaf-5696-4a90-bc91-8a90ae92e4e6","system_id":"levelo_inurba_marseille","lat":43.2889,"lon":5.459566,"is_reserved":false,"is_disabled":false,"rental_uris":{"android":"levelo://app?vid=0b4caeaf-5696-4a90-bc91-8a90ae92e4e6","ios":"levelo://app?vid=0b4caeaf-5696-4a90-bc91-8a90ae92e4e6"},"vehicle_type_id":"4","last_reported":1750482623,"current_range_meters":4400,"station_id":"","pricing_plan_id":"cebpf4jnsgd1na2vs0mg"},{"bike_id":"7ecb002c-7385-4958-99d3-5a96ede27ff3","system_id":"levelo_inurba_marseille","lat":43.30922,"lon":5.40145,"is_reserved":false,"is_disabled":false,"rental_uris":{"android":"levelo://app?vid=7ecb002c-7385-4958-99d3-5a96ede27ff3","ios":"levelo://app?vid=7ecb002c-7385-4958-99d3-5a96ede27ff3"},"vehicle_type_id":"4","last_reported":1750482623,"current_range_meters":4400,"station_id":"ce4bgvp2rcd13ifvqct0","pricing_plan_id":"cebpf4jnsgd1na2vs0mg"},{"bike_id":"e8b2899a-4211-4f31-b803-6ec5b4d26202","system_id":"levelo_inurba_marseille","lat":43.27582,"lon":5.3967,"is_reserved":false,"is_disabled":false,"rental_uris":{"android":"levelo://app?vid=e8b2899a-4211-4f31-b803-6ec5b4d26202","ios":"levelo://app?vid=e8b2899a-4211-4f31-b803-6ec5b4d26202"},"vehicle_type_id":"4","last_reported":1750482623,"current_range_meters":4800,"station_id":"","pricing_plan_id":"cebpf4jnsgd1na2vs0mg"},{"bike_id":"dd45b830-666c-4c76-b06e-9938bffa2cad","system_id":"levelo_inurba_marseille","lat":43.31968,"lon":5.37557,"is_reserved":false,"is_disabled":false,"rental_uris":{"android":"levelo://app?vid=dd45b830-666c-4c76-b06e-9938bffa2cad","ios":"levelo://app?vid=dd45b830-666c-4c76-b06e-9938bffa2cad"},"vehicle_type_id":"4","last_reported":1750482623,"current_range_meters":5600,"station_id":"","pricing_plan_id":"cebpf4jnsgd1na2vs0mg"},{"bike_id":"73521383-be10-4e11-87d9-5858a5a26f0a","system_id":"levelo_inurba_marseille","lat":43.337444,"lon":5.374475,"is_reserved":false,"is_disabled":false,"rental_uris":{"android":"levelo://app?vid=73521383-be10-4e11-87d9-5858a5a26f0a","ios":"levelo://app?vid=73521383-be10-4e11-87d9-5858a5a26f0a"},"vehicle_type_id":"4","last_reported":1750482623,"current_range_meters":6000,"station_id":"","pricing_plan_id":"cebpf4jnsgd1na2vs0mg"},{"bike_id":"f025e0b0-8595-426c-b214-cb9b74c5fcfd","system_id":"levelo_inurba_marseille","lat":43.32208,"lon":5.406,"is_reserved":false,"is_disabled":false,"rental_uris":{"android":"levelo://app?vid=f025e0b0-8595-426c-b214-cb9b74c5fcfd","ios":"levelo://app?vid=f025e0b0-8595-426c-b214-cb9b74c5fcfd"},"vehicle_type_id":"4","last_reported":1750482623,"current_range_meters":6000,"station_id":"","pricing_plan_id":"cebpf4jnsgd1na2vs0mg"},{"bike_id":"df735c88-ae0a-4f8e-9723-d29eb27d80b9","system_id":"levelo_inurba_marseille","lat":43.29915,"lon":5.37616,"is_reserved":false,"is_disabled":false,"rental_uris":{"android":"levelo://app?vid=df735c88-ae0a-4f8e-9723-d29eb27d80b9","ios":"levelo://app?vid=df735c88-ae0a-4f8e-9723-d29eb27d80b9"},"vehicle_type_id":"4","last_reported":1750482623,"current_range_meters":6000,"station_id":"","pricing_plan_id":"cebpf4jnsgd1na2vs0mg"},{"bike_id":"0ae0a5e2-4172-42fc-b67e-dcb70ad4d289","system_id":"levelo_inurba_marseille","lat":43.26732,"lon":5.42221,"is_reserved":false,"is_disabled":false,"rental_uris":{"android":"levelo://app?vid=0ae0a5e2-4172-42fc-b67e-dcb70ad4d289","ios":"levelo://app?vid=0ae0a5e2-4172-42fc-b67e-dcb70ad4d289"},"vehicle_type_id":"4","last_reported":1750482623,"current_range_meters":6400,"station_id":"","pricing_plan_id":"cebpf4jnsgd1na2vs0mg"},{"bike_id":"e3190518-bcc2-47a7-bb62-bcde5a07a296","system_id":"levelo_inurba_marseille","lat":43.306425,"lon":5.400748,"is_reserved":false,"is_disabled":false,"rental_uris":{"android":"levelo://app?vid=e3190518-bcc2-47a7-bb62-bcde5a07a296","ios":"levelo://app?vid=e3190518-bcc2-47a7-bb62-bcde5a07a296"},"vehicle_type_id":"4","last_reported":1750482623,"current_range_meters":6400,"station_id":"ce4bh112rcd13ifvqda0","pricing_plan_id":"cebpf4jnsgd1na2vs0mg"},{"bike_id":"e137e630-ca7a-49cf-a1d9-16a6091737e8","system_id":"levelo_inurba_marseille","lat":43.28939,"lon":5.39632,"is_reserved":false,"is_disabled":false,"rental_uris":{"android":"levelo://app?vid=e137e630-ca7a-49cf-a1d9-16a6091737e8","ios":"levelo://app?vid=e137e630-ca7a-49cf-a1d9-16a6091737e8"},"vehicle_type_id":"4","last_reported":1750482623,"current_range_meters":6800,"station_id":"ce4bh3h2rcd13ifvqdn0","pricing_plan_id":"cebpf4jnsgd1na2vs0mg"},{"bike_id":"ec64da71-1c29-4db9-9cac-c834292a14a8","system_id":"levelo_inurba_marseille","lat":43.270571,"lon":5.402632,"is_reserved":false,"is_disabled":false,"rental_uris":{"android":"levelo://app?vid=ec64da71-1c29-4db9-9cac-c834292a14a8","ios":"levelo://app?vid=ec64da71-1c29-4db9-9cac-c834292a14a8"},"vehicle_type_id":"4","last_reported":1750482623,"current_range_meters":6800,"station_id":"ce4bhk92rcd13ifvqgc0","pricing_plan_id":"cebpf4jnsgd1na2vs0mg"},{"bike_id":"cd1075f2-a8f9-4e06-96a1-9f1d52e8840f","system_id":"levelo_inurba_marseille","lat":43.30649,"lon":5.400769,"is_reserved":false,"is_disabled":false,"rental_uris":{"android":"levelo://app?vid=cd1075f2-a8f9-4e06-96a1-9f1d52e8840f","ios":"levelo://app?vid=cd1075f2-a8f9-4e06-96a1-9f1d52e8840f"},"vehicle_type_id":"4","last_reported":1750482623,"current_range_meters":7200,"station_id":"ce4bh112rcd13ifvqda0","pricing_plan_id":"cebpf4jnsgd1na2vs0mg"},{"bike_id":"fe09f8da-e191-4625-9c73-5616a2082425","system_id":"levelo_inurba_marseille","lat":43.232544,"lon":5.399806,"is_reserved":false,"is_disabled":false,"rental_uris":{"android":"levelo://app?vid=fe09f8da-e191-4625-9c73-5616a2082425","ios":"levelo://app?vid=fe09f8da-e191-4625-9c73-5616a2082425"},"vehicle_type_id":"4","last_reported":1750482623,"current_range_meters":7200,"station_id":"ce4bhn12rcd13ifvqgqg","pricing_plan_id":"cebpf4jnsgd1na2vs0mg"},{"bike_id":"f2169430-8ab5-4f68-846f-87f05b34d076","system_id":"levelo_inurba_marseille","lat":43.211956,"lon":5.350709,"is_reserved":false,"is_disabled":false,"rental_uris":{"android":"levelo://app?vid=f2169430-8ab5-4f68-846f-87f05b34d076","ios":"levelo://app?vid=f2169430-8ab5-4f68-846f-87f05b34d076"},"vehicle_type_id":"4","last_reported":1750482623,"current_range_meters":7200,"station_id":"st_cvj6sg6p6f1abm77japg","pricing_plan_id":"cebpf4jnsgd1na2vs0mg"},{"bike_id":"6c27666e-ee00-4768-b673-c88129e82192","system_id":"levelo_inurba_marseille","lat":43.29215,"lon":5.39604,"is_reserved":false,"is_disabled":false,"rental_uris":{"android":"levelo://app?vid=6c27666e-ee00-4768-b673-c88129e82192","ios":"levelo://app?vid=6c27666e-ee00-4768-b673-c88129e82192"},"vehicle_type_id":"4","last_reported":1750482623,"current_range_meters":8000,"station_id":"","pricing_plan_id":"cebpf4jnsgd1na2vs0mg"},{"bike_id":"470d5d38-9de3-4ee0-b8c2-7e3409e3e55a","system_id":"levelo_inurba_marseille","lat":43.29647,"lon":5.39351,"is_reserved":false,"is_disabled":false,"rental_uris":{"android":"levelo://app?vid=470d5d38-9de3-4ee0-b8c2-7e3409e3e55a","ios":"levelo://app?vid=470d5d38-9de3-4ee0-b8c2-7e3409e3e55a"},"vehicle_type_id":"4","last_reported":1750482623,"current_range_meters":8000,"station_id":"","pricing_plan_id":"cebpf4jnsgd1na2vs0mg"},{"bike_id":"2a419920-c7ac-4f64-bafa-a543962eece2","system_id":"levelo_inurba_marseille","lat":43.283611,"lon":5.381117,"is_reserved":false,"is_disabled":false,"rental_uris":{"android":"levelo://app?vid=2a419920-c7ac-4f64-bafa-a543962eece2","ios":"levelo://app?vid=2a419920-c7ac-4f64-bafa-a543962eece2"},"vehicle_type_id":"4","last_reported":1750482623,"current_range_meters":8000,"station_id":"ce4bh412rcd13ifvqdr0","pricing_plan_id":"cebpf4jnsgd1na2vs0mg"},{"bike_id":"2d9cd306-f0e6-4b47-9011-26d7fa79b2a5","system_id":"levelo_inurba_marseille","lat":43.24995,"lon":5.38931,"is_reserved":false,"is_disabled":false,"rental_uris":{"android":"levelo://app?vid=2d9cd306-f0e6-4b47-9011-26d7fa79b2a5","ios":"levelo://app?vid=2d9cd306-f0e6-4b47-9011-26d7fa79b2a5"},"vehicle_type_id":"4","last_reported":1750482623,"current_range_meters":8000,"station_id":"ce4bhgp2rcd13ifvqfd0","pricing_plan_id":"cebpf4jnsgd1na2vs0mg"},{"bike_id":"db7f7512-c361-460d-984a-c7320754ec1a","system_id":"levelo_inurba_marseille","lat":43.30814,"lon":5.43508,"is_reserved":false,"is_disabled":false,"rental_uris":{"android":"levelo://app?vid=db7f7512-c361-460d-984a-c7320754ec1a","ios":"levelo://app?vid=db7f7512-c361-460d-984a-c7320754ec1a"},"vehicle_type_id":"4","last_reported":1750482623,"current_range_meters":8000,"station_id":"ce4bhph2rcd13ifvqheg","pricing_plan_id":"cebpf4jnsgd1na2vs0mg"},{"bike_id":"999a7404-c492-4383-88c2-daf8b2db2f26","system_id":"levelo_inurba_marseille","lat":43.29272,"lon":5.40141,"is_reserved":false,"is_disabled":false,"rental_uris":{"android":"levelo://app?vid=999a7404-c492-4383-88c2-daf8b2db2f26","ios":"levelo://app?vid=999a7404-c492-4383-88c2-daf8b2db2f26"},"vehicle_type_id":"4","last_reported":1750482623,"current_range_meters":8400,"station_id":"ce4bh312rcd13ifvqdk0","pricing_plan_id":"cebpf4jnsgd1na2vs0mg"},{"bike_id":"43320ea7-0bdb-472c-956d-1a4fda4c85ea","system_id":"levelo_inurba_marseille","lat":43.278116,"lon":5.407254,"is_reserved":false,"is_disabled":false,"rental_uris":{"android":"levelo://app?vid=43320ea7-0bdb-472c-956d-1a4fda4c85ea","ios":"levelo://app?vid=43320ea7-0bdb-472c-956d-1a4fda4c85ea"},"vehicle_type_id":"4","last_reported":1750482623,"current_range_meters":8400,"station_id":"ce4bhnh2rcd13ifvqgtg","pricing_plan_id":"cebpf4jnsgd1na2vs0mg"},{"bike_id":"178fea52-5c46-4383-9a8d-cae388a2eff0","system_id":"levelo_inurba_marseille","lat":43.32105,"lon":5.36779,"is_reserved":false,"is_disabled":false,"rental_uris":{"android":"levelo://app?vid=178fea52-5c46-4383-9a8d-cae388a2eff0","ios":"levelo://app?vid=178fea52-5c46-4383-9a8d-cae388a2eff0"},"vehicle_type_id":"4","last_reported":1750482623,"current_range_meters":8400,"station_id":"ce4bhrh2rcd13ifvqhug","pricing_plan_id":"cebpf4jnsgd1na2vs0mg"},{"bike_id":"619f8849-9932-49a9-b204-3ca7c8ba25c6","system_id":"levelo_inurba_marseille","lat":43.2861,"lon":5.37052,"is_reserved":false,"is_disabled":false,"rental_uris":{"android":"levelo://app?vid=619f8849-9932-49a9-b204-3ca7c8ba25c6","ios":"levelo://app?vid=619f8849-9932-49a9-b204-3ca7c8ba25c6"},"vehicle_type_id":"4","last_reported":1750482623,"current_range_meters":8400,"station_id":"ce4bht12rcd13ifvqi60","pricing_plan_id":"cebpf4jnsgd1na2vs0mg"},{"bike_id":"f30123e7-96d3-442d-9d01-6c98dc61e7c8","system_id":"levelo_inurba_marseille","lat":43.29809,"lon":5.36828,"is_reserved":false,"is_disabled":false,"rental_uris":{"android":"levelo://app?vid=f30123e7-96d3-442d-9d01-6c98dc61e7c8","ios":"levelo://app?vid=f30123e7-96d3-442d-9d01-6c98dc61e7c8"},"vehicle_type_id":"4","last_reported":1750482623,"current_range_meters":8800,"station_id":"","pricing_plan_id":"cebpf4jnsgd1na2vs0mg"},{"bike_id":"ff5ca1bf-c1d0-43ba-8f5f-ea4a70bf2799","system_id":"levelo_inurba_marseille","lat":43.30336,"lon":5.40466,"is_reserved":false,"is_disabled":false,"rental_uris":{"android":"levelo://app?vid=ff5ca1bf-c1d0-43ba-8f5f-ea4a70bf2799","ios":"levelo://app?vid=ff5ca1bf-c1d0-43ba-8f5f-ea4a70bf2799"},"vehicle_type_id":"4","last_reported":1750482623,"current_range_meters":8800,"station_id":"ce4bh012rcd13ifvqd10","pricing_plan_id":"cebpf4jnsgd1na2vs0mg"},{"bike_id":"c595d0e1-c778-4abe-9c79-a9dd74f54e27","system_id":"levelo_inurba_marseille","lat":43.24478,"lon":5.37225,"is_reserved":false,"is_disabled":false,"rental_uris":{"android":"levelo://app?vid=c595d0e1-c778-4abe-9c79-a9dd74f54e27","ios":"levelo://app?vid=c595d0e1-c778-4abe-9c79-a9dd74f54e27"},"vehicle_type_id":"4","last_reported":1750482623,"current_range_meters":9200,"station_id":"","pricing_plan_id":"cebpf4jnsgd1na2vs0mg"},{"bike_id":"fe4f642a-2c8e-4a43-b47d-5a5067b48c79","system_id":"levelo_inurba_marseille","lat":43.31325,"lon":5.39737,"is_reserved":false,"is_disabled":false,"rental_uris":{"android":"levelo://app?vid=fe4f642a-2c8e-4a43-b47d-5a5067b48c79","ios":"levelo://app?vid=fe4f642a-2c8e-4a43-b47d-5a5067b48c79"},"vehicle_type_id":"4","last_reported":1750482623,"current_range_meters":9200,"station_id":"ce4bgvp2rcd13ifvqcu0","pricing_plan_id":"cebpf4jnsgd1na2vs0mg"},{"bike_id":"4099230a-f3b8-4d30-8ad7-384b176dc008","system_id":"levelo_inurba_marseille","lat":43.30874,"lon":5.39641,"is_reserved":false,"is_disabled":false,"rental_uris":{"android":"levelo://app?vid=4099230a-f3b8-4d30-8ad7-384b176dc008","ios":"levelo://app?vid=4099230a-f3b8-4d30-8ad7-384b176dc008"},"vehicle_type_id":"4","last_reported":1750482623,"current_range_meters":9200,"station_id":"ce4bh012rcd13ifvqcv0","pricing_plan_id":"cebpf4jnsgd1na2vs0mg"},{"bike_id":"a0f4885b-e467-4afb-b708-8c36a467e802","system_id":"levelo_inurba_marseille","lat":43.29048,"lon":5.39976,"is_reserved":false,"is_disabled":false,"rental_uris":{"android":"levelo://app?vid=a0f4885b-e467-4afb-b708-8c36a467e802","ios":"levelo://app?vid=a0f4885b-e467-4afb-b708-8c36a467e802"},"vehicle_type_id":"4","last_reported":1750482623,"current_range_meters":9200,"station_id":"ce4bh392rcd13ifvqdm0","pricing_plan_id":"cebpf4jnsgd1na2vs0mg"},{"bike_id":"b50ed994-fd88-4dd1-8846-dc2bf2666662","system_id":"levelo_inurba_marseille","lat":43.30546,"lon":5.4009,"is_reserved":false,"is_disabled":false,"rental_uris":{"android":"levelo://app?vid=b50ed994-fd88-4dd1-8846-dc2bf2666662","ios":"levelo://app?vid=b50ed994-fd88-4dd1-8846-dc2bf2666662"},"vehicle_type_id":"4","last_reported":1750482623,"current_range_meters":9600,"station_id":"","pricing_plan_id":"cebpf4jnsgd1na2vs0mg"},{"bike_id":"2148217b-d8a5-4a4c-bd43-e70d855d7cd0","system_id":"levelo_inurba_marseille","lat":43.30267,"lon":5.40054,"is_reserved":false,"is_disabled":false,"rental_uris":{"android":"levelo://app?vid=2148217b-d8a5-4a4c-bd43-e70d855d7cd0","ios":"levelo://app?vid=2148217b-d8a5-4a4c-bd43-e70d855d7cd0"},"vehicle_type_id":"4","last_reported":1750482623,"current_range_meters":9600,"station_id":"ce4bgvh2rcd13ifvqcs0","pricing_plan_id":"cebpf4jnsgd1na2vs0mg"},{"bike_id":"b6b25b81-c613-4ef7-a518-825b8ab86a27","system_id":"levelo_inurba_marseille","lat":43.30934,"lon":5.40191,"is_reserved":false,"is_disabled":false,"rental_uris":{"android":"levelo://app?vid=b6b25b81-c613-4ef7-a518-825b8ab86a27","ios":"levelo://app?vid=b6b25b81-c613-4ef7-a518-825b8ab86a27"},"vehicle_type_id":"4","last_reported":1750482623,"current_range_meters":9600,"station_id":"ce4bgvp2rcd13ifvqct0","pricing_plan_id":"cebpf4jnsgd1na2vs0mg"},{"bike_id":"07eb6289-d073-4169-9982-9b8fd3fb8787","system_id":"levelo_inurba_marseille","lat":43.28571,"lon":5.394969,"is_reserved":false,"is_disabled":false,"rental_uris":{"android":"levelo://app?vid=07eb6289-d073-4169-9982-9b8fd3fb8787","ios":"levelo://app?vid=07eb6289-d073-4169-9982-9b8fd3fb8787"},"vehicle_type_id":"4","last_reported":1750482623,"current_range_meters":9600,"station_id":"ce4bh292rcd13ifvqdg0","pricing_plan_id":"cebpf4jnsgd1na2vs0mg"},{"bike_id":"d008db5d-4cca-4ae3-99ca-26f23b4c291d","system_id":"levelo_inurba_marseille","lat":43.28938,"lon":5.39649,"is_reserved":false,"is_disabled":false,"rental_uris":{"android":"levelo://app?vid=d008db5d-4cca-4ae3-99ca-26f23b4c291d","ios":"levelo://app?vid=d008db5d-4cca-4ae3-99ca-26f23b4c291d"},"vehicle_type_id":"4","last_reported":1750482623,"current_range_meters":9600,"station_id":"ce4bh3h2rcd13ifvqdn0","pricing_plan_id":"cebpf4jnsgd1na2vs0mg"},{"bike_id":"0d21e280-9436-46d1-9c44-e5e965241a4d","system_id":"levelo_inurba_marseille","lat":43.28709,"lon":5.39961,"is_reserved":false,"is_disabled":false,"rental_uris":{"android":"levelo://app?vid=0d21e280-9436-46d1-9c44-e5e965241a4d","ios":"levelo://app?vid=0d21e280-9436-46d1-9c44-e5e965241a4d"},"vehicle_type_id":"4","last_reported":1750482623,"current_range_meters":9600,"station_id":"ce4bho92rcd13ifvqh3g","pricing_plan_id":"cebpf4jnsgd1na2vs0mg"},{"bike_id":"199c2831-e081-4bc0-9b94-19503817091d","system_id":"levelo_inurba_marseille","lat":43.24902,"lon":5.40644,"is_reserved":false,"is_disabled":false,"rental_uris":{"android":"levelo://app?vid=199c2831-e081-4bc0-9b94-19503817091d","ios":"levelo://app?vid=199c2831-e081-4bc0-9b94-19503817091d"},"vehicle_type_id":"4","last_reported":1750482623,"current_range_meters":10000,"station_id":"","pricing_plan_id":"cebpf4jnsgd1na2vs0mg"},{"bike_id":"780f0284-4f55-4f95-87fb-ecdf939e9a53","system_id":"levelo_inurba_marseille","lat":43.31337,"lon":5.39667,"is_reserved":false,"is_disabled":false,"rental_uris":{"android":"levelo://app?vid=780f0284-4f55-4f95-87fb-ecdf939e9a53","ios":"levelo://app?vid=780f0284-4f55-4f95-87fb-ecdf939e9a53"},"vehicle_type_id":"4","last_reported":1750482623,"current_range_meters":10000,"station_id":"ce4bgvp2rcd13ifvqcu0","pricing_plan_id":"cebpf4jnsgd1na2vs0mg"},{"bike_id":"a572deeb-2a98-49f6-b4c6-2d1a08996e3e","system_id":"levelo_inurba_marseille","lat":43.30425,"lon":5.397513,"is_reserved":false,"is_disabled":false,"rental_uris":{"android":"levelo://app?vid=a572deeb-2a98-49f6-b4c6-2d1a08996e3e","ios":"levelo://app?vid=a572deeb-2a98-49f6-b4c6-2d1a08996e3e"},"vehicle_type_id":"4","last_reported":1750482623,"current_range_meters":10000,"station_id":"ce4bh092rcd13ifvqd20","pricing_plan_id":"cebpf4jnsgd1na2vs0mg"},{"bike_id":"2930bf7b-2372-4ddb-a96e-39fc10a37e17","system_id":"levelo_inurba_marseille","lat":43.323271,"lon":5.406368,"is_reserved":false,"is_disabled":false,"rental_uris":{"android":"levelo://app?vid=2930bf7b-2372-4ddb-a96e-39fc10a37e17","ios":"levelo://app?vid=2930bf7b-2372-4ddb-a96e-39fc10a37e17"},"vehicle_type_id":"4","last_reported":1750482623,"current_range_meters":10000,"station_id":"ce4bhq92rcd13ifvqhjg","pricing_plan_id":"cebpf4jnsgd1na2vs0mg"},{"bike_id":"a91667c8-9d9b-4267-80b6-c6c85a0895dc","system_id":"levelo_inurba_marseille","lat":43.32341,"lon":5.40634,"is_reserved":false,"is_disabled":false,"rental_uris":{"android":"levelo://app?vid=a91667c8-9d9b-4267-80b6-c6c85a0895dc","ios":"levelo://app?vid=a91667c8-9d9b-4267-80b6-c6c85a0895dc"},"vehicle_type_id":"4","last_reported":1750482623,"current_range_meters":10000,"station_id":"ce4bhq92rcd13ifvqhjg","pricing_plan_id":"cebpf4jnsgd1na2vs0mg"},{"bike_id":"8300812b-c3f4-4460-a462-0c10590e5460","system_id":"levelo_inurba_marseille","lat":43.32876,"lon":5.40566,"is_reserved":false,"is_disabled":false,"rental_uris":{"android":"levelo://app?vid=8300812b-c3f4-4460-a462-0c10590e5460","ios":"levelo://app?vid=8300812b-c3f4-4460-a462-0c10590e5460"},"vehicle_type_id":"4","last_reported":1750482623,"current_range_meters":10800,"station_id":"","pricing_plan_id":"cebpf4jnsgd1na2vs0mg"},{"bike_id":"05f69300-23b4-44be-a7e1-398a0efe81a4","system_id":"levelo_inurba_marseille","lat":43.317104,"lon":5.404446,"is_reserved":false,"is_disabled":false,"rental_uris":{"android":"levelo://app?vid=05f69300-23b4-44be-a7e1-398a0efe81a4","ios":"levelo://app?vid=05f69300-23b4-44be-a7e1-398a0efe81a4"},"vehicle_type_id":"4","last_reported":1750482623,"current_range_meters":10800,"station_id":"ce4bh012rcd13ifvqd00","pricing_plan_id":"cebpf4jnsgd1na2vs0mg"},{"bike_id":"ee762a49-83ad-4fcd-811f-1fa20f226852","system_id":"levelo_inurba_marseille","lat":43.30375,"lon":5.42483,"is_reserved":false,"is_disabled":false,"rental_uris":{"android":"levelo://app?vid=ee762a49-83ad-4fcd-811f-1fa20f226852","ios":"levelo://app?vid=ee762a49-83ad-4fcd-811f-1fa20f226852"},"vehicle_type_id":"4","last_reported":1750482623,"current_range_meters":10800,"station_id":"ce4bhoh2rcd13ifvqh6g","pricing_plan_id":"cebpf4jnsgd1na2vs0mg"},{"bike_id":"95948f8c-ed1b-4579-a2fd-8de9a76479dd","system_id":"levelo_inurba_marseille","lat":43.298724,"lon":5.397404,"is_reserved":false,"is_disabled":false,"rental_uris":{"android":"levelo://app?vid=95948f8c-ed1b-4579-a2fd-8de9a76479dd","ios":"levelo://app?vid=95948f8c-ed1b-4579-a2fd-8de9a76479dd"},"vehicle_type_id":"4","last_reported":1750482623,"current_range_meters":11600,"station_id":"ce4bh0h2rcd13ifvqd50","pricing_plan_id":"cebpf4jnsgd1na2vs0mg"},{"bike_id":"7f32a65e-ea3d-42e8-bbf9-8ddb377b0bf0","system_id":"levelo_inurba_marseille","lat":43.26229,"lon":5.40452,"is_reserved":false,"is_disabled":false,"rental_uris":{"android":"levelo://app?vid=7f32a65e-ea3d-42e8-bbf9-8ddb377b0bf0","ios":"levelo://app?vid=7f32a65e-ea3d-42e8-bbf9-8ddb377b0bf0"},"vehicle_type_id":"4","last_reported":1750482623,"current_range_meters":11600,"station_id":"ce4bhmh2rcd13ifvqgmg","pricing_plan_id":"cebpf4jnsgd1na2vs0mg"},{"bike_id":"35d78290-40ba-4920-ac67-027dbac42037","system_id":"levelo_inurba_marseille","lat":43.3236,"lon":5.38877,"is_reserved":false,"is_disabled":false,"rental_uris":{"android":"levelo://app?vid=35d78290-40ba-4920-ac67-027dbac42037","ios":"levelo://app?vid=35d78290-40ba-4920-ac67-027dbac42037"},"vehicle_type_id":"4","last_reported":1750482623,"current_range_meters":11600,"station_id":"ce4bhqp2rcd13ifvqhog","pricing_plan_id":"cebpf4jnsgd1na2vs0mg"},{"bike_id":"bd27fe72-6fbc-453f-8b77-bee10ab3b13c","system_id":"levelo_inurba_marseille","lat":43.2951,"lon":5.42363,"is_reserved":false,"is_disabled":false,"rental_uris":{"android":"levelo://app?vid=bd27fe72-6fbc-453f-8b77-bee10ab3b13c","ios":"levelo://app?vid=bd27fe72-6fbc-453f-8b77-bee10ab3b13c"},"vehicle_type_id":"4","last_reported":1750482623,"current_range_meters":12000,"station_id":"","pricing_plan_id":"cebpf4jnsgd1na2vs0mg"},{"bike_id":"dc540ba2-fb63-45eb-b83a-1826fb3d30b7","system_id":"levelo_inurba_marseille","lat":43.246087,"lon":5.392637,"is_reserved":false,"is_disabled":false,"rental_uris":{"android":"levelo://app?vid=dc540ba2-fb63-45eb-b83a-1826fb3d30b7","ios":"levelo://app?vid=dc540ba2-fb63-45eb-b83a-1826fb3d30b7"},"vehicle_type_id":"4","last_reported":1750482623,"current_range_meters":12400,"station_id":"","pricing_plan_id":"cebpf4jnsgd1na2vs0mg"},{"bike_id":"517a107e-9cd9-4539-be7a-5ca6b67916f7","system_id":"levelo_inurba_marseille","lat":43.30643,"lon":5.40074,"is_reserved":false,"is_disabled":false,"rental_uris":{"android":"levelo://app?vid=517a107e-9cd9-4539-be7a-5ca6b67916f7","ios":"levelo://app?vid=517a107e-9cd9-4539-be7a-5ca6b67916f7"},"vehicle_type_id":"4","last_reported":1750482623,"current_range_meters":12400,"station_id":"ce4bh112rcd13ifvqda0","pricing_plan_id":"cebpf4jnsgd1na2vs0mg"},{"bike_id":"fc806684-7054-4a56-b7df-33f170880f7f","system_id":"levelo_inurba_marseille","lat":43.29009,"lon":5.35601,"is_reserved":false,"is_disabled":false,"rental_uris":{"android":"levelo://app?vid=fc806684-7054-4a56-b7df-33f170880f7f","ios":"levelo://app?vid=fc806684-7054-4a56-b7df-33f170880f7f"},"vehicle_type_id":"4","last_reported":1750482623,"current_range_meters":12400,"station_id":"ce4bhb92rcd13ifvqen0","pricing_plan_id":"cebpf4jnsgd1na2vs0mg"},{"bike_id":"959f0c62-9761-4a35-9c23-557e23ca2679","system_id":"levelo_inurba_marseille","lat":43.24662,"lon":5.38153,"is_reserved":false,"is_disabled":false,"rental_uris":{"android":"levelo://app?vid=959f0c62-9761-4a35-9c23-557e23ca2679","ios":"levelo://app?vid=959f0c62-9761-4a35-9c23-557e23ca2679"},"vehicle_type_id":"4","last_reported":1750482623,"current_range_meters":12400,"station_id":"ce4bhih2rcd13ifvqfr0","pricing_plan_id":"cebpf4jnsgd1na2vs0mg"},{"bike_id":"3fa5aa17-b27e-4bfa-8422-021bfaabc943","system_id":"levelo_inurba_marseille","lat":43.27992,"lon":5.41634,"is_reserved":false,"is_disabled":false,"rental_uris":{"android":"levelo://app?vid=3fa5aa17-b27e-4bfa-8422-021bfaabc943","ios":"levelo://app?vid=3fa5aa17-b27e-4bfa-8422-021bfaabc943"},"vehicle_type_id":"4","last_reported":1750482623,"current_range_meters":12400,"station_id":"ce4bho12rcd13ifvqh1g","pricing_plan_id":"cebpf4jnsgd1na2vs0mg"},{"bike_id":"8fd94bfe-b0a3-4509-a3c9-0f6e3f8eed78","system_id":"levelo_inurba_marseille","lat":43.24162,"lon":5.36394,"is_reserved":false,"is_disabled":false,"rental_uris":{"android":"levelo://app?vid=8fd94bfe-b0a3-4509-a3c9-0f6e3f8eed78","ios":"levelo://app?vid=8fd94bfe-b0a3-4509-a3c9-0f6e3f8eed78"},"vehicle_type_id":"4","last_reported":1750482623,"current_range_meters":12400,"station_id":"cpo36qri1sfpv3e86is0","pricing_plan_id":"cebpf4jnsgd1na2vs0mg"},{"bike_id":"8ef11a45-504d-45b0-a2b5-97fef9594218","system_id":"levelo_inurba_marseille","lat":43.2956,"lon":5.38137,"is_reserved":false,"is_disabled":false,"rental_uris":{"android":"levelo://app?vid=8ef11a45-504d-45b0-a2b5-97fef9594218","ios":"levelo://app?vid=8ef11a45-504d-45b0-a2b5-97fef9594218"},"vehicle_type_id":"4","last_reported":1750482623,"current_range_meters":12800,"station_id":"","pricing_plan_id":"cebpf4jnsgd1na2vs0mg"},{"bike_id":"1af8cc20-b4be-40a0-952b-b9221d26e0d7","system_id":"levelo_inurba_marseille","lat":43.287193,"lon":5.379513,"is_reserved":false,"is_disabled":false,"rental_uris":{"android":"levelo://app?vid=1af8cc20-b4be-40a0-952b-b9221d26e0d7","ios":"levelo://app?vid=1af8cc20-b4be-40a0-952b-b9221d26e0d7"},"vehicle_type_id":"4","last_reported":1750482623,"current_range_meters":12800,"station_id":"ce4bh9p2rcd13ifvqec0","pricing_plan_id":"cebpf4jnsgd1na2vs0mg"},{"bike_id":"d40af265-11b5-43a6-9bb6-f910f57901ba","system_id":"levelo_inurba_marseille","lat":43.3296,"lon":5.38081,"is_reserved":false,"is_disabled":false,"rental_uris":{"android":"levelo://app?vid=d40af265-11b5-43a6-9bb6-f910f57901ba","ios":"levelo://app?vid=d40af265-11b5-43a6-9bb6-f910f57901ba"},"vehicle_type_id":"4","last_reported":1750482623,"current_range_meters":13600,"station_id":"","pricing_plan_id":"cebpf4jnsgd1na2vs0mg"},{"bike_id":"bb5e8cfe-ffcf-4275-8796-019fb987ef2b","system_id":"levelo_inurba_marseille","lat":43.29559,"lon":5.42297,"is_reserved":false,"is_disabled":false,"rental_uris":{"android":"levelo://app?vid=bb5e8cfe-ffcf-4275-8796-019fb987ef2b","ios":"levelo://app?vid=bb5e8cfe-ffcf-4275-8796-019fb987ef2b"},"vehicle_type_id":"4","last_reported":1750482623,"current_range_meters":13600,"station_id":"ce4bhph2rcd13ifvqhdg","pricing_plan_id":"cebpf4jnsgd1na2vs0mg"},{"bike_id":"c5d80bab-5e87-4c1c-a69f-62d26f69ac1d","system_id":"levelo_inurba_marseille","lat":43.31727,"lon":5.40438,"is_reserved":false,"is_disabled":false,"rental_uris":{"android":"levelo://app?vid=c5d80bab-5e87-4c1c-a69f-62d26f69ac1d","ios":"levelo://app?vid=c5d80bab-5e87-4c1c-a69f-62d26f69ac1d"},"vehicle_type_id":"4","last_reported":1750482623,"current_range_meters":14000,"station_id":"ce4bh012rcd13ifvqd00","pricing_plan_id":"cebpf4jnsgd1na2vs0mg"},{"bike_id":"4643bc90-1bac-4c4b-98b1-e2d500830573","system_id":"levelo_inurba_marseille","lat":43.3139,"lon":5.37619,"is_reserved":false,"is_disabled":false,"rental_uris":{"android":"levelo://app?vid=4643bc90-1bac-4c4b-98b1-e2d500830573","ios":"levelo://app?vid=4643bc90-1bac-4c4b-98b1-e2d500830573"},"vehicle_type_id":"4","last_reported":1750482623,"current_range_meters":14400,"station_id":"","pricing_plan_id":"cebpf4jnsgd1na2vs0mg"},{"bike_id":"a22aa312-0025-4f42-88e2-b1e95e79340f","system_id":"levelo_inurba_marseille","lat":43.31651,"lon":5.38339,"is_reserved":false,"is_disabled":false,"rental_uris":{"android":"levelo://app?vid=a22aa312-0025-4f42-88e2-b1e95e79340f","ios":"levelo://app?vid=a22aa312-0025-4f42-88e2-b1e95e79340f"},"vehicle_type_id":"4","last_reported":1750482623,"current_range_meters":14400,"station_id":"","pricing_plan_id":"cebpf4jnsgd1na2vs0mg"},{"bike_id":"90c109b5-5cee-495e-8f11-f318c0f086b6","system_id":"levelo_inurba_marseille","lat":43.32492,"lon":5.43434,"is_reserved":false,"is_disabled":false,"rental_uris":{"android":"levelo://app?vid=90c109b5-5cee-495e-8f11-f318c0f086b6","ios":"levelo://app?vid=90c109b5-5cee-495e-8f11-f318c0f086b6"},"vehicle_type_id":"4","last_reported":1750482623,"current_range_meters":14400,"station_id":"","pricing_plan_id":"cebpf4jnsgd1na2vs0mg"},{"bike_id":"ced8ee67-58dc-40f7-a011-ace4bcd3b542","system_id":"levelo_inurba_marseille","lat":43.290401,"lon":5.399673,"is_reserved":false,"is_disabled":false,"rental_uris":{"android":"levelo://app?vid=ced8ee67-58dc-40f7-a011-ace4bcd3b542","ios":"levelo://app?vid=ced8ee67-58dc-40f7-a011-ace4bcd3b542"},"vehicle_type_id":"4","last_reported":1750482623,"current_range_meters":14400,"station_id":"ce4bh392rcd13ifvqdm0","pricing_plan_id":"cebpf4jnsgd1na2vs0mg"},{"bike_id":"5a01a987-f989-4da6-b035-8c3000259e08","system_id":"levelo_inurba_marseille","lat":43.27914,"lon":5.39574,"is_reserved":false,"is_disabled":false,"rental_uris":{"android":"levelo://app?vid=5a01a987-f989-4da6-b035-8c3000259e08","ios":"levelo://app?vid=5a01a987-f989-4da6-b035-8c3000259e08"},"vehicle_type_id":"4","last_reported":1750482623,"current_range_meters":14400,"station_id":"ce4bhf92rcd13ifvqf40","pricing_plan_id":"cebpf4jnsgd1na2vs0mg"},{"bike_id":"5c19dc00-677d-4a6e-8b75-75f25d696ae2","system_id":"levelo_inurba_marseille","lat":43.308846,"lon":5.396295,"is_reserved":false,"is_disabled":false,"rental_uris":{"android":"levelo://app?vid=5c19dc00-677d-4a6e-8b75-75f25d696ae2","ios":"levelo://app?vid=5c19dc00-677d-4a6e-8b75-75f25d696ae2"},"vehicle_type_id":"4","last_reported":1750482623,"current_range_meters":14800,"station_id":"ce4bh012rcd13ifvqcv0","pricing_plan_id":"cebpf4jnsgd1na2vs0mg"},{"bike_id":"1ec9e17c-fc83-4e3e-a4e4-6a0fc0c7e792","system_id":"levelo_inurba_marseille","lat":43.29892,"lon":5.39708,"is_reserved":false,"is_disabled":false,"rental_uris":{"android":"levelo://app?vid=1ec9e17c-fc83-4e3e-a4e4-6a0fc0c7e792","ios":"levelo://app?vid=1ec9e17c-fc83-4e3e-a4e4-6a0fc0c7e792"},"vehicle_type_id":"4","last_reported":1750482623,"current_range_meters":14800,"station_id":"ce4bh0h2rcd13ifvqd50","pricing_plan_id":"cebpf4jnsgd1na2vs0mg"},{"bike_id":"19267c63-bfb8-4e4b-a2b6-3c766dbbe094","system_id":"levelo_inurba_marseille","lat":43.292572,"lon":5.409092,"is_reserved":false,"is_disabled":false,"rental_uris":{"android":"levelo://app?vid=19267c63-bfb8-4e4b-a2b6-3c766dbbe094","ios":"levelo://app?vid=19267c63-bfb8-4e4b-a2b6-3c766dbbe094"},"vehicle_type_id":"4","last_reported":1750482623,"current_range_meters":15200,"station_id":"ce4bh192rcd13ifvqdc0","pricing_plan_id":"cebpf4jnsgd1na2vs0mg"},{"bike_id":"1fba1751-cedd-4b25-a6ca-c85bad748e63","system_id":"levelo_inurba_marseille","lat":43.265017,"lon":5.395428,"is_reserved":false,"is_disabled":false,"rental_uris":{"android":"levelo://app?vid=1fba1751-cedd-4b25-a6ca-c85bad748e63","ios":"levelo://app?vid=1fba1751-cedd-4b25-a6ca-c85bad748e63"},"vehicle_type_id":"4","last_reported":1750482623,"current_range_meters":15200,"station_id":"ce4bhi12rcd13ifvqfq0","pricing_plan_id":"cebpf4jnsgd1na2vs0mg"},{"bike_id":"ba496306-0dfc-4d42-9bbf-ef090e9f1430","system_id":"levelo_inurba_marseille","lat":43.24659,"lon":5.38889,"is_reserved":false,"is_disabled":false,"rental_uris":{"android":"levelo://app?vid=ba496306-0dfc-4d42-9bbf-ef090e9f1430","ios":"levelo://app?vid=ba496306-0dfc-4d42-9bbf-ef090e9f1430"},"vehicle_type_id":"4","last_reported":1750482623,"current_range_meters":16000,"station_id":"ce4bhg12rcd13ifvqf60","pricing_plan_id":"cebpf4jnsgd1na2vs0mg"},{"bike_id":"9436b3f7-e71d-4814-81fe-95d1af5df695","system_id":"levelo_inurba_marseille","lat":43.211914,"lon":5.350706,"is_reserved":false,"is_disabled":false,"rental_uris":{"android":"levelo://app?vid=9436b3f7-e71d-4814-81fe-95d1af5df695","ios":"levelo://app?vid=9436b3f7-e71d-4814-81fe-95d1af5df695"},"vehicle_type_id":"4","last_reported":1750482623,"current_range_meters":16000,"station_id":"st_cvj6sg6p6f1abm77japg","pricing_plan_id":"cebpf4jnsgd1na2vs0mg"},{"bike_id":"2a0e16d5-55d2-4c16-a4c9-b0b86c57f985","system_id":"levelo_inurba_marseille","lat":43.30189,"lon":5.38045,"is_reserved":false,"is_disabled":false,"rental_uris":{"android":"levelo://app?vid=2a0e16d5-55d2-4c16-a4c9-b0b86c57f985","ios":"levelo://app?vid=2a0e16d5-55d2-4c16-a4c9-b0b86c57f985"},"vehicle_type_id":"4","last_reported":1750482623,"current_range_meters":16400,"station_id":"","pricing_plan_id":"cebpf4jnsgd1na2vs0mg"},{"bike_id":"3c62b5f2-bada-48a3-8713-3e3194716a52","system_id":"levelo_inurba_marseille","lat":43.24654,"lon":5.38895,"is_reserved":false,"is_disabled":false,"rental_uris":{"android":"levelo://app?vid=3c62b5f2-bada-48a3-8713-3e3194716a52","ios":"levelo://app?vid=3c62b5f2-bada-48a3-8713-3e3194716a52"},"vehicle_type_id":"4","last_reported":1750482623,"current_range_meters":16400,"station_id":"ce4bhg12rcd13ifvqf60","pricing_plan_id":"cebpf4jnsgd1na2vs0mg"},{"bike_id":"70c5db27-3c5a-4150-9e6a-af1f1459df6c","system_id":"levelo_inurba_marseille","lat":43.279463,"lon":5.387243,"is_reserved":false,"is_disabled":false,"rental_uris":{"android":"levelo://app?vid=70c5db27-3c5a-4150-9e6a-af1f1459df6c","ios":"levelo://app?vid=70c5db27-3c5a-4150-9e6a-af1f1459df6c"},"vehicle_type_id":"4","last_reported":1750482623,"current_range_meters":16400,"station_id":"ce4bhg12rcd13ifvqf80","pricing_plan_id":"cebpf4jnsgd1na2vs0mg"},{"bike_id":"38b4578b-d322-4ae7-86ef-2a7e9839b4fd","system_id":"levelo_inurba_marseille","lat":43.21209,"lon":5.35039,"is_reserved":false,"is_disabled":false,"rental_uris":{"android":"levelo://app?vid=38b4578b-d322-4ae7-86ef-2a7e9839b4fd","ios":"levelo://app?vid=38b4578b-d322-4ae7-86ef-2a7e9839b4fd"},"vehicle_type_id":"4","last_reported":1750482623,"current_range_meters":16800,"station_id":"","pricing_plan_id":"cebpf4jnsgd1na2vs0mg"},{"bike_id":"aed9a201-fd41-4a2e-86ed-81b8f27be63f","system_id":"levelo_inurba_marseille","lat":43.3203,"lon":5.40817,"is_reserved":false,"is_disabled":false,"rental_uris":{"android":"levelo://app?vid=aed9a201-fd41-4a2e-86ed-81b8f27be63f","ios":"levelo://app?vid=aed9a201-fd41-4a2e-86ed-81b8f27be63f"},"vehicle_type_id":"4","last_reported":1750482623,"current_range_meters":16800,"station_id":"","pricing_plan_id":"cebpf4jnsgd1na2vs0mg"},{"bike_id":"80d0ab62-644b-4203-8f13-cadd17ad1e74","system_id":"levelo_inurba_marseille","lat":43.30895,"lon":5.40206,"is_reserved":false,"is_disabled":false,"rental_uris":{"android":"levelo://app?vid=80d0ab62-644b-4203-8f13-cadd17ad1e74","ios":"levelo://app?vid=80d0ab62-644b-4203-8f13-cadd17ad1e74"},"vehicle_type_id":"4","last_reported":1750482623,"current_range_meters":16800,"station_id":"","pricing_plan_id":"cebpf4jnsgd1na2vs0mg"},{"bike_id":"399f1953-2bea-49fa-99d4-dce45aabeeb9","system_id":"levelo_inurba_marseille","lat":43.31707,"lon":5.40451,"is_reserved":false,"is_disabled":false,"rental_uris":{"android":"levelo://app?vid=399f1953-2bea-49fa-99d4-dce45aabeeb9","ios":"levelo://app?vid=399f1953-2bea-49fa-99d4-dce45aabeeb9"},"vehicle_type_id":"4","last_reported":1750482623,"current_range_meters":16800,"station_id":"ce4bh012rcd13ifvqd00","pricing_plan_id":"cebpf4jnsgd1na2vs0mg"},{"bike_id":"de81c6ec-4833-461b-9110-80bf77e4c8f4","system_id":"levelo_inurba_marseille","lat":43.28418,"lon":5.37525,"is_reserved":false,"is_disabled":false,"rental_uris":{"android":"levelo://app?vid=de81c6ec-4833-461b-9110-80bf77e4c8f4","ios":"levelo://app?vid=de81c6ec-4833-461b-9110-80bf77e4c8f4"},"vehicle_type_id":"4","last_reported":1750482623,"current_range_meters":16800,"station_id":"ce4bh412rcd13ifvqds0","pricing_plan_id":"cebpf4jnsgd1na2vs0mg"},{"bike_id":"6601d198-bb94-4172-ae1d-ace67b3fd78f","system_id":"levelo_inurba_marseille","lat":43.289316,"lon":5.366398,"is_reserved":false,"is_disabled":false,"rental_uris":{"android":"levelo://app?vid=6601d198-bb94-4172-ae1d-ace67b3fd78f","ios":"levelo://app?vid=6601d198-bb94-4172-ae1d-ace67b3fd78f"},"vehicle_type_id":"4","last_reported":1750482623,"current_range_meters":16800,"station_id":"ce4bhap2rcd13ifvqek0","pricing_plan_id":"cebpf4jnsgd1na2vs0mg"},{"bike_id":"6646f1cb-9c8e-49c5-beb9-43cec8edb267","system_id":"levelo_inurba_marseille","lat":43.268034,"lon":5.394091,"is_reserved":false,"is_disabled":false,"rental_uris":{"android":"levelo://app?vid=6646f1cb-9c8e-49c5-beb9-43cec8edb267","ios":"levelo://app?vid=6646f1cb-9c8e-49c5-beb9-43cec8edb267"},"vehicle_type_id":"4","last_reported":1750482623,"current_range_meters":16800,"station_id":"ce4bhh12rcd13ifvqfg0","pricing_plan_id":"cebpf4jnsgd1na2vs0mg"},{"bike_id":"3d2d6044-6185-4c45-8ef2-14dfc8377c45","system_id":"levelo_inurba_marseille","lat":43.321102,"lon":5.367719,"is_reserved":false,"is_disabled":false,"rental_uris":{"android":"levelo://app?vid=3d2d6044-6185-4c45-8ef2-14dfc8377c45","ios":"levelo://app?vid=3d2d6044-6185-4c45-8ef2-14dfc8377c45"},"vehicle_type_id":"4","last_reported":1750482623,"current_range_meters":16800,"station_id":"ce4bhrh2rcd13ifvqhug","pricing_plan_id":"cebpf4jnsgd1na2vs0mg"},{"bike_id":"4652fcd3-8fa3-4f43-ac1d-f66153d7f3b7","system_id":"levelo_inurba_marseille","lat":43.282169,"lon":5.403599,"is_reserved":false,"is_disabled":false,"rental_uris":{"android":"levelo://app?vid=4652fcd3-8fa3-4f43-ac1d-f66153d7f3b7","ios":"levelo://app?vid=4652fcd3-8fa3-4f43-ac1d-f66153d7f3b7"},"vehicle_type_id":"4","last_reported":1750482623,"current_range_meters":17200,"station_id":"","pricing_plan_id":"cebpf4jnsgd1na2vs0mg"},{"bike_id":"f6069a5d-a2bc-44cc-bc6f-f26f79591d92","system_id":"levelo_inurba_marseille","lat":43.30752,"lon":5.37362,"is_reserved":false,"is_disabled":false,"rental_uris":{"android":"levelo://app?vid=f6069a5d-a2bc-44cc-bc6f-f26f79591d92","ios":"levelo://app?vid=f6069a5d-a2bc-44cc-bc6f-f26f79591d92"},"vehicle_type_id":"4","last_reported":1750482623,"current_range_meters":17200,"station_id":"","pricing_plan_id":"cebpf4jnsgd1na2vs0mg"},{"bike_id":"a03a949d-876f-42db-9564-0aeae678fff4","system_id":"levelo_inurba_marseille","lat":43.294256,"lon":5.444866,"is_reserved":false,"is_disabled":false,"rental_uris":{"android":"levelo://app?vid=a03a949d-876f-42db-9564-0aeae678fff4","ios":"levelo://app?vid=a03a949d-876f-42db-9564-0aeae678fff4"},"vehicle_type_id":"4","last_reported":1750482623,"current_range_meters":17200,"station_id":"","pricing_plan_id":"cebpf4jnsgd1na2vs0mg"},{"bike_id":"56faa6ab-2f83-450c-9e58-434be7d2d9fc","system_id":"levelo_inurba_marseille","lat":43.311164,"lon":5.377606,"is_reserved":false,"is_disabled":false,"rental_uris":{"android":"levelo://app?vid=56faa6ab-2f83-450c-9e58-434be7d2d9fc","ios":"levelo://app?vid=56faa6ab-2f83-450c-9e58-434be7d2d9fc"},"vehicle_type_id":"4","last_reported":1750482623,"current_range_meters":17200,"station_id":"ce4bgt92rcd13ifvqcg0","pricing_plan_id":"cebpf4jnsgd1na2vs0mg"},{"bike_id":"1289328c-2166-4054-b0b7-db1bcb46ecea","system_id":"levelo_inurba_marseille","lat":43.29879,"lon":5.397447,"is_reserved":false,"is_disabled":false,"rental_uris":{"android":"levelo://app?vid=1289328c-2166-4054-b0b7-db1bcb46ecea","ios":"levelo://app?vid=1289328c-2166-4054-b0b7-db1bcb46ecea"},"vehicle_type_id":"4","last_reported":1750482623,"current_range_meters":17200,"station_id":"ce4bh0h2rcd13ifvqd50","pricing_plan_id":"cebpf4jnsgd1na2vs0mg"},{"bike_id":"c1b9133a-17e5-4bf8-bd9b-3c83269e599d","system_id":"levelo_inurba_marseille","lat":43.285734,"lon":5.394989,"is_reserved":false,"is_disabled":false,"rental_uris":{"android":"levelo://app?vid=c1b9133a-17e5-4bf8-bd9b-3c83269e599d","ios":"levelo://app?vid=c1b9133a-17e5-4bf8-bd9b-3c83269e599d"},"vehicle_type_id":"4","last_reported":1750482623,"current_range_meters":17200,"station_id":"ce4bh292rcd13ifvqdg0","pricing_plan_id":"cebpf4jnsgd1na2vs0mg"},{"bike_id":"443dbbb8-21ad-4e53-a14c-6539edcbd9fd","system_id":"levelo_inurba_marseille","lat":43.27996,"lon":5.41639,"is_reserved":false,"is_disabled":false,"rental_uris":{"android":"levelo://app?vid=443dbbb8-21ad-4e53-a14c-6539edcbd9fd","ios":"levelo://app?vid=443dbbb8-21ad-4e53-a14c-6539edcbd9fd"},"vehicle_type_id":"4","last_reported":1750482623,"current_range_meters":17200,"station_id":"ce4bho12rcd13ifvqh1g","pricing_plan_id":"cebpf4jnsgd1na2vs0mg"},{"bike_id":"48f0ea25-8d24-4e62-b841-1c9af0b23280","system_id":"levelo_inurba_marseille","lat":43.251408,"lon":5.40365,"is_reserved":false,"is_disabled":false,"rental_uris":{"android":"levelo://app?vid=48f0ea25-8d24-4e62-b841-1c9af0b23280","ios":"levelo://app?vid=48f0ea25-8d24-4e62-b841-1c9af0b23280"},"vehicle_type_id":"4","last_reported":1750482623,"current_range_meters":17600,"station_id":"","pricing_plan_id":"cebpf4jnsgd1na2vs0mg"},{"bike_id":"ffbb0c22-3f4e-4cdb-a0e5-79e3b9f3e1a2","system_id":"levelo_inurba_marseille","lat":43.33769,"lon":5.37469,"is_reserved":false,"is_disabled":false,"rental_uris":{"android":"levelo://app?vid=ffbb0c22-3f4e-4cdb-a0e5-79e3b9f3e1a2","ios":"levelo://app?vid=ffbb0c22-3f4e-4cdb-a0e5-79e3b9f3e1a2"},"vehicle_type_id":"4","last_reported":1750482623,"current_range_meters":17600,"station_id":"","pricing_plan_id":"cebpf4jnsgd1na2vs0mg"},{"bike_id":"acf4c5ba-491d-4c2c-b805-de116280a2fc","system_id":"levelo_inurba_marseille","lat":43.292784,"lon":5.401367,"is_reserved":false,"is_disabled":false,"rental_uris":{"android":"levelo://app?vid=acf4c5ba-491d-4c2c-b805-de116280a2fc","ios":"levelo://app?vid=acf4c5ba-491d-4c2c-b805-de116280a2fc"},"vehicle_type_id":"4","last_reported":1750482623,"current_range_meters":17600,"station_id":"ce4bh312rcd13ifvqdk0","pricing_plan_id":"cebpf4jnsgd1na2vs0mg"},{"bike_id":"b5223d4d-4319-49c8-a89e-49fc64e254be","system_id":"levelo_inurba_marseille","lat":43.268029,"lon":5.402624,"is_reserved":false,"is_disabled":false,"rental_uris":{"android":"levelo://app?vid=b5223d4d-4319-49c8-a89e-49fc64e254be","ios":"levelo://app?vid=b5223d4d-4319-49c8-a89e-49fc64e254be"},"vehicle_type_id":"4","last_reported":1750482623,"current_range_meters":17600,"station_id":"ce501612rcd8frsf0b60","pricing_plan_id":"cebpf4jnsgd1na2vs0mg"},{"bike_id":"51924496-d375-43d1-9f3c-2086be022a83","system_id":"levelo_inurba_marseille","lat":43.26012,"lon":5.38652,"is_reserved":false,"is_disabled":false,"rental_uris":{"android":"levelo://app?vid=51924496-d375-43d1-9f3c-2086be022a83","ios":"levelo://app?vid=51924496-d375-43d1-9f3c-2086be022a83"},"vehicle_type_id":"4","last_reported":1750482623,"current_range_meters":18000,"station_id":"","pricing_plan_id":"cebpf4jnsgd1na2vs0mg"},{"bike_id":"1b45921b-2375-4f5e-9fc0-95f00e334491","system_id":"levelo_inurba_marseille","lat":43.313303,"lon":5.396949,"is_reserved":false,"is_disabled":false,"rental_uris":{"android":"levelo://app?vid=1b45921b-2375-4f5e-9fc0-95f00e334491","ios":"levelo://app?vid=1b45921b-2375-4f5e-9fc0-95f00e334491"},"vehicle_type_id":"4","last_reported":1750482623,"current_range_meters":18000,"station_id":"ce4bgvp2rcd13ifvqcu0","pricing_plan_id":"cebpf4jnsgd1na2vs0mg"},{"bike_id":"a966ddd2-fafd-45a6-865d-233116c7ab8f","system_id":"levelo_inurba_marseille","lat":43.30418,"lon":5.39762,"is_reserved":false,"is_disabled":false,"rental_uris":{"android":"levelo://app?vid=a966ddd2-fafd-45a6-865d-233116c7ab8f","ios":"levelo://app?vid=a966ddd2-fafd-45a6-865d-233116c7ab8f"},"vehicle_type_id":"4","last_reported":1750482623,"current_range_meters":18000,"station_id":"ce4bh092rcd13ifvqd20","pricing_plan_id":"cebpf4jnsgd1na2vs0mg"},{"bike_id":"269c3bdf-af5e-4656-89f5-602080b8a3e4","system_id":"levelo_inurba_marseille","lat":43.2398,"lon":5.36625,"is_reserved":false,"is_disabled":false,"rental_uris":{"android":"levelo://app?vid=269c3bdf-af5e-4656-89f5-602080b8a3e4","ios":"levelo://app?vid=269c3bdf-af5e-4656-89f5-602080b8a3e4"},"vehicle_type_id":"4","last_reported":1750482623,"current_range_meters":18000,"station_id":"ce4bhi12rcd13ifvqfp0","pricing_plan_id":"cebpf4jnsgd1na2vs0mg"},{"bike_id":"82b609eb-4bb1-412b-8dd3-ab5548ecab23","system_id":"levelo_inurba_marseille","lat":43.27051,"lon":5.42301,"is_reserved":false,"is_disabled":false,"rental_uris":{"android":"levelo://app?vid=82b609eb-4bb1-412b-8dd3-ab5548ecab23","ios":"levelo://app?vid=82b609eb-4bb1-412b-8dd3-ab5548ecab23"},"vehicle_type_id":"4","last_reported":1750482623,"current_range_meters":18000,"station_id":"ce4bhk92rcd13ifvqgb0","pricing_plan_id":"cebpf4jnsgd1na2vs0mg"},{"bike_id":"1c6eee43-889f-4cff-bc8c-307447a31830","system_id":"levelo_inurba_marseille","lat":43.30796,"lon":5.43516,"is_reserved":false,"is_disabled":false,"rental_uris":{"android":"levelo://app?vid=1c6eee43-889f-4cff-bc8c-307447a31830","ios":"levelo://app?vid=1c6eee43-889f-4cff-bc8c-307447a31830"},"vehicle_type_id":"4","last_reported":1750482623,"current_range_meters":18000,"station_id":"ce4bhph2rcd13ifvqheg","pricing_plan_id":"cebpf4jnsgd1na2vs0mg"},{"bike_id":"04b016b0-78f2-4a40-9df3-2f41fff75a5c","system_id":"levelo_inurba_marseille","lat":43.211973,"lon":5.350771,"is_reserved":false,"is_disabled":false,"rental_uris":{"android":"levelo://app?vid=04b016b0-78f2-4a40-9df3-2f41fff75a5c","ios":"levelo://app?vid=04b016b0-78f2-4a40-9df3-2f41fff75a5c"},"vehicle_type_id":"4","last_reported":1750482623,"current_range_meters":18000,"station_id":"st_cvj6sg6p6f1abm77japg","pricing_plan_id":"cebpf4jnsgd1na2vs0mg"},{"bike_id":"4d80d21e-3dc9-4004-a3c0-eb7b371a8ccf","system_id":"levelo_inurba_marseille","lat":43.33022,"lon":5.3939,"is_reserved":false,"is_disabled":false,"rental_uris":{"android":"levelo://app?vid=4d80d21e-3dc9-4004-a3c0-eb7b371a8ccf","ios":"levelo://app?vid=4d80d21e-3dc9-4004-a3c0-eb7b371a8ccf"},"vehicle_type_id":"4","last_reported":1750482623,"current_range_meters":18800,"station_id":"","pricing_plan_id":"cebpf4jnsgd1na2vs0mg"},{"bike_id":"3326a6fa-54ee-4cad-bd77-62c32ddf91d1","system_id":"levelo_inurba_marseille","lat":43.31367,"lon":5.3851,"is_reserved":false,"is_disabled":false,"rental_uris":{"android":"levelo://app?vid=3326a6fa-54ee-4cad-bd77-62c32ddf91d1","ios":"levelo://app?vid=3326a6fa-54ee-4cad-bd77-62c32ddf91d1"},"vehicle_type_id":"4","last_reported":1750482623,"current_range_meters":18800,"station_id":"ce4bgt92rcd13ifvqcf0","pricing_plan_id":"cebpf4jnsgd1na2vs0mg"},{"bike_id":"3f96d9ac-28f7-4105-9f09-aeef49233bf6","system_id":"levelo_inurba_marseille","lat":43.30325,"lon":5.4043,"is_reserved":false,"is_disabled":false,"rental_uris":{"android":"levelo://app?vid=3f96d9ac-28f7-4105-9f09-aeef49233bf6","ios":"levelo://app?vid=3f96d9ac-28f7-4105-9f09-aeef49233bf6"},"vehicle_type_id":"4","last_reported":1750482623,"current_range_meters":18800,"station_id":"ce4bh012rcd13ifvqd10","pricing_plan_id":"cebpf4jnsgd1na2vs0mg"},{"bike_id":"e1923973-da41-4df0-b8a8-20981ae5e691","system_id":"levelo_inurba_marseille","lat":43.290382,"lon":5.399978,"is_reserved":false,"is_disabled":false,"rental_uris":{"android":"levelo://app?vid=e1923973-da41-4df0-b8a8-20981ae5e691","ios":"levelo://app?vid=e1923973-da41-4df0-b8a8-20981ae5e691"},"vehicle_type_id":"4","last_reported":1750482623,"current_range_meters":18800,"station_id":"ce4bh392rcd13ifvqdm0","pricing_plan_id":"cebpf4jnsgd1na2vs0mg"},{"bike_id":"37320e13-0a94-4964-94c3-a05e1a398188","system_id":"levelo_inurba_marseille","lat":43.26541,"lon":5.39011,"is_reserved":false,"is_disabled":false,"rental_uris":{"android":"levelo://app?vid=37320e13-0a94-4964-94c3-a05e1a398188","ios":"levelo://app?vid=37320e13-0a94-4964-94c3-a05e1a398188"},"vehicle_type_id":"4","last_reported":1750482623,"current_range_meters":18800,"station_id":"ce4bhe12rcd13ifvqf30","pricing_plan_id":"cebpf4jnsgd1na2vs0mg"},{"bike_id":"2be082ca-4467-48fd-b65c-3c02b405800f","system_id":"levelo_inurba_marseille","lat":43.2315,"lon":5.43701,"is_reserved":false,"is_disabled":false,"rental_uris":{"android":"levelo://app?vid=2be082ca-4467-48fd-b65c-3c02b405800f","ios":"levelo://app?vid=2be082ca-4467-48fd-b65c-3c02b405800f"},"vehicle_type_id":"4","last_reported":1750482623,"current_range_meters":18800,"station_id":"ce4bhmp2rcd13ifvqgog","pricing_plan_id":"cebpf4jnsgd1na2vs0mg"},{"bike_id":"2039e555-685e-48bf-9349-6321e35344c8","system_id":"levelo_inurba_marseille","lat":43.287146,"lon":5.399865,"is_reserved":false,"is_disabled":false,"rental_uris":{"android":"levelo://app?vid=2039e555-685e-48bf-9349-6321e35344c8","ios":"levelo://app?vid=2039e555-685e-48bf-9349-6321e35344c8"},"vehicle_type_id":"4","last_reported":1750482623,"current_range_meters":18800,"station_id":"ce4bho92rcd13ifvqh3g","pricing_plan_id":"cebpf4jnsgd1na2vs0mg"},{"bike_id":"dc1db63d-5468-44d8-958f-b819dd58751d","system_id":"levelo_inurba_marseille","lat":43.323439,"lon":5.406065,"is_reserved":false,"is_disabled":false,"rental_uris":{"android":"levelo://app?vid=dc1db63d-5468-44d8-958f-b819dd58751d","ios":"levelo://app?vid=dc1db63d-5468-44d8-958f-b819dd58751d"},"vehicle_type_id":"4","last_reported":1750482623,"current_range_meters":18800,"station_id":"ce4bhq92rcd13ifvqhjg","pricing_plan_id":"cebpf4jnsgd1na2vs0mg"},{"bike_id":"91d988b7-666c-44b2-b2e1-aca873c9037e","system_id":"levelo_inurba_marseille","lat":43.29986,"lon":5.39847,"is_reserved":false,"is_disabled":false,"rental_uris":{"android":"levelo://app?vid=91d988b7-666c-44b2-b2e1-aca873c9037e","ios":"levelo://app?vid=91d988b7-666c-44b2-b2e1-aca873c9037e"},"vehicle_type_id":"4","last_reported":1750482623,"current_range_meters":19200,"station_id":"","pricing_plan_id":"cebpf4jnsgd1na2vs0mg"},{"bike_id":"f8df2956-f236-4a57-bc5d-1884300c4377","system_id":"levelo_inurba_marseille","lat":43.31272,"lon":5.40154,"is_reserved":false,"is_disabled":false,"rental_uris":{"android":"levelo://app?vid=f8df2956-f236-4a57-bc5d-1884300c4377","ios":"levelo://app?vid=f8df2956-f236-4a57-bc5d-1884300c4377"},"vehicle_type_id":"4","last_reported":1750482623,"current_range_meters":19200,"station_id":"ce4bh092rcd13ifvqd30","pricing_plan_id":"cebpf4jnsgd1na2vs0mg"},{"bike_id":"55b0a1e6-ecab-4d37-aef2-b2afd7dbbed7","system_id":"levelo_inurba_marseille","lat":43.30132,"lon":5.39874,"is_reserved":false,"is_disabled":false,"rental_uris":{"android":"levelo://app?vid=55b0a1e6-ecab-4d37-aef2-b2afd7dbbed7","ios":"levelo://app?vid=55b0a1e6-ecab-4d37-aef2-b2afd7dbbed7"},"vehicle_type_id":"4","last_reported":1750482623,"current_range_meters":19200,"station_id":"ce4bh0h2rcd13ifvqd40","pricing_plan_id":"cebpf4jnsgd1na2vs0mg"},{"bike_id":"c8b308e1-bd18-4c17-92e7-f5918af66970","system_id":"levelo_inurba_marseille","lat":43.306508,"lon":5.400794,"is_reserved":false,"is_disabled":false,"rental_uris":{"android":"levelo://app?vid=c8b308e1-bd18-4c17-92e7-f5918af66970","ios":"levelo://app?vid=c8b308e1-bd18-4c17-92e7-f5918af66970"},"vehicle_type_id":"4","last_reported":1750482623,"current_range_meters":19200,"station_id":"ce4bh112rcd13ifvqda0","pricing_plan_id":"cebpf4jnsgd1na2vs0mg"},{"bike_id":"ef63bf4d-6c01-4a74-86e9-35921c48f925","system_id":"levelo_inurba_marseille","lat":43.306455,"lon":5.400733,"is_reserved":false,"is_disabled":false,"rental_uris":{"android":"levelo://app?vid=ef63bf4d-6c01-4a74-86e9-35921c48f925","ios":"levelo://app?vid=ef63bf4d-6c01-4a74-86e9-35921c48f925"},"vehicle_type_id":"4","last_reported":1750482623,"current_range_meters":19200,"station_id":"ce4bh112rcd13ifvqda0","pricing_plan_id":"cebpf4jnsgd1na2vs0mg"},{"bike_id":"0a38d517-0b9c-46e9-96e3-ba0564b6c198","system_id":"levelo_inurba_marseille","lat":43.279149,"lon":5.395808,"is_reserved":false,"is_disabled":false,"rental_uris":{"android":"levelo://app?vid=0a38d517-0b9c-46e9-96e3-ba0564b6c198","ios":"levelo://app?vid=0a38d517-0b9c-46e9-96e3-ba0564b6c198"},"vehicle_type_id":"4","last_reported":1750482623,"current_range_meters":19200,"station_id":"ce4bhf92rcd13ifvqf40","pricing_plan_id":"cebpf4jnsgd1na2vs0mg"},{"bike_id":"0b23f5cc-2064-4240-95d7-a566178f44f6","system_id":"levelo_inurba_marseille","lat":43.27065,"lon":5.40264,"is_reserved":false,"is_disabled":false,"rental_uris":{"android":"levelo://app?vid=0b23f5cc-2064-4240-95d7-a566178f44f6","ios":"levelo://app?vid=0b23f5cc-2064-4240-95d7-a566178f44f6"},"vehicle_type_id":"4","last_reported":1750482623,"current_range_meters":19200,"station_id":"ce4bhk92rcd13ifvqgc0","pricing_plan_id":"cebpf4jnsgd1na2vs0mg"},{"bike_id":"fe686156-bf86-4e13-9573-6f0f3ee81efc","system_id":"levelo_inurba_marseille","lat":43.27933,"lon":5.41051,"is_reserved":false,"is_disabled":false,"rental_uris":{"android":"levelo://app?vid=fe686156-bf86-4e13-9573-6f0f3ee81efc","ios":"levelo://app?vid=fe686156-bf86-4e13-9573-6f0f3ee81efc"},"vehicle_type_id":"4","last_reported":1750482623,"current_range_meters":19200,"station_id":"ce4bhnp2rcd13ifvqh0g","pricing_plan_id":"cebpf4jnsgd1na2vs0mg"},{"bike_id":"4d4df371-4a07-4078-b66c-0646e04ad4bf","system_id":"levelo_inurba_marseille","lat":43.29899,"lon":5.436621,"is_reserved":false,"is_disabled":false,"rental_uris":{"android":"levelo://app?vid=4d4df371-4a07-4078-b66c-0646e04ad4bf","ios":"levelo://app?vid=4d4df371-4a07-4078-b66c-0646e04ad4bf"},"vehicle_type_id":"4","last_reported":1750482623,"current_range_meters":19200,"station_id":"ce4bhpp2rcd13ifvqhfg","pricing_plan_id":"cebpf4jnsgd1na2vs0mg"},{"bike_id":"9ab80e78-83f3-4a2f-9fac-7117a904b316","system_id":"levelo_inurba_marseille","lat":43.30157,"lon":5.38084,"is_reserved":false,"is_disabled":false,"rental_uris":{"android":"levelo://app?vid=9ab80e78-83f3-4a2f-9fac-7117a904b316","ios":"levelo://app?vid=9ab80e78-83f3-4a2f-9fac-7117a904b316"},"vehicle_type_id":"4","last_reported":1750482623,"current_range_meters":19600,"station_id":"ce4bgjp2rcd13ifvqbh0","pricing_plan_id":"cebpf4jnsgd1na2vs0mg"},{"bike_id":"04ee8092-af10-41ed-81db-f72403d43288","system_id":"levelo_inurba_marseille","lat":43.30879,"lon":5.39648,"is_reserved":false,"is_disabled":false,"rental_uris":{"android":"levelo://app?vid=04ee8092-af10-41ed-81db-f72403d43288","ios":"levelo://app?vid=04ee8092-af10-41ed-81db-f72403d43288"},"vehicle_type_id":"4","last_reported":1750482623,"current_range_meters":19600,"station_id":"ce4bh012rcd13ifvqcv0","pricing_plan_id":"cebpf4jnsgd1na2vs0mg"},{"bike_id":"50db237d-da14-49fe-9ddd-a9ce47cdf5bb","system_id":"levelo_inurba_marseille","lat":43.30658,"lon":5.40079,"is_reserved":false,"is_disabled":false,"rental_uris":{"android":"levelo://app?vid=50db237d-da14-49fe-9ddd-a9ce47cdf5bb","ios":"levelo://app?vid=50db237d-da14-49fe-9ddd-a9ce47cdf5bb"},"vehicle_type_id":"4","last_reported":1750482623,"current_range_meters":19600,"station_id":"ce4bh112rcd13ifvqda0","pricing_plan_id":"cebpf4jnsgd1na2vs0mg"},{"bike_id":"701b6245-aa68-47c0-9034-23daef2e3c08","system_id":"levelo_inurba_marseille","lat":43.28423,"lon":5.3751,"is_reserved":false,"is_disabled":false,"rental_uris":{"android":"levelo://app?vid=701b6245-aa68-47c0-9034-23daef2e3c08","ios":"levelo://app?vid=701b6245-aa68-47c0-9034-23daef2e3c08"},"vehicle_type_id":"4","last_reported":1750482623,"current_range_meters":19600,"station_id":"ce4bh412rcd13ifvqds0","pricing_plan_id":"cebpf4jnsgd1na2vs0mg"},{"bike_id":"e77808e6-212b-4e0d-ba1b-2ad3fe81da73","system_id":"levelo_inurba_marseille","lat":43.25112,"lon":5.40321,"is_reserved":false,"is_disabled":false,"rental_uris":{"android":"levelo://app?vid=e77808e6-212b-4e0d-ba1b-2ad3fe81da73","ios":"levelo://app?vid=e77808e6-212b-4e0d-ba1b-2ad3fe81da73"},"vehicle_type_id":"4","last_reported":1750482623,"current_range_meters":19600,"station_id":"ce4bhlh2rcd13ifvqgig","pricing_plan_id":"cebpf4jnsgd1na2vs0mg"},{"bike_id":"c7a8b653-0ff6-4a79-9663-a017d10ac616","system_id":"levelo_inurba_marseille","lat":43.29048,"lon":5.39985,"is_reserved":false,"is_disabled":false,"rental_uris":{"android":"levelo://app?vid=c7a8b653-0ff6-4a79-9663-a017d10ac616","ios":"levelo://app?vid=c7a8b653-0ff6-4a79-9663-a017d10ac616"},"vehicle_type_id":"4","last_reported":1750482623,"current_range_meters":20000,"station_id":"ce4bh392rcd13ifvqdm0","pricing_plan_id":"cebpf4jnsgd1na2vs0mg"},{"bike_id":"037bb55c-581c-4b44-b072-28cff3505ef8","system_id":"levelo_inurba_marseille","lat":43.29036,"lon":5.39976,"is_reserved":false,"is_disabled":false,"rental_uris":{"android":"levelo://app?vid=037bb55c-581c-4b44-b072-28cff3505ef8","ios":"levelo://app?vid=037bb55c-581c-4b44-b072-28cff3505ef8"},"vehicle_type_id":"4","last_reported":1750482623,"current_range_meters":20000,"station_id":"ce4bh392rcd13ifvqdm0","pricing_plan_id":"cebpf4jnsgd1na2vs0mg"},{"bike_id":"31215f53-8c77-4f5f-8e93-f3668dfaff65","system_id":"levelo_inurba_marseille","lat":43.279173,"lon":5.395825,"is_reserved":false,"is_disabled":false,"rental_uris":{"android":"levelo://app?vid=31215f53-8c77-4f5f-8e93-f3668dfaff65","ios":"levelo://app?vid=31215f53-8c77-4f5f-8e93-f3668dfaff65"},"vehicle_type_id":"4","last_reported":1750482623,"current_range_meters":20000,"station_id":"ce4bhf92rcd13ifvqf40","pricing_plan_id":"cebpf4jnsgd1na2vs0mg"},{"bike_id":"89006e17-3a33-46d7-a57b-67f07f8af45a","system_id":"levelo_inurba_marseille","lat":43.25119,"lon":5.40327,"is_reserved":false,"is_disabled":false,"rental_uris":{"android":"levelo://app?vid=89006e17-3a33-46d7-a57b-67f07f8af45a","ios":"levelo://app?vid=89006e17-3a33-46d7-a57b-67f07f8af45a"},"vehicle_type_id":"4","last_reported":1750482623,"current_range_meters":20000,"station_id":"ce4bhlh2rcd13ifvqgig","pricing_plan_id":"cebpf4jnsgd1na2vs0mg"},{"bike_id":"5e372528-2077-476b-a84f-f2201c11536d","system_id":"levelo_inurba_marseille","lat":43.28143,"lon":5.4264,"is_reserved":false,"is_disabled":false,"rental_uris":{"android":"levelo://app?vid=5e372528-2077-476b-a84f-f2201c11536d","ios":"levelo://app?vid=5e372528-2077-476b-a84f-f2201c11536d"},"vehicle_type_id":"4","last_reported":1750482623,"current_range_meters":20000,"station_id":"ce4bhnh2rcd13ifvqgug","pricing_plan_id":"cebpf4jnsgd1na2vs0mg"},{"bike_id":"44f91d9d-a072-4666-b130-0587846c0cfd","system_id":"levelo_inurba_marseille","lat":43.31888,"lon":5.40721,"is_reserved":false,"is_disabled":false,"rental_uris":{"android":"levelo://app?vid=44f91d9d-a072-4666-b130-0587846c0cfd","ios":"levelo://app?vid=44f91d9d-a072-4666-b130-0587846c0cfd"},"vehicle_type_id":"4","last_reported":1750482623,"current_range_meters":20000,"station_id":"ce4bhq12rcd13ifvqhig","pricing_plan_id":"cebpf4jnsgd1na2vs0mg"},{"bike_id":"ec8b02da-2217-4463-ac58-b1a702c014a3","system_id":"levelo_inurba_marseille","lat":43.292783,"lon":5.401208,"is_reserved":false,"is_disabled":false,"rental_uris":{"android":"levelo://app?vid=ec8b02da-2217-4463-ac58-b1a702c014a3","ios":"levelo://app?vid=ec8b02da-2217-4463-ac58-b1a702c014a3"},"vehicle_type_id":"4","last_reported":1750482623,"current_range_meters":20400,"station_id":"ce4bh312rcd13ifvqdk0","pricing_plan_id":"cebpf4jnsgd1na2vs0mg"},{"bike_id":"37967699-9626-41b5-a5f9-8419eeae5de5","system_id":"levelo_inurba_marseille","lat":43.24165,"lon":5.39696,"is_reserved":false,"is_disabled":false,"rental_uris":{"android":"levelo://app?vid=37967699-9626-41b5-a5f9-8419eeae5de5","ios":"levelo://app?vid=37967699-9626-41b5-a5f9-8419eeae5de5"},"vehicle_type_id":"4","last_reported":1750482623,"current_range_meters":20400,"station_id":"ce4bhn12rcd13ifvqgpg","pricing_plan_id":"cebpf4jnsgd1na2vs0mg"},{"bike_id":"833be1cb-5268-44fe-b99b-a94f9f283273","system_id":"levelo_inurba_marseille","lat":43.2845,"lon":5.39201,"is_reserved":false,"is_disabled":false,"rental_uris":{"android":"levelo://app?vid=833be1cb-5268-44fe-b99b-a94f9f283273","ios":"levelo://app?vid=833be1cb-5268-44fe-b99b-a94f9f283273"},"vehicle_type_id":"4","last_reported":1750482623,"current_range_meters":20400,"station_id":"ce4bhoh2rcd13ifvqh5g","pricing_plan_id":"cebpf4jnsgd1na2vs0mg"},{"bike_id":"b954ad20-8866-4808-9736-0e481591598c","system_id":"levelo_inurba_marseille","lat":43.326007,"lon":5.377641,"is_reserved":false,"is_disabled":false,"rental_uris":{"android":"levelo://app?vid=b954ad20-8866-4808-9736-0e481591598c","ios":"levelo://app?vid=b954ad20-8866-4808-9736-0e481591598c"},"vehicle_type_id":"4","last_reported":1750482623,"current_range_meters":20800,"station_id":"","pricing_plan_id":"cebpf4jnsgd1na2vs0mg"},{"bike_id":"0f26a4e9-365c-4421-a342-e2a9bf974245","system_id":"levelo_inurba_marseille","lat":43.306,"lon":5.39279,"is_reserved":false,"is_disabled":false,"rental_uris":{"android":"levelo://app?vid=0f26a4e9-365c-4421-a342-e2a9bf974245","ios":"levelo://app?vid=0f26a4e9-365c-4421-a342-e2a9bf974245"},"vehicle_type_id":"4","last_reported":1750482623,"current_range_meters":20800,"station_id":"","pricing_plan_id":"cebpf4jnsgd1na2vs0mg"},{"bike_id":"4c757378-dc43-46a8-85d2-ea6673f1bf73","system_id":"levelo_inurba_marseille","lat":43.315,"lon":5.37301,"is_reserved":false,"is_disabled":false,"rental_uris":{"android":"levelo://app?vid=4c757378-dc43-46a8-85d2-ea6673f1bf73","ios":"levelo://app?vid=4c757378-dc43-46a8-85d2-ea6673f1bf73"},"vehicle_type_id":"4","last_reported":1750482623,"current_range_meters":20800,"station_id":"ce4bgt12rcd13ifvqcd0","pricing_plan_id":"cebpf4jnsgd1na2vs0mg"},{"bike_id":"fa47ac06-ab95-476b-9764-f102eb9f173d","system_id":"levelo_inurba_marseille","lat":43.290404,"lon":5.399623,"is_reserved":false,"is_disabled":false,"rental_uris":{"android":"levelo://app?vid=fa47ac06-ab95-476b-9764-f102eb9f173d","ios":"levelo://app?vid=fa47ac06-ab95-476b-9764-f102eb9f173d"},"vehicle_type_id":"4","last_reported":1750482623,"current_range_meters":20800,"station_id":"ce4bh392rcd13ifvqdm0","pricing_plan_id":"cebpf4jnsgd1na2vs0mg"},{"bike_id":"d5d4ea08-5286-42f6-8cc4-138a5180b07c","system_id":"levelo_inurba_marseille","lat":43.250239,"lon":5.389094,"is_reserved":false,"is_disabled":false,"rental_uris":{"android":"levelo://app?vid=d5d4ea08-5286-42f6-8cc4-138a5180b07c","ios":"levelo://app?vid=d5d4ea08-5286-42f6-8cc4-138a5180b07c"},"vehicle_type_id":"4","last_reported":1750482623,"current_range_meters":20800,"station_id":"ce4bhgp2rcd13ifvqfd0","pricing_plan_id":"cebpf4jnsgd1na2vs0mg"},{"bike_id":"d0d91593-2efb-4206-8e48-10c437e5fa3a","system_id":"levelo_inurba_marseille","lat":43.33621,"lon":5.41031,"is_reserved":false,"is_disabled":false,"rental_uris":{"android":"levelo://app?vid=d0d91593-2efb-4206-8e48-10c437e5fa3a","ios":"levelo://app?vid=d0d91593-2efb-4206-8e48-10c437e5fa3a"},"vehicle_type_id":"4","last_reported":1750482623,"current_range_meters":20800,"station_id":"ce4bhqh2rcd13ifvqhmg","pricing_plan_id":"cebpf4jnsgd1na2vs0mg"},{"bike_id":"c1bfe059-dc8b-4a59-9d74-d550781388b9","system_id":"levelo_inurba_marseille","lat":43.295313,"lon":5.385461,"is_reserved":false,"is_disabled":false,"rental_uris":{"android":"levelo://app?vid=c1bfe059-dc8b-4a59-9d74-d550781388b9","ios":"levelo://app?vid=c1bfe059-dc8b-4a59-9d74-d550781388b9"},"vehicle_type_id":"4","last_reported":1750482623,"current_range_meters":21600,"station_id":"","pricing_plan_id":"cebpf4jnsgd1na2vs0mg"},{"bike_id":"428177c6-a363-44fb-a90d-d10b6f1c81d1","system_id":"levelo_inurba_marseille","lat":43.31508,"lon":5.37282,"is_reserved":false,"is_disabled":false,"rental_uris":{"android":"levelo://app?vid=428177c6-a363-44fb-a90d-d10b6f1c81d1","ios":"levelo://app?vid=428177c6-a363-44fb-a90d-d10b6f1c81d1"},"vehicle_type_id":"4","last_reported":1750482623,"current_range_meters":21600,"station_id":"ce4bgt12rcd13ifvqcd0","pricing_plan_id":"cebpf4jnsgd1na2vs0mg"},{"bike_id":"7b1bca12-b663-491e-8b75-bbaab059a430","system_id":"levelo_inurba_marseille","lat":43.24167,"lon":5.39725,"is_reserved":false,"is_disabled":false,"rental_uris":{"android":"levelo://app?vid=7b1bca12-b663-491e-8b75-bbaab059a430","ios":"levelo://app?vid=7b1bca12-b663-491e-8b75-bbaab059a430"},"vehicle_type_id":"4","last_reported":1750482623,"current_range_meters":21600,"station_id":"ce4bhn12rcd13ifvqgpg","pricing_plan_id":"cebpf4jnsgd1na2vs0mg"},{"bike_id":"93c7a6b5-d650-4eed-b2c7-bf18ea5160ae","system_id":"levelo_inurba_marseille","lat":43.27493,"lon":5.42448,"is_reserved":false,"is_disabled":false,"rental_uris":{"android":"levelo://app?vid=93c7a6b5-d650-4eed-b2c7-bf18ea5160ae","ios":"levelo://app?vid=93c7a6b5-d650-4eed-b2c7-bf18ea5160ae"},"vehicle_type_id":"4","last_reported":1750482623,"current_range_meters":21600,"station_id":"ce4bhn92rcd13ifvqgrg","pricing_plan_id":"cebpf4jnsgd1na2vs0mg"},{"bike_id":"377ec864-6a07-4987-8844-392b5fb8234b","system_id":"levelo_inurba_marseille","lat":43.31756,"lon":5.38798,"is_reserved":false,"is_disabled":false,"rental_uris":{"android":"levelo://app?vid=377ec864-6a07-4987-8844-392b5fb8234b","ios":"levelo://app?vid=377ec864-6a07-4987-8844-392b5fb8234b"},"vehicle_type_id":"4","last_reported":1750482623,"current_range_meters":22000,"station_id":"","pricing_plan_id":"cebpf4jnsgd1na2vs0mg"},{"bike_id":"f5dd2dcc-b3db-43ab-9600-0cc76a66c75d","system_id":"levelo_inurba_marseille","lat":43.251195,"lon":5.403243,"is_reserved":false,"is_disabled":false,"rental_uris":{"android":"levelo://app?vid=f5dd2dcc-b3db-43ab-9600-0cc76a66c75d","ios":"levelo://app?vid=f5dd2dcc-b3db-43ab-9600-0cc76a66c75d"},"vehicle_type_id":"4","last_reported":1750482623,"current_range_meters":22000,"station_id":"ce4bhlh2rcd13ifvqgig","pricing_plan_id":"cebpf4jnsgd1na2vs0mg"},{"bike_id":"e3e3f500-479f-408a-a7f0-0204a533e0b9","system_id":"levelo_inurba_marseille","lat":43.24545,"lon":5.39535,"is_reserved":false,"is_disabled":false,"rental_uris":{"android":"levelo://app?vid=e3e3f500-479f-408a-a7f0-0204a533e0b9","ios":"levelo://app?vid=e3e3f500-479f-408a-a7f0-0204a533e0b9"},"vehicle_type_id":"4","last_reported":1750482623,"current_range_meters":22000,"station_id":"ce4bhlp2rcd13ifvqgjg","pricing_plan_id":"cebpf4jnsgd1na2vs0mg"},{"bike_id":"c4c63e38-72b1-4298-9967-abd9d2a284c0","system_id":"levelo_inurba_marseille","lat":43.25941,"lon":5.40902,"is_reserved":false,"is_disabled":false,"rental_uris":{"android":"levelo://app?vid=c4c63e38-72b1-4298-9967-abd9d2a284c0","ios":"levelo://app?vid=c4c63e38-72b1-4298-9967-abd9d2a284c0"},"vehicle_type_id":"4","last_reported":1750482623,"current_range_meters":22000,"station_id":"ce4bhm92rcd13ifvqglg","pricing_plan_id":"cebpf4jnsgd1na2vs0mg"},{"bike_id":"9133bd38-9834-4bf5-aead-c4f396f165ac","system_id":"levelo_inurba_marseille","lat":43.211899,"lon":5.350716,"is_reserved":false,"is_disabled":false,"rental_uris":{"android":"levelo://app?vid=9133bd38-9834-4bf5-aead-c4f396f165ac","ios":"levelo://app?vid=9133bd38-9834-4bf5-aead-c4f396f165ac"},"vehicle_type_id":"4","last_reported":1750482623,"current_range_meters":22000,"station_id":"st_cvj6sg6p6f1abm77japg","pricing_plan_id":"cebpf4jnsgd1na2vs0mg"},{"bike_id":"8567eb24-0522-414c-af9a-6c5424b4b865","system_id":"levelo_inurba_marseille","lat":43.298777,"lon":5.39728,"is_reserved":false,"is_disabled":false,"rental_uris":{"android":"levelo://app?vid=8567eb24-0522-414c-af9a-6c5424b4b865","ios":"levelo://app?vid=8567eb24-0522-414c-af9a-6c5424b4b865"},"vehicle_type_id":"4","last_reported":1750482623,"current_range_meters":22400,"station_id":"ce4bh0h2rcd13ifvqd50","pricing_plan_id":"cebpf4jnsgd1na2vs0mg"},{"bike_id":"ff324c36-9ead-46f0-9336-ca1a07f2162b","system_id":"levelo_inurba_marseille","lat":43.29797,"lon":5.404151,"is_reserved":false,"is_disabled":false,"rental_uris":{"android":"levelo://app?vid=ff324c36-9ead-46f0-9336-ca1a07f2162b","ios":"levelo://app?vid=ff324c36-9ead-46f0-9336-ca1a07f2162b"},"vehicle_type_id":"4","last_reported":1750482623,"current_range_meters":22400,"station_id":"ce4bh112rcd13ifvqd90","pricing_plan_id":"cebpf4jnsgd1na2vs0mg"},{"bike_id":"6d89501a-3b3e-4d3a-8efa-9e27dbc468b5","system_id":"levelo_inurba_marseille","lat":43.27586,"lon":5.38422,"is_reserved":false,"is_disabled":false,"rental_uris":{"android":"levelo://app?vid=6d89501a-3b3e-4d3a-8efa-9e27dbc468b5","ios":"levelo://app?vid=6d89501a-3b3e-4d3a-8efa-9e27dbc468b5"},"vehicle_type_id":"4","last_reported":1750482623,"current_range_meters":22400,"station_id":"ce4bhh92rcd13ifvqfi0","pricing_plan_id":"cebpf4jnsgd1na2vs0mg"},{"bike_id":"5c117c66-286b-49d6-92e3-323695dfcb61","system_id":"levelo_inurba_marseille","lat":43.24553,"lon":5.39511,"is_reserved":false,"is_disabled":false,"rental_uris":{"android":"levelo://app?vid=5c117c66-286b-49d6-92e3-323695dfcb61","ios":"levelo://app?vid=5c117c66-286b-49d6-92e3-323695dfcb61"},"vehicle_type_id":"4","last_reported":1750482623,"current_range_meters":22400,"station_id":"ce4bhlp2rcd13ifvqgjg","pricing_plan_id":"cebpf4jnsgd1na2vs0mg"},{"bike_id":"9e060714-1c5d-4a58-a297-a8145728e161","system_id":"levelo_inurba_marseille","lat":43.250854,"lon":5.395197,"is_reserved":false,"is_disabled":false,"rental_uris":{"android":"levelo://app?vid=9e060714-1c5d-4a58-a297-a8145728e161","ios":"levelo://app?vid=9e060714-1c5d-4a58-a297-a8145728e161"},"vehicle_type_id":"4","last_reported":1750482623,"current_range_meters":22400,"station_id":"ce4bhm12rcd13ifvqgkg","pricing_plan_id":"cebpf4jnsgd1na2vs0mg"},{"bike_id":"d3df0b43-9f12-492c-b281-7a49f739dbe1","system_id":"levelo_inurba_marseille","lat":43.28443,"lon":5.39183,"is_reserved":false,"is_disabled":false,"rental_uris":{"android":"levelo://app?vid=d3df0b43-9f12-492c-b281-7a49f739dbe1","ios":"levelo://app?vid=d3df0b43-9f12-492c-b281-7a49f739dbe1"},"vehicle_type_id":"4","last_reported":1750482623,"current_range_meters":22400,"station_id":"ce4bhoh2rcd13ifvqh5g","pricing_plan_id":"cebpf4jnsgd1na2vs0mg"},{"bike_id":"e6ebc88f-d63a-4371-a461-6258c34857f0","system_id":"levelo_inurba_marseille","lat":43.33617,"lon":5.40979,"is_reserved":false,"is_disabled":false,"rental_uris":{"android":"levelo://app?vid=e6ebc88f-d63a-4371-a461-6258c34857f0","ios":"levelo://app?vid=e6ebc88f-d63a-4371-a461-6258c34857f0"},"vehicle_type_id":"4","last_reported":1750482623,"current_range_meters":22400,"station_id":"ce4bhqh2rcd13ifvqhmg","pricing_plan_id":"cebpf4jnsgd1na2vs0mg"},{"bike_id":"c6cbae16-3ce5-4d77-8942-2ad6d6b3c555","system_id":"levelo_inurba_marseille","lat":43.29434,"lon":5.38123,"is_reserved":false,"is_disabled":false,"rental_uris":{"android":"levelo://app?vid=c6cbae16-3ce5-4d77-8942-2ad6d6b3c555","ios":"levelo://app?vid=c6cbae16-3ce5-4d77-8942-2ad6d6b3c555"},"vehicle_type_id":"4","last_reported":1750482623,"current_range_meters":22800,"station_id":"","pricing_plan_id":"cebpf4jnsgd1na2vs0mg"},{"bike_id":"f6fca673-60e0-4cf1-bfea-a1fa1fba00b5","system_id":"levelo_inurba_marseille","lat":43.29723,"lon":5.37675,"is_reserved":false,"is_disabled":false,"rental_uris":{"android":"levelo://app?vid=f6fca673-60e0-4cf1-bfea-a1fa1fba00b5","ios":"levelo://app?vid=f6fca673-60e0-4cf1-bfea-a1fa1fba00b5"},"vehicle_type_id":"4","last_reported":1750482623,"current_range_meters":22800,"station_id":"ce4bgkh2rcd13ifvqbl0","pricing_plan_id":"cebpf4jnsgd1na2vs0mg"},{"bike_id":"302298c5-5a75-47bf-a21b-fc8a2a121615","system_id":"levelo_inurba_marseille","lat":43.288352,"lon":5.393228,"is_reserved":false,"is_disabled":false,"rental_uris":{"android":"levelo://app?vid=302298c5-5a75-47bf-a21b-fc8a2a121615","ios":"levelo://app?vid=302298c5-5a75-47bf-a21b-fc8a2a121615"},"vehicle_type_id":"4","last_reported":1750482623,"current_range_meters":22800,"station_id":"ce4bh2p2rcd13ifvqdi0","pricing_plan_id":"cebpf4jnsgd1na2vs0mg"},{"bike_id":"72c2ea63-e2ec-4de0-8ee1-ce5f166644c4","system_id":"levelo_inurba_marseille","lat":43.25585,"lon":5.3822,"is_reserved":false,"is_disabled":false,"rental_uris":{"android":"levelo://app?vid=72c2ea63-e2ec-4de0-8ee1-ce5f166644c4","ios":"levelo://app?vid=72c2ea63-e2ec-4de0-8ee1-ce5f166644c4"},"vehicle_type_id":"4","last_reported":1750482623,"current_range_meters":22800,"station_id":"ce4bhih2rcd13ifvqfs0","pricing_plan_id":"cebpf4jnsgd1na2vs0mg"},{"bike_id":"43892662-eb0e-42e6-9a65-c1203e145fac","system_id":"levelo_inurba_marseille","lat":43.25122,"lon":5.40283,"is_reserved":false,"is_disabled":false,"rental_uris":{"android":"levelo://app?vid=43892662-eb0e-42e6-9a65-c1203e145fac","ios":"levelo://app?vid=43892662-eb0e-42e6-9a65-c1203e145fac"},"vehicle_type_id":"4","last_reported":1750482623,"current_range_meters":22800,"station_id":"ce4bhlh2rcd13ifvqgig","pricing_plan_id":"cebpf4jnsgd1na2vs0mg"},{"bike_id":"099983f6-2f71-42f0-8529-522906753c72","system_id":"levelo_inurba_marseille","lat":43.26227,"lon":5.40455,"is_reserved":false,"is_disabled":false,"rental_uris":{"android":"levelo://app?vid=099983f6-2f71-42f0-8529-522906753c72","ios":"levelo://app?vid=099983f6-2f71-42f0-8529-522906753c72"},"vehicle_type_id":"4","last_reported":1750482623,"current_range_meters":22800,"station_id":"ce4bhmh2rcd13ifvqgmg","pricing_plan_id":"cebpf4jnsgd1na2vs0mg"},{"bike_id":"d5cc24c0-37bd-4edd-b829-e40c1b3f5263","system_id":"levelo_inurba_marseille","lat":43.324847,"lon":5.365691,"is_reserved":false,"is_disabled":false,"rental_uris":{"android":"levelo://app?vid=d5cc24c0-37bd-4edd-b829-e40c1b3f5263","ios":"levelo://app?vid=d5cc24c0-37bd-4edd-b829-e40c1b3f5263"},"vehicle_type_id":"4","last_reported":1750482623,"current_range_meters":22800,"station_id":"ce4bhs12rcd13ifvqhvg","pricing_plan_id":"cebpf4jnsgd1na2vs0mg"},{"bike_id":"b10476c2-2e64-4a41-a4df-6fd21c65643b","system_id":"levelo_inurba_marseille","lat":43.29676,"lon":5.37825,"is_reserved":false,"is_disabled":false,"rental_uris":{"android":"levelo://app?vid=b10476c2-2e64-4a41-a4df-6fd21c65643b","ios":"levelo://app?vid=b10476c2-2e64-4a41-a4df-6fd21c65643b"},"vehicle_type_id":"4","last_reported":1750482623,"current_range_meters":23200,"station_id":"","pricing_plan_id":"cebpf4jnsgd1na2vs0mg"},{"bike_id":"8d742130-2104-4a21-b63d-6f09c2f567f5","system_id":"levelo_inurba_marseille","lat":43.28276,"lon":5.42407,"is_reserved":false,"is_disabled":false,"rental_uris":{"android":"levelo://app?vid=8d742130-2104-4a21-b63d-6f09c2f567f5","ios":"levelo://app?vid=8d742130-2104-4a21-b63d-6f09c2f567f5"},"vehicle_type_id":"4","last_reported":1750482623,"current_range_meters":23200,"station_id":"","pricing_plan_id":"cebpf4jnsgd1na2vs0mg"},{"bike_id":"1f9a8df5-1dc7-46cf-bb36-58f2bece97e5","system_id":"levelo_inurba_marseille","lat":43.30949,"lon":5.39062,"is_reserved":false,"is_disabled":false,"rental_uris":{"android":"levelo://app?vid=1f9a8df5-1dc7-46cf-bb36-58f2bece97e5","ios":"levelo://app?vid=1f9a8df5-1dc7-46cf-bb36-58f2bece97e5"},"vehicle_type_id":"4","last_reported":1750482623,"current_range_meters":23200,"station_id":"ce4bgup2rcd13ifvqco0","pricing_plan_id":"cebpf4jnsgd1na2vs0mg"},{"bike_id":"9de28e6c-1667-43ca-ae6d-8b6e674a4509","system_id":"levelo_inurba_marseille","lat":43.284097,"lon":5.375253,"is_reserved":false,"is_disabled":false,"rental_uris":{"android":"levelo://app?vid=9de28e6c-1667-43ca-ae6d-8b6e674a4509","ios":"levelo://app?vid=9de28e6c-1667-43ca-ae6d-8b6e674a4509"},"vehicle_type_id":"4","last_reported":1750482623,"current_range_meters":23200,"station_id":"ce4bh412rcd13ifvqds0","pricing_plan_id":"cebpf4jnsgd1na2vs0mg"},{"bike_id":"79a81e79-374c-412f-b6be-0c98e200519f","system_id":"levelo_inurba_marseille","lat":43.246472,"lon":5.388896,"is_reserved":false,"is_disabled":false,"rental_uris":{"android":"levelo://app?vid=79a81e79-374c-412f-b6be-0c98e200519f","ios":"levelo://app?vid=79a81e79-374c-412f-b6be-0c98e200519f"},"vehicle_type_id":"4","last_reported":1750482623,"current_range_meters":23200,"station_id":"ce4bhg12rcd13ifvqf60","pricing_plan_id":"cebpf4jnsgd1na2vs0mg"},{"bike_id":"6ade353f-3fb8-4f8c-ae8f-d0dafeb1df6f","system_id":"levelo_inurba_marseille","lat":43.2623,"lon":5.40452,"is_reserved":false,"is_disabled":false,"rental_uris":{"android":"levelo://app?vid=6ade353f-3fb8-4f8c-ae8f-d0dafeb1df6f","ios":"levelo://app?vid=6ade353f-3fb8-4f8c-ae8f-d0dafeb1df6f"},"vehicle_type_id":"4","last_reported":1750482623,"current_range_meters":23200,"station_id":"ce4bhmh2rcd13ifvqgmg","pricing_plan_id":"cebpf4jnsgd1na2vs0mg"},{"bike_id":"9b24d89c-2893-4804-a212-82be3433bccd","system_id":"levelo_inurba_marseille","lat":43.241783,"lon":5.39734,"is_reserved":false,"is_disabled":false,"rental_uris":{"android":"levelo://app?vid=9b24d89c-2893-4804-a212-82be3433bccd","ios":"levelo://app?vid=9b24d89c-2893-4804-a212-82be3433bccd"},"vehicle_type_id":"4","last_reported":1750482623,"current_range_meters":23200,"station_id":"ce4bhn12rcd13ifvqgpg","pricing_plan_id":"cebpf4jnsgd1na2vs0mg"},{"bike_id":"ee3026d9-e826-4f6d-afda-d2f4bce88d52","system_id":"levelo_inurba_marseille","lat":43.22496,"lon":5.34772,"is_reserved":false,"is_disabled":false,"rental_uris":{"android":"levelo://app?vid=ee3026d9-e826-4f6d-afda-d2f4bce88d52","ios":"levelo://app?vid=ee3026d9-e826-4f6d-afda-d2f4bce88d52"},"vehicle_type_id":"4","last_reported":1750482623,"current_range_meters":23200,"station_id":"st_cvj5dfep6f1abm77gieg","pricing_plan_id":"cebpf4jnsgd1na2vs0mg"},{"bike_id":"33d75a4d-9005-4048-80b6-610fff4b320f","system_id":"levelo_inurba_marseille","lat":43.307377,"lon":5.424433,"is_reserved":false,"is_disabled":false,"rental_uris":{"android":"levelo://app?vid=33d75a4d-9005-4048-80b6-610fff4b320f","ios":"levelo://app?vid=33d75a4d-9005-4048-80b6-610fff4b320f"},"vehicle_type_id":"4","last_reported":1750482623,"current_range_meters":23200,"station_id":"st_cvj6ca6bvosntc0bfgr0","pricing_plan_id":"cebpf4jnsgd1na2vs0mg"},{"bike_id":"82000b1c-29b1-40c7-afaa-02263ea11026","system_id":"levelo_inurba_marseille","lat":43.32517,"lon":5.43407,"is_reserved":false,"is_disabled":false,"rental_uris":{"android":"levelo://app?vid=82000b1c-29b1-40c7-afaa-02263ea11026","ios":"levelo://app?vid=82000b1c-29b1-40c7-afaa-02263ea11026"},"vehicle_type_id":"4","last_reported":1750482623,"current_range_meters":24000,"station_id":"","pricing_plan_id":"cebpf4jnsgd1na2vs0mg"},{"bike_id":"66ed8320-424b-4ca5-8d34-34ab72db40c9","system_id":"levelo_inurba_marseille","lat":43.30948,"lon":5.3903,"is_reserved":false,"is_disabled":false,"rental_uris":{"android":"levelo://app?vid=66ed8320-424b-4ca5-8d34-34ab72db40c9","ios":"levelo://app?vid=66ed8320-424b-4ca5-8d34-34ab72db40c9"},"vehicle_type_id":"4","last_reported":1750482623,"current_range_meters":24000,"station_id":"ce4bgup2rcd13ifvqco0","pricing_plan_id":"cebpf4jnsgd1na2vs0mg"},{"bike_id":"6cc3dbb1-a441-40c1-85e8-53cb50da742b","system_id":"levelo_inurba_marseille","lat":43.28949,"lon":5.39624,"is_reserved":false,"is_disabled":false,"rental_uris":{"android":"levelo://app?vid=6cc3dbb1-a441-40c1-85e8-53cb50da742b","ios":"levelo://app?vid=6cc3dbb1-a441-40c1-85e8-53cb50da742b"},"vehicle_type_id":"4","last_reported":1750482623,"current_range_meters":24000,"station_id":"ce4bh3h2rcd13ifvqdn0","pricing_plan_id":"cebpf4jnsgd1na2vs0mg"},{"bike_id":"f76facff-c6d4-452a-a325-56cd08a5b0f1","system_id":"levelo_inurba_marseille","lat":43.30806,"lon":5.43488,"is_reserved":false,"is_disabled":false,"rental_uris":{"android":"levelo://app?vid=f76facff-c6d4-452a-a325-56cd08a5b0f1","ios":"levelo://app?vid=f76facff-c6d4-452a-a325-56cd08a5b0f1"},"vehicle_type_id":"4","last_reported":1750482623,"current_range_meters":24000,"station_id":"ce4bhph2rcd13ifvqheg","pricing_plan_id":"cebpf4jnsgd1na2vs0mg"},{"bike_id":"009d267d-2236-4d8e-9eee-8e6d30c1012f","system_id":"levelo_inurba_marseille","lat":43.23125,"lon":5.36593,"is_reserved":false,"is_disabled":false,"rental_uris":{"android":"levelo://app?vid=009d267d-2236-4d8e-9eee-8e6d30c1012f","ios":"levelo://app?vid=009d267d-2236-4d8e-9eee-8e6d30c1012f"},"vehicle_type_id":"4","last_reported":1750482623,"current_range_meters":24400,"station_id":"","pricing_plan_id":"cebpf4jnsgd1na2vs0mg"},{"bike_id":"da2f761c-c658-449d-bb5e-96155db74626","system_id":"levelo_inurba_marseille","lat":43.30647,"lon":5.400964,"is_reserved":false,"is_disabled":false,"rental_uris":{"android":"levelo://app?vid=da2f761c-c658-449d-bb5e-96155db74626","ios":"levelo://app?vid=da2f761c-c658-449d-bb5e-96155db74626"},"vehicle_type_id":"4","last_reported":1750482623,"current_range_meters":24400,"station_id":"ce4bh112rcd13ifvqda0","pricing_plan_id":"cebpf4jnsgd1na2vs0mg"},{"bike_id":"63a924ea-7153-4ec0-95c1-bc21aec7ac1e","system_id":"levelo_inurba_marseille","lat":43.28559,"lon":5.39498,"is_reserved":false,"is_disabled":false,"rental_uris":{"android":"levelo://app?vid=63a924ea-7153-4ec0-95c1-bc21aec7ac1e","ios":"levelo://app?vid=63a924ea-7153-4ec0-95c1-bc21aec7ac1e"},"vehicle_type_id":"4","last_reported":1750482623,"current_range_meters":24400,"station_id":"ce4bh292rcd13ifvqdg0","pricing_plan_id":"cebpf4jnsgd1na2vs0mg"},{"bike_id":"2e85806d-7a40-4cc9-a9e6-55b0ea32ee92","system_id":"levelo_inurba_marseille","lat":43.260326,"lon":5.375484,"is_reserved":false,"is_disabled":false,"rental_uris":{"android":"levelo://app?vid=2e85806d-7a40-4cc9-a9e6-55b0ea32ee92","ios":"levelo://app?vid=2e85806d-7a40-4cc9-a9e6-55b0ea32ee92"},"vehicle_type_id":"4","last_reported":1750482623,"current_range_meters":24400,"station_id":"ce4bhgh2rcd13ifvqfa0","pricing_plan_id":"cebpf4jnsgd1na2vs0mg"},{"bike_id":"7521ece6-9c23-4269-8d7c-93dde12afcda","system_id":"levelo_inurba_marseille","lat":43.2707,"lon":5.42282,"is_reserved":false,"is_disabled":false,"rental_uris":{"android":"levelo://app?vid=7521ece6-9c23-4269-8d7c-93dde12afcda","ios":"levelo://app?vid=7521ece6-9c23-4269-8d7c-93dde12afcda"},"vehicle_type_id":"4","last_reported":1750482623,"current_range_meters":24400,"station_id":"ce4bhk92rcd13ifvqgb0","pricing_plan_id":"cebpf4jnsgd1na2vs0mg"},{"bike_id":"8482d748-877d-4728-88cc-03c119c0a62f","system_id":"levelo_inurba_marseille","lat":43.271722,"lon":5.409968,"is_reserved":false,"is_disabled":false,"rental_uris":{"android":"levelo://app?vid=8482d748-877d-4728-88cc-03c119c0a62f","ios":"levelo://app?vid=8482d748-877d-4728-88cc-03c119c0a62f"},"vehicle_type_id":"4","last_reported":1750482623,"current_range_meters":24400,"station_id":"ce4bhl12rcd13ifvqgf0","pricing_plan_id":"cebpf4jnsgd1na2vs0mg"},{"bike_id":"61f142fd-e8c5-421d-8382-3101374aa7e1","system_id":"levelo_inurba_marseille","lat":43.31888,"lon":5.40717,"is_reserved":false,"is_disabled":false,"rental_uris":{"android":"levelo://app?vid=61f142fd-e8c5-421d-8382-3101374aa7e1","ios":"levelo://app?vid=61f142fd-e8c5-421d-8382-3101374aa7e1"},"vehicle_type_id":"4","last_reported":1750482623,"current_range_meters":24400,"station_id":"ce4bhq12rcd13ifvqhig","pricing_plan_id":"cebpf4jnsgd1na2vs0mg"},{"bike_id":"84d33738-fd20-4a24-bc33-9d42ea5067cd","system_id":"levelo_inurba_marseille","lat":43.323692,"lon":5.38881,"is_reserved":false,"is_disabled":false,"rental_uris":{"android":"levelo://app?vid=84d33738-fd20-4a24-bc33-9d42ea5067cd","ios":"levelo://app?vid=84d33738-fd20-4a24-bc33-9d42ea5067cd"},"vehicle_type_id":"4","last_reported":1750482623,"current_range_meters":24400,"station_id":"ce4bhqp2rcd13ifvqhog","pricing_plan_id":"cebpf4jnsgd1na2vs0mg"},{"bike_id":"a87f2ba6-de25-4b22-bf00-e66567d4fd99","system_id":"levelo_inurba_marseille","lat":43.29252,"lon":5.40904,"is_reserved":false,"is_disabled":false,"rental_uris":{"android":"levelo://app?vid=a87f2ba6-de25-4b22-bf00-e66567d4fd99","ios":"levelo://app?vid=a87f2ba6-de25-4b22-bf00-e66567d4fd99"},"vehicle_type_id":"4","last_reported":1750482623,"current_range_meters":24800,"station_id":"ce4bh192rcd13ifvqdc0","pricing_plan_id":"cebpf4jnsgd1na2vs0mg"},{"bike_id":"3239c83a-df4e-4c99-b1d0-0388d9895edd","system_id":"levelo_inurba_marseille","lat":43.2904,"lon":5.39941,"is_reserved":false,"is_disabled":false,"rental_uris":{"android":"levelo://app?vid=3239c83a-df4e-4c99-b1d0-0388d9895edd","ios":"levelo://app?vid=3239c83a-df4e-4c99-b1d0-0388d9895edd"},"vehicle_type_id":"4","last_reported":1750482623,"current_range_meters":24800,"station_id":"ce4bh392rcd13ifvqdm0","pricing_plan_id":"cebpf4jnsgd1na2vs0mg"},{"bike_id":"4994eb98-9fdc-4820-ba34-371f113d3e75","system_id":"levelo_inurba_marseille","lat":43.27935,"lon":5.39568,"is_reserved":false,"is_disabled":false,"rental_uris":{"android":"levelo://app?vid=4994eb98-9fdc-4820-ba34-371f113d3e75","ios":"levelo://app?vid=4994eb98-9fdc-4820-ba34-371f113d3e75"},"vehicle_type_id":"4","last_reported":1750482623,"current_range_meters":24800,"station_id":"ce4bhf92rcd13ifvqf40","pricing_plan_id":"cebpf4jnsgd1na2vs0mg"},{"bike_id":"43bf105a-2e8e-47df-b104-20c35a37f0af","system_id":"levelo_inurba_marseille","lat":43.270593,"lon":5.402645,"is_reserved":false,"is_disabled":false,"rental_uris":{"android":"levelo://app?vid=43bf105a-2e8e-47df-b104-20c35a37f0af","ios":"levelo://app?vid=43bf105a-2e8e-47df-b104-20c35a37f0af"},"vehicle_type_id":"4","last_reported":1750482623,"current_range_meters":24800,"station_id":"ce4bhk92rcd13ifvqgc0","pricing_plan_id":"cebpf4jnsgd1na2vs0mg"},{"bike_id":"2f7c0519-0623-4253-90f6-c5770f755a94","system_id":"levelo_inurba_marseille","lat":43.251087,"lon":5.403293,"is_reserved":false,"is_disabled":false,"rental_uris":{"android":"levelo://app?vid=2f7c0519-0623-4253-90f6-c5770f755a94","ios":"levelo://app?vid=2f7c0519-0623-4253-90f6-c5770f755a94"},"vehicle_type_id":"4","last_reported":1750482623,"current_range_meters":24800,"station_id":"ce4bhlh2rcd13ifvqgig","pricing_plan_id":"cebpf4jnsgd1na2vs0mg"},{"bike_id":"ddc48556-f348-47aa-8866-ae3c2bebbccb","system_id":"levelo_inurba_marseille","lat":43.26237,"lon":5.40476,"is_reserved":false,"is_disabled":false,"rental_uris":{"android":"levelo://app?vid=ddc48556-f348-47aa-8866-ae3c2bebbccb","ios":"levelo://app?vid=ddc48556-f348-47aa-8866-ae3c2bebbccb"},"vehicle_type_id":"4","last_reported":1750482623,"current_range_meters":24800,"station_id":"ce4bhmh2rcd13ifvqgmg","pricing_plan_id":"cebpf4jnsgd1na2vs0mg"},{"bike_id":"9b54af97-becd-4889-88dd-0e3c10fd7be8","system_id":"levelo_inurba_marseille","lat":43.29558,"lon":5.4229,"is_reserved":false,"is_disabled":false,"rental_uris":{"android":"levelo://app?vid=9b54af97-becd-4889-88dd-0e3c10fd7be8","ios":"levelo://app?vid=9b54af97-becd-4889-88dd-0e3c10fd7be8"},"vehicle_type_id":"4","last_reported":1750482623,"current_range_meters":24800,"station_id":"ce4bhph2rcd13ifvqhdg","pricing_plan_id":"cebpf4jnsgd1na2vs0mg"},{"bike_id":"12e57669-2387-4acb-9e07-c4b1e4e5edcb","system_id":"levelo_inurba_marseille","lat":43.33025,"lon":5.39045,"is_reserved":false,"is_disabled":false,"rental_uris":{"android":"levelo://app?vid=12e57669-2387-4acb-9e07-c4b1e4e5edcb","ios":"levelo://app?vid=12e57669-2387-4acb-9e07-c4b1e4e5edcb"},"vehicle_type_id":"4","last_reported":1750482623,"current_range_meters":24800,"station_id":"ce4bhr92rcd13ifvqhrg","pricing_plan_id":"cebpf4jnsgd1na2vs0mg"},{"bike_id":"82cd2aa4-f2be-4588-afbe-d3d6e65a0c25","system_id":"levelo_inurba_marseille","lat":43.28613,"lon":5.3706,"is_reserved":false,"is_disabled":false,"rental_uris":{"android":"levelo://app?vid=82cd2aa4-f2be-4588-afbe-d3d6e65a0c25","ios":"levelo://app?vid=82cd2aa4-f2be-4588-afbe-d3d6e65a0c25"},"vehicle_type_id":"4","last_reported":1750482623,"current_range_meters":24800,"station_id":"ce4bht12rcd13ifvqi60","pricing_plan_id":"cebpf4jnsgd1na2vs0mg"},{"bike_id":"0a8af7f2-0649-4bc8-af49-6cb1f4028e38","system_id":"levelo_inurba_marseille","lat":43.297958,"lon":5.40412,"is_reserved":false,"is_disabled":false,"rental_uris":{"android":"levelo://app?vid=0a8af7f2-0649-4bc8-af49-6cb1f4028e38","ios":"levelo://app?vid=0a8af7f2-0649-4bc8-af49-6cb1f4028e38"},"vehicle_type_id":"4","last_reported":1750482623,"current_range_meters":25200,"station_id":"ce4bh112rcd13ifvqd90","pricing_plan_id":"cebpf4jnsgd1na2vs0mg"},{"bike_id":"332e7a91-1062-4bce-befd-9038a905c393","system_id":"levelo_inurba_marseille","lat":43.2987,"lon":5.39722,"is_reserved":false,"is_disabled":false,"rental_uris":{"android":"levelo://app?vid=332e7a91-1062-4bce-befd-9038a905c393","ios":"levelo://app?vid=332e7a91-1062-4bce-befd-9038a905c393"},"vehicle_type_id":"4","last_reported":1750482623,"current_range_meters":25600,"station_id":"ce4bh0h2rcd13ifvqd50","pricing_plan_id":"cebpf4jnsgd1na2vs0mg"},{"bike_id":"a4535c42-59cf-4878-820e-174d34b26f14","system_id":"levelo_inurba_marseille","lat":43.25708,"lon":5.41062,"is_reserved":false,"is_disabled":false,"rental_uris":{"android":"levelo://app?vid=a4535c42-59cf-4878-820e-174d34b26f14","ios":"levelo://app?vid=a4535c42-59cf-4878-820e-174d34b26f14"},"vehicle_type_id":"4","last_reported":1750482623,"current_range_meters":25600,"station_id":"ce4bhkp2rcd13ifvqgd0","pricing_plan_id":"cebpf4jnsgd1na2vs0mg"},{"bike_id":"38674ba4-a30d-4115-9fa0-eee68234144d","system_id":"levelo_inurba_marseille","lat":43.32351,"lon":5.40596,"is_reserved":false,"is_disabled":false,"rental_uris":{"android":"levelo://app?vid=38674ba4-a30d-4115-9fa0-eee68234144d","ios":"levelo://app?vid=38674ba4-a30d-4115-9fa0-eee68234144d"},"vehicle_type_id":"4","last_reported":1750482623,"current_range_meters":25600,"station_id":"ce4bhq92rcd13ifvqhjg","pricing_plan_id":"cebpf4jnsgd1na2vs0mg"},{"bike_id":"1f47bfa2-1286-4901-ae03-faf58a1ce448","system_id":"levelo_inurba_marseille","lat":43.33023,"lon":5.39043,"is_reserved":false,"is_disabled":false,"rental_uris":{"android":"levelo://app?vid=1f47bfa2-1286-4901-ae03-faf58a1ce448","ios":"levelo://app?vid=1f47bfa2-1286-4901-ae03-faf58a1ce448"},"vehicle_type_id":"4","last_reported":1750482623,"current_range_meters":25600,"station_id":"ce4bhr92rcd13ifvqhrg","pricing_plan_id":"cebpf4jnsgd1na2vs0mg"},{"bike_id":"56a890cd-acf9-4f90-adf8-867b6d0b8fca","system_id":"levelo_inurba_marseille","lat":43.2434,"lon":5.37965,"is_reserved":false,"is_disabled":false,"rental_uris":{"android":"levelo://app?vid=56a890cd-acf9-4f90-adf8-867b6d0b8fca","ios":"levelo://app?vid=56a890cd-acf9-4f90-adf8-867b6d0b8fca"},"vehicle_type_id":"4","last_reported":1750482623,"current_range_meters":26000,"station_id":"","pricing_plan_id":"cebpf4jnsgd1na2vs0mg"},{"bike_id":"f8909465-48a5-419f-8d29-8b021a9a34a2","system_id":"levelo_inurba_marseille","lat":43.2984,"lon":5.36266,"is_reserved":false,"is_disabled":false,"rental_uris":{"android":"levelo://app?vid=f8909465-48a5-419f-8d29-8b021a9a34a2","ios":"levelo://app?vid=f8909465-48a5-419f-8d29-8b021a9a34a2"},"vehicle_type_id":"4","last_reported":1750482623,"current_range_meters":26000,"station_id":"ce4bgpp2rcd13ifvqc3g","pricing_plan_id":"cebpf4jnsgd1na2vs0mg"},{"bike_id":"1613cb90-5ca8-442f-9eee-3bcd7ac9806f","system_id":"levelo_inurba_marseille","lat":43.30886,"lon":5.37178,"is_reserved":false,"is_disabled":false,"rental_uris":{"android":"levelo://app?vid=1613cb90-5ca8-442f-9eee-3bcd7ac9806f","ios":"levelo://app?vid=1613cb90-5ca8-442f-9eee-3bcd7ac9806f"},"vehicle_type_id":"4","last_reported":1750482623,"current_range_meters":26000,"station_id":"ce4bguh2rcd13ifvqckg","pricing_plan_id":"cebpf4jnsgd1na2vs0mg"},{"bike_id":"b90e7e67-292a-4fbc-82aa-5454087d4c9e","system_id":"levelo_inurba_marseille","lat":43.29046,"lon":5.39964,"is_reserved":false,"is_disabled":false,"rental_uris":{"android":"levelo://app?vid=b90e7e67-292a-4fbc-82aa-5454087d4c9e","ios":"levelo://app?vid=b90e7e67-292a-4fbc-82aa-5454087d4c9e"},"vehicle_type_id":"4","last_reported":1750482623,"current_range_meters":26000,"station_id":"ce4bh392rcd13ifvqdm0","pricing_plan_id":"cebpf4jnsgd1na2vs0mg"},