{"last_updated":1731143285,"ttl":60,"version":"2.2","data":{"bikes":[{"bike_id":"83d79eb4-b2c8-4660-ab26-9cd7ca20ead1","system_id":"levelo_inurba_marseille","lat":43.30465,"lon":5.37901,"is_reserved":false,"is_disabled":false,"rental_uris":{"android":"levelo://app?vid=83d79eb4-b2c8-4660-ab26-9cd7ca20ead1","ios":"levelo://app?vid=83d79eb4-b2c8-4660-ab26-9cd7ca20ead1"},"vehicle_type_id":"4","last_reported":1731143285,"current_range_meters":36800,"station_id":"ce4bgup2rcd13ifvqcn0","pricing_plan_id":"cebpf4jnsgd1na2vs0mg"},{"bike_id":"e94e2327-9eaf-4d26-bd7f-903afa708be6","system_id":"levelo_inurba_marseille","lat":43.33725,"lon":5.39186,"is_reserved":false,"is_disabled":false,"rental_uris":{"android":"levelo://app?vid=e94e2327-9eaf-4d26-bd7f-903afa708be6","ios":"levelo://app?vid=e94e2327-9eaf-4d26-bd7f-903afa708be6"},"vehicle_type_id":"4","last_reported":1731143285,"current_range_meters":19600,"station_id":"ce4bhr92rcd13ifvqhsg","pricing_plan_id":"cebpf4jnsgd1na2vs0mg"},{"bike_id":"37b18ebd-4aa0-4ca2-bfbb-ac9479701cc7","system_id":"levelo_inurba_marseille","lat":43.28074,"lon":5.39658,"is_reserved":false,"is_disabled":false,"rental_uris":{"android":"levelo://app?vid=37b18ebd-4aa0-4ca2-bfbb-ac9479701cc7","ios":"levelo://app?vid=37b18ebd-4aa0-4ca2-bfbb-ac9479701cc7"},"vehicle_type_id":"4","last_reported":1731143285,"current_range_meters":38800,"station_id":"ce4bho12rcd13ifvqh2g","pricing_plan_id":"cebpf4jnsgd1na2vs0mg"},{"bike_id":"cceb429b-0bd4-4443-87b7-d6a5c95fa728","system_id":"levelo_inurba_marseille","lat":43.30596,"lon":5.39335,"is_reserved":false,"is_disabled":false,"rental_uris":{"android":"levelo://app?vid=cceb429b-0bd4-4443-87b7-d6a5c95fa728","ios":"levelo://app?vid=cceb429b-0bd4-4443-87b7-d6a5c95fa728"},"vehicle_type_id":"4","last_reported":1731143285,"current_range_meters":38800,"station_id":"ce4bh0p2rcd13ifvqd80","pricing_plan_id":"cebpf4jnsgd1na2vs0mg"},{"bike_id":"89b8a685-fac9-450e-a70e-342515d21cbe","system_id":"levelo_inurba_marseille","lat":43.27625,"lon":5.42644,"is_reserved":false,"is_disabled":false,"rental_uris":{"android":"levelo://app?vid=89b8a685-fac9-450e-a70e-342515d21cbe","ios":"levelo://app?vid=89b8a685-fac9-450e-a70e-342515d21cbe"},"vehicle_type_id":"4","last_reported":1731143285,"current_range_meters":8800,"station_id":"","pricing_plan_id":"cebpf4jnsgd1na2vs0mg"},{"bike_id":"06bb3e06-6dfc-4c7a-bbfb-aaacb082969f","system_id":"levelo_inurba_marseille","lat":43.25092,"lon":5.40312,"is_reserved":false,"is_disabled":false,"rental_uris":{"android":"levelo://app?vid=06bb3e06-6dfc-4c7a-bbfb-aaacb082969f","ios":"levelo://app?vid=06bb3e06-6dfc-4c7a-bbfb-aaacb082969f"},"vehicle_type_id":"4","last_reported":1731143285,"current_range_meters":36000,"station_id":"ce4bhlh2rcd13ifvqgig","pricing_plan_id":"cebpf4jnsgd1na2vs0mg"},{"bike_id":"68bb9078-c705-4e4c-81de-7ae7c7d86c43","system_id":"levelo_inurba_marseille","lat":43.31773,"lon":5.37674,"is_reserved":false,"is_disabled":false,"rental_uris":{"android":"levelo://app?vid=68bb9078-c705-4e4c-81de-7ae7c7d86c43","ios":"levelo://app?vid=68bb9078-c705-4e4c-81de-7ae7c7d86c43"},"vehicle_type_id":"4","last_reported":1731143285,"current_range_meters":29600,"station_id":"ce4bgth2rcd13ifvqch0","pricing_plan_id":"cebpf4jnsgd1na2vs0mg"},{"bike_id":"5d2bed3e-0ab0-4ab1-a9e4-932816fbd03c","system_id":"levelo_inurba_marseille","lat":43.2961,"lon":5.37719,"is_reserved":false,"is_disabled":false,"rental_uris":{"android":"levelo://app?vid=5d2bed3e-0ab0-4ab1-a9e4-932816fbd03c","ios":"levelo://app?vid=5d2bed3e-0ab0-4ab1-a9e4-932816fbd03c"},"vehicle_type_id":"4","last_reported":1731143285,"current_range_meters":3200,"station_id":"ce4bgi92rcd13ifvqb90","pricing_plan_id":"cebpf4jnsgd1na2vs0mg"},{"bike_id":"483b8c02-479e-49cc-9cf2-1cbcefdf0321","system_id":"levelo_inurba_marseille","lat":43.28936,"lon":5.39635,"is_reserved":false,"is_disabled":false,"rental_uris":{"android":"levelo://app?vid=483b8c02-479e-49cc-9cf2-1cbcefdf0321","ios":"levelo://app?vid=483b8c02-479e-49cc-9cf2-1cbcefdf0321"},"vehicle_type_id":"4","last_reported":1731143285,"current_range_meters":38800,"station_id":"ce4bh3h2rcd13ifvqdn0","pricing_plan_id":"cebpf4jnsgd1na2vs0mg"},{"bike_id":"38455bb7-0065-4041-a9c3-aa272a5e026d","system_id":"levelo_inurba_marseille","lat":43.26783,"lon":5.39415,"is_reserved":false,"is_disabled":false,"rental_uris":{"android":"levelo://app?vid=38455bb7-0065-4041-a9c3-aa272a5e026d","ios":"levelo://app?vid=38455bb7-0065-4041-a9c3-aa272a5e026d"},"vehicle_type_id":"4","last_reported":1731143285,"current_range_meters":38800,"station_id":"ce4bhh12rcd13ifvqfg0","pricing_plan_id":"cebpf4jnsgd1na2vs0mg"},{"bike_id":"7a636c65-a00f-4211-8190-f94784703ffa","system_id":"levelo_inurba_marseille","lat":43.30591,"lon":5.39357,"is_reserved":false,"is_disabled":false,"rental_uris":{"android":"levelo://app?vid=7a636c65-a00f-4211-8190-f94784703ffa","ios":"levelo://app?vid=7a636c65-a00f-4211-8190-f94784703ffa"},"vehicle_type_id":"4","last_reported":1731143285,"current_range_meters":26000,"station_id":"ce4bh0p2rcd13ifvqd80","pricing_plan_id":"cebpf4jnsgd1na2vs0mg"},{"bike_id":"e899eac6-4691-43b6-92e8-21ecece2b174","system_id":"levelo_inurba_marseille","lat":43.31069,"lon":5.38344,"is_reserved":false,"is_disabled":false,"rental_uris":{"android":"levelo://app?vid=e899eac6-4691-43b6-92e8-21ecece2b174","ios":"levelo://app?vid=e899eac6-4691-43b6-92e8-21ecece2b174"},"vehicle_type_id":"4","last_reported":1731143285,"current_range_meters":24400,"station_id":"ce4bgv92rcd13ifvqcr0","pricing_plan_id":"cebpf4jnsgd1na2vs0mg"},{"bike_id":"f7ccd857-2b8d-4e2b-9365-ccd4a4a85e73","system_id":"levelo_inurba_marseille","lat":43.33609,"lon":5.41024,"is_reserved":false,"is_disabled":false,"rental_uris":{"android":"levelo://app?vid=f7ccd857-2b8d-4e2b-9365-ccd4a4a85e73","ios":"levelo://app?vid=f7ccd857-2b8d-4e2b-9365-ccd4a4a85e73"},"vehicle_type_id":"4","last_reported":1731143285,"current_range_meters":34800,"station_id":"ce4bhqh2rcd13ifvqhmg","pricing_plan_id":"cebpf4jnsgd1na2vs0mg"},{"bike_id":"c06d1949-aba5-4f23-959b-3c05a40c3614","system_id":"levelo_inurba_marseille","lat":43.23183,"lon":5.39998,"is_reserved":false,"is_disabled":false,"rental_uris":{"android":"levelo://app?vid=c06d1949-aba5-4f23-959b-3c05a40c3614","ios":"levelo://app?vid=c06d1949-aba5-4f23-959b-3c05a40c3614"},"vehicle_type_id":"4","last_reported":1731143285,"current_range_meters":28000,"station_id":"ce4bhn12rcd13ifvqgqg","pricing_plan_id":"cebpf4jnsgd1na2vs0mg"},{"bike_id":"a08541b9-417e-4bb1-95c3-85bcbeefd77f","system_id":"levelo_inurba_marseille","lat":43.28663,"lon":5.38664,"is_reserved":false,"is_disabled":false,"rental_uris":{"android":"levelo://app?vid=a08541b9-417e-4bb1-95c3-85bcbeefd77f","ios":"levelo://app?vid=a08541b9-417e-4bb1-95c3-85bcbeefd77f"},"vehicle_type_id":"4","last_reported":1731143285,"current_range_meters":29600,"station_id":"ce4bh492rcd13ifvqdug","pricing_plan_id":"cebpf4jnsgd1na2vs0mg"},{"bike_id":"47f73f59-92bf-4d0a-bbe1-cd40ee33ef90","system_id":"levelo_inurba_marseille","lat":43.30595,"lon":5.37212,"is_reserved":false,"is_disabled":false,"rental_uris":{"android":"levelo://app?vid=47f73f59-92bf-4d0a-bbe1-cd40ee33ef90","ios":"levelo://app?vid=47f73f59-92bf-4d0a-bbe1-cd40ee33ef90"},"vehicle_type_id":"4","last_reported":1731143285,"current_range_meters":19600,"station_id":"ce4bgqh2rcd13ifvqc4g","pricing_plan_id":"cebpf4jnsgd1na2vs0mg"},{"bike_id":"dc11153a-b8c9-452f-bcae-07f76ace4c66","system_id":"levelo_inurba_marseille","lat":43.29733,"lon":5.37683,"is_reserved":false,"is_disabled":false,"rental_uris":{"android":"levelo://app?vid=dc11153a-b8c9-452f-bcae-07f76ace4c66","ios":"levelo://app?vid=dc11153a-b8c9-452f-bcae-07f76ace4c66"},"vehicle_type_id":"4","last_reported":1731143285,"current_range_meters":14000,"station_id":"ce4bgkh2rcd13ifvqbl0","pricing_plan_id":"cebpf4jnsgd1na2vs0mg"},{"bike_id":"a98e79a0-0067-4508-818a-964307a5f592","system_id":"levelo_inurba_marseille","lat":43.28724,"lon":5.36083,"is_reserved":false,"is_disabled":false,"rental_uris":{"android":"levelo://app?vid=a98e79a0-0067-4508-818a-964307a5f592","ios":"levelo://app?vid=a98e79a0-0067-4508-818a-964307a5f592"},"vehicle_type_id":"4","last_reported":1731143285,"current_range_meters":28000,"station_id":"cki0cbj6b192h4jlfktg","pricing_plan_id":"cebpf4jnsgd1na2vs0mg"},{"bike_id":"6e65b696-85b8-4128-b24f-217ee3a17be3","system_id":"levelo_inurba_marseille","lat":43.300037,"lon":5.366373,"is_reserved":false,"is_disabled":false,"rental_uris":{"android":"levelo://app?vid=6e65b696-85b8-4128-b24f-217ee3a17be3","ios":"levelo://app?vid=6e65b696-85b8-4128-b24f-217ee3a17be3"},"vehicle_type_id":"4","last_reported":1731143285,"current_range_meters":27600,"station_id":"ce4bgm92rcd13ifvqbr0","pricing_plan_id":"cebpf4jnsgd1na2vs0mg"},{"bike_id":"8633134c-958c-4f7d-b9db-bd51e61b5e12","system_id":"levelo_inurba_marseille","lat":43.30945,"lon":5.39045,"is_reserved":false,"is_disabled":false,"rental_uris":{"android":"levelo://app?vid=8633134c-958c-4f7d-b9db-bd51e61b5e12","ios":"levelo://app?vid=8633134c-958c-4f7d-b9db-bd51e61b5e12"},"vehicle_type_id":"4","last_reported":1731143285,"current_range_meters":38800,"station_id":"ce4bgup2rcd13ifvqco0","pricing_plan_id":"cebpf4jnsgd1na2vs0mg"},{"bike_id":"3b9c558b-9567-4c47-aa8d-463860eb3125","system_id":"levelo_inurba_marseille","lat":43.231787,"lon":5.399893,"is_reserved":false,"is_disabled":false,"rental_uris":{"android":"levelo://app?vid=3b9c558b-9567-4c47-aa8d-463860eb3125","ios":"levelo://app?vid=3b9c558b-9567-4c47-aa8d-463860eb3125"},"vehicle_type_id":"4","last_reported":1731143285,"current_range_meters":30000,"station_id":"ce4bhn12rcd13ifvqgqg","pricing_plan_id":"cebpf4jnsgd1na2vs0mg"},{"bike_id":"2fd6dc22-dc4f-436f-8f09-ea747d8c2aa2","system_id":"levelo_inurba_marseille","lat":43.2396,"lon":5.36624,"is_reserved":false,"is_disabled":false,"rental_uris":{"android":"levelo://app?vid=2fd6dc22-dc4f-436f-8f09-ea747d8c2aa2","ios":"levelo://app?vid=2fd6dc22-dc4f-436f-8f09-ea747d8c2aa2"},"vehicle_type_id":"4","last_reported":1731143285,"current_range_meters":39200,"station_id":"ce4bhi12rcd13ifvqfp0","pricing_plan_id":"cebpf4jnsgd1na2vs0mg"},{"bike_id":"a6de644e-ce0f-458d-91fb-f7ded09dff48","system_id":"levelo_inurba_marseille","lat":43.305511,"lon":5.384074,"is_reserved":false,"is_disabled":false,"rental_uris":{"android":"levelo://app?vid=a6de644e-ce0f-458d-91fb-f7ded09dff48","ios":"levelo://app?vid=a6de644e-ce0f-458d-91fb-f7ded09dff48"},"vehicle_type_id":"4","last_reported":1731143285,"current_range_meters":39200,"station_id":"ce4bh4p2rcd13ifvqe1g","pricing_plan_id":"cebpf4jnsgd1na2vs0mg"},{"bike_id":"c8b9343b-fb21-45e1-9ad2-3b2b58e707c9","system_id":"levelo_inurba_marseille","lat":43.31073,"lon":5.38355,"is_reserved":false,"is_disabled":false,"rental_uris":{"android":"levelo://app?vid=c8b9343b-fb21-45e1-9ad2-3b2b58e707c9","ios":"levelo://app?vid=c8b9343b-fb21-45e1-9ad2-3b2b58e707c9"},"vehicle_type_id":"4","last_reported":1731143285,"current_range_meters":35200,"station_id":"ce4bgv92rcd13ifvqcr0","pricing_plan_id":"cebpf4jnsgd1na2vs0mg"},{"bike_id":"41a3c5f1-221a-4b57-8e6a-888d541e1a20","system_id":"levelo_inurba_marseille","lat":43.24072,"lon":5.3776,"is_reserved":false,"is_disabled":false,"rental_uris":{"android":"levelo://app?vid=41a3c5f1-221a-4b57-8e6a-888d541e1a20","ios":"levelo://app?vid=41a3c5f1-221a-4b57-8e6a-888d541e1a20"},"vehicle_type_id":"4","last_reported":1731143285,"current_range_meters":10800,"station_id":"ce4bhnp2rcd13ifvqgvg","pricing_plan_id":"cebpf4jnsgd1na2vs0mg"},{"bike_id":"b9059161-bc2a-4853-8231-de961bd5f1e7","system_id":"levelo_inurba_marseille","lat":43.33722,"lon":5.39179,"is_reserved":false,"is_disabled":false,"rental_uris":{"android":"levelo://app?vid=b9059161-bc2a-4853-8231-de961bd5f1e7","ios":"levelo://app?vid=b9059161-bc2a-4853-8231-de961bd5f1e7"},"vehicle_type_id":"4","last_reported":1731143285,"current_range_meters":24000,"station_id":"ce4bhr92rcd13ifvqhsg","pricing_plan_id":"cebpf4jnsgd1na2vs0mg"},{"bike_id":"b79e420f-d087-498b-acb3-27027e015c5f","system_id":"levelo_inurba_marseille","lat":43.24165,"lon":5.36393,"is_reserved":false,"is_disabled":false,"rental_uris":{"android":"levelo://app?vid=b79e420f-d087-498b-acb3-27027e015c5f","ios":"levelo://app?vid=b79e420f-d087-498b-acb3-27027e015c5f"},"vehicle_type_id":"4","last_reported":1731143285,"current_range_meters":23200,"station_id":"cpo36qri1sfpv3e86is0","pricing_plan_id":"cebpf4jnsgd1na2vs0mg"},{"bike_id":"dc0f3de4-0bec-475a-bfd7-dcfa5fb0411f","system_id":"levelo_inurba_marseille","lat":43.30188,"lon":5.36633,"is_reserved":false,"is_disabled":false,"rental_uris":{"android":"levelo://app?vid=dc0f3de4-0bec-475a-bfd7-dcfa5fb0411f","ios":"levelo://app?vid=dc0f3de4-0bec-475a-bfd7-dcfa5fb0411f"},"vehicle_type_id":"4","last_reported":1731143285,"current_range_meters":38000,"station_id":"ce4bgrh2rcd13ifvqc8g","pricing_plan_id":"cebpf4jnsgd1na2vs0mg"},{"bike_id":"ad97f328-01a3-4ebf-95e7-0cbaf2811fa2","system_id":"levelo_inurba_marseille","lat":43.28791,"lon":5.37325,"is_reserved":false,"is_disabled":false,"rental_uris":{"android":"levelo://app?vid=ad97f328-01a3-4ebf-95e7-0cbaf2811fa2","ios":"levelo://app?vid=ad97f328-01a3-4ebf-95e7-0cbaf2811fa2"},"vehicle_type_id":"4","last_reported":1731143285,"current_range_meters":7200,"station_id":"","pricing_plan_id":"cebpf4jnsgd1na2vs0mg"},{"bike_id":"57fe26b5-ad7a-49c6-92b5-a51d7d925e90","system_id":"levelo_inurba_marseille","lat":43.30535,"lon":5.36538,"is_reserved":false,"is_disabled":false,"rental_uris":{"android":"levelo://app?vid=57fe26b5-ad7a-49c6-92b5-a51d7d925e90","ios":"levelo://app?vid=57fe26b5-ad7a-49c6-92b5-a51d7d925e90"},"vehicle_type_id":"4","last_reported":1731143285,"current_range_meters":38800,"station_id":"ce4bgs12rcd13ifvqcag","pricing_plan_id":"cebpf4jnsgd1na2vs0mg"},{"bike_id":"a5c481b8-423c-49c6-a341-0a8b63eb71ed","system_id":"levelo_inurba_marseille","lat":43.25937,"lon":5.40896,"is_reserved":false,"is_disabled":false,"rental_uris":{"android":"levelo://app?vid=a5c481b8-423c-49c6-a341-0a8b63eb71ed","ios":"levelo://app?vid=a5c481b8-423c-49c6-a341-0a8b63eb71ed"},"vehicle_type_id":"4","last_reported":1731143285,"current_range_meters":16000,"station_id":"ce4bhm92rcd13ifvqglg","pricing_plan_id":"cebpf4jnsgd1na2vs0mg"},{"bike_id":"d0548986-c389-4527-9d88-0be922484fbf","system_id":"levelo_inurba_marseille","lat":43.30655,"lon":5.40078,"is_reserved":false,"is_disabled":false,"rental_uris":{"android":"levelo://app?vid=d0548986-c389-4527-9d88-0be922484fbf","ios":"levelo://app?vid=d0548986-c389-4527-9d88-0be922484fbf"},"vehicle_type_id":"4","last_reported":1731143285,"current_range_meters":12400,"station_id":"ce4bh112rcd13ifvqda0","pricing_plan_id":"cebpf4jnsgd1na2vs0mg"},{"bike_id":"91628a43-65ab-40f6-86ee-9ed6104d49d8","system_id":"levelo_inurba_marseille","lat":43.25102,"lon":5.4033,"is_reserved":false,"is_disabled":false,"rental_uris":{"android":"levelo://app?vid=91628a43-65ab-40f6-86ee-9ed6104d49d8","ios":"levelo://app?vid=91628a43-65ab-40f6-86ee-9ed6104d49d8"},"vehicle_type_id":"4","last_reported":1731143285,"current_range_meters":24400,"station_id":"ce4bhlh2rcd13ifvqgig","pricing_plan_id":"cebpf4jnsgd1na2vs0mg"},{"bike_id":"58e6337b-b699-4056-b876-5b89fce77cca","system_id":"levelo_inurba_marseille","lat":43.24546,"lon":5.39522,"is_reserved":false,"is_disabled":false,"rental_uris":{"android":"levelo://app?vid=58e6337b-b699-4056-b876-5b89fce77cca","ios":"levelo://app?vid=58e6337b-b699-4056-b876-5b89fce77cca"},"vehicle_type_id":"4","last_reported":1731143285,"current_range_meters":8000,"station_id":"ce4bhlp2rcd13ifvqgjg","pricing_plan_id":"cebpf4jnsgd1na2vs0mg"},{"bike_id":"f4ef053d-e709-4411-bdd9-de1d0f41e46f","system_id":"levelo_inurba_marseille","lat":43.22928,"lon":5.35379,"is_reserved":false,"is_disabled":false,"rental_uris":{"android":"levelo://app?vid=f4ef053d-e709-4411-bdd9-de1d0f41e46f","ios":"levelo://app?vid=f4ef053d-e709-4411-bdd9-de1d0f41e46f"},"vehicle_type_id":"4","last_reported":1731143285,"current_range_meters":38800,"station_id":"cpo3532slgdg3j2ikp40","pricing_plan_id":"cebpf4jnsgd1na2vs0mg"},{"bike_id":"8f9addbd-de2f-4f7c-9599-e984728ff8a5","system_id":"levelo_inurba_marseille","lat":43.30784,"lon":5.37639,"is_reserved":false,"is_disabled":false,"rental_uris":{"android":"levelo://app?vid=8f9addbd-de2f-4f7c-9599-e984728ff8a5","ios":"levelo://app?vid=8f9addbd-de2f-4f7c-9599-e984728ff8a5"},"vehicle_type_id":"4","last_reported":1731143285,"current_range_meters":38400,"station_id":"ce4bgv92rcd13ifvqcq0","pricing_plan_id":"cebpf4jnsgd1na2vs0mg"},{"bike_id":"de81964b-2e50-4eac-8982-a36260f5274c","system_id":"levelo_inurba_marseille","lat":43.29716,"lon":5.36615,"is_reserved":false,"is_disabled":false,"rental_uris":{"android":"levelo://app?vid=de81964b-2e50-4eac-8982-a36260f5274c","ios":"levelo://app?vid=de81964b-2e50-4eac-8982-a36260f5274c"},"vehicle_type_id":"4","last_reported":1731143285,"current_range_meters":38800,"station_id":"ce4bgn12rcd13ifvqbt0","pricing_plan_id":"cebpf4jnsgd1na2vs0mg"},{"bike_id":"94c1a05b-4b06-46ae-a5e4-c6962d31b703","system_id":"levelo_inurba_marseille","lat":43.29276,"lon":5.36854,"is_reserved":false,"is_disabled":false,"rental_uris":{"android":"levelo://app?vid=94c1a05b-4b06-46ae-a5e4-c6962d31b703","ios":"levelo://app?vid=94c1a05b-4b06-46ae-a5e4-c6962d31b703"},"vehicle_type_id":"4","last_reported":1731143285,"current_range_meters":30000,"station_id":"ce4bhbp2rcd13ifvqesg","pricing_plan_id":"cebpf4jnsgd1na2vs0mg"},{"bike_id":"92da8785-1c75-4060-b9d2-af449abf3cf0","system_id":"levelo_inurba_marseille","lat":43.255014,"lon":5.376511,"is_reserved":false,"is_disabled":false,"rental_uris":{"android":"levelo://app?vid=92da8785-1c75-4060-b9d2-af449abf3cf0","ios":"levelo://app?vid=92da8785-1c75-4060-b9d2-af449abf3cf0"},"vehicle_type_id":"4","last_reported":1731143285,"current_range_meters":38400,"station_id":"ce4bhh12rcd13ifvqff0","pricing_plan_id":"cebpf4jnsgd1na2vs0mg"},{"bike_id":"9e4d87ce-084f-49fe-b252-93f72bf55341","system_id":"levelo_inurba_marseille","lat":43.292786,"lon":5.368402,"is_reserved":false,"is_disabled":false,"rental_uris":{"android":"levelo://app?vid=9e4d87ce-084f-49fe-b252-93f72bf55341","ios":"levelo://app?vid=9e4d87ce-084f-49fe-b252-93f72bf55341"},"vehicle_type_id":"4","last_reported":1731143285,"current_range_meters":30000,"station_id":"ce4bhbp2rcd13ifvqesg","pricing_plan_id":"cebpf4jnsgd1na2vs0mg"},{"bike_id":"87400346-7dad-4540-98eb-d38a31c15ad0","system_id":"levelo_inurba_marseille","lat":43.25866,"lon":5.399,"is_reserved":false,"is_disabled":false,"rental_uris":{"android":"levelo://app?vid=87400346-7dad-4540-98eb-d38a31c15ad0","ios":"levelo://app?vid=87400346-7dad-4540-98eb-d38a31c15ad0"},"vehicle_type_id":"4","last_reported":1731143285,"current_range_meters":38800,"station_id":"ce4bhl92rcd13ifvqghg","pricing_plan_id":"cebpf4jnsgd1na2vs0mg"},{"bike_id":"82f750ef-4c11-46df-bf3f-eb1ee954f51e","system_id":"levelo_inurba_marseille","lat":43.30887,"lon":5.39644,"is_reserved":false,"is_disabled":false,"rental_uris":{"android":"levelo://app?vid=82f750ef-4c11-46df-bf3f-eb1ee954f51e","ios":"levelo://app?vid=82f750ef-4c11-46df-bf3f-eb1ee954f51e"},"vehicle_type_id":"4","last_reported":1731143285,"current_range_meters":26000,"station_id":"ce4bh012rcd13ifvqcv0","pricing_plan_id":"cebpf4jnsgd1na2vs0mg"},{"bike_id":"ac59b398-a03f-4409-8d13-c4e12f526cfa","system_id":"levelo_inurba_marseille","lat":43.28418,"lon":5.34997,"is_reserved":false,"is_disabled":false,"rental_uris":{"android":"levelo://app?vid=ac59b398-a03f-4409-8d13-c4e12f526cfa","ios":"levelo://app?vid=ac59b398-a03f-4409-8d13-c4e12f526cfa"},"vehicle_type_id":"4","last_reported":1731143285,"current_range_meters":18800,"station_id":"ce4bhbh2rcd13ifvqepg","pricing_plan_id":"cebpf4jnsgd1na2vs0mg"},{"bike_id":"75396f91-2715-46a7-8659-3d2a0e99ed51","system_id":"levelo_inurba_marseille","lat":43.29362,"lon":5.37852,"is_reserved":false,"is_disabled":false,"rental_uris":{"android":"levelo://app?vid=75396f91-2715-46a7-8659-3d2a0e99ed51","ios":"levelo://app?vid=75396f91-2715-46a7-8659-3d2a0e99ed51"},"vehicle_type_id":"4","last_reported":1731143285,"current_range_meters":23200,"station_id":"ce4bgjh2rcd13ifvqbf0","pricing_plan_id":"cebpf4jnsgd1na2vs0mg"},{"bike_id":"7243fcc8-e91d-49aa-a78b-3d82c9cf3c65","system_id":"levelo_inurba_marseille","lat":43.28589,"lon":5.3508,"is_reserved":false,"is_disabled":false,"rental_uris":{"android":"levelo://app?vid=7243fcc8-e91d-49aa-a78b-3d82c9cf3c65","ios":"levelo://app?vid=7243fcc8-e91d-49aa-a78b-3d82c9cf3c65"},"vehicle_type_id":"4","last_reported":1731143285,"current_range_meters":36000,"station_id":"ce4bhch2rcd13ifvqeug","pricing_plan_id":"cebpf4jnsgd1na2vs0mg"},{"bike_id":"e6db309d-c8fb-4b14-9fce-49afd4b084da","system_id":"levelo_inurba_marseille","lat":43.26193,"lon":5.37444,"is_reserved":false,"is_disabled":false,"rental_uris":{"android":"levelo://app?vid=e6db309d-c8fb-4b14-9fce-49afd4b084da","ios":"levelo://app?vid=e6db309d-c8fb-4b14-9fce-49afd4b084da"},"vehicle_type_id":"4","last_reported":1731143285,"current_range_meters":38400,"station_id":"ce4bhgp2rcd13ifvqfc0","pricing_plan_id":"cebpf4jnsgd1na2vs0mg"},{"bike_id":"a664e44f-9279-426c-96c2-a5854c8498f6","system_id":"levelo_inurba_marseille","lat":43.276135,"lon":5.361027,"is_reserved":false,"is_disabled":false,"rental_uris":{"android":"levelo://app?vid=a664e44f-9279-426c-96c2-a5854c8498f6","ios":"levelo://app?vid=a664e44f-9279-426c-96c2-a5854c8498f6"},"vehicle_type_id":"4","last_reported":1731143285,"current_range_meters":16800,"station_id":"ce4bgj92rcd13ifvqbe0","pricing_plan_id":"cebpf4jnsgd1na2vs0mg"},{"bike_id":"b4d6962c-48f0-4bf0-8d16-4194c14b4356","system_id":"levelo_inurba_marseille","lat":43.26214,"lon":5.37442,"is_reserved":false,"is_disabled":false,"rental_uris":{"android":"levelo://app?vid=b4d6962c-48f0-4bf0-8d16-4194c14b4356","ios":"levelo://app?vid=b4d6962c-48f0-4bf0-8d16-4194c14b4356"},"vehicle_type_id":"4","last_reported":1731143285,"current_range_meters":18000,"station_id":"ce4bhgp2rcd13ifvqfc0","pricing_plan_id":"cebpf4jnsgd1na2vs0mg"},{"bike_id":"71bb50a1-6cdb-4a6f-b24c-1cbd7c603ad3","system_id":"levelo_inurba_marseille","lat":43.31429,"lon":5.37397,"is_reserved":false,"is_disabled":false,"rental_uris":{"android":"levelo://app?vid=71bb50a1-6cdb-4a6f-b24c-1cbd7c603ad3","ios":"levelo://app?vid=71bb50a1-6cdb-4a6f-b24c-1cbd7c603ad3"},"vehicle_type_id":"4","last_reported":1731143285,"current_range_meters":28400,"station_id":"","pricing_plan_id":"cebpf4jnsgd1na2vs0mg"},{"bike_id":"895c1bd2-e384-4f22-a95e-ca5003f9b176","system_id":"levelo_inurba_marseille","lat":43.29248,"lon":5.40914,"is_reserved":false,"is_disabled":false,"rental_uris":{"android":"levelo://app?vid=895c1bd2-e384-4f22-a95e-ca5003f9b176","ios":"levelo://app?vid=895c1bd2-e384-4f22-a95e-ca5003f9b176"},"vehicle_type_id":"4","last_reported":1731143285,"current_range_meters":30800,"station_id":"ce4bh192rcd13ifvqdc0","pricing_plan_id":"cebpf4jnsgd1na2vs0mg"},{"bike_id":"db21884f-8e61-4d4b-8675-ed45336daa16","system_id":"levelo_inurba_marseille","lat":43.28101,"lon":5.37836,"is_reserved":false,"is_disabled":false,"rental_uris":{"android":"levelo://app?vid=db21884f-8e61-4d4b-8675-ed45336daa16","ios":"levelo://app?vid=db21884f-8e61-4d4b-8675-ed45336daa16"},"vehicle_type_id":"4","last_reported":1731143285,"current_range_meters":24800,"station_id":"ce4bha12rcd13ifvqee0","pricing_plan_id":"cebpf4jnsgd1na2vs0mg"},{"bike_id":"b8fdd341-0697-41ca-82c9-e4253415f4e6","system_id":"levelo_inurba_marseille","lat":43.23058,"lon":5.35491,"is_reserved":false,"is_disabled":false,"rental_uris":{"android":"levelo://app?vid=b8fdd341-0697-41ca-82c9-e4253415f4e6","ios":"levelo://app?vid=b8fdd341-0697-41ca-82c9-e4253415f4e6"},"vehicle_type_id":"4","last_reported":1731143285,"current_range_meters":33200,"station_id":"cpo3342slgdg3j2ifvpg","pricing_plan_id":"cebpf4jnsgd1na2vs0mg"},{"bike_id":"7faac5b2-7950-44fc-8bf7-9b4ebdf98d9a","system_id":"levelo_inurba_marseille","lat":43.30304,"lon":5.3921,"is_reserved":false,"is_disabled":false,"rental_uris":{"android":"levelo://app?vid=7faac5b2-7950-44fc-8bf7-9b4ebdf98d9a","ios":"levelo://app?vid=7faac5b2-7950-44fc-8bf7-9b4ebdf98d9a"},"vehicle_type_id":"4","last_reported":1731143285,"current_range_meters":26000,"station_id":"ce4bgkh2rcd13ifvqbk0","pricing_plan_id":"cebpf4jnsgd1na2vs0mg"},{"bike_id":"2fa9372a-d49f-405d-97f3-f94291d7a47e","system_id":"levelo_inurba_marseille","lat":43.2981,"lon":5.38098,"is_reserved":false,"is_disabled":false,"rental_uris":{"android":"levelo://app?vid=2fa9372a-d49f-405d-97f3-f94291d7a47e","ios":"levelo://app?vid=2fa9372a-d49f-405d-97f3-f94291d7a47e"},"vehicle_type_id":"4","last_reported":1731143285,"current_range_meters":37600,"station_id":"ce4bgip2rcd13ifvqbb0","pricing_plan_id":"cebpf4jnsgd1na2vs0mg"},{"bike_id":"6e2d14fd-eb01-49b5-bd29-aaa82bfcdea8","system_id":"levelo_inurba_marseille","lat":43.30353,"lon":5.41874,"is_reserved":false,"is_disabled":false,"rental_uris":{"android":"levelo://app?vid=6e2d14fd-eb01-49b5-bd29-aaa82bfcdea8","ios":"levelo://app?vid=6e2d14fd-eb01-49b5-bd29-aaa82bfcdea8"},"vehicle_type_id":"4","last_reported":1731143285,"current_range_meters":25200,"station_id":"ce4bhop2rcd13ifvqh7g","pricing_plan_id":"cebpf4jnsgd1na2vs0mg"},{"bike_id":"71afc15f-51c8-4dc9-9a94-92b448bdbde5","system_id":"levelo_inurba_marseille","lat":43.29008,"lon":5.35616,"is_reserved":false,"is_disabled":false,"rental_uris":{"android":"levelo://app?vid=71afc15f-51c8-4dc9-9a94-92b448bdbde5","ios":"levelo://app?vid=71afc15f-51c8-4dc9-9a94-92b448bdbde5"},"vehicle_type_id":"4","last_reported":1731143285,"current_range_meters":33600,"station_id":"ce4bhb92rcd13ifvqen0","pricing_plan_id":"cebpf4jnsgd1na2vs0mg"},{"bike_id":"f5d2b441-54fd-4ea8-9ee3-1ca1bc0387aa","system_id":"levelo_inurba_marseille","lat":43.30469,"lon":5.37897,"is_reserved":false,"is_disabled":false,"rental_uris":{"android":"levelo://app?vid=f5d2b441-54fd-4ea8-9ee3-1ca1bc0387aa","ios":"levelo://app?vid=f5d2b441-54fd-4ea8-9ee3-1ca1bc0387aa"},"vehicle_type_id":"4","last_reported":1731143285,"current_range_meters":38800,"station_id":"ce4bgup2rcd13ifvqcn0","pricing_plan_id":"cebpf4jnsgd1na2vs0mg"},{"bike_id":"ada1bed3-6165-4d4f-a70b-7c691669ffc3","system_id":"levelo_inurba_marseille","lat":43.24998,"lon":5.38927,"is_reserved":false,"is_disabled":false,"rental_uris":{"android":"levelo://app?vid=ada1bed3-6165-4d4f-a70b-7c691669ffc3","ios":"levelo://app?vid=ada1bed3-6165-4d4f-a70b-7c691669ffc3"},"vehicle_type_id":"4","last_reported":1731143285,"current_range_meters":24400,"station_id":"ce4bhgp2rcd13ifvqfd0","pricing_plan_id":"cebpf4jnsgd1na2vs0mg"},{"bike_id":"b9d0bc02-8b8d-46ee-bb6e-da3b365f1431","system_id":"levelo_inurba_marseille","lat":43.30154,"lon":5.38085,"is_reserved":false,"is_disabled":false,"rental_uris":{"android":"levelo://app?vid=b9d0bc02-8b8d-46ee-bb6e-da3b365f1431","ios":"levelo://app?vid=b9d0bc02-8b8d-46ee-bb6e-da3b365f1431"},"vehicle_type_id":"4","last_reported":1731143285,"current_range_meters":10000,"station_id":"ce4bgjp2rcd13ifvqbh0","pricing_plan_id":"cebpf4jnsgd1na2vs0mg"},{"bike_id":"a6e63326-3a8e-4fbb-b5f0-e522d7903820","system_id":"levelo_inurba_marseille","lat":43.33735,"lon":5.37463,"is_reserved":false,"is_disabled":false,"rental_uris":{"android":"levelo://app?vid=a6e63326-3a8e-4fbb-b5f0-e522d7903820","ios":"levelo://app?vid=a6e63326-3a8e-4fbb-b5f0-e522d7903820"},"vehicle_type_id":"4","last_reported":1731143285,"current_range_meters":38400,"station_id":"","pricing_plan_id":"cebpf4jnsgd1na2vs0mg"},{"bike_id":"8137f581-2393-41d8-a932-f12bb5e1d13d","system_id":"levelo_inurba_marseille","lat":43.29223,"lon":5.36071,"is_reserved":false,"is_disabled":false,"rental_uris":{"android":"levelo://app?vid=8137f581-2393-41d8-a932-f12bb5e1d13d","ios":"levelo://app?vid=8137f581-2393-41d8-a932-f12bb5e1d13d"},"vehicle_type_id":"4","last_reported":1731143285,"current_range_meters":35200,"station_id":"ce4bhbh2rcd13ifvqeqg","pricing_plan_id":"cebpf4jnsgd1na2vs0mg"},{"bike_id":"258b1ef2-2261-4d93-a63b-66c6248265d1","system_id":"levelo_inurba_marseille","lat":43.27215,"lon":5.39189,"is_reserved":false,"is_disabled":false,"rental_uris":{"android":"levelo://app?vid=258b1ef2-2261-4d93-a63b-66c6248265d1","ios":"levelo://app?vid=258b1ef2-2261-4d93-a63b-66c6248265d1"},"vehicle_type_id":"4","last_reported":1731143285,"current_range_meters":32800,"station_id":"ce4bhhp2rcd13ifvqfm0","pricing_plan_id":"cebpf4jnsgd1na2vs0mg"},{"bike_id":"bc9e5d4d-ed87-459e-9d6b-75e21cc6343f","system_id":"levelo_inurba_marseille","lat":43.30418,"lon":5.41281,"is_reserved":false,"is_disabled":false,"rental_uris":{"android":"levelo://app?vid=bc9e5d4d-ed87-459e-9d6b-75e21cc6343f","ios":"levelo://app?vid=bc9e5d4d-ed87-459e-9d6b-75e21cc6343f"},"vehicle_type_id":"4","last_reported":1731143285,"current_range_meters":39200,"station_id":"ce4bhop2rcd13ifvqh8g","pricing_plan_id":"cebpf4jnsgd1na2vs0mg"},{"bike_id":"b04191d0-e2a4-4786-b5cc-65c0b412e928","system_id":"levelo_inurba_marseille","lat":43.30539,"lon":5.3654,"is_reserved":false,"is_disabled":false,"rental_uris":{"android":"levelo://app?vid=b04191d0-e2a4-4786-b5cc-65c0b412e928","ios":"levelo://app?vid=b04191d0-e2a4-4786-b5cc-65c0b412e928"},"vehicle_type_id":"4","last_reported":1731143285,"current_range_meters":20000,"station_id":"ce4bgs12rcd13ifvqcag","pricing_plan_id":"cebpf4jnsgd1na2vs0mg"},{"bike_id":"818293fa-7bab-4548-8e6d-ceefdd2acfe4","system_id":"levelo_inurba_marseille","lat":43.306428,"lon":5.400741,"is_reserved":false,"is_disabled":false,"rental_uris":{"android":"levelo://app?vid=818293fa-7bab-4548-8e6d-ceefdd2acfe4","ios":"levelo://app?vid=818293fa-7bab-4548-8e6d-ceefdd2acfe4"},"vehicle_type_id":"4","last_reported":1731143285,"current_range_meters":18000,"station_id":"ce4bh112rcd13ifvqda0","pricing_plan_id":"cebpf4jnsgd1na2vs0mg"},{"bike_id":"83e58c9a-13a0-474f-9072-9b7376165a15","system_id":"levelo_inurba_marseille","lat":43.30412,"lon":5.41291,"is_reserved":false,"is_disabled":false,"rental_uris":{"android":"levelo://app?vid=83e58c9a-13a0-474f-9072-9b7376165a15","ios":"levelo://app?vid=83e58c9a-13a0-474f-9072-9b7376165a15"},"vehicle_type_id":"4","last_reported":1731143285,"current_range_meters":28400,"station_id":"ce4bhop2rcd13ifvqh8g","pricing_plan_id":"cebpf4jnsgd1na2vs0mg"},{"bike_id":"34d7f694-f7d9-48ee-a86c-62a6193fe373","system_id":"levelo_inurba_marseille","lat":43.304283,"lon":5.388893,"is_reserved":false,"is_disabled":false,"rental_uris":{"android":"levelo://app?vid=34d7f694-f7d9-48ee-a86c-62a6193fe373","ios":"levelo://app?vid=34d7f694-f7d9-48ee-a86c-62a6193fe373"},"vehicle_type_id":"4","last_reported":1731143285,"current_range_meters":38000,"station_id":"ce4bgk12rcd13ifvqbi0","pricing_plan_id":"cebpf4jnsgd1na2vs0mg"},{"bike_id":"3164e0e4-9c24-48e4-a179-3cac940f2c32","system_id":"levelo_inurba_marseille","lat":43.28151,"lon":5.42649,"is_reserved":false,"is_disabled":false,"rental_uris":{"android":"levelo://app?vid=3164e0e4-9c24-48e4-a179-3cac940f2c32","ios":"levelo://app?vid=3164e0e4-9c24-48e4-a179-3cac940f2c32"},"vehicle_type_id":"4","last_reported":1731143285,"current_range_meters":16400,"station_id":"ce4bhnh2rcd13ifvqgug","pricing_plan_id":"cebpf4jnsgd1na2vs0mg"},{"bike_id":"33e8e856-7f81-40f7-a392-a9fedce07fce","system_id":"levelo_inurba_marseille","lat":43.3088,"lon":5.39639,"is_reserved":false,"is_disabled":false,"rental_uris":{"android":"levelo://app?vid=33e8e856-7f81-40f7-a392-a9fedce07fce","ios":"levelo://app?vid=33e8e856-7f81-40f7-a392-a9fedce07fce"},"vehicle_type_id":"4","last_reported":1731143285,"current_range_meters":38400,"station_id":"ce4bh012rcd13ifvqcv0","pricing_plan_id":"cebpf4jnsgd1na2vs0mg"},{"bike_id":"7f11ba46-2bea-4ad5-9bd6-5a8d133d1bb2","system_id":"levelo_inurba_marseille","lat":43.3088,"lon":5.3965,"is_reserved":false,"is_disabled":false,"rental_uris":{"android":"levelo://app?vid=7f11ba46-2bea-4ad5-9bd6-5a8d133d1bb2","ios":"levelo://app?vid=7f11ba46-2bea-4ad5-9bd6-5a8d133d1bb2"},"vehicle_type_id":"4","last_reported":1731143285,"current_range_meters":25200,"station_id":"ce4bh012rcd13ifvqcv0","pricing_plan_id":"cebpf4jnsgd1na2vs0mg"},{"bike_id":"8211904a-91a1-42a5-a9d9-788b8a2859d3","system_id":"levelo_inurba_marseille","lat":43.2836,"lon":5.40033,"is_reserved":false,"is_disabled":false,"rental_uris":{"android":"levelo://app?vid=8211904a-91a1-42a5-a9d9-788b8a2859d3","ios":"levelo://app?vid=8211904a-91a1-42a5-a9d9-788b8a2859d3"},"vehicle_type_id":"4","last_reported":1731143285,"current_range_meters":18000,"station_id":"ce4bh312rcd13ifvqdj0","pricing_plan_id":"cebpf4jnsgd1na2vs0mg"},{"bike_id":"1f1becf7-322b-43ac-89ad-1780eea48740","system_id":"levelo_inurba_marseille","lat":43.25814,"lon":5.39426,"is_reserved":false,"is_disabled":false,"rental_uris":{"android":"levelo://app?vid=1f1becf7-322b-43ac-89ad-1780eea48740","ios":"levelo://app?vid=1f1becf7-322b-43ac-89ad-1780eea48740"},"vehicle_type_id":"4","last_reported":1731143285,"current_range_meters":7200,"station_id":"ce4bhip2rcd13ifvqft0","pricing_plan_id":"cebpf4jnsgd1na2vs0mg"},{"bike_id":"b04721b2-bb72-4877-b800-27e1ccf6e803","system_id":"levelo_inurba_marseille","lat":43.28418,"lon":5.34988,"is_reserved":false,"is_disabled":false,"rental_uris":{"android":"levelo://app?vid=b04721b2-bb72-4877-b800-27e1ccf6e803","ios":"levelo://app?vid=b04721b2-bb72-4877-b800-27e1ccf6e803"},"vehicle_type_id":"4","last_reported":1731143285,"current_range_meters":27600,"station_id":"ce4bhbh2rcd13ifvqepg","pricing_plan_id":"cebpf4jnsgd1na2vs0mg"},{"bike_id":"b758f206-b48a-4cb5-b58a-6e8f90545199","system_id":"levelo_inurba_marseille","lat":43.26949,"lon":5.38651,"is_reserved":false,"is_disabled":false,"rental_uris":{"android":"levelo://app?vid=b758f206-b48a-4cb5-b58a-6e8f90545199","ios":"levelo://app?vid=b758f206-b48a-4cb5-b58a-6e8f90545199"},"vehicle_type_id":"4","last_reported":1731143285,"current_range_meters":17600,"station_id":"ce4bhh92rcd13ifvqfh0","pricing_plan_id":"cebpf4jnsgd1na2vs0mg"},{"bike_id":"d39c8278-f1e4-41c6-b2c6-0323b764da94","system_id":"levelo_inurba_marseille","lat":43.29803,"lon":5.40407,"is_reserved":false,"is_disabled":false,"rental_uris":{"android":"levelo://app?vid=d39c8278-f1e4-41c6-b2c6-0323b764da94","ios":"levelo://app?vid=d39c8278-f1e4-41c6-b2c6-0323b764da94"},"vehicle_type_id":"4","last_reported":1731143285,"current_range_meters":38800,"station_id":"ce4bh112rcd13ifvqd90","pricing_plan_id":"cebpf4jnsgd1na2vs0mg"},{"bike_id":"7b17c7e2-e1a6-4a1c-8685-fec4587aebcd","system_id":"levelo_inurba_marseille","lat":43.30887,"lon":5.37199,"is_reserved":false,"is_disabled":false,"rental_uris":{"android":"levelo://app?vid=7b17c7e2-e1a6-4a1c-8685-fec4587aebcd","ios":"levelo://app?vid=7b17c7e2-e1a6-4a1c-8685-fec4587aebcd"},"vehicle_type_id":"4","last_reported":1731143285,"current_range_meters":38800,"station_id":"ce4bguh2rcd13ifvqckg","pricing_plan_id":"cebpf4jnsgd1na2vs0mg"},{"bike_id":"2015a957-ead6-4c85-93f3-8e74dc7d21da","system_id":"levelo_inurba_marseille","lat":43.32051,"lon":5.41543,"is_reserved":false,"is_disabled":false,"rental_uris":{"android":"levelo://app?vid=2015a957-ead6-4c85-93f3-8e74dc7d21da","ios":"levelo://app?vid=2015a957-ead6-4c85-93f3-8e74dc7d21da"},"vehicle_type_id":"4","last_reported":1731143285,"current_range_meters":37600,"station_id":"ce4bhq92rcd13ifvqhkg","pricing_plan_id":"cebpf4jnsgd1na2vs0mg"},{"bike_id":"1df1207f-8fc4-4292-9c1e-592c20f4c1fe","system_id":"levelo_inurba_marseille","lat":43.2721,"lon":5.3918,"is_reserved":false,"is_disabled":false,"rental_uris":{"android":"levelo://app?vid=1df1207f-8fc4-4292-9c1e-592c20f4c1fe","ios":"levelo://app?vid=1df1207f-8fc4-4292-9c1e-592c20f4c1fe"},"vehicle_type_id":"4","last_reported":1731143285,"current_range_meters":22800,"station_id":"ce4bhhp2rcd13ifvqfm0","pricing_plan_id":"cebpf4jnsgd1na2vs0mg"},{"bike_id":"8ae42063-413b-4c62-b6e0-317a3937a2ec","system_id":"levelo_inurba_marseille","lat":43.2439,"lon":5.37065,"is_reserved":false,"is_disabled":false,"rental_uris":{"android":"levelo://app?vid=8ae42063-413b-4c62-b6e0-317a3937a2ec","ios":"levelo://app?vid=8ae42063-413b-4c62-b6e0-317a3937a2ec"},"vehicle_type_id":"4","last_reported":1731143285,"current_range_meters":27600,"station_id":"ce4bhhh2rcd13ifvqfk0","pricing_plan_id":"cebpf4jnsgd1na2vs0mg"},{"bike_id":"c1aae8eb-6a26-4fcd-903c-b8796943eafc","system_id":"levelo_inurba_marseille","lat":43.30608,"lon":5.37233,"is_reserved":false,"is_disabled":false,"rental_uris":{"android":"levelo://app?vid=c1aae8eb-6a26-4fcd-903c-b8796943eafc","ios":"levelo://app?vid=c1aae8eb-6a26-4fcd-903c-b8796943eafc"},"vehicle_type_id":"4","last_reported":1731143285,"current_range_meters":36800,"station_id":"ce4bgqh2rcd13ifvqc4g","pricing_plan_id":"cebpf4jnsgd1na2vs0mg"},{"bike_id":"39f17349-ada4-4402-b2d4-f4683db56d2d","system_id":"levelo_inurba_marseille","lat":43.275,"lon":5.42455,"is_reserved":false,"is_disabled":false,"rental_uris":{"android":"levelo://app?vid=39f17349-ada4-4402-b2d4-f4683db56d2d","ios":"levelo://app?vid=39f17349-ada4-4402-b2d4-f4683db56d2d"},"vehicle_type_id":"4","last_reported":1731143285,"current_range_meters":38800,"station_id":"ce4bhn92rcd13ifvqgrg","pricing_plan_id":"cebpf4jnsgd1na2vs0mg"},{"bike_id":"b9478b1d-79e3-44c9-ae60-496dd5151f62","system_id":"levelo_inurba_marseille","lat":43.2916,"lon":5.37154,"is_reserved":false,"is_disabled":false,"rental_uris":{"android":"levelo://app?vid=b9478b1d-79e3-44c9-ae60-496dd5151f62","ios":"levelo://app?vid=b9478b1d-79e3-44c9-ae60-496dd5151f62"},"vehicle_type_id":"4","last_reported":1731143285,"current_range_meters":37600,"station_id":"ce4bha92rcd13ifvqeh0","pricing_plan_id":"cebpf4jnsgd1na2vs0mg"},{"bike_id":"adb13a41-e996-4b47-a2f6-e5e80d27b4e6","system_id":"levelo_inurba_marseille","lat":43.32339,"lon":5.406229,"is_reserved":false,"is_disabled":false,"rental_uris":{"android":"levelo://app?vid=adb13a41-e996-4b47-a2f6-e5e80d27b4e6","ios":"levelo://app?vid=adb13a41-e996-4b47-a2f6-e5e80d27b4e6"},"vehicle_type_id":"4","last_reported":1731143285,"current_range_meters":38000,"station_id":"ce4bhq92rcd13ifvqhjg","pricing_plan_id":"cebpf4jnsgd1na2vs0mg"},{"bike_id":"1e25f627-e559-4c90-8e40-cc02cc85ba7e","system_id":"levelo_inurba_marseille","lat":43.30545,"lon":5.36701,"is_reserved":false,"is_disabled":false,"rental_uris":{"android":"levelo://app?vid=1e25f627-e559-4c90-8e40-cc02cc85ba7e","ios":"levelo://app?vid=1e25f627-e559-4c90-8e40-cc02cc85ba7e"},"vehicle_type_id":"4","last_reported":1731143285,"current_range_meters":38000,"station_id":"ce4bgrp2rcd13ifvqc9g","pricing_plan_id":"cebpf4jnsgd1na2vs0mg"},{"bike_id":"de15f00a-25b1-4b9b-a102-3b4e4c3a83ba","system_id":"levelo_inurba_marseille","lat":43.30151,"lon":5.38085,"is_reserved":false,"is_disabled":false,"rental_uris":{"android":"levelo://app?vid=de15f00a-25b1-4b9b-a102-3b4e4c3a83ba","ios":"levelo://app?vid=de15f00a-25b1-4b9b-a102-3b4e4c3a83ba"},"vehicle_type_id":"4","last_reported":1731143285,"current_range_meters":32000,"station_id":"ce4bgjp2rcd13ifvqbh0","pricing_plan_id":"cebpf4jnsgd1na2vs0mg"},{"bike_id":"2d57f628-619f-420a-b65c-8f44a7ace640","system_id":"levelo_inurba_marseille","lat":43.28417,"lon":5.37523,"is_reserved":false,"is_disabled":false,"rental_uris":{"android":"levelo://app?vid=2d57f628-619f-420a-b65c-8f44a7ace640","ios":"levelo://app?vid=2d57f628-619f-420a-b65c-8f44a7ace640"},"vehicle_type_id":"4","last_reported":1731143285,"current_range_meters":31200,"station_id":"ce4bh412rcd13ifvqds0","pricing_plan_id":"cebpf4jnsgd1na2vs0mg"},{"bike_id":"4cd24ee8-666e-4ce7-8f48-946488c6487e","system_id":"levelo_inurba_marseille","lat":43.23182,"lon":5.3998,"is_reserved":false,"is_disabled":false,"rental_uris":{"android":"levelo://app?vid=4cd24ee8-666e-4ce7-8f48-946488c6487e","ios":"levelo://app?vid=4cd24ee8-666e-4ce7-8f48-946488c6487e"},"vehicle_type_id":"4","last_reported":1731143285,"current_range_meters":38000,"station_id":"ce4bhn12rcd13ifvqgqg","pricing_plan_id":"cebpf4jnsgd1na2vs0mg"},{"bike_id":"1f7ea6ab-6e3d-4109-9c83-36eadc7f2aeb","system_id":"levelo_inurba_marseille","lat":43.31324,"lon":5.3969,"is_reserved":false,"is_disabled":false,"rental_uris":{"android":"levelo://app?vid=1f7ea6ab-6e3d-4109-9c83-36eadc7f2aeb","ios":"levelo://app?vid=1f7ea6ab-6e3d-4109-9c83-36eadc7f2aeb"},"vehicle_type_id":"4","last_reported":1731143285,"current_range_meters":38800,"station_id":"ce4bgvp2rcd13ifvqcu0","pricing_plan_id":"cebpf4jnsgd1na2vs0mg"},{"bike_id":"b1bc1677-b693-40dc-b738-495775d43df4","system_id":"levelo_inurba_marseille","lat":43.30438,"lon":5.38896,"is_reserved":false,"is_disabled":false,"rental_uris":{"android":"levelo://app?vid=b1bc1677-b693-40dc-b738-495775d43df4","ios":"levelo://app?vid=b1bc1677-b693-40dc-b738-495775d43df4"},"vehicle_type_id":"4","last_reported":1731143285,"current_range_meters":8400,"station_id":"ce4bgk12rcd13ifvqbi0","pricing_plan_id":"cebpf4jnsgd1na2vs0mg"},{"bike_id":"d8e526d2-cabd-4260-b3f3-381a19f33459","system_id":"levelo_inurba_marseille","lat":43.30885,"lon":5.39635,"is_reserved":false,"is_disabled":false,"rental_uris":{"android":"levelo://app?vid=d8e526d2-cabd-4260-b3f3-381a19f33459","ios":"levelo://app?vid=d8e526d2-cabd-4260-b3f3-381a19f33459"},"vehicle_type_id":"4","last_reported":1731143285,"current_range_meters":7200,"station_id":"ce4bh012rcd13ifvqcv0","pricing_plan_id":"cebpf4jnsgd1na2vs0mg"},{"bike_id":"b4de7b9a-6515-49e3-b4f0-3d8149400129","system_id":"levelo_inurba_marseille","lat":43.30161,"lon":5.38081,"is_reserved":false,"is_disabled":false,"rental_uris":{"android":"levelo://app?vid=b4de7b9a-6515-49e3-b4f0-3d8149400129","ios":"levelo://app?vid=b4de7b9a-6515-49e3-b4f0-3d8149400129"},"vehicle_type_id":"4","last_reported":1731143285,"current_range_meters":36800,"station_id":"ce4bgjp2rcd13ifvqbh0","pricing_plan_id":"cebpf4jnsgd1na2vs0mg"},{"bike_id":"59d879dd-0163-48d4-8f0d-0b770ab91e67","system_id":"levelo_inurba_marseille","lat":43.27566,"lon":5.3842,"is_reserved":false,"is_disabled":false,"rental_uris":{"android":"levelo://app?vid=59d879dd-0163-48d4-8f0d-0b770ab91e67","ios":"levelo://app?vid=59d879dd-0163-48d4-8f0d-0b770ab91e67"},"vehicle_type_id":"4","last_reported":1731143285,"current_range_meters":38800,"station_id":"ce4bhh92rcd13ifvqfi0","pricing_plan_id":"cebpf4jnsgd1na2vs0mg"},{"bike_id":"eccb9bf1-4a0c-4df5-8229-bf46f21c4329","system_id":"levelo_inurba_marseille","lat":43.31714,"lon":5.42409,"is_reserved":false,"is_disabled":false,"rental_uris":{"android":"levelo://app?vid=eccb9bf1-4a0c-4df5-8229-bf46f21c4329","ios":"levelo://app?vid=eccb9bf1-4a0c-4df5-8229-bf46f21c4329"},"vehicle_type_id":"4","last_reported":1731143285,"current_range_meters":34000,"station_id":"ce4bhp92rcd13ifvqhbg","pricing_plan_id":"cebpf4jnsgd1na2vs0mg"},{"bike_id":"ef288286-229d-4b9a-a189-8d61840dcffb","system_id":"levelo_inurba_marseille","lat":43.23192,"lon":5.35557,"is_reserved":false,"is_disabled":false,"rental_uris":{"android":"levelo://app?vid=ef288286-229d-4b9a-a189-8d61840dcffb","ios":"levelo://app?vid=ef288286-229d-4b9a-a189-8d61840dcffb"},"vehicle_type_id":"4","last_reported":1731143285,"current_range_meters":35200,"station_id":"ce4bhu92rcd13ifvqi70","pricing_plan_id":"cebpf4jnsgd1na2vs0mg"},{"bike_id":"ebd7b19a-e8be-49b8-903b-3cf737ef25b6","system_id":"levelo_inurba_marseille","lat":43.29795,"lon":5.38108,"is_reserved":false,"is_disabled":false,"rental_uris":{"android":"levelo://app?vid=ebd7b19a-e8be-49b8-903b-3cf737ef25b6","ios":"levelo://app?vid=ebd7b19a-e8be-49b8-903b-3cf737ef25b6"},"vehicle_type_id":"4","last_reported":1731143285,"current_range_meters":34000,"station_id":"ce4bgip2rcd13ifvqbb0","pricing_plan_id":"cebpf4jnsgd1na2vs0mg"},{"bike_id":"c6c18437-3d27-488b-bfaf-aa32f328b483","system_id":"levelo_inurba_marseille","lat":43.33612,"lon":5.41025,"is_reserved":false,"is_disabled":false,"rental_uris":{"android":"levelo://app?vid=c6c18437-3d27-488b-bfaf-aa32f328b483","ios":"levelo://app?vid=c6c18437-3d27-488b-bfaf-aa32f328b483"},"vehicle_type_id":"4","last_reported":1731143285,"current_range_meters":10800,"station_id":"ce4bhqh2rcd13ifvqhmg","pricing_plan_id":"cebpf4jnsgd1na2vs0mg"},{"bike_id":"9ff3a2bc-2d09-4f82-92c7-15589532de81","system_id":"levelo_inurba_marseille","lat":43.33608,"lon":5.41024,"is_reserved":false,"is_disabled":false,"rental_uris":{"android":"levelo://app?vid=9ff3a2bc-2d09-4f82-92c7-15589532de81","ios":"levelo://app?vid=9ff3a2bc-2d09-4f82-92c7-15589532de81"},"vehicle_type_id":"4","last_reported":1731143285,"current_range_meters":16800,"station_id":"ce4bhqh2rcd13ifvqhmg","pricing_plan_id":"cebpf4jnsgd1na2vs0mg"},{"bike_id":"43dbcf2e-3b20-4e0f-ac09-64b0f1ef49b7","system_id":"levelo_inurba_marseille","lat":43.25725,"lon":5.41107,"is_reserved":false,"is_disabled":false,"rental_uris":{"android":"levelo://app?vid=43dbcf2e-3b20-4e0f-ac09-64b0f1ef49b7","ios":"levelo://app?vid=43dbcf2e-3b20-4e0f-ac09-64b0f1ef49b7"},"vehicle_type_id":"4","last_reported":1731143285,"current_range_meters":38800,"station_id":"ce4bhkp2rcd13ifvqgd0","pricing_plan_id":"cebpf4jnsgd1na2vs0mg"},{"bike_id":"3ed67fa7-7588-4d15-a08c-0c6e59a87c16","system_id":"levelo_inurba_marseille","lat":43.27322,"lon":5.39081,"is_reserved":false,"is_disabled":false,"rental_uris":{"android":"levelo://app?vid=3ed67fa7-7588-4d15-a08c-0c6e59a87c16","ios":"levelo://app?vid=3ed67fa7-7588-4d15-a08c-0c6e59a87c16"},"vehicle_type_id":"4","last_reported":1731143285,"current_range_meters":27600,"station_id":"ce4bhgp2rcd13ifvqfe0","pricing_plan_id":"cebpf4jnsgd1na2vs0mg"},{"bike_id":"10ee6f64-d75c-4e2f-8ed0-6ee62c2a4643","system_id":"levelo_inurba_marseille","lat":43.24647,"lon":5.38894,"is_reserved":false,"is_disabled":false,"rental_uris":{"android":"levelo://app?vid=10ee6f64-d75c-4e2f-8ed0-6ee62c2a4643","ios":"levelo://app?vid=10ee6f64-d75c-4e2f-8ed0-6ee62c2a4643"},"vehicle_type_id":"4","last_reported":1731143285,"current_range_meters":16400,"station_id":"ce4bhg12rcd13ifvqf60","pricing_plan_id":"cebpf4jnsgd1na2vs0mg"},{"bike_id":"0fb17a0d-1eff-4815-9b24-0c4f14a07872","system_id":"levelo_inurba_marseille","lat":43.304199,"lon":5.412686,"is_reserved":false,"is_disabled":false,"rental_uris":{"android":"levelo://app?vid=0fb17a0d-1eff-4815-9b24-0c4f14a07872","ios":"levelo://app?vid=0fb17a0d-1eff-4815-9b24-0c4f14a07872"},"vehicle_type_id":"4","last_reported":1731143285,"current_range_meters":29600,"station_id":"ce4bhop2rcd13ifvqh8g","pricing_plan_id":"cebpf4jnsgd1na2vs0mg"},{"bike_id":"6febd133-8d4e-4a4f-8f7b-f6bfa5024926","system_id":"levelo_inurba_marseille","lat":43.31266,"lon":5.40169,"is_reserved":false,"is_disabled":false,"rental_uris":{"android":"levelo://app?vid=6febd133-8d4e-4a4f-8f7b-f6bfa5024926","ios":"levelo://app?vid=6febd133-8d4e-4a4f-8f7b-f6bfa5024926"},"vehicle_type_id":"4","last_reported":1731143285,"current_range_meters":37600,"station_id":"ce4bh092rcd13ifvqd30","pricing_plan_id":"cebpf4jnsgd1na2vs0mg"},{"bike_id":"9ae20148-7f84-4ca9-881f-f3cdc365c4d8","system_id":"levelo_inurba_marseille","lat":43.28121,"lon":5.37853,"is_reserved":false,"is_disabled":false,"rental_uris":{"android":"levelo://app?vid=9ae20148-7f84-4ca9-881f-f3cdc365c4d8","ios":"levelo://app?vid=9ae20148-7f84-4ca9-881f-f3cdc365c4d8"},"vehicle_type_id":"4","last_reported":1731143285,"current_range_meters":30800,"station_id":"ce4bha12rcd13ifvqee0","pricing_plan_id":"cebpf4jnsgd1na2vs0mg"},{"bike_id":"ac963c09-022d-4dbd-82ec-d4fdab6c93b8","system_id":"levelo_inurba_marseille","lat":43.30928,"lon":5.40139,"is_reserved":false,"is_disabled":false,"rental_uris":{"android":"levelo://app?vid=ac963c09-022d-4dbd-82ec-d4fdab6c93b8","ios":"levelo://app?vid=ac963c09-022d-4dbd-82ec-d4fdab6c93b8"},"vehicle_type_id":"4","last_reported":1731143285,"current_range_meters":38400,"station_id":"ce4bgvp2rcd13ifvqct0","pricing_plan_id":"cebpf4jnsgd1na2vs0mg"},{"bike_id":"0e022cff-a224-4e66-addf-f1990d01723e","system_id":"levelo_inurba_marseille","lat":43.299673,"lon":5.384921,"is_reserved":false,"is_disabled":false,"rental_uris":{"android":"levelo://app?vid=0e022cff-a224-4e66-addf-f1990d01723e","ios":"levelo://app?vid=0e022cff-a224-4e66-addf-f1990d01723e"},"vehicle_type_id":"4","last_reported":1731143285,"current_range_meters":32000,"station_id":"ce4bhh12rcd13ifvqfg0","pricing_plan_id":"cebpf4jnsgd1na2vs0mg"},{"bike_id":"9b944a41-2364-420b-b3ec-4e92ede26325","system_id":"levelo_inurba_marseille","lat":43.30796,"lon":5.43523,"is_reserved":false,"is_disabled":false,"rental_uris":{"android":"levelo://app?vid=9b944a41-2364-420b-b3ec-4e92ede26325","ios":"levelo://app?vid=9b944a41-2364-420b-b3ec-4e92ede26325"},"vehicle_type_id":"4","last_reported":1731143285,"current_range_meters":9600,"station_id":"ce4bhph2rcd13ifvqheg","pricing_plan_id":"cebpf4jnsgd1na2vs0mg"},{"bike_id":"9eb41252-f7bf-41c1-a79a-bb1b2514dcce","system_id":"levelo_inurba_marseille","lat":43.29166,"lon":5.3715,"is_reserved":false,"is_disabled":false,"rental_uris":{"android":"levelo://app?vid=9eb41252-f7bf-41c1-a79a-bb1b2514dcce","ios":"levelo://app?vid=9eb41252-f7bf-41c1-a79a-bb1b2514dcce"},"vehicle_type_id":"4","last_reported":1731143285,"current_range_meters":30400,"station_id":"ce4bha92rcd13ifvqeh0","pricing_plan_id":"cebpf4jnsgd1na2vs0mg"},{"bike_id":"e049408d-1c76-4a97-aa49-8f6421d3504f","system_id":"levelo_inurba_marseille","lat":43.29573,"lon":5.36742,"is_reserved":false,"is_disabled":false,"rental_uris":{"android":"levelo://app?vid=e049408d-1c76-4a97-aa49-8f6421d3504f","ios":"levelo://app?vid=e049408d-1c76-4a97-aa49-8f6421d3504f"},"vehicle_type_id":"4","last_reported":1731143285,"current_range_meters":38400,"station_id":"ce4bgph2rcd13ifvqc2g","pricing_plan_id":"cebpf4jnsgd1na2vs0mg"},{"bike_id":"0dab8b70-3e35-4d1b-b99e-e8eb1cde9391","system_id":"levelo_inurba_marseille","lat":43.31711,"lon":5.43709,"is_reserved":false,"is_disabled":false,"rental_uris":{"android":"levelo://app?vid=0dab8b70-3e35-4d1b-b99e-e8eb1cde9391","ios":"levelo://app?vid=0dab8b70-3e35-4d1b-b99e-e8eb1cde9391"},"vehicle_type_id":"4","last_reported":1731143285,"current_range_meters":29600,"station_id":"ce4bhp92rcd13ifvqhcg","pricing_plan_id":"cebpf4jnsgd1na2vs0mg"},{"bike_id":"0b14bee4-7578-4f58-b62a-fb5a9ff9218a","system_id":"levelo_inurba_marseille","lat":43.26211,"lon":5.3744,"is_reserved":false,"is_disabled":false,"rental_uris":{"android":"levelo://app?vid=0b14bee4-7578-4f58-b62a-fb5a9ff9218a","ios":"levelo://app?vid=0b14bee4-7578-4f58-b62a-fb5a9ff9218a"},"vehicle_type_id":"4","last_reported":1731143285,"current_range_meters":16000,"station_id":"ce4bhgp2rcd13ifvqfc0","pricing_plan_id":"cebpf4jnsgd1na2vs0mg"},{"bike_id":"ee78e0cf-a8f9-42b5-af59-d1cea871561b","system_id":"levelo_inurba_marseille","lat":43.2315,"lon":5.4372,"is_reserved":false,"is_disabled":false,"rental_uris":{"android":"levelo://app?vid=ee78e0cf-a8f9-42b5-af59-d1cea871561b","ios":"levelo://app?vid=ee78e0cf-a8f9-42b5-af59-d1cea871561b"},"vehicle_type_id":"4","last_reported":1731143285,"current_range_meters":14400,"station_id":"ce4bhmp2rcd13ifvqgog","pricing_plan_id":"cebpf4jnsgd1na2vs0mg"},{"bike_id":"053f91b0-938e-4d7a-af0d-d951c7385ef7","system_id":"levelo_inurba_marseille","lat":43.337444,"lon":5.374475,"is_reserved":false,"is_disabled":false,"rental_uris":{"android":"levelo://app?vid=053f91b0-938e-4d7a-af0d-d951c7385ef7","ios":"levelo://app?vid=053f91b0-938e-4d7a-af0d-d951c7385ef7"},"vehicle_type_id":"4","last_reported":1731143285,"current_range_meters":11200,"station_id":"","pricing_plan_id":"cebpf4jnsgd1na2vs0mg"},{"bike_id":"cd87b973-318e-4d77-bb59-125d39101cbb","system_id":"levelo_inurba_marseille","lat":43.32058,"lon":5.41554,"is_reserved":false,"is_disabled":false,"rental_uris":{"android":"levelo://app?vid=cd87b973-318e-4d77-bb59-125d39101cbb","ios":"levelo://app?vid=cd87b973-318e-4d77-bb59-125d39101cbb"},"vehicle_type_id":"4","last_reported":1731143285,"current_range_meters":8000,"station_id":"ce4bhq92rcd13ifvqhkg","pricing_plan_id":"cebpf4jnsgd1na2vs0mg"},{"bike_id":"219f0ebc-ae04-44b4-9f81-81fcff2c0f34","system_id":"levelo_inurba_marseille","lat":43.31124,"lon":5.3776,"is_reserved":false,"is_disabled":false,"rental_uris":{"android":"levelo://app?vid=219f0ebc-ae04-44b4-9f81-81fcff2c0f34","ios":"levelo://app?vid=219f0ebc-ae04-44b4-9f81-81fcff2c0f34"},"vehicle_type_id":"4","last_reported":1731143285,"current_range_meters":33600,"station_id":"ce4bgt92rcd13ifvqcg0","pricing_plan_id":"cebpf4jnsgd1na2vs0mg"},{"bike_id":"4de16669-81af-4d13-ab5a-fb82eb47fa93","system_id":"levelo_inurba_marseille","lat":43.30796,"lon":5.38154,"is_reserved":false,"is_disabled":false,"rental_uris":{"android":"levelo://app?vid=4de16669-81af-4d13-ab5a-fb82eb47fa93","ios":"levelo://app?vid=4de16669-81af-4d13-ab5a-fb82eb47fa93"},"vehicle_type_id":"4","last_reported":1731143285,"current_range_meters":30000,"station_id":"ce4bgt12rcd13ifvqce0","pricing_plan_id":"cebpf4jnsgd1na2vs0mg"},{"bike_id":"6463664d-8d71-4282-8618-f2c0c195f781","system_id":"levelo_inurba_marseille","lat":43.301484,"lon":5.380791,"is_reserved":false,"is_disabled":false,"rental_uris":{"android":"levelo://app?vid=6463664d-8d71-4282-8618-f2c0c195f781","ios":"levelo://app?vid=6463664d-8d71-4282-8618-f2c0c195f781"},"vehicle_type_id":"4","last_reported":1731143285,"current_range_meters":28400,"station_id":"ce4bgjp2rcd13ifvqbh0","pricing_plan_id":"cebpf4jnsgd1na2vs0mg"},{"bike_id":"259d060e-6ea9-4ddc-8ca6-e703f05c7146","system_id":"levelo_inurba_marseille","lat":43.29591,"lon":5.38109,"is_reserved":false,"is_disabled":false,"rental_uris":{"android":"levelo://app?vid=259d060e-6ea9-4ddc-8ca6-e703f05c7146","ios":"levelo://app?vid=259d060e-6ea9-4ddc-8ca6-e703f05c7146"},"vehicle_type_id":"4","last_reported":1731143285,"current_range_meters":30000,"station_id":"ce4bgl12rcd13ifvqbo0","pricing_plan_id":"cebpf4jnsgd1na2vs0mg"},{"bike_id":"78ab0d0b-259f-45ed-a87d-1097f0dc6754","system_id":"levelo_inurba_marseille","lat":43.29531,"lon":5.38552,"is_reserved":false,"is_disabled":false,"rental_uris":{"android":"levelo://app?vid=78ab0d0b-259f-45ed-a87d-1097f0dc6754","ios":"levelo://app?vid=78ab0d0b-259f-45ed-a87d-1097f0dc6754"},"vehicle_type_id":"4","last_reported":1731143285,"current_range_meters":26800,"station_id":"ce4bgih2rcd13ifvqba0","pricing_plan_id":"cebpf4jnsgd1na2vs0mg"},{"bike_id":"3424df2c-a0ae-4e23-b518-86ea552de7c2","system_id":"levelo_inurba_marseille","lat":43.29227,"lon":5.36058,"is_reserved":false,"is_disabled":false,"rental_uris":{"android":"levelo://app?vid=3424df2c-a0ae-4e23-b518-86ea552de7c2","ios":"levelo://app?vid=3424df2c-a0ae-4e23-b518-86ea552de7c2"},"vehicle_type_id":"4","last_reported":1731143285,"current_range_meters":36000,"station_id":"ce4bhbh2rcd13ifvqeqg","pricing_plan_id":"cebpf4jnsgd1na2vs0mg"},{"bike_id":"dfc67ac7-9387-4820-b66e-b8902a1237d7","system_id":"levelo_inurba_marseille","lat":43.29575,"lon":5.36739,"is_reserved":false,"is_disabled":false,"rental_uris":{"android":"levelo://app?vid=dfc67ac7-9387-4820-b66e-b8902a1237d7","ios":"levelo://app?vid=dfc67ac7-9387-4820-b66e-b8902a1237d7"},"vehicle_type_id":"4","last_reported":1731143285,"current_range_meters":38400,"station_id":"ce4bgph2rcd13ifvqc2g","pricing_plan_id":"cebpf4jnsgd1na2vs0mg"},{"bike_id":"ba4e9b3f-2a8e-4431-b57f-f6a1ee8edd37","system_id":"levelo_inurba_marseille","lat":43.30154,"lon":5.38085,"is_reserved":false,"is_disabled":false,"rental_uris":{"android":"levelo://app?vid=ba4e9b3f-2a8e-4431-b57f-f6a1ee8edd37","ios":"levelo://app?vid=ba4e9b3f-2a8e-4431-b57f-f6a1ee8edd37"},"vehicle_type_id":"4","last_reported":1731143285,"current_range_meters":21600,"station_id":"ce4bgjp2rcd13ifvqbh0","pricing_plan_id":"cebpf4jnsgd1na2vs0mg"},{"bike_id":"eb8ae82e-b5af-4e43-8b69-b135e11d1ed6","system_id":"levelo_inurba_marseille","lat":43.29903,"lon":5.43668,"is_reserved":false,"is_disabled":false,"rental_uris":{"android":"levelo://app?vid=eb8ae82e-b5af-4e43-8b69-b135e11d1ed6","ios":"levelo://app?vid=eb8ae82e-b5af-4e43-8b69-b135e11d1ed6"},"vehicle_type_id":"4","last_reported":1731143285,"current_range_meters":8400,"station_id":"ce4bhpp2rcd13ifvqhfg","pricing_plan_id":"cebpf4jnsgd1na2vs0mg"},{"bike_id":"f309413c-3f28-4ac9-8c6c-fbfe2eef554f","system_id":"levelo_inurba_marseille","lat":43.28935,"lon":5.39632,"is_reserved":false,"is_disabled":false,"rental_uris":{"android":"levelo://app?vid=f309413c-3f28-4ac9-8c6c-fbfe2eef554f","ios":"levelo://app?vid=f309413c-3f28-4ac9-8c6c-fbfe2eef554f"},"vehicle_type_id":"4","last_reported":1731143285,"current_range_meters":19200,"station_id":"ce4bh3h2rcd13ifvqdn0","pricing_plan_id":"cebpf4jnsgd1na2vs0mg"},{"bike_id":"cece8816-91de-4405-9371-7c568f2fb2d7","system_id":"levelo_inurba_marseille","lat":43.31492,"lon":5.37302,"is_reserved":false,"is_disabled":false,"rental_uris":{"android":"levelo://app?vid=cece8816-91de-4405-9371-7c568f2fb2d7","ios":"levelo://app?vid=cece8816-91de-4405-9371-7c568f2fb2d7"},"vehicle_type_id":"4","last_reported":1731143285,"current_range_meters":36400,"station_id":"ce4bgt12rcd13ifvqcd0","pricing_plan_id":"cebpf4jnsgd1na2vs0mg"},{"bike_id":"14550dfa-1b8e-4002-96d8-2eb3bb949d6f","system_id":"levelo_inurba_marseille","lat":43.27214,"lon":5.39184,"is_reserved":false,"is_disabled":false,"rental_uris":{"android":"levelo://app?vid=14550dfa-1b8e-4002-96d8-2eb3bb949d6f","ios":"levelo://app?vid=14550dfa-1b8e-4002-96d8-2eb3bb949d6f"},"vehicle_type_id":"4","last_reported":1731143285,"current_range_meters":6000,"station_id":"ce4bhhp2rcd13ifvqfm0","pricing_plan_id":"cebpf4jnsgd1na2vs0mg"},{"bike_id":"d6fdae69-642e-4d84-a8fd-edeb75ed0ef4","system_id":"levelo_inurba_marseille","lat":43.22932,"lon":5.35376,"is_reserved":false,"is_disabled":false,"rental_uris":{"android":"levelo://app?vid=d6fdae69-642e-4d84-a8fd-edeb75ed0ef4","ios":"levelo://app?vid=d6fdae69-642e-4d84-a8fd-edeb75ed0ef4"},"vehicle_type_id":"4","last_reported":1731143285,"current_range_meters":38800,"station_id":"cpo3532slgdg3j2ikp40","pricing_plan_id":"cebpf4jnsgd1na2vs0mg"},{"bike_id":"5cc66348-f056-4771-be0a-d998fca017be","system_id":"levelo_inurba_marseille","lat":43.25083,"lon":5.39521,"is_reserved":false,"is_disabled":false,"rental_uris":{"android":"levelo://app?vid=5cc66348-f056-4771-be0a-d998fca017be","ios":"levelo://app?vid=5cc66348-f056-4771-be0a-d998fca017be"},"vehicle_type_id":"4","last_reported":1731143285,"current_range_meters":19600,"station_id":"ce4bhm12rcd13ifvqgkg","pricing_plan_id":"cebpf4jnsgd1na2vs0mg"},{"bike_id":"fa6a0987-224a-4bc2-940a-f29ee1722da6","system_id":"levelo_inurba_marseille","lat":43.28613,"lon":5.35102,"is_reserved":false,"is_disabled":false,"rental_uris":{"android":"levelo://app?vid=fa6a0987-224a-4bc2-940a-f29ee1722da6","ios":"levelo://app?vid=fa6a0987-224a-4bc2-940a-f29ee1722da6"},"vehicle_type_id":"4","last_reported":1731143285,"current_range_meters":38800,"station_id":"ce4bhch2rcd13ifvqeug","pricing_plan_id":"cebpf4jnsgd1na2vs0mg"},{"bike_id":"150d8ee1-09b9-4a9d-a8e7-427c8e3ef625","system_id":"levelo_inurba_marseille","lat":43.28421,"lon":5.34993,"is_reserved":false,"is_disabled":false,"rental_uris":{"android":"levelo://app?vid=150d8ee1-09b9-4a9d-a8e7-427c8e3ef625","ios":"levelo://app?vid=150d8ee1-09b9-4a9d-a8e7-427c8e3ef625"},"vehicle_type_id":"4","last_reported":1731143285,"current_range_meters":38800,"station_id":"ce4bhbh2rcd13ifvqepg","pricing_plan_id":"cebpf4jnsgd1na2vs0mg"},{"bike_id":"47067093-d6be-4a71-93df-2ea3d63da1f8","system_id":"levelo_inurba_marseille","lat":43.337444,"lon":5.374475,"is_reserved":false,"is_disabled":false,"rental_uris":{"android":"levelo://app?vid=47067093-d6be-4a71-93df-2ea3d63da1f8","ios":"levelo://app?vid=47067093-d6be-4a71-93df-2ea3d63da1f8"},"vehicle_type_id":"4","last_reported":1731143285,"current_range_meters":34000,"station_id":"ce4bha12rcd13ifvqee0","pricing_plan_id":"cebpf4jnsgd1na2vs0mg"},{"bike_id":"63d1310c-b035-4676-9c77-8b6c7de0cc29","system_id":"levelo_inurba_marseille","lat":43.29798,"lon":5.38099,"is_reserved":false,"is_disabled":false,"rental_uris":{"android":"levelo://app?vid=63d1310c-b035-4676-9c77-8b6c7de0cc29","ios":"levelo://app?vid=63d1310c-b035-4676-9c77-8b6c7de0cc29"},"vehicle_type_id":"4","last_reported":1731143285,"current_range_meters":16800,"station_id":"ce4bgip2rcd13ifvqbb0","pricing_plan_id":"cebpf4jnsgd1na2vs0mg"},{"bike_id":"e99d247a-1ce0-4c71-944b-d68cc3c2ab92","system_id":"levelo_inurba_marseille","lat":43.30649,"lon":5.40081,"is_reserved":false,"is_disabled":false,"rental_uris":{"android":"levelo://app?vid=e99d247a-1ce0-4c71-944b-d68cc3c2ab92","ios":"levelo://app?vid=e99d247a-1ce0-4c71-944b-d68cc3c2ab92"},"vehicle_type_id":"4","last_reported":1731143285,"current_range_meters":38800,"station_id":"ce4bh112rcd13ifvqda0","pricing_plan_id":"cebpf4jnsgd1na2vs0mg"},{"bike_id":"c91d9995-4636-43b5-8794-af1993a95256","system_id":"levelo_inurba_marseille","lat":43.33716,"lon":5.39177,"is_reserved":false,"is_disabled":false,"rental_uris":{"android":"levelo://app?vid=c91d9995-4636-43b5-8794-af1993a95256","ios":"levelo://app?vid=c91d9995-4636-43b5-8794-af1993a95256"},"vehicle_type_id":"4","last_reported":1731143285,"current_range_meters":36000,"station_id":"ce4bhr92rcd13ifvqhsg","pricing_plan_id":"cebpf4jnsgd1na2vs0mg"},{"bike_id":"448d3bf9-78cb-439a-a23b-0e48f1b89013","system_id":"levelo_inurba_marseille","lat":43.32382,"lon":5.38876,"is_reserved":false,"is_disabled":false,"rental_uris":{"android":"levelo://app?vid=448d3bf9-78cb-439a-a23b-0e48f1b89013","ios":"levelo://app?vid=448d3bf9-78cb-439a-a23b-0e48f1b89013"},"vehicle_type_id":"4","last_reported":1731143285,"current_range_meters":12400,"station_id":"ce4bhqp2rcd13ifvqhog","pricing_plan_id":"cebpf4jnsgd1na2vs0mg"},{"bike_id":"08c87c74-8ce5-4912-ab68-fb06a199a47b","system_id":"levelo_inurba_marseille","lat":43.23181,"lon":5.39986,"is_reserved":false,"is_disabled":false,"rental_uris":{"android":"levelo://app?vid=08c87c74-8ce5-4912-ab68-fb06a199a47b","ios":"levelo://app?vid=08c87c74-8ce5-4912-ab68-fb06a199a47b"},"vehicle_type_id":"4","last_reported":1731143285,"current_range_meters":38800,"station_id":"ce4bhn12rcd13ifvqgqg","pricing_plan_id":"cebpf4jnsgd1na2vs0mg"},{"bike_id":"39ce4d88-5353-46e1-923f-2570c550e620","system_id":"levelo_inurba_marseille","lat":43.30429,"lon":5.38886,"is_reserved":false,"is_disabled":false,"rental_uris":{"android":"levelo://app?vid=39ce4d88-5353-46e1-923f-2570c550e620","ios":"levelo://app?vid=39ce4d88-5353-46e1-923f-2570c550e620"},"vehicle_type_id":"4","last_reported":1731143285,"current_range_meters":16000,"station_id":"ce4bgk12rcd13ifvqbi0","pricing_plan_id":"cebpf4jnsgd1na2vs0mg"},{"bike_id":"1dfd26b6-6ae9-4d29-8c2c-fd7385bb843a","system_id":"levelo_inurba_marseille","lat":43.30645,"lon":5.40081,"is_reserved":false,"is_disabled":false,"rental_uris":{"android":"levelo://app?vid=1dfd26b6-6ae9-4d29-8c2c-fd7385bb843a","ios":"levelo://app?vid=1dfd26b6-6ae9-4d29-8c2c-fd7385bb843a"},"vehicle_type_id":"4","last_reported":1731143285,"current_range_meters":36400,"station_id":"ce4bh112rcd13ifvqda0","pricing_plan_id":"cebpf4jnsgd1na2vs0mg"},{"bike_id":"86918893-7b61-4456-a078-616a0cf0707e","system_id":"levelo_inurba_marseille","lat":43.31881,"lon":5.4074,"is_reserved":false,"is_disabled":false,"rental_uris":{"android":"levelo://app?vid=86918893-7b61-4456-a078-616a0cf0707e","ios":"levelo://app?vid=86918893-7b61-4456-a078-616a0cf0707e"},"vehicle_type_id":"4","last_reported":1731143285,"current_range_meters":28000,"station_id":"ce4bhq12rcd13ifvqhig","pricing_plan_id":"cebpf4jnsgd1na2vs0mg"},{"bike_id":"d4e2615a-83f7-44f4-94b2-ee4cf6b17fb3","system_id":"levelo_inurba_marseille","lat":43.25093,"lon":5.39521,"is_reserved":false,"is_disabled":false,"rental_uris":{"android":"levelo://app?vid=d4e2615a-83f7-44f4-94b2-ee4cf6b17fb3","ios":"levelo://app?vid=d4e2615a-83f7-44f4-94b2-ee4cf6b17fb3"},"vehicle_type_id":"4","last_reported":1731143285,"current_range_meters":19200,"station_id":"ce4bhm12rcd13ifvqgkg","pricing_plan_id":"cebpf4jnsgd1na2vs0mg"},{"bike_id":"e103be28-a2f8-4a89-8436-b4d164c2df27","system_id":"levelo_inurba_marseille","lat":43.29688,"lon":5.3729,"is_reserved":false,"is_disabled":false,"rental_uris":{"android":"levelo://app?vid=e103be28-a2f8-4a89-8436-b4d164c2df27","ios":"levelo://app?vid=e103be28-a2f8-4a89-8436-b4d164c2df27"},"vehicle_type_id":"4","last_reported":1731143285,"current_range_meters":37600,"station_id":"ce4bgk12rcd13ifvqbj0","pricing_plan_id":"cebpf4jnsgd1na2vs0mg"},{"bike_id":"1e3dea22-7fac-4f4b-b600-c929631fbbdf","system_id":"levelo_inurba_marseille","lat":43.31712,"lon":5.42402,"is_reserved":false,"is_disabled":false,"rental_uris":{"android":"levelo://app?vid=1e3dea22-7fac-4f4b-b600-c929631fbbdf","ios":"levelo://app?vid=1e3dea22-7fac-4f4b-b600-c929631fbbdf"},"vehicle_type_id":"4","last_reported":1731143285,"current_range_meters":38400,"station_id":"ce4bhp92rcd13ifvqhbg","pricing_plan_id":"cebpf4jnsgd1na2vs0mg"},{"bike_id":"36e0b256-1c79-41c6-a447-546075a3b7d4","system_id":"levelo_inurba_marseille","lat":43.30416,"lon":5.38886,"is_reserved":false,"is_disabled":false,"rental_uris":{"android":"levelo://app?vid=36e0b256-1c79-41c6-a447-546075a3b7d4","ios":"levelo://app?vid=36e0b256-1c79-41c6-a447-546075a3b7d4"},"vehicle_type_id":"4","last_reported":1731143285,"current_range_meters":12800,"station_id":"ce4bgk12rcd13ifvqbi0","pricing_plan_id":"cebpf4jnsgd1na2vs0mg"},{"bike_id":"66a051f1-43a0-4336-8eb5-2e7e0f80b7e4","system_id":"levelo_inurba_marseille","lat":43.3028,"lon":5.37695,"is_reserved":false,"is_disabled":false,"rental_uris":{"android":"levelo://app?vid=66a051f1-43a0-4336-8eb5-2e7e0f80b7e4","ios":"levelo://app?vid=66a051f1-43a0-4336-8eb5-2e7e0f80b7e4"},"vehicle_type_id":"4","last_reported":1731143285,"current_range_meters":37600,"station_id":"ce4bguh2rcd13ifvqcj0","pricing_plan_id":"cebpf4jnsgd1na2vs0mg"},{"bike_id":"8864522f-df38-4b28-8ef8-dd87d89715ec","system_id":"levelo_inurba_marseille","lat":43.3042,"lon":5.39756,"is_reserved":false,"is_disabled":false,"rental_uris":{"android":"levelo://app?vid=8864522f-df38-4b28-8ef8-dd87d89715ec","ios":"levelo://app?vid=8864522f-df38-4b28-8ef8-dd87d89715ec"},"vehicle_type_id":"4","last_reported":1731143285,"current_range_meters":38800,"station_id":"ce4bh092rcd13ifvqd20","pricing_plan_id":"cebpf4jnsgd1na2vs0mg"},{"bike_id":"b67ce4e7-3768-4b59-970e-29437ae309fe","system_id":"levelo_inurba_marseille","lat":43.29012,"lon":5.35609,"is_reserved":false,"is_disabled":false,"rental_uris":{"android":"levelo://app?vid=b67ce4e7-3768-4b59-970e-29437ae309fe","ios":"levelo://app?vid=b67ce4e7-3768-4b59-970e-29437ae309fe"},"vehicle_type_id":"4","last_reported":1731143285,"current_range_meters":29600,"station_id":"ce4bhb92rcd13ifvqen0","pricing_plan_id":"cebpf4jnsgd1na2vs0mg"},{"bike_id":"085be693-2d8a-4b89-bd4e-1455ac23dae8","system_id":"levelo_inurba_marseille","lat":43.26056,"lon":5.39394,"is_reserved":false,"is_disabled":false,"rental_uris":{"android":"levelo://app?vid=085be693-2d8a-4b89-bd4e-1455ac23dae8","ios":"levelo://app?vid=085be693-2d8a-4b89-bd4e-1455ac23dae8"},"vehicle_type_id":"4","last_reported":1731143285,"current_range_meters":26800,"station_id":"ce4bhh92rcd13ifvqfj0","pricing_plan_id":"cebpf4jnsgd1na2vs0mg"},{"bike_id":"a0d9d5ae-de17-4341-bed9-edfa4e4e8139","system_id":"levelo_inurba_marseille","lat":43.30908,"lon":5.36853,"is_reserved":false,"is_disabled":false,"rental_uris":{"android":"levelo://app?vid=a0d9d5ae-de17-4341-bed9-edfa4e4e8139","ios":"levelo://app?vid=a0d9d5ae-de17-4341-bed9-edfa4e4e8139"},"vehicle_type_id":"4","last_reported":1731143285,"current_range_meters":38800,"station_id":"ce4bgn92rcd13ifvqbvg","pricing_plan_id":"cebpf4jnsgd1na2vs0mg"},{"bike_id":"e47ee85a-3307-450e-b70f-2bcfca919fa2","system_id":"levelo_inurba_marseille","lat":43.29517,"lon":5.39035,"is_reserved":false,"is_disabled":false,"rental_uris":{"android":"levelo://app?vid=e47ee85a-3307-450e-b70f-2bcfca919fa2","ios":"levelo://app?vid=e47ee85a-3307-450e-b70f-2bcfca919fa2"},"vehicle_type_id":"4","last_reported":1731143285,"current_range_meters":34800,"station_id":"ce4bh3p2rcd13ifvqdp0","pricing_plan_id":"cebpf4jnsgd1na2vs0mg"},{"bike_id":"7ee5e9c9-c9de-4184-be15-04dcbb3ea74c","system_id":"levelo_inurba_marseille","lat":43.32286,"lon":5.38276,"is_reserved":false,"is_disabled":false,"rental_uris":{"android":"levelo://app?vid=7ee5e9c9-c9de-4184-be15-04dcbb3ea74c","ios":"levelo://app?vid=7ee5e9c9-c9de-4184-be15-04dcbb3ea74c"},"vehicle_type_id":"4","last_reported":1731143285,"current_range_meters":37600,"station_id":"ce4bhr12rcd13ifvqhqg","pricing_plan_id":"cebpf4jnsgd1na2vs0mg"},{"bike_id":"764ab749-70ca-4b73-a35f-c0abe15547f3","system_id":"levelo_inurba_marseille","lat":43.3015,"lon":5.38088,"is_reserved":false,"is_disabled":false,"rental_uris":{"android":"levelo://app?vid=764ab749-70ca-4b73-a35f-c0abe15547f3","ios":"levelo://app?vid=764ab749-70ca-4b73-a35f-c0abe15547f3"},"vehicle_type_id":"4","last_reported":1731143285,"current_range_meters":36000,"station_id":"ce4bgjp2rcd13ifvqbh0","pricing_plan_id":"cebpf4jnsgd1na2vs0mg"},{"bike_id":"dd02dda1-0cf5-4e23-8f9a-88ca5953c398","system_id":"levelo_inurba_marseille","lat":43.24993,"lon":5.38934,"is_reserved":false,"is_disabled":false,"rental_uris":{"android":"levelo://app?vid=dd02dda1-0cf5-4e23-8f9a-88ca5953c398","ios":"levelo://app?vid=dd02dda1-0cf5-4e23-8f9a-88ca5953c398"},"vehicle_type_id":"4","last_reported":1731143285,"current_range_meters":14000,"station_id":"ce4bhgp2rcd13ifvqfd0","pricing_plan_id":"cebpf4jnsgd1na2vs0mg"},{"bike_id":"b31453d8-c8db-4ba3-a055-a388617b526e","system_id":"levelo_inurba_marseille","lat":43.2815,"lon":5.42652,"is_reserved":false,"is_disabled":false,"rental_uris":{"android":"levelo://app?vid=b31453d8-c8db-4ba3-a055-a388617b526e","ios":"levelo://app?vid=b31453d8-c8db-4ba3-a055-a388617b526e"},"vehicle_type_id":"4","last_reported":1731143285,"current_range_meters":30800,"station_id":"ce4bhnh2rcd13ifvqgug","pricing_plan_id":"cebpf4jnsgd1na2vs0mg"},{"bike_id":"1002a204-4bd0-4454-9dcb-80e5d00d7756","system_id":"levelo_inurba_marseille","lat":43.29292,"lon":5.37458,"is_reserved":false,"is_disabled":false,"rental_uris":{"android":"levelo://app?vid=1002a204-4bd0-4454-9dcb-80e5d00d7756","ios":"levelo://app?vid=1002a204-4bd0-4454-9dcb-80e5d00d7756"},"vehicle_type_id":"4","last_reported":1731143285,"current_range_meters":26000,"station_id":"ce4bgi12rcd13ifvqb70","pricing_plan_id":"cebpf4jnsgd1na2vs0mg"},{"bike_id":"e0352fab-c635-4c7a-87d9-f615c078509d","system_id":"levelo_inurba_marseille","lat":43.32477,"lon":5.3657,"is_reserved":false,"is_disabled":false,"rental_uris":{"android":"levelo://app?vid=e0352fab-c635-4c7a-87d9-f615c078509d","ios":"levelo://app?vid=e0352fab-c635-4c7a-87d9-f615c078509d"},"vehicle_type_id":"4","last_reported":1731143285,"current_range_meters":38800,"station_id":"ce4bhs12rcd13ifvqhvg","pricing_plan_id":"cebpf4jnsgd1na2vs0mg"},{"bike_id":"b21f10fa-78d2-4b87-a17f-2cbc5f850d63","system_id":"levelo_inurba_marseille","lat":43.29005,"lon":5.35617,"is_reserved":false,"is_disabled":false,"rental_uris":{"android":"levelo://app?vid=b21f10fa-78d2-4b87-a17f-2cbc5f850d63","ios":"levelo://app?vid=b21f10fa-78d2-4b87-a17f-2cbc5f850d63"},"vehicle_type_id":"4","last_reported":1731143285,"current_range_meters":9200,"station_id":"ce4bhb92rcd13ifvqen0","pricing_plan_id":"cebpf4jnsgd1na2vs0mg"},{"bike_id":"e927137b-b561-43dc-8682-c3e2f40d1308","system_id":"levelo_inurba_marseille","lat":43.29252,"lon":5.4091,"is_reserved":false,"is_disabled":false,"rental_uris":{"android":"levelo://app?vid=e927137b-b561-43dc-8682-c3e2f40d1308","ios":"levelo://app?vid=e927137b-b561-43dc-8682-c3e2f40d1308"},"vehicle_type_id":"4","last_reported":1731143285,"current_range_meters":9600,"station_id":"ce4bh192rcd13ifvqdc0","pricing_plan_id":"cebpf4jnsgd1na2vs0mg"},{"bike_id":"c07f4fd7-44c8-4ca9-8cdd-edc38807fe9c","system_id":"levelo_inurba_marseille","lat":43.26552,"lon":5.37287,"is_reserved":false,"is_disabled":false,"rental_uris":{"android":"levelo://app?vid=c07f4fd7-44c8-4ca9-8cdd-edc38807fe9c","ios":"levelo://app?vid=c07f4fd7-44c8-4ca9-8cdd-edc38807fe9c"},"vehicle_type_id":"4","last_reported":1731143285,"current_range_meters":20400,"station_id":"ce4bhg12rcd13ifvqf70","pricing_plan_id":"cebpf4jnsgd1na2vs0mg"},{"bike_id":"774649b8-3eb5-4e5a-bdc0-8cf43dfb86a6","system_id":"levelo_inurba_marseille","lat":43.24648,"lon":5.38903,"is_reserved":false,"is_disabled":false,"rental_uris":{"android":"levelo://app?vid=774649b8-3eb5-4e5a-bdc0-8cf43dfb86a6","ios":"levelo://app?vid=774649b8-3eb5-4e5a-bdc0-8cf43dfb86a6"},"vehicle_type_id":"4","last_reported":1731143285,"current_range_meters":28800,"station_id":"ce4bhg12rcd13ifvqf60","pricing_plan_id":"cebpf4jnsgd1na2vs0mg"},{"bike_id":"9d291c5d-07c9-471b-b1f2-df5c113ecdb3","system_id":"levelo_inurba_marseille","lat":43.30647,"lon":5.40082,"is_reserved":false,"is_disabled":false,"rental_uris":{"android":"levelo://app?vid=9d291c5d-07c9-471b-b1f2-df5c113ecdb3","ios":"levelo://app?vid=9d291c5d-07c9-471b-b1f2-df5c113ecdb3"},"vehicle_type_id":"4","last_reported":1731143285,"current_range_meters":38800,"station_id":"ce4bh112rcd13ifvqda0","pricing_plan_id":"cebpf4jnsgd1na2vs0mg"},{"bike_id":"394cea4e-c99d-4b34-b5cb-e8ce85385a5b","system_id":"levelo_inurba_marseille","lat":43.281486,"lon":5.426166,"is_reserved":false,"is_disabled":false,"rental_uris":{"android":"levelo://app?vid=394cea4e-c99d-4b34-b5cb-e8ce85385a5b","ios":"levelo://app?vid=394cea4e-c99d-4b34-b5cb-e8ce85385a5b"},"vehicle_type_id":"4","last_reported":1731143285,"current_range_meters":20800,"station_id":"ce4bhnh2rcd13ifvqgug","pricing_plan_id":"cebpf4jnsgd1na2vs0mg"},{"bike_id":"423f24cd-846e-4c0b-b8a3-e03f6dddfa96","system_id":"levelo_inurba_marseille","lat":43.28294,"lon":5.4325,"is_reserved":false,"is_disabled":false,"rental_uris":{"android":"levelo://app?vid=423f24cd-846e-4c0b-b8a3-e03f6dddfa96","ios":"levelo://app?vid=423f24cd-846e-4c0b-b8a3-e03f6dddfa96"},"vehicle_type_id":"4","last_reported":1731143285,"current_range_meters":27600,"station_id":"","pricing_plan_id":"cebpf4jnsgd1na2vs0mg"},{"bike_id":"63fcbcc5-31db-498b-8f2b-42f504840ee7","system_id":"levelo_inurba_marseille","lat":43.27205,"lon":5.39185,"is_reserved":false,"is_disabled":false,"rental_uris":{"android":"levelo://app?vid=63fcbcc5-31db-498b-8f2b-42f504840ee7","ios":"levelo://app?vid=63fcbcc5-31db-498b-8f2b-42f504840ee7"},"vehicle_type_id":"4","last_reported":1731143285,"current_range_meters":34800,"station_id":"ce4bhhp2rcd13ifvqfm0","pricing_plan_id":"cebpf4jnsgd1na2vs0mg"},{"bike_id":"5cb403b7-6bf8-4f37-a57f-47fe40c64a5e","system_id":"levelo_inurba_marseille","lat":43.29795,"lon":5.40414,"is_reserved":false,"is_disabled":false,"rental_uris":{"android":"levelo://app?vid=5cb403b7-6bf8-4f37-a57f-47fe40c64a5e","ios":"levelo://app?vid=5cb403b7-6bf8-4f37-a57f-47fe40c64a5e"},"vehicle_type_id":"4","last_reported":1731143285,"current_range_meters":38800,"station_id":"ce4bh112rcd13ifvqd90","pricing_plan_id":"cebpf4jnsgd1na2vs0mg"},{"bike_id":"6c8322f5-6dcd-4ef1-8d9e-3ef7c49f6f48","system_id":"levelo_inurba_marseille","lat":43.24071,"lon":5.37764,"is_reserved":false,"is_disabled":false,"rental_uris":{"android":"levelo://app?vid=6c8322f5-6dcd-4ef1-8d9e-3ef7c49f6f48","ios":"levelo://app?vid=6c8322f5-6dcd-4ef1-8d9e-3ef7c49f6f48"},"vehicle_type_id":"4","last_reported":1731143285,"current_range_meters":24800,"station_id":"ce4bhnp2rcd13ifvqgvg","pricing_plan_id":"cebpf4jnsgd1na2vs0mg"},{"bike_id":"58c93463-16b3-4e44-8fd7-c7fc9df9d6e9","system_id":"levelo_inurba_marseille","lat":43.31489,"lon":5.37303,"is_reserved":false,"is_disabled":false,"rental_uris":{"android":"levelo://app?vid=58c93463-16b3-4e44-8fd7-c7fc9df9d6e9","ios":"levelo://app?vid=58c93463-16b3-4e44-8fd7-c7fc9df9d6e9"},"vehicle_type_id":"4","last_reported":1731143285,"current_range_meters":36000,"station_id":"ce4bgt12rcd13ifvqcd0","pricing_plan_id":"cebpf4jnsgd1na2vs0mg"},{"bike_id":"b2cbe124-e9e9-4203-8080-c24b9a55d574","system_id":"levelo_inurba_marseille","lat":43.24076,"lon":5.37759,"is_reserved":false,"is_disabled":false,"rental_uris":{"android":"levelo://app?vid=b2cbe124-e9e9-4203-8080-c24b9a55d574","ios":"levelo://app?vid=b2cbe124-e9e9-4203-8080-c24b9a55d574"},"vehicle_type_id":"4","last_reported":1731143285,"current_range_meters":36000,"station_id":"ce4bhnp2rcd13ifvqgvg","pricing_plan_id":"cebpf4jnsgd1na2vs0mg"},{"bike_id":"4adc051b-cab2-444f-a4c6-933d4708baf0","system_id":"levelo_inurba_marseille","lat":43.31711,"lon":5.42407,"is_reserved":false,"is_disabled":false,"rental_uris":{"android":"levelo://app?vid=4adc051b-cab2-444f-a4c6-933d4708baf0","ios":"levelo://app?vid=4adc051b-cab2-444f-a4c6-933d4708baf0"},"vehicle_type_id":"4","last_reported":1731143285,"current_range_meters":9200,"station_id":"ce4bhp92rcd13ifvqhbg","pricing_plan_id":"cebpf4jnsgd1na2vs0mg"},{"bike_id":"bc14f84f-871d-4faa-a3e8-565342d8fc32","system_id":"levelo_inurba_marseille","lat":43.33607,"lon":5.41029,"is_reserved":false,"is_disabled":false,"rental_uris":{"android":"levelo://app?vid=bc14f84f-871d-4faa-a3e8-565342d8fc32","ios":"levelo://app?vid=bc14f84f-871d-4faa-a3e8-565342d8fc32"},"vehicle_type_id":"4","last_reported":1731143285,"current_range_meters":18800,"station_id":"ce4bhqh2rcd13ifvqhmg","pricing_plan_id":"cebpf4jnsgd1na2vs0mg"},{"bike_id":"a61dfdc8-8032-4e2b-8bea-d0f6a2b05b1f","system_id":"levelo_inurba_marseille","lat":43.23963,"lon":5.3663,"is_reserved":false,"is_disabled":false,"rental_uris":{"android":"levelo://app?vid=a61dfdc8-8032-4e2b-8bea-d0f6a2b05b1f","ios":"levelo://app?vid=a61dfdc8-8032-4e2b-8bea-d0f6a2b05b1f"},"vehicle_type_id":"4","last_reported":1731143285,"current_range_meters":37600,"station_id":"ce4bhi12rcd13ifvqfp0","pricing_plan_id":"cebpf4jnsgd1na2vs0mg"},{"bike_id":"dfff03f6-0dfd-4e46-9a0b-d110f80fab6d","system_id":"levelo_inurba_marseille","lat":43.30738,"lon":5.39236,"is_reserved":false,"is_disabled":false,"rental_uris":{"android":"levelo://app?vid=dfff03f6-0dfd-4e46-9a0b-d110f80fab6d","ios":"levelo://app?vid=dfff03f6-0dfd-4e46-9a0b-d110f80fab6d"},"vehicle_type_id":"4","last_reported":1731143285,"current_range_meters":16800,"station_id":"ce4bgv92rcd13ifvqcq0","pricing_plan_id":"cebpf4jnsgd1na2vs0mg"},{"bike_id":"243e9768-99ce-49f7-88cf-52b3a8ea06f4","system_id":"levelo_inurba_marseille","lat":43.2847,"lon":5.38409,"is_reserved":false,"is_disabled":false,"rental_uris":{"android":"levelo://app?vid=243e9768-99ce-49f7-88cf-52b3a8ea06f4","ios":"levelo://app?vid=243e9768-99ce-49f7-88cf-52b3a8ea06f4"},"vehicle_type_id":"4","last_reported":1731143285,"current_range_meters":33600,"station_id":"ce4bh512rcd13ifvqe3g","pricing_plan_id":"cebpf4jnsgd1na2vs0mg"},{"bike_id":"6bf91cee-36bc-4259-a139-82597856edff","system_id":"levelo_inurba_marseille","lat":43.31714,"lon":5.37759,"is_reserved":false,"is_disabled":false,"rental_uris":{"android":"levelo://app?vid=6bf91cee-36bc-4259-a139-82597856edff","ios":"levelo://app?vid=6bf91cee-36bc-4259-a139-82597856edff"},"vehicle_type_id":"4","last_reported":1731143285,"current_range_meters":38400,"station_id":"ce4bgth2rcd13ifvqch0","pricing_plan_id":"cebpf4jnsgd1na2vs0mg"},{"bike_id":"f52e1dc5-9e0a-4918-a85e-0347dc29de69","system_id":"levelo_inurba_marseille","lat":43.23963,"lon":5.36637,"is_reserved":false,"is_disabled":false,"rental_uris":{"android":"levelo://app?vid=f52e1dc5-9e0a-4918-a85e-0347dc29de69","ios":"levelo://app?vid=f52e1dc5-9e0a-4918-a85e-0347dc29de69"},"vehicle_type_id":"4","last_reported":1731143285,"current_range_meters":8800,"station_id":"ce4bhi12rcd13ifvqfp0","pricing_plan_id":"cebpf4jnsgd1na2vs0mg"},{"bike_id":"ebd313ff-00e1-44f2-b2be-f0d356160fd2","system_id":"levelo_inurba_marseille","lat":43.31358,"lon":5.38504,"is_reserved":false,"is_disabled":false,"rental_uris":{"android":"levelo://app?vid=ebd313ff-00e1-44f2-b2be-f0d356160fd2","ios":"levelo://app?vid=ebd313ff-00e1-44f2-b2be-f0d356160fd2"},"vehicle_type_id":"4","last_reported":1731143285,"current_range_meters":36800,"station_id":"ce4bgt92rcd13ifvqcf0","pricing_plan_id":"cebpf4jnsgd1na2vs0mg"},{"bike_id":"2f20e2de-2beb-44c0-8575-4db907771cf2","system_id":"levelo_inurba_marseille","lat":43.27174,"lon":5.41,"is_reserved":false,"is_disabled":false,"rental_uris":{"android":"levelo://app?vid=2f20e2de-2beb-44c0-8575-4db907771cf2","ios":"levelo://app?vid=2f20e2de-2beb-44c0-8575-4db907771cf2"},"vehicle_type_id":"4","last_reported":1731143285,"current_range_meters":27600,"station_id":"ce4bhl12rcd13ifvqgf0","pricing_plan_id":"cebpf4jnsgd1na2vs0mg"},{"bike_id":"19df9529-82c7-4878-a6c9-de4e84322f55","system_id":"levelo_inurba_marseille","lat":43.28075,"lon":5.39662,"is_reserved":false,"is_disabled":false,"rental_uris":{"android":"levelo://app?vid=19df9529-82c7-4878-a6c9-de4e84322f55","ios":"levelo://app?vid=19df9529-82c7-4878-a6c9-de4e84322f55"},"vehicle_type_id":"4","last_reported":1731143285,"current_range_meters":38400,"station_id":"ce4bho12rcd13ifvqh2g","pricing_plan_id":"cebpf4jnsgd1na2vs0mg"},{"bike_id":"0b74ce83-e6b1-4485-8ca6-3897f29a426e","system_id":"levelo_inurba_marseille","lat":43.23963,"lon":5.36618,"is_reserved":false,"is_disabled":false,"rental_uris":{"android":"levelo://app?vid=0b74ce83-e6b1-4485-8ca6-3897f29a426e","ios":"levelo://app?vid=0b74ce83-e6b1-4485-8ca6-3897f29a426e"},"vehicle_type_id":"4","last_reported":1731143285,"current_range_meters":17200,"station_id":"ce4bhi12rcd13ifvqfp0","pricing_plan_id":"cebpf4jnsgd1na2vs0mg"},{"bike_id":"a2a9a46e-b652-452f-95c5-2d0638f3da28","system_id":"levelo_inurba_marseille","lat":43.31321,"lon":5.39693,"is_reserved":false,"is_disabled":false,"rental_uris":{"android":"levelo://app?vid=a2a9a46e-b652-452f-95c5-2d0638f3da28","ios":"levelo://app?vid=a2a9a46e-b652-452f-95c5-2d0638f3da28"},"vehicle_type_id":"4","last_reported":1731143285,"current_range_meters":38800,"station_id":"ce4bgvp2rcd13ifvqcu0","pricing_plan_id":"cebpf4jnsgd1na2vs0mg"},{"bike_id":"bc9926a2-d4f2-48d8-ba53-d1a89a14d820","system_id":"levelo_inurba_marseille","lat":43.30554,"lon":5.36542,"is_reserved":false,"is_disabled":false,"rental_uris":{"android":"levelo://app?vid=bc9926a2-d4f2-48d8-ba53-d1a89a14d820","ios":"levelo://app?vid=bc9926a2-d4f2-48d8-ba53-d1a89a14d820"},"vehicle_type_id":"4","last_reported":1731143285,"current_range_meters":24400,"station_id":"ce4bgs12rcd13ifvqcag","pricing_plan_id":"cebpf4jnsgd1na2vs0mg"},{"bike_id":"2dd2875e-d4d0-4adb-877a-ac5b2e27e00d","system_id":"levelo_inurba_marseille","lat":43.24805,"lon":5.37453,"is_reserved":false,"is_disabled":false,"rental_uris":{"android":"levelo://app?vid=2dd2875e-d4d0-4adb-877a-ac5b2e27e00d","ios":"levelo://app?vid=2dd2875e-d4d0-4adb-877a-ac5b2e27e00d"},"vehicle_type_id":"4","last_reported":1731143285,"current_range_meters":20400,"station_id":"ce4bhgh2rcd13ifvqfb0","pricing_plan_id":"cebpf4jnsgd1na2vs0mg"},{"bike_id":"f94bdcbe-9a46-4c5f-879c-d5fc8c43084c","system_id":"levelo_inurba_marseille","lat":43.33019,"lon":5.3904,"is_reserved":false,"is_disabled":false,"rental_uris":{"android":"levelo://app?vid=f94bdcbe-9a46-4c5f-879c-d5fc8c43084c","ios":"levelo://app?vid=f94bdcbe-9a46-4c5f-879c-d5fc8c43084c"},"vehicle_type_id":"4","last_reported":1731143285,"current_range_meters":37600,"station_id":"ce4bhr92rcd13ifvqhrg","pricing_plan_id":"cebpf4jnsgd1na2vs0mg"},{"bike_id":"737e318d-f108-4c95-991e-c706599395c0","system_id":"levelo_inurba_marseille","lat":43.30157,"lon":5.38085,"is_reserved":false,"is_disabled":false,"rental_uris":{"android":"levelo://app?vid=737e318d-f108-4c95-991e-c706599395c0","ios":"levelo://app?vid=737e318d-f108-4c95-991e-c706599395c0"},"vehicle_type_id":"4","last_reported":1731143285,"current_range_meters":35200,"station_id":"ce4bgjp2rcd13ifvqbh0","pricing_plan_id":"cebpf4jnsgd1na2vs0mg"},{"bike_id":"2bdc66ff-b0c1-461e-9fa4-5c84e37dc090","system_id":"levelo_inurba_marseille","lat":43.31496,"lon":5.37312,"is_reserved":false,"is_disabled":false,"rental_uris":{"android":"levelo://app?vid=2bdc66ff-b0c1-461e-9fa4-5c84e37dc090","ios":"levelo://app?vid=2bdc66ff-b0c1-461e-9fa4-5c84e37dc090"},"vehicle_type_id":"4","last_reported":1731143285,"current_range_meters":38000,"station_id":"ce4bgt12rcd13ifvqcd0","pricing_plan_id":"cebpf4jnsgd1na2vs0mg"},{"bike_id":"591c2180-c4f2-4306-8552-b8352cdf7e47","system_id":"levelo_inurba_marseille","lat":43.286116,"lon":5.370558,"is_reserved":false,"is_disabled":false,"rental_uris":{"android":"levelo://app?vid=591c2180-c4f2-4306-8552-b8352cdf7e47","ios":"levelo://app?vid=591c2180-c4f2-4306-8552-b8352cdf7e47"},"vehicle_type_id":"4","last_reported":1731143285,"current_range_meters":38000,"station_id":"ce4bht12rcd13ifvqi60","pricing_plan_id":"cebpf4jnsgd1na2vs0mg"},{"bike_id":"51e6ab8d-aaea-4b4c-b9c9-f4fade321c6a","system_id":"levelo_inurba_marseille","lat":43.292206,"lon":5.360611,"is_reserved":false,"is_disabled":false,"rental_uris":{"android":"levelo://app?vid=51e6ab8d-aaea-4b4c-b9c9-f4fade321c6a","ios":"levelo://app?vid=51e6ab8d-aaea-4b4c-b9c9-f4fade321c6a"},"vehicle_type_id":"4","last_reported":1731143285,"current_range_meters":28800,"station_id":"ce4bgi92rcd13ifvqb90","pricing_plan_id":"cebpf4jnsgd1na2vs0mg"},{"bike_id":"71684031-bf95-4fd4-bc38-0f4a696a2564","system_id":"levelo_inurba_marseille","lat":43.28416,"lon":5.34992,"is_reserved":false,"is_disabled":false,"rental_uris":{"android":"levelo://app?vid=71684031-bf95-4fd4-bc38-0f4a696a2564","ios":"levelo://app?vid=71684031-bf95-4fd4-bc38-0f4a696a2564"},"vehicle_type_id":"4","last_reported":1731143285,"current_range_meters":37600,"station_id":"ce4bhbh2rcd13ifvqepg","pricing_plan_id":"cebpf4jnsgd1na2vs0mg"},{"bike_id":"5bb4bbd0-f2f2-4c72-a9e0-ce1b71ac6a77","system_id":"levelo_inurba_marseille","lat":43.27732,"lon":5.3836,"is_reserved":false,"is_disabled":false,"rental_uris":{"android":"levelo://app?vid=5bb4bbd0-f2f2-4c72-a9e0-ce1b71ac6a77","ios":"levelo://app?vid=5bb4bbd0-f2f2-4c72-a9e0-ce1b71ac6a77"},"vehicle_type_id":"4","last_reported":1731143285,"current_range_meters":36400,"station_id":"ce4bhjp2rcd13ifvqga0","pricing_plan_id":"cebpf4jnsgd1na2vs0mg"},{"bike_id":"90343536-f6e0-4e41-9bfb-324533da21cb","system_id":"levelo_inurba_marseille","lat":43.30156,"lon":5.38083,"is_reserved":false,"is_disabled":false,"rental_uris":{"android":"levelo://app?vid=90343536-f6e0-4e41-9bfb-324533da21cb","ios":"levelo://app?vid=90343536-f6e0-4e41-9bfb-324533da21cb"},"vehicle_type_id":"4","last_reported":1731143285,"current_range_meters":27200,"station_id":"ce4bgjp2rcd13ifvqbh0","pricing_plan_id":"cebpf4jnsgd1na2vs0mg"},{"bike_id":"f1b08d98-ca7f-439e-a595-79d67a21b888","system_id":"levelo_inurba_marseille","lat":43.3204,"lon":5.41565,"is_reserved":false,"is_disabled":false,"rental_uris":{"android":"levelo://app?vid=f1b08d98-ca7f-439e-a595-79d67a21b888","ios":"levelo://app?vid=f1b08d98-ca7f-439e-a595-79d67a21b888"},"vehicle_type_id":"4","last_reported":1731143285,"current_range_meters":36800,"station_id":"ce4bhq92rcd13ifvqhkg","pricing_plan_id":"cebpf4jnsgd1na2vs0mg"},{"bike_id":"c5a01722-d830-4ff7-8b83-f9ce79c2e7d8","system_id":"levelo_inurba_marseille","lat":43.24545,"lon":5.39524,"is_reserved":false,"is_disabled":false,"rental_uris":{"android":"levelo://app?vid=c5a01722-d830-4ff7-8b83-f9ce79c2e7d8","ios":"levelo://app?vid=c5a01722-d830-4ff7-8b83-f9ce79c2e7d8"},"vehicle_type_id":"4","last_reported":1731143285,"current_range_meters":6800,"station_id":"ce4bhlp2rcd13ifvqgjg","pricing_plan_id":"cebpf4jnsgd1na2vs0mg"},{"bike_id":"510ea3ea-1633-4319-97bb-f67cfddcc93d","system_id":"levelo_inurba_marseille","lat":43.32477,"lon":5.36571,"is_reserved":false,"is_disabled":false,"rental_uris":{"android":"levelo://app?vid=510ea3ea-1633-4319-97bb-f67cfddcc93d","ios":"levelo://app?vid=510ea3ea-1633-4319-97bb-f67cfddcc93d"},"vehicle_type_id":"4","last_reported":1731143285,"current_range_meters":37600,"station_id":"ce4bhs12rcd13ifvqhvg","pricing_plan_id":"cebpf4jnsgd1na2vs0mg"},{"bike_id":"5c19d456-298c-4a20-9f50-0620b9fcbeb9","system_id":"levelo_inurba_marseille","lat":43.31365,"lon":5.3849,"is_reserved":false,"is_disabled":false,"rental_uris":{"android":"levelo://app?vid=5c19d456-298c-4a20-9f50-0620b9fcbeb9","ios":"levelo://app?vid=5c19d456-298c-4a20-9f50-0620b9fcbeb9"},"vehicle_type_id":"4","last_reported":1731143285,"current_range_meters":8800,"station_id":"ce4bgt92rcd13ifvqcf0","pricing_plan_id":"cebpf4jnsgd1na2vs0mg"},{"bike_id":"a2e0b525-c521-48a7-8e96-e29f2256b563","system_id":"levelo_inurba_marseille","lat":43.23183,"lon":5.39983,"is_reserved":false,"is_disabled":false,"rental_uris":{"android":"levelo://app?vid=a2e0b525-c521-48a7-8e96-e29f2256b563","ios":"levelo://app?vid=a2e0b525-c521-48a7-8e96-e29f2256b563"},"vehicle_type_id":"4","last_reported":1731143285,"current_range_meters":36400,"station_id":"ce4bhn12rcd13ifvqgqg","pricing_plan_id":"cebpf4jnsgd1na2vs0mg"},{"bike_id":"4acf3dfb-3c34-4ec2-97d1-c15614cbe512","system_id":"levelo_inurba_marseille","lat":43.3016,"lon":5.38074,"is_reserved":false,"is_disabled":false,"rental_uris":{"android":"levelo://app?vid=4acf3dfb-3c34-4ec2-97d1-c15614cbe512","ios":"levelo://app?vid=4acf3dfb-3c34-4ec2-97d1-c15614cbe512"},"vehicle_type_id":"4","last_reported":1731143285,"current_range_meters":34000,"station_id":"ce4bgjp2rcd13ifvqbh0","pricing_plan_id":"cebpf4jnsgd1na2vs0mg"},{"bike_id":"d02b68f3-b750-4589-b9b1-f3bc7cf6b1d6","system_id":"levelo_inurba_marseille","lat":43.3248,"lon":5.36559,"is_reserved":false,"is_disabled":false,"rental_uris":{"android":"levelo://app?vid=d02b68f3-b750-4589-b9b1-f3bc7cf6b1d6","ios":"levelo://app?vid=d02b68f3-b750-4589-b9b1-f3bc7cf6b1d6"},"vehicle_type_id":"4","last_reported":1731143285,"current_range_meters":38800,"station_id":"ce4bhs12rcd13ifvqhvg","pricing_plan_id":"cebpf4jnsgd1na2vs0mg"},{"bike_id":"69d38419-f915-4ada-a460-f28c05bf4ad2","system_id":"levelo_inurba_marseille","lat":43.27069,"lon":5.42277,"is_reserved":false,"is_disabled":false,"rental_uris":{"android":"levelo://app?vid=69d38419-f915-4ada-a460-f28c05bf4ad2","ios":"levelo://app?vid=69d38419-f915-4ada-a460-f28c05bf4ad2"},"vehicle_type_id":"4","last_reported":1731143285,"current_range_meters":38800,"station_id":"ce4bhk92rcd13ifvqgb0","pricing_plan_id":"cebpf4jnsgd1na2vs0mg"},{"bike_id":"d115c69c-dc61-4019-86ca-8f3ef1285cfb","system_id":"levelo_inurba_marseille","lat":43.22932,"lon":5.35373,"is_reserved":false,"is_disabled":false,"rental_uris":{"android":"levelo://app?vid=d115c69c-dc61-4019-86ca-8f3ef1285cfb","ios":"levelo://app?vid=d115c69c-dc61-4019-86ca-8f3ef1285cfb"},"vehicle_type_id":"4","last_reported":1731143285,"current_range_meters":32800,"station_id":"cpo3532slgdg3j2ikp40","pricing_plan_id":"cebpf4jnsgd1na2vs0mg"},{"bike_id":"1843914f-a536-46a6-bf98-e168143a7c78","system_id":"levelo_inurba_marseille","lat":43.25577,"lon":5.38232,"is_reserved":false,"is_disabled":false,"rental_uris":{"android":"levelo://app?vid=1843914f-a536-46a6-bf98-e168143a7c78","ios":"levelo://app?vid=1843914f-a536-46a6-bf98-e168143a7c78"},"vehicle_type_id":"4","last_reported":1731143285,"current_range_meters":8400,"station_id":"ce4bhih2rcd13ifvqfs0","pricing_plan_id":"cebpf4jnsgd1na2vs0mg"},{"bike_id":"7643d5f6-1000-4e84-ae3f-2ac4dc6b4fcd","system_id":"levelo_inurba_marseille","lat":43.24075,"lon":5.37765,"is_reserved":false,"is_disabled":false,"rental_uris":{"android":"levelo://app?vid=7643d5f6-1000-4e84-ae3f-2ac4dc6b4fcd","ios":"levelo://app?vid=7643d5f6-1000-4e84-ae3f-2ac4dc6b4fcd"},"vehicle_type_id":"4","last_reported":1731143285,"current_range_meters":22000,"station_id":"ce4bhnp2rcd13ifvqgvg","pricing_plan_id":"cebpf4jnsgd1na2vs0mg"},{"bike_id":"be94c940-c56d-4132-af66-fedb762b3e0f","system_id":"levelo_inurba_marseille","lat":43.23189,"lon":5.35562,"is_reserved":false,"is_disabled":false,"rental_uris":{"android":"levelo://app?vid=be94c940-c56d-4132-af66-fedb762b3e0f","ios":"levelo://app?vid=be94c940-c56d-4132-af66-fedb762b3e0f"},"vehicle_type_id":"4","last_reported":1731143285,"current_range_meters":37600,"station_id":"ce4bhu92rcd13ifvqi70","pricing_plan_id":"cebpf4jnsgd1na2vs0mg"},{"bike_id":"0175c83b-8048-43d1-9d1e-d8daf1bd6804","system_id":"levelo_inurba_marseille","lat":43.29843,"lon":5.36275,"is_reserved":false,"is_disabled":false,"rental_uris":{"android":"levelo://app?vid=0175c83b-8048-43d1-9d1e-d8daf1bd6804","ios":"levelo://app?vid=0175c83b-8048-43d1-9d1e-d8daf1bd6804"},"vehicle_type_id":"4","last_reported":1731143285,"current_range_meters":36800,"station_id":"ce4bgpp2rcd13ifvqc3g","pricing_plan_id":"cebpf4jnsgd1na2vs0mg"},{"bike_id":"c4e88051-e5a7-49e6-926f-f7214ffd6c39","system_id":"levelo_inurba_marseille","lat":43.29801,"lon":5.38102,"is_reserved":false,"is_disabled":false,"rental_uris":{"android":"levelo://app?vid=c4e88051-e5a7-49e6-926f-f7214ffd6c39","ios":"levelo://app?vid=c4e88051-e5a7-49e6-926f-f7214ffd6c39"},"vehicle_type_id":"4","last_reported":1731143285,"current_range_meters":23200,"station_id":"ce4bgip2rcd13ifvqbb0","pricing_plan_id":"cebpf4jnsgd1na2vs0mg"},{"bike_id":"0ecc4a73-6a3b-43bd-a3f4-89b5f116fe24","system_id":"levelo_inurba_marseille","lat":43.2993,"lon":5.36547,"is_reserved":false,"is_disabled":false,"rental_uris":{"android":"levelo://app?vid=0ecc4a73-6a3b-43bd-a3f4-89b5f116fe24","ios":"levelo://app?vid=0ecc4a73-6a3b-43bd-a3f4-89b5f116fe24"},"vehicle_type_id":"4","last_reported":1731143285,"current_range_meters":24400,"station_id":"ce4bgm92rcd13ifvqbr0","pricing_plan_id":"cebpf4jnsgd1na2vs0mg"},{"bike_id":"43115e06-c417-4692-8cff-5f92e5c55684","system_id":"levelo_inurba_marseille","lat":43.26778,"lon":5.39416,"is_reserved":false,"is_disabled":false,"rental_uris":{"android":"levelo://app?vid=43115e06-c417-4692-8cff-5f92e5c55684","ios":"levelo://app?vid=43115e06-c417-4692-8cff-5f92e5c55684"},"vehicle_type_id":"4","last_reported":1731143285,"current_range_meters":38800,"station_id":"ce4bhh12rcd13ifvqfg0","pricing_plan_id":"cebpf4jnsgd1na2vs0mg"},{"bike_id":"6d6c74d9-80f4-412d-a330-9846fd809397","system_id":"levelo_inurba_marseille","lat":43.29867,"lon":5.39733,"is_reserved":false,"is_disabled":false,"rental_uris":{"android":"levelo://app?vid=6d6c74d9-80f4-412d-a330-9846fd809397","ios":"levelo://app?vid=6d6c74d9-80f4-412d-a330-9846fd809397"},"vehicle_type_id":"4","last_reported":1731143285,"current_range_meters":28800,"station_id":"ce4bh0h2rcd13ifvqd50","pricing_plan_id":"cebpf4jnsgd1na2vs0mg"},{"bike_id":"f5c6cd8d-43d2-4824-88ea-c5df80d5e844","system_id":"levelo_inurba_marseille","lat":43.30883,"lon":5.39642,"is_reserved":false,"is_disabled":false,"rental_uris":{"android":"levelo://app?vid=f5c6cd8d-43d2-4824-88ea-c5df80d5e844","ios":"levelo://app?vid=f5c6cd8d-43d2-4824-88ea-c5df80d5e844"},"vehicle_type_id":"4","last_reported":1731143285,"current_range_meters":8000,"station_id":"ce4bh012rcd13ifvqcv0","pricing_plan_id":"cebpf4jnsgd1na2vs0mg"},{"bike_id":"c93e825b-64a8-457e-a782-7560ad1490ce","system_id":"levelo_inurba_marseille","lat":43.27201,"lon":5.3919,"is_reserved":false,"is_disabled":false,"rental_uris":{"android":"levelo://app?vid=c93e825b-64a8-457e-a782-7560ad1490ce","ios":"levelo://app?vid=c93e825b-64a8-457e-a782-7560ad1490ce"},"vehicle_type_id":"4","last_reported":1731143285,"current_range_meters":22800,"station_id":"ce4bhhp2rcd13ifvqfm0","pricing_plan_id":"cebpf4jnsgd1na2vs0mg"},{"bike_id":"a32fbefd-f609-4766-a174-68d036dc44d6","system_id":"levelo_inurba_marseille","lat":43.31325,"lon":5.39687,"is_reserved":false,"is_disabled":false,"rental_uris":{"android":"levelo://app?vid=a32fbefd-f609-4766-a174-68d036dc44d6","ios":"levelo://app?vid=a32fbefd-f609-4766-a174-68d036dc44d6"},"vehicle_type_id":"4","last_reported":1731143285,"current_range_meters":39200,"station_id":"ce4bgvp2rcd13ifvqcu0","pricing_plan_id":"cebpf4jnsgd1na2vs0mg"},{"bike_id":"40776dcf-58bd-41a2-8a38-94a5bce544a7","system_id":"levelo_inurba_marseille","lat":43.34149,"lon":5.40908,"is_reserved":false,"is_disabled":false,"rental_uris":{"android":"levelo://app?vid=40776dcf-58bd-41a2-8a38-94a5bce544a7","ios":"levelo://app?vid=40776dcf-58bd-41a2-8a38-94a5bce544a7"},"vehicle_type_id":"4","last_reported":1731143285,"current_range_meters":3600,"station_id":"ce4bhqh2rcd13ifvqhlg","pricing_plan_id":"cebpf4jnsgd1na2vs0mg"},{"bike_id":"b78fdf6a-a499-4b95-b8b1-2036284631f4","system_id":"levelo_inurba_marseille","lat":43.25938,"lon":5.40905,"is_reserved":false,"is_disabled":false,"rental_uris":{"android":"levelo://app?vid=b78fdf6a-a499-4b95-b8b1-2036284631f4","ios":"levelo://app?vid=b78fdf6a-a499-4b95-b8b1-2036284631f4"},"vehicle_type_id":"4","last_reported":1731143285,"current_range_meters":30000,"station_id":"ce4bhm92rcd13ifvqglg","pricing_plan_id":"cebpf4jnsgd1na2vs0mg"},{"bike_id":"51bacd08-9e91-41aa-8539-bf0387445c2b","system_id":"levelo_inurba_marseille","lat":43.310742,"lon":5.383458,"is_reserved":false,"is_disabled":false,"rental_uris":{"android":"levelo://app?vid=51bacd08-9e91-41aa-8539-bf0387445c2b","ios":"levelo://app?vid=51bacd08-9e91-41aa-8539-bf0387445c2b"},"vehicle_type_id":"4","last_reported":1731143285,"current_range_meters":33200,"station_id":"ce4bgv92rcd13ifvqcr0","pricing_plan_id":"cebpf4jnsgd1na2vs0mg"},{"bike_id":"9a24773d-3ac0-413e-bb91-f5fd134a809e","system_id":"levelo_inurba_marseille","lat":43.26055,"lon":5.39401,"is_reserved":false,"is_disabled":false,"rental_uris":{"android":"levelo://app?vid=9a24773d-3ac0-413e-bb91-f5fd134a809e","ios":"levelo://app?vid=9a24773d-3ac0-413e-bb91-f5fd134a809e"},"vehicle_type_id":"4","last_reported":1731143285,"current_range_meters":23200,"station_id":"ce4bhh92rcd13ifvqfj0","pricing_plan_id":"cebpf4jnsgd1na2vs0mg"},{"bike_id":"0a459a0e-38f0-4672-888f-0932940b6f70","system_id":"levelo_inurba_marseille","lat":43.29899,"lon":5.43659,"is_reserved":false,"is_disabled":false,"rental_uris":{"android":"levelo://app?vid=0a459a0e-38f0-4672-888f-0932940b6f70","ios":"levelo://app?vid=0a459a0e-38f0-4672-888f-0932940b6f70"},"vehicle_type_id":"4","last_reported":1731143285,"current_range_meters":10000,"station_id":"ce4bhpp2rcd13ifvqhfg","pricing_plan_id":"cebpf4jnsgd1na2vs0mg"},{"bike_id":"ed3af603-2c10-4d78-99db-fb9c3f4e0cc7","system_id":"levelo_inurba_marseille","lat":43.24387,"lon":5.37054,"is_reserved":false,"is_disabled":false,"rental_uris":{"android":"levelo://app?vid=ed3af603-2c10-4d78-99db-fb9c3f4e0cc7","ios":"levelo://app?vid=ed3af603-2c10-4d78-99db-fb9c3f4e0cc7"},"vehicle_type_id":"4","last_reported":1731143285,"current_range_meters":24400,"station_id":"ce4bhhh2rcd13ifvqfk0","pricing_plan_id":"cebpf4jnsgd1na2vs0mg"},{"bike_id":"02f3bd69-c440-439f-96d2-1f56246cbb70","system_id":"levelo_inurba_marseille","lat":43.2306,"lon":5.35489,"is_reserved":false,"is_disabled":false,"rental_uris":{"android":"levelo://app?vid=02f3bd69-c440-439f-96d2-1f56246cbb70","ios":"levelo://app?vid=02f3bd69-c440-439f-96d2-1f56246cbb70"},"vehicle_type_id":"4","last_reported":1731143285,"current_range_meters":28000,"station_id":"cpo3342slgdg3j2ifvpg","pricing_plan_id":"cebpf4jnsgd1na2vs0mg"},{"bike_id":"59ed5cd8-00e8-4780-8ecf-43556fd97d65","system_id":"levelo_inurba_marseille","lat":43.27819,"lon":5.4071,"is_reserved":false,"is_disabled":false,"rental_uris":{"android":"levelo://app?vid=59ed5cd8-00e8-4780-8ecf-43556fd97d65","ios":"levelo://app?vid=59ed5cd8-00e8-4780-8ecf-43556fd97d65"},"vehicle_type_id":"4","last_reported":1731143285,"current_range_meters":38800,"station_id":"ce4bhnh2rcd13ifvqgtg","pricing_plan_id":"cebpf4jnsgd1na2vs0mg"},{"bike_id":"04c33c41-7d2c-4ad1-9547-7c592fdb82f1","system_id":"levelo_inurba_marseille","lat":43.31755,"lon":5.39019,"is_reserved":false,"is_disabled":false,"rental_uris":{"android":"levelo://app?vid=04c33c41-7d2c-4ad1-9547-7c592fdb82f1","ios":"levelo://app?vid=04c33c41-7d2c-4ad1-9547-7c592fdb82f1"},"vehicle_type_id":"4","last_reported":1731143285,"current_range_meters":34800,"station_id":"ce4bhqp2rcd13ifvqhng","pricing_plan_id":"cebpf4jnsgd1na2vs0mg"},{"bike_id":"828ed45f-49db-4fd9-852a-6044df53de40","system_id":"levelo_inurba_marseille","lat":43.28155,"lon":5.4264,"is_reserved":false,"is_disabled":false,"rental_uris":{"android":"levelo://app?vid=828ed45f-49db-4fd9-852a-6044df53de40","ios":"levelo://app?vid=828ed45f-49db-4fd9-852a-6044df53de40"},"vehicle_type_id":"4","last_reported":1731143285,"current_range_meters":16800,"station_id":"ce4bhnh2rcd13ifvqgug","pricing_plan_id":"cebpf4jnsgd1na2vs0mg"},{"bike_id":"ac14ad70-ef8f-4660-866f-07f019c16e58","system_id":"levelo_inurba_marseille","lat":43.31107,"lon":5.37779,"is_reserved":false,"is_disabled":false,"rental_uris":{"android":"levelo://app?vid=ac14ad70-ef8f-4660-866f-07f019c16e58","ios":"levelo://app?vid=ac14ad70-ef8f-4660-866f-07f019c16e58"},"vehicle_type_id":"4","last_reported":1731143285,"current_range_meters":38000,"station_id":"ce4bgt92rcd13ifvqcg0","pricing_plan_id":"cebpf4jnsgd1na2vs0mg"},