{"last_updated":1742390365,"ttl":60,"version":"2.2","data":{"bikes":[{"bike_id":"154606a8-39ea-4836-8df6-ad1683ddf919","system_id":"levelo_inurba_marseille","lat":43.30541,"lon":5.36544,"is_reserved":false,"is_disabled":false,"rental_uris":{"android":"levelo://app?vid=154606a8-39ea-4836-8df6-ad1683ddf919","ios":"levelo://app?vid=154606a8-39ea-4836-8df6-ad1683ddf919"},"vehicle_type_id":"4","last_reported":1742390365,"current_range_meters":2800,"station_id":"ce4bgs12rcd13ifvqcag","pricing_plan_id":"cebpf4jnsgd1na2vs0mg"},{"bike_id":"2665cc4b-07ed-4ae6-a66f-2b09983c709d","system_id":"levelo_inurba_marseille","lat":43.33761,"lon":5.37489,"is_reserved":false,"is_disabled":false,"rental_uris":{"android":"levelo://app?vid=2665cc4b-07ed-4ae6-a66f-2b09983c709d","ios":"levelo://app?vid=2665cc4b-07ed-4ae6-a66f-2b09983c709d"},"vehicle_type_id":"4","last_reported":1742390365,"current_range_meters":2800,"station_id":"","pricing_plan_id":"cebpf4jnsgd1na2vs0mg"},{"bike_id":"f5c97f8a-2624-4b99-bdf9-59f10ff7cfce","system_id":"levelo_inurba_marseille","lat":43.27618,"lon":5.36114,"is_reserved":false,"is_disabled":false,"rental_uris":{"android":"levelo://app?vid=f5c97f8a-2624-4b99-bdf9-59f10ff7cfce","ios":"levelo://app?vid=f5c97f8a-2624-4b99-bdf9-59f10ff7cfce"},"vehicle_type_id":"4","last_reported":1742390365,"current_range_meters":3200,"station_id":"ce4bgj92rcd13ifvqbe0","pricing_plan_id":"cebpf4jnsgd1na2vs0mg"},{"bike_id":"f0860af6-b829-427b-a2cf-8d9c7afbacb9","system_id":"levelo_inurba_marseille","lat":43.29575,"lon":5.39983,"is_reserved":false,"is_disabled":false,"rental_uris":{"android":"levelo://app?vid=f0860af6-b829-427b-a2cf-8d9c7afbacb9","ios":"levelo://app?vid=f0860af6-b829-427b-a2cf-8d9c7afbacb9"},"vehicle_type_id":"4","last_reported":1742390365,"current_range_meters":3200,"station_id":"ce4bh312rcd13ifvqdj0","pricing_plan_id":"cebpf4jnsgd1na2vs0mg"},{"bike_id":"e0178aff-d98b-4ed4-9b75-6ccab11f37ef","system_id":"levelo_inurba_marseille","lat":43.31691,"lon":5.40482,"is_reserved":false,"is_disabled":false,"rental_uris":{"android":"levelo://app?vid=e0178aff-d98b-4ed4-9b75-6ccab11f37ef","ios":"levelo://app?vid=e0178aff-d98b-4ed4-9b75-6ccab11f37ef"},"vehicle_type_id":"4","last_reported":1742390365,"current_range_meters":3200,"station_id":"ce4bh012rcd13ifvqd00","pricing_plan_id":"cebpf4jnsgd1na2vs0mg"},{"bike_id":"e236cfa4-9806-42f8-959f-1b78069237f1","system_id":"levelo_inurba_marseille","lat":43.27998,"lon":5.40009,"is_reserved":false,"is_disabled":false,"rental_uris":{"android":"levelo://app?vid=e236cfa4-9806-42f8-959f-1b78069237f1","ios":"levelo://app?vid=e236cfa4-9806-42f8-959f-1b78069237f1"},"vehicle_type_id":"4","last_reported":1742390365,"current_range_meters":3200,"station_id":"ce4bho92rcd13ifvqh4g","pricing_plan_id":"cebpf4jnsgd1na2vs0mg"},{"bike_id":"834c9108-8f83-473c-b1a8-053097761954","system_id":"levelo_inurba_marseille","lat":43.29096,"lon":5.38124,"is_reserved":false,"is_disabled":false,"rental_uris":{"android":"levelo://app?vid=834c9108-8f83-473c-b1a8-053097761954","ios":"levelo://app?vid=834c9108-8f83-473c-b1a8-053097761954"},"vehicle_type_id":"4","last_reported":1742390365,"current_range_meters":2800,"station_id":"ce4bh512rcd13ifvqe2g","pricing_plan_id":"cebpf4jnsgd1na2vs0mg"},{"bike_id":"6368f354-6da7-4884-a394-062f1a963ed6","system_id":"levelo_inurba_marseille","lat":43.29301,"lon":5.42769,"is_reserved":false,"is_disabled":false,"rental_uris":{"android":"levelo://app?vid=6368f354-6da7-4884-a394-062f1a963ed6","ios":"levelo://app?vid=6368f354-6da7-4884-a394-062f1a963ed6"},"vehicle_type_id":"4","last_reported":1742390365,"current_range_meters":3200,"station_id":"","pricing_plan_id":"cebpf4jnsgd1na2vs0mg"},{"bike_id":"28ed21fd-a4a7-413c-bdeb-c6afdc23e9f8","system_id":"levelo_inurba_marseille","lat":43.27934,"lon":5.39563,"is_reserved":false,"is_disabled":false,"rental_uris":{"android":"levelo://app?vid=28ed21fd-a4a7-413c-bdeb-c6afdc23e9f8","ios":"levelo://app?vid=28ed21fd-a4a7-413c-bdeb-c6afdc23e9f8"},"vehicle_type_id":"4","last_reported":1742390365,"current_range_meters":3600,"station_id":"ce4bhf92rcd13ifvqf40","pricing_plan_id":"cebpf4jnsgd1na2vs0mg"},{"bike_id":"47418a83-6367-4723-ba3b-1aa94fd0b1e0","system_id":"levelo_inurba_marseille","lat":43.28171,"lon":5.43689,"is_reserved":false,"is_disabled":false,"rental_uris":{"android":"levelo://app?vid=47418a83-6367-4723-ba3b-1aa94fd0b1e0","ios":"levelo://app?vid=47418a83-6367-4723-ba3b-1aa94fd0b1e0"},"vehicle_type_id":"4","last_reported":1742390365,"current_range_meters":3600,"station_id":"","pricing_plan_id":"cebpf4jnsgd1na2vs0mg"},{"bike_id":"7250e767-7abb-45d6-94d0-093529bdeb70","system_id":"levelo_inurba_marseille","lat":43.28727,"lon":5.37946,"is_reserved":false,"is_disabled":false,"rental_uris":{"android":"levelo://app?vid=7250e767-7abb-45d6-94d0-093529bdeb70","ios":"levelo://app?vid=7250e767-7abb-45d6-94d0-093529bdeb70"},"vehicle_type_id":"4","last_reported":1742390365,"current_range_meters":3600,"station_id":"ce4bh9p2rcd13ifvqec0","pricing_plan_id":"cebpf4jnsgd1na2vs0mg"},{"bike_id":"4f4294bc-aa35-4f65-a994-74ab3dc614da","system_id":"levelo_inurba_marseille","lat":43.28477,"lon":5.38431,"is_reserved":false,"is_disabled":false,"rental_uris":{"android":"levelo://app?vid=4f4294bc-aa35-4f65-a994-74ab3dc614da","ios":"levelo://app?vid=4f4294bc-aa35-4f65-a994-74ab3dc614da"},"vehicle_type_id":"4","last_reported":1742390365,"current_range_meters":3600,"station_id":"ce4bh512rcd13ifvqe3g","pricing_plan_id":"cebpf4jnsgd1na2vs0mg"},{"bike_id":"c7fa3c25-0cdb-4012-99d5-f5be3222d000","system_id":"levelo_inurba_marseille","lat":43.30467,"lon":5.37909,"is_reserved":false,"is_disabled":false,"rental_uris":{"android":"levelo://app?vid=c7fa3c25-0cdb-4012-99d5-f5be3222d000","ios":"levelo://app?vid=c7fa3c25-0cdb-4012-99d5-f5be3222d000"},"vehicle_type_id":"4","last_reported":1742390365,"current_range_meters":3600,"station_id":"ce4bgup2rcd13ifvqcn0","pricing_plan_id":"cebpf4jnsgd1na2vs0mg"},{"bike_id":"b4154cb0-e501-44cb-a6ad-ca990a8ce4f4","system_id":"levelo_inurba_marseille","lat":43.27207,"lon":5.39182,"is_reserved":false,"is_disabled":false,"rental_uris":{"android":"levelo://app?vid=b4154cb0-e501-44cb-a6ad-ca990a8ce4f4","ios":"levelo://app?vid=b4154cb0-e501-44cb-a6ad-ca990a8ce4f4"},"vehicle_type_id":"4","last_reported":1742390365,"current_range_meters":3200,"station_id":"ce4bhhp2rcd13ifvqfm0","pricing_plan_id":"cebpf4jnsgd1na2vs0mg"},{"bike_id":"bfbf7410-42ea-4a66-9547-31447ca72a1c","system_id":"levelo_inurba_marseille","lat":43.26786,"lon":5.39412,"is_reserved":false,"is_disabled":false,"rental_uris":{"android":"levelo://app?vid=bfbf7410-42ea-4a66-9547-31447ca72a1c","ios":"levelo://app?vid=bfbf7410-42ea-4a66-9547-31447ca72a1c"},"vehicle_type_id":"4","last_reported":1742390365,"current_range_meters":3600,"station_id":"ce4bhh12rcd13ifvqfg0","pricing_plan_id":"cebpf4jnsgd1na2vs0mg"},{"bike_id":"0aaac9fc-3072-465a-a56e-96a3c3bf0ba4","system_id":"levelo_inurba_marseille","lat":43.26207,"lon":5.37446,"is_reserved":false,"is_disabled":false,"rental_uris":{"android":"levelo://app?vid=0aaac9fc-3072-465a-a56e-96a3c3bf0ba4","ios":"levelo://app?vid=0aaac9fc-3072-465a-a56e-96a3c3bf0ba4"},"vehicle_type_id":"4","last_reported":1742390365,"current_range_meters":4000,"station_id":"ce4bhgp2rcd13ifvqfc0","pricing_plan_id":"cebpf4jnsgd1na2vs0mg"},{"bike_id":"135dff15-9481-4971-bc8e-585bd52c8b0b","system_id":"levelo_inurba_marseille","lat":43.30138,"lon":5.37429,"is_reserved":false,"is_disabled":false,"rental_uris":{"android":"levelo://app?vid=135dff15-9481-4971-bc8e-585bd52c8b0b","ios":"levelo://app?vid=135dff15-9481-4971-bc8e-585bd52c8b0b"},"vehicle_type_id":"4","last_reported":1742390365,"current_range_meters":4000,"station_id":"ce4bgs92rcd13ifvqcc0","pricing_plan_id":"cebpf4jnsgd1na2vs0mg"},{"bike_id":"e7ac7a57-bc7a-451e-be23-ef2cbf01a9ae","system_id":"levelo_inurba_marseille","lat":43.28998,"lon":5.37116,"is_reserved":false,"is_disabled":false,"rental_uris":{"android":"levelo://app?vid=e7ac7a57-bc7a-451e-be23-ef2cbf01a9ae","ios":"levelo://app?vid=e7ac7a57-bc7a-451e-be23-ef2cbf01a9ae"},"vehicle_type_id":"4","last_reported":1742390365,"current_range_meters":4000,"station_id":"","pricing_plan_id":"cebpf4jnsgd1na2vs0mg"},{"bike_id":"af2f3422-5aa4-4c72-a508-55696a113ff3","system_id":"levelo_inurba_marseille","lat":43.26074,"lon":5.39379,"is_reserved":false,"is_disabled":false,"rental_uris":{"android":"levelo://app?vid=af2f3422-5aa4-4c72-a508-55696a113ff3","ios":"levelo://app?vid=af2f3422-5aa4-4c72-a508-55696a113ff3"},"vehicle_type_id":"4","last_reported":1742390365,"current_range_meters":4000,"station_id":"ce4bhh92rcd13ifvqfj0","pricing_plan_id":"cebpf4jnsgd1na2vs0mg"},{"bike_id":"8ff6813f-e5a6-42cb-8e72-2d1660749fb4","system_id":"levelo_inurba_marseille","lat":43.29097,"lon":5.38139,"is_reserved":false,"is_disabled":false,"rental_uris":{"android":"levelo://app?vid=8ff6813f-e5a6-42cb-8e72-2d1660749fb4","ios":"levelo://app?vid=8ff6813f-e5a6-42cb-8e72-2d1660749fb4"},"vehicle_type_id":"4","last_reported":1742390365,"current_range_meters":3600,"station_id":"ce4bhh12rcd13ifvqfg0","pricing_plan_id":"cebpf4jnsgd1na2vs0mg"},{"bike_id":"d5167f88-4f89-4df9-87ff-ae0de0b4bbf1","system_id":"levelo_inurba_marseille","lat":43.29264,"lon":5.38449,"is_reserved":false,"is_disabled":false,"rental_uris":{"android":"levelo://app?vid=d5167f88-4f89-4df9-87ff-ae0de0b4bbf1","ios":"levelo://app?vid=d5167f88-4f89-4df9-87ff-ae0de0b4bbf1"},"vehicle_type_id":"4","last_reported":1742390365,"current_range_meters":4400,"station_id":"ce4bh692rcd13ifvqea0","pricing_plan_id":"cebpf4jnsgd1na2vs0mg"},{"bike_id":"4f6d11f4-8d23-4e35-8c59-e818e64ce7ab","system_id":"levelo_inurba_marseille","lat":43.29528,"lon":5.43899,"is_reserved":false,"is_disabled":false,"rental_uris":{"android":"levelo://app?vid=4f6d11f4-8d23-4e35-8c59-e818e64ce7ab","ios":"levelo://app?vid=4f6d11f4-8d23-4e35-8c59-e818e64ce7ab"},"vehicle_type_id":"4","last_reported":1742390365,"current_range_meters":4400,"station_id":"","pricing_plan_id":"cebpf4jnsgd1na2vs0mg"},{"bike_id":"a4647986-2229-462e-9248-2a45a552d1fb","system_id":"levelo_inurba_marseille","lat":43.31341,"lon":5.36714,"is_reserved":false,"is_disabled":true,"rental_uris":{"android":"levelo://app?vid=a4647986-2229-462e-9248-2a45a552d1fb","ios":"levelo://app?vid=a4647986-2229-462e-9248-2a45a552d1fb"},"vehicle_type_id":"4","last_reported":1742390365,"current_range_meters":4400,"station_id":"ce4bgr92rcd13ifvqc6g","pricing_plan_id":"cebpf4jnsgd1na2vs0mg"},{"bike_id":"c396fa20-10c5-4443-99c7-61ba9c9b0b5e","system_id":"levelo_inurba_marseille","lat":43.31377,"lon":5.38507,"is_reserved":false,"is_disabled":false,"rental_uris":{"android":"levelo://app?vid=c396fa20-10c5-4443-99c7-61ba9c9b0b5e","ios":"levelo://app?vid=c396fa20-10c5-4443-99c7-61ba9c9b0b5e"},"vehicle_type_id":"4","last_reported":1742390365,"current_range_meters":4400,"station_id":"ce4bgt92rcd13ifvqcf0","pricing_plan_id":"cebpf4jnsgd1na2vs0mg"},{"bike_id":"97820cc4-93f7-472f-a6a3-bb0b3708ecd1","system_id":"levelo_inurba_marseille","lat":43.26557,"lon":5.37297,"is_reserved":false,"is_disabled":true,"rental_uris":{"android":"levelo://app?vid=97820cc4-93f7-472f-a6a3-bb0b3708ecd1","ios":"levelo://app?vid=97820cc4-93f7-472f-a6a3-bb0b3708ecd1"},"vehicle_type_id":"4","last_reported":1742390365,"current_range_meters":5600,"station_id":"ce4bhg12rcd13ifvqf70","pricing_plan_id":"cebpf4jnsgd1na2vs0mg"},{"bike_id":"52bd4f14-775f-459f-9791-851d088e69cb","system_id":"levelo_inurba_marseille","lat":43.25002,"lon":5.38929,"is_reserved":false,"is_disabled":false,"rental_uris":{"android":"levelo://app?vid=52bd4f14-775f-459f-9791-851d088e69cb","ios":"levelo://app?vid=52bd4f14-775f-459f-9791-851d088e69cb"},"vehicle_type_id":"4","last_reported":1742390365,"current_range_meters":4800,"station_id":"ce4bhgp2rcd13ifvqfd0","pricing_plan_id":"cebpf4jnsgd1na2vs0mg"},{"bike_id":"a2b55b3e-6d2a-48ab-b87d-838913aa8d96","system_id":"levelo_inurba_marseille","lat":43.25927,"lon":5.40896,"is_reserved":false,"is_disabled":false,"rental_uris":{"android":"levelo://app?vid=a2b55b3e-6d2a-48ab-b87d-838913aa8d96","ios":"levelo://app?vid=a2b55b3e-6d2a-48ab-b87d-838913aa8d96"},"vehicle_type_id":"4","last_reported":1742390365,"current_range_meters":4800,"station_id":"ce4bhm92rcd13ifvqglg","pricing_plan_id":"cebpf4jnsgd1na2vs0mg"},{"bike_id":"b86d23cc-0ebb-4096-8455-1aa57635770c","system_id":"levelo_inurba_marseille","lat":43.27567,"lon":5.38434,"is_reserved":false,"is_disabled":false,"rental_uris":{"android":"levelo://app?vid=b86d23cc-0ebb-4096-8455-1aa57635770c","ios":"levelo://app?vid=b86d23cc-0ebb-4096-8455-1aa57635770c"},"vehicle_type_id":"4","last_reported":1742390365,"current_range_meters":4800,"station_id":"ce4bhh92rcd13ifvqfi0","pricing_plan_id":"cebpf4jnsgd1na2vs0mg"},{"bike_id":"4feaac8a-68ef-4155-9153-40e0feec8836","system_id":"levelo_inurba_marseille","lat":43.30952,"lon":5.39035,"is_reserved":false,"is_disabled":false,"rental_uris":{"android":"levelo://app?vid=4feaac8a-68ef-4155-9153-40e0feec8836","ios":"levelo://app?vid=4feaac8a-68ef-4155-9153-40e0feec8836"},"vehicle_type_id":"4","last_reported":1742390365,"current_range_meters":4800,"station_id":"ce4bgup2rcd13ifvqco0","pricing_plan_id":"cebpf4jnsgd1na2vs0mg"},{"bike_id":"81f05f5c-17f0-4ec1-805e-708cba43d38b","system_id":"levelo_inurba_marseille","lat":43.28715,"lon":5.37387,"is_reserved":false,"is_disabled":false,"rental_uris":{"android":"levelo://app?vid=81f05f5c-17f0-4ec1-805e-708cba43d38b","ios":"levelo://app?vid=81f05f5c-17f0-4ec1-805e-708cba43d38b"},"vehicle_type_id":"4","last_reported":1742390365,"current_range_meters":4800,"station_id":"ce4bh3p2rcd13ifvqdq0","pricing_plan_id":"cebpf4jnsgd1na2vs0mg"},{"bike_id":"d87b4a19-2415-4712-9093-718d78061875","system_id":"levelo_inurba_marseille","lat":43.27819,"lon":5.40719,"is_reserved":false,"is_disabled":false,"rental_uris":{"android":"levelo://app?vid=d87b4a19-2415-4712-9093-718d78061875","ios":"levelo://app?vid=d87b4a19-2415-4712-9093-718d78061875"},"vehicle_type_id":"4","last_reported":1742390365,"current_range_meters":4800,"station_id":"ce4bhnh2rcd13ifvqgtg","pricing_plan_id":"cebpf4jnsgd1na2vs0mg"},{"bike_id":"9c116928-041a-4c48-98f3-58a29bcb0b33","system_id":"levelo_inurba_marseille","lat":43.27426,"lon":5.39421,"is_reserved":false,"is_disabled":false,"rental_uris":{"android":"levelo://app?vid=9c116928-041a-4c48-98f3-58a29bcb0b33","ios":"levelo://app?vid=9c116928-041a-4c48-98f3-58a29bcb0b33"},"vehicle_type_id":"4","last_reported":1742390365,"current_range_meters":4800,"station_id":"ce4bhdp2rcd13ifvqf20","pricing_plan_id":"cebpf4jnsgd1na2vs0mg"},{"bike_id":"0f19dc29-e735-4d34-8530-cf0e5c9a549f","system_id":"levelo_inurba_marseille","lat":43.29208,"lon":5.39339,"is_reserved":false,"is_disabled":false,"rental_uris":{"android":"levelo://app?vid=0f19dc29-e735-4d34-8530-cf0e5c9a549f","ios":"levelo://app?vid=0f19dc29-e735-4d34-8530-cf0e5c9a549f"},"vehicle_type_id":"4","last_reported":1742390365,"current_range_meters":5600,"station_id":"ce4bh192rcd13ifvqdd0","pricing_plan_id":"cebpf4jnsgd1na2vs0mg"},{"bike_id":"a4c416d9-be25-4e1c-9475-d442afa01b95","system_id":"levelo_inurba_marseille","lat":43.30956,"lon":5.3905,"is_reserved":false,"is_disabled":false,"rental_uris":{"android":"levelo://app?vid=a4c416d9-be25-4e1c-9475-d442afa01b95","ios":"levelo://app?vid=a4c416d9-be25-4e1c-9475-d442afa01b95"},"vehicle_type_id":"4","last_reported":1742390365,"current_range_meters":5600,"station_id":"ce4bgup2rcd13ifvqco0","pricing_plan_id":"cebpf4jnsgd1na2vs0mg"},{"bike_id":"e053a147-9531-498b-9c74-76505d13c85b","system_id":"levelo_inurba_marseille","lat":43.31721,"lon":5.43727,"is_reserved":false,"is_disabled":false,"rental_uris":{"android":"levelo://app?vid=e053a147-9531-498b-9c74-76505d13c85b","ios":"levelo://app?vid=e053a147-9531-498b-9c74-76505d13c85b"},"vehicle_type_id":"4","last_reported":1742390365,"current_range_meters":5600,"station_id":"ce4bhp92rcd13ifvqhcg","pricing_plan_id":"cebpf4jnsgd1na2vs0mg"},{"bike_id":"b182608f-b588-4878-9a4b-ea90fe284413","system_id":"levelo_inurba_marseille","lat":43.24158,"lon":5.3643,"is_reserved":false,"is_disabled":false,"rental_uris":{"android":"levelo://app?vid=b182608f-b588-4878-9a4b-ea90fe284413","ios":"levelo://app?vid=b182608f-b588-4878-9a4b-ea90fe284413"},"vehicle_type_id":"4","last_reported":1742390365,"current_range_meters":5600,"station_id":"cpo36qri1sfpv3e86is0","pricing_plan_id":"cebpf4jnsgd1na2vs0mg"},{"bike_id":"51e02ed5-07b6-4179-a49e-2d9860c85166","system_id":"levelo_inurba_marseille","lat":43.278086,"lon":5.407108,"is_reserved":false,"is_disabled":false,"rental_uris":{"android":"levelo://app?vid=51e02ed5-07b6-4179-a49e-2d9860c85166","ios":"levelo://app?vid=51e02ed5-07b6-4179-a49e-2d9860c85166"},"vehicle_type_id":"4","last_reported":1742390365,"current_range_meters":5600,"station_id":"ce4bhnh2rcd13ifvqgtg","pricing_plan_id":"cebpf4jnsgd1na2vs0mg"},{"bike_id":"5eb37de2-db85-4858-9af2-5bc18db81ccb","system_id":"levelo_inurba_marseille","lat":43.29967,"lon":5.38498,"is_reserved":false,"is_disabled":false,"rental_uris":{"android":"levelo://app?vid=5eb37de2-db85-4858-9af2-5bc18db81ccb","ios":"levelo://app?vid=5eb37de2-db85-4858-9af2-5bc18db81ccb"},"vehicle_type_id":"4","last_reported":1742390365,"current_range_meters":5600,"station_id":"ce4bgj92rcd13ifvqbd0","pricing_plan_id":"cebpf4jnsgd1na2vs0mg"},{"bike_id":"8773b389-4745-4aa0-a5e9-22b81b8f9c1e","system_id":"levelo_inurba_marseille","lat":43.33573,"lon":5.41009,"is_reserved":false,"is_disabled":false,"rental_uris":{"android":"levelo://app?vid=8773b389-4745-4aa0-a5e9-22b81b8f9c1e","ios":"levelo://app?vid=8773b389-4745-4aa0-a5e9-22b81b8f9c1e"},"vehicle_type_id":"4","last_reported":1742390365,"current_range_meters":5600,"station_id":"ce4bhqh2rcd13ifvqhmg","pricing_plan_id":"cebpf4jnsgd1na2vs0mg"},{"bike_id":"7ddfc708-92e1-4b05-925b-f67a30e8534a","system_id":"levelo_inurba_marseille","lat":43.295152,"lon":5.394013,"is_reserved":false,"is_disabled":false,"rental_uris":{"android":"levelo://app?vid=7ddfc708-92e1-4b05-925b-f67a30e8534a","ios":"levelo://app?vid=7ddfc708-92e1-4b05-925b-f67a30e8534a"},"vehicle_type_id":"4","last_reported":1742390365,"current_range_meters":6000,"station_id":"ce4bh292rcd13ifvqdf0","pricing_plan_id":"cebpf4jnsgd1na2vs0mg"},{"bike_id":"8beacb06-191c-4078-8acc-085abaf3a4f4","system_id":"levelo_inurba_marseille","lat":43.27998,"lon":5.44174,"is_reserved":false,"is_disabled":false,"rental_uris":{"android":"levelo://app?vid=8beacb06-191c-4078-8acc-085abaf3a4f4","ios":"levelo://app?vid=8beacb06-191c-4078-8acc-085abaf3a4f4"},"vehicle_type_id":"4","last_reported":1742390365,"current_range_meters":6000,"station_id":"","pricing_plan_id":"cebpf4jnsgd1na2vs0mg"},{"bike_id":"a14cb50b-9b44-40cd-8601-6968b549f2fd","system_id":"levelo_inurba_marseille","lat":43.30145,"lon":5.37428,"is_reserved":false,"is_disabled":false,"rental_uris":{"android":"levelo://app?vid=a14cb50b-9b44-40cd-8601-6968b549f2fd","ios":"levelo://app?vid=a14cb50b-9b44-40cd-8601-6968b549f2fd"},"vehicle_type_id":"4","last_reported":1742390365,"current_range_meters":6000,"station_id":"ce4bgs92rcd13ifvqcc0","pricing_plan_id":"cebpf4jnsgd1na2vs0mg"},{"bike_id":"d0ecd06f-b344-485c-8550-9fa5bf448f53","system_id":"levelo_inurba_marseille","lat":43.25841,"lon":5.39424,"is_reserved":false,"is_disabled":false,"rental_uris":{"android":"levelo://app?vid=d0ecd06f-b344-485c-8550-9fa5bf448f53","ios":"levelo://app?vid=d0ecd06f-b344-485c-8550-9fa5bf448f53"},"vehicle_type_id":"4","last_reported":1742390365,"current_range_meters":6000,"station_id":"ce4bhip2rcd13ifvqft0","pricing_plan_id":"cebpf4jnsgd1na2vs0mg"},{"bike_id":"8528cfd6-758c-4197-aaac-800294acfea6","system_id":"levelo_inurba_marseille","lat":43.25877,"lon":5.39904,"is_reserved":false,"is_disabled":false,"rental_uris":{"android":"levelo://app?vid=8528cfd6-758c-4197-aaac-800294acfea6","ios":"levelo://app?vid=8528cfd6-758c-4197-aaac-800294acfea6"},"vehicle_type_id":"4","last_reported":1742390365,"current_range_meters":6000,"station_id":"ce4bhl92rcd13ifvqghg","pricing_plan_id":"cebpf4jnsgd1na2vs0mg"},{"bike_id":"21070c61-b170-4ace-98c6-b715b327d75d","system_id":"levelo_inurba_marseille","lat":43.24648,"lon":5.38913,"is_reserved":false,"is_disabled":false,"rental_uris":{"android":"levelo://app?vid=21070c61-b170-4ace-98c6-b715b327d75d","ios":"levelo://app?vid=21070c61-b170-4ace-98c6-b715b327d75d"},"vehicle_type_id":"4","last_reported":1742390365,"current_range_meters":6000,"station_id":"ce4bhg12rcd13ifvqf60","pricing_plan_id":"cebpf4jnsgd1na2vs0mg"},{"bike_id":"fcdee2a0-0495-44d6-8486-fb7d2c7c0353","system_id":"levelo_inurba_marseille","lat":43.28936,"lon":5.36632,"is_reserved":false,"is_disabled":false,"rental_uris":{"android":"levelo://app?vid=fcdee2a0-0495-44d6-8486-fb7d2c7c0353","ios":"levelo://app?vid=fcdee2a0-0495-44d6-8486-fb7d2c7c0353"},"vehicle_type_id":"4","last_reported":1742390365,"current_range_meters":6400,"station_id":"ce4bhap2rcd13ifvqek0","pricing_plan_id":"cebpf4jnsgd1na2vs0mg"},{"bike_id":"67e0c315-32f2-4c45-9a3c-78bcf1307cf7","system_id":"levelo_inurba_marseille","lat":43.2903,"lon":5.38126,"is_reserved":false,"is_disabled":false,"rental_uris":{"android":"levelo://app?vid=67e0c315-32f2-4c45-9a3c-78bcf1307cf7","ios":"levelo://app?vid=67e0c315-32f2-4c45-9a3c-78bcf1307cf7"},"vehicle_type_id":"4","last_reported":1742390365,"current_range_meters":6400,"station_id":"ce4bh4p2rcd13ifvqe1g","pricing_plan_id":"cebpf4jnsgd1na2vs0mg"},{"bike_id":"91066aa5-a733-409b-ba16-b17c5896125f","system_id":"levelo_inurba_marseille","lat":43.32368,"lon":5.38896,"is_reserved":false,"is_disabled":false,"rental_uris":{"android":"levelo://app?vid=91066aa5-a733-409b-ba16-b17c5896125f","ios":"levelo://app?vid=91066aa5-a733-409b-ba16-b17c5896125f"},"vehicle_type_id":"4","last_reported":1742390365,"current_range_meters":6400,"station_id":"ce4bhqp2rcd13ifvqhog","pricing_plan_id":"cebpf4jnsgd1na2vs0mg"},{"bike_id":"a3bdd7a0-082b-43aa-8c66-de9aa41563f2","system_id":"levelo_inurba_marseille","lat":43.31359,"lon":5.38504,"is_reserved":false,"is_disabled":false,"rental_uris":{"android":"levelo://app?vid=a3bdd7a0-082b-43aa-8c66-de9aa41563f2","ios":"levelo://app?vid=a3bdd7a0-082b-43aa-8c66-de9aa41563f2"},"vehicle_type_id":"4","last_reported":1742390365,"current_range_meters":6400,"station_id":"ce4bgt92rcd13ifvqcf0","pricing_plan_id":"cebpf4jnsgd1na2vs0mg"},{"bike_id":"2fc9495d-c829-4229-a4db-5c8674880d7a","system_id":"levelo_inurba_marseille","lat":43.23058,"lon":5.35501,"is_reserved":false,"is_disabled":false,"rental_uris":{"android":"levelo://app?vid=2fc9495d-c829-4229-a4db-5c8674880d7a","ios":"levelo://app?vid=2fc9495d-c829-4229-a4db-5c8674880d7a"},"vehicle_type_id":"4","last_reported":1742390365,"current_range_meters":6400,"station_id":"cpo3342slgdg3j2ifvpg","pricing_plan_id":"cebpf4jnsgd1na2vs0mg"},{"bike_id":"3a7853e7-de64-4ab3-9367-d4697d94026a","system_id":"levelo_inurba_marseille","lat":43.28273,"lon":5.35063,"is_reserved":false,"is_disabled":false,"rental_uris":{"android":"levelo://app?vid=3a7853e7-de64-4ab3-9367-d4697d94026a","ios":"levelo://app?vid=3a7853e7-de64-4ab3-9367-d4697d94026a"},"vehicle_type_id":"4","last_reported":1742390365,"current_range_meters":6000,"station_id":"ce4bhbp2rcd13ifvqerg","pricing_plan_id":"cebpf4jnsgd1na2vs0mg"},{"bike_id":"75200fa2-e271-4daf-8b8b-429880f6642f","system_id":"levelo_inurba_marseille","lat":43.24389,"lon":5.37061,"is_reserved":false,"is_disabled":false,"rental_uris":{"android":"levelo://app?vid=75200fa2-e271-4daf-8b8b-429880f6642f","ios":"levelo://app?vid=75200fa2-e271-4daf-8b8b-429880f6642f"},"vehicle_type_id":"4","last_reported":1742390365,"current_range_meters":6400,"station_id":"ce4bhhh2rcd13ifvqfk0","pricing_plan_id":"cebpf4jnsgd1na2vs0mg"},{"bike_id":"0b60e72b-d8b1-4266-9b63-b94b87c1ad4b","system_id":"levelo_inurba_marseille","lat":43.23205,"lon":5.39962,"is_reserved":false,"is_disabled":false,"rental_uris":{"android":"levelo://app?vid=0b60e72b-d8b1-4266-9b63-b94b87c1ad4b","ios":"levelo://app?vid=0b60e72b-d8b1-4266-9b63-b94b87c1ad4b"},"vehicle_type_id":"4","last_reported":1742390365,"current_range_meters":6800,"station_id":"ce4bhn12rcd13ifvqgqg","pricing_plan_id":"cebpf4jnsgd1na2vs0mg"},{"bike_id":"05beb372-1fdd-4512-a082-096d3d3d021a","system_id":"levelo_inurba_marseille","lat":43.25111,"lon":5.40332,"is_reserved":false,"is_disabled":false,"rental_uris":{"android":"levelo://app?vid=05beb372-1fdd-4512-a082-096d3d3d021a","ios":"levelo://app?vid=05beb372-1fdd-4512-a082-096d3d3d021a"},"vehicle_type_id":"4","last_reported":1742390365,"current_range_meters":6000,"station_id":"ce4bhlh2rcd13ifvqgig","pricing_plan_id":"cebpf4jnsgd1na2vs0mg"},{"bike_id":"b627c9ad-3c9c-4e71-ac51-64e10127430c","system_id":"levelo_inurba_marseille","lat":43.27903,"lon":5.38017,"is_reserved":false,"is_disabled":false,"rental_uris":{"android":"levelo://app?vid=b627c9ad-3c9c-4e71-ac51-64e10127430c","ios":"levelo://app?vid=b627c9ad-3c9c-4e71-ac51-64e10127430c"},"vehicle_type_id":"4","last_reported":1742390365,"current_range_meters":6800,"station_id":"ce4bhf92rcd13ifvqf50","pricing_plan_id":"cebpf4jnsgd1na2vs0mg"},{"bike_id":"519efbbc-7577-4063-8eac-658ef30e98a3","system_id":"levelo_inurba_marseille","lat":43.25021,"lon":5.38923,"is_reserved":false,"is_disabled":false,"rental_uris":{"android":"levelo://app?vid=519efbbc-7577-4063-8eac-658ef30e98a3","ios":"levelo://app?vid=519efbbc-7577-4063-8eac-658ef30e98a3"},"vehicle_type_id":"4","last_reported":1742390365,"current_range_meters":6800,"station_id":"ce4bhgp2rcd13ifvqfd0","pricing_plan_id":"cebpf4jnsgd1na2vs0mg"},{"bike_id":"3a4f14b6-37fe-4082-8713-1ebce816b8dc","system_id":"levelo_inurba_marseille","lat":43.29913,"lon":5.38149,"is_reserved":false,"is_disabled":false,"rental_uris":{"android":"levelo://app?vid=3a4f14b6-37fe-4082-8713-1ebce816b8dc","ios":"levelo://app?vid=3a4f14b6-37fe-4082-8713-1ebce816b8dc"},"vehicle_type_id":"4","last_reported":1742390365,"current_range_meters":6800,"station_id":"ce4bgj12rcd13ifvqbc0","pricing_plan_id":"cebpf4jnsgd1na2vs0mg"},{"bike_id":"270cc5da-5521-43c5-a898-7ea07c800e19","system_id":"levelo_inurba_marseille","lat":43.2588,"lon":5.39897,"is_reserved":false,"is_disabled":false,"rental_uris":{"android":"levelo://app?vid=270cc5da-5521-43c5-a898-7ea07c800e19","ios":"levelo://app?vid=270cc5da-5521-43c5-a898-7ea07c800e19"},"vehicle_type_id":"4","last_reported":1742390365,"current_range_meters":6800,"station_id":"ce4bhl92rcd13ifvqghg","pricing_plan_id":"cebpf4jnsgd1na2vs0mg"},{"bike_id":"3c4f394c-0305-4c58-97e5-6826bd9d917e","system_id":"levelo_inurba_marseille","lat":43.32494,"lon":5.36569,"is_reserved":false,"is_disabled":false,"rental_uris":{"android":"levelo://app?vid=3c4f394c-0305-4c58-97e5-6826bd9d917e","ios":"levelo://app?vid=3c4f394c-0305-4c58-97e5-6826bd9d917e"},"vehicle_type_id":"4","last_reported":1742390365,"current_range_meters":7200,"station_id":"ce4bhs12rcd13ifvqhvg","pricing_plan_id":"cebpf4jnsgd1na2vs0mg"},{"bike_id":"0acde8e9-ee20-4d0f-b960-c3835cfb3c02","system_id":"levelo_inurba_marseille","lat":43.28853,"lon":5.35845,"is_reserved":false,"is_disabled":false,"rental_uris":{"android":"levelo://app?vid=0acde8e9-ee20-4d0f-b960-c3835cfb3c02","ios":"levelo://app?vid=0acde8e9-ee20-4d0f-b960-c3835cfb3c02"},"vehicle_type_id":"4","last_reported":1742390365,"current_range_meters":7200,"station_id":"ce4bhb12rcd13ifvqem0","pricing_plan_id":"cebpf4jnsgd1na2vs0mg"},{"bike_id":"c1ccf0a5-89fe-4d49-a5d7-808fb720c652","system_id":"levelo_inurba_marseille","lat":43.26051,"lon":5.41722,"is_reserved":false,"is_disabled":false,"rental_uris":{"android":"levelo://app?vid=c1ccf0a5-89fe-4d49-a5d7-808fb720c652","ios":"levelo://app?vid=c1ccf0a5-89fe-4d49-a5d7-808fb720c652"},"vehicle_type_id":"4","last_reported":1742390365,"current_range_meters":7200,"station_id":"","pricing_plan_id":"cebpf4jnsgd1na2vs0mg"},{"bike_id":"6ae6f76c-6a01-4d75-9d3f-dfa610803a78","system_id":"levelo_inurba_marseille","lat":43.23065,"lon":5.35501,"is_reserved":false,"is_disabled":false,"rental_uris":{"android":"levelo://app?vid=6ae6f76c-6a01-4d75-9d3f-dfa610803a78","ios":"levelo://app?vid=6ae6f76c-6a01-4d75-9d3f-dfa610803a78"},"vehicle_type_id":"4","last_reported":1742390365,"current_range_meters":7200,"station_id":"cpo3342slgdg3j2ifvpg","pricing_plan_id":"cebpf4jnsgd1na2vs0mg"},{"bike_id":"700425af-d7e2-4b81-a8f7-cd8eab740a32","system_id":"levelo_inurba_marseille","lat":43.27825,"lon":5.40705,"is_reserved":false,"is_disabled":false,"rental_uris":{"android":"levelo://app?vid=700425af-d7e2-4b81-a8f7-cd8eab740a32","ios":"levelo://app?vid=700425af-d7e2-4b81-a8f7-cd8eab740a32"},"vehicle_type_id":"4","last_reported":1742390365,"current_range_meters":7200,"station_id":"ce4bhnh2rcd13ifvqgtg","pricing_plan_id":"cebpf4jnsgd1na2vs0mg"},{"bike_id":"a342afa1-fe1b-4de5-8f98-f3f81167fac6","system_id":"levelo_inurba_marseille","lat":43.22928,"lon":5.35386,"is_reserved":false,"is_disabled":false,"rental_uris":{"android":"levelo://app?vid=a342afa1-fe1b-4de5-8f98-f3f81167fac6","ios":"levelo://app?vid=a342afa1-fe1b-4de5-8f98-f3f81167fac6"},"vehicle_type_id":"4","last_reported":1742390365,"current_range_meters":7200,"station_id":"cpo3532slgdg3j2ikp40","pricing_plan_id":"cebpf4jnsgd1na2vs0mg"},{"bike_id":"dd8a4413-8864-497c-b1c7-e4d74a21dfcf","system_id":"levelo_inurba_marseille","lat":43.23152,"lon":5.43716,"is_reserved":false,"is_disabled":false,"rental_uris":{"android":"levelo://app?vid=dd8a4413-8864-497c-b1c7-e4d74a21dfcf","ios":"levelo://app?vid=dd8a4413-8864-497c-b1c7-e4d74a21dfcf"},"vehicle_type_id":"4","last_reported":1742390365,"current_range_meters":7200,"station_id":"ce4bhmp2rcd13ifvqgog","pricing_plan_id":"cebpf4jnsgd1na2vs0mg"},{"bike_id":"ed32af05-a93a-40af-b3e3-3171404acc80","system_id":"levelo_inurba_marseille","lat":43.27378,"lon":5.36255,"is_reserved":false,"is_disabled":false,"rental_uris":{"android":"levelo://app?vid=ed32af05-a93a-40af-b3e3-3171404acc80","ios":"levelo://app?vid=ed32af05-a93a-40af-b3e3-3171404acc80"},"vehicle_type_id":"4","last_reported":1742390365,"current_range_meters":7200,"station_id":"ce4bhbh2rcd13ifvqeo0","pricing_plan_id":"cebpf4jnsgd1na2vs0mg"},{"bike_id":"5ec6ee8c-5fe6-40f7-9df5-9d65047a1d4f","system_id":"levelo_inurba_marseille","lat":43.27817,"lon":5.40714,"is_reserved":false,"is_disabled":false,"rental_uris":{"android":"levelo://app?vid=5ec6ee8c-5fe6-40f7-9df5-9d65047a1d4f","ios":"levelo://app?vid=5ec6ee8c-5fe6-40f7-9df5-9d65047a1d4f"},"vehicle_type_id":"4","last_reported":1742390365,"current_range_meters":7200,"station_id":"ce4bhnh2rcd13ifvqgtg","pricing_plan_id":"cebpf4jnsgd1na2vs0mg"},{"bike_id":"5d6a6815-9769-45f8-8b45-4ae727580b92","system_id":"levelo_inurba_marseille","lat":43.33021,"lon":5.39042,"is_reserved":false,"is_disabled":false,"rental_uris":{"android":"levelo://app?vid=5d6a6815-9769-45f8-8b45-4ae727580b92","ios":"levelo://app?vid=5d6a6815-9769-45f8-8b45-4ae727580b92"},"vehicle_type_id":"4","last_reported":1742390365,"current_range_meters":7200,"station_id":"ce4bhr92rcd13ifvqhrg","pricing_plan_id":"cebpf4jnsgd1na2vs0mg"},{"bike_id":"3ead765b-9785-4ec5-985b-fd9d3a8643d9","system_id":"levelo_inurba_marseille","lat":43.23152,"lon":5.43713,"is_reserved":false,"is_disabled":false,"rental_uris":{"android":"levelo://app?vid=3ead765b-9785-4ec5-985b-fd9d3a8643d9","ios":"levelo://app?vid=3ead765b-9785-4ec5-985b-fd9d3a8643d9"},"vehicle_type_id":"4","last_reported":1742390365,"current_range_meters":7200,"station_id":"ce4bhmp2rcd13ifvqgog","pricing_plan_id":"cebpf4jnsgd1na2vs0mg"},{"bike_id":"88e686a5-b89f-4d0c-a271-251c80433298","system_id":"levelo_inurba_marseille","lat":43.23154,"lon":5.43715,"is_reserved":false,"is_disabled":false,"rental_uris":{"android":"levelo://app?vid=88e686a5-b89f-4d0c-a271-251c80433298","ios":"levelo://app?vid=88e686a5-b89f-4d0c-a271-251c80433298"},"vehicle_type_id":"4","last_reported":1742390365,"current_range_meters":8000,"station_id":"ce4bhmp2rcd13ifvqgog","pricing_plan_id":"cebpf4jnsgd1na2vs0mg"},{"bike_id":"aaea3195-2c7d-46e0-940a-929347422b91","system_id":"levelo_inurba_marseille","lat":43.28487,"lon":5.38597,"is_reserved":false,"is_disabled":false,"rental_uris":{"android":"levelo://app?vid=aaea3195-2c7d-46e0-940a-929347422b91","ios":"levelo://app?vid=aaea3195-2c7d-46e0-940a-929347422b91"},"vehicle_type_id":"4","last_reported":1742390365,"current_range_meters":8000,"station_id":"ce4bh8p2rcd13ifvqeb0","pricing_plan_id":"cebpf4jnsgd1na2vs0mg"},{"bike_id":"c095b8ad-f5fa-46e0-bc3d-b3a0b332f1ed","system_id":"levelo_inurba_marseille","lat":43.3125,"lon":5.36879,"is_reserved":false,"is_disabled":false,"rental_uris":{"android":"levelo://app?vid=c095b8ad-f5fa-46e0-bc3d-b3a0b332f1ed","ios":"levelo://app?vid=c095b8ad-f5fa-46e0-bc3d-b3a0b332f1ed"},"vehicle_type_id":"4","last_reported":1742390365,"current_range_meters":8000,"station_id":"ce4bgl92rcd13ifvqbq0","pricing_plan_id":"cebpf4jnsgd1na2vs0mg"},{"bike_id":"197c1e84-bdce-4a2a-b236-10a8609b27e0","system_id":"levelo_inurba_marseille","lat":43.25873,"lon":5.39897,"is_reserved":false,"is_disabled":false,"rental_uris":{"android":"levelo://app?vid=197c1e84-bdce-4a2a-b236-10a8609b27e0","ios":"levelo://app?vid=197c1e84-bdce-4a2a-b236-10a8609b27e0"},"vehicle_type_id":"4","last_reported":1742390365,"current_range_meters":8000,"station_id":"ce4bhl92rcd13ifvqghg","pricing_plan_id":"cebpf4jnsgd1na2vs0mg"},{"bike_id":"29177bd9-b05a-46e3-a7c6-0bab8134bba2","system_id":"levelo_inurba_marseille","lat":43.2719,"lon":5.40988,"is_reserved":false,"is_disabled":false,"rental_uris":{"android":"levelo://app?vid=29177bd9-b05a-46e3-a7c6-0bab8134bba2","ios":"levelo://app?vid=29177bd9-b05a-46e3-a7c6-0bab8134bba2"},"vehicle_type_id":"4","last_reported":1742390365,"current_range_meters":8000,"station_id":"ce4bhl12rcd13ifvqgf0","pricing_plan_id":"cebpf4jnsgd1na2vs0mg"},{"bike_id":"ca1c0a28-8faf-435f-9d8b-370c3a07ff34","system_id":"levelo_inurba_marseille","lat":43.2417,"lon":5.36393,"is_reserved":false,"is_disabled":false,"rental_uris":{"android":"levelo://app?vid=ca1c0a28-8faf-435f-9d8b-370c3a07ff34","ios":"levelo://app?vid=ca1c0a28-8faf-435f-9d8b-370c3a07ff34"},"vehicle_type_id":"4","last_reported":1742390365,"current_range_meters":8000,"station_id":"cpo36qri1sfpv3e86is0","pricing_plan_id":"cebpf4jnsgd1na2vs0mg"},{"bike_id":"8b32b85a-5da5-4fb7-9bce-2917bc92c51c","system_id":"levelo_inurba_marseille","lat":43.27813,"lon":5.4069,"is_reserved":false,"is_disabled":false,"rental_uris":{"android":"levelo://app?vid=8b32b85a-5da5-4fb7-9bce-2917bc92c51c","ios":"levelo://app?vid=8b32b85a-5da5-4fb7-9bce-2917bc92c51c"},"vehicle_type_id":"4","last_reported":1742390365,"current_range_meters":8000,"station_id":"ce4bhnh2rcd13ifvqgtg","pricing_plan_id":"cebpf4jnsgd1na2vs0mg"},{"bike_id":"34b74241-1e6e-458b-a83f-9bda30270e74","system_id":"levelo_inurba_marseille","lat":43.27828,"lon":5.40697,"is_reserved":false,"is_disabled":false,"rental_uris":{"android":"levelo://app?vid=34b74241-1e6e-458b-a83f-9bda30270e74","ios":"levelo://app?vid=34b74241-1e6e-458b-a83f-9bda30270e74"},"vehicle_type_id":"4","last_reported":1742390365,"current_range_meters":8000,"station_id":"ce4bhnh2rcd13ifvqgtg","pricing_plan_id":"cebpf4jnsgd1na2vs0mg"},{"bike_id":"61c41159-7a8b-45ee-a18c-926f56b3edec","system_id":"levelo_inurba_marseille","lat":43.25827,"lon":5.39444,"is_reserved":false,"is_disabled":false,"rental_uris":{"android":"levelo://app?vid=61c41159-7a8b-45ee-a18c-926f56b3edec","ios":"levelo://app?vid=61c41159-7a8b-45ee-a18c-926f56b3edec"},"vehicle_type_id":"4","last_reported":1742390365,"current_range_meters":8000,"station_id":"ce4bhip2rcd13ifvqft0","pricing_plan_id":"cebpf4jnsgd1na2vs0mg"},{"bike_id":"e7727825-1550-4ac5-83b8-e36a5d869f96","system_id":"levelo_inurba_marseille","lat":43.26232,"lon":5.40449,"is_reserved":false,"is_disabled":false,"rental_uris":{"android":"levelo://app?vid=e7727825-1550-4ac5-83b8-e36a5d869f96","ios":"levelo://app?vid=e7727825-1550-4ac5-83b8-e36a5d869f96"},"vehicle_type_id":"4","last_reported":1742390365,"current_range_meters":8000,"station_id":"ce4bhmh2rcd13ifvqgmg","pricing_plan_id":"cebpf4jnsgd1na2vs0mg"},{"bike_id":"f21279f0-26ba-40b9-a5fb-1fd6c7d6abe3","system_id":"levelo_inurba_marseille","lat":43.25829,"lon":5.39424,"is_reserved":false,"is_disabled":false,"rental_uris":{"android":"levelo://app?vid=f21279f0-26ba-40b9-a5fb-1fd6c7d6abe3","ios":"levelo://app?vid=f21279f0-26ba-40b9-a5fb-1fd6c7d6abe3"},"vehicle_type_id":"4","last_reported":1742390365,"current_range_meters":8400,"station_id":"ce4bhip2rcd13ifvqft0","pricing_plan_id":"cebpf4jnsgd1na2vs0mg"},{"bike_id":"1972cfd6-1a0c-4311-be51-0bbb1473822e","system_id":"levelo_inurba_marseille","lat":43.27949,"lon":5.41046,"is_reserved":false,"is_disabled":false,"rental_uris":{"android":"levelo://app?vid=1972cfd6-1a0c-4311-be51-0bbb1473822e","ios":"levelo://app?vid=1972cfd6-1a0c-4311-be51-0bbb1473822e"},"vehicle_type_id":"4","last_reported":1742390365,"current_range_meters":8400,"station_id":"ce4bhnp2rcd13ifvqh0g","pricing_plan_id":"cebpf4jnsgd1na2vs0mg"},{"bike_id":"f1df6d1e-0c03-474f-bfb1-8814c23e889e","system_id":"levelo_inurba_marseille","lat":43.31716,"lon":5.43718,"is_reserved":false,"is_disabled":false,"rental_uris":{"android":"levelo://app?vid=f1df6d1e-0c03-474f-bfb1-8814c23e889e","ios":"levelo://app?vid=f1df6d1e-0c03-474f-bfb1-8814c23e889e"},"vehicle_type_id":"4","last_reported":1742390365,"current_range_meters":8400,"station_id":"ce4bhp92rcd13ifvqhcg","pricing_plan_id":"cebpf4jnsgd1na2vs0mg"},{"bike_id":"216821f5-b4e7-4a05-bea0-70682269c968","system_id":"levelo_inurba_marseille","lat":43.31177,"lon":5.38722,"is_reserved":false,"is_disabled":false,"rental_uris":{"android":"levelo://app?vid=216821f5-b4e7-4a05-bea0-70682269c968","ios":"levelo://app?vid=216821f5-b4e7-4a05-bea0-70682269c968"},"vehicle_type_id":"4","last_reported":1742390365,"current_range_meters":8400,"station_id":"ce4bgv12rcd13ifvqcp0","pricing_plan_id":"cebpf4jnsgd1na2vs0mg"},{"bike_id":"a0c96000-7f22-4dce-9ba6-3a07fc369b34","system_id":"levelo_inurba_marseille","lat":43.27063,"lon":5.40262,"is_reserved":false,"is_disabled":false,"rental_uris":{"android":"levelo://app?vid=a0c96000-7f22-4dce-9ba6-3a07fc369b34","ios":"levelo://app?vid=a0c96000-7f22-4dce-9ba6-3a07fc369b34"},"vehicle_type_id":"4","last_reported":1742390365,"current_range_meters":8400,"station_id":"ce4bhk92rcd13ifvqgc0","pricing_plan_id":"cebpf4jnsgd1na2vs0mg"},{"bike_id":"ac7a98a5-fb6e-4fb0-b485-bf5d121721b9","system_id":"levelo_inurba_marseille","lat":43.32666,"lon":5.40992,"is_reserved":false,"is_disabled":false,"rental_uris":{"android":"levelo://app?vid=ac7a98a5-fb6e-4fb0-b485-bf5d121721b9","ios":"levelo://app?vid=ac7a98a5-fb6e-4fb0-b485-bf5d121721b9"},"vehicle_type_id":"4","last_reported":1742390365,"current_range_meters":8400,"station_id":"ce4bhpp2rcd13ifvqhgg","pricing_plan_id":"cebpf4jnsgd1na2vs0mg"},{"bike_id":"e94b1f20-3e0e-4dcb-9056-1e4af333e85a","system_id":"levelo_inurba_marseille","lat":43.28932,"lon":5.39708,"is_reserved":false,"is_disabled":false,"rental_uris":{"android":"levelo://app?vid=e94b1f20-3e0e-4dcb-9056-1e4af333e85a","ios":"levelo://app?vid=e94b1f20-3e0e-4dcb-9056-1e4af333e85a"},"vehicle_type_id":"4","last_reported":1742390365,"current_range_meters":8400,"station_id":"","pricing_plan_id":"cebpf4jnsgd1na2vs0mg"},{"bike_id":"6b162ed9-3599-4156-a34b-2df90433ae5c","system_id":"levelo_inurba_marseille","lat":43.24188,"lon":5.3973,"is_reserved":false,"is_disabled":false,"rental_uris":{"android":"levelo://app?vid=6b162ed9-3599-4156-a34b-2df90433ae5c","ios":"levelo://app?vid=6b162ed9-3599-4156-a34b-2df90433ae5c"},"vehicle_type_id":"4","last_reported":1742390365,"current_range_meters":8400,"station_id":"ce4bhn12rcd13ifvqgpg","pricing_plan_id":"cebpf4jnsgd1na2vs0mg"},{"bike_id":"1f332132-6385-4adf-be6a-5eec231ac387","system_id":"levelo_inurba_marseille","lat":43.24192,"lon":5.39728,"is_reserved":false,"is_disabled":false,"rental_uris":{"android":"levelo://app?vid=1f332132-6385-4adf-be6a-5eec231ac387","ios":"levelo://app?vid=1f332132-6385-4adf-be6a-5eec231ac387"},"vehicle_type_id":"4","last_reported":1742390365,"current_range_meters":8400,"station_id":"ce4bhn12rcd13ifvqgpg","pricing_plan_id":"cebpf4jnsgd1na2vs0mg"},{"bike_id":"1ff4b712-0199-4a94-832d-5142c1180356","system_id":"levelo_inurba_marseille","lat":43.31367,"lon":5.36684,"is_reserved":false,"is_disabled":true,"rental_uris":{"android":"levelo://app?vid=1ff4b712-0199-4a94-832d-5142c1180356","ios":"levelo://app?vid=1ff4b712-0199-4a94-832d-5142c1180356"},"vehicle_type_id":"4","last_reported":1742390365,"current_range_meters":8800,"station_id":"ce4bgr92rcd13ifvqc6g","pricing_plan_id":"cebpf4jnsgd1na2vs0mg"},{"bike_id":"1fe8cbb2-e61f-4748-8f3f-eff906305549","system_id":"levelo_inurba_marseille","lat":43.23072,"lon":5.355,"is_reserved":false,"is_disabled":false,"rental_uris":{"android":"levelo://app?vid=1fe8cbb2-e61f-4748-8f3f-eff906305549","ios":"levelo://app?vid=1fe8cbb2-e61f-4748-8f3f-eff906305549"},"vehicle_type_id":"4","last_reported":1742390365,"current_range_meters":8800,"station_id":"cpo3342slgdg3j2ifvpg","pricing_plan_id":"cebpf4jnsgd1na2vs0mg"},{"bike_id":"582c1324-d5ba-4656-846c-51e7b3df15eb","system_id":"levelo_inurba_marseille","lat":43.28948,"lon":5.36601,"is_reserved":false,"is_disabled":false,"rental_uris":{"android":"levelo://app?vid=582c1324-d5ba-4656-846c-51e7b3df15eb","ios":"levelo://app?vid=582c1324-d5ba-4656-846c-51e7b3df15eb"},"vehicle_type_id":"4","last_reported":1742390365,"current_range_meters":8800,"station_id":"ce4bhap2rcd13ifvqek0","pricing_plan_id":"cebpf4jnsgd1na2vs0mg"},{"bike_id":"61e9fd90-e9dd-462d-a9bd-1aa2307b7287","system_id":"levelo_inurba_marseille","lat":43.23168,"lon":5.43719,"is_reserved":false,"is_disabled":false,"rental_uris":{"android":"levelo://app?vid=61e9fd90-e9dd-462d-a9bd-1aa2307b7287","ios":"levelo://app?vid=61e9fd90-e9dd-462d-a9bd-1aa2307b7287"},"vehicle_type_id":"4","last_reported":1742390365,"current_range_meters":8800,"station_id":"ce4bhmp2rcd13ifvqgog","pricing_plan_id":"cebpf4jnsgd1na2vs0mg"},{"bike_id":"4f70ebff-4208-422e-8c95-09d5bebf9c84","system_id":"levelo_inurba_marseille","lat":43.27915,"lon":5.39578,"is_reserved":false,"is_disabled":false,"rental_uris":{"android":"levelo://app?vid=4f70ebff-4208-422e-8c95-09d5bebf9c84","ios":"levelo://app?vid=4f70ebff-4208-422e-8c95-09d5bebf9c84"},"vehicle_type_id":"4","last_reported":1742390365,"current_range_meters":8800,"station_id":"ce4bhf92rcd13ifvqf40","pricing_plan_id":"cebpf4jnsgd1na2vs0mg"},{"bike_id":"73775d85-d06e-4705-b3d6-611dd3926542","system_id":"levelo_inurba_marseille","lat":43.25917,"lon":5.40902,"is_reserved":false,"is_disabled":false,"rental_uris":{"android":"levelo://app?vid=73775d85-d06e-4705-b3d6-611dd3926542","ios":"levelo://app?vid=73775d85-d06e-4705-b3d6-611dd3926542"},"vehicle_type_id":"4","last_reported":1742390365,"current_range_meters":8800,"station_id":"ce4bhm92rcd13ifvqglg","pricing_plan_id":"cebpf4jnsgd1na2vs0mg"},{"bike_id":"c88fbe28-9402-4ce3-9d2b-7ab1e41f63e4","system_id":"levelo_inurba_marseille","lat":43.27623,"lon":5.3611,"is_reserved":false,"is_disabled":false,"rental_uris":{"android":"levelo://app?vid=c88fbe28-9402-4ce3-9d2b-7ab1e41f63e4","ios":"levelo://app?vid=c88fbe28-9402-4ce3-9d2b-7ab1e41f63e4"},"vehicle_type_id":"4","last_reported":1742390365,"current_range_meters":8800,"station_id":"ce4bgj92rcd13ifvqbe0","pricing_plan_id":"cebpf4jnsgd1na2vs0mg"},{"bike_id":"4af30189-94be-48ce-a528-0780bcce0809","system_id":"levelo_inurba_marseille","lat":43.2316,"lon":5.43712,"is_reserved":false,"is_disabled":false,"rental_uris":{"android":"levelo://app?vid=4af30189-94be-48ce-a528-0780bcce0809","ios":"levelo://app?vid=4af30189-94be-48ce-a528-0780bcce0809"},"vehicle_type_id":"4","last_reported":1742390365,"current_range_meters":8800,"station_id":"ce4bhmp2rcd13ifvqgog","pricing_plan_id":"cebpf4jnsgd1na2vs0mg"},{"bike_id":"dc83ecdd-a019-4ea6-a568-612273ff7e89","system_id":"levelo_inurba_marseille","lat":43.31289,"lon":5.40158,"is_reserved":false,"is_disabled":false,"rental_uris":{"android":"levelo://app?vid=dc83ecdd-a019-4ea6-a568-612273ff7e89","ios":"levelo://app?vid=dc83ecdd-a019-4ea6-a568-612273ff7e89"},"vehicle_type_id":"4","last_reported":1742390365,"current_range_meters":8400,"station_id":"ce4bh092rcd13ifvqd30","pricing_plan_id":"cebpf4jnsgd1na2vs0mg"},{"bike_id":"45233882-6a89-4b02-addd-28d39958200a","system_id":"levelo_inurba_marseille","lat":43.32365,"lon":5.36755,"is_reserved":false,"is_disabled":false,"rental_uris":{"android":"levelo://app?vid=45233882-6a89-4b02-addd-28d39958200a","ios":"levelo://app?vid=45233882-6a89-4b02-addd-28d39958200a"},"vehicle_type_id":"4","last_reported":1742390365,"current_range_meters":9200,"station_id":"ce4bhsh2rcd13ifvqi2g","pricing_plan_id":"cebpf4jnsgd1na2vs0mg"},{"bike_id":"25793b0d-d8a7-4fb7-bbd3-bb61178801a0","system_id":"levelo_inurba_marseille","lat":43.31012,"lon":5.37018,"is_reserved":false,"is_disabled":false,"rental_uris":{"android":"levelo://app?vid=25793b0d-d8a7-4fb7-bbd3-bb61178801a0","ios":"levelo://app?vid=25793b0d-d8a7-4fb7-bbd3-bb61178801a0"},"vehicle_type_id":"4","last_reported":1742390365,"current_range_meters":9200,"station_id":"","pricing_plan_id":"cebpf4jnsgd1na2vs0mg"},{"bike_id":"10eed6fd-0341-4510-a4a6-4c8769f4a4be","system_id":"levelo_inurba_marseille","lat":43.26681,"lon":5.38276,"is_reserved":false,"is_disabled":false,"rental_uris":{"android":"levelo://app?vid=10eed6fd-0341-4510-a4a6-4c8769f4a4be","ios":"levelo://app?vid=10eed6fd-0341-4510-a4a6-4c8769f4a4be"},"vehicle_type_id":"4","last_reported":1742390365,"current_range_meters":9200,"station_id":"ce4bhg92rcd13ifvqf90","pricing_plan_id":"cebpf4jnsgd1na2vs0mg"},{"bike_id":"c1a8283f-4fbc-482f-8a35-57a855a33970","system_id":"levelo_inurba_marseille","lat":43.27176,"lon":5.40995,"is_reserved":false,"is_disabled":false,"rental_uris":{"android":"levelo://app?vid=c1a8283f-4fbc-482f-8a35-57a855a33970","ios":"levelo://app?vid=c1a8283f-4fbc-482f-8a35-57a855a33970"},"vehicle_type_id":"4","last_reported":1742390365,"current_range_meters":8800,"station_id":"ce4bhl12rcd13ifvqgf0","pricing_plan_id":"cebpf4jnsgd1na2vs0mg"},{"bike_id":"bfd67b10-fd7c-4b25-bc6e-0830b23c1f4b","system_id":"levelo_inurba_marseille","lat":43.25832,"lon":5.39448,"is_reserved":false,"is_disabled":false,"rental_uris":{"android":"levelo://app?vid=bfd67b10-fd7c-4b25-bc6e-0830b23c1f4b","ios":"levelo://app?vid=bfd67b10-fd7c-4b25-bc6e-0830b23c1f4b"},"vehicle_type_id":"4","last_reported":1742390365,"current_range_meters":9200,"station_id":"ce4bhip2rcd13ifvqft0","pricing_plan_id":"cebpf4jnsgd1na2vs0mg"},{"bike_id":"31b27b00-2027-4131-a237-424850e81a3a","system_id":"levelo_inurba_marseille","lat":43.2958,"lon":5.39967,"is_reserved":false,"is_disabled":false,"rental_uris":{"android":"levelo://app?vid=31b27b00-2027-4131-a237-424850e81a3a","ios":"levelo://app?vid=31b27b00-2027-4131-a237-424850e81a3a"},"vehicle_type_id":"4","last_reported":1742390365,"current_range_meters":9200,"station_id":"ce4bh312rcd13ifvqdj0","pricing_plan_id":"cebpf4jnsgd1na2vs0mg"},{"bike_id":"bc1594f0-f23b-46fa-bccc-f3ff1c68a71d","system_id":"levelo_inurba_marseille","lat":43.2582,"lon":5.39425,"is_reserved":false,"is_disabled":false,"rental_uris":{"android":"levelo://app?vid=bc1594f0-f23b-46fa-bccc-f3ff1c68a71d","ios":"levelo://app?vid=bc1594f0-f23b-46fa-bccc-f3ff1c68a71d"},"vehicle_type_id":"4","last_reported":1742390365,"current_range_meters":9200,"station_id":"ce4bhip2rcd13ifvqft0","pricing_plan_id":"cebpf4jnsgd1na2vs0mg"},{"bike_id":"f6632011-38d2-40ac-bbb6-e86055c8c5f6","system_id":"levelo_inurba_marseille","lat":43.26249,"lon":5.40448,"is_reserved":false,"is_disabled":false,"rental_uris":{"android":"levelo://app?vid=f6632011-38d2-40ac-bbb6-e86055c8c5f6","ios":"levelo://app?vid=f6632011-38d2-40ac-bbb6-e86055c8c5f6"},"vehicle_type_id":"4","last_reported":1742390365,"current_range_meters":9200,"station_id":"ce4bhmh2rcd13ifvqgmg","pricing_plan_id":"cebpf4jnsgd1na2vs0mg"},{"bike_id":"e8149934-3cb8-4b56-a6fd-0299afd6204a","system_id":"levelo_inurba_marseille","lat":43.33041,"lon":5.39057,"is_reserved":false,"is_disabled":false,"rental_uris":{"android":"levelo://app?vid=e8149934-3cb8-4b56-a6fd-0299afd6204a","ios":"levelo://app?vid=e8149934-3cb8-4b56-a6fd-0299afd6204a"},"vehicle_type_id":"4","last_reported":1742390365,"current_range_meters":9200,"station_id":"ce4bhr92rcd13ifvqhrg","pricing_plan_id":"cebpf4jnsgd1na2vs0mg"},{"bike_id":"5d9993dc-228b-4e98-a2f8-68003ecd6731","system_id":"levelo_inurba_marseille","lat":43.3137,"lon":5.38497,"is_reserved":false,"is_disabled":false,"rental_uris":{"android":"levelo://app?vid=5d9993dc-228b-4e98-a2f8-68003ecd6731","ios":"levelo://app?vid=5d9993dc-228b-4e98-a2f8-68003ecd6731"},"vehicle_type_id":"4","last_reported":1742390365,"current_range_meters":9200,"station_id":"ce4bgt92rcd13ifvqcf0","pricing_plan_id":"cebpf4jnsgd1na2vs0mg"},{"bike_id":"7347b795-93b2-43e5-a897-f560928beeed","system_id":"levelo_inurba_marseille","lat":43.25447,"lon":5.3777,"is_reserved":false,"is_disabled":false,"rental_uris":{"android":"levelo://app?vid=7347b795-93b2-43e5-a897-f560928beeed","ios":"levelo://app?vid=7347b795-93b2-43e5-a897-f560928beeed"},"vehicle_type_id":"4","last_reported":1742390365,"current_range_meters":9200,"station_id":"ce4bhgh2rcd13ifvqfa0","pricing_plan_id":"cebpf4jnsgd1na2vs0mg"},{"bike_id":"4049b0f4-8999-4c68-90a1-46a57c06cc5a","system_id":"levelo_inurba_marseille","lat":43.23153,"lon":5.43712,"is_reserved":false,"is_disabled":false,"rental_uris":{"android":"levelo://app?vid=4049b0f4-8999-4c68-90a1-46a57c06cc5a","ios":"levelo://app?vid=4049b0f4-8999-4c68-90a1-46a57c06cc5a"},"vehicle_type_id":"4","last_reported":1742390365,"current_range_meters":9200,"station_id":"ce4bhmp2rcd13ifvqgog","pricing_plan_id":"cebpf4jnsgd1na2vs0mg"},{"bike_id":"1f6386e9-7c95-4a13-b32d-7aacf55520e2","system_id":"levelo_inurba_marseille","lat":43.27951,"lon":5.41043,"is_reserved":false,"is_disabled":false,"rental_uris":{"android":"levelo://app?vid=1f6386e9-7c95-4a13-b32d-7aacf55520e2","ios":"levelo://app?vid=1f6386e9-7c95-4a13-b32d-7aacf55520e2"},"vehicle_type_id":"4","last_reported":1742390365,"current_range_meters":9200,"station_id":"ce4bhnp2rcd13ifvqh0g","pricing_plan_id":"cebpf4jnsgd1na2vs0mg"},{"bike_id":"ca5ec2af-d9c0-4bf6-a9d8-72576ec4b622","system_id":"levelo_inurba_marseille","lat":43.2792,"lon":5.39582,"is_reserved":false,"is_disabled":false,"rental_uris":{"android":"levelo://app?vid=ca5ec2af-d9c0-4bf6-a9d8-72576ec4b622","ios":"levelo://app?vid=ca5ec2af-d9c0-4bf6-a9d8-72576ec4b622"},"vehicle_type_id":"4","last_reported":1742390365,"current_range_meters":9600,"station_id":"ce4bhf92rcd13ifvqf40","pricing_plan_id":"cebpf4jnsgd1na2vs0mg"},{"bike_id":"ebd45e7b-1c45-4b94-a31a-e5fdc9535d41","system_id":"levelo_inurba_marseille","lat":43.23967,"lon":5.36631,"is_reserved":false,"is_disabled":false,"rental_uris":{"android":"levelo://app?vid=ebd45e7b-1c45-4b94-a31a-e5fdc9535d41","ios":"levelo://app?vid=ebd45e7b-1c45-4b94-a31a-e5fdc9535d41"},"vehicle_type_id":"4","last_reported":1742390365,"current_range_meters":9600,"station_id":"ce4bhi12rcd13ifvqfp0","pricing_plan_id":"cebpf4jnsgd1na2vs0mg"},{"bike_id":"fc2e2255-3f2a-4eed-b8ca-72273a9cde79","system_id":"levelo_inurba_marseille","lat":43.29944,"lon":5.37481,"is_reserved":false,"is_disabled":false,"rental_uris":{"android":"levelo://app?vid=fc2e2255-3f2a-4eed-b8ca-72273a9cde79","ios":"levelo://app?vid=fc2e2255-3f2a-4eed-b8ca-72273a9cde79"},"vehicle_type_id":"4","last_reported":1742390365,"current_range_meters":9600,"station_id":"ce4bgjh2rcd13ifvqbg0","pricing_plan_id":"cebpf4jnsgd1na2vs0mg"},{"bike_id":"927ccfa8-7feb-41ec-9901-39dd721ef6c8","system_id":"levelo_inurba_marseille","lat":43.27829,"lon":5.40705,"is_reserved":false,"is_disabled":true,"rental_uris":{"android":"levelo://app?vid=927ccfa8-7feb-41ec-9901-39dd721ef6c8","ios":"levelo://app?vid=927ccfa8-7feb-41ec-9901-39dd721ef6c8"},"vehicle_type_id":"4","last_reported":1742390365,"current_range_meters":9600,"station_id":"ce4bhnh2rcd13ifvqgtg","pricing_plan_id":"cebpf4jnsgd1na2vs0mg"},{"bike_id":"8abf66b0-4c7b-4a5b-9216-254c311cdf06","system_id":"levelo_inurba_marseille","lat":43.25591,"lon":5.38218,"is_reserved":false,"is_disabled":false,"rental_uris":{"android":"levelo://app?vid=8abf66b0-4c7b-4a5b-9216-254c311cdf06","ios":"levelo://app?vid=8abf66b0-4c7b-4a5b-9216-254c311cdf06"},"vehicle_type_id":"4","last_reported":1742390365,"current_range_meters":9600,"station_id":"ce4bhih2rcd13ifvqfs0","pricing_plan_id":"cebpf4jnsgd1na2vs0mg"},{"bike_id":"bd49a066-9ce2-4e66-91b0-b7e5cf048262","system_id":"levelo_inurba_marseille","lat":43.30953,"lon":5.3903,"is_reserved":false,"is_disabled":false,"rental_uris":{"android":"levelo://app?vid=bd49a066-9ce2-4e66-91b0-b7e5cf048262","ios":"levelo://app?vid=bd49a066-9ce2-4e66-91b0-b7e5cf048262"},"vehicle_type_id":"4","last_reported":1742390365,"current_range_meters":9600,"station_id":"ce4bgup2rcd13ifvqco0","pricing_plan_id":"cebpf4jnsgd1na2vs0mg"},{"bike_id":"d031cedf-9e75-43de-a6ba-36669d1a46bd","system_id":"levelo_inurba_marseille","lat":43.34142,"lon":5.40908,"is_reserved":false,"is_disabled":false,"rental_uris":{"android":"levelo://app?vid=d031cedf-9e75-43de-a6ba-36669d1a46bd","ios":"levelo://app?vid=d031cedf-9e75-43de-a6ba-36669d1a46bd"},"vehicle_type_id":"4","last_reported":1742390365,"current_range_meters":9600,"station_id":"ce4bhqh2rcd13ifvqhlg","pricing_plan_id":"cebpf4jnsgd1na2vs0mg"},{"bike_id":"056c9455-af36-4790-b851-b2581cd69543","system_id":"levelo_inurba_marseille","lat":43.26228,"lon":5.40455,"is_reserved":false,"is_disabled":false,"rental_uris":{"android":"levelo://app?vid=056c9455-af36-4790-b851-b2581cd69543","ios":"levelo://app?vid=056c9455-af36-4790-b851-b2581cd69543"},"vehicle_type_id":"4","last_reported":1742390365,"current_range_meters":9600,"station_id":"ce4bhmh2rcd13ifvqgmg","pricing_plan_id":"cebpf4jnsgd1na2vs0mg"},{"bike_id":"c2f4da44-a44d-44d2-8be6-51648ee37d7f","system_id":"levelo_inurba_marseille","lat":43.25017,"lon":5.38945,"is_reserved":false,"is_disabled":false,"rental_uris":{"android":"levelo://app?vid=c2f4da44-a44d-44d2-8be6-51648ee37d7f","ios":"levelo://app?vid=c2f4da44-a44d-44d2-8be6-51648ee37d7f"},"vehicle_type_id":"4","last_reported":1742390365,"current_range_meters":9600,"station_id":"ce4bhgp2rcd13ifvqfd0","pricing_plan_id":"cebpf4jnsgd1na2vs0mg"},{"bike_id":"b6516885-6b2a-4c3b-b46a-6df7fec02364","system_id":"levelo_inurba_marseille","lat":43.25923,"lon":5.40888,"is_reserved":false,"is_disabled":false,"rental_uris":{"android":"levelo://app?vid=b6516885-6b2a-4c3b-b46a-6df7fec02364","ios":"levelo://app?vid=b6516885-6b2a-4c3b-b46a-6df7fec02364"},"vehicle_type_id":"4","last_reported":1742390365,"current_range_meters":9600,"station_id":"ce4bhm92rcd13ifvqglg","pricing_plan_id":"cebpf4jnsgd1na2vs0mg"},{"bike_id":"71c22c5e-38c0-4b7e-98ac-ebb8cb8a3e92","system_id":"levelo_inurba_marseille","lat":43.29978,"lon":5.37181,"is_reserved":false,"is_disabled":false,"rental_uris":{"android":"levelo://app?vid=71c22c5e-38c0-4b7e-98ac-ebb8cb8a3e92","ios":"levelo://app?vid=71c22c5e-38c0-4b7e-98ac-ebb8cb8a3e92"},"vehicle_type_id":"4","last_reported":1742390365,"current_range_meters":9600,"station_id":"ce4bgr92rcd13ifvqc7g","pricing_plan_id":"cebpf4jnsgd1na2vs0mg"},{"bike_id":"08430dc0-b2e6-41e6-8453-5f1dfba5b608","system_id":"levelo_inurba_marseille","lat":43.31341,"lon":5.36717,"is_reserved":false,"is_disabled":false,"rental_uris":{"android":"levelo://app?vid=08430dc0-b2e6-41e6-8453-5f1dfba5b608","ios":"levelo://app?vid=08430dc0-b2e6-41e6-8453-5f1dfba5b608"},"vehicle_type_id":"4","last_reported":1742390365,"current_range_meters":9600,"station_id":"ce4bgr92rcd13ifvqc6g","pricing_plan_id":"cebpf4jnsgd1na2vs0mg"},{"bike_id":"505c6e85-22bf-4dc4-a762-e1ff9b054e2b","system_id":"levelo_inurba_marseille","lat":43.23168,"lon":5.43697,"is_reserved":false,"is_disabled":false,"rental_uris":{"android":"levelo://app?vid=505c6e85-22bf-4dc4-a762-e1ff9b054e2b","ios":"levelo://app?vid=505c6e85-22bf-4dc4-a762-e1ff9b054e2b"},"vehicle_type_id":"4","last_reported":1742390365,"current_range_meters":10000,"station_id":"ce4bhmp2rcd13ifvqgog","pricing_plan_id":"cebpf4jnsgd1na2vs0mg"},{"bike_id":"97f132f3-f25e-4589-ad73-9c5a087e55dd","system_id":"levelo_inurba_marseille","lat":43.30152,"lon":5.38103,"is_reserved":false,"is_disabled":false,"rental_uris":{"android":"levelo://app?vid=97f132f3-f25e-4589-ad73-9c5a087e55dd","ios":"levelo://app?vid=97f132f3-f25e-4589-ad73-9c5a087e55dd"},"vehicle_type_id":"4","last_reported":1742390365,"current_range_meters":10000,"station_id":"ce4bgjp2rcd13ifvqbh0","pricing_plan_id":"cebpf4jnsgd1na2vs0mg"},{"bike_id":"f9ff2843-6a11-4e3b-9e65-9998fbe82454","system_id":"levelo_inurba_marseille","lat":43.25106,"lon":5.40336,"is_reserved":false,"is_disabled":false,"rental_uris":{"android":"levelo://app?vid=f9ff2843-6a11-4e3b-9e65-9998fbe82454","ios":"levelo://app?vid=f9ff2843-6a11-4e3b-9e65-9998fbe82454"},"vehicle_type_id":"4","last_reported":1742390365,"current_range_meters":10000,"station_id":"ce4bhlh2rcd13ifvqgig","pricing_plan_id":"cebpf4jnsgd1na2vs0mg"},{"bike_id":"343d2dff-9dbc-45c7-a30b-8fd87719a708","system_id":"levelo_inurba_marseille","lat":43.28871,"lon":5.3587,"is_reserved":false,"is_disabled":false,"rental_uris":{"android":"levelo://app?vid=343d2dff-9dbc-45c7-a30b-8fd87719a708","ios":"levelo://app?vid=343d2dff-9dbc-45c7-a30b-8fd87719a708"},"vehicle_type_id":"4","last_reported":1742390365,"current_range_meters":10000,"station_id":"ce4bhb12rcd13ifvqem0","pricing_plan_id":"cebpf4jnsgd1na2vs0mg"},{"bike_id":"2fc59438-bcd7-4fcb-af90-ed004623bdc8","system_id":"levelo_inurba_marseille","lat":43.2622,"lon":5.40459,"is_reserved":false,"is_disabled":false,"rental_uris":{"android":"levelo://app?vid=2fc59438-bcd7-4fcb-af90-ed004623bdc8","ios":"levelo://app?vid=2fc59438-bcd7-4fcb-af90-ed004623bdc8"},"vehicle_type_id":"4","last_reported":1742390365,"current_range_meters":10000,"station_id":"ce4bhmh2rcd13ifvqgmg","pricing_plan_id":"cebpf4jnsgd1na2vs0mg"},{"bike_id":"21203216-1e52-430b-9c3a-8519e55ca8a6","system_id":"levelo_inurba_marseille","lat":43.302545,"lon":5.400702,"is_reserved":false,"is_disabled":false,"rental_uris":{"android":"levelo://app?vid=21203216-1e52-430b-9c3a-8519e55ca8a6","ios":"levelo://app?vid=21203216-1e52-430b-9c3a-8519e55ca8a6"},"vehicle_type_id":"4","last_reported":1742390365,"current_range_meters":10000,"station_id":"ce4bgvh2rcd13ifvqcs0","pricing_plan_id":"cebpf4jnsgd1na2vs0mg"},{"bike_id":"3455258b-4135-46b9-9a26-10bf95160e40","system_id":"levelo_inurba_marseille","lat":43.23187,"lon":5.3556,"is_reserved":false,"is_disabled":false,"rental_uris":{"android":"levelo://app?vid=3455258b-4135-46b9-9a26-10bf95160e40","ios":"levelo://app?vid=3455258b-4135-46b9-9a26-10bf95160e40"},"vehicle_type_id":"4","last_reported":1742390365,"current_range_meters":10000,"station_id":"ce4bhu92rcd13ifvqi70","pricing_plan_id":"cebpf4jnsgd1na2vs0mg"},{"bike_id":"b3ab2806-f410-4cce-8b04-fb1a4b877921","system_id":"levelo_inurba_marseille","lat":43.24179,"lon":5.39737,"is_reserved":false,"is_disabled":false,"rental_uris":{"android":"levelo://app?vid=b3ab2806-f410-4cce-8b04-fb1a4b877921","ios":"levelo://app?vid=b3ab2806-f410-4cce-8b04-fb1a4b877921"},"vehicle_type_id":"4","last_reported":1742390365,"current_range_meters":10000,"station_id":"ce4bhn12rcd13ifvqgpg","pricing_plan_id":"cebpf4jnsgd1na2vs0mg"},{"bike_id":"510e61b2-8f20-408a-8746-b650439b8bff","system_id":"levelo_inurba_marseille","lat":43.30561,"lon":5.36543,"is_reserved":false,"is_disabled":false,"rental_uris":{"android":"levelo://app?vid=510e61b2-8f20-408a-8746-b650439b8bff","ios":"levelo://app?vid=510e61b2-8f20-408a-8746-b650439b8bff"},"vehicle_type_id":"4","last_reported":1742390365,"current_range_meters":10000,"station_id":"ce4bgs12rcd13ifvqcag","pricing_plan_id":"cebpf4jnsgd1na2vs0mg"},{"bike_id":"5917bcc2-33b5-4e37-b8eb-c4993c652a01","system_id":"levelo_inurba_marseille","lat":43.2926,"lon":5.40907,"is_reserved":false,"is_disabled":false,"rental_uris":{"android":"levelo://app?vid=5917bcc2-33b5-4e37-b8eb-c4993c652a01","ios":"levelo://app?vid=5917bcc2-33b5-4e37-b8eb-c4993c652a01"},"vehicle_type_id":"4","last_reported":1742390365,"current_range_meters":10000,"station_id":"ce4bh192rcd13ifvqdc0","pricing_plan_id":"cebpf4jnsgd1na2vs0mg"},{"bike_id":"8cf8f2d1-cd7e-4a3e-a6fe-fc7af9ab3241","system_id":"levelo_inurba_marseille","lat":43.295564,"lon":5.422874,"is_reserved":false,"is_disabled":false,"rental_uris":{"android":"levelo://app?vid=8cf8f2d1-cd7e-4a3e-a6fe-fc7af9ab3241","ios":"levelo://app?vid=8cf8f2d1-cd7e-4a3e-a6fe-fc7af9ab3241"},"vehicle_type_id":"4","last_reported":1742390365,"current_range_meters":10000,"station_id":"ce4bhph2rcd13ifvqhdg","pricing_plan_id":"cebpf4jnsgd1na2vs0mg"},{"bike_id":"e38859b9-7d5e-49c3-9fd9-7325330d234c","system_id":"levelo_inurba_marseille","lat":43.31366,"lon":5.38499,"is_reserved":false,"is_disabled":false,"rental_uris":{"android":"levelo://app?vid=e38859b9-7d5e-49c3-9fd9-7325330d234c","ios":"levelo://app?vid=e38859b9-7d5e-49c3-9fd9-7325330d234c"},"vehicle_type_id":"4","last_reported":1742390365,"current_range_meters":10000,"station_id":"ce4bgt92rcd13ifvqcf0","pricing_plan_id":"cebpf4jnsgd1na2vs0mg"},{"bike_id":"fde93cad-fbe1-4ed2-8661-f0fb10abf2d6","system_id":"levelo_inurba_marseille","lat":43.30947,"lon":5.39027,"is_reserved":false,"is_disabled":false,"rental_uris":{"android":"levelo://app?vid=fde93cad-fbe1-4ed2-8661-f0fb10abf2d6","ios":"levelo://app?vid=fde93cad-fbe1-4ed2-8661-f0fb10abf2d6"},"vehicle_type_id":"4","last_reported":1742390365,"current_range_meters":10000,"station_id":"ce4bgup2rcd13ifvqco0","pricing_plan_id":"cebpf4jnsgd1na2vs0mg"},{"bike_id":"cd6f1262-06b9-4383-8718-dbf3ba4fd41e","system_id":"levelo_inurba_marseille","lat":43.26233,"lon":5.40451,"is_reserved":false,"is_disabled":false,"rental_uris":{"android":"levelo://app?vid=cd6f1262-06b9-4383-8718-dbf3ba4fd41e","ios":"levelo://app?vid=cd6f1262-06b9-4383-8718-dbf3ba4fd41e"},"vehicle_type_id":"4","last_reported":1742390365,"current_range_meters":10800,"station_id":"ce4bhmh2rcd13ifvqgmg","pricing_plan_id":"cebpf4jnsgd1na2vs0mg"},{"bike_id":"3ef49645-f065-4b05-b499-26c7d03ebd72","system_id":"levelo_inurba_marseille","lat":43.29634,"lon":5.40593,"is_reserved":false,"is_disabled":false,"rental_uris":{"android":"levelo://app?vid=3ef49645-f065-4b05-b499-26c7d03ebd72","ios":"levelo://app?vid=3ef49645-f065-4b05-b499-26c7d03ebd72"},"vehicle_type_id":"4","last_reported":1742390365,"current_range_meters":10800,"station_id":"ce4bh0h2rcd13ifvqd60","pricing_plan_id":"cebpf4jnsgd1na2vs0mg"},{"bike_id":"5fcb8309-0208-48b4-b28d-ff6e405d3efe","system_id":"levelo_inurba_marseille","lat":43.25038,"lon":5.38907,"is_reserved":false,"is_disabled":false,"rental_uris":{"android":"levelo://app?vid=5fcb8309-0208-48b4-b28d-ff6e405d3efe","ios":"levelo://app?vid=5fcb8309-0208-48b4-b28d-ff6e405d3efe"},"vehicle_type_id":"4","last_reported":1742390365,"current_range_meters":10800,"station_id":"ce4bhgp2rcd13ifvqfd0","pricing_plan_id":"cebpf4jnsgd1na2vs0mg"},{"bike_id":"6e2a22a0-887c-49e7-bfe8-1b4aa03e0e2f","system_id":"levelo_inurba_marseille","lat":43.23154,"lon":5.43722,"is_reserved":false,"is_disabled":false,"rental_uris":{"android":"levelo://app?vid=6e2a22a0-887c-49e7-bfe8-1b4aa03e0e2f","ios":"levelo://app?vid=6e2a22a0-887c-49e7-bfe8-1b4aa03e0e2f"},"vehicle_type_id":"4","last_reported":1742390365,"current_range_meters":10800,"station_id":"ce4bhmp2rcd13ifvqgog","pricing_plan_id":"cebpf4jnsgd1na2vs0mg"},{"bike_id":"8a834816-f9e9-4f3b-8089-8017b9a9284d","system_id":"levelo_inurba_marseille","lat":43.24804,"lon":5.37455,"is_reserved":false,"is_disabled":false,"rental_uris":{"android":"levelo://app?vid=8a834816-f9e9-4f3b-8089-8017b9a9284d","ios":"levelo://app?vid=8a834816-f9e9-4f3b-8089-8017b9a9284d"},"vehicle_type_id":"4","last_reported":1742390365,"current_range_meters":10800,"station_id":"ce4bhgh2rcd13ifvqfb0","pricing_plan_id":"cebpf4jnsgd1na2vs0mg"},{"bike_id":"7b660f94-53f2-4ea2-ac2b-9a7c88505f64","system_id":"levelo_inurba_marseille","lat":43.25927,"lon":5.40909,"is_reserved":false,"is_disabled":false,"rental_uris":{"android":"levelo://app?vid=7b660f94-53f2-4ea2-ac2b-9a7c88505f64","ios":"levelo://app?vid=7b660f94-53f2-4ea2-ac2b-9a7c88505f64"},"vehicle_type_id":"4","last_reported":1742390365,"current_range_meters":10800,"station_id":"ce4bhm92rcd13ifvqglg","pricing_plan_id":"cebpf4jnsgd1na2vs0mg"},{"bike_id":"bfe7ddc3-e6c7-4501-86b1-bf4541cdf352","system_id":"levelo_inurba_marseille","lat":43.25916,"lon":5.40891,"is_reserved":false,"is_disabled":false,"rental_uris":{"android":"levelo://app?vid=bfe7ddc3-e6c7-4501-86b1-bf4541cdf352","ios":"levelo://app?vid=bfe7ddc3-e6c7-4501-86b1-bf4541cdf352"},"vehicle_type_id":"4","last_reported":1742390365,"current_range_meters":10800,"station_id":"ce4bhm92rcd13ifvqglg","pricing_plan_id":"cebpf4jnsgd1na2vs0mg"},{"bike_id":"6138b640-3a79-45fe-b651-9195792b5201","system_id":"levelo_inurba_marseille","lat":43.23971,"lon":5.36627,"is_reserved":false,"is_disabled":false,"rental_uris":{"android":"levelo://app?vid=6138b640-3a79-45fe-b651-9195792b5201","ios":"levelo://app?vid=6138b640-3a79-45fe-b651-9195792b5201"},"vehicle_type_id":"4","last_reported":1742390365,"current_range_meters":10800,"station_id":"ce4bhi12rcd13ifvqfp0","pricing_plan_id":"cebpf4jnsgd1na2vs0mg"},{"bike_id":"dd13021c-03fa-4966-b723-050a717e44b1","system_id":"levelo_inurba_marseille","lat":43.2845,"lon":5.35884,"is_reserved":false,"is_disabled":false,"rental_uris":{"android":"levelo://app?vid=dd13021c-03fa-4966-b723-050a717e44b1","ios":"levelo://app?vid=dd13021c-03fa-4966-b723-050a717e44b1"},"vehicle_type_id":"4","last_reported":1742390365,"current_range_meters":10800,"station_id":"ce4bhah2rcd13ifvqei0","pricing_plan_id":"cebpf4jnsgd1na2vs0mg"},{"bike_id":"34490763-ee36-4943-b2a4-b7d3b99138d6","system_id":"levelo_inurba_marseille","lat":43.29941,"lon":5.36484,"is_reserved":false,"is_disabled":false,"rental_uris":{"android":"levelo://app?vid=34490763-ee36-4943-b2a4-b7d3b99138d6","ios":"levelo://app?vid=34490763-ee36-4943-b2a4-b7d3b99138d6"},"vehicle_type_id":"4","last_reported":1742390365,"current_range_meters":10800,"station_id":"ce4bgm92rcd13ifvqbr0","pricing_plan_id":"cebpf4jnsgd1na2vs0mg"},{"bike_id":"70b78bf4-b196-48e1-af24-4ad6dcd7bba6","system_id":"levelo_inurba_marseille","lat":43.337444,"lon":5.374475,"is_reserved":false,"is_disabled":false,"rental_uris":{"android":"levelo://app?vid=70b78bf4-b196-48e1-af24-4ad6dcd7bba6","ios":"levelo://app?vid=70b78bf4-b196-48e1-af24-4ad6dcd7bba6"},"vehicle_type_id":"4","last_reported":1742390365,"current_range_meters":10800,"station_id":"ce4bh0h2rcd13ifvqd50","pricing_plan_id":"cebpf4jnsgd1na2vs0mg"},{"bike_id":"c9f86953-d930-4cd6-bf6d-fa6741149e09","system_id":"levelo_inurba_marseille","lat":43.2587,"lon":5.39917,"is_reserved":false,"is_disabled":false,"rental_uris":{"android":"levelo://app?vid=c9f86953-d930-4cd6-bf6d-fa6741149e09","ios":"levelo://app?vid=c9f86953-d930-4cd6-bf6d-fa6741149e09"},"vehicle_type_id":"4","last_reported":1742390365,"current_range_meters":10800,"station_id":"ce4bhl92rcd13ifvqghg","pricing_plan_id":"cebpf4jnsgd1na2vs0mg"},{"bike_id":"963a17fa-4222-4f93-b414-09c4cce8d25a","system_id":"levelo_inurba_marseille","lat":43.28424,"lon":5.38479,"is_reserved":false,"is_disabled":false,"rental_uris":{"android":"levelo://app?vid=963a17fa-4222-4f93-b414-09c4cce8d25a","ios":"levelo://app?vid=963a17fa-4222-4f93-b414-09c4cce8d25a"},"vehicle_type_id":"4","last_reported":1742390365,"current_range_meters":10800,"station_id":"","pricing_plan_id":"cebpf4jnsgd1na2vs0mg"},{"bike_id":"cdb30c14-fbe2-4f4c-baa2-736ad1d9d810","system_id":"levelo_inurba_marseille","lat":43.27938,"lon":5.41054,"is_reserved":false,"is_disabled":false,"rental_uris":{"android":"levelo://app?vid=cdb30c14-fbe2-4f4c-baa2-736ad1d9d810","ios":"levelo://app?vid=cdb30c14-fbe2-4f4c-baa2-736ad1d9d810"},"vehicle_type_id":"4","last_reported":1742390365,"current_range_meters":10800,"station_id":"ce4bhnp2rcd13ifvqh0g","pricing_plan_id":"cebpf4jnsgd1na2vs0mg"},{"bike_id":"ed349cec-071a-469b-b44f-b6e29de531f0","system_id":"levelo_inurba_marseille","lat":43.24181,"lon":5.39721,"is_reserved":false,"is_disabled":false,"rental_uris":{"android":"levelo://app?vid=ed349cec-071a-469b-b44f-b6e29de531f0","ios":"levelo://app?vid=ed349cec-071a-469b-b44f-b6e29de531f0"},"vehicle_type_id":"4","last_reported":1742390365,"current_range_meters":11200,"station_id":"ce4bhn12rcd13ifvqgpg","pricing_plan_id":"cebpf4jnsgd1na2vs0mg"},{"bike_id":"e4d45dd0-64e1-438b-960f-23bacc6e4e06","system_id":"levelo_inurba_marseille","lat":43.23159,"lon":5.43719,"is_reserved":false,"is_disabled":false,"rental_uris":{"android":"levelo://app?vid=e4d45dd0-64e1-438b-960f-23bacc6e4e06","ios":"levelo://app?vid=e4d45dd0-64e1-438b-960f-23bacc6e4e06"},"vehicle_type_id":"4","last_reported":1742390365,"current_range_meters":11200,"station_id":"ce4bhmp2rcd13ifvqgog","pricing_plan_id":"cebpf4jnsgd1na2vs0mg"},{"bike_id":"88ccd002-5cc7-4436-b03a-a5333eda4374","system_id":"levelo_inurba_marseille","lat":43.26681,"lon":5.38268,"is_reserved":false,"is_disabled":false,"rental_uris":{"android":"levelo://app?vid=88ccd002-5cc7-4436-b03a-a5333eda4374","ios":"levelo://app?vid=88ccd002-5cc7-4436-b03a-a5333eda4374"},"vehicle_type_id":"4","last_reported":1742390365,"current_range_meters":11200,"station_id":"ce4bhg92rcd13ifvqf90","pricing_plan_id":"cebpf4jnsgd1na2vs0mg"},{"bike_id":"f8ea4b00-1b66-415d-8826-bddd3d3ebede","system_id":"levelo_inurba_marseille","lat":43.2989,"lon":5.38898,"is_reserved":false,"is_disabled":false,"rental_uris":{"android":"levelo://app?vid=f8ea4b00-1b66-415d-8826-bddd3d3ebede","ios":"levelo://app?vid=f8ea4b00-1b66-415d-8826-bddd3d3ebede"},"vehicle_type_id":"4","last_reported":1742390365,"current_range_meters":10800,"station_id":"ce4bh392rcd13ifvqdl0","pricing_plan_id":"cebpf4jnsgd1na2vs0mg"},{"bike_id":"ebd9b81b-9162-4d1f-a4f6-4b128df5aa44","system_id":"levelo_inurba_marseille","lat":43.28109,"lon":5.37848,"is_reserved":false,"is_disabled":false,"rental_uris":{"android":"levelo://app?vid=ebd9b81b-9162-4d1f-a4f6-4b128df5aa44","ios":"levelo://app?vid=ebd9b81b-9162-4d1f-a4f6-4b128df5aa44"},"vehicle_type_id":"4","last_reported":1742390365,"current_range_meters":11200,"station_id":"ce4bha12rcd13ifvqee0","pricing_plan_id":"cebpf4jnsgd1na2vs0mg"},{"bike_id":"d50c500b-2e5c-4bf0-9228-d590baf9bc1b","system_id":"levelo_inurba_marseille","lat":43.28727,"lon":5.36107,"is_reserved":false,"is_disabled":false,"rental_uris":{"android":"levelo://app?vid=d50c500b-2e5c-4bf0-9228-d590baf9bc1b","ios":"levelo://app?vid=d50c500b-2e5c-4bf0-9228-d590baf9bc1b"},"vehicle_type_id":"4","last_reported":1742390365,"current_range_meters":11200,"station_id":"cki0cbj6b192h4jlfktg","pricing_plan_id":"cebpf4jnsgd1na2vs0mg"},{"bike_id":"c6892f7a-5b52-41c2-9d16-c54806d22234","system_id":"levelo_inurba_marseille","lat":43.26508,"lon":5.39544,"is_reserved":false,"is_disabled":false,"rental_uris":{"android":"levelo://app?vid=c6892f7a-5b52-41c2-9d16-c54806d22234","ios":"levelo://app?vid=c6892f7a-5b52-41c2-9d16-c54806d22234"},"vehicle_type_id":"4","last_reported":1742390365,"current_range_meters":11200,"station_id":"ce4bhi12rcd13ifvqfq0","pricing_plan_id":"cebpf4jnsgd1na2vs0mg"},{"bike_id":"eb6ad15b-5d6f-4c9e-aca2-00662fed81a8","system_id":"levelo_inurba_marseille","lat":43.30566,"lon":5.36689,"is_reserved":false,"is_disabled":false,"rental_uris":{"android":"levelo://app?vid=eb6ad15b-5d6f-4c9e-aca2-00662fed81a8","ios":"levelo://app?vid=eb6ad15b-5d6f-4c9e-aca2-00662fed81a8"},"vehicle_type_id":"4","last_reported":1742390365,"current_range_meters":11200,"station_id":"ce4bgrp2rcd13ifvqc9g","pricing_plan_id":"cebpf4jnsgd1na2vs0mg"},{"bike_id":"75e8bee3-0a10-4522-9d7e-72ece2846129","system_id":"levelo_inurba_marseille","lat":43.33044,"lon":5.39044,"is_reserved":false,"is_disabled":false,"rental_uris":{"android":"levelo://app?vid=75e8bee3-0a10-4522-9d7e-72ece2846129","ios":"levelo://app?vid=75e8bee3-0a10-4522-9d7e-72ece2846129"},"vehicle_type_id":"4","last_reported":1742390365,"current_range_meters":11200,"station_id":"ce4bhr92rcd13ifvqhrg","pricing_plan_id":"cebpf4jnsgd1na2vs0mg"},{"bike_id":"b77e2073-3e2a-4a3d-a05d-1cf571aa0a6f","system_id":"levelo_inurba_marseille","lat":43.27675,"lon":5.38873,"is_reserved":false,"is_disabled":false,"rental_uris":{"android":"levelo://app?vid=b77e2073-3e2a-4a3d-a05d-1cf571aa0a6f","ios":"levelo://app?vid=b77e2073-3e2a-4a3d-a05d-1cf571aa0a6f"},"vehicle_type_id":"4","last_reported":1742390365,"current_range_meters":11200,"station_id":"ce4bhi12rcd13ifvqfo0","pricing_plan_id":"cebpf4jnsgd1na2vs0mg"},{"bike_id":"725ef1c9-4489-4462-90f0-d0856b8365d5","system_id":"levelo_inurba_marseille","lat":43.29929,"lon":5.36492,"is_reserved":false,"is_disabled":false,"rental_uris":{"android":"levelo://app?vid=725ef1c9-4489-4462-90f0-d0856b8365d5","ios":"levelo://app?vid=725ef1c9-4489-4462-90f0-d0856b8365d5"},"vehicle_type_id":"4","last_reported":1742390365,"current_range_meters":11600,"station_id":"ce4bgm92rcd13ifvqbr0","pricing_plan_id":"cebpf4jnsgd1na2vs0mg"},{"bike_id":"654b82f0-883f-4635-b757-53ef9dd2ce95","system_id":"levelo_inurba_marseille","lat":43.29361,"lon":5.37861,"is_reserved":false,"is_disabled":false,"rental_uris":{"android":"levelo://app?vid=654b82f0-883f-4635-b757-53ef9dd2ce95","ios":"levelo://app?vid=654b82f0-883f-4635-b757-53ef9dd2ce95"},"vehicle_type_id":"4","last_reported":1742390365,"current_range_meters":11600,"station_id":"ce4bgjh2rcd13ifvqbf0","pricing_plan_id":"cebpf4jnsgd1na2vs0mg"},{"bike_id":"642153c4-02da-4d5e-a6f9-a80bbd3c2cd3","system_id":"levelo_inurba_marseille","lat":43.30323,"lon":5.36874,"is_reserved":false,"is_disabled":false,"rental_uris":{"android":"levelo://app?vid=642153c4-02da-4d5e-a6f9-a80bbd3c2cd3","ios":"levelo://app?vid=642153c4-02da-4d5e-a6f9-a80bbd3c2cd3"},"vehicle_type_id":"4","last_reported":1742390365,"current_range_meters":11600,"station_id":"ce4bgqh2rcd13ifvqc5g","pricing_plan_id":"cebpf4jnsgd1na2vs0mg"},{"bike_id":"cacae658-1a2a-4a6e-96d0-a0148350496b","system_id":"levelo_inurba_marseille","lat":43.27975,"lon":5.38742,"is_reserved":false,"is_disabled":false,"rental_uris":{"android":"levelo://app?vid=cacae658-1a2a-4a6e-96d0-a0148350496b","ios":"levelo://app?vid=cacae658-1a2a-4a6e-96d0-a0148350496b"},"vehicle_type_id":"4","last_reported":1742390365,"current_range_meters":11600,"station_id":"ce4bhg12rcd13ifvqf80","pricing_plan_id":"cebpf4jnsgd1na2vs0mg"},{"bike_id":"2a0271f3-d4f0-4cf3-95c7-895fd1eac84e","system_id":"levelo_inurba_marseille","lat":43.24393,"lon":5.37058,"is_reserved":false,"is_disabled":false,"rental_uris":{"android":"levelo://app?vid=2a0271f3-d4f0-4cf3-95c7-895fd1eac84e","ios":"levelo://app?vid=2a0271f3-d4f0-4cf3-95c7-895fd1eac84e"},"vehicle_type_id":"4","last_reported":1742390365,"current_range_meters":12000,"station_id":"ce4bhhh2rcd13ifvqfk0","pricing_plan_id":"cebpf4jnsgd1na2vs0mg"},{"bike_id":"6d966eda-5263-4c51-a7f3-c42f1e637aaa","system_id":"levelo_inurba_marseille","lat":43.25003,"lon":5.38926,"is_reserved":false,"is_disabled":false,"rental_uris":{"android":"levelo://app?vid=6d966eda-5263-4c51-a7f3-c42f1e637aaa","ios":"levelo://app?vid=6d966eda-5263-4c51-a7f3-c42f1e637aaa"},"vehicle_type_id":"4","last_reported":1742390365,"current_range_meters":12000,"station_id":"ce4bhgp2rcd13ifvqfd0","pricing_plan_id":"cebpf4jnsgd1na2vs0mg"},{"bike_id":"58e8bf04-f506-4a58-8994-b381c50f2825","system_id":"levelo_inurba_marseille","lat":43.28414,"lon":5.37525,"is_reserved":false,"is_disabled":false,"rental_uris":{"android":"levelo://app?vid=58e8bf04-f506-4a58-8994-b381c50f2825","ios":"levelo://app?vid=58e8bf04-f506-4a58-8994-b381c50f2825"},"vehicle_type_id":"4","last_reported":1742390365,"current_range_meters":12000,"station_id":"ce4bh412rcd13ifvqds0","pricing_plan_id":"cebpf4jnsgd1na2vs0mg"},{"bike_id":"ee0f687c-08bb-4e36-98a2-e3de6b954481","system_id":"levelo_inurba_marseille","lat":43.2419,"lon":5.39725,"is_reserved":false,"is_disabled":false,"rental_uris":{"android":"levelo://app?vid=ee0f687c-08bb-4e36-98a2-e3de6b954481","ios":"levelo://app?vid=ee0f687c-08bb-4e36-98a2-e3de6b954481"},"vehicle_type_id":"4","last_reported":1742390365,"current_range_meters":12000,"station_id":"ce4bhn12rcd13ifvqgpg","pricing_plan_id":"cebpf4jnsgd1na2vs0mg"},{"bike_id":"02f43b01-3b74-45fa-a40e-2df823c84cda","system_id":"levelo_inurba_marseille","lat":43.24175,"lon":5.39715,"is_reserved":false,"is_disabled":false,"rental_uris":{"android":"levelo://app?vid=02f43b01-3b74-45fa-a40e-2df823c84cda","ios":"levelo://app?vid=02f43b01-3b74-45fa-a40e-2df823c84cda"},"vehicle_type_id":"4","last_reported":1742390365,"current_range_meters":12000,"station_id":"ce4bhn12rcd13ifvqgpg","pricing_plan_id":"cebpf4jnsgd1na2vs0mg"},{"bike_id":"52a77ac1-3929-40d8-bbe5-9071034bfde8","system_id":"levelo_inurba_marseille","lat":43.25822,"lon":5.39419,"is_reserved":false,"is_disabled":false,"rental_uris":{"android":"levelo://app?vid=52a77ac1-3929-40d8-bbe5-9071034bfde8","ios":"levelo://app?vid=52a77ac1-3929-40d8-bbe5-9071034bfde8"},"vehicle_type_id":"4","last_reported":1742390365,"current_range_meters":12000,"station_id":"ce4bhip2rcd13ifvqft0","pricing_plan_id":"cebpf4jnsgd1na2vs0mg"},{"bike_id":"f55b013a-dd32-42e1-9089-ecfe2aed2856","system_id":"levelo_inurba_marseille","lat":43.27998,"lon":5.41663,"is_reserved":false,"is_disabled":false,"rental_uris":{"android":"levelo://app?vid=f55b013a-dd32-42e1-9089-ecfe2aed2856","ios":"levelo://app?vid=f55b013a-dd32-42e1-9089-ecfe2aed2856"},"vehicle_type_id":"4","last_reported":1742390365,"current_range_meters":12000,"station_id":"ce4bho12rcd13ifvqh1g","pricing_plan_id":"cebpf4jnsgd1na2vs0mg"},{"bike_id":"3891a9b4-7bcb-4175-8c0c-77306506c321","system_id":"levelo_inurba_marseille","lat":43.33609,"lon":5.41034,"is_reserved":false,"is_disabled":false,"rental_uris":{"android":"levelo://app?vid=3891a9b4-7bcb-4175-8c0c-77306506c321","ios":"levelo://app?vid=3891a9b4-7bcb-4175-8c0c-77306506c321"},"vehicle_type_id":"4","last_reported":1742390365,"current_range_meters":12000,"station_id":"ce4bhqh2rcd13ifvqhmg","pricing_plan_id":"cebpf4jnsgd1na2vs0mg"},{"bike_id":"155d8d3c-4667-4657-9010-d5679fb5179d","system_id":"levelo_inurba_marseille","lat":43.30317,"lon":5.36901,"is_reserved":false,"is_disabled":false,"rental_uris":{"android":"levelo://app?vid=155d8d3c-4667-4657-9010-d5679fb5179d","ios":"levelo://app?vid=155d8d3c-4667-4657-9010-d5679fb5179d"},"vehicle_type_id":"4","last_reported":1742390365,"current_range_meters":12000,"station_id":"ce4bgqh2rcd13ifvqc5g","pricing_plan_id":"cebpf4jnsgd1na2vs0mg"},{"bike_id":"9d26c008-8ec1-4269-9cd2-f45774f03ccb","system_id":"levelo_inurba_marseille","lat":43.27952,"lon":5.37933,"is_reserved":false,"is_disabled":false,"rental_uris":{"android":"levelo://app?vid=9d26c008-8ec1-4269-9cd2-f45774f03ccb","ios":"levelo://app?vid=9d26c008-8ec1-4269-9cd2-f45774f03ccb"},"vehicle_type_id":"4","last_reported":1742390365,"current_range_meters":12000,"station_id":"","pricing_plan_id":"cebpf4jnsgd1na2vs0mg"},{"bike_id":"f6d7ec0c-12a9-4a56-84f0-6e30b0160de8","system_id":"levelo_inurba_marseille","lat":43.29275,"lon":5.37629,"is_reserved":false,"is_disabled":false,"rental_uris":{"android":"levelo://app?vid=f6d7ec0c-12a9-4a56-84f0-6e30b0160de8","ios":"levelo://app?vid=f6d7ec0c-12a9-4a56-84f0-6e30b0160de8"},"vehicle_type_id":"4","last_reported":1742390365,"current_range_meters":12400,"station_id":"ce4bgi12rcd13ifvqb80","pricing_plan_id":"cebpf4jnsgd1na2vs0mg"},{"bike_id":"5c9a89ce-6c19-4ca3-9156-7fa10f16eaa9","system_id":"levelo_inurba_marseille","lat":43.32114,"lon":5.36775,"is_reserved":false,"is_disabled":false,"rental_uris":{"android":"levelo://app?vid=5c9a89ce-6c19-4ca3-9156-7fa10f16eaa9","ios":"levelo://app?vid=5c9a89ce-6c19-4ca3-9156-7fa10f16eaa9"},"vehicle_type_id":"4","last_reported":1742390365,"current_range_meters":12400,"station_id":"ce4bhrh2rcd13ifvqhug","pricing_plan_id":"cebpf4jnsgd1na2vs0mg"},{"bike_id":"6f2df44f-fcf2-434b-b02a-a1aaa7afe7bc","system_id":"levelo_inurba_marseille","lat":43.24186,"lon":5.39729,"is_reserved":false,"is_disabled":false,"rental_uris":{"android":"levelo://app?vid=6f2df44f-fcf2-434b-b02a-a1aaa7afe7bc","ios":"levelo://app?vid=6f2df44f-fcf2-434b-b02a-a1aaa7afe7bc"},"vehicle_type_id":"4","last_reported":1742390365,"current_range_meters":12400,"station_id":"ce4bhn12rcd13ifvqgpg","pricing_plan_id":"cebpf4jnsgd1na2vs0mg"},{"bike_id":"59e127e7-5d16-4c4c-86ef-bbc23245cc24","system_id":"levelo_inurba_marseille","lat":43.24656,"lon":5.38901,"is_reserved":false,"is_disabled":false,"rental_uris":{"android":"levelo://app?vid=59e127e7-5d16-4c4c-86ef-bbc23245cc24","ios":"levelo://app?vid=59e127e7-5d16-4c4c-86ef-bbc23245cc24"},"vehicle_type_id":"4","last_reported":1742390365,"current_range_meters":12400,"station_id":"ce4bhg12rcd13ifvqf60","pricing_plan_id":"cebpf4jnsgd1na2vs0mg"},{"bike_id":"a3ae58ef-7951-4fce-9005-aaa79f89070c","system_id":"levelo_inurba_marseille","lat":43.31233,"lon":5.36881,"is_reserved":false,"is_disabled":false,"rental_uris":{"android":"levelo://app?vid=a3ae58ef-7951-4fce-9005-aaa79f89070c","ios":"levelo://app?vid=a3ae58ef-7951-4fce-9005-aaa79f89070c"},"vehicle_type_id":"4","last_reported":1742390365,"current_range_meters":12400,"station_id":"ce4bgl92rcd13ifvqbq0","pricing_plan_id":"cebpf4jnsgd1na2vs0mg"},{"bike_id":"74be95ee-9576-4aab-8474-a33eb52af625","system_id":"levelo_inurba_marseille","lat":43.29941,"lon":5.36512,"is_reserved":false,"is_disabled":false,"rental_uris":{"android":"levelo://app?vid=74be95ee-9576-4aab-8474-a33eb52af625","ios":"levelo://app?vid=74be95ee-9576-4aab-8474-a33eb52af625"},"vehicle_type_id":"4","last_reported":1742390365,"current_range_meters":12800,"station_id":"ce4bgm92rcd13ifvqbr0","pricing_plan_id":"cebpf4jnsgd1na2vs0mg"},{"bike_id":"51c53a1f-d9b2-4078-b9b4-1b4401d85a39","system_id":"levelo_inurba_marseille","lat":43.30296,"lon":5.37704,"is_reserved":false,"is_disabled":false,"rental_uris":{"android":"levelo://app?vid=51c53a1f-d9b2-4078-b9b4-1b4401d85a39","ios":"levelo://app?vid=51c53a1f-d9b2-4078-b9b4-1b4401d85a39"},"vehicle_type_id":"4","last_reported":1742390365,"current_range_meters":12800,"station_id":"ce4bguh2rcd13ifvqcj0","pricing_plan_id":"cebpf4jnsgd1na2vs0mg"},{"bike_id":"eba3d8e8-e851-47dc-8eb9-2b562e17e402","system_id":"levelo_inurba_marseille","lat":43.30282,"lon":5.37689,"is_reserved":false,"is_disabled":false,"rental_uris":{"android":"levelo://app?vid=eba3d8e8-e851-47dc-8eb9-2b562e17e402","ios":"levelo://app?vid=eba3d8e8-e851-47dc-8eb9-2b562e17e402"},"vehicle_type_id":"4","last_reported":1742390365,"current_range_meters":12800,"station_id":"ce4bguh2rcd13ifvqcj0","pricing_plan_id":"cebpf4jnsgd1na2vs0mg"},{"bike_id":"0ab1d4e3-2d68-4e67-820b-239cc04aad4c","system_id":"levelo_inurba_marseille","lat":43.30552,"lon":5.36559,"is_reserved":false,"is_disabled":false,"rental_uris":{"android":"levelo://app?vid=0ab1d4e3-2d68-4e67-820b-239cc04aad4c","ios":"levelo://app?vid=0ab1d4e3-2d68-4e67-820b-239cc04aad4c"},"vehicle_type_id":"4","last_reported":1742390365,"current_range_meters":12800,"station_id":"ce4bgs12rcd13ifvqcag","pricing_plan_id":"cebpf4jnsgd1na2vs0mg"},{"bike_id":"90dbdf75-a8b3-4c3e-ae34-dbd17c042e78","system_id":"levelo_inurba_marseille","lat":43.32543,"lon":5.41437,"is_reserved":false,"is_disabled":false,"rental_uris":{"android":"levelo://app?vid=90dbdf75-a8b3-4c3e-ae34-dbd17c042e78","ios":"levelo://app?vid=90dbdf75-a8b3-4c3e-ae34-dbd17c042e78"},"vehicle_type_id":"4","last_reported":1742390365,"current_range_meters":12800,"station_id":"ce4bhq12rcd13ifvqhhg","pricing_plan_id":"cebpf4jnsgd1na2vs0mg"},{"bike_id":"43fff877-1781-4ede-8e53-b005f097584c","system_id":"levelo_inurba_marseille","lat":43.30797,"lon":5.3765,"is_reserved":false,"is_disabled":false,"rental_uris":{"android":"levelo://app?vid=43fff877-1781-4ede-8e53-b005f097584c","ios":"levelo://app?vid=43fff877-1781-4ede-8e53-b005f097584c"},"vehicle_type_id":"4","last_reported":1742390365,"current_range_meters":12400,"station_id":"ce4bgv92rcd13ifvqcq0","pricing_plan_id":"cebpf4jnsgd1na2vs0mg"},{"bike_id":"e430fce9-9c98-4a88-9a0f-5912fcf33b04","system_id":"levelo_inurba_marseille","lat":43.29921,"lon":5.37464,"is_reserved":false,"is_disabled":false,"rental_uris":{"android":"levelo://app?vid=e430fce9-9c98-4a88-9a0f-5912fcf33b04","ios":"levelo://app?vid=e430fce9-9c98-4a88-9a0f-5912fcf33b04"},"vehicle_type_id":"4","last_reported":1742390365,"current_range_meters":12800,"station_id":"ce4bgjh2rcd13ifvqbg0","pricing_plan_id":"cebpf4jnsgd1na2vs0mg"},{"bike_id":"daec0be6-00ee-42fc-bfd6-a5ef8456b0e8","system_id":"levelo_inurba_marseille","lat":43.30326,"lon":5.36918,"is_reserved":false,"is_disabled":false,"rental_uris":{"android":"levelo://app?vid=daec0be6-00ee-42fc-bfd6-a5ef8456b0e8","ios":"levelo://app?vid=daec0be6-00ee-42fc-bfd6-a5ef8456b0e8"},"vehicle_type_id":"4","last_reported":1742390365,"current_range_meters":12800,"station_id":"ce4bgqh2rcd13ifvqc5g","pricing_plan_id":"cebpf4jnsgd1na2vs0mg"},{"bike_id":"176d2e0b-da43-4b98-b92e-b45d4ab12b2f","system_id":"levelo_inurba_marseille","lat":43.30212,"lon":5.3844,"is_reserved":false,"is_disabled":false,"rental_uris":{"android":"levelo://app?vid=176d2e0b-da43-4b98-b92e-b45d4ab12b2f","ios":"levelo://app?vid=176d2e0b-da43-4b98-b92e-b45d4ab12b2f"},"vehicle_type_id":"4","last_reported":1742390365,"current_range_meters":12800,"station_id":"","pricing_plan_id":"cebpf4jnsgd1na2vs0mg"},{"bike_id":"1b78901a-e3ff-4d99-bb3a-5535ec6ebc0d","system_id":"levelo_inurba_marseille","lat":43.2568,"lon":5.41035,"is_reserved":false,"is_disabled":false,"rental_uris":{"android":"levelo://app?vid=1b78901a-e3ff-4d99-bb3a-5535ec6ebc0d","ios":"levelo://app?vid=1b78901a-e3ff-4d99-bb3a-5535ec6ebc0d"},"vehicle_type_id":"4","last_reported":1742390365,"current_range_meters":13600,"station_id":"","pricing_plan_id":"cebpf4jnsgd1na2vs0mg"},{"bike_id":"fd78d565-e8af-4c6e-94e3-d92db15cedac","system_id":"levelo_inurba_marseille","lat":43.2316,"lon":5.43698,"is_reserved":false,"is_disabled":true,"rental_uris":{"android":"levelo://app?vid=fd78d565-e8af-4c6e-94e3-d92db15cedac","ios":"levelo://app?vid=fd78d565-e8af-4c6e-94e3-d92db15cedac"},"vehicle_type_id":"4","last_reported":1742390365,"current_range_meters":13600,"station_id":"ce4bhmp2rcd13ifvqgog","pricing_plan_id":"cebpf4jnsgd1na2vs0mg"},{"bike_id":"4d2cb0f3-5b76-4ef6-95c3-6e19a7f64d99","system_id":"levelo_inurba_marseille","lat":43.265591,"lon":5.372849,"is_reserved":false,"is_disabled":false,"rental_uris":{"android":"levelo://app?vid=4d2cb0f3-5b76-4ef6-95c3-6e19a7f64d99","ios":"levelo://app?vid=4d2cb0f3-5b76-4ef6-95c3-6e19a7f64d99"},"vehicle_type_id":"4","last_reported":1742390365,"current_range_meters":12800,"station_id":"ce4bhg12rcd13ifvqf60","pricing_plan_id":"cebpf4jnsgd1na2vs0mg"},{"bike_id":"671210b1-9e8f-4893-953f-985ab8b97e34","system_id":"levelo_inurba_marseille","lat":43.32117,"lon":5.36782,"is_reserved":false,"is_disabled":false,"rental_uris":{"android":"levelo://app?vid=671210b1-9e8f-4893-953f-985ab8b97e34","ios":"levelo://app?vid=671210b1-9e8f-4893-953f-985ab8b97e34"},"vehicle_type_id":"4","last_reported":1742390365,"current_range_meters":13600,"station_id":"ce4bhrh2rcd13ifvqhug","pricing_plan_id":"cebpf4jnsgd1na2vs0mg"},{"bike_id":"1e096a21-9296-4ea4-ad05-342ac819913b","system_id":"levelo_inurba_marseille","lat":43.26692,"lon":5.38247,"is_reserved":false,"is_disabled":false,"rental_uris":{"android":"levelo://app?vid=1e096a21-9296-4ea4-ad05-342ac819913b","ios":"levelo://app?vid=1e096a21-9296-4ea4-ad05-342ac819913b"},"vehicle_type_id":"4","last_reported":1742390365,"current_range_meters":13600,"station_id":"ce4bhg92rcd13ifvqf90","pricing_plan_id":"cebpf4jnsgd1na2vs0mg"},{"bike_id":"0998cf85-4c14-474d-9d92-118dcf9c73a7","system_id":"levelo_inurba_marseille","lat":43.3015,"lon":5.37404,"is_reserved":false,"is_disabled":false,"rental_uris":{"android":"levelo://app?vid=0998cf85-4c14-474d-9d92-118dcf9c73a7","ios":"levelo://app?vid=0998cf85-4c14-474d-9d92-118dcf9c73a7"},"vehicle_type_id":"4","last_reported":1742390365,"current_range_meters":13600,"station_id":"ce4bgs92rcd13ifvqcc0","pricing_plan_id":"cebpf4jnsgd1na2vs0mg"},{"bike_id":"7c23dcb0-31a4-457d-8cd5-05a913c017d4","system_id":"levelo_inurba_marseille","lat":43.33049,"lon":5.38977,"is_reserved":false,"is_disabled":false,"rental_uris":{"android":"levelo://app?vid=7c23dcb0-31a4-457d-8cd5-05a913c017d4","ios":"levelo://app?vid=7c23dcb0-31a4-457d-8cd5-05a913c017d4"},"vehicle_type_id":"4","last_reported":1742390365,"current_range_meters":13600,"station_id":"","pricing_plan_id":"cebpf4jnsgd1na2vs0mg"},{"bike_id":"fbb011f0-5f95-49f3-ba11-7b5d9207facb","system_id":"levelo_inurba_marseille","lat":43.28105,"lon":5.3784,"is_reserved":false,"is_disabled":false,"rental_uris":{"android":"levelo://app?vid=fbb011f0-5f95-49f3-ba11-7b5d9207facb","ios":"levelo://app?vid=fbb011f0-5f95-49f3-ba11-7b5d9207facb"},"vehicle_type_id":"4","last_reported":1742390365,"current_range_meters":13600,"station_id":"ce4bha12rcd13ifvqee0","pricing_plan_id":"cebpf4jnsgd1na2vs0mg"},{"bike_id":"9a407e55-d314-42fc-8c32-c5b5dcba6239","system_id":"levelo_inurba_marseille","lat":43.2627,"lon":5.40447,"is_reserved":false,"is_disabled":false,"rental_uris":{"android":"levelo://app?vid=9a407e55-d314-42fc-8c32-c5b5dcba6239","ios":"levelo://app?vid=9a407e55-d314-42fc-8c32-c5b5dcba6239"},"vehicle_type_id":"4","last_reported":1742390365,"current_range_meters":14000,"station_id":"","pricing_plan_id":"cebpf4jnsgd1na2vs0mg"},{"bike_id":"6cc3105f-200d-4a53-b63e-23af0913f914","system_id":"levelo_inurba_marseille","lat":43.29276,"lon":5.36857,"is_reserved":false,"is_disabled":false,"rental_uris":{"android":"levelo://app?vid=6cc3105f-200d-4a53-b63e-23af0913f914","ios":"levelo://app?vid=6cc3105f-200d-4a53-b63e-23af0913f914"},"vehicle_type_id":"4","last_reported":1742390365,"current_range_meters":14000,"station_id":"ce4bhbp2rcd13ifvqesg","pricing_plan_id":"cebpf4jnsgd1na2vs0mg"},{"bike_id":"874c66a9-10a2-422b-bac5-fa8e2eefb517","system_id":"levelo_inurba_marseille","lat":43.29262,"lon":5.40904,"is_reserved":false,"is_disabled":false,"rental_uris":{"android":"levelo://app?vid=874c66a9-10a2-422b-bac5-fa8e2eefb517","ios":"levelo://app?vid=874c66a9-10a2-422b-bac5-fa8e2eefb517"},"vehicle_type_id":"4","last_reported":1742390365,"current_range_meters":13600,"station_id":"ce4bh192rcd13ifvqdc0","pricing_plan_id":"cebpf4jnsgd1na2vs0mg"},{"bike_id":"36171524-784d-4f5a-84fe-e4628286a384","system_id":"levelo_inurba_marseille","lat":43.29531,"lon":5.37934,"is_reserved":false,"is_disabled":true,"rental_uris":{"android":"levelo://app?vid=36171524-784d-4f5a-84fe-e4628286a384","ios":"levelo://app?vid=36171524-784d-4f5a-84fe-e4628286a384"},"vehicle_type_id":"4","last_reported":1742390365,"current_range_meters":14000,"station_id":"","pricing_plan_id":"cebpf4jnsgd1na2vs0mg"},{"bike_id":"3d6e5bb2-49a5-4ae9-ac7c-7c3250491a49","system_id":"levelo_inurba_marseille","lat":43.28884,"lon":5.3593,"is_reserved":false,"is_disabled":false,"rental_uris":{"android":"levelo://app?vid=3d6e5bb2-49a5-4ae9-ac7c-7c3250491a49","ios":"levelo://app?vid=3d6e5bb2-49a5-4ae9-ac7c-7c3250491a49"},"vehicle_type_id":"4","last_reported":1742390365,"current_range_meters":14000,"station_id":"","pricing_plan_id":"cebpf4jnsgd1na2vs0mg"},{"bike_id":"0af285be-0294-4c23-9728-cedd0c1ca6b2","system_id":"levelo_inurba_marseille","lat":43.23181,"lon":5.40007,"is_reserved":false,"is_disabled":false,"rental_uris":{"android":"levelo://app?vid=0af285be-0294-4c23-9728-cedd0c1ca6b2","ios":"levelo://app?vid=0af285be-0294-4c23-9728-cedd0c1ca6b2"},"vehicle_type_id":"4","last_reported":1742390365,"current_range_meters":14000,"station_id":"ce4bhn12rcd13ifvqgqg","pricing_plan_id":"cebpf4jnsgd1na2vs0mg"},{"bike_id":"121de35f-8507-41e0-a3f4-b91c830f5c57","system_id":"levelo_inurba_marseille","lat":43.26789,"lon":5.39403,"is_reserved":false,"is_disabled":false,"rental_uris":{"android":"levelo://app?vid=121de35f-8507-41e0-a3f4-b91c830f5c57","ios":"levelo://app?vid=121de35f-8507-41e0-a3f4-b91c830f5c57"},"vehicle_type_id":"4","last_reported":1742390365,"current_range_meters":14000,"station_id":"ce4bhh12rcd13ifvqfg0","pricing_plan_id":"cebpf4jnsgd1na2vs0mg"},{"bike_id":"471b8c1a-1a85-4080-b533-fb41f3dbfd81","system_id":"levelo_inurba_marseille","lat":43.232,"lon":5.35565,"is_reserved":false,"is_disabled":false,"rental_uris":{"android":"levelo://app?vid=471b8c1a-1a85-4080-b533-fb41f3dbfd81","ios":"levelo://app?vid=471b8c1a-1a85-4080-b533-fb41f3dbfd81"},"vehicle_type_id":"4","last_reported":1742390365,"current_range_meters":14000,"station_id":"ce4bhu92rcd13ifvqi70","pricing_plan_id":"cebpf4jnsgd1na2vs0mg"},{"bike_id":"23dd9309-eae1-47dc-809c-1c06396b1120","system_id":"levelo_inurba_marseille","lat":43.2894,"lon":5.36638,"is_reserved":false,"is_disabled":false,"rental_uris":{"android":"levelo://app?vid=23dd9309-eae1-47dc-809c-1c06396b1120","ios":"levelo://app?vid=23dd9309-eae1-47dc-809c-1c06396b1120"},"vehicle_type_id":"4","last_reported":1742390365,"current_range_meters":14000,"station_id":"ce4bhap2rcd13ifvqek0","pricing_plan_id":"cebpf4jnsgd1na2vs0mg"},{"bike_id":"6c7e51d2-e2f9-4032-b4ac-95afc513e72e","system_id":"levelo_inurba_marseille","lat":43.27377,"lon":5.3625,"is_reserved":false,"is_disabled":false,"rental_uris":{"android":"levelo://app?vid=6c7e51d2-e2f9-4032-b4ac-95afc513e72e","ios":"levelo://app?vid=6c7e51d2-e2f9-4032-b4ac-95afc513e72e"},"vehicle_type_id":"4","last_reported":1742390365,"current_range_meters":14400,"station_id":"ce4bhbh2rcd13ifvqeo0","pricing_plan_id":"cebpf4jnsgd1na2vs0mg"},{"bike_id":"256d0495-a89f-4577-a11d-07c4b587cd91","system_id":"levelo_inurba_marseille","lat":43.30317,"lon":5.36895,"is_reserved":false,"is_disabled":false,"rental_uris":{"android":"levelo://app?vid=256d0495-a89f-4577-a11d-07c4b587cd91","ios":"levelo://app?vid=256d0495-a89f-4577-a11d-07c4b587cd91"},"vehicle_type_id":"4","last_reported":1742390365,"current_range_meters":14400,"station_id":"ce4bgqh2rcd13ifvqc5g","pricing_plan_id":"cebpf4jnsgd1na2vs0mg"},{"bike_id":"3a62f893-3a25-40b8-a0d3-72d2cf325433","system_id":"levelo_inurba_marseille","lat":43.32052,"lon":5.41557,"is_reserved":false,"is_disabled":false,"rental_uris":{"android":"levelo://app?vid=3a62f893-3a25-40b8-a0d3-72d2cf325433","ios":"levelo://app?vid=3a62f893-3a25-40b8-a0d3-72d2cf325433"},"vehicle_type_id":"4","last_reported":1742390365,"current_range_meters":14400,"station_id":"ce4bhq92rcd13ifvqhkg","pricing_plan_id":"cebpf4jnsgd1na2vs0mg"},{"bike_id":"835c7af8-78ee-4299-bc23-a5a0738ed4c4","system_id":"levelo_inurba_marseille","lat":43.30311,"lon":5.36894,"is_reserved":false,"is_disabled":false,"rental_uris":{"android":"levelo://app?vid=835c7af8-78ee-4299-bc23-a5a0738ed4c4","ios":"levelo://app?vid=835c7af8-78ee-4299-bc23-a5a0738ed4c4"},"vehicle_type_id":"4","last_reported":1742390365,"current_range_meters":14400,"station_id":"ce4bgqh2rcd13ifvqc5g","pricing_plan_id":"cebpf4jnsgd1na2vs0mg"},{"bike_id":"57e22925-d9bf-44fe-83fb-784ecd7b1797","system_id":"levelo_inurba_marseille","lat":43.25594,"lon":5.3823,"is_reserved":false,"is_disabled":false,"rental_uris":{"android":"levelo://app?vid=57e22925-d9bf-44fe-83fb-784ecd7b1797","ios":"levelo://app?vid=57e22925-d9bf-44fe-83fb-784ecd7b1797"},"vehicle_type_id":"4","last_reported":1742390365,"current_range_meters":14400,"station_id":"ce4bhih2rcd13ifvqfs0","pricing_plan_id":"cebpf4jnsgd1na2vs0mg"},{"bike_id":"bb66d518-1938-4c82-b30c-9e99331085d0","system_id":"levelo_inurba_marseille","lat":43.29008,"lon":5.35617,"is_reserved":false,"is_disabled":false,"rental_uris":{"android":"levelo://app?vid=bb66d518-1938-4c82-b30c-9e99331085d0","ios":"levelo://app?vid=bb66d518-1938-4c82-b30c-9e99331085d0"},"vehicle_type_id":"4","last_reported":1742390365,"current_range_meters":14400,"station_id":"ce4bhb92rcd13ifvqen0","pricing_plan_id":"cebpf4jnsgd1na2vs0mg"},{"bike_id":"11bf18f6-9626-41e2-8a4c-d20b1a32708e","system_id":"levelo_inurba_marseille","lat":43.31333,"lon":5.39692,"is_reserved":false,"is_disabled":false,"rental_uris":{"android":"levelo://app?vid=11bf18f6-9626-41e2-8a4c-d20b1a32708e","ios":"levelo://app?vid=11bf18f6-9626-41e2-8a4c-d20b1a32708e"},"vehicle_type_id":"4","last_reported":1742390365,"current_range_meters":14400,"station_id":"ce4bgvp2rcd13ifvqcu0","pricing_plan_id":"cebpf4jnsgd1na2vs0mg"},{"bike_id":"0d847fbd-0f2a-468b-8e52-023c28901252","system_id":"levelo_inurba_marseille","lat":43.31485,"lon":5.37313,"is_reserved":false,"is_disabled":false,"rental_uris":{"android":"levelo://app?vid=0d847fbd-0f2a-468b-8e52-023c28901252","ios":"levelo://app?vid=0d847fbd-0f2a-468b-8e52-023c28901252"},"vehicle_type_id":"4","last_reported":1742390365,"current_range_meters":14400,"station_id":"ce4bgt12rcd13ifvqcd0","pricing_plan_id":"cebpf4jnsgd1na2vs0mg"},{"bike_id":"c405ab68-223f-47db-99ed-c18c10d1f19e","system_id":"levelo_inurba_marseille","lat":43.28626,"lon":5.351,"is_reserved":false,"is_disabled":false,"rental_uris":{"android":"levelo://app?vid=c405ab68-223f-47db-99ed-c18c10d1f19e","ios":"levelo://app?vid=c405ab68-223f-47db-99ed-c18c10d1f19e"},"vehicle_type_id":"4","last_reported":1742390365,"current_range_meters":14400,"station_id":"ce4bhch2rcd13ifvqeug","pricing_plan_id":"cebpf4jnsgd1na2vs0mg"},{"bike_id":"d7645557-54c5-44ed-8c44-41e433a350da","system_id":"levelo_inurba_marseille","lat":43.29479,"lon":5.35581,"is_reserved":false,"is_disabled":false,"rental_uris":{"android":"levelo://app?vid=d7645557-54c5-44ed-8c44-41e433a350da","ios":"levelo://app?vid=d7645557-54c5-44ed-8c44-41e433a350da"},"vehicle_type_id":"4","last_reported":1742390365,"current_range_meters":14400,"station_id":"","pricing_plan_id":"cebpf4jnsgd1na2vs0mg"},{"bike_id":"74331ab6-87d8-41b2-a3e7-8b2e0560af06","system_id":"levelo_inurba_marseille","lat":43.27968,"lon":5.38744,"is_reserved":false,"is_disabled":true,"rental_uris":{"android":"levelo://app?vid=74331ab6-87d8-41b2-a3e7-8b2e0560af06","ios":"levelo://app?vid=74331ab6-87d8-41b2-a3e7-8b2e0560af06"},"vehicle_type_id":"4","last_reported":1742390365,"current_range_meters":14800,"station_id":"ce4bhg12rcd13ifvqf80","pricing_plan_id":"cebpf4jnsgd1na2vs0mg"},{"bike_id":"40a383ee-8bea-4bf6-800c-0f3795d1c223","system_id":"levelo_inurba_marseille","lat":43.29787,"lon":5.39342,"is_reserved":false,"is_disabled":false,"rental_uris":{"android":"levelo://app?vid=40a383ee-8bea-4bf6-800c-0f3795d1c223","ios":"levelo://app?vid=40a383ee-8bea-4bf6-800c-0f3795d1c223"},"vehicle_type_id":"4","last_reported":1742390365,"current_range_meters":14400,"station_id":"chh1huq6cuj3fo74tm60","pricing_plan_id":"cebpf4jnsgd1na2vs0mg"},{"bike_id":"973c0ebb-6773-40e0-972a-ac80c64d7bd2","system_id":"levelo_inurba_marseille","lat":43.26497,"lon":5.39558,"is_reserved":false,"is_disabled":false,"rental_uris":{"android":"levelo://app?vid=973c0ebb-6773-40e0-972a-ac80c64d7bd2","ios":"levelo://app?vid=973c0ebb-6773-40e0-972a-ac80c64d7bd2"},"vehicle_type_id":"4","last_reported":1742390365,"current_range_meters":14800,"station_id":"ce4bhi12rcd13ifvqfq0","pricing_plan_id":"cebpf4jnsgd1na2vs0mg"},{"bike_id":"50882886-d5e1-4f65-b1d5-27d4f54ee1c1","system_id":"levelo_inurba_marseille","lat":43.29783,"lon":5.39347,"is_reserved":false,"is_disabled":false,"rental_uris":{"android":"levelo://app?vid=50882886-d5e1-4f65-b1d5-27d4f54ee1c1","ios":"levelo://app?vid=50882886-d5e1-4f65-b1d5-27d4f54ee1c1"},"vehicle_type_id":"4","last_reported":1742390365,"current_range_meters":14800,"station_id":"chh1huq6cuj3fo74tm60","pricing_plan_id":"cebpf4jnsgd1na2vs0mg"},{"bike_id":"cc567c59-f6ee-4a3f-928c-f29308c73b5e","system_id":"levelo_inurba_marseille","lat":43.31168,"lon":5.38725,"is_reserved":false,"is_disabled":false,"rental_uris":{"android":"levelo://app?vid=cc567c59-f6ee-4a3f-928c-f29308c73b5e","ios":"levelo://app?vid=cc567c59-f6ee-4a3f-928c-f29308c73b5e"},"vehicle_type_id":"4","last_reported":1742390365,"current_range_meters":14800,"station_id":"ce4bgv12rcd13ifvqcp0","pricing_plan_id":"cebpf4jnsgd1na2vs0mg"},{"bike_id":"03b79622-6035-4394-8d7c-38e044502154","system_id":"levelo_inurba_marseille","lat":43.24654,"lon":5.38899,"is_reserved":false,"is_disabled":false,"rental_uris":{"android":"levelo://app?vid=03b79622-6035-4394-8d7c-38e044502154","ios":"levelo://app?vid=03b79622-6035-4394-8d7c-38e044502154"},