{"last_updated":1749928057,"ttl":60,"version":"2.2","data":{"bikes":[{"bike_id":"b31f0139-170f-4194-984f-4386218a1e9d","system_id":"levelo_inurba_marseille","lat":43.33771,"lon":5.37424,"is_reserved":false,"is_disabled":true,"rental_uris":{"android":"levelo://app?vid=b31f0139-170f-4194-984f-4386218a1e9d","ios":"levelo://app?vid=b31f0139-170f-4194-984f-4386218a1e9d"},"vehicle_type_id":"4","last_reported":1749928057,"current_range_meters":0,"station_id":"","pricing_plan_id":"cebpf4jnsgd1na2vs0mg"},{"bike_id":"1acfb620-cad7-48c0-8901-d7a5b74a5b65","system_id":"levelo_inurba_marseille","lat":43.33751,"lon":5.37456,"is_reserved":false,"is_disabled":true,"rental_uris":{"android":"levelo://app?vid=1acfb620-cad7-48c0-8901-d7a5b74a5b65","ios":"levelo://app?vid=1acfb620-cad7-48c0-8901-d7a5b74a5b65"},"vehicle_type_id":"4","last_reported":1749928057,"current_range_meters":0,"station_id":"","pricing_plan_id":"cebpf4jnsgd1na2vs0mg"},{"bike_id":"bf89d78c-eb96-40d5-beb0-f402ef102cc1","system_id":"levelo_inurba_marseille","lat":43.337444,"lon":5.374475,"is_reserved":false,"is_disabled":true,"rental_uris":{"android":"levelo://app?vid=bf89d78c-eb96-40d5-beb0-f402ef102cc1","ios":"levelo://app?vid=bf89d78c-eb96-40d5-beb0-f402ef102cc1"},"vehicle_type_id":"4","last_reported":1749928057,"current_range_meters":0,"station_id":"","pricing_plan_id":"cebpf4jnsgd1na2vs0mg"},{"bike_id":"5077581b-cebb-46fc-ba69-4fa8272d4810","system_id":"levelo_inurba_marseille","lat":43.21374,"lon":5.35508,"is_reserved":false,"is_disabled":true,"rental_uris":{"android":"levelo://app?vid=5077581b-cebb-46fc-ba69-4fa8272d4810","ios":"levelo://app?vid=5077581b-cebb-46fc-ba69-4fa8272d4810"},"vehicle_type_id":"4","last_reported":1749928057,"current_range_meters":0,"station_id":"","pricing_plan_id":"cebpf4jnsgd1na2vs0mg"},{"bike_id":"b700b739-d84e-40eb-a0b6-5cbfa9485ee2","system_id":"levelo_inurba_marseille","lat":43.27853,"lon":5.42188,"is_reserved":false,"is_disabled":true,"rental_uris":{"android":"levelo://app?vid=b700b739-d84e-40eb-a0b6-5cbfa9485ee2","ios":"levelo://app?vid=b700b739-d84e-40eb-a0b6-5cbfa9485ee2"},"vehicle_type_id":"4","last_reported":1749928057,"current_range_meters":0,"station_id":"","pricing_plan_id":"cebpf4jnsgd1na2vs0mg"},{"bike_id":"718908ad-5540-4930-b134-cec6229c8d1c","system_id":"levelo_inurba_marseille","lat":43.265535,"lon":5.372854,"is_reserved":false,"is_disabled":true,"rental_uris":{"android":"levelo://app?vid=718908ad-5540-4930-b134-cec6229c8d1c","ios":"levelo://app?vid=718908ad-5540-4930-b134-cec6229c8d1c"},"vehicle_type_id":"4","last_reported":1749928057,"current_range_meters":0,"station_id":"","pricing_plan_id":"cebpf4jnsgd1na2vs0mg"},{"bike_id":"ebf89cec-3e1a-4275-9cd0-a3d19d69b5cf","system_id":"levelo_inurba_marseille","lat":43.28002,"lon":5.38488,"is_reserved":false,"is_disabled":true,"rental_uris":{"android":"levelo://app?vid=ebf89cec-3e1a-4275-9cd0-a3d19d69b5cf","ios":"levelo://app?vid=ebf89cec-3e1a-4275-9cd0-a3d19d69b5cf"},"vehicle_type_id":"4","last_reported":1749928057,"current_range_meters":0,"station_id":"","pricing_plan_id":"cebpf4jnsgd1na2vs0mg"},{"bike_id":"492f4bbd-1190-4ef2-b66a-479ffe91b09b","system_id":"levelo_inurba_marseille","lat":43.337444,"lon":5.374475,"is_reserved":false,"is_disabled":true,"rental_uris":{"android":"levelo://app?vid=492f4bbd-1190-4ef2-b66a-479ffe91b09b","ios":"levelo://app?vid=492f4bbd-1190-4ef2-b66a-479ffe91b09b"},"vehicle_type_id":"4","last_reported":1749928057,"current_range_meters":0,"station_id":"","pricing_plan_id":"cebpf4jnsgd1na2vs0mg"},{"bike_id":"04076281-604c-4d0c-8e3d-82151e92dbd5","system_id":"levelo_inurba_marseille","lat":43.30836,"lon":5.36941,"is_reserved":false,"is_disabled":true,"rental_uris":{"android":"levelo://app?vid=04076281-604c-4d0c-8e3d-82151e92dbd5","ios":"levelo://app?vid=04076281-604c-4d0c-8e3d-82151e92dbd5"},"vehicle_type_id":"4","last_reported":1749928057,"current_range_meters":0,"station_id":"","pricing_plan_id":"cebpf4jnsgd1na2vs0mg"},{"bike_id":"a9b6bf99-4070-4437-bb20-72962ae30b90","system_id":"levelo_inurba_marseille","lat":43.27462,"lon":5.36387,"is_reserved":false,"is_disabled":true,"rental_uris":{"android":"levelo://app?vid=a9b6bf99-4070-4437-bb20-72962ae30b90","ios":"levelo://app?vid=a9b6bf99-4070-4437-bb20-72962ae30b90"},"vehicle_type_id":"4","last_reported":1749928057,"current_range_meters":0,"station_id":"","pricing_plan_id":"cebpf4jnsgd1na2vs0mg"},{"bike_id":"b5871efb-6376-442d-a299-702c78e2d524","system_id":"levelo_inurba_marseille","lat":43.30132,"lon":5.38784,"is_reserved":false,"is_disabled":true,"rental_uris":{"android":"levelo://app?vid=b5871efb-6376-442d-a299-702c78e2d524","ios":"levelo://app?vid=b5871efb-6376-442d-a299-702c78e2d524"},"vehicle_type_id":"4","last_reported":1749928057,"current_range_meters":0,"station_id":"ce4bghh2rcd13ifvqb60","pricing_plan_id":"cebpf4jnsgd1na2vs0mg"},{"bike_id":"39a3f2b7-bd18-4d37-846b-d760afd06033","system_id":"levelo_inurba_marseille","lat":43.30137,"lon":5.38782,"is_reserved":false,"is_disabled":true,"rental_uris":{"android":"levelo://app?vid=39a3f2b7-bd18-4d37-846b-d760afd06033","ios":"levelo://app?vid=39a3f2b7-bd18-4d37-846b-d760afd06033"},"vehicle_type_id":"4","last_reported":1749928057,"current_range_meters":0,"station_id":"ce4bghh2rcd13ifvqb60","pricing_plan_id":"cebpf4jnsgd1na2vs0mg"},{"bike_id":"c63900c1-a3ff-4888-a87d-001478a533e4","system_id":"levelo_inurba_marseille","lat":43.29915,"lon":5.38141,"is_reserved":false,"is_disabled":true,"rental_uris":{"android":"levelo://app?vid=c63900c1-a3ff-4888-a87d-001478a533e4","ios":"levelo://app?vid=c63900c1-a3ff-4888-a87d-001478a533e4"},"vehicle_type_id":"4","last_reported":1749928057,"current_range_meters":0,"station_id":"ce4bgj12rcd13ifvqbc0","pricing_plan_id":"cebpf4jnsgd1na2vs0mg"},{"bike_id":"bc32c1f6-e7ff-4bb9-818e-b34ad9b82a76","system_id":"levelo_inurba_marseille","lat":43.29978,"lon":5.38495,"is_reserved":false,"is_disabled":true,"rental_uris":{"android":"levelo://app?vid=bc32c1f6-e7ff-4bb9-818e-b34ad9b82a76","ios":"levelo://app?vid=bc32c1f6-e7ff-4bb9-818e-b34ad9b82a76"},"vehicle_type_id":"4","last_reported":1749928057,"current_range_meters":0,"station_id":"ce4bgj92rcd13ifvqbd0","pricing_plan_id":"cebpf4jnsgd1na2vs0mg"},{"bike_id":"a6ac2460-bddb-4374-88d7-4c5de25f8b80","system_id":"levelo_inurba_marseille","lat":43.29607,"lon":5.38101,"is_reserved":false,"is_disabled":true,"rental_uris":{"android":"levelo://app?vid=a6ac2460-bddb-4374-88d7-4c5de25f8b80","ios":"levelo://app?vid=a6ac2460-bddb-4374-88d7-4c5de25f8b80"},"vehicle_type_id":"4","last_reported":1749928057,"current_range_meters":0,"station_id":"ce4bgl12rcd13ifvqbo0","pricing_plan_id":"cebpf4jnsgd1na2vs0mg"},{"bike_id":"fe909eec-57cb-4f6d-9797-191bc789bd7d","system_id":"levelo_inurba_marseille","lat":43.31222,"lon":5.36834,"is_reserved":false,"is_disabled":true,"rental_uris":{"android":"levelo://app?vid=fe909eec-57cb-4f6d-9797-191bc789bd7d","ios":"levelo://app?vid=fe909eec-57cb-4f6d-9797-191bc789bd7d"},"vehicle_type_id":"4","last_reported":1749928057,"current_range_meters":0,"station_id":"ce4bgl92rcd13ifvqbq0","pricing_plan_id":"cebpf4jnsgd1na2vs0mg"},{"bike_id":"44165079-1d26-4120-b717-01221719b5f0","system_id":"levelo_inurba_marseille","lat":43.30141,"lon":5.37401,"is_reserved":false,"is_disabled":true,"rental_uris":{"android":"levelo://app?vid=44165079-1d26-4120-b717-01221719b5f0","ios":"levelo://app?vid=44165079-1d26-4120-b717-01221719b5f0"},"vehicle_type_id":"4","last_reported":1749928057,"current_range_meters":0,"station_id":"ce4bgs92rcd13ifvqcc0","pricing_plan_id":"cebpf4jnsgd1na2vs0mg"},{"bike_id":"2e1737bc-91aa-4ec7-af2c-0c0eec1d6e46","system_id":"levelo_inurba_marseille","lat":43.30895,"lon":5.37191,"is_reserved":false,"is_disabled":true,"rental_uris":{"android":"levelo://app?vid=2e1737bc-91aa-4ec7-af2c-0c0eec1d6e46","ios":"levelo://app?vid=2e1737bc-91aa-4ec7-af2c-0c0eec1d6e46"},"vehicle_type_id":"4","last_reported":1749928057,"current_range_meters":0,"station_id":"ce4bguh2rcd13ifvqckg","pricing_plan_id":"cebpf4jnsgd1na2vs0mg"},{"bike_id":"eee6f0ea-d72b-4680-a550-37f9522b1205","system_id":"levelo_inurba_marseille","lat":43.30645,"lon":5.40091,"is_reserved":false,"is_disabled":true,"rental_uris":{"android":"levelo://app?vid=eee6f0ea-d72b-4680-a550-37f9522b1205","ios":"levelo://app?vid=eee6f0ea-d72b-4680-a550-37f9522b1205"},"vehicle_type_id":"4","last_reported":1749928057,"current_range_meters":0,"station_id":"ce4bh112rcd13ifvqda0","pricing_plan_id":"cebpf4jnsgd1na2vs0mg"},{"bike_id":"74af06ce-d52c-49ec-ba89-d72002b49e70","system_id":"levelo_inurba_marseille","lat":43.26554,"lon":5.37285,"is_reserved":false,"is_disabled":true,"rental_uris":{"android":"levelo://app?vid=74af06ce-d52c-49ec-ba89-d72002b49e70","ios":"levelo://app?vid=74af06ce-d52c-49ec-ba89-d72002b49e70"},"vehicle_type_id":"4","last_reported":1749928057,"current_range_meters":0,"station_id":"ce4bhg12rcd13ifvqf70","pricing_plan_id":"cebpf4jnsgd1na2vs0mg"},{"bike_id":"e956fd02-daf7-419b-a685-1a24cc7994b5","system_id":"levelo_inurba_marseille","lat":43.24812,"lon":5.37462,"is_reserved":false,"is_disabled":true,"rental_uris":{"android":"levelo://app?vid=e956fd02-daf7-419b-a685-1a24cc7994b5","ios":"levelo://app?vid=e956fd02-daf7-419b-a685-1a24cc7994b5"},"vehicle_type_id":"4","last_reported":1749928057,"current_range_meters":0,"station_id":"ce4bhgh2rcd13ifvqfb0","pricing_plan_id":"cebpf4jnsgd1na2vs0mg"},{"bike_id":"a358d4dc-8e94-4849-be3c-1979d29ee1f8","system_id":"levelo_inurba_marseille","lat":43.25585,"lon":5.38235,"is_reserved":false,"is_disabled":true,"rental_uris":{"android":"levelo://app?vid=a358d4dc-8e94-4849-be3c-1979d29ee1f8","ios":"levelo://app?vid=a358d4dc-8e94-4849-be3c-1979d29ee1f8"},"vehicle_type_id":"4","last_reported":1749928057,"current_range_meters":0,"station_id":"ce4bhih2rcd13ifvqfs0","pricing_plan_id":"cebpf4jnsgd1na2vs0mg"},{"bike_id":"e55db529-d8f0-4d2f-bc7a-0e2f2ae0f7ff","system_id":"levelo_inurba_marseille","lat":43.32113,"lon":5.36769,"is_reserved":false,"is_disabled":true,"rental_uris":{"android":"levelo://app?vid=e55db529-d8f0-4d2f-bc7a-0e2f2ae0f7ff","ios":"levelo://app?vid=e55db529-d8f0-4d2f-bc7a-0e2f2ae0f7ff"},"vehicle_type_id":"4","last_reported":1749928057,"current_range_meters":0,"station_id":"ce4bhrh2rcd13ifvqhug","pricing_plan_id":"cebpf4jnsgd1na2vs0mg"},{"bike_id":"1e770773-1443-4e4b-86e4-7e3e937ac357","system_id":"levelo_inurba_marseille","lat":43.32109,"lon":5.36772,"is_reserved":false,"is_disabled":true,"rental_uris":{"android":"levelo://app?vid=1e770773-1443-4e4b-86e4-7e3e937ac357","ios":"levelo://app?vid=1e770773-1443-4e4b-86e4-7e3e937ac357"},"vehicle_type_id":"4","last_reported":1749928057,"current_range_meters":0,"station_id":"ce4bhrh2rcd13ifvqhug","pricing_plan_id":"cebpf4jnsgd1na2vs0mg"},{"bike_id":"0f50c2eb-d288-4d90-a9a3-cd0743222590","system_id":"levelo_inurba_marseille","lat":43.22503,"lon":5.34779,"is_reserved":false,"is_disabled":true,"rental_uris":{"android":"levelo://app?vid=0f50c2eb-d288-4d90-a9a3-cd0743222590","ios":"levelo://app?vid=0f50c2eb-d288-4d90-a9a3-cd0743222590"},"vehicle_type_id":"4","last_reported":1749928057,"current_range_meters":0,"station_id":"st_cvj5dfep6f1abm77gieg","pricing_plan_id":"cebpf4jnsgd1na2vs0mg"},{"bike_id":"77e1b72a-e412-4bf7-b26d-9074f78abf68","system_id":"levelo_inurba_marseille","lat":43.22528,"lon":5.34774,"is_reserved":false,"is_disabled":true,"rental_uris":{"android":"levelo://app?vid=77e1b72a-e412-4bf7-b26d-9074f78abf68","ios":"levelo://app?vid=77e1b72a-e412-4bf7-b26d-9074f78abf68"},"vehicle_type_id":"4","last_reported":1749928057,"current_range_meters":0,"station_id":"st_cvj5dfep6f1abm77gieg","pricing_plan_id":"cebpf4jnsgd1na2vs0mg"},{"bike_id":"fe5a9aaf-2d36-4b9d-abdd-dc360a59de38","system_id":"levelo_inurba_marseille","lat":43.21761,"lon":5.34596,"is_reserved":false,"is_disabled":true,"rental_uris":{"android":"levelo://app?vid=fe5a9aaf-2d36-4b9d-abdd-dc360a59de38","ios":"levelo://app?vid=fe5a9aaf-2d36-4b9d-abdd-dc360a59de38"},"vehicle_type_id":"4","last_reported":1749928057,"current_range_meters":0,"station_id":"st_cvj6r9ubvosntc0bgbag","pricing_plan_id":"cebpf4jnsgd1na2vs0mg"},{"bike_id":"ceed8e49-424f-4eba-95a3-d0aed3600067","system_id":"levelo_inurba_marseille","lat":43.21225,"lon":5.35041,"is_reserved":false,"is_disabled":true,"rental_uris":{"android":"levelo://app?vid=ceed8e49-424f-4eba-95a3-d0aed3600067","ios":"levelo://app?vid=ceed8e49-424f-4eba-95a3-d0aed3600067"},"vehicle_type_id":"4","last_reported":1749928057,"current_range_meters":0,"station_id":"st_cvj6sg6p6f1abm77japg","pricing_plan_id":"cebpf4jnsgd1na2vs0mg"},{"bike_id":"c3144f05-5808-4272-be4f-743b3aae7d2a","system_id":"levelo_inurba_marseille","lat":43.2396,"lon":5.36637,"is_reserved":false,"is_disabled":true,"rental_uris":{"android":"levelo://app?vid=c3144f05-5808-4272-be4f-743b3aae7d2a","ios":"levelo://app?vid=c3144f05-5808-4272-be4f-743b3aae7d2a"},"vehicle_type_id":"4","last_reported":1749928057,"current_range_meters":400,"station_id":"ce4bhi12rcd13ifvqfp0","pricing_plan_id":"cebpf4jnsgd1na2vs0mg"},{"bike_id":"d0e086f6-d09a-4fb1-99cd-295ca78ab40d","system_id":"levelo_inurba_marseille","lat":43.27849,"lon":5.39203,"is_reserved":false,"is_disabled":true,"rental_uris":{"android":"levelo://app?vid=d0e086f6-d09a-4fb1-99cd-295ca78ab40d","ios":"levelo://app?vid=d0e086f6-d09a-4fb1-99cd-295ca78ab40d"},"vehicle_type_id":"4","last_reported":1749928057,"current_range_meters":400,"station_id":"ce4bhjp2rcd13ifvqga0","pricing_plan_id":"cebpf4jnsgd1na2vs0mg"},{"bike_id":"04005531-52ef-4a8c-a6d8-546a39325ee5","system_id":"levelo_inurba_marseille","lat":43.225043,"lon":5.34789,"is_reserved":false,"is_disabled":true,"rental_uris":{"android":"levelo://app?vid=04005531-52ef-4a8c-a6d8-546a39325ee5","ios":"levelo://app?vid=04005531-52ef-4a8c-a6d8-546a39325ee5"},"vehicle_type_id":"4","last_reported":1749928057,"current_range_meters":400,"station_id":"st_cvj5dfep6f1abm77gieg","pricing_plan_id":"cebpf4jnsgd1na2vs0mg"},{"bike_id":"8d60347d-541c-40fb-90ca-203bf6bd520a","system_id":"levelo_inurba_marseille","lat":43.271263,"lon":5.364099,"is_reserved":false,"is_disabled":true,"rental_uris":{"android":"levelo://app?vid=8d60347d-541c-40fb-90ca-203bf6bd520a","ios":"levelo://app?vid=8d60347d-541c-40fb-90ca-203bf6bd520a"},"vehicle_type_id":"4","last_reported":1749928057,"current_range_meters":800,"station_id":"","pricing_plan_id":"cebpf4jnsgd1na2vs0mg"},{"bike_id":"17213a67-2d3d-4687-ac7d-2bc54516f422","system_id":"levelo_inurba_marseille","lat":43.29535,"lon":5.38543,"is_reserved":false,"is_disabled":true,"rental_uris":{"android":"levelo://app?vid=17213a67-2d3d-4687-ac7d-2bc54516f422","ios":"levelo://app?vid=17213a67-2d3d-4687-ac7d-2bc54516f422"},"vehicle_type_id":"4","last_reported":1749928057,"current_range_meters":800,"station_id":"ce4bgih2rcd13ifvqba0","pricing_plan_id":"cebpf4jnsgd1na2vs0mg"},{"bike_id":"4233f8eb-22c3-46b1-8f20-7c08687150e1","system_id":"levelo_inurba_marseille","lat":43.279166,"lon":5.395768,"is_reserved":false,"is_disabled":false,"rental_uris":{"android":"levelo://app?vid=4233f8eb-22c3-46b1-8f20-7c08687150e1","ios":"levelo://app?vid=4233f8eb-22c3-46b1-8f20-7c08687150e1"},"vehicle_type_id":"4","last_reported":1749928057,"current_range_meters":800,"station_id":"ce4bhf92rcd13ifvqf40","pricing_plan_id":"cebpf4jnsgd1na2vs0mg"},{"bike_id":"92bdf155-9b75-4ec0-962a-dd07e6305713","system_id":"levelo_inurba_marseille","lat":43.32298,"lon":5.3825,"is_reserved":false,"is_disabled":true,"rental_uris":{"android":"levelo://app?vid=92bdf155-9b75-4ec0-962a-dd07e6305713","ios":"levelo://app?vid=92bdf155-9b75-4ec0-962a-dd07e6305713"},"vehicle_type_id":"4","last_reported":1749928057,"current_range_meters":800,"station_id":"ce4bhr12rcd13ifvqhqg","pricing_plan_id":"cebpf4jnsgd1na2vs0mg"},{"bike_id":"5929f607-aa6a-415a-be91-093b1f76a22b","system_id":"levelo_inurba_marseille","lat":43.29371,"lon":5.37867,"is_reserved":false,"is_disabled":true,"rental_uris":{"android":"levelo://app?vid=5929f607-aa6a-415a-be91-093b1f76a22b","ios":"levelo://app?vid=5929f607-aa6a-415a-be91-093b1f76a22b"},"vehicle_type_id":"4","last_reported":1749928057,"current_range_meters":1200,"station_id":"ce4bgjh2rcd13ifvqbf0","pricing_plan_id":"cebpf4jnsgd1na2vs0mg"},{"bike_id":"af72168d-01af-454b-aab1-4e5f71afa8f1","system_id":"levelo_inurba_marseille","lat":43.28431,"lon":5.39217,"is_reserved":false,"is_disabled":true,"rental_uris":{"android":"levelo://app?vid=af72168d-01af-454b-aab1-4e5f71afa8f1","ios":"levelo://app?vid=af72168d-01af-454b-aab1-4e5f71afa8f1"},"vehicle_type_id":"4","last_reported":1749928057,"current_range_meters":1200,"station_id":"ce4bhoh2rcd13ifvqh5g","pricing_plan_id":"cebpf4jnsgd1na2vs0mg"},{"bike_id":"0e3ea83e-e73d-40ce-9112-b17acaf390ef","system_id":"levelo_inurba_marseille","lat":43.26382,"lon":5.37807,"is_reserved":false,"is_disabled":true,"rental_uris":{"android":"levelo://app?vid=0e3ea83e-e73d-40ce-9112-b17acaf390ef","ios":"levelo://app?vid=0e3ea83e-e73d-40ce-9112-b17acaf390ef"},"vehicle_type_id":"4","last_reported":1749928057,"current_range_meters":1200,"station_id":"st_d163nis0mtpqnht9uue0","pricing_plan_id":"cebpf4jnsgd1na2vs0mg"},{"bike_id":"3734f250-4c72-4926-aa0e-02997d725421","system_id":"levelo_inurba_marseille","lat":43.29192,"lon":5.3933,"is_reserved":false,"is_disabled":true,"rental_uris":{"android":"levelo://app?vid=3734f250-4c72-4926-aa0e-02997d725421","ios":"levelo://app?vid=3734f250-4c72-4926-aa0e-02997d725421"},"vehicle_type_id":"4","last_reported":1749928057,"current_range_meters":1600,"station_id":"ce4bh192rcd13ifvqdd0","pricing_plan_id":"cebpf4jnsgd1na2vs0mg"},{"bike_id":"54bf9537-1211-45dc-a8a3-53a4390270c0","system_id":"levelo_inurba_marseille","lat":43.2836,"lon":5.38095,"is_reserved":false,"is_disabled":true,"rental_uris":{"android":"levelo://app?vid=54bf9537-1211-45dc-a8a3-53a4390270c0","ios":"levelo://app?vid=54bf9537-1211-45dc-a8a3-53a4390270c0"},"vehicle_type_id":"4","last_reported":1749928057,"current_range_meters":1600,"station_id":"ce4bh412rcd13ifvqdr0","pricing_plan_id":"cebpf4jnsgd1na2vs0mg"},{"bike_id":"bd018550-277d-43f8-8dbd-f2097525c27c","system_id":"levelo_inurba_marseille","lat":43.28343,"lon":5.381055,"is_reserved":false,"is_disabled":true,"rental_uris":{"android":"levelo://app?vid=bd018550-277d-43f8-8dbd-f2097525c27c","ios":"levelo://app?vid=bd018550-277d-43f8-8dbd-f2097525c27c"},"vehicle_type_id":"4","last_reported":1749928057,"current_range_meters":1600,"station_id":"ce4bh412rcd13ifvqdr0","pricing_plan_id":"cebpf4jnsgd1na2vs0mg"},{"bike_id":"cc5c1a81-d21a-402b-bb37-4d82fad9f190","system_id":"levelo_inurba_marseille","lat":43.28941,"lon":5.36631,"is_reserved":false,"is_disabled":true,"rental_uris":{"android":"levelo://app?vid=cc5c1a81-d21a-402b-bb37-4d82fad9f190","ios":"levelo://app?vid=cc5c1a81-d21a-402b-bb37-4d82fad9f190"},"vehicle_type_id":"4","last_reported":1749928057,"current_range_meters":1600,"station_id":"ce4bhap2rcd13ifvqek0","pricing_plan_id":"cebpf4jnsgd1na2vs0mg"},{"bike_id":"e162d043-c95e-47bc-95e4-510996243db4","system_id":"levelo_inurba_marseille","lat":43.28422,"lon":5.3498,"is_reserved":false,"is_disabled":true,"rental_uris":{"android":"levelo://app?vid=e162d043-c95e-47bc-95e4-510996243db4","ios":"levelo://app?vid=e162d043-c95e-47bc-95e4-510996243db4"},"vehicle_type_id":"4","last_reported":1749928057,"current_range_meters":1600,"station_id":"ce4bhbh2rcd13ifvqepg","pricing_plan_id":"cebpf4jnsgd1na2vs0mg"},{"bike_id":"36c23b8b-1a5c-4b44-9eb6-ec8428373f8a","system_id":"levelo_inurba_marseille","lat":43.25494,"lon":5.37643,"is_reserved":false,"is_disabled":true,"rental_uris":{"android":"levelo://app?vid=36c23b8b-1a5c-4b44-9eb6-ec8428373f8a","ios":"levelo://app?vid=36c23b8b-1a5c-4b44-9eb6-ec8428373f8a"},"vehicle_type_id":"4","last_reported":1749928057,"current_range_meters":1600,"station_id":"ce4bhh12rcd13ifvqff0","pricing_plan_id":"cebpf4jnsgd1na2vs0mg"},{"bike_id":"daebd647-3052-47ec-b2a4-c1ecc9db252a","system_id":"levelo_inurba_marseille","lat":43.27222,"lon":5.39175,"is_reserved":false,"is_disabled":true,"rental_uris":{"android":"levelo://app?vid=daebd647-3052-47ec-b2a4-c1ecc9db252a","ios":"levelo://app?vid=daebd647-3052-47ec-b2a4-c1ecc9db252a"},"vehicle_type_id":"4","last_reported":1749928057,"current_range_meters":1600,"station_id":"ce4bhhp2rcd13ifvqfm0","pricing_plan_id":"cebpf4jnsgd1na2vs0mg"},{"bike_id":"1101a884-7e86-4f61-a6e7-049fc96aa5b4","system_id":"levelo_inurba_marseille","lat":43.2998,"lon":5.371769,"is_reserved":false,"is_disabled":true,"rental_uris":{"android":"levelo://app?vid=1101a884-7e86-4f61-a6e7-049fc96aa5b4","ios":"levelo://app?vid=1101a884-7e86-4f61-a6e7-049fc96aa5b4"},"vehicle_type_id":"4","last_reported":1749928057,"current_range_meters":2000,"station_id":"ce4bgr92rcd13ifvqc7g","pricing_plan_id":"cebpf4jnsgd1na2vs0mg"},{"bike_id":"aaf93bfe-0db5-460d-99ab-9f37a652b944","system_id":"levelo_inurba_marseille","lat":43.27943,"lon":5.41048,"is_reserved":false,"is_disabled":true,"rental_uris":{"android":"levelo://app?vid=aaf93bfe-0db5-460d-99ab-9f37a652b944","ios":"levelo://app?vid=aaf93bfe-0db5-460d-99ab-9f37a652b944"},"vehicle_type_id":"4","last_reported":1749928057,"current_range_meters":2000,"station_id":"ce4bhnp2rcd13ifvqh0g","pricing_plan_id":"cebpf4jnsgd1na2vs0mg"},{"bike_id":"6428c74e-4b73-4689-9fe2-03694f167754","system_id":"levelo_inurba_marseille","lat":43.33025,"lon":5.39045,"is_reserved":false,"is_disabled":true,"rental_uris":{"android":"levelo://app?vid=6428c74e-4b73-4689-9fe2-03694f167754","ios":"levelo://app?vid=6428c74e-4b73-4689-9fe2-03694f167754"},"vehicle_type_id":"4","last_reported":1749928057,"current_range_meters":2000,"station_id":"ce4bhr92rcd13ifvqhrg","pricing_plan_id":"cebpf4jnsgd1na2vs0mg"},{"bike_id":"61e75a06-a89b-424b-a62c-0581712e8f4e","system_id":"levelo_inurba_marseille","lat":43.3014,"lon":5.39868,"is_reserved":false,"is_disabled":false,"rental_uris":{"android":"levelo://app?vid=61e75a06-a89b-424b-a62c-0581712e8f4e","ios":"levelo://app?vid=61e75a06-a89b-424b-a62c-0581712e8f4e"},"vehicle_type_id":"4","last_reported":1749928057,"current_range_meters":2800,"station_id":"ce4bh0h2rcd13ifvqd40","pricing_plan_id":"cebpf4jnsgd1na2vs0mg"},{"bike_id":"7c358d79-8b71-4683-8493-78093d1dedaf","system_id":"levelo_inurba_marseille","lat":43.27998,"lon":5.41667,"is_reserved":false,"is_disabled":false,"rental_uris":{"android":"levelo://app?vid=7c358d79-8b71-4683-8493-78093d1dedaf","ios":"levelo://app?vid=7c358d79-8b71-4683-8493-78093d1dedaf"},"vehicle_type_id":"4","last_reported":1749928057,"current_range_meters":2800,"station_id":"ce4bho12rcd13ifvqh1g","pricing_plan_id":"cebpf4jnsgd1na2vs0mg"},{"bike_id":"56585bf8-088e-4af7-a2b3-f888c8309479","system_id":"levelo_inurba_marseille","lat":43.286142,"lon":5.35105,"is_reserved":false,"is_disabled":false,"rental_uris":{"android":"levelo://app?vid=56585bf8-088e-4af7-a2b3-f888c8309479","ios":"levelo://app?vid=56585bf8-088e-4af7-a2b3-f888c8309479"},"vehicle_type_id":"4","last_reported":1749928057,"current_range_meters":3200,"station_id":"","pricing_plan_id":"cebpf4jnsgd1na2vs0mg"},{"bike_id":"97421c04-2630-4fc1-9da9-b17d88602c5f","system_id":"levelo_inurba_marseille","lat":43.337682,"lon":5.374519,"is_reserved":false,"is_disabled":false,"rental_uris":{"android":"levelo://app?vid=97421c04-2630-4fc1-9da9-b17d88602c5f","ios":"levelo://app?vid=97421c04-2630-4fc1-9da9-b17d88602c5f"},"vehicle_type_id":"4","last_reported":1749928057,"current_range_meters":3200,"station_id":"","pricing_plan_id":"cebpf4jnsgd1na2vs0mg"},{"bike_id":"17a9f451-07ba-4644-ad06-8b7dafbe15b1","system_id":"levelo_inurba_marseille","lat":43.30279,"lon":5.37714,"is_reserved":false,"is_disabled":false,"rental_uris":{"android":"levelo://app?vid=17a9f451-07ba-4644-ad06-8b7dafbe15b1","ios":"levelo://app?vid=17a9f451-07ba-4644-ad06-8b7dafbe15b1"},"vehicle_type_id":"4","last_reported":1749928057,"current_range_meters":3200,"station_id":"ce4bguh2rcd13ifvqcj0","pricing_plan_id":"cebpf4jnsgd1na2vs0mg"},{"bike_id":"66b19dc3-6fb0-497d-b630-6c27755a27fc","system_id":"levelo_inurba_marseille","lat":43.309501,"lon":5.390365,"is_reserved":false,"is_disabled":false,"rental_uris":{"android":"levelo://app?vid=66b19dc3-6fb0-497d-b630-6c27755a27fc","ios":"levelo://app?vid=66b19dc3-6fb0-497d-b630-6c27755a27fc"},"vehicle_type_id":"4","last_reported":1749928057,"current_range_meters":3200,"station_id":"ce4bgup2rcd13ifvqco0","pricing_plan_id":"cebpf4jnsgd1na2vs0mg"},{"bike_id":"3d6ef34c-1ec6-4ed3-88e4-07359f729c42","system_id":"levelo_inurba_marseille","lat":43.27581,"lon":5.43395,"is_reserved":false,"is_disabled":false,"rental_uris":{"android":"levelo://app?vid=3d6ef34c-1ec6-4ed3-88e4-07359f729c42","ios":"levelo://app?vid=3d6ef34c-1ec6-4ed3-88e4-07359f729c42"},"vehicle_type_id":"4","last_reported":1749928057,"current_range_meters":3600,"station_id":"","pricing_plan_id":"cebpf4jnsgd1na2vs0mg"},{"bike_id":"501d8af7-57b8-4224-a92a-e35316ed35a1","system_id":"levelo_inurba_marseille","lat":43.309455,"lon":5.390344,"is_reserved":false,"is_disabled":false,"rental_uris":{"android":"levelo://app?vid=501d8af7-57b8-4224-a92a-e35316ed35a1","ios":"levelo://app?vid=501d8af7-57b8-4224-a92a-e35316ed35a1"},"vehicle_type_id":"4","last_reported":1749928057,"current_range_meters":3600,"station_id":"ce4bgup2rcd13ifvqco0","pricing_plan_id":"cebpf4jnsgd1na2vs0mg"},{"bike_id":"d9c17d2d-56b0-43fe-a9af-dbfff32ccf9c","system_id":"levelo_inurba_marseille","lat":43.3095,"lon":5.390362,"is_reserved":false,"is_disabled":false,"rental_uris":{"android":"levelo://app?vid=d9c17d2d-56b0-43fe-a9af-dbfff32ccf9c","ios":"levelo://app?vid=d9c17d2d-56b0-43fe-a9af-dbfff32ccf9c"},"vehicle_type_id":"4","last_reported":1749928057,"current_range_meters":3600,"station_id":"ce4bgup2rcd13ifvqco0","pricing_plan_id":"cebpf4jnsgd1na2vs0mg"},{"bike_id":"c3254271-023d-4bff-a97e-e897b91df9e3","system_id":"levelo_inurba_marseille","lat":43.23965,"lon":5.36631,"is_reserved":false,"is_disabled":false,"rental_uris":{"android":"levelo://app?vid=c3254271-023d-4bff-a97e-e897b91df9e3","ios":"levelo://app?vid=c3254271-023d-4bff-a97e-e897b91df9e3"},"vehicle_type_id":"4","last_reported":1749928057,"current_range_meters":3600,"station_id":"ce4bhi12rcd13ifvqfp0","pricing_plan_id":"cebpf4jnsgd1na2vs0mg"},{"bike_id":"12c008fe-ee3a-430b-9df1-2a2e1019442e","system_id":"levelo_inurba_marseille","lat":43.23185,"lon":5.40002,"is_reserved":false,"is_disabled":false,"rental_uris":{"android":"levelo://app?vid=12c008fe-ee3a-430b-9df1-2a2e1019442e","ios":"levelo://app?vid=12c008fe-ee3a-430b-9df1-2a2e1019442e"},"vehicle_type_id":"4","last_reported":1749928057,"current_range_meters":3600,"station_id":"ce4bhn12rcd13ifvqgqg","pricing_plan_id":"cebpf4jnsgd1na2vs0mg"},{"bike_id":"fdf9ba6a-d144-49cc-83a9-1704e11a3f90","system_id":"levelo_inurba_marseille","lat":43.23061,"lon":5.35489,"is_reserved":false,"is_disabled":false,"rental_uris":{"android":"levelo://app?vid=fdf9ba6a-d144-49cc-83a9-1704e11a3f90","ios":"levelo://app?vid=fdf9ba6a-d144-49cc-83a9-1704e11a3f90"},"vehicle_type_id":"4","last_reported":1749928057,"current_range_meters":4000,"station_id":"cpo3342slgdg3j2ifvpg","pricing_plan_id":"cebpf4jnsgd1na2vs0mg"},{"bike_id":"f5b2ffae-c086-4e1b-b0fd-043d6026a577","system_id":"levelo_inurba_marseille","lat":43.33757,"lon":5.3919,"is_reserved":false,"is_disabled":false,"rental_uris":{"android":"levelo://app?vid=f5b2ffae-c086-4e1b-b0fd-043d6026a577","ios":"levelo://app?vid=f5b2ffae-c086-4e1b-b0fd-043d6026a577"},"vehicle_type_id":"4","last_reported":1749928057,"current_range_meters":4400,"station_id":"ce4bhr92rcd13ifvqhsg","pricing_plan_id":"cebpf4jnsgd1na2vs0mg"},{"bike_id":"f053ee2f-b0a9-4944-9983-ac7f640159db","system_id":"levelo_inurba_marseille","lat":43.26743,"lon":5.42741,"is_reserved":false,"is_disabled":false,"rental_uris":{"android":"levelo://app?vid=f053ee2f-b0a9-4944-9983-ac7f640159db","ios":"levelo://app?vid=f053ee2f-b0a9-4944-9983-ac7f640159db"},"vehicle_type_id":"4","last_reported":1749928057,"current_range_meters":4800,"station_id":"","pricing_plan_id":"cebpf4jnsgd1na2vs0mg"},{"bike_id":"0f9f994a-573a-44a7-9eb0-92e7607b6e84","system_id":"levelo_inurba_marseille","lat":43.29969,"lon":5.38498,"is_reserved":false,"is_disabled":false,"rental_uris":{"android":"levelo://app?vid=0f9f994a-573a-44a7-9eb0-92e7607b6e84","ios":"levelo://app?vid=0f9f994a-573a-44a7-9eb0-92e7607b6e84"},"vehicle_type_id":"4","last_reported":1749928057,"current_range_meters":4800,"station_id":"ce4bgj92rcd13ifvqbd0","pricing_plan_id":"cebpf4jnsgd1na2vs0mg"},{"bike_id":"711c38d7-407e-406b-b6f7-33fde559f398","system_id":"levelo_inurba_marseille","lat":43.29939,"lon":5.36537,"is_reserved":false,"is_disabled":false,"rental_uris":{"android":"levelo://app?vid=711c38d7-407e-406b-b6f7-33fde559f398","ios":"levelo://app?vid=711c38d7-407e-406b-b6f7-33fde559f398"},"vehicle_type_id":"4","last_reported":1749928057,"current_range_meters":4800,"station_id":"ce4bgm92rcd13ifvqbr0","pricing_plan_id":"cebpf4jnsgd1na2vs0mg"},{"bike_id":"16d8d838-889b-4912-997a-48cbb047b04b","system_id":"levelo_inurba_marseille","lat":43.33165,"lon":5.38165,"is_reserved":false,"is_disabled":false,"rental_uris":{"android":"levelo://app?vid=16d8d838-889b-4912-997a-48cbb047b04b","ios":"levelo://app?vid=16d8d838-889b-4912-997a-48cbb047b04b"},"vehicle_type_id":"4","last_reported":1749928057,"current_range_meters":5600,"station_id":"","pricing_plan_id":"cebpf4jnsgd1na2vs0mg"},{"bike_id":"863d1a8a-bc0f-46c6-9fcd-ace397a8daf9","system_id":"levelo_inurba_marseille","lat":43.27987,"lon":5.3998,"is_reserved":false,"is_disabled":false,"rental_uris":{"android":"levelo://app?vid=863d1a8a-bc0f-46c6-9fcd-ace397a8daf9","ios":"levelo://app?vid=863d1a8a-bc0f-46c6-9fcd-ace397a8daf9"},"vehicle_type_id":"4","last_reported":1749928057,"current_range_meters":6000,"station_id":"","pricing_plan_id":"cebpf4jnsgd1na2vs0mg"},{"bike_id":"90797f29-fbbf-43e3-a9ab-ebb696d9630b","system_id":"levelo_inurba_marseille","lat":43.31217,"lon":5.37797,"is_reserved":false,"is_disabled":false,"rental_uris":{"android":"levelo://app?vid=90797f29-fbbf-43e3-a9ab-ebb696d9630b","ios":"levelo://app?vid=90797f29-fbbf-43e3-a9ab-ebb696d9630b"},"vehicle_type_id":"4","last_reported":1749928057,"current_range_meters":6000,"station_id":"","pricing_plan_id":"cebpf4jnsgd1na2vs0mg"},{"bike_id":"e78d1fa2-d520-4139-b9eb-08831eded8f8","system_id":"levelo_inurba_marseille","lat":43.255203,"lon":5.376263,"is_reserved":false,"is_disabled":false,"rental_uris":{"android":"levelo://app?vid=e78d1fa2-d520-4139-b9eb-08831eded8f8","ios":"levelo://app?vid=e78d1fa2-d520-4139-b9eb-08831eded8f8"},"vehicle_type_id":"4","last_reported":1749928057,"current_range_meters":6000,"station_id":"ce4bhh12rcd13ifvqff0","pricing_plan_id":"cebpf4jnsgd1na2vs0mg"},{"bike_id":"a6ad01d0-efb1-4f14-a5fd-e22386289e67","system_id":"levelo_inurba_marseille","lat":43.32367,"lon":5.36764,"is_reserved":false,"is_disabled":false,"rental_uris":{"android":"levelo://app?vid=a6ad01d0-efb1-4f14-a5fd-e22386289e67","ios":"levelo://app?vid=a6ad01d0-efb1-4f14-a5fd-e22386289e67"},"vehicle_type_id":"4","last_reported":1749928057,"current_range_meters":6000,"station_id":"ce4bhsh2rcd13ifvqi2g","pricing_plan_id":"cebpf4jnsgd1na2vs0mg"},{"bike_id":"d08ceb6e-bb09-4d96-a815-acf4b6b23ab7","system_id":"levelo_inurba_marseille","lat":43.263641,"lon":5.378185,"is_reserved":false,"is_disabled":false,"rental_uris":{"android":"levelo://app?vid=d08ceb6e-bb09-4d96-a815-acf4b6b23ab7","ios":"levelo://app?vid=d08ceb6e-bb09-4d96-a815-acf4b6b23ab7"},"vehicle_type_id":"4","last_reported":1749928057,"current_range_meters":6000,"station_id":"st_d163nis0mtpqnht9uue0","pricing_plan_id":"cebpf4jnsgd1na2vs0mg"},{"bike_id":"1505478b-b295-43c9-b5c2-aefd2623ef5b","system_id":"levelo_inurba_marseille","lat":43.295278,"lon":5.385484,"is_reserved":false,"is_disabled":false,"rental_uris":{"android":"levelo://app?vid=1505478b-b295-43c9-b5c2-aefd2623ef5b","ios":"levelo://app?vid=1505478b-b295-43c9-b5c2-aefd2623ef5b"},"vehicle_type_id":"4","last_reported":1749928057,"current_range_meters":6400,"station_id":"ce4bgih2rcd13ifvqba0","pricing_plan_id":"cebpf4jnsgd1na2vs0mg"},{"bike_id":"c16f87ec-501e-4775-8e05-125c85f87c93","system_id":"levelo_inurba_marseille","lat":43.29257,"lon":5.38446,"is_reserved":false,"is_disabled":false,"rental_uris":{"android":"levelo://app?vid=c16f87ec-501e-4775-8e05-125c85f87c93","ios":"levelo://app?vid=c16f87ec-501e-4775-8e05-125c85f87c93"},"vehicle_type_id":"4","last_reported":1749928057,"current_range_meters":6400,"station_id":"ce4bh692rcd13ifvqea0","pricing_plan_id":"cebpf4jnsgd1na2vs0mg"},{"bike_id":"17f913ec-9a87-4b14-a719-928e5a14ea89","system_id":"levelo_inurba_marseille","lat":43.28043,"lon":5.36939,"is_reserved":false,"is_disabled":false,"rental_uris":{"android":"levelo://app?vid=17f913ec-9a87-4b14-a719-928e5a14ea89","ios":"levelo://app?vid=17f913ec-9a87-4b14-a719-928e5a14ea89"},"vehicle_type_id":"4","last_reported":1749928057,"current_range_meters":6400,"station_id":"ce4bha12rcd13ifvqef0","pricing_plan_id":"cebpf4jnsgd1na2vs0mg"},{"bike_id":"3ebcb526-9195-4257-ae10-ca7e45e1829a","system_id":"levelo_inurba_marseille","lat":43.23193,"lon":5.39975,"is_reserved":false,"is_disabled":false,"rental_uris":{"android":"levelo://app?vid=3ebcb526-9195-4257-ae10-ca7e45e1829a","ios":"levelo://app?vid=3ebcb526-9195-4257-ae10-ca7e45e1829a"},"vehicle_type_id":"4","last_reported":1749928057,"current_range_meters":6400,"station_id":"ce4bhn12rcd13ifvqgqg","pricing_plan_id":"cebpf4jnsgd1na2vs0mg"},{"bike_id":"653cd02c-9bf3-4a7a-b8d1-27ab804bf944","system_id":"levelo_inurba_marseille","lat":43.31998,"lon":5.38148,"is_reserved":false,"is_disabled":false,"rental_uris":{"android":"levelo://app?vid=653cd02c-9bf3-4a7a-b8d1-27ab804bf944","ios":"levelo://app?vid=653cd02c-9bf3-4a7a-b8d1-27ab804bf944"},"vehicle_type_id":"4","last_reported":1749928057,"current_range_meters":6400,"station_id":"ce4bhr12rcd13ifvqhpg","pricing_plan_id":"cebpf4jnsgd1na2vs0mg"},{"bike_id":"e731dcb5-b13a-4de3-846a-81e5f693ed3e","system_id":"levelo_inurba_marseille","lat":43.30259,"lon":5.37724,"is_reserved":false,"is_disabled":false,"rental_uris":{"android":"levelo://app?vid=e731dcb5-b13a-4de3-846a-81e5f693ed3e","ios":"levelo://app?vid=e731dcb5-b13a-4de3-846a-81e5f693ed3e"},"vehicle_type_id":"4","last_reported":1749928057,"current_range_meters":6800,"station_id":"ce4bguh2rcd13ifvqcj0","pricing_plan_id":"cebpf4jnsgd1na2vs0mg"},{"bike_id":"8cc8668c-1436-494e-a001-db5c0d0c2292","system_id":"levelo_inurba_marseille","lat":43.26692,"lon":5.38288,"is_reserved":false,"is_disabled":false,"rental_uris":{"android":"levelo://app?vid=8cc8668c-1436-494e-a001-db5c0d0c2292","ios":"levelo://app?vid=8cc8668c-1436-494e-a001-db5c0d0c2292"},"vehicle_type_id":"4","last_reported":1749928057,"current_range_meters":6800,"station_id":"ce4bhg92rcd13ifvqf90","pricing_plan_id":"cebpf4jnsgd1na2vs0mg"},{"bike_id":"3258d02c-aa97-4023-9b79-3db20aa53628","system_id":"levelo_inurba_marseille","lat":43.27207,"lon":5.39186,"is_reserved":false,"is_disabled":false,"rental_uris":{"android":"levelo://app?vid=3258d02c-aa97-4023-9b79-3db20aa53628","ios":"levelo://app?vid=3258d02c-aa97-4023-9b79-3db20aa53628"},"vehicle_type_id":"4","last_reported":1749928057,"current_range_meters":6800,"station_id":"ce4bhhp2rcd13ifvqfm0","pricing_plan_id":"cebpf4jnsgd1na2vs0mg"},{"bike_id":"50d69067-3d22-4e21-9f86-fa372068ba7d","system_id":"levelo_inurba_marseille","lat":43.26353,"lon":5.37821,"is_reserved":false,"is_disabled":false,"rental_uris":{"android":"levelo://app?vid=50d69067-3d22-4e21-9f86-fa372068ba7d","ios":"levelo://app?vid=50d69067-3d22-4e21-9f86-fa372068ba7d"},"vehicle_type_id":"4","last_reported":1749928057,"current_range_meters":6800,"station_id":"st_d163nis0mtpqnht9uue0","pricing_plan_id":"cebpf4jnsgd1na2vs0mg"},{"bike_id":"b1064ed7-c4e6-471c-85c3-7d0dd2bd896b","system_id":"levelo_inurba_marseille","lat":43.26696,"lon":5.38274,"is_reserved":false,"is_disabled":false,"rental_uris":{"android":"levelo://app?vid=b1064ed7-c4e6-471c-85c3-7d0dd2bd896b","ios":"levelo://app?vid=b1064ed7-c4e6-471c-85c3-7d0dd2bd896b"},"vehicle_type_id":"4","last_reported":1749928057,"current_range_meters":7200,"station_id":"ce4bhg92rcd13ifvqf90","pricing_plan_id":"cebpf4jnsgd1na2vs0mg"},{"bike_id":"8a7bddf7-e994-47e1-b86c-06523725c471","system_id":"levelo_inurba_marseille","lat":43.303777,"lon":5.419309,"is_reserved":false,"is_disabled":false,"rental_uris":{"android":"levelo://app?vid=8a7bddf7-e994-47e1-b86c-06523725c471","ios":"levelo://app?vid=8a7bddf7-e994-47e1-b86c-06523725c471"},"vehicle_type_id":"4","last_reported":1749928057,"current_range_meters":7200,"station_id":"ce4bhop2rcd13ifvqh7g","pricing_plan_id":"cebpf4jnsgd1na2vs0mg"},{"bike_id":"9bf9b16e-99e1-4b2d-a97f-94b6121ce170","system_id":"levelo_inurba_marseille","lat":43.322853,"lon":5.382613,"is_reserved":false,"is_disabled":false,"rental_uris":{"android":"levelo://app?vid=9bf9b16e-99e1-4b2d-a97f-94b6121ce170","ios":"levelo://app?vid=9bf9b16e-99e1-4b2d-a97f-94b6121ce170"},"vehicle_type_id":"4","last_reported":1749928057,"current_range_meters":7200,"station_id":"ce4bhr12rcd13ifvqhqg","pricing_plan_id":"cebpf4jnsgd1na2vs0mg"},{"bike_id":"a5e6eee0-e2a3-472e-8dea-89d70e72625a","system_id":"levelo_inurba_marseille","lat":43.26676,"lon":5.38268,"is_reserved":false,"is_disabled":false,"rental_uris":{"android":"levelo://app?vid=a5e6eee0-e2a3-472e-8dea-89d70e72625a","ios":"levelo://app?vid=a5e6eee0-e2a3-472e-8dea-89d70e72625a"},"vehicle_type_id":"4","last_reported":1749928057,"current_range_meters":8000,"station_id":"ce4bhg92rcd13ifvqf90","pricing_plan_id":"cebpf4jnsgd1na2vs0mg"},{"bike_id":"ee68f372-9aae-45db-b379-859deda6345c","system_id":"levelo_inurba_marseille","lat":43.279958,"lon":5.400096,"is_reserved":false,"is_disabled":false,"rental_uris":{"android":"levelo://app?vid=ee68f372-9aae-45db-b379-859deda6345c","ios":"levelo://app?vid=ee68f372-9aae-45db-b379-859deda6345c"},"vehicle_type_id":"4","last_reported":1749928057,"current_range_meters":8000,"station_id":"ce4bho92rcd13ifvqh4g","pricing_plan_id":"cebpf4jnsgd1na2vs0mg"},{"bike_id":"77ffaf0f-ee87-4417-90e5-1467c6885d9a","system_id":"levelo_inurba_marseille","lat":43.286053,"lon":5.370553,"is_reserved":false,"is_disabled":false,"rental_uris":{"android":"levelo://app?vid=77ffaf0f-ee87-4417-90e5-1467c6885d9a","ios":"levelo://app?vid=77ffaf0f-ee87-4417-90e5-1467c6885d9a"},"vehicle_type_id":"4","last_reported":1749928057,"current_range_meters":8000,"station_id":"ce4bht12rcd13ifvqi60","pricing_plan_id":"cebpf4jnsgd1na2vs0mg"},{"bike_id":"7d9f3ae3-c92b-433d-b036-9606b79ddf8c","system_id":"levelo_inurba_marseille","lat":43.263483,"lon":5.378236,"is_reserved":false,"is_disabled":false,"rental_uris":{"android":"levelo://app?vid=7d9f3ae3-c92b-433d-b036-9606b79ddf8c","ios":"levelo://app?vid=7d9f3ae3-c92b-433d-b036-9606b79ddf8c"},"vehicle_type_id":"4","last_reported":1749928057,"current_range_meters":8000,"station_id":"st_d163nis0mtpqnht9uue0","pricing_plan_id":"cebpf4jnsgd1na2vs0mg"},{"bike_id":"019f7ce6-90a1-40dd-b974-20bf6d93b9f0","system_id":"levelo_inurba_marseille","lat":43.29257,"lon":5.38434,"is_reserved":false,"is_disabled":false,"rental_uris":{"android":"levelo://app?vid=019f7ce6-90a1-40dd-b974-20bf6d93b9f0","ios":"levelo://app?vid=019f7ce6-90a1-40dd-b974-20bf6d93b9f0"},"vehicle_type_id":"4","last_reported":1749928057,"current_range_meters":8400,"station_id":"ce4bh692rcd13ifvqea0","pricing_plan_id":"cebpf4jnsgd1na2vs0mg"},{"bike_id":"7fac249e-5fa7-415b-8589-32fcf7ced13d","system_id":"levelo_inurba_marseille","lat":43.2396,"lon":5.36627,"is_reserved":false,"is_disabled":false,"rental_uris":{"android":"levelo://app?vid=7fac249e-5fa7-415b-8589-32fcf7ced13d","ios":"levelo://app?vid=7fac249e-5fa7-415b-8589-32fcf7ced13d"},"vehicle_type_id":"4","last_reported":1749928057,"current_range_meters":8400,"station_id":"ce4bhi12rcd13ifvqfp0","pricing_plan_id":"cebpf4jnsgd1na2vs0mg"},{"bike_id":"cf95ea5b-6c8f-4409-b6fc-a0968e95daf4","system_id":"levelo_inurba_marseille","lat":43.24178,"lon":5.39733,"is_reserved":false,"is_disabled":false,"rental_uris":{"android":"levelo://app?vid=cf95ea5b-6c8f-4409-b6fc-a0968e95daf4","ios":"levelo://app?vid=cf95ea5b-6c8f-4409-b6fc-a0968e95daf4"},"vehicle_type_id":"4","last_reported":1749928057,"current_range_meters":8400,"station_id":"ce4bhn12rcd13ifvqgpg","pricing_plan_id":"cebpf4jnsgd1na2vs0mg"},{"bike_id":"89f22a06-8d71-4cc8-8f3a-cd313560c3a1","system_id":"levelo_inurba_marseille","lat":43.30166,"lon":5.37401,"is_reserved":false,"is_disabled":false,"rental_uris":{"android":"levelo://app?vid=89f22a06-8d71-4cc8-8f3a-cd313560c3a1","ios":"levelo://app?vid=89f22a06-8d71-4cc8-8f3a-cd313560c3a1"},"vehicle_type_id":"4","last_reported":1749928057,"current_range_meters":8800,"station_id":"ce4bgs92rcd13ifvqcc0","pricing_plan_id":"cebpf4jnsgd1na2vs0mg"},{"bike_id":"ecea6144-8329-4dc3-86d1-fded4616b3d3","system_id":"levelo_inurba_marseille","lat":43.262125,"lon":5.374433,"is_reserved":false,"is_disabled":false,"rental_uris":{"android":"levelo://app?vid=ecea6144-8329-4dc3-86d1-fded4616b3d3","ios":"levelo://app?vid=ecea6144-8329-4dc3-86d1-fded4616b3d3"},"vehicle_type_id":"4","last_reported":1749928057,"current_range_meters":8800,"station_id":"ce4bhgp2rcd13ifvqfc0","pricing_plan_id":"cebpf4jnsgd1na2vs0mg"},{"bike_id":"7fcb9d3f-4664-4887-82d0-036ba4e6dbdc","system_id":"levelo_inurba_marseille","lat":43.26231,"lon":5.37448,"is_reserved":false,"is_disabled":false,"rental_uris":{"android":"levelo://app?vid=7fcb9d3f-4664-4887-82d0-036ba4e6dbdc","ios":"levelo://app?vid=7fcb9d3f-4664-4887-82d0-036ba4e6dbdc"},"vehicle_type_id":"4","last_reported":1749928057,"current_range_meters":9200,"station_id":"","pricing_plan_id":"cebpf4jnsgd1na2vs0mg"},{"bike_id":"30ea247e-09fb-4fdd-8584-ff23c02a9f04","system_id":"levelo_inurba_marseille","lat":43.26207,"lon":5.37444,"is_reserved":false,"is_disabled":false,"rental_uris":{"android":"levelo://app?vid=30ea247e-09fb-4fdd-8584-ff23c02a9f04","ios":"levelo://app?vid=30ea247e-09fb-4fdd-8584-ff23c02a9f04"},"vehicle_type_id":"4","last_reported":1749928057,"current_range_meters":9200,"station_id":"ce4bhgp2rcd13ifvqfc0","pricing_plan_id":"cebpf4jnsgd1na2vs0mg"},{"bike_id":"8712911d-c186-4974-911c-556ff2b605ba","system_id":"levelo_inurba_marseille","lat":43.24068,"lon":5.3776,"is_reserved":false,"is_disabled":false,"rental_uris":{"android":"levelo://app?vid=8712911d-c186-4974-911c-556ff2b605ba","ios":"levelo://app?vid=8712911d-c186-4974-911c-556ff2b605ba"},"vehicle_type_id":"4","last_reported":1749928057,"current_range_meters":9200,"station_id":"ce4bhnp2rcd13ifvqgvg","pricing_plan_id":"cebpf4jnsgd1na2vs0mg"},{"bike_id":"b2153945-f002-4dbc-9350-e5f4c18dd828","system_id":"levelo_inurba_marseille","lat":43.27443,"lon":5.36109,"is_reserved":false,"is_disabled":false,"rental_uris":{"android":"levelo://app?vid=b2153945-f002-4dbc-9350-e5f4c18dd828","ios":"levelo://app?vid=b2153945-f002-4dbc-9350-e5f4c18dd828"},"vehicle_type_id":"4","last_reported":1749928057,"current_range_meters":9600,"station_id":"","pricing_plan_id":"cebpf4jnsgd1na2vs0mg"},{"bike_id":"2ab31527-f915-4286-b3a0-0beafd2cdd50","system_id":"levelo_inurba_marseille","lat":43.30032,"lon":5.37003,"is_reserved":false,"is_disabled":false,"rental_uris":{"android":"levelo://app?vid=2ab31527-f915-4286-b3a0-0beafd2cdd50","ios":"levelo://app?vid=2ab31527-f915-4286-b3a0-0beafd2cdd50"},"vehicle_type_id":"4","last_reported":1749928057,"current_range_meters":9600,"station_id":"","pricing_plan_id":"cebpf4jnsgd1na2vs0mg"},{"bike_id":"87c270dc-4fcf-4263-8f57-a07ca944f869","system_id":"levelo_inurba_marseille","lat":43.31255,"lon":5.3949,"is_reserved":false,"is_disabled":false,"rental_uris":{"android":"levelo://app?vid=87c270dc-4fcf-4263-8f57-a07ca944f869","ios":"levelo://app?vid=87c270dc-4fcf-4263-8f57-a07ca944f869"},"vehicle_type_id":"4","last_reported":1749928057,"current_range_meters":9600,"station_id":"","pricing_plan_id":"cebpf4jnsgd1na2vs0mg"},{"bike_id":"caa36c0f-79d6-4215-b29c-72edd7eddf29","system_id":"levelo_inurba_marseille","lat":43.32049,"lon":5.41541,"is_reserved":false,"is_disabled":false,"rental_uris":{"android":"levelo://app?vid=caa36c0f-79d6-4215-b29c-72edd7eddf29","ios":"levelo://app?vid=caa36c0f-79d6-4215-b29c-72edd7eddf29"},"vehicle_type_id":"4","last_reported":1749928057,"current_range_meters":9600,"station_id":"","pricing_plan_id":"cebpf4jnsgd1na2vs0mg"},{"bike_id":"f4b4a1a4-5829-4de1-b0db-fec6458cb51c","system_id":"levelo_inurba_marseille","lat":43.2925,"lon":5.38434,"is_reserved":false,"is_disabled":false,"rental_uris":{"android":"levelo://app?vid=f4b4a1a4-5829-4de1-b0db-fec6458cb51c","ios":"levelo://app?vid=f4b4a1a4-5829-4de1-b0db-fec6458cb51c"},"vehicle_type_id":"4","last_reported":1749928057,"current_range_meters":9600,"station_id":"ce4bh692rcd13ifvqea0","pricing_plan_id":"cebpf4jnsgd1na2vs0mg"},{"bike_id":"0a176c0c-78a3-474b-b917-3fc9a4ed2ff7","system_id":"levelo_inurba_marseille","lat":43.25585,"lon":5.3823,"is_reserved":false,"is_disabled":false,"rental_uris":{"android":"levelo://app?vid=0a176c0c-78a3-474b-b917-3fc9a4ed2ff7","ios":"levelo://app?vid=0a176c0c-78a3-474b-b917-3fc9a4ed2ff7"},"vehicle_type_id":"4","last_reported":1749928057,"current_range_meters":9600,"station_id":"ce4bhih2rcd13ifvqfs0","pricing_plan_id":"cebpf4jnsgd1na2vs0mg"},{"bike_id":"1b62e36f-88d5-443f-9b78-b3b2695adfde","system_id":"levelo_inurba_marseille","lat":43.32361,"lon":5.36762,"is_reserved":false,"is_disabled":false,"rental_uris":{"android":"levelo://app?vid=1b62e36f-88d5-443f-9b78-b3b2695adfde","ios":"levelo://app?vid=1b62e36f-88d5-443f-9b78-b3b2695adfde"},"vehicle_type_id":"4","last_reported":1749928057,"current_range_meters":9600,"station_id":"ce4bhsh2rcd13ifvqi2g","pricing_plan_id":"cebpf4jnsgd1na2vs0mg"},{"bike_id":"73fc1dbc-1b7d-452e-a248-367b342474af","system_id":"levelo_inurba_marseille","lat":43.297,"lon":5.36584,"is_reserved":false,"is_disabled":false,"rental_uris":{"android":"levelo://app?vid=73fc1dbc-1b7d-452e-a248-367b342474af","ios":"levelo://app?vid=73fc1dbc-1b7d-452e-a248-367b342474af"},"vehicle_type_id":"4","last_reported":1749928057,"current_range_meters":10000,"station_id":"ce4bgn12rcd13ifvqbt0","pricing_plan_id":"cebpf4jnsgd1na2vs0mg"},{"bike_id":"9c211c6c-ede1-40c9-8881-50b4a0229ea4","system_id":"levelo_inurba_marseille","lat":43.29276,"lon":5.36836,"is_reserved":false,"is_disabled":false,"rental_uris":{"android":"levelo://app?vid=9c211c6c-ede1-40c9-8881-50b4a0229ea4","ios":"levelo://app?vid=9c211c6c-ede1-40c9-8881-50b4a0229ea4"},"vehicle_type_id":"4","last_reported":1749928057,"current_range_meters":10000,"station_id":"ce4bhbp2rcd13ifvqesg","pricing_plan_id":"cebpf4jnsgd1na2vs0mg"},{"bike_id":"51d5e7f8-73d1-408a-89f7-d550832063cf","system_id":"levelo_inurba_marseille","lat":43.26558,"lon":5.37282,"is_reserved":false,"is_disabled":false,"rental_uris":{"android":"levelo://app?vid=51d5e7f8-73d1-408a-89f7-d550832063cf","ios":"levelo://app?vid=51d5e7f8-73d1-408a-89f7-d550832063cf"},"vehicle_type_id":"4","last_reported":1749928057,"current_range_meters":10000,"station_id":"ce4bhg12rcd13ifvqf70","pricing_plan_id":"cebpf4jnsgd1na2vs0mg"},{"bike_id":"b52775f2-44fc-4b89-80c3-5d1e41e427f4","system_id":"levelo_inurba_marseille","lat":43.251934,"lon":5.375761,"is_reserved":false,"is_disabled":false,"rental_uris":{"android":"levelo://app?vid=b52775f2-44fc-4b89-80c3-5d1e41e427f4","ios":"levelo://app?vid=b52775f2-44fc-4b89-80c3-5d1e41e427f4"},"vehicle_type_id":"4","last_reported":1749928057,"current_range_meters":10000,"station_id":"ce4bhgh2rcd13ifvqfa0","pricing_plan_id":"cebpf4jnsgd1na2vs0mg"},{"bike_id":"a2f36015-21f2-481d-bdf5-2ff7bc0351b0","system_id":"levelo_inurba_marseille","lat":43.26806,"lon":5.40269,"is_reserved":false,"is_disabled":false,"rental_uris":{"android":"levelo://app?vid=a2f36015-21f2-481d-bdf5-2ff7bc0351b0","ios":"levelo://app?vid=a2f36015-21f2-481d-bdf5-2ff7bc0351b0"},"vehicle_type_id":"4","last_reported":1749928057,"current_range_meters":10000,"station_id":"ce501612rcd8frsf0b60","pricing_plan_id":"cebpf4jnsgd1na2vs0mg"},{"bike_id":"66eabf99-4541-4877-916b-79b3f27e9a57","system_id":"levelo_inurba_marseille","lat":43.28079,"lon":5.39659,"is_reserved":false,"is_disabled":false,"rental_uris":{"android":"levelo://app?vid=66eabf99-4541-4877-916b-79b3f27e9a57","ios":"levelo://app?vid=66eabf99-4541-4877-916b-79b3f27e9a57"},"vehicle_type_id":"4","last_reported":1749928057,"current_range_meters":10800,"station_id":"ce4bho12rcd13ifvqh2g","pricing_plan_id":"cebpf4jnsgd1na2vs0mg"},{"bike_id":"e6b0b40d-4027-43af-9d9c-4538e9417958","system_id":"levelo_inurba_marseille","lat":43.26379,"lon":5.37806,"is_reserved":false,"is_disabled":false,"rental_uris":{"android":"levelo://app?vid=e6b0b40d-4027-43af-9d9c-4538e9417958","ios":"levelo://app?vid=e6b0b40d-4027-43af-9d9c-4538e9417958"},"vehicle_type_id":"4","last_reported":1749928057,"current_range_meters":10800,"station_id":"st_d163nis0mtpqnht9uue0","pricing_plan_id":"cebpf4jnsgd1na2vs0mg"},{"bike_id":"36aaa3d2-7e79-4b8a-bd67-c4f42f7d727d","system_id":"levelo_inurba_marseille","lat":43.26372,"lon":5.37809,"is_reserved":false,"is_disabled":false,"rental_uris":{"android":"levelo://app?vid=36aaa3d2-7e79-4b8a-bd67-c4f42f7d727d","ios":"levelo://app?vid=36aaa3d2-7e79-4b8a-bd67-c4f42f7d727d"},"vehicle_type_id":"4","last_reported":1749928057,"current_range_meters":10800,"station_id":"st_d163nis0mtpqnht9uue0","pricing_plan_id":"cebpf4jnsgd1na2vs0mg"},{"bike_id":"33a5ae76-fedf-41f8-94fe-0f03745d1877","system_id":"levelo_inurba_marseille","lat":43.25595,"lon":5.38233,"is_reserved":false,"is_disabled":false,"rental_uris":{"android":"levelo://app?vid=33a5ae76-fedf-41f8-94fe-0f03745d1877","ios":"levelo://app?vid=33a5ae76-fedf-41f8-94fe-0f03745d1877"},"vehicle_type_id":"4","last_reported":1749928057,"current_range_meters":11200,"station_id":"ce4bhih2rcd13ifvqfs0","pricing_plan_id":"cebpf4jnsgd1na2vs0mg"},{"bike_id":"1ca7483c-01ae-43f9-8250-dee95fc93c7c","system_id":"levelo_inurba_marseille","lat":43.285729,"lon":5.394999,"is_reserved":false,"is_disabled":false,"rental_uris":{"android":"levelo://app?vid=1ca7483c-01ae-43f9-8250-dee95fc93c7c","ios":"levelo://app?vid=1ca7483c-01ae-43f9-8250-dee95fc93c7c"},"vehicle_type_id":"4","last_reported":1749928057,"current_range_meters":11600,"station_id":"ce4bh292rcd13ifvqdg0","pricing_plan_id":"cebpf4jnsgd1na2vs0mg"},{"bike_id":"761887df-5640-40e5-bdcb-4565aa776b42","system_id":"levelo_inurba_marseille","lat":43.31991,"lon":5.38157,"is_reserved":false,"is_disabled":false,"rental_uris":{"android":"levelo://app?vid=761887df-5640-40e5-bdcb-4565aa776b42","ios":"levelo://app?vid=761887df-5640-40e5-bdcb-4565aa776b42"},"vehicle_type_id":"4","last_reported":1749928057,"current_range_meters":11600,"station_id":"ce4bhr12rcd13ifvqhpg","pricing_plan_id":"cebpf4jnsgd1na2vs0mg"},{"bike_id":"2eb2516b-5f9f-4f58-8493-07049b393727","system_id":"levelo_inurba_marseille","lat":43.337413,"lon":5.391882,"is_reserved":false,"is_disabled":false,"rental_uris":{"android":"levelo://app?vid=2eb2516b-5f9f-4f58-8493-07049b393727","ios":"levelo://app?vid=2eb2516b-5f9f-4f58-8493-07049b393727"},"vehicle_type_id":"4","last_reported":1749928057,"current_range_meters":11600,"station_id":"ce4bhr92rcd13ifvqhsg","pricing_plan_id":"cebpf4jnsgd1na2vs0mg"},{"bike_id":"061b51dc-6943-4523-8eed-b536ad391319","system_id":"levelo_inurba_marseille","lat":43.26381,"lon":5.37809,"is_reserved":false,"is_disabled":false,"rental_uris":{"android":"levelo://app?vid=061b51dc-6943-4523-8eed-b536ad391319","ios":"levelo://app?vid=061b51dc-6943-4523-8eed-b536ad391319"},"vehicle_type_id":"4","last_reported":1749928057,"current_range_meters":11600,"station_id":"st_d163nis0mtpqnht9uue0","pricing_plan_id":"cebpf4jnsgd1na2vs0mg"},{"bike_id":"2f0c6462-fbb1-4d3d-94cc-77e53667d1e9","system_id":"levelo_inurba_marseille","lat":43.263556,"lon":5.378182,"is_reserved":false,"is_disabled":false,"rental_uris":{"android":"levelo://app?vid=2f0c6462-fbb1-4d3d-94cc-77e53667d1e9","ios":"levelo://app?vid=2f0c6462-fbb1-4d3d-94cc-77e53667d1e9"},"vehicle_type_id":"4","last_reported":1749928057,"current_range_meters":11600,"station_id":"st_d163nis0mtpqnht9uue0","pricing_plan_id":"cebpf4jnsgd1na2vs0mg"},{"bike_id":"708ae8f6-a6ac-481f-a5e4-6745db506c67","system_id":"levelo_inurba_marseille","lat":43.26351,"lon":5.37819,"is_reserved":false,"is_disabled":false,"rental_uris":{"android":"levelo://app?vid=708ae8f6-a6ac-481f-a5e4-6745db506c67","ios":"levelo://app?vid=708ae8f6-a6ac-481f-a5e4-6745db506c67"},"vehicle_type_id":"4","last_reported":1749928057,"current_range_meters":11600,"station_id":"st_d163nis0mtpqnht9uue0","pricing_plan_id":"cebpf4jnsgd1na2vs0mg"},{"bike_id":"c57701fd-240a-4eb3-9997-7f8b76408c0a","system_id":"levelo_inurba_marseille","lat":43.27829,"lon":5.40697,"is_reserved":false,"is_disabled":false,"rental_uris":{"android":"levelo://app?vid=c57701fd-240a-4eb3-9997-7f8b76408c0a","ios":"levelo://app?vid=c57701fd-240a-4eb3-9997-7f8b76408c0a"},"vehicle_type_id":"4","last_reported":1749928057,"current_range_meters":12000,"station_id":"ce4bhnh2rcd13ifvqgtg","pricing_plan_id":"cebpf4jnsgd1na2vs0mg"},{"bike_id":"36c584e9-90e5-436d-aaa5-05e18a82d0ef","system_id":"levelo_inurba_marseille","lat":43.31698,"lon":5.40454,"is_reserved":false,"is_disabled":false,"rental_uris":{"android":"levelo://app?vid=36c584e9-90e5-436d-aaa5-05e18a82d0ef","ios":"levelo://app?vid=36c584e9-90e5-436d-aaa5-05e18a82d0ef"},"vehicle_type_id":"4","last_reported":1749928057,"current_range_meters":12400,"station_id":"ce4bh012rcd13ifvqd00","pricing_plan_id":"cebpf4jnsgd1na2vs0mg"},{"bike_id":"d520d6f3-b5e4-4514-aa20-a695091b46ca","system_id":"levelo_inurba_marseille","lat":43.24386,"lon":5.37054,"is_reserved":false,"is_disabled":false,"rental_uris":{"android":"levelo://app?vid=d520d6f3-b5e4-4514-aa20-a695091b46ca","ios":"levelo://app?vid=d520d6f3-b5e4-4514-aa20-a695091b46ca"},"vehicle_type_id":"4","last_reported":1749928057,"current_range_meters":12400,"station_id":"ce4bhhh2rcd13ifvqfk0","pricing_plan_id":"cebpf4jnsgd1na2vs0mg"},{"bike_id":"e8f5f68a-3f7f-4305-a7f9-5f251e7e8634","system_id":"levelo_inurba_marseille","lat":43.26934,"lon":5.38914,"is_reserved":false,"is_disabled":false,"rental_uris":{"android":"levelo://app?vid=e8f5f68a-3f7f-4305-a7f9-5f251e7e8634","ios":"levelo://app?vid=e8f5f68a-3f7f-4305-a7f9-5f251e7e8634"},"vehicle_type_id":"4","last_reported":1749928057,"current_range_meters":12400,"station_id":"ce4bhhh2rcd13ifvqfl0","pricing_plan_id":"cebpf4jnsgd1na2vs0mg"},{"bike_id":"5a21e497-33bb-4066-baf7-e010c7ab35fe","system_id":"levelo_inurba_marseille","lat":43.24091,"lon":5.3774,"is_reserved":false,"is_disabled":false,"rental_uris":{"android":"levelo://app?vid=5a21e497-33bb-4066-baf7-e010c7ab35fe","ios":"levelo://app?vid=5a21e497-33bb-4066-baf7-e010c7ab35fe"},"vehicle_type_id":"4","last_reported":1749928057,"current_range_meters":12400,"station_id":"ce4bhnp2rcd13ifvqgvg","pricing_plan_id":"cebpf4jnsgd1na2vs0mg"},{"bike_id":"2fdc72fd-a8fb-447d-b5b9-02a7038654e3","system_id":"levelo_inurba_marseille","lat":43.26927,"lon":5.40271,"is_reserved":false,"is_disabled":false,"rental_uris":{"android":"levelo://app?vid=2fdc72fd-a8fb-447d-b5b9-02a7038654e3","ios":"levelo://app?vid=2fdc72fd-a8fb-447d-b5b9-02a7038654e3"},"vehicle_type_id":"4","last_reported":1749928057,"current_range_meters":12400,"station_id":"cjm6bp8fraef2m0cb0m0","pricing_plan_id":"cebpf4jnsgd1na2vs0mg"},{"bike_id":"7afac99f-c8c4-495c-8e8b-7988d3d73e66","system_id":"levelo_inurba_marseille","lat":43.26363,"lon":5.37802,"is_reserved":false,"is_disabled":false,"rental_uris":{"android":"levelo://app?vid=7afac99f-c8c4-495c-8e8b-7988d3d73e66","ios":"levelo://app?vid=7afac99f-c8c4-495c-8e8b-7988d3d73e66"},"vehicle_type_id":"4","last_reported":1749928057,"current_range_meters":12400,"station_id":"st_d163nis0mtpqnht9uue0","pricing_plan_id":"cebpf4jnsgd1na2vs0mg"},{"bike_id":"ce4707f1-ade7-41e1-a35c-b9c7ed81ca93","system_id":"levelo_inurba_marseille","lat":43.26035,"lon":5.37542,"is_reserved":false,"is_disabled":false,"rental_uris":{"android":"levelo://app?vid=ce4707f1-ade7-41e1-a35c-b9c7ed81ca93","ios":"levelo://app?vid=ce4707f1-ade7-41e1-a35c-b9c7ed81ca93"},"vehicle_type_id":"4","last_reported":1749928057,"current_range_meters":12800,"station_id":"ce4bhgh2rcd13ifvqfa0","pricing_plan_id":"cebpf4jnsgd1na2vs0mg"},{"bike_id":"38f69d32-c07d-4e5d-b2be-a045ca5ffeb4","system_id":"levelo_inurba_marseille","lat":43.24998,"lon":5.38936,"is_reserved":false,"is_disabled":false,"rental_uris":{"android":"levelo://app?vid=38f69d32-c07d-4e5d-b2be-a045ca5ffeb4","ios":"levelo://app?vid=38f69d32-c07d-4e5d-b2be-a045ca5ffeb4"},"vehicle_type_id":"4","last_reported":1749928057,"current_range_meters":12800,"station_id":"ce4bhgp2rcd13ifvqfd0","pricing_plan_id":"cebpf4jnsgd1na2vs0mg"},{"bike_id":"62132a0a-ca03-4421-b805-1ac0c0248c03","system_id":"levelo_inurba_marseille","lat":43.23203,"lon":5.35547,"is_reserved":false,"is_disabled":false,"rental_uris":{"android":"levelo://app?vid=62132a0a-ca03-4421-b805-1ac0c0248c03","ios":"levelo://app?vid=62132a0a-ca03-4421-b805-1ac0c0248c03"},"vehicle_type_id":"4","last_reported":1749928057,"current_range_meters":12800,"station_id":"ce4bhu92rcd13ifvqi70","pricing_plan_id":"cebpf4jnsgd1na2vs0mg"},{"bike_id":"d2729172-f4bf-4eb8-9964-c217269a3492","system_id":"levelo_inurba_marseille","lat":43.2119,"lon":5.35067,"is_reserved":false,"is_disabled":false,"rental_uris":{"android":"levelo://app?vid=d2729172-f4bf-4eb8-9964-c217269a3492","ios":"levelo://app?vid=d2729172-f4bf-4eb8-9964-c217269a3492"},"vehicle_type_id":"4","last_reported":1749928057,"current_range_meters":12800,"station_id":"st_cvj6sg6p6f1abm77japg","pricing_plan_id":"cebpf4jnsgd1na2vs0mg"},{"bike_id":"0d9a5a53-3306-4ddf-b633-4a9d4b17e235","system_id":"levelo_inurba_marseille","lat":43.30789,"lon":5.37636,"is_reserved":false,"is_disabled":false,"rental_uris":{"android":"levelo://app?vid=0d9a5a53-3306-4ddf-b633-4a9d4b17e235","ios":"levelo://app?vid=0d9a5a53-3306-4ddf-b633-4a9d4b17e235"},"vehicle_type_id":"4","last_reported":1749928057,"current_range_meters":13600,"station_id":"ce4bgv92rcd13ifvqcq0","pricing_plan_id":"cebpf4jnsgd1na2vs0mg"},{"bike_id":"bd081d41-5eed-4495-82ed-9e27cd112239","system_id":"levelo_inurba_marseille","lat":43.249488,"lon":5.396613,"is_reserved":false,"is_disabled":false,"rental_uris":{"android":"levelo://app?vid=bd081d41-5eed-4495-82ed-9e27cd112239","ios":"levelo://app?vid=bd081d41-5eed-4495-82ed-9e27cd112239"},"vehicle_type_id":"4","last_reported":1749928057,"current_range_meters":14000,"station_id":"","pricing_plan_id":"cebpf4jnsgd1na2vs0mg"},{"bike_id":"7f18f889-f7db-4210-af44-2524e594d5ed","system_id":"levelo_inurba_marseille","lat":43.30306,"lon":5.36906,"is_reserved":false,"is_disabled":false,"rental_uris":{"android":"levelo://app?vid=7f18f889-f7db-4210-af44-2524e594d5ed","ios":"levelo://app?vid=7f18f889-f7db-4210-af44-2524e594d5ed"},"vehicle_type_id":"4","last_reported":1749928057,"current_range_meters":14000,"station_id":"ce4bgqh2rcd13ifvqc5g","pricing_plan_id":"cebpf4jnsgd1na2vs0mg"},{"bike_id":"45b37f3d-9742-4d73-bc5c-87dc7fdfe753","system_id":"levelo_inurba_marseille","lat":43.25727,"lon":5.41106,"is_reserved":false,"is_disabled":false,"rental_uris":{"android":"levelo://app?vid=45b37f3d-9742-4d73-bc5c-87dc7fdfe753","ios":"levelo://app?vid=45b37f3d-9742-4d73-bc5c-87dc7fdfe753"},"vehicle_type_id":"4","last_reported":1749928057,"current_range_meters":14000,"station_id":"ce4bhkp2rcd13ifvqgd0","pricing_plan_id":"cebpf4jnsgd1na2vs0mg"},{"bike_id":"891437bb-9d79-45ab-8681-affa2098a3ed","system_id":"levelo_inurba_marseille","lat":43.312424,"lon":5.380866,"is_reserved":false,"is_disabled":false,"rental_uris":{"android":"levelo://app?vid=891437bb-9d79-45ab-8681-affa2098a3ed","ios":"levelo://app?vid=891437bb-9d79-45ab-8681-affa2098a3ed"},"vehicle_type_id":"4","last_reported":1749928057,"current_range_meters":14000,"station_id":"ce4bhsp2rcd13ifvqi50","pricing_plan_id":"cebpf4jnsgd1na2vs0mg"},{"bike_id":"0e46cc7b-2ba3-4bff-bd90-00d41cc2d25a","system_id":"levelo_inurba_marseille","lat":43.26381,"lon":5.37797,"is_reserved":false,"is_disabled":false,"rental_uris":{"android":"levelo://app?vid=0e46cc7b-2ba3-4bff-bd90-00d41cc2d25a","ios":"levelo://app?vid=0e46cc7b-2ba3-4bff-bd90-00d41cc2d25a"},"vehicle_type_id":"4","last_reported":1749928057,"current_range_meters":14000,"station_id":"st_d163nis0mtpqnht9uue0","pricing_plan_id":"cebpf4jnsgd1na2vs0mg"},{"bike_id":"df1254ac-0833-4d4e-87e1-bdd09ea2bd36","system_id":"levelo_inurba_marseille","lat":43.29514,"lon":5.38445,"is_reserved":false,"is_disabled":false,"rental_uris":{"android":"levelo://app?vid=df1254ac-0833-4d4e-87e1-bdd09ea2bd36","ios":"levelo://app?vid=df1254ac-0833-4d4e-87e1-bdd09ea2bd36"},"vehicle_type_id":"4","last_reported":1749928057,"current_range_meters":14400,"station_id":"","pricing_plan_id":"cebpf4jnsgd1na2vs0mg"},{"bike_id":"03d8365a-a27e-4ae2-be97-0c832f0e7835","system_id":"levelo_inurba_marseille","lat":43.299744,"lon":5.37175,"is_reserved":false,"is_disabled":false,"rental_uris":{"android":"levelo://app?vid=03d8365a-a27e-4ae2-be97-0c832f0e7835","ios":"levelo://app?vid=03d8365a-a27e-4ae2-be97-0c832f0e7835"},"vehicle_type_id":"4","last_reported":1749928057,"current_range_meters":14400,"station_id":"ce4bgr92rcd13ifvqc7g","pricing_plan_id":"cebpf4jnsgd1na2vs0mg"},{"bike_id":"3ba53083-f560-4fb5-b3cc-01a71156c6ba","system_id":"levelo_inurba_marseille","lat":43.23191,"lon":5.35579,"is_reserved":false,"is_disabled":false,"rental_uris":{"android":"levelo://app?vid=3ba53083-f560-4fb5-b3cc-01a71156c6ba","ios":"levelo://app?vid=3ba53083-f560-4fb5-b3cc-01a71156c6ba"},"vehicle_type_id":"4","last_reported":1749928057,"current_range_meters":14400,"station_id":"ce4bhu92rcd13ifvqi70","pricing_plan_id":"cebpf4jnsgd1na2vs0mg"},{"bike_id":"2331ed20-fb20-4a84-a4f7-25971e752e25","system_id":"levelo_inurba_marseille","lat":43.29966,"lon":5.38511,"is_reserved":false,"is_disabled":false,"rental_uris":{"android":"levelo://app?vid=2331ed20-fb20-4a84-a4f7-25971e752e25","ios":"levelo://app?vid=2331ed20-fb20-4a84-a4f7-25971e752e25"},"vehicle_type_id":"4","last_reported":1749928057,"current_range_meters":14800,"station_id":"ce4bgj92rcd13ifvqbd0","pricing_plan_id":"cebpf4jnsgd1na2vs0mg"},{"bike_id":"0ed68013-85f1-4d9e-87fc-03021d83a28d","system_id":"levelo_inurba_marseille","lat":43.28852,"lon":5.35847,"is_reserved":false,"is_disabled":false,"rental_uris":{"android":"levelo://app?vid=0ed68013-85f1-4d9e-87fc-03021d83a28d","ios":"levelo://app?vid=0ed68013-85f1-4d9e-87fc-03021d83a28d"},"vehicle_type_id":"4","last_reported":1749928057,"current_range_meters":14800,"station_id":"ce4bhb12rcd13ifvqem0","pricing_plan_id":"cebpf4jnsgd1na2vs0mg"},{"bike_id":"b3f8d6a0-7082-4c22-9f20-414b32dd61c5","system_id":"levelo_inurba_marseille","lat":43.26025,"lon":5.37549,"is_reserved":false,"is_disabled":false,"rental_uris":{"android":"levelo://app?vid=b3f8d6a0-7082-4c22-9f20-414b32dd61c5","ios":"levelo://app?vid=b3f8d6a0-7082-4c22-9f20-414b32dd61c5"},"vehicle_type_id":"4","last_reported":1749928057,"current_range_meters":14800,"station_id":"ce4bhgh2rcd13ifvqfa0","pricing_plan_id":"cebpf4jnsgd1na2vs0mg"},{"bike_id":"5194bfb1-3b0a-43ca-a47d-ad226af31d1d","system_id":"levelo_inurba_marseille","lat":43.32555,"lon":5.41424,"is_reserved":false,"is_disabled":false,"rental_uris":{"android":"levelo://app?vid=5194bfb1-3b0a-43ca-a47d-ad226af31d1d","ios":"levelo://app?vid=5194bfb1-3b0a-43ca-a47d-ad226af31d1d"},"vehicle_type_id":"4","last_reported":1749928057,"current_range_meters":14800,"station_id":"ce4bhq12rcd13ifvqhhg","pricing_plan_id":"cebpf4jnsgd1na2vs0mg"},{"bike_id":"b2a39d69-7123-480f-b5f0-3477ae80b9dc","system_id":"levelo_inurba_marseille","lat":43.23066,"lon":5.35484,"is_reserved":false,"is_disabled":false,"rental_uris":{"android":"levelo://app?vid=b2a39d69-7123-480f-b5f0-3477ae80b9dc","ios":"levelo://app?vid=b2a39d69-7123-480f-b5f0-3477ae80b9dc"},"vehicle_type_id":"4","last_reported":1749928057,"current_range_meters":14800,"station_id":"cpo3342slgdg3j2ifvpg","pricing_plan_id":"cebpf4jnsgd1na2vs0mg"},{"bike_id":"a8283606-6fdf-49b2-991a-62bc6fc9988a","system_id":"levelo_inurba_marseille","lat":43.22539,"lon":5.34779,"is_reserved":false,"is_disabled":false,"rental_uris":{"android":"levelo://app?vid=a8283606-6fdf-49b2-991a-62bc6fc9988a","ios":"levelo://app?vid=a8283606-6fdf-49b2-991a-62bc6fc9988a"},"vehicle_type_id":"4","last_reported":1749928057,"current_range_meters":14800,"station_id":"st_cvj5dfep6f1abm77gieg","pricing_plan_id":"cebpf4jnsgd1na2vs0mg"},{"bike_id":"fa72703e-77ce-4c88-a411-c09276c7388b","system_id":"levelo_inurba_marseille","lat":43.21195,"lon":5.35082,"is_reserved":false,"is_disabled":false,"rental_uris":{"android":"levelo://app?vid=fa72703e-77ce-4c88-a411-c09276c7388b","ios":"levelo://app?vid=fa72703e-77ce-4c88-a411-c09276c7388b"},"vehicle_type_id":"4","last_reported":1749928057,"current_range_meters":14800,"station_id":"st_cvj6sg6p6f1abm77japg","pricing_plan_id":"cebpf4jnsgd1na2vs0mg"},{"bike_id":"51c5518e-76de-4264-b70a-dd60046df65b","system_id":"levelo_inurba_marseille","lat":43.26374,"lon":5.37792,"is_reserved":false,"is_disabled":false,"rental_uris":{"android":"levelo://app?vid=51c5518e-76de-4264-b70a-dd60046df65b","ios":"levelo://app?vid=51c5518e-76de-4264-b70a-dd60046df65b"},"vehicle_type_id":"4","last_reported":1749928057,"current_range_meters":14800,"station_id":"st_d163nis0mtpqnht9uue0","pricing_plan_id":"cebpf4jnsgd1na2vs0mg"},{"bike_id":"d9b1427d-63dd-4a02-b60a-80c243f00ecf","system_id":"levelo_inurba_marseille","lat":43.26493,"lon":5.39397,"is_reserved":false,"is_disabled":false,"rental_uris":{"android":"levelo://app?vid=d9b1427d-63dd-4a02-b60a-80c243f00ecf","ios":"levelo://app?vid=d9b1427d-63dd-4a02-b60a-80c243f00ecf"},"vehicle_type_id":"4","last_reported":1749928057,"current_range_meters":15200,"station_id":"","pricing_plan_id":"cebpf4jnsgd1na2vs0mg"},{"bike_id":"30b8e4f4-0cf1-40d8-9e5e-de65a58a713d","system_id":"levelo_inurba_marseille","lat":43.26368,"lon":5.37803,"is_reserved":false,"is_disabled":false,"rental_uris":{"android":"levelo://app?vid=30b8e4f4-0cf1-40d8-9e5e-de65a58a713d","ios":"levelo://app?vid=30b8e4f4-0cf1-40d8-9e5e-de65a58a713d"},"vehicle_type_id":"4","last_reported":1749928057,"current_range_meters":15200,"station_id":"st_d163nis0mtpqnht9uue0","pricing_plan_id":"cebpf4jnsgd1na2vs0mg"},{"bike_id":"6b86c5d8-488b-4c5c-ad26-8f9dd65375d5","system_id":"levelo_inurba_marseille","lat":43.27972,"lon":5.38726,"is_reserved":false,"is_disabled":false,"rental_uris":{"android":"levelo://app?vid=6b86c5d8-488b-4c5c-ad26-8f9dd65375d5","ios":"levelo://app?vid=6b86c5d8-488b-4c5c-ad26-8f9dd65375d5"},"vehicle_type_id":"4","last_reported":1749928057,"current_range_meters":16000,"station_id":"ce4bhg12rcd13ifvqf80","pricing_plan_id":"cebpf4jnsgd1na2vs0mg"},{"bike_id":"57c6f755-3e11-4d53-8b77-bb117382cea8","system_id":"levelo_inurba_marseille","lat":43.24382,"lon":5.37053,"is_reserved":false,"is_disabled":false,"rental_uris":{"android":"levelo://app?vid=57c6f755-3e11-4d53-8b77-bb117382cea8","ios":"levelo://app?vid=57c6f755-3e11-4d53-8b77-bb117382cea8"},"vehicle_type_id":"4","last_reported":1749928057,"current_range_meters":16000,"station_id":"ce4bhhh2rcd13ifvqfk0","pricing_plan_id":"cebpf4jnsgd1na2vs0mg"},{"bike_id":"dc1e1319-b0f9-4bfb-9dd0-07f4d0186ec2","system_id":"levelo_inurba_marseille","lat":43.26208,"lon":5.40451,"is_reserved":false,"is_disabled":false,"rental_uris":{"android":"levelo://app?vid=dc1e1319-b0f9-4bfb-9dd0-07f4d0186ec2","ios":"levelo://app?vid=dc1e1319-b0f9-4bfb-9dd0-07f4d0186ec2"},"vehicle_type_id":"4","last_reported":1749928057,"current_range_meters":16000,"station_id":"ce4bhmh2rcd13ifvqgmg","pricing_plan_id":"cebpf4jnsgd1na2vs0mg"},{"bike_id":"ca345dc9-fdcd-4cd0-9db5-3a56151bb4ad","system_id":"levelo_inurba_marseille","lat":43.26366,"lon":5.37801,"is_reserved":false,"is_disabled":false,"rental_uris":{"android":"levelo://app?vid=ca345dc9-fdcd-4cd0-9db5-3a56151bb4ad","ios":"levelo://app?vid=ca345dc9-fdcd-4cd0-9db5-3a56151bb4ad"},"vehicle_type_id":"4","last_reported":1749928057,"current_range_meters":16000,"station_id":"st_d163nis0mtpqnht9uue0","pricing_plan_id":"cebpf4jnsgd1na2vs0mg"},{"bike_id":"decbbf6a-5803-4b9b-8dba-489f5abb76c8","system_id":"levelo_inurba_marseille","lat":43.26402,"lon":5.37779,"is_reserved":false,"is_disabled":false,"rental_uris":{"android":"levelo://app?vid=decbbf6a-5803-4b9b-8dba-489f5abb76c8","ios":"levelo://app?vid=decbbf6a-5803-4b9b-8dba-489f5abb76c8"},"vehicle_type_id":"4","last_reported":1749928057,"current_range_meters":16000,"station_id":"st_d163nis0mtpqnht9uue0","pricing_plan_id":"cebpf4jnsgd1na2vs0mg"},{"bike_id":"778a9090-c395-4a19-8300-c8c6581f2a46","system_id":"levelo_inurba_marseille","lat":43.301887,"lon":5.387248,"is_reserved":false,"is_disabled":false,"rental_uris":{"android":"levelo://app?vid=778a9090-c395-4a19-8300-c8c6581f2a46","ios":"levelo://app?vid=778a9090-c395-4a19-8300-c8c6581f2a46"},"vehicle_type_id":"4","last_reported":1749928057,"current_range_meters":16400,"station_id":"ce4bghh2rcd13ifvqb60","pricing_plan_id":"cebpf4jnsgd1na2vs0mg"},{"bike_id":"602a54bd-d165-469d-9aac-8150dc3e71df","system_id":"levelo_inurba_marseille","lat":43.31113,"lon":5.37779,"is_reserved":false,"is_disabled":false,"rental_uris":{"android":"levelo://app?vid=602a54bd-d165-469d-9aac-8150dc3e71df","ios":"levelo://app?vid=602a54bd-d165-469d-9aac-8150dc3e71df"},"vehicle_type_id":"4","last_reported":1749928057,"current_range_meters":16400,"station_id":"ce4bgt92rcd13ifvqcg0","pricing_plan_id":"cebpf4jnsgd1na2vs0mg"},{"bike_id":"a5ee4afe-a8c2-43ea-a8c6-a0a152038509","system_id":"levelo_inurba_marseille","lat":43.26028,"lon":5.37559,"is_reserved":false,"is_disabled":false,"rental_uris":{"android":"levelo://app?vid=a5ee4afe-a8c2-43ea-a8c6-a0a152038509","ios":"levelo://app?vid=a5ee4afe-a8c2-43ea-a8c6-a0a152038509"},"vehicle_type_id":"4","last_reported":1749928057,"current_range_meters":16400,"station_id":"ce4bhgh2rcd13ifvqfa0","pricing_plan_id":"cebpf4jnsgd1na2vs0mg"},{"bike_id":"e5b62466-ff9e-49e2-bd3e-be88bf15cda8","system_id":"levelo_inurba_marseille","lat":43.2121,"lon":5.3506,"is_reserved":false,"is_disabled":false,"rental_uris":{"android":"levelo://app?vid=e5b62466-ff9e-49e2-bd3e-be88bf15cda8","ios":"levelo://app?vid=e5b62466-ff9e-49e2-bd3e-be88bf15cda8"},"vehicle_type_id":"4","last_reported":1749928057,"current_range_meters":16400,"station_id":"st_cvj6sg6p6f1abm77japg","pricing_plan_id":"cebpf4jnsgd1na2vs0mg"},{"bike_id":"a123e9fa-df7d-41fb-b2d5-2e4e345456f9","system_id":"levelo_inurba_marseille","lat":43.25311,"lon":5.37479,"is_reserved":false,"is_disabled":false,"rental_uris":{"android":"levelo://app?vid=a123e9fa-df7d-41fb-b2d5-2e4e345456f9","ios":"levelo://app?vid=a123e9fa-df7d-41fb-b2d5-2e4e345456f9"},"vehicle_type_id":"4","last_reported":1749928057,"current_range_meters":16800,"station_id":"","pricing_plan_id":"cebpf4jnsgd1na2vs0mg"},{"bike_id":"cef35c6c-d368-4107-8bd6-922a7be39591","system_id":"levelo_inurba_marseille","lat":43.30955,"lon":5.39034,"is_reserved":false,"is_disabled":false,"rental_uris":{"android":"levelo://app?vid=cef35c6c-d368-4107-8bd6-922a7be39591","ios":"levelo://app?vid=cef35c6c-d368-4107-8bd6-922a7be39591"},"vehicle_type_id":"4","last_reported":1749928057,"current_range_meters":16800,"station_id":"ce4bgup2rcd13ifvqco0","pricing_plan_id":"cebpf4jnsgd1na2vs0mg"},{"bike_id":"2663f9b7-6adb-4370-b021-1706a4f29321","system_id":"levelo_inurba_marseille","lat":43.26685,"lon":5.38265,"is_reserved":false,"is_disabled":false,"rental_uris":{"android":"levelo://app?vid=2663f9b7-6adb-4370-b021-1706a4f29321","ios":"levelo://app?vid=2663f9b7-6adb-4370-b021-1706a4f29321"},"vehicle_type_id":"4","last_reported":1749928057,"current_range_meters":16800,"station_id":"ce4bhg92rcd13ifvqf90","pricing_plan_id":"cebpf4jnsgd1na2vs0mg"},{"bike_id":"529d1f7c-b5c5-40bf-9472-1ac2b9f75ca0","system_id":"levelo_inurba_marseille","lat":43.25017,"lon":5.38913,"is_reserved":false,"is_disabled":false,"rental_uris":{"android":"levelo://app?vid=529d1f7c-b5c5-40bf-9472-1ac2b9f75ca0","ios":"levelo://app?vid=529d1f7c-b5c5-40bf-9472-1ac2b9f75ca0"},"vehicle_type_id":"4","last_reported":1749928057,"current_range_meters":16800,"station_id":"ce4bhgp2rcd13ifvqfd0","pricing_plan_id":"cebpf4jnsgd1na2vs0mg"},{"bike_id":"b420dd3b-3c90-44cb-823f-22ccbd6a9b87","system_id":"levelo_inurba_marseille","lat":43.32047,"lon":5.4155,"is_reserved":false,"is_disabled":false,"rental_uris":{"android":"levelo://app?vid=b420dd3b-3c90-44cb-823f-22ccbd6a9b87","ios":"levelo://app?vid=b420dd3b-3c90-44cb-823f-22ccbd6a9b87"},"vehicle_type_id":"4","last_reported":1749928057,"current_range_meters":16800,"station_id":"ce4bhq92rcd13ifvqhkg","pricing_plan_id":"cebpf4jnsgd1na2vs0mg"},{"bike_id":"43da96e9-7fbe-437a-8a82-c33c8234490f","system_id":"levelo_inurba_marseille","lat":43.263483,"lon":5.378223,"is_reserved":false,"is_disabled":false,"rental_uris":{"android":"levelo://app?vid=43da96e9-7fbe-437a-8a82-c33c8234490f","ios":"levelo://app?vid=43da96e9-7fbe-437a-8a82-c33c8234490f"},"vehicle_type_id":"4","last_reported":1749928057,"current_range_meters":16800,"station_id":"st_d163nis0mtpqnht9uue0","pricing_plan_id":"cebpf4jnsgd1na2vs0mg"},{"bike_id":"53439750-2f55-40ad-b103-7f195bfed790","system_id":"levelo_inurba_marseille","lat":43.25012,"lon":5.38908,"is_reserved":false,"is_disabled":false,"rental_uris":{"android":"levelo://app?vid=53439750-2f55-40ad-b103-7f195bfed790","ios":"levelo://app?vid=53439750-2f55-40ad-b103-7f195bfed790"},"vehicle_type_id":"4","last_reported":1749928057,"current_range_meters":17200,"station_id":"ce4bhgp2rcd13ifvqfd0","pricing_plan_id":"cebpf4jnsgd1na2vs0mg"},{"bike_id":"e48cb598-c4f6-4d4f-875a-699d03cd8bb4","system_id":"levelo_inurba_marseille","lat":43.26955,"lon":5.40241,"is_reserved":false,"is_disabled":false,"rental_uris":{"android":"levelo://app?vid=e48cb598-c4f6-4d4f-875a-699d03cd8bb4","ios":"levelo://app?vid=e48cb598-c4f6-4d4f-875a-699d03cd8bb4"},"vehicle_type_id":"4","last_reported":1749928057,"current_range_meters":17200,"station_id":"cjm6bp8fraef2m0cb0m0","pricing_plan_id":"cebpf4jnsgd1na2vs0mg"},{"bike_id":"bcf8c37a-3b2c-4b4b-a33b-3ca9193b3a10","system_id":"levelo_inurba_marseille","lat":43.26378,"lon":5.37813,"is_reserved":false,"is_disabled":false,"rental_uris":{"android":"levelo://app?vid=bcf8c37a-3b2c-4b4b-a33b-3ca9193b3a10","ios":"levelo://app?vid=bcf8c37a-3b2c-4b4b-a33b-3ca9193b3a10"},"vehicle_type_id":"4","last_reported":1749928057,"current_range_meters":17200,"station_id":"st_d163nis0mtpqnht9uue0","pricing_plan_id":"cebpf4jnsgd1na2vs0mg"},{"bike_id":"5e7b60df-e8be-4a9e-806b-ffe82e954588","system_id":"levelo_inurba_marseille","lat":43.26362,"lon":5.37815,"is_reserved":false,"is_disabled":false,"rental_uris":{"android":"levelo://app?vid=5e7b60df-e8be-4a9e-806b-ffe82e954588","ios":"levelo://app?vid=5e7b60df-e8be-4a9e-806b-ffe82e954588"},"vehicle_type_id":"4","last_reported":1749928057,"current_range_meters":17200,"station_id":"st_d163nis0mtpqnht9uue0","pricing_plan_id":"cebpf4jnsgd1na2vs0mg"},{"bike_id":"c78d3428-9a54-4158-bcde-576d5f82207f","system_id":"levelo_inurba_marseille","lat":43.26373,"lon":5.3781,"is_reserved":false,"is_disabled":false,"rental_uris":{"android":"levelo://app?vid=c78d3428-9a54-4158-bcde-576d5f82207f","ios":"levelo://app?vid=c78d3428-9a54-4158-bcde-576d5f82207f"},"vehicle_type_id":"4","last_reported":1749928057,"current_range_meters":17200,"station_id":"st_d163nis0mtpqnht9uue0","pricing_plan_id":"cebpf4jnsgd1na2vs0mg"},{"bike_id":"3b98ea2c-81c6-4e60-9a2a-cafb0f3fcdc4","system_id":"levelo_inurba_marseille","lat":43.26375,"lon":5.37809,"is_reserved":false,"is_disabled":false,"rental_uris":{"android":"levelo://app?vid=3b98ea2c-81c6-4e60-9a2a-cafb0f3fcdc4","ios":"levelo://app?vid=3b98ea2c-81c6-4e60-9a2a-cafb0f3fcdc4"},"vehicle_type_id":"4","last_reported":1749928057,"current_range_meters":17200,"station_id":"st_d163nis0mtpqnht9uue0","pricing_plan_id":"cebpf4jnsgd1na2vs0mg"},{"bike_id":"2c7ba036-532a-4552-b7f1-5cd9cc98ab0b","system_id":"levelo_inurba_marseille","lat":43.26372,"lon":5.37827,"is_reserved":false,"is_disabled":false,"rental_uris":{"android":"levelo://app?vid=2c7ba036-532a-4552-b7f1-5cd9cc98ab0b","ios":"levelo://app?vid=2c7ba036-532a-4552-b7f1-5cd9cc98ab0b"},"vehicle_type_id":"4","last_reported":1749928057,"current_range_meters":17200,"station_id":"st_d163nis0mtpqnht9uue0","pricing_plan_id":"cebpf4jnsgd1na2vs0mg"},{"bike_id":"87e84de6-35ba-461d-9446-e5b0f06c3137","system_id":"levelo_inurba_marseille","lat":43.27903,"lon":5.38017,"is_reserved":false,"is_disabled":false,"rental_uris":{"android":"levelo://app?vid=87e84de6-35ba-461d-9446-e5b0f06c3137","ios":"levelo://app?vid=87e84de6-35ba-461d-9446-e5b0f06c3137"},"vehicle_type_id":"4","last_reported":1749928057,"current_range_meters":17600,"station_id":"ce4bhf92rcd13ifvqf50","pricing_plan_id":"cebpf4jnsgd1na2vs0mg"},{"bike_id":"fbc50c25-fcb5-4c1d-8adf-6b5003671706","system_id":"levelo_inurba_marseille","lat":43.26221,"lon":5.37449,"is_reserved":false,"is_disabled":false,"rental_uris":{"android":"levelo://app?vid=fbc50c25-fcb5-4c1d-8adf-6b5003671706","ios":"levelo://app?vid=fbc50c25-fcb5-4c1d-8adf-6b5003671706"},"vehicle_type_id":"4","last_reported":1749928057,"current_range_meters":17600,"station_id":"ce4bhgp2rcd13ifvqfc0","pricing_plan_id":"cebpf4jnsgd1na2vs0mg"},{"bike_id":"75abf1fa-9b30-4332-b263-9505e8d9ed4b","system_id":"levelo_inurba_marseille","lat":43.23964,"lon":5.36627,"is_reserved":false,"is_disabled":false,"rental_uris":{"android":"levelo://app?vid=75abf1fa-9b30-4332-b263-9505e8d9ed4b","ios":"levelo://app?vid=75abf1fa-9b30-4332-b263-9505e8d9ed4b"},"vehicle_type_id":"4","last_reported":1749928057,"current_range_meters":17600,"station_id":"ce4bhi12rcd13ifvqfp0","pricing_plan_id":"cebpf4jnsgd1na2vs0mg"},{"bike_id":"af54e57f-f161-4317-9bd4-1d43f8702955","system_id":"levelo_inurba_marseille","lat":43.23195,"lon":5.35556,"is_reserved":false,"is_disabled":false,"rental_uris":{"android":"levelo://app?vid=af54e57f-f161-4317-9bd4-1d43f8702955","ios":"levelo://app?vid=af54e57f-f161-4317-9bd4-1d43f8702955"},"vehicle_type_id":"4","last_reported":1749928057,"current_range_meters":17600,"station_id":"ce4bhu92rcd13ifvqi70","pricing_plan_id":"cebpf4jnsgd1na2vs0mg"},{"bike_id":"7102405d-9baa-4ac1-923b-155eda867e8a","system_id":"levelo_inurba_marseille","lat":43.23196,"lon":5.35549,"is_reserved":false,"is_disabled":false,"rental_uris":{"android":"levelo://app?vid=7102405d-9baa-4ac1-923b-155eda867e8a","ios":"levelo://app?vid=7102405d-9baa-4ac1-923b-155eda867e8a"},"vehicle_type_id":"4","last_reported":1749928057,"current_range_meters":17600,"station_id":"ce4bhu92rcd13ifvqi70","pricing_plan_id":"cebpf4jnsgd1na2vs0mg"},{"bike_id":"3e232180-096e-45c2-8101-145150acb1d5","system_id":"levelo_inurba_marseille","lat":43.21213,"lon":5.3506,"is_reserved":false,"is_disabled":false,"rental_uris":{"android":"levelo://app?vid=3e232180-096e-45c2-8101-145150acb1d5","ios":"levelo://app?vid=3e232180-096e-45c2-8101-145150acb1d5"},"vehicle_type_id":"4","last_reported":1749928057,"current_range_meters":17600,"station_id":"st_cvj6sg6p6f1abm77japg","pricing_plan_id":"cebpf4jnsgd1na2vs0mg"},{"bike_id":"14d0164c-2b6b-47b1-b99c-fbb11a27acc4","system_id":"levelo_inurba_marseille","lat":43.26389,"lon":5.3784,"is_reserved":false,"is_disabled":false,"rental_uris":{"android":"levelo://app?vid=14d0164c-2b6b-47b1-b99c-fbb11a27acc4","ios":"levelo://app?vid=14d0164c-2b6b-47b1-b99c-fbb11a27acc4"},"vehicle_type_id":"4","last_reported":1749928057,"current_range_meters":17600,"station_id":"st_d163nis0mtpqnht9uue0","pricing_plan_id":"cebpf4jnsgd1na2vs0mg"},{"bike_id":"d0ebfe61-7cfd-4ed0-925e-a7c041ecd597","system_id":"levelo_inurba_marseille","lat":43.26391,"lon":5.37789,"is_reserved":false,"is_disabled":false,"rental_uris":{"android":"levelo://app?vid=d0ebfe61-7cfd-4ed0-925e-a7c041ecd597","ios":"levelo://app?vid=d0ebfe61-7cfd-4ed0-925e-a7c041ecd597"},"vehicle_type_id":"4","last_reported":1749928057,"current_range_meters":17600,"station_id":"st_d163nis0mtpqnht9uue0","pricing_plan_id":"cebpf4jnsgd1na2vs0mg"},{"bike_id":"419a1d2e-c719-4793-a7ad-161aeb93405e","system_id":"levelo_inurba_marseille","lat":43.29537,"lon":5.37501,"is_reserved":false,"is_disabled":false,"rental_uris":{"android":"levelo://app?vid=419a1d2e-c719-4793-a7ad-161aeb93405e","ios":"levelo://app?vid=419a1d2e-c719-4793-a7ad-161aeb93405e"},"vehicle_type_id":"4","last_reported":1749928057,"current_range_meters":18000,"station_id":"ce4bgkp2rcd13ifvqbmg","pricing_plan_id":"cebpf4jnsgd1na2vs0mg"},{"bike_id":"15ca4f83-8df1-4b73-bad2-b0f1f9fd9e02","system_id":"levelo_inurba_marseille","lat":43.23053,"lon":5.35495,"is_reserved":false,"is_disabled":false,"rental_uris":{"android":"levelo://app?vid=15ca4f83-8df1-4b73-bad2-b0f1f9fd9e02","ios":"levelo://app?vid=15ca4f83-8df1-4b73-bad2-b0f1f9fd9e02"},"vehicle_type_id":"4","last_reported":1749928057,"current_range_meters":18000,"station_id":"cpo3342slgdg3j2ifvpg","pricing_plan_id":"cebpf4jnsgd1na2vs0mg"},{"bike_id":"280c5dcd-d5db-4fa5-917d-5c3430c8f79f","system_id":"levelo_inurba_marseille","lat":43.22932,"lon":5.35375,"is_reserved":false,"is_disabled":false,"rental_uris":{"android":"levelo://app?vid=280c5dcd-d5db-4fa5-917d-5c3430c8f79f","ios":"levelo://app?vid=280c5dcd-d5db-4fa5-917d-5c3430c8f79f"},"vehicle_type_id":"4","last_reported":1749928057,"current_range_meters":18000,"station_id":"cpo3532slgdg3j2ikp40","pricing_plan_id":"cebpf4jnsgd1na2vs0mg"},{"bike_id":"2526c19e-ecff-490d-8152-01d927713748","system_id":"levelo_inurba_marseille","lat":43.26374,"lon":5.37813,"is_reserved":false,"is_disabled":false,"rental_uris":{"android":"levelo://app?vid=2526c19e-ecff-490d-8152-01d927713748","ios":"levelo://app?vid=2526c19e-ecff-490d-8152-01d927713748"},"vehicle_type_id":"4","last_reported":1749928057,"current_range_meters":18000,"station_id":"st_d163nis0mtpqnht9uue0","pricing_plan_id":"cebpf4jnsgd1na2vs0mg"},{"bike_id":"a6883894-8f8e-47c4-805b-9835904847e6","system_id":"levelo_inurba_marseille","lat":43.26359,"lon":5.37808,"is_reserved":false,"is_disabled":false,"rental_uris":{"android":"levelo://app?vid=a6883894-8f8e-47c4-805b-9835904847e6","ios":"levelo://app?vid=a6883894-8f8e-47c4-805b-9835904847e6"},"vehicle_type_id":"4","last_reported":1749928057,"current_range_meters":18000,"station_id":"st_d163nis0mtpqnht9uue0","pricing_plan_id":"cebpf4jnsgd1na2vs0mg"},{"bike_id":"3f96fac2-85e8-4f01-be6f-bf8bd1d9101a","system_id":"levelo_inurba_marseille","lat":43.26379,"lon":5.37807,"is_reserved":false,"is_disabled":false,"rental_uris":{"android":"levelo://app?vid=3f96fac2-85e8-4f01-be6f-bf8bd1d9101a","ios":"levelo://app?vid=3f96fac2-85e8-4f01-be6f-bf8bd1d9101a"},"vehicle_type_id":"4","last_reported":1749928057,"current_range_meters":18000,"station_id":"st_d163nis0mtpqnht9uue0","pricing_plan_id":"cebpf4jnsgd1na2vs0mg"},{"bike_id":"70be4d44-b115-4274-818f-bb861bf26dab","system_id":"levelo_inurba_marseille","lat":43.26347,"lon":5.3784,"is_reserved":false,"is_disabled":false,"rental_uris":{"android":"levelo://app?vid=70be4d44-b115-4274-818f-bb861bf26dab","ios":"levelo://app?vid=70be4d44-b115-4274-818f-bb861bf26dab"},"vehicle_type_id":"4","last_reported":1749928057,"current_range_meters":18000,"station_id":"st_d163nis0mtpqnht9uue0","pricing_plan_id":"cebpf4jnsgd1na2vs0mg"},{"bike_id":"db925a1b-86b2-4561-9864-5ddf8b5f2239","system_id":"levelo_inurba_marseille","lat":43.263483,"lon":5.378182,"is_reserved":false,"is_disabled":false,"rental_uris":{"android":"levelo://app?vid=db925a1b-86b2-4561-9864-5ddf8b5f2239","ios":"levelo://app?vid=db925a1b-86b2-4561-9864-5ddf8b5f2239"},"vehicle_type_id":"4","last_reported":1749928057,"current_range_meters":18000,"station_id":"st_d163nis0mtpqnht9uue0","pricing_plan_id":"cebpf4jnsgd1na2vs0mg"},{"bike_id":"0b5f4564-1867-461b-85ee-6882d0d9f1fa","system_id":"levelo_inurba_marseille","lat":43.263587,"lon":5.378177,"is_reserved":false,"is_disabled":false,"rental_uris":{"android":"levelo://app?vid=0b5f4564-1867-461b-85ee-6882d0d9f1fa","ios":"levelo://app?vid=0b5f4564-1867-461b-85ee-6882d0d9f1fa"},"vehicle_type_id":"4","last_reported":1749928057,"current_range_meters":18000,"station_id":"st_d163nis0mtpqnht9uue0","pricing_plan_id":"cebpf4jnsgd1na2vs0mg"},{"bike_id":"842e9577-264f-4ef9-a38f-e1c5a71e75e1","system_id":"levelo_inurba_marseille","lat":43.29886,"lon":5.38911,"is_reserved":false,"is_disabled":false,"rental_uris":{"android":"levelo://app?vid=842e9577-264f-4ef9-a38f-e1c5a71e75e1","ios":"levelo://app?vid=842e9577-264f-4ef9-a38f-e1c5a71e75e1"},"vehicle_type_id":"4","last_reported":1749928057,"current_range_meters":18800,"station_id":"ce4bh392rcd13ifvqdl0","pricing_plan_id":"cebpf4jnsgd1na2vs0mg"},{"bike_id":"83c0c99d-9206-4f6f-8bd2-edceb1772c91","system_id":"levelo_inurba_marseille","lat":43.26688,"lon":5.38262,"is_reserved":false,"is_disabled":false,"rental_uris":{"android":"levelo://app?vid=83c0c99d-9206-4f6f-8bd2-edceb1772c91","ios":"levelo://app?vid=83c0c99d-9206-4f6f-8bd2-edceb1772c91"},"vehicle_type_id":"4","last_reported":1749928057,"current_range_meters":18800,"station_id":"ce4bhg92rcd13ifvqf90","pricing_plan_id":"cebpf4jnsgd1na2vs0mg"},{"bike_id":"9e6d838f-f8e6-4902-8cdd-7c766c7443fa","system_id":"levelo_inurba_marseille","lat":43.2603,"lon":5.37548,"is_reserved":false,"is_disabled":false,"rental_uris":{"android":"levelo://app?vid=9e6d838f-f8e6-4902-8cdd-7c766c7443fa","ios":"levelo://app?vid=9e6d838f-f8e6-4902-8cdd-7c766c7443fa"},"vehicle_type_id":"4","last_reported":1749928057,"current_range_meters":18800,"station_id":"ce4bhgh2rcd13ifvqfa0","pricing_plan_id":"cebpf4jnsgd1na2vs0mg"},{"bike_id":"cd5c9bbc-a19b-4f68-b01c-4d04bac795f6","system_id":"levelo_inurba_marseille","lat":43.21196,"lon":5.35059,"is_reserved":false,"is_disabled":false,"rental_uris":{"android":"levelo://app?vid=cd5c9bbc-a19b-4f68-b01c-4d04bac795f6","ios":"levelo://app?vid=cd5c9bbc-a19b-4f68-b01c-4d04bac795f6"},"vehicle_type_id":"4","last_reported":1749928057,"current_range_meters":18800,"station_id":"st_cvj6sg6p6f1abm77japg","pricing_plan_id":"cebpf4jnsgd1na2vs0mg"},{"bike_id":"899fd811-d1bc-4d8d-b268-e01dd9f545bf","system_id":"levelo_inurba_marseille","lat":43.26355,"lon":5.37811,"is_reserved":false,"is_disabled":false,"rental_uris":{"android":"levelo://app?vid=899fd811-d1bc-4d8d-b268-e01dd9f545bf","ios":"levelo://app?vid=899fd811-d1bc-4d8d-b268-e01dd9f545bf"},"vehicle_type_id":"4","last_reported":1749928057,"current_range_meters":18800,"station_id":"st_d163nis0mtpqnht9uue0","pricing_plan_id":"cebpf4jnsgd1na2vs0mg"},{"bike_id":"9e299cbc-1a84-44c1-a0c0-f0723054059c","system_id":"levelo_inurba_marseille","lat":43.274981,"lon":5.36064,"is_reserved":false,"is_disabled":false,"rental_uris":{"android":"levelo://app?vid=9e299cbc-1a84-44c1-a0c0-f0723054059c","ios":"levelo://app?vid=9e299cbc-1a84-44c1-a0c0-f0723054059c"},"vehicle_type_id":"4","last_reported":1749928057,"current_range_meters":18800,"station_id":"st_d163nis0mtpqnht9uue0","pricing_plan_id":"cebpf4jnsgd1na2vs0mg"},{"bike_id":"2147c96a-49cc-42a7-b87b-c4710bc55ad8","system_id":"levelo_inurba_marseille","lat":43.2926,"lon":5.38442,"is_reserved":false,"is_disabled":false,"rental_uris":{"android":"levelo://app?vid=2147c96a-49cc-42a7-b87b-c4710bc55ad8","ios":"levelo://app?vid=2147c96a-49cc-42a7-b87b-c4710bc55ad8"},"vehicle_type_id":"4","last_reported":1749928057,"current_range_meters":19200,"station_id":"ce4bh692rcd13ifvqea0","pricing_plan_id":"cebpf4jnsgd1na2vs0mg"},{"bike_id":"490b7a49-7d58-4595-a928-35ceabd36dff","system_id":"levelo_inurba_marseille","lat":43.24097,"lon":5.3773,"is_reserved":false,"is_disabled":false,"rental_uris":{"android":"levelo://app?vid=490b7a49-7d58-4595-a928-35ceabd36dff","ios":"levelo://app?vid=490b7a49-7d58-4595-a928-35ceabd36dff"},"vehicle_type_id":"4","last_reported":1749928057,"current_range_meters":19200,"station_id":"ce4bhnp2rcd13ifvqgvg","pricing_plan_id":"cebpf4jnsgd1na2vs0mg"},{"bike_id":"deca16ca-262a-4c76-98c5-637294ebe620","system_id":"levelo_inurba_marseille","lat":43.26379,"lon":5.37839,"is_reserved":false,"is_disabled":false,"rental_uris":{"android":"levelo://app?vid=deca16ca-262a-4c76-98c5-637294ebe620","ios":"levelo://app?vid=deca16ca-262a-4c76-98c5-637294ebe620"},"vehicle_type_id":"4","last_reported":1749928057,"current_range_meters":19200,"station_id":"st_d163nis0mtpqnht9uue0","pricing_plan_id":"cebpf4jnsgd1na2vs0mg"},{"bike_id":"871a0b49-9483-4bb4-b0dc-03125b157abb","system_id":"levelo_inurba_marseille","lat":43.2639,"lon":5.37798,"is_reserved":false,"is_disabled":false,"rental_uris":{"android":"levelo://app?vid=871a0b49-9483-4bb4-b0dc-03125b157abb","ios":"levelo://app?vid=871a0b49-9483-4bb4-b0dc-03125b157abb"},"vehicle_type_id":"4","last_reported":1749928057,"current_range_meters":19200,"station_id":"st_d163nis0mtpqnht9uue0","pricing_plan_id":"cebpf4jnsgd1na2vs0mg"},{"bike_id":"f78d2649-329c-4a8c-a71b-eed54333d4ea","system_id":"levelo_inurba_marseille","lat":43.29623,"lon":5.37153,"is_reserved":false,"is_disabled":false,"rental_uris":{"android":"levelo://app?vid=f78d2649-329c-4a8c-a71b-eed54333d4ea","ios":"levelo://app?vid=f78d2649-329c-4a8c-a71b-eed54333d4ea"},"vehicle_type_id":"4","last_reported":1749928057,"current_range_meters":19600,"station_id":"ce4bgnh2rcd13ifvqc0g","pricing_plan_id":"cebpf4jnsgd1na2vs0mg"},{"bike_id":"8aeaca39-1df8-453b-8857-133fbe59b3c3","system_id":"levelo_inurba_marseille","lat":43.28356,"lon":5.38638,"is_reserved":false,"is_disabled":false,"rental_uris":{"android":"levelo://app?vid=8aeaca39-1df8-453b-8857-133fbe59b3c3","ios":"levelo://app?vid=8aeaca39-1df8-453b-8857-133fbe59b3c3"},"vehicle_type_id":"4","last_reported":1749928057,"current_range_meters":19600,"station_id":"ce4bh492rcd13ifvqdvg","pricing_plan_id":"cebpf4jnsgd1na2vs0mg"},{"bike_id":"e9332ad2-737e-40a4-bbf6-659ec43de235","system_id":"levelo_inurba_marseille","lat":43.26397,"lon":5.37798,"is_reserved":false,"is_disabled":false,"rental_uris":{"android":"levelo://app?vid=e9332ad2-737e-40a4-bbf6-659ec43de235","ios":"levelo://app?vid=e9332ad2-737e-40a4-bbf6-659ec43de235"},"vehicle_type_id":"4","last_reported":1749928057,"current_range_meters":19600,"station_id":"st_d163nis0mtpqnht9uue0","pricing_plan_id":"cebpf4jnsgd1na2vs0mg"},{"bike_id":"4797f275-2102-4ac8-863e-ba36ff09d955","system_id":"levelo_inurba_marseille","lat":43.2636,"lon":5.37818,"is_reserved":false,"is_disabled":false,"rental_uris":{"android":"levelo://app?vid=4797f275-2102-4ac8-863e-ba36ff09d955","ios":"levelo://app?vid=4797f275-2102-4ac8-863e-ba36ff09d955"},"vehicle_type_id":"4","last_reported":1749928057,"current_range_meters":19600,"station_id":"st_d163nis0mtpqnht9uue0","pricing_plan_id":"cebpf4jnsgd1na2vs0mg"},{"bike_id":"c92619e9-9f05-45dc-b624-7adfd6b5f0d8","system_id":"levelo_inurba_marseille","lat":43.266,"lon":5.39049,"is_reserved":false,"is_disabled":false,"rental_uris":{"android":"levelo://app?vid=c92619e9-9f05-45dc-b624-7adfd6b5f0d8","ios":"levelo://app?vid=c92619e9-9f05-45dc-b624-7adfd6b5f0d8"},"vehicle_type_id":"4","last_reported":1749928057,"current_range_meters":20000,"station_id":"","pricing_plan_id":"cebpf4jnsgd1na2vs0mg"},{"bike_id":"826f0ca3-e5fc-4cf8-8696-cb1fe62172b3","system_id":"levelo_inurba_marseille","lat":43.21191,"lon":5.35082,"is_reserved":false,"is_disabled":false,"rental_uris":{"android":"levelo://app?vid=826f0ca3-e5fc-4cf8-8696-cb1fe62172b3","ios":"levelo://app?vid=826f0ca3-e5fc-4cf8-8696-cb1fe62172b3"},"vehicle_type_id":"4","last_reported":1749928057,"current_range_meters":20000,"station_id":"","pricing_plan_id":"cebpf4jnsgd1na2vs0mg"},{"bike_id":"38e08ec6-738b-4a04-a092-dec10c6891d3","system_id":"levelo_inurba_marseille","lat":43.26854,"lon":5.40652,"is_reserved":false,"is_disabled":false,"rental_uris":{"android":"levelo://app?vid=38e08ec6-738b-4a04-a092-dec10c6891d3","ios":"levelo://app?vid=38e08ec6-738b-4a04-a092-dec10c6891d3"},"vehicle_type_id":"4","last_reported":1749928057,"current_range_meters":20000,"station_id":"","pricing_plan_id":"cebpf4jnsgd1na2vs0mg"},{"bike_id":"f9a06212-e47a-498b-a087-0be100599549","system_id":"levelo_inurba_marseille","lat":43.30938,"lon":5.40135,"is_reserved":false,"is_disabled":false,"rental_uris":{"android":"levelo://app?vid=f9a06212-e47a-498b-a087-0be100599549","ios":"levelo://app?vid=f9a06212-e47a-498b-a087-0be100599549"},"vehicle_type_id":"4","last_reported":1749928057,"current_range_meters":20000,"station_id":"ce4bgvp2rcd13ifvqct0","pricing_plan_id":"cebpf4jnsgd1na2vs0mg"},{"bike_id":"d7bb1b62-12e0-41cd-8dd4-0b26291a154a","system_id":"levelo_inurba_marseille","lat":43.29281,"lon":5.38428,"is_reserved":false,"is_disabled":false,"rental_uris":{"android":"levelo://app?vid=d7bb1b62-12e0-41cd-8dd4-0b26291a154a","ios":"levelo://app?vid=d7bb1b62-12e0-41cd-8dd4-0b26291a154a"},"vehicle_type_id":"4","last_reported":1749928057,"current_range_meters":20000,"station_id":"ce4bh692rcd13ifvqea0","pricing_plan_id":"cebpf4jnsgd1na2vs0mg"},{"bike_id":"bd6a90a9-ff3b-478b-823e-14d0ad3ee7ed","system_id":"levelo_inurba_marseille","lat":43.2668,"lon":5.38244,"is_reserved":false,"is_disabled":false,"rental_uris":{"android":"levelo://app?vid=bd6a90a9-ff3b-478b-823e-14d0ad3ee7ed","ios":"levelo://app?vid=bd6a90a9-ff3b-478b-823e-14d0ad3ee7ed"},"vehicle_type_id":"4","last_reported":1749928057,"current_range_meters":20000,"station_id":"ce4bhg92rcd13ifvqf90","pricing_plan_id":"cebpf4jnsgd1na2vs0mg"},{"bike_id":"4c237efd-f329-4afe-9c30-3627d354acf4","system_id":"levelo_inurba_marseille","lat":43.26356,"lon":5.37812,"is_reserved":false,"is_disabled":false,"rental_uris":{"android":"levelo://app?vid=4c237efd-f329-4afe-9c30-3627d354acf4","ios":"levelo://app?vid=4c237efd-f329-4afe-9c30-3627d354acf4"},"vehicle_type_id":"4","last_reported":1749928057,"current_range_meters":20000,"station_id":"st_d163nis0mtpqnht9uue0","pricing_plan_id":"cebpf4jnsgd1na2vs0mg"},{"bike_id":"6f339361-4c0a-4a71-b4b9-85357bd2a22b","system_id":"levelo_inurba_marseille","lat":43.25755,"lon":5.41086,"is_reserved":false,"is_disabled":false,"rental_uris":{"android":"levelo://app?vid=6f339361-4c0a-4a71-b4b9-85357bd2a22b","ios":"levelo://app?vid=6f339361-4c0a-4a71-b4b9-85357bd2a22b"},"vehicle_type_id":"4","last_reported":1749928057,"current_range_meters":20400,"station_id":"ce4bhkp2rcd13ifvqgd0","pricing_plan_id":"cebpf4jnsgd1na2vs0mg"},{"bike_id":"fa39ec2f-7bba-42d7-bc97-69adcfde70c4","system_id":"levelo_inurba_marseille","lat":43.23193,"lon":5.39982,"is_reserved":false,"is_disabled":false,"rental_uris":{"android":"levelo://app?vid=fa39ec2f-7bba-42d7-bc97-69adcfde70c4","ios":"levelo://app?vid=fa39ec2f-7bba-42d7-bc97-69adcfde70c4"},"vehicle_type_id":"4","last_reported":1749928057,"current_range_meters":20400,"station_id":"ce4bhn12rcd13ifvqgqg","pricing_plan_id":"cebpf4jnsgd1na2vs0mg"},{"bike_id":"e925ed2b-babc-4cf9-b75b-bac898fd5635","system_id":"levelo_inurba_marseille","lat":43.21199,"lon":5.35056,"is_reserved":false,"is_disabled":false,"rental_uris":{"android":"levelo://app?vid=e925ed2b-babc-4cf9-b75b-bac898fd5635","ios":"levelo://app?vid=e925ed2b-babc-4cf9-b75b-bac898fd5635"},"vehicle_type_id":"4","last_reported":1749928057,"current_range_meters":20400,"station_id":"st_cvj6sg6p6f1abm77japg","pricing_plan_id":"cebpf4jnsgd1na2vs0mg"},{"bike_id":"c4991758-f840-4623-bc3b-f162af640fda","system_id":"levelo_inurba_marseille","lat":43.26383,"lon":5.37802,"is_reserved":false,"is_disabled":false,"rental_uris":{"android":"levelo://app?vid=c4991758-f840-4623-bc3b-f162af640fda","ios":"levelo://app?vid=c4991758-f840-4623-bc3b-f162af640fda"},"vehicle_type_id":"4","last_reported":1749928057,"current_range_meters":20400,"station_id":"st_d163nis0mtpqnht9uue0","pricing_plan_id":"cebpf4jnsgd1na2vs0mg"},{"bike_id":"f4960cb7-92f3-48e4-a1cc-a2b8a605a4b3","system_id":"levelo_inurba_marseille","lat":43.33789,"lon":5.37448,"is_reserved":false,"is_disabled":false,"rental_uris":{"android":"levelo://app?vid=f4960cb7-92f3-48e4-a1cc-a2b8a605a4b3","ios":"levelo://app?vid=f4960cb7-92f3-48e4-a1cc-a2b8a605a4b3"},"vehicle_type_id":"4","last_reported":1749928057,"current_range_meters":20800,"station_id":"","pricing_plan_id":"cebpf4jnsgd1na2vs0mg"},{"bike_id":"6f516a22-9c76-414d-baf2-335147198272","system_id":"levelo_inurba_marseille","lat":43.2633,"lon":5.37845,"is_reserved":false,"is_disabled":false,"rental_uris":{"android":"levelo://app?vid=6f516a22-9c76-414d-baf2-335147198272","ios":"levelo://app?vid=6f516a22-9c76-414d-baf2-335147198272"},"vehicle_type_id":"4","last_reported":1749928057,"current_range_meters":20800,"station_id":"","pricing_plan_id":"cebpf4jnsgd1na2vs0mg"},{"bike_id":"f95966cf-80a9-4da8-8f17-9b7381438c25","system_id":"levelo_inurba_marseille","lat":43.25036,"lon":5.38872,"is_reserved":false,"is_disabled":false,"rental_uris":{"android":"levelo://app?vid=f95966cf-80a9-4da8-8f17-9b7381438c25","ios":"levelo://app?vid=f95966cf-80a9-4da8-8f17-9b7381438c25"},"vehicle_type_id":"4","last_reported":1749928057,"current_range_meters":20800,"station_id":"ce4bhgp2rcd13ifvqfd0","pricing_plan_id":"cebpf4jnsgd1na2vs0mg"},{"bike_id":"b4e27918-a6e3-4cc7-bd63-f9eabe2fb131","system_id":"levelo_inurba_marseille","lat":43.26366,"lon":5.37811,"is_reserved":false,"is_disabled":false,"rental_uris":{"android":"levelo://app?vid=b4e27918-a6e3-4cc7-bd63-f9eabe2fb131","ios":"levelo://app?vid=b4e27918-a6e3-4cc7-bd63-f9eabe2fb131"},"vehicle_type_id":"4","last_reported":1749928057,"current_range_meters":20800,"station_id":"st_d163nis0mtpqnht9uue0","pricing_plan_id":"cebpf4jnsgd1na2vs0mg"},{"bike_id":"32ff7e8f-be3b-497e-9e8f-337d799b73fd","system_id":"levelo_inurba_marseille","lat":43.26379,"lon":5.37811,"is_reserved":false,"is_disabled":false,"rental_uris":{"android":"levelo://app?vid=32ff7e8f-be3b-497e-9e8f-337d799b73fd","ios":"levelo://app?vid=32ff7e8f-be3b-497e-9e8f-337d799b73fd"},"vehicle_type_id":"4","last_reported":1749928057,"current_range_meters":20800,"station_id":"st_d163nis0mtpqnht9uue0","pricing_plan_id":"cebpf4jnsgd1na2vs0mg"},{"bike_id":"3d04179b-e46d-439e-8e19-57dfe3d37792","system_id":"levelo_inurba_marseille","lat":43.26353,"lon":5.37808,"is_reserved":false,"is_disabled":false,"rental_uris":{"android":"levelo://app?vid=3d04179b-e46d-439e-8e19-57dfe3d37792","ios":"levelo://app?vid=3d04179b-e46d-439e-8e19-57dfe3d37792"},"vehicle_type_id":"4","last_reported":1749928057,"current_range_meters":20800,"station_id":"st_d163nis0mtpqnht9uue0","pricing_plan_id":"cebpf4jnsgd1na2vs0mg"},{"bike_id":"168cd7de-7263-4985-8601-e94823cd2d23","system_id":"levelo_inurba_marseille","lat":43.2414,"lon":5.36465,"is_reserved":false,"is_disabled":false,"rental_uris":{"android":"levelo://app?vid=168cd7de-7263-4985-8601-e94823cd2d23","ios":"levelo://app?vid=168cd7de-7263-4985-8601-e94823cd2d23"},"vehicle_type_id":"4","last_reported":1749928057,"current_range_meters":21600,"station_id":"","pricing_plan_id":"cebpf4jnsgd1na2vs0mg"},{"bike_id":"bec74ffd-d023-4e17-9dbb-7bc7428955d5","system_id":"levelo_inurba_marseille","lat":43.29769,"lon":5.37111,"is_reserved":false,"is_disabled":false,"rental_uris":{"android":"levelo://app?vid=bec74ffd-d023-4e17-9dbb-7bc7428955d5","ios":"levelo://app?vid=bec74ffd-d023-4e17-9dbb-7bc7428955d5"},"vehicle_type_id":"4","last_reported":1749928057,"current_range_meters":21600,"station_id":"ce4bgop2rcd13ifvqc1g","pricing_plan_id":"cebpf4jnsgd1na2vs0mg"},{"bike_id":"da1801b9-3051-4876-a4c1-84958f4848ea","system_id":"levelo_inurba_marseille","lat":43.30963,"lon":5.39036,"is_reserved":false,"is_disabled":false,"rental_uris":{"android":"levelo://app?vid=da1801b9-3051-4876-a4c1-84958f4848ea","ios":"levelo://app?vid=da1801b9-3051-4876-a4c1-84958f4848ea"},"vehicle_type_id":"4","last_reported":1749928057,"current_range_meters":21600,"station_id":"ce4bgup2rcd13ifvqco0","pricing_plan_id":"cebpf4jnsgd1na2vs0mg"},{"bike_id":"5d32a5ab-bdfa-4606-b9ac-4567794954e9","system_id":"levelo_inurba_marseille","lat":43.27816,"lon":5.4071,"is_reserved":false,"is_disabled":false,"rental_uris":{"android":"levelo://app?vid=5d32a5ab-bdfa-4606-b9ac-4567794954e9","ios":"levelo://app?vid=5d32a5ab-bdfa-4606-b9ac-4567794954e9"},"vehicle_type_id":"4","last_reported":1749928057,"current_range_meters":21600,"station_id":"ce4bhnh2rcd13ifvqgtg","pricing_plan_id":"cebpf4jnsgd1na2vs0mg"},