{"last_updated":1691518147,"ttl":30,"version":"2.2","data":{"bikes":[{"bike_id":"7cd6160d-5489-4e91-9028-b7ebcd971d68","system_id":"levelo_inurba_marseille","lat":43.312239,"lon":5.368562,"is_reserved":false,"is_disabled":false,"rental_uris":{"android":"levelo://app?vid=7cd6160d-5489-4e91-9028-b7ebcd971d68","ios":"levelo://app?vid=7cd6160d-5489-4e91-9028-b7ebcd971d68"},"vehicle_type_id":"4","last_reported":1691518150,"current_range_meters":1600,"station_id":"ce4bgl92rcd13ifvqbq0","pricing_plan_id":"free"},{"bike_id":"f195185e-dc7a-440a-868f-b6ebe958339e","system_id":"levelo_inurba_marseille","lat":43.314811,"lon":5.373103,"is_reserved":false,"is_disabled":false,"rental_uris":{"android":"levelo://app?vid=f195185e-dc7a-440a-868f-b6ebe958339e","ios":"levelo://app?vid=f195185e-dc7a-440a-868f-b6ebe958339e"},"vehicle_type_id":"4","last_reported":1691518150,"current_range_meters":20800,"station_id":"ce4bgt12rcd13ifvqcd0","pricing_plan_id":"free"},{"bike_id":"05b5216e-6696-4ce2-9684-23977abc0def","system_id":"levelo_inurba_marseille","lat":43.314811,"lon":5.373103,"is_reserved":false,"is_disabled":false,"rental_uris":{"android":"levelo://app?vid=05b5216e-6696-4ce2-9684-23977abc0def","ios":"levelo://app?vid=05b5216e-6696-4ce2-9684-23977abc0def"},"vehicle_type_id":"4","last_reported":1691518150,"current_range_meters":10000,"station_id":"ce4bgt12rcd13ifvqcd0","pricing_plan_id":"free"},{"bike_id":"d59152b9-b300-4f27-97e6-0855078b3d9e","system_id":"levelo_inurba_marseille","lat":43.305706,"lon":5.365654,"is_reserved":false,"is_disabled":false,"rental_uris":{"android":"levelo://app?vid=d59152b9-b300-4f27-97e6-0855078b3d9e","ios":"levelo://app?vid=d59152b9-b300-4f27-97e6-0855078b3d9e"},"vehicle_type_id":"4","last_reported":1691518150,"current_range_meters":19600,"station_id":"ce4bgs12rcd13ifvqcag","pricing_plan_id":"free"},{"bike_id":"441f285a-ec8a-42fb-965f-9bbb25e7aae1","system_id":"levelo_inurba_marseille","lat":43.305989,"lon":5.37225,"is_reserved":false,"is_disabled":false,"rental_uris":{"android":"levelo://app?vid=441f285a-ec8a-42fb-965f-9bbb25e7aae1","ios":"levelo://app?vid=441f285a-ec8a-42fb-965f-9bbb25e7aae1"},"vehicle_type_id":"4","last_reported":1691518150,"current_range_meters":13200,"station_id":"ce4bgqh2rcd13ifvqc4g","pricing_plan_id":"free"},{"bike_id":"5e692ada-dfcf-40b6-826e-77bb0c343013","system_id":"levelo_inurba_marseille","lat":43.305989,"lon":5.37225,"is_reserved":false,"is_disabled":false,"rental_uris":{"android":"levelo://app?vid=5e692ada-dfcf-40b6-826e-77bb0c343013","ios":"levelo://app?vid=5e692ada-dfcf-40b6-826e-77bb0c343013"},"vehicle_type_id":"4","last_reported":1691518150,"current_range_meters":2400,"station_id":"ce4bgqh2rcd13ifvqc4g","pricing_plan_id":"free"},{"bike_id":"10bd3c62-6ac4-408c-b61a-5131431224f9","system_id":"levelo_inurba_marseille","lat":43.3112,"lon":5.37777,"is_reserved":false,"is_disabled":false,"rental_uris":{"android":"levelo://app?vid=10bd3c62-6ac4-408c-b61a-5131431224f9","ios":"levelo://app?vid=10bd3c62-6ac4-408c-b61a-5131431224f9"},"vehicle_type_id":"4","last_reported":1691518150,"current_range_meters":12400,"station_id":"","pricing_plan_id":"free"},{"bike_id":"193114d7-754e-4923-a6e7-9da7c9f7f221","system_id":"levelo_inurba_marseille","lat":43.303046,"lon":5.368981,"is_reserved":false,"is_disabled":false,"rental_uris":{"android":"levelo://app?vid=193114d7-754e-4923-a6e7-9da7c9f7f221","ios":"levelo://app?vid=193114d7-754e-4923-a6e7-9da7c9f7f221"},"vehicle_type_id":"4","last_reported":1691518150,"current_range_meters":16400,"station_id":"ce4bgqh2rcd13ifvqc5g","pricing_plan_id":"free"},{"bike_id":"15b2f289-e8da-4c30-a721-2cf15799ace1","system_id":"levelo_inurba_marseille","lat":43.31985,"lon":5.38258,"is_reserved":false,"is_disabled":false,"rental_uris":{"android":"levelo://app?vid=15b2f289-e8da-4c30-a721-2cf15799ace1","ios":"levelo://app?vid=15b2f289-e8da-4c30-a721-2cf15799ace1"},"vehicle_type_id":"4","last_reported":1691518150,"current_range_meters":8400,"station_id":"","pricing_plan_id":"free"},{"bike_id":"80dedc6c-028c-4e5e-aacb-dafacb6d9d89","system_id":"levelo_inurba_marseille","lat":43.30531,"lon":5.38418,"is_reserved":false,"is_disabled":false,"rental_uris":{"android":"levelo://app?vid=80dedc6c-028c-4e5e-aacb-dafacb6d9d89","ios":"levelo://app?vid=80dedc6c-028c-4e5e-aacb-dafacb6d9d89"},"vehicle_type_id":"4","last_reported":1691518150,"current_range_meters":18000,"station_id":"ce4bgg92rcd13ifvqb30","pricing_plan_id":"free"},{"bike_id":"9634a7b0-4a9b-4741-8b88-e182f22c8915","system_id":"levelo_inurba_marseille","lat":43.299243,"lon":5.374807,"is_reserved":false,"is_disabled":false,"rental_uris":{"android":"levelo://app?vid=9634a7b0-4a9b-4741-8b88-e182f22c8915","ios":"levelo://app?vid=9634a7b0-4a9b-4741-8b88-e182f22c8915"},"vehicle_type_id":"4","last_reported":1691518150,"current_range_meters":12000,"station_id":"ce4bgjh2rcd13ifvqbg0","pricing_plan_id":"free"},{"bike_id":"30537d43-af02-4a10-b928-7b9b8cf633d2","system_id":"levelo_inurba_marseille","lat":43.305265,"lon":5.384239,"is_reserved":false,"is_disabled":false,"rental_uris":{"android":"levelo://app?vid=30537d43-af02-4a10-b928-7b9b8cf633d2","ios":"levelo://app?vid=30537d43-af02-4a10-b928-7b9b8cf633d2"},"vehicle_type_id":"4","last_reported":1691518150,"current_range_meters":22800,"station_id":"ce4bgg92rcd13ifvqb30","pricing_plan_id":"free"},{"bike_id":"4613f331-7c16-450e-a27e-0c9c4596932f","system_id":"levelo_inurba_marseille","lat":43.30528,"lon":5.38426,"is_reserved":false,"is_disabled":false,"rental_uris":{"android":"levelo://app?vid=4613f331-7c16-450e-a27e-0c9c4596932f","ios":"levelo://app?vid=4613f331-7c16-450e-a27e-0c9c4596932f"},"vehicle_type_id":"4","last_reported":1691518150,"current_range_meters":26400,"station_id":"ce4bgg92rcd13ifvqb30","pricing_plan_id":"free"},{"bike_id":"e4be8350-530f-48f9-b065-ae10cbf0321f","system_id":"levelo_inurba_marseille","lat":43.311722,"lon":5.387247,"is_reserved":false,"is_disabled":false,"rental_uris":{"android":"levelo://app?vid=e4be8350-530f-48f9-b065-ae10cbf0321f","ios":"levelo://app?vid=e4be8350-530f-48f9-b065-ae10cbf0321f"},"vehicle_type_id":"4","last_reported":1691518150,"current_range_meters":28800,"station_id":"ce4bgv12rcd13ifvqcp0","pricing_plan_id":"free"},{"bike_id":"3a574de3-b31f-4b53-9fcf-1545808be757","system_id":"levelo_inurba_marseille","lat":43.322872,"lon":5.382756,"is_reserved":false,"is_disabled":false,"rental_uris":{"android":"levelo://app?vid=3a574de3-b31f-4b53-9fcf-1545808be757","ios":"levelo://app?vid=3a574de3-b31f-4b53-9fcf-1545808be757"},"vehicle_type_id":"4","last_reported":1691518150,"current_range_meters":29600,"station_id":"ce4bhr12rcd13ifvqhqg","pricing_plan_id":"free"},{"bike_id":"31fbeef0-3ea6-4181-b554-9ffe87064c33","system_id":"levelo_inurba_marseille","lat":43.32295,"lon":5.38265,"is_reserved":false,"is_disabled":false,"rental_uris":{"android":"levelo://app?vid=31fbeef0-3ea6-4181-b554-9ffe87064c33","ios":"levelo://app?vid=31fbeef0-3ea6-4181-b554-9ffe87064c33"},"vehicle_type_id":"4","last_reported":1691518150,"current_range_meters":31200,"station_id":"ce4bhr12rcd13ifvqhqg","pricing_plan_id":"free"},{"bike_id":"af5f0ba3-5944-49d9-8a5e-09dfd05d27f3","system_id":"levelo_inurba_marseille","lat":43.32291,"lon":5.38281,"is_reserved":false,"is_disabled":false,"rental_uris":{"android":"levelo://app?vid=af5f0ba3-5944-49d9-8a5e-09dfd05d27f3","ios":"levelo://app?vid=af5f0ba3-5944-49d9-8a5e-09dfd05d27f3"},"vehicle_type_id":"4","last_reported":1691518150,"current_range_meters":30800,"station_id":"ce4bhr12rcd13ifvqhqg","pricing_plan_id":"free"},{"bike_id":"fb1f4388-8696-456a-869b-56761e505eee","system_id":"levelo_inurba_marseille","lat":43.32824,"lon":5.36671,"is_reserved":false,"is_disabled":false,"rental_uris":{"android":"levelo://app?vid=fb1f4388-8696-456a-869b-56761e505eee","ios":"levelo://app?vid=fb1f4388-8696-456a-869b-56761e505eee"},"vehicle_type_id":"4","last_reported":1691518150,"current_range_meters":31200,"station_id":"ce4bhs92rcd13ifvqi0g","pricing_plan_id":"free"},{"bike_id":"afccaf72-7e42-438a-996b-62b8c3fb2f0d","system_id":"levelo_inurba_marseille","lat":43.32826,"lon":5.36687,"is_reserved":false,"is_disabled":false,"rental_uris":{"android":"levelo://app?vid=afccaf72-7e42-438a-996b-62b8c3fb2f0d","ios":"levelo://app?vid=afccaf72-7e42-438a-996b-62b8c3fb2f0d"},"vehicle_type_id":"4","last_reported":1691518150,"current_range_meters":15600,"station_id":"ce4bhs92rcd13ifvqi0g","pricing_plan_id":"free"},{"bike_id":"d0f4a6b1-501b-4fbd-9cf4-fa9799dc7772","system_id":"levelo_inurba_marseille","lat":43.32827,"lon":5.3668,"is_reserved":false,"is_disabled":false,"rental_uris":{"android":"levelo://app?vid=d0f4a6b1-501b-4fbd-9cf4-fa9799dc7772","ios":"levelo://app?vid=d0f4a6b1-501b-4fbd-9cf4-fa9799dc7772"},"vehicle_type_id":"4","last_reported":1691518150,"current_range_meters":28800,"station_id":"ce4bhs92rcd13ifvqi0g","pricing_plan_id":"free"},{"bike_id":"5836a1e4-4588-49af-9855-adde616cd7f7","system_id":"levelo_inurba_marseille","lat":43.328371,"lon":5.366909,"is_reserved":false,"is_disabled":false,"rental_uris":{"android":"levelo://app?vid=5836a1e4-4588-49af-9855-adde616cd7f7","ios":"levelo://app?vid=5836a1e4-4588-49af-9855-adde616cd7f7"},"vehicle_type_id":"4","last_reported":1691518150,"current_range_meters":30400,"station_id":"ce4bhs92rcd13ifvqi0g","pricing_plan_id":"free"},{"bike_id":"9fd7bfd1-6f30-484a-93d7-e323269d32c7","system_id":"levelo_inurba_marseille","lat":43.32832,"lon":5.36676,"is_reserved":false,"is_disabled":false,"rental_uris":{"android":"levelo://app?vid=9fd7bfd1-6f30-484a-93d7-e323269d32c7","ios":"levelo://app?vid=9fd7bfd1-6f30-484a-93d7-e323269d32c7"},"vehicle_type_id":"4","last_reported":1691518150,"current_range_meters":19200,"station_id":"ce4bhs92rcd13ifvqi0g","pricing_plan_id":"free"},{"bike_id":"97afdb01-5eea-4486-8c30-3859e0392bf5","system_id":"levelo_inurba_marseille","lat":43.32832,"lon":5.36672,"is_reserved":false,"is_disabled":false,"rental_uris":{"android":"levelo://app?vid=97afdb01-5eea-4486-8c30-3859e0392bf5","ios":"levelo://app?vid=97afdb01-5eea-4486-8c30-3859e0392bf5"},"vehicle_type_id":"4","last_reported":1691518150,"current_range_meters":30400,"station_id":"ce4bhs92rcd13ifvqi0g","pricing_plan_id":"free"},{"bike_id":"7dcb59b8-d847-40c2-8b6f-6a91b75e6dbd","system_id":"levelo_inurba_marseille","lat":43.328371,"lon":5.366909,"is_reserved":false,"is_disabled":false,"rental_uris":{"android":"levelo://app?vid=7dcb59b8-d847-40c2-8b6f-6a91b75e6dbd","ios":"levelo://app?vid=7dcb59b8-d847-40c2-8b6f-6a91b75e6dbd"},"vehicle_type_id":"4","last_reported":1691518150,"current_range_meters":27600,"station_id":"ce4bhs92rcd13ifvqi0g","pricing_plan_id":"free"},{"bike_id":"dd789220-e7b5-42c1-b9dc-dc4243148021","system_id":"levelo_inurba_marseille","lat":43.29699,"lon":5.36618,"is_reserved":false,"is_disabled":false,"rental_uris":{"android":"levelo://app?vid=dd789220-e7b5-42c1-b9dc-dc4243148021","ios":"levelo://app?vid=dd789220-e7b5-42c1-b9dc-dc4243148021"},"vehicle_type_id":"4","last_reported":1691518150,"current_range_meters":29600,"station_id":"ce4bgn12rcd13ifvqbt0","pricing_plan_id":"free"},{"bike_id":"7543c050-4852-4a26-b1b4-3e8b6f0b0f96","system_id":"levelo_inurba_marseille","lat":43.2968,"lon":5.37291,"is_reserved":false,"is_disabled":false,"rental_uris":{"android":"levelo://app?vid=7543c050-4852-4a26-b1b4-3e8b6f0b0f96","ios":"levelo://app?vid=7543c050-4852-4a26-b1b4-3e8b6f0b0f96"},"vehicle_type_id":"4","last_reported":1691518150,"current_range_meters":20000,"station_id":"ce4bgk12rcd13ifvqbj0","pricing_plan_id":"free"},{"bike_id":"05f34a81-3c8c-4822-854a-ebbb32dde9e4","system_id":"levelo_inurba_marseille","lat":43.29573,"lon":5.367355,"is_reserved":false,"is_disabled":false,"rental_uris":{"android":"levelo://app?vid=05f34a81-3c8c-4822-854a-ebbb32dde9e4","ios":"levelo://app?vid=05f34a81-3c8c-4822-854a-ebbb32dde9e4"},"vehicle_type_id":"4","last_reported":1691518150,"current_range_meters":22400,"station_id":"ce4bgph2rcd13ifvqc2g","pricing_plan_id":"free"},{"bike_id":"e89c3ea9-6b3c-4b72-a2ba-93153e46acf5","system_id":"levelo_inurba_marseille","lat":43.32264,"lon":5.38673,"is_reserved":false,"is_disabled":false,"rental_uris":{"android":"levelo://app?vid=e89c3ea9-6b3c-4b72-a2ba-93153e46acf5","ios":"levelo://app?vid=e89c3ea9-6b3c-4b72-a2ba-93153e46acf5"},"vehicle_type_id":"4","last_reported":1691518150,"current_range_meters":2800,"station_id":"","pricing_plan_id":"free"},{"bike_id":"6f27de8a-42d7-45b5-b5de-815bde7daf80","system_id":"levelo_inurba_marseille","lat":43.317557,"lon":5.390173,"is_reserved":false,"is_disabled":false,"rental_uris":{"android":"levelo://app?vid=6f27de8a-42d7-45b5-b5de-815bde7daf80","ios":"levelo://app?vid=6f27de8a-42d7-45b5-b5de-815bde7daf80"},"vehicle_type_id":"4","last_reported":1691518150,"current_range_meters":25200,"station_id":"ce4bhqp2rcd13ifvqhng","pricing_plan_id":"free"},{"bike_id":"9f986759-5904-4293-80db-07b7eba35b30","system_id":"levelo_inurba_marseille","lat":43.317557,"lon":5.390173,"is_reserved":false,"is_disabled":false,"rental_uris":{"android":"levelo://app?vid=9f986759-5904-4293-80db-07b7eba35b30","ios":"levelo://app?vid=9f986759-5904-4293-80db-07b7eba35b30"},"vehicle_type_id":"4","last_reported":1691518150,"current_range_meters":16400,"station_id":"ce4bhqp2rcd13ifvqhng","pricing_plan_id":"free"},{"bike_id":"45d0cccd-357b-408f-9bfc-e4f85089230c","system_id":"levelo_inurba_marseille","lat":43.298037,"lon":5.381066,"is_reserved":false,"is_disabled":false,"rental_uris":{"android":"levelo://app?vid=45d0cccd-357b-408f-9bfc-e4f85089230c","ios":"levelo://app?vid=45d0cccd-357b-408f-9bfc-e4f85089230c"},"vehicle_type_id":"4","last_reported":1691518150,"current_range_meters":0,"station_id":"ce4bgip2rcd13ifvqbb0","pricing_plan_id":"free"},{"bike_id":"e28460db-4dc2-4eec-9826-203582ca476e","system_id":"levelo_inurba_marseille","lat":43.298037,"lon":5.381066,"is_reserved":false,"is_disabled":false,"rental_uris":{"android":"levelo://app?vid=e28460db-4dc2-4eec-9826-203582ca476e","ios":"levelo://app?vid=e28460db-4dc2-4eec-9826-203582ca476e"},"vehicle_type_id":"4","last_reported":1691518150,"current_range_meters":14800,"station_id":"ce4bgip2rcd13ifvqbb0","pricing_plan_id":"free"},{"bike_id":"7fcf5c97-7662-4edb-9f9b-aabd9afdc86d","system_id":"levelo_inurba_marseille","lat":43.298037,"lon":5.381066,"is_reserved":false,"is_disabled":false,"rental_uris":{"android":"levelo://app?vid=7fcf5c97-7662-4edb-9f9b-aabd9afdc86d","ios":"levelo://app?vid=7fcf5c97-7662-4edb-9f9b-aabd9afdc86d"},"vehicle_type_id":"4","last_reported":1691518150,"current_range_meters":23200,"station_id":"ce4bgip2rcd13ifvqbb0","pricing_plan_id":"free"},{"bike_id":"a4df99ce-0488-49dd-a888-94686f562e88","system_id":"levelo_inurba_marseille","lat":43.295748,"lon":5.37522,"is_reserved":false,"is_disabled":false,"rental_uris":{"android":"levelo://app?vid=a4df99ce-0488-49dd-a888-94686f562e88","ios":"levelo://app?vid=a4df99ce-0488-49dd-a888-94686f562e88"},"vehicle_type_id":"4","last_reported":1691518150,"current_range_meters":30000,"station_id":"ce4bgh92rcd13ifvqb50","pricing_plan_id":"free"},{"bike_id":"377d7882-7b10-4075-a772-46efb9f1a154","system_id":"levelo_inurba_marseille","lat":43.29615,"lon":5.37685,"is_reserved":false,"is_disabled":false,"rental_uris":{"android":"levelo://app?vid=377d7882-7b10-4075-a772-46efb9f1a154","ios":"levelo://app?vid=377d7882-7b10-4075-a772-46efb9f1a154"},"vehicle_type_id":"4","last_reported":1691518150,"current_range_meters":0,"station_id":"ce4bgi92rcd13ifvqb90","pricing_plan_id":"free"},{"bike_id":"f6e9b1c7-7d48-4d24-9315-667d8f8a0cc6","system_id":"levelo_inurba_marseille","lat":43.30424,"lon":5.38903,"is_reserved":false,"is_disabled":false,"rental_uris":{"android":"levelo://app?vid=f6e9b1c7-7d48-4d24-9315-667d8f8a0cc6","ios":"levelo://app?vid=f6e9b1c7-7d48-4d24-9315-667d8f8a0cc6"},"vehicle_type_id":"4","last_reported":1691518150,"current_range_meters":4800,"station_id":"ce4bgk12rcd13ifvqbi0","pricing_plan_id":"free"},{"bike_id":"0945d609-7868-4d62-b588-b54ff20b10e5","system_id":"levelo_inurba_marseille","lat":43.295279,"lon":5.375048,"is_reserved":false,"is_disabled":false,"rental_uris":{"android":"levelo://app?vid=0945d609-7868-4d62-b588-b54ff20b10e5","ios":"levelo://app?vid=0945d609-7868-4d62-b588-b54ff20b10e5"},"vehicle_type_id":"4","last_reported":1691518150,"current_range_meters":20800,"station_id":"ce4bgkp2rcd13ifvqbmg","pricing_plan_id":"free"},{"bike_id":"03ecd5c5-b3ea-4fed-803f-5be7e8d4600d","system_id":"levelo_inurba_marseille","lat":43.295279,"lon":5.375048,"is_reserved":false,"is_disabled":false,"rental_uris":{"android":"levelo://app?vid=03ecd5c5-b3ea-4fed-803f-5be7e8d4600d","ios":"levelo://app?vid=03ecd5c5-b3ea-4fed-803f-5be7e8d4600d"},"vehicle_type_id":"4","last_reported":1691518150,"current_range_meters":19600,"station_id":"ce4bgkp2rcd13ifvqbmg","pricing_plan_id":"free"},{"bike_id":"688bbe50-a10f-485e-9a78-e6c4da9126bf","system_id":"levelo_inurba_marseille","lat":43.299717,"lon":5.384845,"is_reserved":false,"is_disabled":false,"rental_uris":{"android":"levelo://app?vid=688bbe50-a10f-485e-9a78-e6c4da9126bf","ios":"levelo://app?vid=688bbe50-a10f-485e-9a78-e6c4da9126bf"},"vehicle_type_id":"4","last_reported":1691518150,"current_range_meters":7200,"station_id":"ce4bgj92rcd13ifvqbd0","pricing_plan_id":"free"},{"bike_id":"ee91a565-d9d2-4d7a-93c8-9f9ce27a91e2","system_id":"levelo_inurba_marseille","lat":43.3236,"lon":5.38882,"is_reserved":false,"is_disabled":false,"rental_uris":{"android":"levelo://app?vid=ee91a565-d9d2-4d7a-93c8-9f9ce27a91e2","ios":"levelo://app?vid=ee91a565-d9d2-4d7a-93c8-9f9ce27a91e2"},"vehicle_type_id":"4","last_reported":1691518150,"current_range_meters":27600,"station_id":"ce4bhqp2rcd13ifvqhog","pricing_plan_id":"free"},{"bike_id":"74dadc79-5b09-46d4-b1f2-8afef6601364","system_id":"levelo_inurba_marseille","lat":43.32363,"lon":5.38883,"is_reserved":false,"is_disabled":false,"rental_uris":{"android":"levelo://app?vid=74dadc79-5b09-46d4-b1f2-8afef6601364","ios":"levelo://app?vid=74dadc79-5b09-46d4-b1f2-8afef6601364"},"vehicle_type_id":"4","last_reported":1691518150,"current_range_meters":30000,"station_id":"ce4bhqp2rcd13ifvqhog","pricing_plan_id":"free"},{"bike_id":"89167c46-19fb-4428-be8d-a2f6f1964079","system_id":"levelo_inurba_marseille","lat":43.32364,"lon":5.38883,"is_reserved":false,"is_disabled":false,"rental_uris":{"android":"levelo://app?vid=89167c46-19fb-4428-be8d-a2f6f1964079","ios":"levelo://app?vid=89167c46-19fb-4428-be8d-a2f6f1964079"},"vehicle_type_id":"4","last_reported":1691518150,"current_range_meters":16000,"station_id":"ce4bhqp2rcd13ifvqhog","pricing_plan_id":"free"},{"bike_id":"8622645b-3c96-4fdf-8cf6-da71833282c8","system_id":"levelo_inurba_marseille","lat":43.32367,"lon":5.388836,"is_reserved":false,"is_disabled":false,"rental_uris":{"android":"levelo://app?vid=8622645b-3c96-4fdf-8cf6-da71833282c8","ios":"levelo://app?vid=8622645b-3c96-4fdf-8cf6-da71833282c8"},"vehicle_type_id":"4","last_reported":1691518150,"current_range_meters":29200,"station_id":"ce4bhqp2rcd13ifvqhog","pricing_plan_id":"free"},{"bike_id":"6b7eff1a-606d-42da-bbd2-faf1d71b2833","system_id":"levelo_inurba_marseille","lat":43.32368,"lon":5.38881,"is_reserved":false,"is_disabled":false,"rental_uris":{"android":"levelo://app?vid=6b7eff1a-606d-42da-bbd2-faf1d71b2833","ios":"levelo://app?vid=6b7eff1a-606d-42da-bbd2-faf1d71b2833"},"vehicle_type_id":"4","last_reported":1691518150,"current_range_meters":28400,"station_id":"ce4bhqp2rcd13ifvqhog","pricing_plan_id":"free"},{"bike_id":"8d3622b1-651a-424b-9e35-0fca166f98c4","system_id":"levelo_inurba_marseille","lat":43.32368,"lon":5.38882,"is_reserved":false,"is_disabled":false,"rental_uris":{"android":"levelo://app?vid=8d3622b1-651a-424b-9e35-0fca166f98c4","ios":"levelo://app?vid=8d3622b1-651a-424b-9e35-0fca166f98c4"},"vehicle_type_id":"4","last_reported":1691518150,"current_range_meters":24000,"station_id":"ce4bhqp2rcd13ifvqhog","pricing_plan_id":"free"},{"bike_id":"1ea5fdc5-3897-4ff2-9a70-bf6391fccfde","system_id":"levelo_inurba_marseille","lat":43.32366,"lon":5.38884,"is_reserved":false,"is_disabled":false,"rental_uris":{"android":"levelo://app?vid=1ea5fdc5-3897-4ff2-9a70-bf6391fccfde","ios":"levelo://app?vid=1ea5fdc5-3897-4ff2-9a70-bf6391fccfde"},"vehicle_type_id":"4","last_reported":1691518150,"current_range_meters":29200,"station_id":"ce4bhqp2rcd13ifvqhog","pricing_plan_id":"free"},{"bike_id":"04393ddb-228a-4341-98f6-4cd9a60e6083","system_id":"levelo_inurba_marseille","lat":43.32368,"lon":5.38884,"is_reserved":false,"is_disabled":false,"rental_uris":{"android":"levelo://app?vid=04393ddb-228a-4341-98f6-4cd9a60e6083","ios":"levelo://app?vid=04393ddb-228a-4341-98f6-4cd9a60e6083"},"vehicle_type_id":"4","last_reported":1691518150,"current_range_meters":25600,"station_id":"ce4bhqp2rcd13ifvqhog","pricing_plan_id":"free"},{"bike_id":"76c391ee-2205-4639-a6be-a8561f89affc","system_id":"levelo_inurba_marseille","lat":43.32367,"lon":5.388836,"is_reserved":false,"is_disabled":false,"rental_uris":{"android":"levelo://app?vid=76c391ee-2205-4639-a6be-a8561f89affc","ios":"levelo://app?vid=76c391ee-2205-4639-a6be-a8561f89affc"},"vehicle_type_id":"4","last_reported":1691518150,"current_range_meters":22000,"station_id":"ce4bhqp2rcd13ifvqhog","pricing_plan_id":"free"},{"bike_id":"bb909b46-e24f-4375-a0e2-036ba74e444b","system_id":"levelo_inurba_marseille","lat":43.29601,"lon":5.381084,"is_reserved":false,"is_disabled":false,"rental_uris":{"android":"levelo://app?vid=bb909b46-e24f-4375-a0e2-036ba74e444b","ios":"levelo://app?vid=bb909b46-e24f-4375-a0e2-036ba74e444b"},"vehicle_type_id":"4","last_reported":1691518150,"current_range_meters":8000,"station_id":"ce4bgl12rcd13ifvqbo0","pricing_plan_id":"free"},{"bike_id":"c9e9fb7d-0a08-4245-a706-d924ab049eb6","system_id":"levelo_inurba_marseille","lat":43.29306,"lon":5.37176,"is_reserved":false,"is_disabled":false,"rental_uris":{"android":"levelo://app?vid=c9e9fb7d-0a08-4245-a706-d924ab049eb6","ios":"levelo://app?vid=c9e9fb7d-0a08-4245-a706-d924ab049eb6"},"vehicle_type_id":"4","last_reported":1691518150,"current_range_meters":12400,"station_id":"ce4bgh92rcd13ifvqb40","pricing_plan_id":"free"},{"bike_id":"4db3cd95-03df-42ef-9c9c-454fbfb99d5c","system_id":"levelo_inurba_marseille","lat":43.292749,"lon":5.368398,"is_reserved":false,"is_disabled":false,"rental_uris":{"android":"levelo://app?vid=4db3cd95-03df-42ef-9c9c-454fbfb99d5c","ios":"levelo://app?vid=4db3cd95-03df-42ef-9c9c-454fbfb99d5c"},"vehicle_type_id":"4","last_reported":1691518150,"current_range_meters":0,"station_id":"ce4bhbp2rcd13ifvqesg","pricing_plan_id":"free"},{"bike_id":"51a06a22-725a-4515-987e-79367f7aa048","system_id":"levelo_inurba_marseille","lat":43.292749,"lon":5.368398,"is_reserved":false,"is_disabled":false,"rental_uris":{"android":"levelo://app?vid=51a06a22-725a-4515-987e-79367f7aa048","ios":"levelo://app?vid=51a06a22-725a-4515-987e-79367f7aa048"},"vehicle_type_id":"4","last_reported":1691518150,"current_range_meters":2800,"station_id":"ce4bhbp2rcd13ifvqesg","pricing_plan_id":"free"},{"bike_id":"f8f09285-c746-401b-801c-ec9e14ed9a7c","system_id":"levelo_inurba_marseille","lat":43.292749,"lon":5.368398,"is_reserved":false,"is_disabled":false,"rental_uris":{"android":"levelo://app?vid=f8f09285-c746-401b-801c-ec9e14ed9a7c","ios":"levelo://app?vid=f8f09285-c746-401b-801c-ec9e14ed9a7c"},"vehicle_type_id":"4","last_reported":1691518150,"current_range_meters":29200,"station_id":"ce4bhbp2rcd13ifvqesg","pricing_plan_id":"free"},{"bike_id":"3aaba374-83e1-4630-be58-6f17cfb816cc","system_id":"levelo_inurba_marseille","lat":43.292749,"lon":5.368398,"is_reserved":false,"is_disabled":false,"rental_uris":{"android":"levelo://app?vid=3aaba374-83e1-4630-be58-6f17cfb816cc","ios":"levelo://app?vid=3aaba374-83e1-4630-be58-6f17cfb816cc"},"vehicle_type_id":"4","last_reported":1691518150,"current_range_meters":0,"station_id":"ce4bhbp2rcd13ifvqesg","pricing_plan_id":"free"},{"bike_id":"f0d9364a-99f0-4242-af74-1e5f3e7b1715","system_id":"levelo_inurba_marseille","lat":43.292749,"lon":5.368402,"is_reserved":false,"is_disabled":false,"rental_uris":{"android":"levelo://app?vid=f0d9364a-99f0-4242-af74-1e5f3e7b1715","ios":"levelo://app?vid=f0d9364a-99f0-4242-af74-1e5f3e7b1715"},"vehicle_type_id":"4","last_reported":1691518150,"current_range_meters":9200,"station_id":"ce4bhbp2rcd13ifvqesg","pricing_plan_id":"free"},{"bike_id":"dbe406a0-e31d-4174-932b-0d8d584d17c2","system_id":"levelo_inurba_marseille","lat":43.292749,"lon":5.368398,"is_reserved":false,"is_disabled":false,"rental_uris":{"android":"levelo://app?vid=dbe406a0-e31d-4174-932b-0d8d584d17c2","ios":"levelo://app?vid=dbe406a0-e31d-4174-932b-0d8d584d17c2"},"vehicle_type_id":"4","last_reported":1691518150,"current_range_meters":32000,"station_id":"ce4bhbp2rcd13ifvqesg","pricing_plan_id":"free"},{"bike_id":"463cf147-7edc-4777-a53e-1ae171285d26","system_id":"levelo_inurba_marseille","lat":43.30591,"lon":5.39365,"is_reserved":false,"is_disabled":false,"rental_uris":{"android":"levelo://app?vid=463cf147-7edc-4777-a53e-1ae171285d26","ios":"levelo://app?vid=463cf147-7edc-4777-a53e-1ae171285d26"},"vehicle_type_id":"4","last_reported":1691518150,"current_range_meters":21200,"station_id":"ce4bh0p2rcd13ifvqd80","pricing_plan_id":"free"},{"bike_id":"3d4050f5-6445-4ce3-920b-6aa40fbfacc7","system_id":"levelo_inurba_marseille","lat":43.302992,"lon":5.392136,"is_reserved":false,"is_disabled":false,"rental_uris":{"android":"levelo://app?vid=3d4050f5-6445-4ce3-920b-6aa40fbfacc7","ios":"levelo://app?vid=3d4050f5-6445-4ce3-920b-6aa40fbfacc7"},"vehicle_type_id":"4","last_reported":1691518150,"current_range_meters":9600,"station_id":"ce4bgkh2rcd13ifvqbk0","pricing_plan_id":"free"},{"bike_id":"51396b68-007b-42a2-b2df-8d476859eb3d","system_id":"levelo_inurba_marseille","lat":43.302992,"lon":5.392136,"is_reserved":false,"is_disabled":false,"rental_uris":{"android":"levelo://app?vid=51396b68-007b-42a2-b2df-8d476859eb3d","ios":"levelo://app?vid=51396b68-007b-42a2-b2df-8d476859eb3d"},"vehicle_type_id":"4","last_reported":1691518150,"current_range_meters":22000,"station_id":"ce4bgkh2rcd13ifvqbk0","pricing_plan_id":"free"},{"bike_id":"1c6b6cbf-660f-4a75-a4b1-060e4f72ff2f","system_id":"levelo_inurba_marseille","lat":43.300852,"lon":5.390859,"is_reserved":false,"is_disabled":false,"rental_uris":{"android":"levelo://app?vid=1c6b6cbf-660f-4a75-a4b1-060e4f72ff2f","ios":"levelo://app?vid=1c6b6cbf-660f-4a75-a4b1-060e4f72ff2f"},"vehicle_type_id":"4","last_reported":1691518150,"current_range_meters":15200,"station_id":"ce4bh192rcd13ifvqdb0","pricing_plan_id":"free"},{"bike_id":"942822aa-c963-4187-aece-13c8bc594bcb","system_id":"levelo_inurba_marseille","lat":43.300852,"lon":5.390859,"is_reserved":false,"is_disabled":false,"rental_uris":{"android":"levelo://app?vid=942822aa-c963-4187-aece-13c8bc594bcb","ios":"levelo://app?vid=942822aa-c963-4187-aece-13c8bc594bcb"},"vehicle_type_id":"4","last_reported":1691518150,"current_range_meters":9600,"station_id":"ce4bh192rcd13ifvqdb0","pricing_plan_id":"free"},{"bike_id":"8ea491ef-0d21-4d3e-be55-7fe101e2a14b","system_id":"levelo_inurba_marseille","lat":43.300852,"lon":5.390859,"is_reserved":false,"is_disabled":false,"rental_uris":{"android":"levelo://app?vid=8ea491ef-0d21-4d3e-be55-7fe101e2a14b","ios":"levelo://app?vid=8ea491ef-0d21-4d3e-be55-7fe101e2a14b"},"vehicle_type_id":"4","last_reported":1691518150,"current_range_meters":8800,"station_id":"ce4bh192rcd13ifvqdb0","pricing_plan_id":"free"},{"bike_id":"32c25e9d-f87a-4f29-b172-301afdf7ae93","system_id":"levelo_inurba_marseille","lat":43.300852,"lon":5.390859,"is_reserved":false,"is_disabled":false,"rental_uris":{"android":"levelo://app?vid=32c25e9d-f87a-4f29-b172-301afdf7ae93","ios":"levelo://app?vid=32c25e9d-f87a-4f29-b172-301afdf7ae93"},"vehicle_type_id":"4","last_reported":1691518150,"current_range_meters":27200,"station_id":"ce4bh192rcd13ifvqdb0","pricing_plan_id":"free"},{"bike_id":"4a5fa6fe-e4f7-4354-bd80-a5ffd946a3a7","system_id":"levelo_inurba_marseille","lat":43.29254,"lon":5.37622,"is_reserved":false,"is_disabled":false,"rental_uris":{"android":"levelo://app?vid=4a5fa6fe-e4f7-4354-bd80-a5ffd946a3a7","ios":"levelo://app?vid=4a5fa6fe-e4f7-4354-bd80-a5ffd946a3a7"},"vehicle_type_id":"4","last_reported":1691518150,"current_range_meters":800,"station_id":"ce4bgi12rcd13ifvqb80","pricing_plan_id":"free"},{"bike_id":"5fb2a628-0bb6-451e-8cfc-fb23dff5b9e7","system_id":"levelo_inurba_marseille","lat":43.291671,"lon":5.371575,"is_reserved":false,"is_disabled":false,"rental_uris":{"android":"levelo://app?vid=5fb2a628-0bb6-451e-8cfc-fb23dff5b9e7","ios":"levelo://app?vid=5fb2a628-0bb6-451e-8cfc-fb23dff5b9e7"},"vehicle_type_id":"4","last_reported":1691518150,"current_range_meters":24400,"station_id":"ce4bha92rcd13ifvqeh0","pricing_plan_id":"free"},{"bike_id":"2282c425-6055-4414-b21f-9fa61eaba595","system_id":"levelo_inurba_marseille","lat":43.3088,"lon":5.39642,"is_reserved":false,"is_disabled":false,"rental_uris":{"android":"levelo://app?vid=2282c425-6055-4414-b21f-9fa61eaba595","ios":"levelo://app?vid=2282c425-6055-4414-b21f-9fa61eaba595"},"vehicle_type_id":"4","last_reported":1691518150,"current_range_meters":0,"station_id":"ce4bh012rcd13ifvqcv0","pricing_plan_id":"free"},{"bike_id":"2b1c5f66-73cd-4ddc-8144-84f6d9cb79a3","system_id":"levelo_inurba_marseille","lat":43.29529,"lon":5.385581,"is_reserved":false,"is_disabled":false,"rental_uris":{"android":"levelo://app?vid=2b1c5f66-73cd-4ddc-8144-84f6d9cb79a3","ios":"levelo://app?vid=2b1c5f66-73cd-4ddc-8144-84f6d9cb79a3"},"vehicle_type_id":"4","last_reported":1691518150,"current_range_meters":0,"station_id":"ce4bgih2rcd13ifvqba0","pricing_plan_id":"free"},{"bike_id":"f66eac05-eb45-42e4-a9b7-31bd01d27216","system_id":"levelo_inurba_marseille","lat":43.29529,"lon":5.385581,"is_reserved":false,"is_disabled":false,"rental_uris":{"android":"levelo://app?vid=f66eac05-eb45-42e4-a9b7-31bd01d27216","ios":"levelo://app?vid=f66eac05-eb45-42e4-a9b7-31bd01d27216"},"vehicle_type_id":"4","last_reported":1691518150,"current_range_meters":10800,"station_id":"ce4bgih2rcd13ifvqba0","pricing_plan_id":"free"},{"bike_id":"185711a5-2ae7-4394-b053-72a0498813ff","system_id":"levelo_inurba_marseille","lat":43.29529,"lon":5.385581,"is_reserved":false,"is_disabled":false,"rental_uris":{"android":"levelo://app?vid=185711a5-2ae7-4394-b053-72a0498813ff","ios":"levelo://app?vid=185711a5-2ae7-4394-b053-72a0498813ff"},"vehicle_type_id":"4","last_reported":1691518150,"current_range_meters":22800,"station_id":"ce4bgih2rcd13ifvqba0","pricing_plan_id":"free"},{"bike_id":"71012dd2-dba5-4500-a396-a5ca1d8a9b66","system_id":"levelo_inurba_marseille","lat":43.29529,"lon":5.385581,"is_reserved":false,"is_disabled":false,"rental_uris":{"android":"levelo://app?vid=71012dd2-dba5-4500-a396-a5ca1d8a9b66","ios":"levelo://app?vid=71012dd2-dba5-4500-a396-a5ca1d8a9b66"},"vehicle_type_id":"4","last_reported":1691518150,"current_range_meters":6400,"station_id":"ce4bgih2rcd13ifvqba0","pricing_plan_id":"free"},{"bike_id":"d6d9c4db-4c27-4aaa-a466-ec37e79c3d80","system_id":"levelo_inurba_marseille","lat":43.29076,"lon":5.37163,"is_reserved":false,"is_disabled":false,"rental_uris":{"android":"levelo://app?vid=d6d9c4db-4c27-4aaa-a466-ec37e79c3d80","ios":"levelo://app?vid=d6d9c4db-4c27-4aaa-a466-ec37e79c3d80"},"vehicle_type_id":"4","last_reported":1691518150,"current_range_meters":0,"station_id":"ce4bh5p2rcd13ifvqe4g","pricing_plan_id":"free"},{"bike_id":"5fa1aa64-7a3d-44fd-8805-380c7d78acc9","system_id":"levelo_inurba_marseille","lat":43.290779,"lon":5.371482,"is_reserved":false,"is_disabled":false,"rental_uris":{"android":"levelo://app?vid=5fa1aa64-7a3d-44fd-8805-380c7d78acc9","ios":"levelo://app?vid=5fa1aa64-7a3d-44fd-8805-380c7d78acc9"},"vehicle_type_id":"4","last_reported":1691518150,"current_range_meters":16800,"station_id":"ce4bh5p2rcd13ifvqe4g","pricing_plan_id":"free"},{"bike_id":"8f13a1fc-32de-45b3-ada8-afa44a597727","system_id":"levelo_inurba_marseille","lat":43.290714,"lon":5.371757,"is_reserved":false,"is_disabled":false,"rental_uris":{"android":"levelo://app?vid=8f13a1fc-32de-45b3-ada8-afa44a597727","ios":"levelo://app?vid=8f13a1fc-32de-45b3-ada8-afa44a597727"},"vehicle_type_id":"4","last_reported":1691518150,"current_range_meters":16400,"station_id":"","pricing_plan_id":"free"},{"bike_id":"5c6c7970-4d75-485e-849b-7afbd90dfc4f","system_id":"levelo_inurba_marseille","lat":43.290595,"lon":5.371648,"is_reserved":false,"is_disabled":false,"rental_uris":{"android":"levelo://app?vid=5c6c7970-4d75-485e-849b-7afbd90dfc4f","ios":"levelo://app?vid=5c6c7970-4d75-485e-849b-7afbd90dfc4f"},"vehicle_type_id":"4","last_reported":1691518150,"current_range_meters":6400,"station_id":"ce4bh5p2rcd13ifvqe4g","pricing_plan_id":"free"},{"bike_id":"e74b290f-bb5d-4e59-bc68-2442f9d33da3","system_id":"levelo_inurba_marseille","lat":43.290624,"lon":5.359245,"is_reserved":false,"is_disabled":false,"rental_uris":{"android":"levelo://app?vid=e74b290f-bb5d-4e59-bc68-2442f9d33da3","ios":"levelo://app?vid=e74b290f-bb5d-4e59-bc68-2442f9d33da3"},"vehicle_type_id":"4","last_reported":1691518150,"current_range_meters":25600,"station_id":"ce4bha92rcd13ifvqeg0","pricing_plan_id":"free"},{"bike_id":"983fdda1-ebc2-4a53-a9fd-dcacdeaf46f8","system_id":"levelo_inurba_marseille","lat":43.294153,"lon":5.386305,"is_reserved":false,"is_disabled":false,"rental_uris":{"android":"levelo://app?vid=983fdda1-ebc2-4a53-a9fd-dcacdeaf46f8","ios":"levelo://app?vid=983fdda1-ebc2-4a53-a9fd-dcacdeaf46f8"},"vehicle_type_id":"4","last_reported":1691518150,"current_range_meters":4800,"station_id":"ce4bh2h2rcd13ifvqdh0","pricing_plan_id":"free"},{"bike_id":"9f2cff8d-0219-4e38-b44a-ef57baa24579","system_id":"levelo_inurba_marseille","lat":43.294162,"lon":5.386292,"is_reserved":false,"is_disabled":false,"rental_uris":{"android":"levelo://app?vid=9f2cff8d-0219-4e38-b44a-ef57baa24579","ios":"levelo://app?vid=9f2cff8d-0219-4e38-b44a-ef57baa24579"},"vehicle_type_id":"4","last_reported":1691518150,"current_range_meters":19600,"station_id":"ce4bh2h2rcd13ifvqdh0","pricing_plan_id":"free"},{"bike_id":"22e5e50d-0256-4872-9c7a-12eb1a28da64","system_id":"levelo_inurba_marseille","lat":43.294162,"lon":5.386292,"is_reserved":false,"is_disabled":false,"rental_uris":{"android":"levelo://app?vid=22e5e50d-0256-4872-9c7a-12eb1a28da64","ios":"levelo://app?vid=22e5e50d-0256-4872-9c7a-12eb1a28da64"},"vehicle_type_id":"4","last_reported":1691518150,"current_range_meters":24800,"station_id":"ce4bh2h2rcd13ifvqdh0","pricing_plan_id":"free"},{"bike_id":"b94846fd-d9fc-4c68-b17d-3919d483bd71","system_id":"levelo_inurba_marseille","lat":43.29414,"lon":5.38628,"is_reserved":false,"is_disabled":false,"rental_uris":{"android":"levelo://app?vid=b94846fd-d9fc-4c68-b17d-3919d483bd71","ios":"levelo://app?vid=b94846fd-d9fc-4c68-b17d-3919d483bd71"},"vehicle_type_id":"4","last_reported":1691518150,"current_range_meters":2800,"station_id":"","pricing_plan_id":"free"},{"bike_id":"30410df1-c60b-46d3-92f0-d9a5614f69fe","system_id":"levelo_inurba_marseille","lat":43.289184,"lon":5.366408,"is_reserved":false,"is_disabled":false,"rental_uris":{"android":"levelo://app?vid=30410df1-c60b-46d3-92f0-d9a5614f69fe","ios":"levelo://app?vid=30410df1-c60b-46d3-92f0-d9a5614f69fe"},"vehicle_type_id":"4","last_reported":1691518150,"current_range_meters":11200,"station_id":"ce4bhap2rcd13ifvqek0","pricing_plan_id":"free"},{"bike_id":"8f5be18a-28b1-41ab-a878-636906cfa1c2","system_id":"levelo_inurba_marseille","lat":43.289184,"lon":5.366408,"is_reserved":false,"is_disabled":false,"rental_uris":{"android":"levelo://app?vid=8f5be18a-28b1-41ab-a878-636906cfa1c2","ios":"levelo://app?vid=8f5be18a-28b1-41ab-a878-636906cfa1c2"},"vehicle_type_id":"4","last_reported":1691518150,"current_range_meters":23600,"station_id":"ce4bhap2rcd13ifvqek0","pricing_plan_id":"free"},{"bike_id":"b1595237-4999-4aea-a2fa-2ed9bba2404f","system_id":"levelo_inurba_marseille","lat":43.28933,"lon":5.36634,"is_reserved":false,"is_disabled":false,"rental_uris":{"android":"levelo://app?vid=b1595237-4999-4aea-a2fa-2ed9bba2404f","ios":"levelo://app?vid=b1595237-4999-4aea-a2fa-2ed9bba2404f"},"vehicle_type_id":"4","last_reported":1691518150,"current_range_meters":6800,"station_id":"ce4bhap2rcd13ifvqek0","pricing_plan_id":"free"},{"bike_id":"befe293f-41df-401b-a3ea-dd34846f502a","system_id":"levelo_inurba_marseille","lat":43.28933,"lon":5.3663,"is_reserved":false,"is_disabled":false,"rental_uris":{"android":"levelo://app?vid=befe293f-41df-401b-a3ea-dd34846f502a","ios":"levelo://app?vid=befe293f-41df-401b-a3ea-dd34846f502a"},"vehicle_type_id":"4","last_reported":1691518150,"current_range_meters":30000,"station_id":"","pricing_plan_id":"free"},{"bike_id":"4c6a2a45-bff1-4667-a4d5-097f4a05930f","system_id":"levelo_inurba_marseille","lat":43.289468,"lon":5.363719,"is_reserved":false,"is_disabled":false,"rental_uris":{"android":"levelo://app?vid=4c6a2a45-bff1-4667-a4d5-097f4a05930f","ios":"levelo://app?vid=4c6a2a45-bff1-4667-a4d5-097f4a05930f"},"vehicle_type_id":"4","last_reported":1691518150,"current_range_meters":14400,"station_id":"ce4bhc92rcd13ifvqetg","pricing_plan_id":"free"},{"bike_id":"d089fdba-db89-4e80-81c2-10a6f36b3fd4","system_id":"levelo_inurba_marseille","lat":43.29258,"lon":5.38425,"is_reserved":false,"is_disabled":false,"rental_uris":{"android":"levelo://app?vid=d089fdba-db89-4e80-81c2-10a6f36b3fd4","ios":"levelo://app?vid=d089fdba-db89-4e80-81c2-10a6f36b3fd4"},"vehicle_type_id":"4","last_reported":1691518150,"current_range_meters":26000,"station_id":"ce4bh692rcd13ifvqea0","pricing_plan_id":"free"},{"bike_id":"16b9fd5a-c0cc-44a7-9bce-6984dc238e68","system_id":"levelo_inurba_marseille","lat":43.29041,"lon":5.399634,"is_reserved":false,"is_disabled":false,"rental_uris":{"android":"levelo://app?vid=16b9fd5a-c0cc-44a7-9bce-6984dc238e68","ios":"levelo://app?vid=16b9fd5a-c0cc-44a7-9bce-6984dc238e68"},"vehicle_type_id":"4","last_reported":1691518150,"current_range_meters":13600,"station_id":"ce4bh392rcd13ifvqdm0","pricing_plan_id":"free"},{"bike_id":"679c37de-9b4f-4dfd-8a0d-ee55e84aa105","system_id":"levelo_inurba_marseille","lat":43.29268,"lon":5.3845,"is_reserved":false,"is_disabled":false,"rental_uris":{"android":"levelo://app?vid=679c37de-9b4f-4dfd-8a0d-ee55e84aa105","ios":"levelo://app?vid=679c37de-9b4f-4dfd-8a0d-ee55e84aa105"},"vehicle_type_id":"4","last_reported":1691518150,"current_range_meters":14000,"station_id":"ce4bh692rcd13ifvqea0","pricing_plan_id":"free"},{"bike_id":"4ac399f0-a251-4335-8d91-4e25546ba64b","system_id":"levelo_inurba_marseille","lat":43.29262,"lon":5.38437,"is_reserved":false,"is_disabled":false,"rental_uris":{"android":"levelo://app?vid=4ac399f0-a251-4335-8d91-4e25546ba64b","ios":"levelo://app?vid=4ac399f0-a251-4335-8d91-4e25546ba64b"},"vehicle_type_id":"4","last_reported":1691518150,"current_range_meters":10400,"station_id":"ce4bh692rcd13ifvqea0","pricing_plan_id":"free"},{"bike_id":"85d103b1-137c-46f4-a4a3-aa806be4a84d","system_id":"levelo_inurba_marseille","lat":43.29262,"lon":5.38443,"is_reserved":false,"is_disabled":false,"rental_uris":{"android":"levelo://app?vid=85d103b1-137c-46f4-a4a3-aa806be4a84d","ios":"levelo://app?vid=85d103b1-137c-46f4-a4a3-aa806be4a84d"},"vehicle_type_id":"4","last_reported":1691518150,"current_range_meters":14400,"station_id":"ce4bh692rcd13ifvqea0","pricing_plan_id":"free"},{"bike_id":"145d6dd5-c52e-4211-894c-38a2910a1641","system_id":"levelo_inurba_marseille","lat":43.29315,"lon":5.38565,"is_reserved":false,"is_disabled":false,"rental_uris":{"android":"levelo://app?vid=145d6dd5-c52e-4211-894c-38a2910a1641","ios":"levelo://app?vid=145d6dd5-c52e-4211-894c-38a2910a1641"},"vehicle_type_id":"4","last_reported":1691518150,"current_range_meters":13600,"station_id":"","pricing_plan_id":"free"},{"bike_id":"02872045-0dca-45c6-ac54-664e7b8e5bee","system_id":"levelo_inurba_marseille","lat":43.29012,"lon":5.35625,"is_reserved":false,"is_disabled":false,"rental_uris":{"android":"levelo://app?vid=02872045-0dca-45c6-ac54-664e7b8e5bee","ios":"levelo://app?vid=02872045-0dca-45c6-ac54-664e7b8e5bee"},"vehicle_type_id":"4","last_reported":1691518150,"current_range_meters":7600,"station_id":"ce4bhb92rcd13ifvqen0","pricing_plan_id":"free"},{"bike_id":"2f74d4f2-3af7-4dd0-aae7-6aebc48c5839","system_id":"levelo_inurba_marseille","lat":43.290103,"lon":5.356114,"is_reserved":false,"is_disabled":false,"rental_uris":{"android":"levelo://app?vid=2f74d4f2-3af7-4dd0-aae7-6aebc48c5839","ios":"levelo://app?vid=2f74d4f2-3af7-4dd0-aae7-6aebc48c5839"},"vehicle_type_id":"4","last_reported":1691518150,"current_range_meters":20800,"station_id":"ce4bhb92rcd13ifvqen0","pricing_plan_id":"free"},{"bike_id":"2c267b63-5966-4e3c-a605-81ce2dde45aa","system_id":"levelo_inurba_marseille","lat":43.33045,"lon":5.38916,"is_reserved":false,"is_disabled":false,"rental_uris":{"android":"levelo://app?vid=2c267b63-5966-4e3c-a605-81ce2dde45aa","ios":"levelo://app?vid=2c267b63-5966-4e3c-a605-81ce2dde45aa"},"vehicle_type_id":"4","last_reported":1691518150,"current_range_meters":27600,"station_id":"ce4bhr92rcd13ifvqhrg","pricing_plan_id":"free"},{"bike_id":"07d878fa-4a53-45ff-9114-5c2388007020","system_id":"levelo_inurba_marseille","lat":43.33046,"lon":5.38916,"is_reserved":false,"is_disabled":false,"rental_uris":{"android":"levelo://app?vid=07d878fa-4a53-45ff-9114-5c2388007020","ios":"levelo://app?vid=07d878fa-4a53-45ff-9114-5c2388007020"},"vehicle_type_id":"4","last_reported":1691518150,"current_range_meters":0,"station_id":"ce4bhr92rcd13ifvqhrg","pricing_plan_id":"free"},{"bike_id":"6cfdba29-0bf9-42f3-8ca1-d202c1585abb","system_id":"levelo_inurba_marseille","lat":43.33045,"lon":5.38918,"is_reserved":false,"is_disabled":false,"rental_uris":{"android":"levelo://app?vid=6cfdba29-0bf9-42f3-8ca1-d202c1585abb","ios":"levelo://app?vid=6cfdba29-0bf9-42f3-8ca1-d202c1585abb"},"vehicle_type_id":"4","last_reported":1691518150,"current_range_meters":22800,"station_id":"ce4bhr92rcd13ifvqhrg","pricing_plan_id":"free"},{"bike_id":"5a6a23cd-cd7a-44e6-a55a-1d9579359bd9","system_id":"levelo_inurba_marseille","lat":43.290104,"lon":5.356111,"is_reserved":false,"is_disabled":false,"rental_uris":{"android":"levelo://app?vid=5a6a23cd-cd7a-44e6-a55a-1d9579359bd9","ios":"levelo://app?vid=5a6a23cd-cd7a-44e6-a55a-1d9579359bd9"},"vehicle_type_id":"4","last_reported":1691518150,"current_range_meters":3200,"station_id":"ce4bhb92rcd13ifvqen0","pricing_plan_id":"free"},{"bike_id":"7b78d55e-e99c-4fa7-968a-c672d6912f00","system_id":"levelo_inurba_marseille","lat":43.290103,"lon":5.356114,"is_reserved":false,"is_disabled":false,"rental_uris":{"android":"levelo://app?vid=7b78d55e-e99c-4fa7-968a-c672d6912f00","ios":"levelo://app?vid=7b78d55e-e99c-4fa7-968a-c672d6912f00"},"vehicle_type_id":"4","last_reported":1691518150,"current_range_meters":31200,"station_id":"ce4bhb92rcd13ifvqen0","pricing_plan_id":"free"},{"bike_id":"bba32878-1156-4eea-81cb-025d69777889","system_id":"levelo_inurba_marseille","lat":43.290104,"lon":5.356111,"is_reserved":false,"is_disabled":false,"rental_uris":{"android":"levelo://app?vid=bba32878-1156-4eea-81cb-025d69777889","ios":"levelo://app?vid=bba32878-1156-4eea-81cb-025d69777889"},"vehicle_type_id":"4","last_reported":1691518150,"current_range_meters":18400,"station_id":"ce4bhb92rcd13ifvqen0","pricing_plan_id":"free"},{"bike_id":"d92191b5-3897-428d-989c-4b986c7a7e64","system_id":"levelo_inurba_marseille","lat":43.28997,"lon":5.35613,"is_reserved":false,"is_disabled":false,"rental_uris":{"android":"levelo://app?vid=d92191b5-3897-428d-989c-4b986c7a7e64","ios":"levelo://app?vid=d92191b5-3897-428d-989c-4b986c7a7e64"},"vehicle_type_id":"4","last_reported":1691518150,"current_range_meters":8400,"station_id":"ce4bhb92rcd13ifvqen0","pricing_plan_id":"free"},{"bike_id":"29c6a012-7617-4731-8005-a3b285f73027","system_id":"levelo_inurba_marseille","lat":43.290995,"lon":5.381361,"is_reserved":false,"is_disabled":false,"rental_uris":{"android":"levelo://app?vid=29c6a012-7617-4731-8005-a3b285f73027","ios":"levelo://app?vid=29c6a012-7617-4731-8005-a3b285f73027"},"vehicle_type_id":"4","last_reported":1691518150,"current_range_meters":29200,"station_id":"ce4bh512rcd13ifvqe2g","pricing_plan_id":"free"},{"bike_id":"94bb96e9-4968-4f32-913f-22b3ecb2e390","system_id":"levelo_inurba_marseille","lat":43.290995,"lon":5.381361,"is_reserved":false,"is_disabled":false,"rental_uris":{"android":"levelo://app?vid=94bb96e9-4968-4f32-913f-22b3ecb2e390","ios":"levelo://app?vid=94bb96e9-4968-4f32-913f-22b3ecb2e390"},"vehicle_type_id":"4","last_reported":1691518150,"current_range_meters":30400,"station_id":"ce4bh512rcd13ifvqe2g","pricing_plan_id":"free"},{"bike_id":"36ed3e7d-91ce-443c-a60f-6bf5def020ed","system_id":"levelo_inurba_marseille","lat":43.290995,"lon":5.381361,"is_reserved":false,"is_disabled":false,"rental_uris":{"android":"levelo://app?vid=36ed3e7d-91ce-443c-a60f-6bf5def020ed","ios":"levelo://app?vid=36ed3e7d-91ce-443c-a60f-6bf5def020ed"},"vehicle_type_id":"4","last_reported":1691518150,"current_range_meters":0,"station_id":"ce4bh512rcd13ifvqe2g","pricing_plan_id":"free"},{"bike_id":"58f2e3b6-2ba9-45dc-89ee-bda54b6321e5","system_id":"levelo_inurba_marseille","lat":43.297815,"lon":5.393548,"is_reserved":false,"is_disabled":false,"rental_uris":{"android":"levelo://app?vid=58f2e3b6-2ba9-45dc-89ee-bda54b6321e5","ios":"levelo://app?vid=58f2e3b6-2ba9-45dc-89ee-bda54b6321e5"},"vehicle_type_id":"4","last_reported":1691518150,"current_range_meters":15600,"station_id":"chh1huq6cuj3fo74tm60","pricing_plan_id":"free"},{"bike_id":"e81e7555-bdc5-4df6-8f4b-c2be9835f5a8","system_id":"levelo_inurba_marseille","lat":43.295169,"lon":5.390426,"is_reserved":false,"is_disabled":false,"rental_uris":{"android":"levelo://app?vid=e81e7555-bdc5-4df6-8f4b-c2be9835f5a8","ios":"levelo://app?vid=e81e7555-bdc5-4df6-8f4b-c2be9835f5a8"},"vehicle_type_id":"4","last_reported":1691518150,"current_range_meters":13200,"station_id":"ce4bh3p2rcd13ifvqdp0","pricing_plan_id":"free"},{"bike_id":"2e1dc13f-d123-499e-bbc5-0ff0e14301f0","system_id":"levelo_inurba_marseille","lat":43.317557,"lon":5.390173,"is_reserved":false,"is_disabled":false,"rental_uris":{"android":"levelo://app?vid=2e1dc13f-d123-499e-bbc5-0ff0e14301f0","ios":"levelo://app?vid=2e1dc13f-d123-499e-bbc5-0ff0e14301f0"},"vehicle_type_id":"4","last_reported":1691518150,"current_range_meters":6800,"station_id":"ce4bhqp2rcd13ifvqhng","pricing_plan_id":"free"},{"bike_id":"a16dfe28-336f-43d5-8bee-ba0fb142e4e9","system_id":"levelo_inurba_marseille","lat":43.28856,"lon":5.358371,"is_reserved":false,"is_disabled":false,"rental_uris":{"android":"levelo://app?vid=a16dfe28-336f-43d5-8bee-ba0fb142e4e9","ios":"levelo://app?vid=a16dfe28-336f-43d5-8bee-ba0fb142e4e9"},"vehicle_type_id":"4","last_reported":1691518150,"current_range_meters":0,"station_id":"ce4bhb12rcd13ifvqem0","pricing_plan_id":"free"},{"bike_id":"7ccfd2f8-3c21-431a-adf8-948bbc576217","system_id":"levelo_inurba_marseille","lat":43.33019,"lon":5.39199,"is_reserved":false,"is_disabled":false,"rental_uris":{"android":"levelo://app?vid=7ccfd2f8-3c21-431a-adf8-948bbc576217","ios":"levelo://app?vid=7ccfd2f8-3c21-431a-adf8-948bbc576217"},"vehicle_type_id":"4","last_reported":1691518150,"current_range_meters":28000,"station_id":"","pricing_plan_id":"free"},{"bike_id":"41ce6527-a970-4e41-96c3-4e784420dffc","system_id":"levelo_inurba_marseille","lat":43.294153,"lon":5.386305,"is_reserved":false,"is_disabled":false,"rental_uris":{"android":"levelo://app?vid=41ce6527-a970-4e41-96c3-4e784420dffc","ios":"levelo://app?vid=41ce6527-a970-4e41-96c3-4e784420dffc"},"vehicle_type_id":"4","last_reported":1691518150,"current_range_meters":5200,"station_id":"ce4bh2h2rcd13ifvqdh0","pricing_plan_id":"free"},{"bike_id":"326458cc-6230-41a2-9f0b-099d7b4f1f04","system_id":"levelo_inurba_marseille","lat":43.309371,"lon":5.401449,"is_reserved":false,"is_disabled":false,"rental_uris":{"android":"levelo://app?vid=326458cc-6230-41a2-9f0b-099d7b4f1f04","ios":"levelo://app?vid=326458cc-6230-41a2-9f0b-099d7b4f1f04"},"vehicle_type_id":"4","last_reported":1691518150,"current_range_meters":9600,"station_id":"ce4bgvp2rcd13ifvqct0","pricing_plan_id":"free"},{"bike_id":"bdf42952-d6a0-4845-b768-25423fdac941","system_id":"levelo_inurba_marseille","lat":43.33754,"lon":5.37463,"is_reserved":false,"is_disabled":false,"rental_uris":{"android":"levelo://app?vid=bdf42952-d6a0-4845-b768-25423fdac941","ios":"levelo://app?vid=bdf42952-d6a0-4845-b768-25423fdac941"},"vehicle_type_id":"4","last_reported":1691518150,"current_range_meters":11200,"station_id":"","pricing_plan_id":"free"},{"bike_id":"3fb4941f-1fbd-4f2e-b321-737f0c333336","system_id":"levelo_inurba_marseille","lat":43.30655,"lon":5.40088,"is_reserved":false,"is_disabled":false,"rental_uris":{"android":"levelo://app?vid=3fb4941f-1fbd-4f2e-b321-737f0c333336","ios":"levelo://app?vid=3fb4941f-1fbd-4f2e-b321-737f0c333336"},"vehicle_type_id":"4","last_reported":1691518150,"current_range_meters":0,"station_id":"ce4bh112rcd13ifvqda0","pricing_plan_id":"free"},{"bike_id":"1e6a4349-91f9-468d-8618-a50a523320de","system_id":"levelo_inurba_marseille","lat":43.33756,"lon":5.37492,"is_reserved":false,"is_disabled":false,"rental_uris":{"android":"levelo://app?vid=1e6a4349-91f9-468d-8618-a50a523320de","ios":"levelo://app?vid=1e6a4349-91f9-468d-8618-a50a523320de"},"vehicle_type_id":"4","last_reported":1691518150,"current_range_meters":21200,"station_id":"","pricing_plan_id":"free"},{"bike_id":"baa33b75-f012-4511-bca8-3e92991e3024","system_id":"levelo_inurba_marseille","lat":43.33766,"lon":5.3744,"is_reserved":false,"is_disabled":false,"rental_uris":{"android":"levelo://app?vid=baa33b75-f012-4511-bca8-3e92991e3024","ios":"levelo://app?vid=baa33b75-f012-4511-bca8-3e92991e3024"},"vehicle_type_id":"4","last_reported":1691518150,"current_range_meters":10800,"station_id":"","pricing_plan_id":"free"},{"bike_id":"1d587673-114b-4879-ac22-244c9400d6c5","system_id":"levelo_inurba_marseille","lat":43.33758,"lon":5.37495,"is_reserved":false,"is_disabled":false,"rental_uris":{"android":"levelo://app?vid=1d587673-114b-4879-ac22-244c9400d6c5","ios":"levelo://app?vid=1d587673-114b-4879-ac22-244c9400d6c5"},"vehicle_type_id":"4","last_reported":1691518150,"current_range_meters":18000,"station_id":"","pricing_plan_id":"free"},{"bike_id":"b0634c9b-42bc-4ae8-b933-59225681d5a8","system_id":"levelo_inurba_marseille","lat":43.317121,"lon":5.423936,"is_reserved":false,"is_disabled":false,"rental_uris":{"android":"levelo://app?vid=b0634c9b-42bc-4ae8-b933-59225681d5a8","ios":"levelo://app?vid=b0634c9b-42bc-4ae8-b933-59225681d5a8"},"vehicle_type_id":"4","last_reported":1691518150,"current_range_meters":31200,"station_id":"ce4bhp92rcd13ifvqhbg","pricing_plan_id":"free"},{"bike_id":"4437f4ef-b5b8-47ce-8bec-54bfc728b3b6","system_id":"levelo_inurba_marseille","lat":43.30655,"lon":5.40102,"is_reserved":false,"is_disabled":false,"rental_uris":{"android":"levelo://app?vid=4437f4ef-b5b8-47ce-8bec-54bfc728b3b6","ios":"levelo://app?vid=4437f4ef-b5b8-47ce-8bec-54bfc728b3b6"},"vehicle_type_id":"4","last_reported":1691518150,"current_range_meters":23600,"station_id":"ce4bh112rcd13ifvqda0","pricing_plan_id":"free"},{"bike_id":"d2a77863-babd-4bb2-a417-e72a5957913f","system_id":"levelo_inurba_marseille","lat":43.33771,"lon":5.37461,"is_reserved":false,"is_disabled":false,"rental_uris":{"android":"levelo://app?vid=d2a77863-babd-4bb2-a417-e72a5957913f","ios":"levelo://app?vid=d2a77863-babd-4bb2-a417-e72a5957913f"},"vehicle_type_id":"4","last_reported":1691518150,"current_range_meters":28800,"station_id":"","pricing_plan_id":"free"},{"bike_id":"3585088c-1fad-4eca-b223-780202197d91","system_id":"levelo_inurba_marseille","lat":43.3302,"lon":5.39264,"is_reserved":false,"is_disabled":false,"rental_uris":{"android":"levelo://app?vid=3585088c-1fad-4eca-b223-780202197d91","ios":"levelo://app?vid=3585088c-1fad-4eca-b223-780202197d91"},"vehicle_type_id":"4","last_reported":1691518150,"current_range_meters":12400,"station_id":"","pricing_plan_id":"free"},{"bike_id":"cfbeb357-0c04-434f-a388-0ed8b962b68a","system_id":"levelo_inurba_marseille","lat":43.301117,"lon":5.398795,"is_reserved":false,"is_disabled":false,"rental_uris":{"android":"levelo://app?vid=cfbeb357-0c04-434f-a388-0ed8b962b68a","ios":"levelo://app?vid=cfbeb357-0c04-434f-a388-0ed8b962b68a"},"vehicle_type_id":"4","last_reported":1691518150,"current_range_meters":16800,"station_id":"ce4bh0h2rcd13ifvqd40","pricing_plan_id":"free"},{"bike_id":"0e9a8b55-bdc1-48be-b0e2-19c3d250e0ee","system_id":"levelo_inurba_marseille","lat":43.301117,"lon":5.398795,"is_reserved":false,"is_disabled":false,"rental_uris":{"android":"levelo://app?vid=0e9a8b55-bdc1-48be-b0e2-19c3d250e0ee","ios":"levelo://app?vid=0e9a8b55-bdc1-48be-b0e2-19c3d250e0ee"},"vehicle_type_id":"4","last_reported":1691518150,"current_range_meters":16000,"station_id":"ce4bh0h2rcd13ifvqd40","pricing_plan_id":"free"},{"bike_id":"75199276-b705-4ad7-b6a9-49aeaa84628a","system_id":"levelo_inurba_marseille","lat":43.286591,"lon":5.363346,"is_reserved":false,"is_disabled":false,"rental_uris":{"android":"levelo://app?vid=75199276-b705-4ad7-b6a9-49aeaa84628a","ios":"levelo://app?vid=75199276-b705-4ad7-b6a9-49aeaa84628a"},"vehicle_type_id":"4","last_reported":1691518150,"current_range_meters":31200,"station_id":"ce4bhah2rcd13ifvqej0","pricing_plan_id":"free"},{"bike_id":"7ecd967e-8ad8-45d4-a8db-ac4b1527d239","system_id":"levelo_inurba_marseille","lat":43.298681,"lon":5.397225,"is_reserved":false,"is_disabled":false,"rental_uris":{"android":"levelo://app?vid=7ecd967e-8ad8-45d4-a8db-ac4b1527d239","ios":"levelo://app?vid=7ecd967e-8ad8-45d4-a8db-ac4b1527d239"},"vehicle_type_id":"4","last_reported":1691518150,"current_range_meters":16800,"station_id":"ce4bh0h2rcd13ifvqd50","pricing_plan_id":"free"},{"bike_id":"097e3071-2cc4-43e7-8c20-186f18b7d38d","system_id":"levelo_inurba_marseille","lat":43.28703,"lon":5.37394,"is_reserved":false,"is_disabled":false,"rental_uris":{"android":"levelo://app?vid=097e3071-2cc4-43e7-8c20-186f18b7d38d","ios":"levelo://app?vid=097e3071-2cc4-43e7-8c20-186f18b7d38d"},"vehicle_type_id":"4","last_reported":1691518150,"current_range_meters":3600,"station_id":"ce4bh3p2rcd13ifvqdq0","pricing_plan_id":"free"},{"bike_id":"d466e233-dc5d-4f30-92da-328d639a63c2","system_id":"levelo_inurba_marseille","lat":43.28693,"lon":5.37392,"is_reserved":false,"is_disabled":false,"rental_uris":{"android":"levelo://app?vid=d466e233-dc5d-4f30-92da-328d639a63c2","ios":"levelo://app?vid=d466e233-dc5d-4f30-92da-328d639a63c2"},"vehicle_type_id":"4","last_reported":1691518150,"current_range_meters":22400,"station_id":"ce4bh3p2rcd13ifvqdq0","pricing_plan_id":"free"},{"bike_id":"e14352c3-faae-40b7-ae73-f26b711f6339","system_id":"levelo_inurba_marseille","lat":43.29519,"lon":5.39406,"is_reserved":false,"is_disabled":false,"rental_uris":{"android":"levelo://app?vid=e14352c3-faae-40b7-ae73-f26b711f6339","ios":"levelo://app?vid=e14352c3-faae-40b7-ae73-f26b711f6339"},"vehicle_type_id":"4","last_reported":1691518150,"current_range_meters":6800,"station_id":"","pricing_plan_id":"free"},{"bike_id":"f2d9aee7-2330-45a5-9cf4-b0bf356e0879","system_id":"levelo_inurba_marseille","lat":43.295194,"lon":5.39397,"is_reserved":false,"is_disabled":false,"rental_uris":{"android":"levelo://app?vid=f2d9aee7-2330-45a5-9cf4-b0bf356e0879","ios":"levelo://app?vid=f2d9aee7-2330-45a5-9cf4-b0bf356e0879"},"vehicle_type_id":"4","last_reported":1691518150,"current_range_meters":7200,"station_id":"ce4bh292rcd13ifvqdf0","pricing_plan_id":"free"},{"bike_id":"7b9e2d57-7c2f-4652-8ec0-ee4d147afe24","system_id":"levelo_inurba_marseille","lat":43.302548,"lon":5.400568,"is_reserved":false,"is_disabled":false,"rental_uris":{"android":"levelo://app?vid=7b9e2d57-7c2f-4652-8ec0-ee4d147afe24","ios":"levelo://app?vid=7b9e2d57-7c2f-4652-8ec0-ee4d147afe24"},"vehicle_type_id":"4","last_reported":1691518150,"current_range_meters":0,"station_id":"","pricing_plan_id":"free"},{"bike_id":"4aa0f0f8-672c-4818-86c6-a40190d018b4","system_id":"levelo_inurba_marseille","lat":43.290336,"lon":5.386425,"is_reserved":false,"is_disabled":false,"rental_uris":{"android":"levelo://app?vid=4aa0f0f8-672c-4818-86c6-a40190d018b4","ios":"levelo://app?vid=4aa0f0f8-672c-4818-86c6-a40190d018b4"},"vehicle_type_id":"4","last_reported":1691518150,"current_range_meters":4000,"station_id":"ce4bh4p2rcd13ifvqe0g","pricing_plan_id":"free"},{"bike_id":"0c5fa2e7-f52d-4936-9092-8e01460d57a3","system_id":"levelo_inurba_marseille","lat":43.290336,"lon":5.386425,"is_reserved":false,"is_disabled":false,"rental_uris":{"android":"levelo://app?vid=0c5fa2e7-f52d-4936-9092-8e01460d57a3","ios":"levelo://app?vid=0c5fa2e7-f52d-4936-9092-8e01460d57a3"},"vehicle_type_id":"4","last_reported":1691518150,"current_range_meters":4000,"station_id":"ce4bh4p2rcd13ifvqe0g","pricing_plan_id":"free"},{"bike_id":"ccd44719-34ed-400c-90a1-3ceb227214e2","system_id":"levelo_inurba_marseille","lat":43.302759,"lon":5.400793,"is_reserved":false,"is_disabled":false,"rental_uris":{"android":"levelo://app?vid=ccd44719-34ed-400c-90a1-3ceb227214e2","ios":"levelo://app?vid=ccd44719-34ed-400c-90a1-3ceb227214e2"},"vehicle_type_id":"4","last_reported":1691518150,"current_range_meters":22000,"station_id":"ce4bgvh2rcd13ifvqcs0","pricing_plan_id":"free"},{"bike_id":"1d7b021f-8fb9-4177-8823-53dc0687f7b7","system_id":"levelo_inurba_marseille","lat":43.302759,"lon":5.400793,"is_reserved":false,"is_disabled":false,"rental_uris":{"android":"levelo://app?vid=1d7b021f-8fb9-4177-8823-53dc0687f7b7","ios":"levelo://app?vid=1d7b021f-8fb9-4177-8823-53dc0687f7b7"},"vehicle_type_id":"4","last_reported":1691518150,"current_range_meters":0,"station_id":"ce4bgvh2rcd13ifvqcs0","pricing_plan_id":"free"},{"bike_id":"d51caeeb-6559-49b8-af88-b86b4c290f53","system_id":"levelo_inurba_marseille","lat":43.302759,"lon":5.400793,"is_reserved":false,"is_disabled":false,"rental_uris":{"android":"levelo://app?vid=d51caeeb-6559-49b8-af88-b86b4c290f53","ios":"levelo://app?vid=d51caeeb-6559-49b8-af88-b86b4c290f53"},"vehicle_type_id":"4","last_reported":1691518150,"current_range_meters":3600,"station_id":"ce4bgvh2rcd13ifvqcs0","pricing_plan_id":"free"},{"bike_id":"f9b6184a-e59b-4f44-8604-f9fb7ddb9ae5","system_id":"levelo_inurba_marseille","lat":43.290336,"lon":5.386425,"is_reserved":false,"is_disabled":false,"rental_uris":{"android":"levelo://app?vid=f9b6184a-e59b-4f44-8604-f9fb7ddb9ae5","ios":"levelo://app?vid=f9b6184a-e59b-4f44-8604-f9fb7ddb9ae5"},"vehicle_type_id":"4","last_reported":1691518150,"current_range_meters":19200,"station_id":"ce4bh4p2rcd13ifvqe0g","pricing_plan_id":"free"},{"bike_id":"0d79646e-7c95-4901-8f08-40c8507e4d90","system_id":"levelo_inurba_marseille","lat":43.290336,"lon":5.386425,"is_reserved":false,"is_disabled":false,"rental_uris":{"android":"levelo://app?vid=0d79646e-7c95-4901-8f08-40c8507e4d90","ios":"levelo://app?vid=0d79646e-7c95-4901-8f08-40c8507e4d90"},"vehicle_type_id":"4","last_reported":1691518150,"current_range_meters":13600,"station_id":"ce4bh4p2rcd13ifvqe0g","pricing_plan_id":"free"},{"bike_id":"0399cbda-9bbf-44fa-baf5-30f98217f0e7","system_id":"levelo_inurba_marseille","lat":43.302759,"lon":5.400793,"is_reserved":false,"is_disabled":false,"rental_uris":{"android":"levelo://app?vid=0399cbda-9bbf-44fa-baf5-30f98217f0e7","ios":"levelo://app?vid=0399cbda-9bbf-44fa-baf5-30f98217f0e7"},"vehicle_type_id":"4","last_reported":1691518150,"current_range_meters":24000,"station_id":"ce4bgvh2rcd13ifvqcs0","pricing_plan_id":"free"},{"bike_id":"b2ef148d-f903-4f90-9e38-9419c4c9abbd","system_id":"levelo_inurba_marseille","lat":43.28611,"lon":5.37059,"is_reserved":false,"is_disabled":false,"rental_uris":{"android":"levelo://app?vid=b2ef148d-f903-4f90-9e38-9419c4c9abbd","ios":"levelo://app?vid=b2ef148d-f903-4f90-9e38-9419c4c9abbd"},"vehicle_type_id":"4","last_reported":1691518150,"current_range_meters":25200,"station_id":"ce4bht12rcd13ifvqi60","pricing_plan_id":"free"},{"bike_id":"e2bc6384-5007-46f5-b06c-ffcc30d604bb","system_id":"levelo_inurba_marseille","lat":43.2861,"lon":5.37069,"is_reserved":false,"is_disabled":false,"rental_uris":{"android":"levelo://app?vid=e2bc6384-5007-46f5-b06c-ffcc30d604bb","ios":"levelo://app?vid=e2bc6384-5007-46f5-b06c-ffcc30d604bb"},"vehicle_type_id":"4","last_reported":1691518150,"current_range_meters":25600,"station_id":"ce4bht12rcd13ifvqi60","pricing_plan_id":"free"},{"bike_id":"f52b2a60-5f8e-4941-b2f9-ffd348bb06be","system_id":"levelo_inurba_marseille","lat":43.28608,"lon":5.37057,"is_reserved":false,"is_disabled":false,"rental_uris":{"android":"levelo://app?vid=f52b2a60-5f8e-4941-b2f9-ffd348bb06be","ios":"levelo://app?vid=f52b2a60-5f8e-4941-b2f9-ffd348bb06be"},"vehicle_type_id":"4","last_reported":1691518150,"current_range_meters":12000,"station_id":"ce4bht12rcd13ifvqi60","pricing_plan_id":"free"},{"bike_id":"5cc2c215-6ffa-4fe5-814e-a10d8b7c764a","system_id":"levelo_inurba_marseille","lat":43.286039,"lon":5.370681,"is_reserved":false,"is_disabled":false,"rental_uris":{"android":"levelo://app?vid=5cc2c215-6ffa-4fe5-814e-a10d8b7c764a","ios":"levelo://app?vid=5cc2c215-6ffa-4fe5-814e-a10d8b7c764a"},"vehicle_type_id":"4","last_reported":1691518150,"current_range_meters":10800,"station_id":"ce4bht12rcd13ifvqi60","pricing_plan_id":"free"},{"bike_id":"62b42214-fbe5-40ed-9f0e-f0c895f498bd","system_id":"levelo_inurba_marseille","lat":43.28608,"lon":5.3706,"is_reserved":false,"is_disabled":false,"rental_uris":{"android":"levelo://app?vid=62b42214-fbe5-40ed-9f0e-f0c895f498bd","ios":"levelo://app?vid=62b42214-fbe5-40ed-9f0e-f0c895f498bd"},"vehicle_type_id":"4","last_reported":1691518150,"current_range_meters":10000,"station_id":"ce4bht12rcd13ifvqi60","pricing_plan_id":"free"},{"bike_id":"96f4aaee-96ea-45ae-be0e-f2cd8c7529bb","system_id":"levelo_inurba_marseille","lat":43.28608,"lon":5.37061,"is_reserved":false,"is_disabled":false,"rental_uris":{"android":"levelo://app?vid=96f4aaee-96ea-45ae-be0e-f2cd8c7529bb","ios":"levelo://app?vid=96f4aaee-96ea-45ae-be0e-f2cd8c7529bb"},"vehicle_type_id":"4","last_reported":1691518150,"current_range_meters":19200,"station_id":"ce4bht12rcd13ifvqi60","pricing_plan_id":"free"},{"bike_id":"f73b60c3-ea6d-421b-988f-134a64a3fbac","system_id":"levelo_inurba_marseille","lat":43.28608,"lon":5.37062,"is_reserved":false,"is_disabled":false,"rental_uris":{"android":"levelo://app?vid=f73b60c3-ea6d-421b-988f-134a64a3fbac","ios":"levelo://app?vid=f73b60c3-ea6d-421b-988f-134a64a3fbac"},"vehicle_type_id":"4","last_reported":1691518150,"current_range_meters":31200,"station_id":"ce4bht12rcd13ifvqi60","pricing_plan_id":"free"},{"bike_id":"221fe85b-ea96-47ee-9922-b69a2109429d","system_id":"levelo_inurba_marseille","lat":43.28608,"lon":5.37065,"is_reserved":false,"is_disabled":false,"rental_uris":{"android":"levelo://app?vid=221fe85b-ea96-47ee-9922-b69a2109429d","ios":"levelo://app?vid=221fe85b-ea96-47ee-9922-b69a2109429d"},"vehicle_type_id":"4","last_reported":1691518150,"current_range_meters":0,"station_id":"ce4bht12rcd13ifvqi60","pricing_plan_id":"free"},{"bike_id":"f8f17a3a-3eca-4c72-99f5-8058852cc2a4","system_id":"levelo_inurba_marseille","lat":43.286039,"lon":5.370681,"is_reserved":false,"is_disabled":false,"rental_uris":{"android":"levelo://app?vid=f8f17a3a-3eca-4c72-99f5-8058852cc2a4","ios":"levelo://app?vid=f8f17a3a-3eca-4c72-99f5-8058852cc2a4"},"vehicle_type_id":"4","last_reported":1691518150,"current_range_meters":25200,"station_id":"ce4bht12rcd13ifvqi60","pricing_plan_id":"free"},{"bike_id":"a4e9e027-01c1-4d50-b0e6-52ade52af8ba","system_id":"levelo_inurba_marseille","lat":43.28607,"lon":5.37066,"is_reserved":false,"is_disabled":false,"rental_uris":{"android":"levelo://app?vid=a4e9e027-01c1-4d50-b0e6-52ade52af8ba","ios":"levelo://app?vid=a4e9e027-01c1-4d50-b0e6-52ade52af8ba"},"vehicle_type_id":"4","last_reported":1691518150,"current_range_meters":22000,"station_id":"ce4bht12rcd13ifvqi60","pricing_plan_id":"free"},{"bike_id":"ce2e1f2a-26d1-48ab-9f18-0d221b2d5791","system_id":"levelo_inurba_marseille","lat":43.28592,"lon":5.37048,"is_reserved":false,"is_disabled":false,"rental_uris":{"android":"levelo://app?vid=ce2e1f2a-26d1-48ab-9f18-0d221b2d5791","ios":"levelo://app?vid=ce2e1f2a-26d1-48ab-9f18-0d221b2d5791"},"vehicle_type_id":"4","last_reported":1691518150,"current_range_meters":16800,"station_id":"ce4bht12rcd13ifvqi60","pricing_plan_id":"free"},{"bike_id":"24f14488-8312-41e7-8b0e-bdf218b11fb5","system_id":"levelo_inurba_marseille","lat":43.287184,"lon":5.37937,"is_reserved":false,"is_disabled":false,"rental_uris":{"android":"levelo://app?vid=24f14488-8312-41e7-8b0e-bdf218b11fb5","ios":"levelo://app?vid=24f14488-8312-41e7-8b0e-bdf218b11fb5"},"vehicle_type_id":"4","last_reported":1691518150,"current_range_meters":29600,"station_id":"ce4bh9p2rcd13ifvqec0","pricing_plan_id":"free"},{"bike_id":"989159a4-6458-417b-b0a9-e0639655319a","system_id":"levelo_inurba_marseille","lat":43.287184,"lon":5.37937,"is_reserved":false,"is_disabled":false,"rental_uris":{"android":"levelo://app?vid=989159a4-6458-417b-b0a9-e0639655319a","ios":"levelo://app?vid=989159a4-6458-417b-b0a9-e0639655319a"},"vehicle_type_id":"4","last_reported":1691518150,"current_range_meters":10000,"station_id":"ce4bh9p2rcd13ifvqec0","pricing_plan_id":"free"},{"bike_id":"04914e81-08cc-4fa5-8d18-dec0ae6b25d7","system_id":"levelo_inurba_marseille","lat":43.31648,"lon":5.40435,"is_reserved":false,"is_disabled":false,"rental_uris":{"android":"levelo://app?vid=04914e81-08cc-4fa5-8d18-dec0ae6b25d7","ios":"levelo://app?vid=04914e81-08cc-4fa5-8d18-dec0ae6b25d7"},"vehicle_type_id":"4","last_reported":1691518150,"current_range_meters":19200,"station_id":"ce4bh012rcd13ifvqd00","pricing_plan_id":"free"},{"bike_id":"7db384b3-aa3d-4804-bc7f-5a607dc9cec4","system_id":"levelo_inurba_marseille","lat":43.31641,"lon":5.40437,"is_reserved":false,"is_disabled":false,"rental_uris":{"android":"levelo://app?vid=7db384b3-aa3d-4804-bc7f-5a607dc9cec4","ios":"levelo://app?vid=7db384b3-aa3d-4804-bc7f-5a607dc9cec4"},"vehicle_type_id":"4","last_reported":1691518150,"current_range_meters":0,"station_id":"ce4bh012rcd13ifvqd00","pricing_plan_id":"free"},{"bike_id":"f55c3ae5-78a4-4d23-8ddf-466dcd359d0e","system_id":"levelo_inurba_marseille","lat":43.31645,"lon":5.4044,"is_reserved":false,"is_disabled":false,"rental_uris":{"android":"levelo://app?vid=f55c3ae5-78a4-4d23-8ddf-466dcd359d0e","ios":"levelo://app?vid=f55c3ae5-78a4-4d23-8ddf-466dcd359d0e"},"vehicle_type_id":"4","last_reported":1691518150,"current_range_meters":28000,"station_id":"ce4bh012rcd13ifvqd00","pricing_plan_id":"free"},{"bike_id":"c1b9b092-5098-46e6-a77f-656f9a0069c7","system_id":"levelo_inurba_marseille","lat":43.294314,"lon":5.397498,"is_reserved":false,"is_disabled":false,"rental_uris":{"android":"levelo://app?vid=c1b9b092-5098-46e6-a77f-656f9a0069c7","ios":"levelo://app?vid=c1b9b092-5098-46e6-a77f-656f9a0069c7"},"vehicle_type_id":"4","last_reported":1691518150,"current_range_meters":14800,"station_id":"ce4bh3h2rcd13ifvqdo0","pricing_plan_id":"free"},{"bike_id":"0974e213-a74b-4770-b397-b8567f49967b","system_id":"levelo_inurba_marseille","lat":43.285856,"lon":5.350771,"is_reserved":false,"is_disabled":false,"rental_uris":{"android":"levelo://app?vid=0974e213-a74b-4770-b397-b8567f49967b","ios":"levelo://app?vid=0974e213-a74b-4770-b397-b8567f49967b"},"vehicle_type_id":"4","last_reported":1691518150,"current_range_meters":23600,"station_id":"ce4bhch2rcd13ifvqeug","pricing_plan_id":"free"},{"bike_id":"4f97d9cf-f631-4b41-800d-272fe2bb070b","system_id":"levelo_inurba_marseille","lat":43.283998,"lon":5.375062,"is_reserved":false,"is_disabled":false,"rental_uris":{"android":"levelo://app?vid=4f97d9cf-f631-4b41-800d-272fe2bb070b","ios":"levelo://app?vid=4f97d9cf-f631-4b41-800d-272fe2bb070b"},"vehicle_type_id":"4","last_reported":1691518150,"current_range_meters":7200,"station_id":"ce4bh412rcd13ifvqds0","pricing_plan_id":"free"},{"bike_id":"74869cd0-1a8c-41a1-aa85-0996725c5de1","system_id":"levelo_inurba_marseille","lat":43.284104,"lon":5.375087,"is_reserved":false,"is_disabled":false,"rental_uris":{"android":"levelo://app?vid=74869cd0-1a8c-41a1-aa85-0996725c5de1","ios":"levelo://app?vid=74869cd0-1a8c-41a1-aa85-0996725c5de1"},"vehicle_type_id":"4","last_reported":1691518150,"current_range_meters":23600,"station_id":"ce4bh412rcd13ifvqds0","pricing_plan_id":"free"},{"bike_id":"27ba3a6e-fcb3-41f3-a218-01f1bb2a8245","system_id":"levelo_inurba_marseille","lat":43.283998,"lon":5.375062,"is_reserved":false,"is_disabled":false,"rental_uris":{"android":"levelo://app?vid=27ba3a6e-fcb3-41f3-a218-01f1bb2a8245","ios":"levelo://app?vid=27ba3a6e-fcb3-41f3-a218-01f1bb2a8245"},"vehicle_type_id":"4","last_reported":1691518150,"current_range_meters":28800,"station_id":"ce4bh412rcd13ifvqds0","pricing_plan_id":"free"},{"bike_id":"86fc1af0-6c05-46ed-a754-d36aa33fe227","system_id":"levelo_inurba_marseille","lat":43.283998,"lon":5.375062,"is_reserved":false,"is_disabled":false,"rental_uris":{"android":"levelo://app?vid=86fc1af0-6c05-46ed-a754-d36aa33fe227","ios":"levelo://app?vid=86fc1af0-6c05-46ed-a754-d36aa33fe227"},"vehicle_type_id":"4","last_reported":1691518150,"current_range_meters":24800,"station_id":"ce4bh412rcd13ifvqds0","pricing_plan_id":"free"},{"bike_id":"23aa6c68-fa63-437c-a8e6-80d35b65e79f","system_id":"levelo_inurba_marseille","lat":43.283998,"lon":5.375062,"is_reserved":false,"is_disabled":false,"rental_uris":{"android":"levelo://app?vid=23aa6c68-fa63-437c-a8e6-80d35b65e79f","ios":"levelo://app?vid=23aa6c68-fa63-437c-a8e6-80d35b65e79f"},"vehicle_type_id":"4","last_reported":1691518150,"current_range_meters":29600,"station_id":"ce4bh412rcd13ifvqds0","pricing_plan_id":"free"},{"bike_id":"79d7ef4c-98bf-415f-a155-3aede6cb11b8","system_id":"levelo_inurba_marseille","lat":43.28584,"lon":5.3508,"is_reserved":false,"is_disabled":false,"rental_uris":{"android":"levelo://app?vid=79d7ef4c-98bf-415f-a155-3aede6cb11b8","ios":"levelo://app?vid=79d7ef4c-98bf-415f-a155-3aede6cb11b8"},"vehicle_type_id":"4","last_reported":1691518150,"current_range_meters":22000,"station_id":"ce4bhch2rcd13ifvqeug","pricing_plan_id":"free"},{"bike_id":"d1046bd0-b28c-43bd-96a9-79fb249a0f0c","system_id":"levelo_inurba_marseille","lat":43.283998,"lon":5.375062,"is_reserved":false,"is_disabled":false,"rental_uris":{"android":"levelo://app?vid=d1046bd0-b28c-43bd-96a9-79fb249a0f0c","ios":"levelo://app?vid=d1046bd0-b28c-43bd-96a9-79fb249a0f0c"},"vehicle_type_id":"4","last_reported":1691518150,"current_range_meters":400,"station_id":"ce4bh412rcd13ifvqds0","pricing_plan_id":"free"},{"bike_id":"bc949947-93f5-4118-85b1-a18ebca88dc6","system_id":"levelo_inurba_marseille","lat":43.286595,"lon":5.386795,"is_reserved":false,"is_disabled":false,"rental_uris":{"android":"levelo://app?vid=bc949947-93f5-4118-85b1-a18ebca88dc6","ios":"levelo://app?vid=bc949947-93f5-4118-85b1-a18ebca88dc6"},"vehicle_type_id":"4","last_reported":1691518150,"current_range_meters":4000,"station_id":"ce4bh492rcd13ifvqdug","pricing_plan_id":"free"},{"bike_id":"8ffd9567-7128-4da5-a784-2961d58d75f5","system_id":"levelo_inurba_marseille","lat":43.337168,"lon":5.391825,"is_reserved":false,"is_disabled":false,"rental_uris":{"android":"levelo://app?vid=8ffd9567-7128-4da5-a784-2961d58d75f5","ios":"levelo://app?vid=8ffd9567-7128-4da5-a784-2961d58d75f5"},"vehicle_type_id":"4","last_reported":1691518150,"current_range_meters":31200,"station_id":"ce4bhr92rcd13ifvqhsg","pricing_plan_id":"free"},{"bike_id":"baaca672-c198-461c-ba32-114a8a294884","system_id":"levelo_inurba_marseille","lat":43.33721,"lon":5.39182,"is_reserved":false,"is_disabled":false,"rental_uris":{"android":"levelo://app?vid=baaca672-c198-461c-ba32-114a8a294884","ios":"levelo://app?vid=baaca672-c198-461c-ba32-114a8a294884"},"vehicle_type_id":"4","last_reported":1691518150,"current_range_meters":29600,"station_id":"ce4bhr92rcd13ifvqhsg","pricing_plan_id":"free"},{"bike_id":"c1c36742-594e-4942-8b1b-16f98a15fa5e","system_id":"levelo_inurba_marseille","lat":43.323464,"lon":5.406297,"is_reserved":false,"is_disabled":false,"rental_uris":{"android":"levelo://app?vid=c1c36742-594e-4942-8b1b-16f98a15fa5e","ios":"levelo://app?vid=c1c36742-594e-4942-8b1b-16f98a15fa5e"},"vehicle_type_id":"4","last_reported":1691518150,"current_range_meters":31600,"station_id":"ce4bhq92rcd13ifvqhjg","pricing_plan_id":"free"},{"bike_id":"9e8e53b5-93b7-49de-a9a5-ac7e6fb1156e","system_id":"levelo_inurba_marseille","lat":43.323464,"lon":5.406297,"is_reserved":false,"is_disabled":false,"rental_uris":{"android":"levelo://app?vid=9e8e53b5-93b7-49de-a9a5-ac7e6fb1156e","ios":"levelo://app?vid=9e8e53b5-93b7-49de-a9a5-ac7e6fb1156e"},"vehicle_type_id":"4","last_reported":1691518150,"current_range_meters":31600,"station_id":"ce4bhq92rcd13ifvqhjg","pricing_plan_id":"free"},{"bike_id":"f9553fab-da8a-40f6-ac75-eac9a93c1399","system_id":"levelo_inurba_marseille","lat":43.33717,"lon":5.391857,"is_reserved":false,"is_disabled":false,"rental_uris":{"android":"levelo://app?vid=f9553fab-da8a-40f6-ac75-eac9a93c1399","ios":"levelo://app?vid=f9553fab-da8a-40f6-ac75-eac9a93c1399"},"vehicle_type_id":"4","last_reported":1691518150,"current_range_meters":20800,"station_id":"ce4bhr92rcd13ifvqhsg","pricing_plan_id":"free"},{"bike_id":"b87f01e5-33e8-4805-97b7-2d1d17bcf518","system_id":"levelo_inurba_marseille","lat":43.323464,"lon":5.406297,"is_reserved":false,"is_disabled":false,"rental_uris":{"android":"levelo://app?vid=b87f01e5-33e8-4805-97b7-2d1d17bcf518","ios":"levelo://app?vid=b87f01e5-33e8-4805-97b7-2d1d17bcf518"},"vehicle_type_id":"4","last_reported":1691518150,"current_range_meters":6800,"station_id":"ce4bhq92rcd13ifvqhjg","pricing_plan_id":"free"},{"bike_id":"93b3c431-4b8e-4a6c-aad9-d6499ab6407b","system_id":"levelo_inurba_marseille","lat":43.323464,"lon":5.406297,"is_reserved":false,"is_disabled":false,"rental_uris":{"android":"levelo://app?vid=93b3c431-4b8e-4a6c-aad9-d6499ab6407b","ios":"levelo://app?vid=93b3c431-4b8e-4a6c-aad9-d6499ab6407b"},"vehicle_type_id":"4","last_reported":1691518150,"current_range_meters":31600,"station_id":"ce4bhq92rcd13ifvqhjg","pricing_plan_id":"free"},{"bike_id":"4e4c076c-5e9e-4892-8ee0-387ffc04227f","system_id":"levelo_inurba_marseille","lat":43.323464,"lon":5.406297,"is_reserved":false,"is_disabled":false,"rental_uris":{"android":"levelo://app?vid=4e4c076c-5e9e-4892-8ee0-387ffc04227f","ios":"levelo://app?vid=4e4c076c-5e9e-4892-8ee0-387ffc04227f"},"vehicle_type_id":"4","last_reported":1691518150,"current_range_meters":12800,"station_id":"ce4bhq92rcd13ifvqhjg","pricing_plan_id":"free"},{"bike_id":"b1a8d3df-9052-4a1b-9a68-5b1f5da99dc3","system_id":"levelo_inurba_marseille","lat":43.323464,"lon":5.406297,"is_reserved":false,"is_disabled":false,"rental_uris":{"android":"levelo://app?vid=b1a8d3df-9052-4a1b-9a68-5b1f5da99dc3","ios":"levelo://app?vid=b1a8d3df-9052-4a1b-9a68-5b1f5da99dc3"},"vehicle_type_id":"4","last_reported":1691518150,"current_range_meters":12400,"station_id":"ce4bhq92rcd13ifvqhjg","pricing_plan_id":"free"},{"bike_id":"10820071-ecab-4179-ab57-f48db141c6cd","system_id":"levelo_inurba_marseille","lat":43.288497,"lon":5.393089,"is_reserved":false,"is_disabled":false,"rental_uris":{"android":"levelo://app?vid=10820071-ecab-4179-ab57-f48db141c6cd","ios":"levelo://app?vid=10820071-ecab-4179-ab57-f48db141c6cd"},"vehicle_type_id":"4","last_reported":1691518150,"current_range_meters":21200,"station_id":"ce4bh2p2rcd13ifvqdi0","pricing_plan_id":"free"},{"bike_id":"31ce2699-3a85-4e49-89b5-ba768fcd9e90","system_id":"levelo_inurba_marseille","lat":43.29795,"lon":5.40406,"is_reserved":false,"is_disabled":false,"rental_uris":{"android":"levelo://app?vid=31ce2699-3a85-4e49-89b5-ba768fcd9e90","ios":"levelo://app?vid=31ce2699-3a85-4e49-89b5-ba768fcd9e90"},"vehicle_type_id":"4","last_reported":1691518150,"current_range_meters":12800,"station_id":"","pricing_plan_id":"free"},{"bike_id":"2938f651-4805-4de8-973a-2db55563dd7d","system_id":"levelo_inurba_marseille","lat":43.283494,"lon":5.380945,"is_reserved":false,"is_disabled":false,"rental_uris":{"android":"levelo://app?vid=2938f651-4805-4de8-973a-2db55563dd7d","ios":"levelo://app?vid=2938f651-4805-4de8-973a-2db55563dd7d"},"vehicle_type_id":"4","last_reported":1691518150,"current_range_meters":7200,"station_id":"ce4bh412rcd13ifvqdr0","pricing_plan_id":"free"},{"bike_id":"bcf9d546-9894-464e-8202-c29d6b5fb637","system_id":"levelo_inurba_marseille","lat":43.28423,"lon":5.34991,"is_reserved":false,"is_disabled":false,"rental_uris":{"android":"levelo://app?vid=bcf9d546-9894-464e-8202-c29d6b5fb637","ios":"levelo://app?vid=bcf9d546-9894-464e-8202-c29d6b5fb637"},"vehicle_type_id":"4","last_reported":1691518150,"current_range_meters":400,"station_id":"ce4bhbh2rcd13ifvqepg","pricing_plan_id":"free"},{"bike_id":"b306403d-eb1e-4918-b735-4cfe30afb23b","system_id":"levelo_inurba_marseille","lat":43.25102,"lon":5.403214,"is_reserved":false,"is_disabled":false,"rental_uris":{"android":"levelo://app?vid=b306403d-eb1e-4918-b735-4cfe30afb23b","ios":"levelo://app?vid=b306403d-eb1e-4918-b735-4cfe30afb23b"},"vehicle_type_id":"4","last_reported":1691518150,"current_range_meters":22000,"station_id":"ce4bhlh2rcd13ifvqgig","pricing_plan_id":"free"},{"bike_id":"e707dc85-e4ca-4d03-bd87-1edc0376b25f","system_id":"levelo_inurba_marseille","lat":43.283502,"lon":5.386471,"is_reserved":false,"is_disabled":false,"rental_uris":{"android":"levelo://app?vid=e707dc85-e4ca-4d03-bd87-1edc0376b25f","ios":"levelo://app?vid=e707dc85-e4ca-4d03-bd87-1edc0376b25f"},"vehicle_type_id":"4","last_reported":1691518150,"current_range_meters":5600,"station_id":"ce4bh492rcd13ifvqdvg","pricing_plan_id":"free"},{"bike_id":"88940920-727e-47f8-bee6-24feedff1167","system_id":"levelo_inurba_marseille","lat":43.28264,"lon":5.35072,"is_reserved":false,"is_disabled":false,"rental_uris":{"android":"levelo://app?vid=88940920-727e-47f8-bee6-24feedff1167","ios":"levelo://app?vid=88940920-727e-47f8-bee6-24feedff1167"},"vehicle_type_id":"4","last_reported":1691518150,"current_range_meters":31600,"station_id":"ce4bhbp2rcd13ifvqerg","pricing_plan_id":"free"},{"bike_id":"67a46c69-c8ac-46d2-9d37-3cbe0b72861f","system_id":"levelo_inurba_marseille","lat":43.282744,"lon":5.350533,"is_reserved":false,"is_disabled":false,"rental_uris":{"android":"levelo://app?vid=67a46c69-c8ac-46d2-9d37-3cbe0b72861f","ios":"levelo://app?vid=67a46c69-c8ac-46d2-9d37-3cbe0b72861f"},"vehicle_type_id":"4","last_reported":1691518150,"current_range_meters":0,"station_id":"ce4bhbp2rcd13ifvqerg","pricing_plan_id":"free"},{"bike_id":"1c5c1779-82a9-4caf-b6b9-44c129877803","system_id":"levelo_inurba_marseille","lat":43.28039,"lon":5.369297,"is_reserved":false,"is_disabled":false,"rental_uris":{"android":"levelo://app?vid=1c5c1779-82a9-4caf-b6b9-44c129877803","ios":"levelo://app?vid=1c5c1779-82a9-4caf-b6b9-44c129877803"},"vehicle_type_id":"4","last_reported":1691518150,"current_range_meters":26800,"station_id":"ce4bha12rcd13ifvqef0","pricing_plan_id":"free"},{"bike_id":"9261ea96-0ba8-414f-b5a3-8a0eb609f47f","system_id":"levelo_inurba_marseille","lat":43.283502,"lon":5.386471,"is_reserved":false,"is_disabled":false,"rental_uris":{"android":"levelo://app?vid=9261ea96-0ba8-414f-b5a3-8a0eb609f47f","ios":"levelo://app?vid=9261ea96-0ba8-414f-b5a3-8a0eb609f47f"},"vehicle_type_id":"4","last_reported":1691518150,"current_range_meters":23200,"station_id":"ce4bh492rcd13ifvqdvg","pricing_plan_id":"free"},{"bike_id":"3b51d90e-d882-4ae3-9d6e-bc01560cb7c0","system_id":"levelo_inurba_marseille","lat":43.283502,"lon":5.386471,"is_reserved":false,"is_disabled":false,"rental_uris":{"android":"levelo://app?vid=3b51d90e-d882-4ae3-9d6e-bc01560cb7c0","ios":"levelo://app?vid=3b51d90e-d882-4ae3-9d6e-bc01560cb7c0"},"vehicle_type_id":"4","last_reported":1691518150,"current_range_meters":800,"station_id":"ce4bh492rcd13ifvqdvg","pricing_plan_id":"free"},{"bike_id":"9476c07e-65d4-41aa-9d21-8347e8b0100d","system_id":"levelo_inurba_marseille","lat":43.28039,"lon":5.369297,"is_reserved":false,"is_disabled":false,"rental_uris":{"android":"levelo://app?vid=9476c07e-65d4-41aa-9d21-8347e8b0100d","ios":"levelo://app?vid=9476c07e-65d4-41aa-9d21-8347e8b0100d"},"vehicle_type_id":"4","last_reported":1691518150,"current_range_meters":21200,"station_id":"ce4bha12rcd13ifvqef0","pricing_plan_id":"free"},{"bike_id":"709ca730-9796-4717-8064-91f4524ba7d7","system_id":"levelo_inurba_marseille","lat":43.281044,"lon":5.378308,"is_reserved":false,"is_disabled":false,"rental_uris":{"android":"levelo://app?vid=709ca730-9796-4717-8064-91f4524ba7d7","ios":"levelo://app?vid=709ca730-9796-4717-8064-91f4524ba7d7"},"vehicle_type_id":"4","last_reported":1691518150,"current_range_meters":23200,"station_id":"ce4bha12rcd13ifvqee0","pricing_plan_id":"free"},{"bike_id":"49288aef-ccff-4c47-98d6-7305c0d60dfe","system_id":"levelo_inurba_marseille","lat":43.281044,"lon":5.378308,"is_reserved":false,"is_disabled":false,"rental_uris":{"android":"levelo://app?vid=49288aef-ccff-4c47-98d6-7305c0d60dfe","ios":"levelo://app?vid=49288aef-ccff-4c47-98d6-7305c0d60dfe"},"vehicle_type_id":"4","last_reported":1691518150,"current_range_meters":26800,"station_id":"ce4bha12rcd13ifvqee0","pricing_plan_id":"free"},{"bike_id":"c00f7379-6dfd-4a1d-867b-9f7c012ca089","system_id":"levelo_inurba_marseille","lat":43.280382,"lon":5.369291,"is_reserved":false,"is_disabled":false,"rental_uris":{"android":"levelo://app?vid=c00f7379-6dfd-4a1d-867b-9f7c012ca089","ios":"levelo://app?vid=c00f7379-6dfd-4a1d-867b-9f7c012ca089"},"vehicle_type_id":"4","last_reported":1691518150,"current_range_meters":7600,"station_id":"ce4bha12rcd13ifvqef0","pricing_plan_id":"free"},{"bike_id":"4553cfd9-5846-414c-b5ba-7f2ff8a3feeb","system_id":"levelo_inurba_marseille","lat":43.281044,"lon":5.378308,"is_reserved":false,"is_disabled":false,"rental_uris":{"android":"levelo://app?vid=4553cfd9-5846-414c-b5ba-7f2ff8a3feeb","ios":"levelo://app?vid=4553cfd9-5846-414c-b5ba-7f2ff8a3feeb"},"vehicle_type_id":"4","last_reported":1691518150,"current_range_meters":18000,"station_id":"ce4bha12rcd13ifvqee0","pricing_plan_id":"free"},{"bike_id":"c1363166-6e7a-4f25-b432-e7df9753a36a","system_id":"levelo_inurba_marseille","lat":43.296263,"lon":5.40601,"is_reserved":false,"is_disabled":false,"rental_uris":{"android":"levelo://app?vid=c1363166-6e7a-4f25-b432-e7df9753a36a","ios":"levelo://app?vid=c1363166-6e7a-4f25-b432-e7df9753a36a"},"vehicle_type_id":"4","last_reported":1691518150,"current_range_meters":20400,"station_id":"ce4bh0h2rcd13ifvqd60","pricing_plan_id":"free"},{"bike_id":"e3faf6c6-5cda-44c6-a542-999e9cfaf8a6","system_id":"levelo_inurba_marseille","lat":43.3256,"lon":5.40872,"is_reserved":false,"is_disabled":false,"rental_uris":{"android":"levelo://app?vid=e3faf6c6-5cda-44c6-a542-999e9cfaf8a6","ios":"levelo://app?vid=e3faf6c6-5cda-44c6-a542-999e9cfaf8a6"},"vehicle_type_id":"4","last_reported":1691518150,"current_range_meters":30800,"station_id":"","pricing_plan_id":"free"},{"bike_id":"7d6bfb46-05b5-41ca-959c-fbab5ec95888","system_id":"levelo_inurba_marseille","lat":43.32403,"lon":5.40984,"is_reserved":false,"is_disabled":false,"rental_uris":{"android":"levelo://app?vid=7d6bfb46-05b5-41ca-959c-fbab5ec95888","ios":"levelo://app?vid=7d6bfb46-05b5-41ca-959c-fbab5ec95888"},"vehicle_type_id":"4","last_reported":1691518150,"current_range_meters":22400,"station_id":"","pricing_plan_id":"free"},{"bike_id":"b2d03303-d257-4e2b-b76b-9e58fccd9b4d","system_id":"levelo_inurba_marseille","lat":43.32632,"lon":5.40936,"is_reserved":false,"is_disabled":false,"rental_uris":{"android":"levelo://app?vid=b2d03303-d257-4e2b-b76b-9e58fccd9b4d","ios":"levelo://app?vid=b2d03303-d257-4e2b-b76b-9e58fccd9b4d"},"vehicle_type_id":"4","last_reported":1691518150,"current_range_meters":5600,"station_id":"","pricing_plan_id":"free"},{"bike_id":"d5632532-2275-487f-9ccf-e1d790a0ee98","system_id":"levelo_inurba_marseille","lat":43.285742,"lon":5.395004,"is_reserved":false,"is_disabled":false,"rental_uris":{"android":"levelo://app?vid=d5632532-2275-487f-9ccf-e1d790a0ee98","ios":"levelo://app?vid=d5632532-2275-487f-9ccf-e1d790a0ee98"},"vehicle_type_id":"4","last_reported":1691518150,"current_range_meters":7200,"station_id":"ce4bh292rcd13ifvqdg0","pricing_plan_id":"free"},{"bike_id":"4b1132a8-2b8a-4232-b29c-69aaa60f6985","system_id":"levelo_inurba_marseille","lat":43.28573,"lon":5.394992,"is_reserved":false,"is_disabled":false,"rental_uris":{"android":"levelo://app?vid=4b1132a8-2b8a-4232-b29c-69aaa60f6985","ios":"levelo://app?vid=4b1132a8-2b8a-4232-b29c-69aaa60f6985"},"vehicle_type_id":"4","last_reported":1691518150,"current_range_meters":20400,"station_id":"ce4bh292rcd13ifvqdg0","pricing_plan_id":"free"},{"bike_id":"9db3630a-6a04-4776-b641-42dbb1d98fec","system_id":"levelo_inurba_marseille","lat":43.32653,"lon":5.40994,"is_reserved":false,"is_disabled":false,"rental_uris":{"android":"levelo://app?vid=9db3630a-6a04-4776-b641-42dbb1d98fec","ios":"levelo://app?vid=9db3630a-6a04-4776-b641-42dbb1d98fec"},"vehicle_type_id":"4","last_reported":1691518150,"current_range_meters":6400,"station_id":"ce4bhpp2rcd13ifvqhgg","pricing_plan_id":"free"},{"bike_id":"d9804539-8c9f-44b0-93c0-8bddafecf72c","system_id":"levelo_inurba_marseille","lat":43.32657,"lon":5.40994,"is_reserved":false,"is_disabled":false,"rental_uris":{"android":"levelo://app?vid=d9804539-8c9f-44b0-93c0-8bddafecf72c","ios":"levelo://app?vid=d9804539-8c9f-44b0-93c0-8bddafecf72c"},"vehicle_type_id":"4","last_reported":1691518150,"current_range_meters":16800,"station_id":"ce4bhpp2rcd13ifvqhgg","pricing_plan_id":"free"},{"bike_id":"4f95a1b1-c837-4ead-89fb-68aa181c62ec","system_id":"levelo_inurba_marseille","lat":43.304188,"lon":5.412904,"is_reserved":false,"is_disabled":false,"rental_uris":{"android":"levelo://app?vid=4f95a1b1-c837-4ead-89fb-68aa181c62ec","ios":"levelo://app?vid=4f95a1b1-c837-4ead-89fb-68aa181c62ec"},"vehicle_type_id":"4","last_reported":1691518150,"current_range_meters":5600,"station_id":"ce4bhop2rcd13ifvqh8g","pricing_plan_id":"free"},{"bike_id":"64603ed3-021f-4737-9974-58de4649dd76","system_id":"levelo_inurba_marseille","lat":43.304188,"lon":5.412904,"is_reserved":false,"is_disabled":false,"rental_uris":{"android":"levelo://app?vid=64603ed3-021f-4737-9974-58de4649dd76","ios":"levelo://app?vid=64603ed3-021f-4737-9974-58de4649dd76"},"vehicle_type_id":"4","last_reported":1691518150,"current_range_meters":5600,"station_id":"ce4bhop2rcd13ifvqh8g","pricing_plan_id":"free"},{"bike_id":"14d7d1f6-86ba-4ff7-8173-ec354dc2dc07","system_id":"levelo_inurba_marseille","lat":43.279087,"lon":5.380114,"is_reserved":false,"is_disabled":false,"rental_uris":{"android":"levelo://app?vid=14d7d1f6-86ba-4ff7-8173-ec354dc2dc07","ios":"levelo://app?vid=14d7d1f6-86ba-4ff7-8173-ec354dc2dc07"},"vehicle_type_id":"4","last_reported":1691518150,"current_range_meters":30400,"station_id":"ce4bhf92rcd13ifvqf50","pricing_plan_id":"free"},{"bike_id":"2b49ddc5-41f3-4d35-93c2-48aeee3521ac","system_id":"levelo_inurba_marseille","lat":43.27894,"lon":5.38003,"is_reserved":false,"is_disabled":false,"rental_uris":{"android":"levelo://app?vid=2b49ddc5-41f3-4d35-93c2-48aeee3521ac","ios":"levelo://app?vid=2b49ddc5-41f3-4d35-93c2-48aeee3521ac"},"vehicle_type_id":"4","last_reported":1691518150,"current_range_meters":31200,"station_id":"","pricing_plan_id":"free"},{"bike_id":"b8962d16-c0d7-42cf-90d4-4f1083550d27","system_id":"levelo_inurba_marseille","lat":43.32899,"lon":5.41007,"is_reserved":false,"is_disabled":false,"rental_uris":{"android":"levelo://app?vid=b8962d16-c0d7-42cf-90d4-4f1083550d27","ios":"levelo://app?vid=b8962d16-c0d7-42cf-90d4-4f1083550d27"},"vehicle_type_id":"4","last_reported":1691518150,"current_range_meters":25200,"station_id":"","pricing_plan_id":"free"},{"bike_id":"0e57e671-897a-4275-be06-9242d0f94014","system_id":"levelo_inurba_marseille","lat":43.34724,"lon":5.35544,"is_reserved":false,"is_disabled":false,"rental_uris":{"android":"levelo://app?vid=0e57e671-897a-4275-be06-9242d0f94014","ios":"levelo://app?vid=0e57e671-897a-4275-be06-9242d0f94014"},"vehicle_type_id":"4","last_reported":1691518150,"current_range_meters":16800,"station_id":"","pricing_plan_id":"free"},{"bike_id":"c93a6dfc-42ce-4aa2-a781-46aaba50b793","system_id":"levelo_inurba_marseille","lat":43.299579,"lon":5.413255,"is_reserved":false,"is_disabled":false,"rental_uris":{"android":"levelo://app?vid=c93a6dfc-42ce-4aa2-a781-46aaba50b793","ios":"levelo://app?vid=c93a6dfc-42ce-4aa2-a781-46aaba50b793"},"vehicle_type_id":"4","last_reported":1691518150,"current_range_meters":24800,"station_id":"ce4bhp12rcd13ifvqh9g","pricing_plan_id":"free"},{"bike_id":"08985b65-d741-44ec-86dd-75ecc21ae0e1","system_id":"levelo_inurba_marseille","lat":43.320045,"lon":5.415048,"is_reserved":false,"is_disabled":false,"rental_uris":{"android":"levelo://app?vid=08985b65-d741-44ec-86dd-75ecc21ae0e1","ios":"levelo://app?vid=08985b65-d741-44ec-86dd-75ecc21ae0e1"},"vehicle_type_id":"4","last_reported":1691518150,"current_range_meters":17200,"station_id":"ce4bhq92rcd13ifvqhkg","pricing_plan_id":"free"},{"bike_id":"82ccaae9-dd1d-428f-8a28-176dee6695ed","system_id":"levelo_inurba_marseille","lat":43.299579,"lon":5.413255,"is_reserved":false,"is_disabled":false,"rental_uris":{"android":"levelo://app?vid=82ccaae9-dd1d-428f-8a28-176dee6695ed","ios":"levelo://app?vid=82ccaae9-dd1d-428f-8a28-176dee6695ed"},"vehicle_type_id":"4","last_reported":1691518150,"current_range_meters":31200,"station_id":"ce4bhp12rcd13ifvqh9g","pricing_plan_id":"free"},{"bike_id":"cf7b6e60-8d92-49eb-ace8-1f1a3f7fc342","system_id":"levelo_inurba_marseille","lat":43.320045,"lon":5.415046,"is_reserved":false,"is_disabled":false,"rental_uris":{"android":"levelo://app?vid=cf7b6e60-8d92-49eb-ace8-1f1a3f7fc342","ios":"levelo://app?vid=cf7b6e60-8d92-49eb-ace8-1f1a3f7fc342"},"vehicle_type_id":"4","last_reported":1691518150,"current_range_meters":20400,"station_id":"ce4bhq92rcd13ifvqhkg","pricing_plan_id":"free"},{"bike_id":"1afe7444-e391-498c-9510-de97b211f946","system_id":"levelo_inurba_marseille","lat":43.320045,"lon":5.415046,"is_reserved":false,"is_disabled":false,"rental_uris":{"android":"levelo://app?vid=1afe7444-e391-498c-9510-de97b211f946","ios":"levelo://app?vid=1afe7444-e391-498c-9510-de97b211f946"},"vehicle_type_id":"4","last_reported":1691518150,"current_range_meters":31600,"station_id":"ce4bhq92rcd13ifvqhkg","pricing_plan_id":"free"},{"bike_id":"0a83980b-4886-453e-ac53-cd8f1c5efebc","system_id":"levelo_inurba_marseille","lat":43.320045,"lon":5.415046,"is_reserved":false,"is_disabled":false,"rental_uris":{"android":"levelo://app?vid=0a83980b-4886-453e-ac53-cd8f1c5efebc","ios":"levelo://app?vid=0a83980b-4886-453e-ac53-cd8f1c5efebc"},"vehicle_type_id":"4","last_reported":1691518150,"current_range_meters":31200,"station_id":"ce4bhq92rcd13ifvqhkg","pricing_plan_id":"free"},{"bike_id":"8de29e1a-72eb-4334-9bb5-edb68d79e464","system_id":"levelo_inurba_marseille","lat":43.320045,"lon":5.415048,"is_reserved":false,"is_disabled":false,"rental_uris":{"android":"levelo://app?vid=8de29e1a-72eb-4334-9bb5-edb68d79e464","ios":"levelo://app?vid=8de29e1a-72eb-4334-9bb5-edb68d79e464"},"vehicle_type_id":"4","last_reported":1691518150,"current_range_meters":31600,"station_id":"ce4bhq92rcd13ifvqhkg","pricing_plan_id":"free"},{"bike_id":"9abec9d1-b038-4963-b425-0bf6ce24c250","system_id":"levelo_inurba_marseille","lat":43.299579,"lon":5.413255,"is_reserved":false,"is_disabled":false,"rental_uris":{"android":"levelo://app?vid=9abec9d1-b038-4963-b425-0bf6ce24c250","ios":"levelo://app?vid=9abec9d1-b038-4963-b425-0bf6ce24c250"},"vehicle_type_id":"4","last_reported":1691518150,"current_range_meters":27200,"station_id":"ce4bhp12rcd13ifvqh9g","pricing_plan_id":"free"},{"bike_id":"31824802-6ed4-43c6-8f18-5734025901ca","system_id":"levelo_inurba_marseille","lat":43.320045,"lon":5.415046,"is_reserved":false,"is_disabled":false,"rental_uris":{"android":"levelo://app?vid=31824802-6ed4-43c6-8f18-5734025901ca","ios":"levelo://app?vid=31824802-6ed4-43c6-8f18-5734025901ca"},"vehicle_type_id":"4","last_reported":1691518150,"current_range_meters":31200,"station_id":"ce4bhq92rcd13ifvqhkg","pricing_plan_id":"free"},{"bike_id":"f8e33655-9cf8-481d-b9fa-03252f4ce2fe","system_id":"levelo_inurba_marseille","lat":43.320045,"lon":5.415046,"is_reserved":false,"is_disabled":false,"rental_uris":{"android":"levelo://app?vid=f8e33655-9cf8-481d-b9fa-03252f4ce2fe","ios":"levelo://app?vid=f8e33655-9cf8-481d-b9fa-03252f4ce2fe"},"vehicle_type_id":"4","last_reported":1691518150,"current_range_meters":31200,"station_id":"ce4bhq92rcd13ifvqhkg","pricing_plan_id":"free"},{"bike_id":"d7e1a075-98b7-459b-9532-ac11b408922f","system_id":"levelo_inurba_marseille","lat":43.320045,"lon":5.415048,"is_reserved":false,"is_disabled":false,"rental_uris":{"android":"levelo://app?vid=d7e1a075-98b7-459b-9532-ac11b408922f","ios":"levelo://app?vid=d7e1a075-98b7-459b-9532-ac11b408922f"},"vehicle_type_id":"4","last_reported":1691518150,"current_range_meters":19600,"station_id":"ce4bhq92rcd13ifvqhkg","pricing_plan_id":"free"},{"bike_id":"1d1ef3b7-0843-4f32-940d-053eb927846d","system_id":"levelo_inurba_marseille","lat":43.3203,"lon":5.41565,"is_reserved":false,"is_disabled":false,"rental_uris":{"android":"levelo://app?vid=1d1ef3b7-0843-4f32-940d-053eb927846d","ios":"levelo://app?vid=1d1ef3b7-0843-4f32-940d-053eb927846d"},"vehicle_type_id":"4","last_reported":1691518150,"current_range_meters":23600,"station_id":"ce4bhq92rcd13ifvqhkg","pricing_plan_id":"free"},{"bike_id":"66d11412-ccd2-4130-88b1-a8871447c9b6","system_id":"levelo_inurba_marseille","lat":43.320045,"lon":5.415046,"is_reserved":false,"is_disabled":false,"rental_uris":{"android":"levelo://app?vid=66d11412-ccd2-4130-88b1-a8871447c9b6","ios":"levelo://app?vid=66d11412-ccd2-4130-88b1-a8871447c9b6"},"vehicle_type_id":"4","last_reported":1691518150,"current_range_meters":11600,"station_id":"ce4bhq92rcd13ifvqhkg","pricing_plan_id":"free"},{"bike_id":"c327718a-8fe6-4791-a349-aba0f8f94e82","system_id":"levelo_inurba_marseille","lat":43.279742,"lon":5.38744,"is_reserved":false,"is_disabled":false,"rental_uris":{"android":"levelo://app?vid=c327718a-8fe6-4791-a349-aba0f8f94e82","ios":"levelo://app?vid=c327718a-8fe6-4791-a349-aba0f8f94e82"},"vehicle_type_id":"4","last_reported":1691518150,"current_range_meters":30400,"station_id":"ce4bhg12rcd13ifvqf80","pricing_plan_id":"free"},{"bike_id":"338ed285-780a-49fa-a044-e36bb22f3bf9","system_id":"levelo_inurba_marseille","lat":43.320045,"lon":5.415048,"is_reserved":false,"is_disabled":false,"rental_uris":{"android":"levelo://app?vid=338ed285-780a-49fa-a044-e36bb22f3bf9","ios":"levelo://app?vid=338ed285-780a-49fa-a044-e36bb22f3bf9"},"vehicle_type_id":"4","last_reported":1691518150,"current_range_meters":5600,"station_id":"ce4bhq92rcd13ifvqhkg","pricing_plan_id":"free"},{"bike_id":"dba34ac7-89ce-4761-8934-5662952500ca","system_id":"levelo_inurba_marseille","lat":43.292569,"lon":5.409107,"is_reserved":false,"is_disabled":false,"rental_uris":{"android":"levelo://app?vid=dba34ac7-89ce-4761-8934-5662952500ca","ios":"levelo://app?vid=dba34ac7-89ce-4761-8934-5662952500ca"},"vehicle_type_id":"4","last_reported":1691518150,"current_range_meters":18000,"station_id":"ce4bh192rcd13ifvqdc0","pricing_plan_id":"free"},{"bike_id":"02a1b42b-bba9-43a1-aaec-018297b016f3","system_id":"levelo_inurba_marseille","lat":43.29256,"lon":5.4091,"is_reserved":false,"is_disabled":false,"rental_uris":{"android":"levelo://app?vid=02a1b42b-bba9-43a1-aaec-018297b016f3","ios":"levelo://app?vid=02a1b42b-bba9-43a1-aaec-018297b016f3"},"vehicle_type_id":"4","last_reported":1691518150,"current_range_meters":18800,"station_id":"ce4bh192rcd13ifvqdc0","pricing_plan_id":"free"},{"bike_id":"4efc2b6d-b4e4-4cc8-85cd-47e0a260bcad","system_id":"levelo_inurba_marseille","lat":43.27623,"lon":5.36112,"is_reserved":false,"is_disabled":false,"rental_uris":{"android":"levelo://app?vid=4efc2b6d-b4e4-4cc8-85cd-47e0a260bcad","ios":"levelo://app?vid=4efc2b6d-b4e4-4cc8-85cd-47e0a260bcad"},"vehicle_type_id":"4","last_reported":1691518150,"current_range_meters":23200,"station_id":"ce4bgj92rcd13ifvqbe0","pricing_plan_id":"free"},{"bike_id":"7b169739-217e-4a92-88da-061aacf3ea16","system_id":"levelo_inurba_marseille","lat":43.2762,"lon":5.36104,"is_reserved":false,"is_disabled":false,"rental_uris":{"android":"levelo://app?vid=7b169739-217e-4a92-88da-061aacf3ea16","ios":"levelo://app?vid=7b169739-217e-4a92-88da-061aacf3ea16"},"vehicle_type_id":"4","last_reported":1691518150,"current_range_meters":12800,"station_id":"ce4bgj92rcd13ifvqbe0","pricing_plan_id":"free"},{"bike_id":"b9546be1-4385-4612-a593-5112f9b83428","system_id":"levelo_inurba_marseille","lat":43.276189,"lon":5.361103,"is_reserved":false,"is_disabled":false,"rental_uris":{"android":"levelo://app?vid=b9546be1-4385-4612-a593-5112f9b83428","ios":"levelo://app?vid=b9546be1-4385-4612-a593-5112f9b83428"},"vehicle_type_id":"4","last_reported":1691518150,"current_range_meters":8000,"station_id":"ce4bgj92rcd13ifvqbe0","pricing_plan_id":"free"},{"bike_id":"7498b943-9680-464a-b1f4-99466586cfb5","system_id":"levelo_inurba_marseille","lat":43.292569,"lon":5.409107,"is_reserved":false,"is_disabled":false,"rental_uris":{"android":"levelo://app?vid=7498b943-9680-464a-b1f4-99466586cfb5","ios":"levelo://app?vid=7498b943-9680-464a-b1f4-99466586cfb5"},"vehicle_type_id":"4","last_reported":1691518150,"current_range_meters":1200,"station_id":"ce4bh192rcd13ifvqdc0","pricing_plan_id":"free"},{"bike_id":"386ed8e3-b71e-4f68-86af-202c5b76503e","system_id":"levelo_inurba_marseille","lat":43.276179,"lon":5.361009,"is_reserved":false,"is_disabled":false,"rental_uris":{"android":"levelo://app?vid=386ed8e3-b71e-4f68-86af-202c5b76503e","ios":"levelo://app?vid=386ed8e3-b71e-4f68-86af-202c5b76503e"},"vehicle_type_id":"4","last_reported":1691518150,"current_range_meters":18000,"station_id":"ce4bgj92rcd13ifvqbe0","pricing_plan_id":"free"},{"bike_id":"9fe9175b-77da-48a1-b712-0e2285c03c0a","system_id":"levelo_inurba_marseille","lat":43.325233,"lon":5.414318,"is_reserved":false,"is_disabled":false,"rental_uris":{"android":"levelo://app?vid=9fe9175b-77da-48a1-b712-0e2285c03c0a","ios":"levelo://app?vid=9fe9175b-77da-48a1-b712-0e2285c03c0a"},"vehicle_type_id":"4","last_reported":1691518150,"current_range_meters":31200,"station_id":"ce4bhq12rcd13ifvqhhg","pricing_plan_id":"free"},{"bike_id":"d09947a7-6a4a-4d74-ac31-9035b8e8ec17","system_id":"levelo_inurba_marseille","lat":43.303837,"lon":5.418724,"is_reserved":false,"is_disabled":false,"rental_uris":{"android":"levelo://app?vid=d09947a7-6a4a-4d74-ac31-9035b8e8ec17","ios":"levelo://app?vid=d09947a7-6a4a-4d74-ac31-9035b8e8ec17"},"vehicle_type_id":"4","last_reported":1691518150,"current_range_meters":30800,"station_id":"ce4bhop2rcd13ifvqh7g","pricing_plan_id":"free"},{"bike_id":"ab3c1128-e228-48bb-814c-1c85e19cc513","system_id":"levelo_inurba_marseille","lat":43.303837,"lon":5.418724,"is_reserved":false,"is_disabled":false,"rental_uris":{"android":"levelo://app?vid=ab3c1128-e228-48bb-814c-1c85e19cc513","ios":"levelo://app?vid=ab3c1128-e228-48bb-814c-1c85e19cc513"},"vehicle_type_id":"4","last_reported":1691518150,"current_range_meters":30400,"station_id":"ce4bhop2rcd13ifvqh7g","pricing_plan_id":"free"},{"bike_id":"827d9362-aa85-43db-b640-61aa350a95af","system_id":"levelo_inurba_marseille","lat":43.278258,"lon":5.391982,"is_reserved":false,"is_disabled":false,"rental_uris":{"android":"levelo://app?vid=827d9362-aa85-43db-b640-61aa350a95af","ios":"levelo://app?vid=827d9362-aa85-43db-b640-61aa350a95af"},"vehicle_type_id":"4","last_reported":1691518150,"current_range_meters":1600,"station_id":"ce4bhjp2rcd13ifvqga0","pricing_plan_id":"free"},{"bike_id":"d634ae40-0160-431d-ac3c-40e5fda044ca","system_id":"levelo_inurba_marseille","lat":43.273613,"lon":5.362705,"is_reserved":false,"is_disabled":false,"rental_uris":{"android":"levelo://app?vid=d634ae40-0160-431d-ac3c-40e5fda044ca","ios":"levelo://app?vid=d634ae40-0160-431d-ac3c-40e5fda044ca"},"vehicle_type_id":"4","last_reported":1691518150,"current_range_meters":16800,"station_id":"ce4bhbh2rcd13ifvqeo0","pricing_plan_id":"free"},