{"last_updated":1770835757,"ttl":60,"version":"2.2","data":{"bikes":[{"bike_id":"04a4cc8e-3be4-4e18-a6c7-3f4bb67f977c","system_id":"levelo_inurba_marseille","lat":43.27375,"lon":5.36261,"is_reserved":false,"is_disabled":false,"rental_uris":{"android":"levelo://app?vid=04a4cc8e-3be4-4e18-a6c7-3f4bb67f977c","ios":"levelo://app?vid=04a4cc8e-3be4-4e18-a6c7-3f4bb67f977c"},"vehicle_type_id":"4","last_reported":1770835758,"current_range_meters":2800,"station_id":"ce4bhbh2rcd13ifvqeo0","pricing_plan_id":"cebpf4jnsgd1na2vs0mg"},{"bike_id":"0bb9d811-86a9-4503-b42a-638a7da45a8b","system_id":"levelo_inurba_marseille","lat":43.28977,"lon":5.37823,"is_reserved":false,"is_disabled":false,"rental_uris":{"android":"levelo://app?vid=0bb9d811-86a9-4503-b42a-638a7da45a8b","ios":"levelo://app?vid=0bb9d811-86a9-4503-b42a-638a7da45a8b"},"vehicle_type_id":"4","last_reported":1770835758,"current_range_meters":2800,"station_id":"ce4bh9p2rcd13ifvqed0","pricing_plan_id":"cebpf4jnsgd1na2vs0mg"},{"bike_id":"efd9d7ca-4b84-4ff5-876b-900e16175b1d","system_id":"levelo_inurba_marseille","lat":43.26196,"lon":5.37437,"is_reserved":false,"is_disabled":false,"rental_uris":{"android":"levelo://app?vid=efd9d7ca-4b84-4ff5-876b-900e16175b1d","ios":"levelo://app?vid=efd9d7ca-4b84-4ff5-876b-900e16175b1d"},"vehicle_type_id":"4","last_reported":1770835758,"current_range_meters":2800,"station_id":"ce4bhgp2rcd13ifvqfc0","pricing_plan_id":"cebpf4jnsgd1na2vs0mg"},{"bike_id":"652029fd-7389-40d5-a0bd-e85f7aa43d7c","system_id":"levelo_inurba_marseille","lat":43.22563,"lon":5.41632,"is_reserved":false,"is_disabled":false,"rental_uris":{"android":"levelo://app?vid=652029fd-7389-40d5-a0bd-e85f7aa43d7c","ios":"levelo://app?vid=652029fd-7389-40d5-a0bd-e85f7aa43d7c"},"vehicle_type_id":"4","last_reported":1770835758,"current_range_meters":2800,"station_id":"st_d2o4gvlbi1j2169b742g","pricing_plan_id":"cebpf4jnsgd1na2vs0mg"},{"bike_id":"87056c0a-278d-470f-af70-99a4eb084f35","system_id":"levelo_inurba_marseille","lat":43.24614,"lon":5.43147,"is_reserved":false,"is_disabled":false,"rental_uris":{"android":"levelo://app?vid=87056c0a-278d-470f-af70-99a4eb084f35","ios":"levelo://app?vid=87056c0a-278d-470f-af70-99a4eb084f35"},"vehicle_type_id":"4","last_reported":1770835758,"current_range_meters":2800,"station_id":"st_d2m6c4gdas8pm72e190g","pricing_plan_id":"cebpf4jnsgd1na2vs0mg"},{"bike_id":"9fd591d0-2348-4aee-a8e7-84023c5aa352","system_id":"levelo_inurba_marseille","lat":43.28413,"lon":5.37517,"is_reserved":false,"is_disabled":true,"rental_uris":{"android":"levelo://app?vid=9fd591d0-2348-4aee-a8e7-84023c5aa352","ios":"levelo://app?vid=9fd591d0-2348-4aee-a8e7-84023c5aa352"},"vehicle_type_id":"4","last_reported":1770835758,"current_range_meters":2800,"station_id":"ce4bh412rcd13ifvqds0","pricing_plan_id":"cebpf4jnsgd1na2vs0mg"},{"bike_id":"753ec8c8-0d60-47ff-8ba6-c24d4dbcaf05","system_id":"levelo_inurba_marseille","lat":43.27806,"lon":5.4072,"is_reserved":false,"is_disabled":false,"rental_uris":{"android":"levelo://app?vid=753ec8c8-0d60-47ff-8ba6-c24d4dbcaf05","ios":"levelo://app?vid=753ec8c8-0d60-47ff-8ba6-c24d4dbcaf05"},"vehicle_type_id":"4","last_reported":1770835758,"current_range_meters":2800,"station_id":"ce4bhnh2rcd13ifvqgtg","pricing_plan_id":"cebpf4jnsgd1na2vs0mg"},{"bike_id":"d84ccceb-947f-4c98-84f4-d8427853cf88","system_id":"levelo_inurba_marseille","lat":43.3041,"lon":5.41187,"is_reserved":false,"is_disabled":false,"rental_uris":{"android":"levelo://app?vid=d84ccceb-947f-4c98-84f4-d8427853cf88","ios":"levelo://app?vid=d84ccceb-947f-4c98-84f4-d8427853cf88"},"vehicle_type_id":"4","last_reported":1770835758,"current_range_meters":2800,"station_id":"","pricing_plan_id":"cebpf4jnsgd1na2vs0mg"},{"bike_id":"44d17b9a-a696-4502-89c1-4d2b9276205f","system_id":"levelo_inurba_marseille","lat":43.250168,"lon":5.389064,"is_reserved":false,"is_disabled":false,"rental_uris":{"android":"levelo://app?vid=44d17b9a-a696-4502-89c1-4d2b9276205f","ios":"levelo://app?vid=44d17b9a-a696-4502-89c1-4d2b9276205f"},"vehicle_type_id":"4","last_reported":1770835758,"current_range_meters":2800,"station_id":"ce4bhgp2rcd13ifvqfd0","pricing_plan_id":"cebpf4jnsgd1na2vs0mg"},{"bike_id":"dc065e2a-14c9-42be-a127-cc609d0686ee","system_id":"levelo_inurba_marseille","lat":43.28616,"lon":5.3991,"is_reserved":false,"is_disabled":false,"rental_uris":{"android":"levelo://app?vid=dc065e2a-14c9-42be-a127-cc609d0686ee","ios":"levelo://app?vid=dc065e2a-14c9-42be-a127-cc609d0686ee"},"vehicle_type_id":"4","last_reported":1770835758,"current_range_meters":3200,"station_id":"st_d4a7ka997mjs738ck50g","pricing_plan_id":"cebpf4jnsgd1na2vs0mg"},{"bike_id":"7fcd8d2e-93ac-4708-ad15-86f6213f74fd","system_id":"levelo_inurba_marseille","lat":43.2407,"lon":5.37762,"is_reserved":false,"is_disabled":false,"rental_uris":{"android":"levelo://app?vid=7fcd8d2e-93ac-4708-ad15-86f6213f74fd","ios":"levelo://app?vid=7fcd8d2e-93ac-4708-ad15-86f6213f74fd"},"vehicle_type_id":"4","last_reported":1770835758,"current_range_meters":3200,"station_id":"ce4bhnp2rcd13ifvqgvg","pricing_plan_id":"cebpf4jnsgd1na2vs0mg"},{"bike_id":"e0450db0-c8b3-4403-bc43-ed5a007877b8","system_id":"levelo_inurba_marseille","lat":43.24629,"lon":5.43134,"is_reserved":false,"is_disabled":false,"rental_uris":{"android":"levelo://app?vid=e0450db0-c8b3-4403-bc43-ed5a007877b8","ios":"levelo://app?vid=e0450db0-c8b3-4403-bc43-ed5a007877b8"},"vehicle_type_id":"4","last_reported":1770835758,"current_range_meters":3200,"station_id":"st_d2m6c4gdas8pm72e190g","pricing_plan_id":"cebpf4jnsgd1na2vs0mg"},{"bike_id":"ee213b40-802c-442b-9390-5e22834db5df","system_id":"levelo_inurba_marseille","lat":43.24169,"lon":5.36387,"is_reserved":false,"is_disabled":false,"rental_uris":{"android":"levelo://app?vid=ee213b40-802c-442b-9390-5e22834db5df","ios":"levelo://app?vid=ee213b40-802c-442b-9390-5e22834db5df"},"vehicle_type_id":"4","last_reported":1770835758,"current_range_meters":3200,"station_id":"cpo36qri1sfpv3e86is0","pricing_plan_id":"cebpf4jnsgd1na2vs0mg"},{"bike_id":"7e3ab4cc-f1d0-40c5-93c0-f0b43c67658b","system_id":"levelo_inurba_marseille","lat":43.2533,"lon":5.4217,"is_reserved":false,"is_disabled":false,"rental_uris":{"android":"levelo://app?vid=7e3ab4cc-f1d0-40c5-93c0-f0b43c67658b","ios":"levelo://app?vid=7e3ab4cc-f1d0-40c5-93c0-f0b43c67658b"},"vehicle_type_id":"4","last_reported":1770835758,"current_range_meters":3200,"station_id":"st_d2m65c5bi1j21697t3ng","pricing_plan_id":"cebpf4jnsgd1na2vs0mg"},{"bike_id":"fe6f8294-65ba-45f1-a4f6-c1ee0f12ef18","system_id":"levelo_inurba_marseille","lat":43.22578,"lon":5.41626,"is_reserved":false,"is_disabled":false,"rental_uris":{"android":"levelo://app?vid=fe6f8294-65ba-45f1-a4f6-c1ee0f12ef18","ios":"levelo://app?vid=fe6f8294-65ba-45f1-a4f6-c1ee0f12ef18"},"vehicle_type_id":"4","last_reported":1770835758,"current_range_meters":3200,"station_id":"st_d2o4gvlbi1j2169b742g","pricing_plan_id":"cebpf4jnsgd1na2vs0mg"},{"bike_id":"7f44efa2-9dd2-4ace-8558-41a4cdad34a6","system_id":"levelo_inurba_marseille","lat":43.29785,"lon":5.39336,"is_reserved":false,"is_disabled":false,"rental_uris":{"android":"levelo://app?vid=7f44efa2-9dd2-4ace-8558-41a4cdad34a6","ios":"levelo://app?vid=7f44efa2-9dd2-4ace-8558-41a4cdad34a6"},"vehicle_type_id":"4","last_reported":1770835758,"current_range_meters":3200,"station_id":"chh1huq6cuj3fo74tm60","pricing_plan_id":"cebpf4jnsgd1na2vs0mg"},{"bike_id":"3bcf5c5c-b7bb-4b41-a1d0-2bf80dd45e1f","system_id":"levelo_inurba_marseille","lat":43.31329,"lon":5.39691,"is_reserved":false,"is_disabled":false,"rental_uris":{"android":"levelo://app?vid=3bcf5c5c-b7bb-4b41-a1d0-2bf80dd45e1f","ios":"levelo://app?vid=3bcf5c5c-b7bb-4b41-a1d0-2bf80dd45e1f"},"vehicle_type_id":"4","last_reported":1770835758,"current_range_meters":3200,"station_id":"ce4bgvp2rcd13ifvqcu0","pricing_plan_id":"cebpf4jnsgd1na2vs0mg"},{"bike_id":"475fae78-75f9-4675-8012-304224f10313","system_id":"levelo_inurba_marseille","lat":43.33555,"lon":5.37467,"is_reserved":false,"is_disabled":false,"rental_uris":{"android":"levelo://app?vid=475fae78-75f9-4675-8012-304224f10313","ios":"levelo://app?vid=475fae78-75f9-4675-8012-304224f10313"},"vehicle_type_id":"4","last_reported":1770835758,"current_range_meters":3200,"station_id":"st_d46tts09ee8s73dlu43g","pricing_plan_id":"cebpf4jnsgd1na2vs0mg"},{"bike_id":"5f7df976-2770-4b0d-bd16-1a5d3e4bd86a","system_id":"levelo_inurba_marseille","lat":43.26023,"lon":5.37551,"is_reserved":false,"is_disabled":false,"rental_uris":{"android":"levelo://app?vid=5f7df976-2770-4b0d-bd16-1a5d3e4bd86a","ios":"levelo://app?vid=5f7df976-2770-4b0d-bd16-1a5d3e4bd86a"},"vehicle_type_id":"4","last_reported":1770835758,"current_range_meters":3200,"station_id":"ce4bhgh2rcd13ifvqfa0","pricing_plan_id":"cebpf4jnsgd1na2vs0mg"},{"bike_id":"46b69bcd-f35a-433e-b9f1-16ab03d0ac0e","system_id":"levelo_inurba_marseille","lat":43.25862,"lon":5.39885,"is_reserved":false,"is_disabled":false,"rental_uris":{"android":"levelo://app?vid=46b69bcd-f35a-433e-b9f1-16ab03d0ac0e","ios":"levelo://app?vid=46b69bcd-f35a-433e-b9f1-16ab03d0ac0e"},"vehicle_type_id":"4","last_reported":1770835758,"current_range_meters":3200,"station_id":"ce4bhl92rcd13ifvqghg","pricing_plan_id":"cebpf4jnsgd1na2vs0mg"},{"bike_id":"b1429378-b93e-4184-b373-85f0415c9919","system_id":"levelo_inurba_marseille","lat":43.246319,"lon":5.43146,"is_reserved":false,"is_disabled":false,"rental_uris":{"android":"levelo://app?vid=b1429378-b93e-4184-b373-85f0415c9919","ios":"levelo://app?vid=b1429378-b93e-4184-b373-85f0415c9919"},"vehicle_type_id":"4","last_reported":1770835758,"current_range_meters":3200,"station_id":"st_d2m6c4gdas8pm72e190g","pricing_plan_id":"cebpf4jnsgd1na2vs0mg"},{"bike_id":"e1972e28-c5f7-4898-9f3a-cff0aa5fe0de","system_id":"levelo_inurba_marseille","lat":43.2418,"lon":5.397162,"is_reserved":false,"is_disabled":false,"rental_uris":{"android":"levelo://app?vid=e1972e28-c5f7-4898-9f3a-cff0aa5fe0de","ios":"levelo://app?vid=e1972e28-c5f7-4898-9f3a-cff0aa5fe0de"},"vehicle_type_id":"4","last_reported":1770835758,"current_range_meters":3200,"station_id":"ce4bhn12rcd13ifvqgpg","pricing_plan_id":"cebpf4jnsgd1na2vs0mg"},{"bike_id":"1cf7a3f0-701f-4fb4-b5cf-3f9ecbf53dee","system_id":"levelo_inurba_marseille","lat":43.3219,"lon":5.40631,"is_reserved":false,"is_disabled":false,"rental_uris":{"android":"levelo://app?vid=1cf7a3f0-701f-4fb4-b5cf-3f9ecbf53dee","ios":"levelo://app?vid=1cf7a3f0-701f-4fb4-b5cf-3f9ecbf53dee"},"vehicle_type_id":"4","last_reported":1770835758,"current_range_meters":3200,"station_id":"","pricing_plan_id":"cebpf4jnsgd1na2vs0mg"},{"bike_id":"42f3570e-bd59-46b4-b639-2f8b98958802","system_id":"levelo_inurba_marseille","lat":43.243904,"lon":5.370496,"is_reserved":false,"is_disabled":false,"rental_uris":{"android":"levelo://app?vid=42f3570e-bd59-46b4-b639-2f8b98958802","ios":"levelo://app?vid=42f3570e-bd59-46b4-b639-2f8b98958802"},"vehicle_type_id":"4","last_reported":1770835758,"current_range_meters":3200,"station_id":"ce4bhhh2rcd13ifvqfk0","pricing_plan_id":"cebpf4jnsgd1na2vs0mg"},{"bike_id":"b3da83df-566e-4e92-8950-cbe485971216","system_id":"levelo_inurba_marseille","lat":43.284058,"lon":5.375098,"is_reserved":false,"is_disabled":false,"rental_uris":{"android":"levelo://app?vid=b3da83df-566e-4e92-8950-cbe485971216","ios":"levelo://app?vid=b3da83df-566e-4e92-8950-cbe485971216"},"vehicle_type_id":"4","last_reported":1770835758,"current_range_meters":3200,"station_id":"ce4bh412rcd13ifvqds0","pricing_plan_id":"cebpf4jnsgd1na2vs0mg"},{"bike_id":"647a1652-6fe3-4f62-84e0-345c49e7ef27","system_id":"levelo_inurba_marseille","lat":43.30933,"lon":5.38477,"is_reserved":false,"is_disabled":false,"rental_uris":{"android":"levelo://app?vid=647a1652-6fe3-4f62-84e0-345c49e7ef27","ios":"levelo://app?vid=647a1652-6fe3-4f62-84e0-345c49e7ef27"},"vehicle_type_id":"4","last_reported":1770835758,"current_range_meters":3200,"station_id":"","pricing_plan_id":"cebpf4jnsgd1na2vs0mg"},{"bike_id":"46c69015-faf3-4cc4-a643-956ba56c5437","system_id":"levelo_inurba_marseille","lat":43.30554,"lon":5.36517,"is_reserved":false,"is_disabled":false,"rental_uris":{"android":"levelo://app?vid=46c69015-faf3-4cc4-a643-956ba56c5437","ios":"levelo://app?vid=46c69015-faf3-4cc4-a643-956ba56c5437"},"vehicle_type_id":"4","last_reported":1770835758,"current_range_meters":3600,"station_id":"ce4bgs12rcd13ifvqcag","pricing_plan_id":"cebpf4jnsgd1na2vs0mg"},{"bike_id":"b0ffcfef-ce83-482f-8dd1-a13611128cd8","system_id":"levelo_inurba_marseille","lat":43.3015,"lon":5.37439,"is_reserved":false,"is_disabled":false,"rental_uris":{"android":"levelo://app?vid=b0ffcfef-ce83-482f-8dd1-a13611128cd8","ios":"levelo://app?vid=b0ffcfef-ce83-482f-8dd1-a13611128cd8"},"vehicle_type_id":"4","last_reported":1770835758,"current_range_meters":3600,"station_id":"ce4bgs92rcd13ifvqcc0","pricing_plan_id":"cebpf4jnsgd1na2vs0mg"},{"bike_id":"b548302e-ab83-4c5a-87da-adb0310a89bf","system_id":"levelo_inurba_marseille","lat":43.29526,"lon":5.37506,"is_reserved":false,"is_disabled":false,"rental_uris":{"android":"levelo://app?vid=b548302e-ab83-4c5a-87da-adb0310a89bf","ios":"levelo://app?vid=b548302e-ab83-4c5a-87da-adb0310a89bf"},"vehicle_type_id":"4","last_reported":1770835758,"current_range_meters":3600,"station_id":"ce4bgkp2rcd13ifvqbmg","pricing_plan_id":"cebpf4jnsgd1na2vs0mg"},{"bike_id":"44c6aa93-1f46-4cbd-a298-6cd74e811e92","system_id":"levelo_inurba_marseille","lat":43.217482,"lon":5.346022,"is_reserved":false,"is_disabled":false,"rental_uris":{"android":"levelo://app?vid=44c6aa93-1f46-4cbd-a298-6cd74e811e92","ios":"levelo://app?vid=44c6aa93-1f46-4cbd-a298-6cd74e811e92"},"vehicle_type_id":"4","last_reported":1770835758,"current_range_meters":3600,"station_id":"","pricing_plan_id":"cebpf4jnsgd1na2vs0mg"},{"bike_id":"7a764ea1-3db9-42d3-bcb4-96b88fa6fb42","system_id":"levelo_inurba_marseille","lat":43.28473,"lon":5.38818,"is_reserved":false,"is_disabled":false,"rental_uris":{"android":"levelo://app?vid=7a764ea1-3db9-42d3-bcb4-96b88fa6fb42","ios":"levelo://app?vid=7a764ea1-3db9-42d3-bcb4-96b88fa6fb42"},"vehicle_type_id":"4","last_reported":1770835758,"current_range_meters":3600,"station_id":"ce4bh492rcd13ifvqdvg","pricing_plan_id":"cebpf4jnsgd1na2vs0mg"},{"bike_id":"226bd66d-8682-4518-be4a-aca8360a0e4d","system_id":"levelo_inurba_marseille","lat":43.30454,"lon":5.38883,"is_reserved":false,"is_disabled":false,"rental_uris":{"android":"levelo://app?vid=226bd66d-8682-4518-be4a-aca8360a0e4d","ios":"levelo://app?vid=226bd66d-8682-4518-be4a-aca8360a0e4d"},"vehicle_type_id":"4","last_reported":1770835758,"current_range_meters":3600,"station_id":"ce4bgk12rcd13ifvqbi0","pricing_plan_id":"cebpf4jnsgd1na2vs0mg"},{"bike_id":"b0577ca1-afa8-48fa-be5c-f4673c1a2294","system_id":"levelo_inurba_marseille","lat":43.28007,"lon":5.41294,"is_reserved":false,"is_disabled":false,"rental_uris":{"android":"levelo://app?vid=b0577ca1-afa8-48fa-be5c-f4673c1a2294","ios":"levelo://app?vid=b0577ca1-afa8-48fa-be5c-f4673c1a2294"},"vehicle_type_id":"4","last_reported":1770835758,"current_range_meters":3600,"station_id":"","pricing_plan_id":"cebpf4jnsgd1na2vs0mg"},{"bike_id":"07f5bb1d-8656-470a-8941-2ff11cfb6f26","system_id":"levelo_inurba_marseille","lat":43.30939,"lon":5.40144,"is_reserved":false,"is_disabled":false,"rental_uris":{"android":"levelo://app?vid=07f5bb1d-8656-470a-8941-2ff11cfb6f26","ios":"levelo://app?vid=07f5bb1d-8656-470a-8941-2ff11cfb6f26"},"vehicle_type_id":"4","last_reported":1770835758,"current_range_meters":3600,"station_id":"ce4bgvp2rcd13ifvqct0","pricing_plan_id":"cebpf4jnsgd1na2vs0mg"},{"bike_id":"40c8b4fd-86a1-4a3b-acc6-512215b64827","system_id":"levelo_inurba_marseille","lat":43.29988,"lon":5.38504,"is_reserved":false,"is_disabled":false,"rental_uris":{"android":"levelo://app?vid=40c8b4fd-86a1-4a3b-acc6-512215b64827","ios":"levelo://app?vid=40c8b4fd-86a1-4a3b-acc6-512215b64827"},"vehicle_type_id":"4","last_reported":1770835758,"current_range_meters":3600,"station_id":"ce4bgj92rcd13ifvqbd0","pricing_plan_id":"cebpf4jnsgd1na2vs0mg"},{"bike_id":"e2bab02f-134a-4a03-b820-db1146050e9c","system_id":"levelo_inurba_marseille","lat":43.23151,"lon":5.43708,"is_reserved":false,"is_disabled":false,"rental_uris":{"android":"levelo://app?vid=e2bab02f-134a-4a03-b820-db1146050e9c","ios":"levelo://app?vid=e2bab02f-134a-4a03-b820-db1146050e9c"},"vehicle_type_id":"4","last_reported":1770835758,"current_range_meters":3600,"station_id":"ce4bhmp2rcd13ifvqgog","pricing_plan_id":"cebpf4jnsgd1na2vs0mg"},{"bike_id":"a851407b-2dd1-4aad-a65d-6c540b7caa44","system_id":"levelo_inurba_marseille","lat":43.2926,"lon":5.40884,"is_reserved":false,"is_disabled":false,"rental_uris":{"android":"levelo://app?vid=a851407b-2dd1-4aad-a65d-6c540b7caa44","ios":"levelo://app?vid=a851407b-2dd1-4aad-a65d-6c540b7caa44"},"vehicle_type_id":"4","last_reported":1770835758,"current_range_meters":3600,"station_id":"ce4bh192rcd13ifvqdc0","pricing_plan_id":"cebpf4jnsgd1na2vs0mg"},{"bike_id":"32b27b47-6c8b-49c6-8b48-fbeace627871","system_id":"levelo_inurba_marseille","lat":43.312218,"lon":5.368433,"is_reserved":false,"is_disabled":false,"rental_uris":{"android":"levelo://app?vid=32b27b47-6c8b-49c6-8b48-fbeace627871","ios":"levelo://app?vid=32b27b47-6c8b-49c6-8b48-fbeace627871"},"vehicle_type_id":"4","last_reported":1770835758,"current_range_meters":4000,"station_id":"ce4bgl92rcd13ifvqbq0","pricing_plan_id":"cebpf4jnsgd1na2vs0mg"},{"bike_id":"fefa9d33-2b99-4c0b-9890-359dd9ed4dcf","system_id":"levelo_inurba_marseille","lat":43.30634,"lon":5.40066,"is_reserved":false,"is_disabled":false,"rental_uris":{"android":"levelo://app?vid=fefa9d33-2b99-4c0b-9890-359dd9ed4dcf","ios":"levelo://app?vid=fefa9d33-2b99-4c0b-9890-359dd9ed4dcf"},"vehicle_type_id":"4","last_reported":1770835758,"current_range_meters":4000,"station_id":"ce4bh112rcd13ifvqda0","pricing_plan_id":"cebpf4jnsgd1na2vs0mg"},{"bike_id":"ecb39c78-a132-4b24-a1ed-3bbd4e6e80ca","system_id":"levelo_inurba_marseille","lat":43.28101,"lon":5.3783,"is_reserved":false,"is_disabled":false,"rental_uris":{"android":"levelo://app?vid=ecb39c78-a132-4b24-a1ed-3bbd4e6e80ca","ios":"levelo://app?vid=ecb39c78-a132-4b24-a1ed-3bbd4e6e80ca"},"vehicle_type_id":"4","last_reported":1770835758,"current_range_meters":4000,"station_id":"ce4bha12rcd13ifvqee0","pricing_plan_id":"cebpf4jnsgd1na2vs0mg"},{"bike_id":"890f56d4-596e-400c-b85e-06636da41b20","system_id":"levelo_inurba_marseille","lat":43.24995,"lon":5.38929,"is_reserved":false,"is_disabled":false,"rental_uris":{"android":"levelo://app?vid=890f56d4-596e-400c-b85e-06636da41b20","ios":"levelo://app?vid=890f56d4-596e-400c-b85e-06636da41b20"},"vehicle_type_id":"4","last_reported":1770835758,"current_range_meters":4000,"station_id":"ce4bhgp2rcd13ifvqfd0","pricing_plan_id":"cebpf4jnsgd1na2vs0mg"},{"bike_id":"54bd52e6-912c-41e4-90a6-85e5c05a7d3d","system_id":"levelo_inurba_marseille","lat":43.22566,"lon":5.41629,"is_reserved":false,"is_disabled":false,"rental_uris":{"android":"levelo://app?vid=54bd52e6-912c-41e4-90a6-85e5c05a7d3d","ios":"levelo://app?vid=54bd52e6-912c-41e4-90a6-85e5c05a7d3d"},"vehicle_type_id":"4","last_reported":1770835758,"current_range_meters":4000,"station_id":"st_d2o4gvlbi1j2169b742g","pricing_plan_id":"cebpf4jnsgd1na2vs0mg"},{"bike_id":"d01f5ba5-555f-4fd5-bda1-8012d30858b6","system_id":"levelo_inurba_marseille","lat":43.28493,"lon":5.48399,"is_reserved":false,"is_disabled":false,"rental_uris":{"android":"levelo://app?vid=d01f5ba5-555f-4fd5-bda1-8012d30858b6","ios":"levelo://app?vid=d01f5ba5-555f-4fd5-bda1-8012d30858b6"},"vehicle_type_id":"4","last_reported":1770835758,"current_range_meters":4000,"station_id":"st_d3svhcjqgbts73a3dn0g","pricing_plan_id":"cebpf4jnsgd1na2vs0mg"},{"bike_id":"238a84ac-2ecd-45cd-94d0-fe91201be9fc","system_id":"levelo_inurba_marseille","lat":43.30888,"lon":5.39648,"is_reserved":false,"is_disabled":false,"rental_uris":{"android":"levelo://app?vid=238a84ac-2ecd-45cd-94d0-fe91201be9fc","ios":"levelo://app?vid=238a84ac-2ecd-45cd-94d0-fe91201be9fc"},"vehicle_type_id":"4","last_reported":1770835758,"current_range_meters":4000,"station_id":"ce4bh012rcd13ifvqcv0","pricing_plan_id":"cebpf4jnsgd1na2vs0mg"},{"bike_id":"d1a208dc-b079-4f67-83b0-5bab6732b044","system_id":"levelo_inurba_marseille","lat":43.26221,"lon":5.37471,"is_reserved":false,"is_disabled":false,"rental_uris":{"android":"levelo://app?vid=d1a208dc-b079-4f67-83b0-5bab6732b044","ios":"levelo://app?vid=d1a208dc-b079-4f67-83b0-5bab6732b044"},"vehicle_type_id":"4","last_reported":1770835758,"current_range_meters":4000,"station_id":"","pricing_plan_id":"cebpf4jnsgd1na2vs0mg"},{"bike_id":"f8639601-1139-4514-95e9-6e0370e570c7","system_id":"levelo_inurba_marseille","lat":43.30346,"lon":5.40455,"is_reserved":false,"is_disabled":false,"rental_uris":{"android":"levelo://app?vid=f8639601-1139-4514-95e9-6e0370e570c7","ios":"levelo://app?vid=f8639601-1139-4514-95e9-6e0370e570c7"},"vehicle_type_id":"4","last_reported":1770835758,"current_range_meters":4000,"station_id":"ce4bh012rcd13ifvqd10","pricing_plan_id":"cebpf4jnsgd1na2vs0mg"},{"bike_id":"137e7508-c7c0-4ee2-ba3b-efd66c795bc5","system_id":"levelo_inurba_marseille","lat":43.30104,"lon":5.3907,"is_reserved":false,"is_disabled":false,"rental_uris":{"android":"levelo://app?vid=137e7508-c7c0-4ee2-ba3b-efd66c795bc5","ios":"levelo://app?vid=137e7508-c7c0-4ee2-ba3b-efd66c795bc5"},"vehicle_type_id":"4","last_reported":1770835758,"current_range_meters":4000,"station_id":"ce4bh192rcd13ifvqdb0","pricing_plan_id":"cebpf4jnsgd1na2vs0mg"},{"bike_id":"eb54f403-f5f5-4152-9cd4-d31f05df5ad8","system_id":"levelo_inurba_marseille","lat":43.2622,"lon":5.40465,"is_reserved":false,"is_disabled":false,"rental_uris":{"android":"levelo://app?vid=eb54f403-f5f5-4152-9cd4-d31f05df5ad8","ios":"levelo://app?vid=eb54f403-f5f5-4152-9cd4-d31f05df5ad8"},"vehicle_type_id":"4","last_reported":1770835758,"current_range_meters":4000,"station_id":"ce4bhmh2rcd13ifvqgmg","pricing_plan_id":"cebpf4jnsgd1na2vs0mg"},{"bike_id":"8a586a54-856a-4208-a41a-0adec14f2d89","system_id":"levelo_inurba_marseille","lat":43.29981,"lon":5.38473,"is_reserved":false,"is_disabled":false,"rental_uris":{"android":"levelo://app?vid=8a586a54-856a-4208-a41a-0adec14f2d89","ios":"levelo://app?vid=8a586a54-856a-4208-a41a-0adec14f2d89"},"vehicle_type_id":"4","last_reported":1770835758,"current_range_meters":4000,"station_id":"ce4bgj92rcd13ifvqbd0","pricing_plan_id":"cebpf4jnsgd1na2vs0mg"},{"bike_id":"aec780db-2eb8-4328-8bd5-98a710df0d15","system_id":"levelo_inurba_marseille","lat":43.26212,"lon":5.3744,"is_reserved":false,"is_disabled":false,"rental_uris":{"android":"levelo://app?vid=aec780db-2eb8-4328-8bd5-98a710df0d15","ios":"levelo://app?vid=aec780db-2eb8-4328-8bd5-98a710df0d15"},"vehicle_type_id":"4","last_reported":1770835758,"current_range_meters":4000,"station_id":"ce4bhgp2rcd13ifvqfc0","pricing_plan_id":"cebpf4jnsgd1na2vs0mg"},{"bike_id":"5cf5d20c-51b3-4fd3-a4ce-bff84ec102a3","system_id":"levelo_inurba_marseille","lat":43.27681,"lon":5.38903,"is_reserved":false,"is_disabled":false,"rental_uris":{"android":"levelo://app?vid=5cf5d20c-51b3-4fd3-a4ce-bff84ec102a3","ios":"levelo://app?vid=5cf5d20c-51b3-4fd3-a4ce-bff84ec102a3"},"vehicle_type_id":"4","last_reported":1770835758,"current_range_meters":4000,"station_id":"ce4bhi12rcd13ifvqfo0","pricing_plan_id":"cebpf4jnsgd1na2vs0mg"},{"bike_id":"e17de8b1-526d-4502-a3b9-7a830058729e","system_id":"levelo_inurba_marseille","lat":43.30648,"lon":5.40086,"is_reserved":false,"is_disabled":false,"rental_uris":{"android":"levelo://app?vid=e17de8b1-526d-4502-a3b9-7a830058729e","ios":"levelo://app?vid=e17de8b1-526d-4502-a3b9-7a830058729e"},"vehicle_type_id":"4","last_reported":1770835758,"current_range_meters":4000,"station_id":"ce4bh112rcd13ifvqda0","pricing_plan_id":"cebpf4jnsgd1na2vs0mg"},{"bike_id":"b64accd0-a677-49be-aa71-9d69f782da3e","system_id":"levelo_inurba_marseille","lat":43.33022,"lon":5.39041,"is_reserved":false,"is_disabled":false,"rental_uris":{"android":"levelo://app?vid=b64accd0-a677-49be-aa71-9d69f782da3e","ios":"levelo://app?vid=b64accd0-a677-49be-aa71-9d69f782da3e"},"vehicle_type_id":"4","last_reported":1770835758,"current_range_meters":4000,"station_id":"ce4bhr92rcd13ifvqhrg","pricing_plan_id":"cebpf4jnsgd1na2vs0mg"},{"bike_id":"678300bf-6332-4613-a924-84b3cac882c4","system_id":"levelo_inurba_marseille","lat":43.30439,"lon":5.3975,"is_reserved":false,"is_disabled":false,"rental_uris":{"android":"levelo://app?vid=678300bf-6332-4613-a924-84b3cac882c4","ios":"levelo://app?vid=678300bf-6332-4613-a924-84b3cac882c4"},"vehicle_type_id":"4","last_reported":1770835758,"current_range_meters":4400,"station_id":"ce4bh092rcd13ifvqd20","pricing_plan_id":"cebpf4jnsgd1na2vs0mg"},{"bike_id":"37ce2aae-ed94-4eb6-9e77-f131d1d4f4b0","system_id":"levelo_inurba_marseille","lat":43.29618,"lon":5.37165,"is_reserved":false,"is_disabled":false,"rental_uris":{"android":"levelo://app?vid=37ce2aae-ed94-4eb6-9e77-f131d1d4f4b0","ios":"levelo://app?vid=37ce2aae-ed94-4eb6-9e77-f131d1d4f4b0"},"vehicle_type_id":"4","last_reported":1770835758,"current_range_meters":4400,"station_id":"ce4bgnh2rcd13ifvqc0g","pricing_plan_id":"cebpf4jnsgd1na2vs0mg"},{"bike_id":"8fadd539-4297-4d2a-8099-d8a6abb3494e","system_id":"levelo_inurba_marseille","lat":43.27562,"lon":5.384,"is_reserved":false,"is_disabled":false,"rental_uris":{"android":"levelo://app?vid=8fadd539-4297-4d2a-8099-d8a6abb3494e","ios":"levelo://app?vid=8fadd539-4297-4d2a-8099-d8a6abb3494e"},"vehicle_type_id":"4","last_reported":1770835758,"current_range_meters":4400,"station_id":"ce4bhh92rcd13ifvqfi0","pricing_plan_id":"cebpf4jnsgd1na2vs0mg"},{"bike_id":"268fbb98-a9d1-499a-8f09-9d6595f1377c","system_id":"levelo_inurba_marseille","lat":43.30147,"lon":5.39937,"is_reserved":false,"is_disabled":false,"rental_uris":{"android":"levelo://app?vid=268fbb98-a9d1-499a-8f09-9d6595f1377c","ios":"levelo://app?vid=268fbb98-a9d1-499a-8f09-9d6595f1377c"},"vehicle_type_id":"4","last_reported":1770835758,"current_range_meters":4400,"station_id":"ce4bh0h2rcd13ifvqd40","pricing_plan_id":"cebpf4jnsgd1na2vs0mg"},{"bike_id":"6531bd48-87f6-4733-ba33-f37c2a83e784","system_id":"levelo_inurba_marseille","lat":43.26941,"lon":5.38913,"is_reserved":false,"is_disabled":false,"rental_uris":{"android":"levelo://app?vid=6531bd48-87f6-4733-ba33-f37c2a83e784","ios":"levelo://app?vid=6531bd48-87f6-4733-ba33-f37c2a83e784"},"vehicle_type_id":"4","last_reported":1770835758,"current_range_meters":4400,"station_id":"ce4bhhh2rcd13ifvqfl0","pricing_plan_id":"cebpf4jnsgd1na2vs0mg"},{"bike_id":"3cf4412f-4eab-4fb4-bd6a-b9dfe83e38cc","system_id":"levelo_inurba_marseille","lat":43.24176,"lon":5.39741,"is_reserved":false,"is_disabled":false,"rental_uris":{"android":"levelo://app?vid=3cf4412f-4eab-4fb4-bd6a-b9dfe83e38cc","ios":"levelo://app?vid=3cf4412f-4eab-4fb4-bd6a-b9dfe83e38cc"},"vehicle_type_id":"4","last_reported":1770835758,"current_range_meters":4400,"station_id":"ce4bhn12rcd13ifvqgpg","pricing_plan_id":"cebpf4jnsgd1na2vs0mg"},{"bike_id":"d99d8fe4-b2b7-4ecd-b5db-4cee32291c21","system_id":"levelo_inurba_marseille","lat":43.239648,"lon":5.366319,"is_reserved":false,"is_disabled":false,"rental_uris":{"android":"levelo://app?vid=d99d8fe4-b2b7-4ecd-b5db-4cee32291c21","ios":"levelo://app?vid=d99d8fe4-b2b7-4ecd-b5db-4cee32291c21"},"vehicle_type_id":"4","last_reported":1770835758,"current_range_meters":4400,"station_id":"ce4bhi12rcd13ifvqfp0","pricing_plan_id":"cebpf4jnsgd1na2vs0mg"},{"bike_id":"070e6942-f4e8-46ac-9fa8-9860b9182619","system_id":"levelo_inurba_marseille","lat":43.28554,"lon":5.39408,"is_reserved":false,"is_disabled":false,"rental_uris":{"android":"levelo://app?vid=070e6942-f4e8-46ac-9fa8-9860b9182619","ios":"levelo://app?vid=070e6942-f4e8-46ac-9fa8-9860b9182619"},"vehicle_type_id":"4","last_reported":1770835758,"current_range_meters":4400,"station_id":"","pricing_plan_id":"cebpf4jnsgd1na2vs0mg"},{"bike_id":"f3d34ce7-2776-44c6-8f36-f894c14fa32e","system_id":"levelo_inurba_marseille","lat":43.30303,"lon":5.39226,"is_reserved":false,"is_disabled":false,"rental_uris":{"android":"levelo://app?vid=f3d34ce7-2776-44c6-8f36-f894c14fa32e","ios":"levelo://app?vid=f3d34ce7-2776-44c6-8f36-f894c14fa32e"},"vehicle_type_id":"4","last_reported":1770835758,"current_range_meters":4400,"station_id":"ce4bgkh2rcd13ifvqbk0","pricing_plan_id":"cebpf4jnsgd1na2vs0mg"},{"bike_id":"1dcf3562-4dbd-4c4f-b48a-ff6e94dcbfdd","system_id":"levelo_inurba_marseille","lat":43.24646,"lon":5.3826,"is_reserved":false,"is_disabled":false,"rental_uris":{"android":"levelo://app?vid=1dcf3562-4dbd-4c4f-b48a-ff6e94dcbfdd","ios":"levelo://app?vid=1dcf3562-4dbd-4c4f-b48a-ff6e94dcbfdd"},"vehicle_type_id":"4","last_reported":1770835758,"current_range_meters":4400,"station_id":"ce4bhih2rcd13ifvqfr0","pricing_plan_id":"cebpf4jnsgd1na2vs0mg"},{"bike_id":"54763c8a-9d23-4068-8ed2-933197bed48d","system_id":"levelo_inurba_marseille","lat":43.25575,"lon":5.38229,"is_reserved":false,"is_disabled":false,"rental_uris":{"android":"levelo://app?vid=54763c8a-9d23-4068-8ed2-933197bed48d","ios":"levelo://app?vid=54763c8a-9d23-4068-8ed2-933197bed48d"},"vehicle_type_id":"4","last_reported":1770835758,"current_range_meters":4400,"station_id":"ce4bhih2rcd13ifvqfs0","pricing_plan_id":"cebpf4jnsgd1na2vs0mg"},{"bike_id":"dfef3fec-6e9a-4e53-9b98-7a68820dd237","system_id":"levelo_inurba_marseille","lat":43.30293,"lon":5.39202,"is_reserved":false,"is_disabled":false,"rental_uris":{"android":"levelo://app?vid=dfef3fec-6e9a-4e53-9b98-7a68820dd237","ios":"levelo://app?vid=dfef3fec-6e9a-4e53-9b98-7a68820dd237"},"vehicle_type_id":"4","last_reported":1770835758,"current_range_meters":4800,"station_id":"ce4bgkh2rcd13ifvqbk0","pricing_plan_id":"cebpf4jnsgd1na2vs0mg"},{"bike_id":"890d666c-9da6-4153-bd7e-60e53c0ee9bf","system_id":"levelo_inurba_marseille","lat":43.33769,"lon":5.37475,"is_reserved":false,"is_disabled":true,"rental_uris":{"android":"levelo://app?vid=890d666c-9da6-4153-bd7e-60e53c0ee9bf","ios":"levelo://app?vid=890d666c-9da6-4153-bd7e-60e53c0ee9bf"},"vehicle_type_id":"4","last_reported":1770835758,"current_range_meters":4800,"station_id":"","pricing_plan_id":"cebpf4jnsgd1na2vs0mg"},{"bike_id":"6f6a04ad-dd00-4f4a-bdfd-a835cfa0cc11","system_id":"levelo_inurba_marseille","lat":43.270692,"lon":5.383088,"is_reserved":false,"is_disabled":false,"rental_uris":{"android":"levelo://app?vid=6f6a04ad-dd00-4f4a-bdfd-a835cfa0cc11","ios":"levelo://app?vid=6f6a04ad-dd00-4f4a-bdfd-a835cfa0cc11"},"vehicle_type_id":"4","last_reported":1770835758,"current_range_meters":4800,"station_id":"st_d3n2fo6cfp8s73cte1j0","pricing_plan_id":"cebpf4jnsgd1na2vs0mg"},{"bike_id":"1ed8df10-ce20-4add-b277-742083c9b7f5","system_id":"levelo_inurba_marseille","lat":43.27171,"lon":5.40987,"is_reserved":false,"is_disabled":false,"rental_uris":{"android":"levelo://app?vid=1ed8df10-ce20-4add-b277-742083c9b7f5","ios":"levelo://app?vid=1ed8df10-ce20-4add-b277-742083c9b7f5"},"vehicle_type_id":"4","last_reported":1770835758,"current_range_meters":4800,"station_id":"ce4bhl12rcd13ifvqgf0","pricing_plan_id":"cebpf4jnsgd1na2vs0mg"},{"bike_id":"9859b7da-31a1-4256-a285-7ee5ee052eab","system_id":"levelo_inurba_marseille","lat":43.29532,"lon":5.38538,"is_reserved":false,"is_disabled":false,"rental_uris":{"android":"levelo://app?vid=9859b7da-31a1-4256-a285-7ee5ee052eab","ios":"levelo://app?vid=9859b7da-31a1-4256-a285-7ee5ee052eab"},"vehicle_type_id":"4","last_reported":1770835758,"current_range_meters":4800,"station_id":"ce4bgih2rcd13ifvqba0","pricing_plan_id":"cebpf4jnsgd1na2vs0mg"},{"bike_id":"42a0c368-d66d-4380-8564-5bb9b2681cca","system_id":"levelo_inurba_marseille","lat":43.304768,"lon":5.36555,"is_reserved":false,"is_disabled":false,"rental_uris":{"android":"levelo://app?vid=42a0c368-d66d-4380-8564-5bb9b2681cca","ios":"levelo://app?vid=42a0c368-d66d-4380-8564-5bb9b2681cca"},"vehicle_type_id":"4","last_reported":1770835758,"current_range_meters":4800,"station_id":"","pricing_plan_id":"cebpf4jnsgd1na2vs0mg"},{"bike_id":"28ba5f80-b380-4f87-ab54-07bffd0c90be","system_id":"levelo_inurba_marseille","lat":43.29029,"lon":5.3865,"is_reserved":false,"is_disabled":false,"rental_uris":{"android":"levelo://app?vid=28ba5f80-b380-4f87-ab54-07bffd0c90be","ios":"levelo://app?vid=28ba5f80-b380-4f87-ab54-07bffd0c90be"},"vehicle_type_id":"4","last_reported":1770835758,"current_range_meters":4800,"station_id":"ce4bh4p2rcd13ifvqe0g","pricing_plan_id":"cebpf4jnsgd1na2vs0mg"},{"bike_id":"aadc1405-47c9-40f9-b954-b39d95d47069","system_id":"levelo_inurba_marseille","lat":43.2984,"lon":5.36267,"is_reserved":false,"is_disabled":false,"rental_uris":{"android":"levelo://app?vid=aadc1405-47c9-40f9-b954-b39d95d47069","ios":"levelo://app?vid=aadc1405-47c9-40f9-b954-b39d95d47069"},"vehicle_type_id":"4","last_reported":1770835758,"current_range_meters":4800,"station_id":"","pricing_plan_id":"cebpf4jnsgd1na2vs0mg"},{"bike_id":"e85eed00-1549-448f-9f20-f7bb012537e3","system_id":"levelo_inurba_marseille","lat":43.289417,"lon":5.364052,"is_reserved":false,"is_disabled":false,"rental_uris":{"android":"levelo://app?vid=e85eed00-1549-448f-9f20-f7bb012537e3","ios":"levelo://app?vid=e85eed00-1549-448f-9f20-f7bb012537e3"},"vehicle_type_id":"4","last_reported":1770835758,"current_range_meters":4800,"station_id":"ce4bhc92rcd13ifvqetg","pricing_plan_id":"cebpf4jnsgd1na2vs0mg"},{"bike_id":"7080df34-f09d-47d5-be55-0d618d1ddb54","system_id":"levelo_inurba_marseille","lat":43.27555,"lon":5.38415,"is_reserved":false,"is_disabled":false,"rental_uris":{"android":"levelo://app?vid=7080df34-f09d-47d5-be55-0d618d1ddb54","ios":"levelo://app?vid=7080df34-f09d-47d5-be55-0d618d1ddb54"},"vehicle_type_id":"4","last_reported":1770835758,"current_range_meters":4800,"station_id":"ce4bhh92rcd13ifvqfi0","pricing_plan_id":"cebpf4jnsgd1na2vs0mg"},{"bike_id":"98e967bf-7af2-4290-a993-ecc8f9ead896","system_id":"levelo_inurba_marseille","lat":43.2658,"lon":5.39012,"is_reserved":false,"is_disabled":false,"rental_uris":{"android":"levelo://app?vid=98e967bf-7af2-4290-a993-ecc8f9ead896","ios":"levelo://app?vid=98e967bf-7af2-4290-a993-ecc8f9ead896"},"vehicle_type_id":"4","last_reported":1770835758,"current_range_meters":4800,"station_id":"ce4bhe12rcd13ifvqf30","pricing_plan_id":"cebpf4jnsgd1na2vs0mg"},{"bike_id":"5a054b89-44ef-4de3-b485-30f803d58182","system_id":"levelo_inurba_marseille","lat":43.3021,"lon":5.39451,"is_reserved":false,"is_disabled":false,"rental_uris":{"android":"levelo://app?vid=5a054b89-44ef-4de3-b485-30f803d58182","ios":"levelo://app?vid=5a054b89-44ef-4de3-b485-30f803d58182"},"vehicle_type_id":"4","last_reported":1770835758,"current_range_meters":5600,"station_id":"ce4bh0p2rcd13ifvqd70","pricing_plan_id":"cebpf4jnsgd1na2vs0mg"},{"bike_id":"021e05cb-d562-422d-83c5-2ce813c660cc","system_id":"levelo_inurba_marseille","lat":43.28154,"lon":5.42631,"is_reserved":false,"is_disabled":false,"rental_uris":{"android":"levelo://app?vid=021e05cb-d562-422d-83c5-2ce813c660cc","ios":"levelo://app?vid=021e05cb-d562-422d-83c5-2ce813c660cc"},"vehicle_type_id":"4","last_reported":1770835758,"current_range_meters":5600,"station_id":"ce4bhnh2rcd13ifvqgug","pricing_plan_id":"cebpf4jnsgd1na2vs0mg"},{"bike_id":"4659f5f2-43a6-4213-b84f-184d5dec64b3","system_id":"levelo_inurba_marseille","lat":43.33549,"lon":5.37462,"is_reserved":false,"is_disabled":false,"rental_uris":{"android":"levelo://app?vid=4659f5f2-43a6-4213-b84f-184d5dec64b3","ios":"levelo://app?vid=4659f5f2-43a6-4213-b84f-184d5dec64b3"},"vehicle_type_id":"4","last_reported":1770835758,"current_range_meters":5600,"station_id":"st_d46tts09ee8s73dlu43g","pricing_plan_id":"cebpf4jnsgd1na2vs0mg"},{"bike_id":"ab7260d3-0b60-4920-bd6e-553838fbba97","system_id":"levelo_inurba_marseille","lat":43.304715,"lon":5.402095,"is_reserved":false,"is_disabled":false,"rental_uris":{"android":"levelo://app?vid=ab7260d3-0b60-4920-bd6e-553838fbba97","ios":"levelo://app?vid=ab7260d3-0b60-4920-bd6e-553838fbba97"},"vehicle_type_id":"4","last_reported":1770835758,"current_range_meters":5600,"station_id":"","pricing_plan_id":"cebpf4jnsgd1na2vs0mg"},{"bike_id":"0791f832-532b-4a81-8501-1d24505211ed","system_id":"levelo_inurba_marseille","lat":43.29199,"lon":5.35802,"is_reserved":false,"is_disabled":false,"rental_uris":{"android":"levelo://app?vid=0791f832-532b-4a81-8501-1d24505211ed","ios":"levelo://app?vid=0791f832-532b-4a81-8501-1d24505211ed"},"vehicle_type_id":"4","last_reported":1770835758,"current_range_meters":5600,"station_id":"ce4bhb12rcd13ifvqel0","pricing_plan_id":"cebpf4jnsgd1na2vs0mg"},{"bike_id":"181777f8-f2e9-4556-8faf-fa3e8dce1295","system_id":"levelo_inurba_marseille","lat":43.29068,"lon":5.37996,"is_reserved":false,"is_disabled":false,"rental_uris":{"android":"levelo://app?vid=181777f8-f2e9-4556-8faf-fa3e8dce1295","ios":"levelo://app?vid=181777f8-f2e9-4556-8faf-fa3e8dce1295"},"vehicle_type_id":"4","last_reported":1770835758,"current_range_meters":5600,"station_id":"","pricing_plan_id":"cebpf4jnsgd1na2vs0mg"},{"bike_id":"caca33be-e15c-4bfb-b63a-d99631bdec75","system_id":"levelo_inurba_marseille","lat":43.265632,"lon":5.390096,"is_reserved":false,"is_disabled":false,"rental_uris":{"android":"levelo://app?vid=caca33be-e15c-4bfb-b63a-d99631bdec75","ios":"levelo://app?vid=caca33be-e15c-4bfb-b63a-d99631bdec75"},"vehicle_type_id":"4","last_reported":1770835758,"current_range_meters":5600,"station_id":"ce4bhe12rcd13ifvqf30","pricing_plan_id":"cebpf4jnsgd1na2vs0mg"},{"bike_id":"8fd54c49-2a43-4c11-9493-aa4c3d91f774","system_id":"levelo_inurba_marseille","lat":43.29261,"lon":5.38421,"is_reserved":false,"is_disabled":false,"rental_uris":{"android":"levelo://app?vid=8fd54c49-2a43-4c11-9493-aa4c3d91f774","ios":"levelo://app?vid=8fd54c49-2a43-4c11-9493-aa4c3d91f774"},"vehicle_type_id":"4","last_reported":1770835758,"current_range_meters":5600,"station_id":"ce4bh692rcd13ifvqea0","pricing_plan_id":"cebpf4jnsgd1na2vs0mg"},{"bike_id":"3e49cbd4-8c78-49d7-850a-436a4ad6b221","system_id":"levelo_inurba_marseille","lat":43.28474,"lon":5.38421,"is_reserved":false,"is_disabled":false,"rental_uris":{"android":"levelo://app?vid=3e49cbd4-8c78-49d7-850a-436a4ad6b221","ios":"levelo://app?vid=3e49cbd4-8c78-49d7-850a-436a4ad6b221"},"vehicle_type_id":"4","last_reported":1770835758,"current_range_meters":5600,"station_id":"ce4bh512rcd13ifvqe3g","pricing_plan_id":"cebpf4jnsgd1na2vs0mg"},{"bike_id":"eb6aca81-ad88-40dd-938e-913f6202e10b","system_id":"levelo_inurba_marseille","lat":43.30668,"lon":5.4007,"is_reserved":false,"is_disabled":false,"rental_uris":{"android":"levelo://app?vid=eb6aca81-ad88-40dd-938e-913f6202e10b","ios":"levelo://app?vid=eb6aca81-ad88-40dd-938e-913f6202e10b"},"vehicle_type_id":"4","last_reported":1770835758,"current_range_meters":5600,"station_id":"ce4bh112rcd13ifvqda0","pricing_plan_id":"cebpf4jnsgd1na2vs0mg"},{"bike_id":"58fb2950-0821-412c-9587-70af3c2eb568","system_id":"levelo_inurba_marseille","lat":43.28684,"lon":5.38663,"is_reserved":false,"is_disabled":false,"rental_uris":{"android":"levelo://app?vid=58fb2950-0821-412c-9587-70af3c2eb568","ios":"levelo://app?vid=58fb2950-0821-412c-9587-70af3c2eb568"},"vehicle_type_id":"4","last_reported":1770835758,"current_range_meters":5600,"station_id":"ce4bh492rcd13ifvqdug","pricing_plan_id":"cebpf4jnsgd1na2vs0mg"},{"bike_id":"c5905c63-82ea-4157-aaa6-22b59855d28f","system_id":"levelo_inurba_marseille","lat":43.231865,"lon":5.399853,"is_reserved":false,"is_disabled":false,"rental_uris":{"android":"levelo://app?vid=c5905c63-82ea-4157-aaa6-22b59855d28f","ios":"levelo://app?vid=c5905c63-82ea-4157-aaa6-22b59855d28f"},"vehicle_type_id":"4","last_reported":1770835758,"current_range_meters":5600,"station_id":"ce4bhn12rcd13ifvqgqg","pricing_plan_id":"cebpf4jnsgd1na2vs0mg"},{"bike_id":"41bcef22-b6a6-4f57-8bbd-a7269672eadd","system_id":"levelo_inurba_marseille","lat":43.28941,"lon":5.36628,"is_reserved":false,"is_disabled":true,"rental_uris":{"android":"levelo://app?vid=41bcef22-b6a6-4f57-8bbd-a7269672eadd","ios":"levelo://app?vid=41bcef22-b6a6-4f57-8bbd-a7269672eadd"},"vehicle_type_id":"4","last_reported":1770835758,"current_range_meters":5600,"station_id":"ce4bhap2rcd13ifvqek0","pricing_plan_id":"cebpf4jnsgd1na2vs0mg"},{"bike_id":"1575819e-1691-454c-a527-d36087e3e272","system_id":"levelo_inurba_marseille","lat":43.28408,"lon":5.37523,"is_reserved":false,"is_disabled":false,"rental_uris":{"android":"levelo://app?vid=1575819e-1691-454c-a527-d36087e3e272","ios":"levelo://app?vid=1575819e-1691-454c-a527-d36087e3e272"},"vehicle_type_id":"4","last_reported":1770835758,"current_range_meters":5600,"station_id":"ce4bh412rcd13ifvqds0","pricing_plan_id":"cebpf4jnsgd1na2vs0mg"},{"bike_id":"cb746bf2-c6a8-4dab-a64d-02007d5a1877","system_id":"levelo_inurba_marseille","lat":43.248167,"lon":5.374483,"is_reserved":false,"is_disabled":false,"rental_uris":{"android":"levelo://app?vid=cb746bf2-c6a8-4dab-a64d-02007d5a1877","ios":"levelo://app?vid=cb746bf2-c6a8-4dab-a64d-02007d5a1877"},"vehicle_type_id":"4","last_reported":1770835758,"current_range_meters":6000,"station_id":"ce4bhgh2rcd13ifvqfb0","pricing_plan_id":"cebpf4jnsgd1na2vs0mg"},{"bike_id":"c6176d61-506f-4755-a0d6-6ccb9566f89a","system_id":"levelo_inurba_marseille","lat":43.25643,"lon":5.41136,"is_reserved":false,"is_disabled":false,"rental_uris":{"android":"levelo://app?vid=c6176d61-506f-4755-a0d6-6ccb9566f89a","ios":"levelo://app?vid=c6176d61-506f-4755-a0d6-6ccb9566f89a"},"vehicle_type_id":"4","last_reported":1770835758,"current_range_meters":6000,"station_id":"","pricing_plan_id":"cebpf4jnsgd1na2vs0mg"},{"bike_id":"195129a7-492c-4a00-92c9-6590be19f8d4","system_id":"levelo_inurba_marseille","lat":43.29495,"lon":5.43316,"is_reserved":false,"is_disabled":false,"rental_uris":{"android":"levelo://app?vid=195129a7-492c-4a00-92c9-6590be19f8d4","ios":"levelo://app?vid=195129a7-492c-4a00-92c9-6590be19f8d4"},"vehicle_type_id":"4","last_reported":1770835758,"current_range_meters":6000,"station_id":"st_d3j5ugp08ojc73fj9d10","pricing_plan_id":"cebpf4jnsgd1na2vs0mg"},{"bike_id":"156d8054-12bc-48fd-9e6d-ad7b9e07d22f","system_id":"levelo_inurba_marseille","lat":43.2922,"lon":5.36051,"is_reserved":false,"is_disabled":false,"rental_uris":{"android":"levelo://app?vid=156d8054-12bc-48fd-9e6d-ad7b9e07d22f","ios":"levelo://app?vid=156d8054-12bc-48fd-9e6d-ad7b9e07d22f"},"vehicle_type_id":"4","last_reported":1770835758,"current_range_meters":6000,"station_id":"ce4bhbh2rcd13ifvqeqg","pricing_plan_id":"cebpf4jnsgd1na2vs0mg"},{"bike_id":"1c120683-67bc-428a-aa0f-bec572dfb863","system_id":"levelo_inurba_marseille","lat":43.25572,"lon":5.3822,"is_reserved":false,"is_disabled":false,"rental_uris":{"android":"levelo://app?vid=1c120683-67bc-428a-aa0f-bec572dfb863","ios":"levelo://app?vid=1c120683-67bc-428a-aa0f-bec572dfb863"},"vehicle_type_id":"4","last_reported":1770835758,"current_range_meters":6000,"station_id":"ce4bhih2rcd13ifvqfs0","pricing_plan_id":"cebpf4jnsgd1na2vs0mg"},{"bike_id":"68436fc7-aad0-465d-a1eb-d153a2c2801a","system_id":"levelo_inurba_marseille","lat":43.33166,"lon":5.37703,"is_reserved":false,"is_disabled":false,"rental_uris":{"android":"levelo://app?vid=68436fc7-aad0-465d-a1eb-d153a2c2801a","ios":"levelo://app?vid=68436fc7-aad0-465d-a1eb-d153a2c2801a"},"vehicle_type_id":"4","last_reported":1770835758,"current_range_meters":6000,"station_id":"st_d46cu089ee8s73dldbu0","pricing_plan_id":"cebpf4jnsgd1na2vs0mg"},{"bike_id":"8a086d1d-5ee9-4602-bc53-25876ff7f196","system_id":"levelo_inurba_marseille","lat":43.31044,"lon":5.37165,"is_reserved":false,"is_disabled":false,"rental_uris":{"android":"levelo://app?vid=8a086d1d-5ee9-4602-bc53-25876ff7f196","ios":"levelo://app?vid=8a086d1d-5ee9-4602-bc53-25876ff7f196"},"vehicle_type_id":"4","last_reported":1770835758,"current_range_meters":6000,"station_id":"st_d4kl2rp97mjs73e7tdfg","pricing_plan_id":"cebpf4jnsgd1na2vs0mg"},{"bike_id":"bdde70ef-70ce-4d41-a03b-1cac73853d63","system_id":"levelo_inurba_marseille","lat":43.24161,"lon":5.36393,"is_reserved":false,"is_disabled":false,"rental_uris":{"android":"levelo://app?vid=bdde70ef-70ce-4d41-a03b-1cac73853d63","ios":"levelo://app?vid=bdde70ef-70ce-4d41-a03b-1cac73853d63"},"vehicle_type_id":"4","last_reported":1770835758,"current_range_meters":6000,"station_id":"cpo36qri1sfpv3e86is0","pricing_plan_id":"cebpf4jnsgd1na2vs0mg"},{"bike_id":"d6b9d7ff-4ec2-4ca9-ba28-5a5dad54cfd3","system_id":"levelo_inurba_marseille","lat":43.28482,"lon":5.48376,"is_reserved":false,"is_disabled":false,"rental_uris":{"android":"levelo://app?vid=d6b9d7ff-4ec2-4ca9-ba28-5a5dad54cfd3","ios":"levelo://app?vid=d6b9d7ff-4ec2-4ca9-ba28-5a5dad54cfd3"},"vehicle_type_id":"4","last_reported":1770835758,"current_range_meters":6000,"station_id":"","pricing_plan_id":"cebpf4jnsgd1na2vs0mg"},{"bike_id":"2e3ae36e-4a06-4039-92f9-975c6f7bf65f","system_id":"levelo_inurba_marseille","lat":43.26212,"lon":5.37436,"is_reserved":false,"is_disabled":false,"rental_uris":{"android":"levelo://app?vid=2e3ae36e-4a06-4039-92f9-975c6f7bf65f","ios":"levelo://app?vid=2e3ae36e-4a06-4039-92f9-975c6f7bf65f"},"vehicle_type_id":"4","last_reported":1770835758,"current_range_meters":6000,"station_id":"ce4bhgp2rcd13ifvqfc0","pricing_plan_id":"cebpf4jnsgd1na2vs0mg"},{"bike_id":"26c58297-f4b1-45e3-ad9b-de8767b87ae2","system_id":"levelo_inurba_marseille","lat":43.3092,"lon":5.4013,"is_reserved":false,"is_disabled":true,"rental_uris":{"android":"levelo://app?vid=26c58297-f4b1-45e3-ad9b-de8767b87ae2","ios":"levelo://app?vid=26c58297-f4b1-45e3-ad9b-de8767b87ae2"},"vehicle_type_id":"4","last_reported":1770835758,"current_range_meters":6000,"station_id":"ce4bgvp2rcd13ifvqct0","pricing_plan_id":"cebpf4jnsgd1na2vs0mg"},{"bike_id":"69cb53c0-4939-4da6-a53e-35e4cb2de7f7","system_id":"levelo_inurba_marseille","lat":43.22555,"lon":5.41624,"is_reserved":false,"is_disabled":false,"rental_uris":{"android":"levelo://app?vid=69cb53c0-4939-4da6-a53e-35e4cb2de7f7","ios":"levelo://app?vid=69cb53c0-4939-4da6-a53e-35e4cb2de7f7"},"vehicle_type_id":"4","last_reported":1770835758,"current_range_meters":6000,"station_id":"st_d2o4gvlbi1j2169b742g","pricing_plan_id":"cebpf4jnsgd1na2vs0mg"},{"bike_id":"238249fa-46de-416c-b2d1-b229a6220ad5","system_id":"levelo_inurba_marseille","lat":43.26576,"lon":5.38987,"is_reserved":false,"is_disabled":false,"rental_uris":{"android":"levelo://app?vid=238249fa-46de-416c-b2d1-b229a6220ad5","ios":"levelo://app?vid=238249fa-46de-416c-b2d1-b229a6220ad5"},"vehicle_type_id":"4","last_reported":1770835758,"current_range_meters":6000,"station_id":"ce4bhe12rcd13ifvqf30","pricing_plan_id":"cebpf4jnsgd1na2vs0mg"},{"bike_id":"2389c377-610b-499c-8d50-121314375edb","system_id":"levelo_inurba_marseille","lat":43.30601,"lon":5.37235,"is_reserved":false,"is_disabled":false,"rental_uris":{"android":"levelo://app?vid=2389c377-610b-499c-8d50-121314375edb","ios":"levelo://app?vid=2389c377-610b-499c-8d50-121314375edb"},"vehicle_type_id":"4","last_reported":1770835758,"current_range_meters":6000,"station_id":"ce4bgqh2rcd13ifvqc4g","pricing_plan_id":"cebpf4jnsgd1na2vs0mg"},{"bike_id":"ff541727-fb11-46ae-8fc7-2a64bc87dac3","system_id":"levelo_inurba_marseille","lat":43.29302,"lon":5.37163,"is_reserved":false,"is_disabled":false,"rental_uris":{"android":"levelo://app?vid=ff541727-fb11-46ae-8fc7-2a64bc87dac3","ios":"levelo://app?vid=ff541727-fb11-46ae-8fc7-2a64bc87dac3"},"vehicle_type_id":"4","last_reported":1770835758,"current_range_meters":6000,"station_id":"ce4bgh92rcd13ifvqb40","pricing_plan_id":"cebpf4jnsgd1na2vs0mg"},{"bike_id":"d90d3e5b-ff9d-438f-8730-bcb44d925a53","system_id":"levelo_inurba_marseille","lat":43.30535,"lon":5.3672,"is_reserved":false,"is_disabled":false,"rental_uris":{"android":"levelo://app?vid=d90d3e5b-ff9d-438f-8730-bcb44d925a53","ios":"levelo://app?vid=d90d3e5b-ff9d-438f-8730-bcb44d925a53"},"vehicle_type_id":"4","last_reported":1770835758,"current_range_meters":6000,"station_id":"ce4bgrp2rcd13ifvqc9g","pricing_plan_id":"cebpf4jnsgd1na2vs0mg"},{"bike_id":"bc58a61e-5dee-4f48-b37b-2d8085ac5b73","system_id":"levelo_inurba_marseille","lat":43.24959,"lon":5.40512,"is_reserved":false,"is_disabled":false,"rental_uris":{"android":"levelo://app?vid=bc58a61e-5dee-4f48-b37b-2d8085ac5b73","ios":"levelo://app?vid=bc58a61e-5dee-4f48-b37b-2d8085ac5b73"},"vehicle_type_id":"4","last_reported":1770835758,"current_range_meters":6400,"station_id":"st_d2ngiaodas8pm72gd1h0","pricing_plan_id":"cebpf4jnsgd1na2vs0mg"},{"bike_id":"1fed4add-aae6-45dc-a8f1-a0c848be9f5d","system_id":"levelo_inurba_marseille","lat":43.26203,"lon":5.37939,"is_reserved":false,"is_disabled":false,"rental_uris":{"android":"levelo://app?vid=1fed4add-aae6-45dc-a8f1-a0c848be9f5d","ios":"levelo://app?vid=1fed4add-aae6-45dc-a8f1-a0c848be9f5d"},"vehicle_type_id":"4","last_reported":1770835758,"current_range_meters":6400,"station_id":"ce4bhjp2rcd13ifvqg90","pricing_plan_id":"cebpf4jnsgd1na2vs0mg"},{"bike_id":"e658a892-8a45-4a6e-b361-727e767c33fd","system_id":"levelo_inurba_marseille","lat":43.31365,"lon":5.38498,"is_reserved":false,"is_disabled":false,"rental_uris":{"android":"levelo://app?vid=e658a892-8a45-4a6e-b361-727e767c33fd","ios":"levelo://app?vid=e658a892-8a45-4a6e-b361-727e767c33fd"},"vehicle_type_id":"4","last_reported":1770835758,"current_range_meters":6400,"station_id":"ce4bgt92rcd13ifvqcf0","pricing_plan_id":"cebpf4jnsgd1na2vs0mg"},{"bike_id":"e9bb864d-716b-4e3b-8001-9c508715c9a9","system_id":"levelo_inurba_marseille","lat":43.26563,"lon":5.37286,"is_reserved":false,"is_disabled":false,"rental_uris":{"android":"levelo://app?vid=e9bb864d-716b-4e3b-8001-9c508715c9a9","ios":"levelo://app?vid=e9bb864d-716b-4e3b-8001-9c508715c9a9"},"vehicle_type_id":"4","last_reported":1770835758,"current_range_meters":6400,"station_id":"ce4bhg12rcd13ifvqf70","pricing_plan_id":"cebpf4jnsgd1na2vs0mg"},{"bike_id":"357cfa49-eb2e-4ad7-9e86-ec1c9fac2bf5","system_id":"levelo_inurba_marseille","lat":43.2463,"lon":5.43145,"is_reserved":false,"is_disabled":false,"rental_uris":{"android":"levelo://app?vid=357cfa49-eb2e-4ad7-9e86-ec1c9fac2bf5","ios":"levelo://app?vid=357cfa49-eb2e-4ad7-9e86-ec1c9fac2bf5"},"vehicle_type_id":"4","last_reported":1770835758,"current_range_meters":6400,"station_id":"st_d2m6c4gdas8pm72e190g","pricing_plan_id":"cebpf4jnsgd1na2vs0mg"},{"bike_id":"f014daa9-2e02-4b72-b34d-afaef4744f24","system_id":"levelo_inurba_marseille","lat":43.30401,"lon":5.4131,"is_reserved":false,"is_disabled":false,"rental_uris":{"android":"levelo://app?vid=f014daa9-2e02-4b72-b34d-afaef4744f24","ios":"levelo://app?vid=f014daa9-2e02-4b72-b34d-afaef4744f24"},"vehicle_type_id":"4","last_reported":1770835758,"current_range_meters":6400,"station_id":"ce4bhop2rcd13ifvqh8g","pricing_plan_id":"cebpf4jnsgd1na2vs0mg"},{"bike_id":"93b00136-09fe-4a17-8fb6-8d647dc37c64","system_id":"levelo_inurba_marseille","lat":43.26219,"lon":5.37937,"is_reserved":false,"is_disabled":false,"rental_uris":{"android":"levelo://app?vid=93b00136-09fe-4a17-8fb6-8d647dc37c64","ios":"levelo://app?vid=93b00136-09fe-4a17-8fb6-8d647dc37c64"},"vehicle_type_id":"4","last_reported":1770835758,"current_range_meters":6400,"station_id":"ce4bhjp2rcd13ifvqg90","pricing_plan_id":"cebpf4jnsgd1na2vs0mg"},{"bike_id":"70fbccf0-1d8a-434a-b15f-78beac201af2","system_id":"levelo_inurba_marseille","lat":43.26579,"lon":5.39019,"is_reserved":false,"is_disabled":false,"rental_uris":{"android":"levelo://app?vid=70fbccf0-1d8a-434a-b15f-78beac201af2","ios":"levelo://app?vid=70fbccf0-1d8a-434a-b15f-78beac201af2"},"vehicle_type_id":"4","last_reported":1770835758,"current_range_meters":6400,"station_id":"ce4bhe12rcd13ifvqf30","pricing_plan_id":"cebpf4jnsgd1na2vs0mg"},{"bike_id":"e0693deb-ef28-4452-837a-badfbe10dbac","system_id":"levelo_inurba_marseille","lat":43.29631,"lon":5.40586,"is_reserved":false,"is_disabled":false,"rental_uris":{"android":"levelo://app?vid=e0693deb-ef28-4452-837a-badfbe10dbac","ios":"levelo://app?vid=e0693deb-ef28-4452-837a-badfbe10dbac"},"vehicle_type_id":"4","last_reported":1770835758,"current_range_meters":6400,"station_id":"ce4bh0h2rcd13ifvqd60","pricing_plan_id":"cebpf4jnsgd1na2vs0mg"},{"bike_id":"3550573d-6079-4eed-be88-1753840f954a","system_id":"levelo_inurba_marseille","lat":43.29161,"lon":5.37159,"is_reserved":false,"is_disabled":false,"rental_uris":{"android":"levelo://app?vid=3550573d-6079-4eed-be88-1753840f954a","ios":"levelo://app?vid=3550573d-6079-4eed-be88-1753840f954a"},"vehicle_type_id":"4","last_reported":1770835758,"current_range_meters":6400,"station_id":"ce4bha92rcd13ifvqeh0","pricing_plan_id":"cebpf4jnsgd1na2vs0mg"},{"bike_id":"f9ed33b9-c22f-4224-8fce-2fa3490b2166","system_id":"levelo_inurba_marseille","lat":43.24946,"lon":5.40506,"is_reserved":false,"is_disabled":false,"rental_uris":{"android":"levelo://app?vid=f9ed33b9-c22f-4224-8fce-2fa3490b2166","ios":"levelo://app?vid=f9ed33b9-c22f-4224-8fce-2fa3490b2166"},"vehicle_type_id":"4","last_reported":1770835758,"current_range_meters":6400,"station_id":"st_d2ngiaodas8pm72gd1h0","pricing_plan_id":"cebpf4jnsgd1na2vs0mg"},{"bike_id":"f45b5dc4-dff1-426b-9532-540b5dbc770e","system_id":"levelo_inurba_marseille","lat":43.29194,"lon":5.35788,"is_reserved":false,"is_disabled":false,"rental_uris":{"android":"levelo://app?vid=f45b5dc4-dff1-426b-9532-540b5dbc770e","ios":"levelo://app?vid=f45b5dc4-dff1-426b-9532-540b5dbc770e"},"vehicle_type_id":"4","last_reported":1770835758,"current_range_meters":6400,"station_id":"ce4bhb12rcd13ifvqel0","pricing_plan_id":"cebpf4jnsgd1na2vs0mg"},{"bike_id":"790047ba-72a7-4b2a-919a-c4d66e146e61","system_id":"levelo_inurba_marseille","lat":43.30322,"lon":5.40427,"is_reserved":false,"is_disabled":false,"rental_uris":{"android":"levelo://app?vid=790047ba-72a7-4b2a-919a-c4d66e146e61","ios":"levelo://app?vid=790047ba-72a7-4b2a-919a-c4d66e146e61"},"vehicle_type_id":"4","last_reported":1770835758,"current_range_meters":6400,"station_id":"ce4bh012rcd13ifvqd10","pricing_plan_id":"cebpf4jnsgd1na2vs0mg"},{"bike_id":"5ed0f3ca-c4eb-409c-9eb1-a3eed1b5d0e0","system_id":"levelo_inurba_marseille","lat":43.30379,"lon":5.42496,"is_reserved":false,"is_disabled":false,"rental_uris":{"android":"levelo://app?vid=5ed0f3ca-c4eb-409c-9eb1-a3eed1b5d0e0","ios":"levelo://app?vid=5ed0f3ca-c4eb-409c-9eb1-a3eed1b5d0e0"},"vehicle_type_id":"4","last_reported":1770835758,"current_range_meters":6400,"station_id":"ce4bhoh2rcd13ifvqh6g","pricing_plan_id":"cebpf4jnsgd1na2vs0mg"},{"bike_id":"7e792b68-2489-46aa-9ced-5103f17c9d5d","system_id":"levelo_inurba_marseille","lat":43.29307,"lon":5.37163,"is_reserved":false,"is_disabled":false,"rental_uris":{"android":"levelo://app?vid=7e792b68-2489-46aa-9ced-5103f17c9d5d","ios":"levelo://app?vid=7e792b68-2489-46aa-9ced-5103f17c9d5d"},"vehicle_type_id":"4","last_reported":1770835758,"current_range_meters":6400,"station_id":"ce4bgh92rcd13ifvqb40","pricing_plan_id":"cebpf4jnsgd1na2vs0mg"},{"bike_id":"b26f7bc8-3e05-415f-a7f6-6fe56a75bb5c","system_id":"levelo_inurba_marseille","lat":43.26047,"lon":5.39396,"is_reserved":false,"is_disabled":false,"rental_uris":{"android":"levelo://app?vid=b26f7bc8-3e05-415f-a7f6-6fe56a75bb5c","ios":"levelo://app?vid=b26f7bc8-3e05-415f-a7f6-6fe56a75bb5c"},"vehicle_type_id":"4","last_reported":1770835758,"current_range_meters":6400,"station_id":"ce4bhh92rcd13ifvqfj0","pricing_plan_id":"cebpf4jnsgd1na2vs0mg"},{"bike_id":"375dea6e-9d0d-4201-bab5-e343be855177","system_id":"levelo_inurba_marseille","lat":43.29551,"lon":5.42294,"is_reserved":false,"is_disabled":false,"rental_uris":{"android":"levelo://app?vid=375dea6e-9d0d-4201-bab5-e343be855177","ios":"levelo://app?vid=375dea6e-9d0d-4201-bab5-e343be855177"},"vehicle_type_id":"4","last_reported":1770835758,"current_range_meters":6800,"station_id":"ce4bhph2rcd13ifvqhdg","pricing_plan_id":"cebpf4jnsgd1na2vs0mg"},{"bike_id":"ef11e5ed-810d-4aa9-9e1f-1f501699d78d","system_id":"levelo_inurba_marseille","lat":43.25866,"lon":5.39895,"is_reserved":false,"is_disabled":false,"rental_uris":{"android":"levelo://app?vid=ef11e5ed-810d-4aa9-9e1f-1f501699d78d","ios":"levelo://app?vid=ef11e5ed-810d-4aa9-9e1f-1f501699d78d"},"vehicle_type_id":"4","last_reported":1770835758,"current_range_meters":6800,"station_id":"ce4bhl92rcd13ifvqghg","pricing_plan_id":"cebpf4jnsgd1na2vs0mg"},{"bike_id":"705379f0-9f22-461e-8900-3556f13ec82c","system_id":"levelo_inurba_marseille","lat":43.31706,"lon":5.37761,"is_reserved":false,"is_disabled":false,"rental_uris":{"android":"levelo://app?vid=705379f0-9f22-461e-8900-3556f13ec82c","ios":"levelo://app?vid=705379f0-9f22-461e-8900-3556f13ec82c"},"vehicle_type_id":"4","last_reported":1770835758,"current_range_meters":6800,"station_id":"ce4bgth2rcd13ifvqch0","pricing_plan_id":"cebpf4jnsgd1na2vs0mg"},{"bike_id":"78d33d8d-5024-43be-99b2-16c12c9acbc6","system_id":"levelo_inurba_marseille","lat":43.30883,"lon":5.39642,"is_reserved":false,"is_disabled":false,"rental_uris":{"android":"levelo://app?vid=78d33d8d-5024-43be-99b2-16c12c9acbc6","ios":"levelo://app?vid=78d33d8d-5024-43be-99b2-16c12c9acbc6"},"vehicle_type_id":"4","last_reported":1770835758,"current_range_meters":6800,"station_id":"ce4bh012rcd13ifvqcv0","pricing_plan_id":"cebpf4jnsgd1na2vs0mg"},{"bike_id":"d4ca1552-174d-4ef7-a9fa-51001d780ed8","system_id":"levelo_inurba_marseille","lat":43.317126,"lon":5.436965,"is_reserved":false,"is_disabled":false,"rental_uris":{"android":"levelo://app?vid=d4ca1552-174d-4ef7-a9fa-51001d780ed8","ios":"levelo://app?vid=d4ca1552-174d-4ef7-a9fa-51001d780ed8"},"vehicle_type_id":"4","last_reported":1770835758,"current_range_meters":6800,"station_id":"ce4bhp92rcd13ifvqhcg","pricing_plan_id":"cebpf4jnsgd1na2vs0mg"},{"bike_id":"e823969e-2173-4031-8b0a-b113d437a766","system_id":"levelo_inurba_marseille","lat":43.29794,"lon":5.38088,"is_reserved":false,"is_disabled":false,"rental_uris":{"android":"levelo://app?vid=e823969e-2173-4031-8b0a-b113d437a766","ios":"levelo://app?vid=e823969e-2173-4031-8b0a-b113d437a766"},"vehicle_type_id":"4","last_reported":1770835758,"current_range_meters":6800,"station_id":"ce4bgip2rcd13ifvqbb0","pricing_plan_id":"cebpf4jnsgd1na2vs0mg"},{"bike_id":"a8033c18-bf59-458a-9eb0-147256918905","system_id":"levelo_inurba_marseille","lat":43.31042,"lon":5.37174,"is_reserved":false,"is_disabled":false,"rental_uris":{"android":"levelo://app?vid=a8033c18-bf59-458a-9eb0-147256918905","ios":"levelo://app?vid=a8033c18-bf59-458a-9eb0-147256918905"},"vehicle_type_id":"4","last_reported":1770835758,"current_range_meters":6800,"station_id":"st_d4kl2rp97mjs73e7tdfg","pricing_plan_id":"cebpf4jnsgd1na2vs0mg"},{"bike_id":"32303b83-c4a8-44f4-8ce2-b1e5c08eb1ad","system_id":"levelo_inurba_marseille","lat":43.29014,"lon":5.38637,"is_reserved":false,"is_disabled":false,"rental_uris":{"android":"levelo://app?vid=32303b83-c4a8-44f4-8ce2-b1e5c08eb1ad","ios":"levelo://app?vid=32303b83-c4a8-44f4-8ce2-b1e5c08eb1ad"},"vehicle_type_id":"4","last_reported":1770835758,"current_range_meters":6800,"station_id":"ce4bh4p2rcd13ifvqe0g","pricing_plan_id":"cebpf4jnsgd1na2vs0mg"},{"bike_id":"ebcd8d34-81d0-4cc4-99c0-43334004f7f1","system_id":"levelo_inurba_marseille","lat":43.30358,"lon":5.4188,"is_reserved":false,"is_disabled":false,"rental_uris":{"android":"levelo://app?vid=ebcd8d34-81d0-4cc4-99c0-43334004f7f1","ios":"levelo://app?vid=ebcd8d34-81d0-4cc4-99c0-43334004f7f1"},"vehicle_type_id":"4","last_reported":1770835758,"current_range_meters":6800,"station_id":"ce4bhop2rcd13ifvqh7g","pricing_plan_id":"cebpf4jnsgd1na2vs0mg"},{"bike_id":"cb757f0d-9c7a-491d-bd37-8f151a926c0d","system_id":"levelo_inurba_marseille","lat":43.25574,"lon":5.38245,"is_reserved":false,"is_disabled":false,"rental_uris":{"android":"levelo://app?vid=cb757f0d-9c7a-491d-bd37-8f151a926c0d","ios":"levelo://app?vid=cb757f0d-9c7a-491d-bd37-8f151a926c0d"},"vehicle_type_id":"4","last_reported":1770835758,"current_range_meters":6800,"station_id":"ce4bhih2rcd13ifvqfs0","pricing_plan_id":"cebpf4jnsgd1na2vs0mg"},{"bike_id":"cc8657f3-cee0-4726-8427-1495a502b0dc","system_id":"levelo_inurba_marseille","lat":43.29758,"lon":5.42786,"is_reserved":false,"is_disabled":false,"rental_uris":{"android":"levelo://app?vid=cc8657f3-cee0-4726-8427-1495a502b0dc","ios":"levelo://app?vid=cc8657f3-cee0-4726-8427-1495a502b0dc"},"vehicle_type_id":"4","last_reported":1770835758,"current_range_meters":6800,"station_id":"st_d3md5207bmas73dh9klg","pricing_plan_id":"cebpf4jnsgd1na2vs0mg"},{"bike_id":"7ff03ac4-5fd5-442f-a807-6f226dbf180d","system_id":"levelo_inurba_marseille","lat":43.24395,"lon":5.37046,"is_reserved":false,"is_disabled":false,"rental_uris":{"android":"levelo://app?vid=7ff03ac4-5fd5-442f-a807-6f226dbf180d","ios":"levelo://app?vid=7ff03ac4-5fd5-442f-a807-6f226dbf180d"},"vehicle_type_id":"4","last_reported":1770835758,"current_range_meters":6800,"station_id":"ce4bhhh2rcd13ifvqfk0","pricing_plan_id":"cebpf4jnsgd1na2vs0mg"},{"bike_id":"ef6f6f9a-1e7f-4b02-9005-88ce28fde55b","system_id":"levelo_inurba_marseille","lat":43.295297,"lon":5.385463,"is_reserved":false,"is_disabled":false,"rental_uris":{"android":"levelo://app?vid=ef6f6f9a-1e7f-4b02-9005-88ce28fde55b","ios":"levelo://app?vid=ef6f6f9a-1e7f-4b02-9005-88ce28fde55b"},"vehicle_type_id":"4","last_reported":1770835758,"current_range_meters":6800,"station_id":"ce4bgih2rcd13ifvqba0","pricing_plan_id":"cebpf4jnsgd1na2vs0mg"},{"bike_id":"843ec0b4-2464-435f-b05d-c13f95b8a8d1","system_id":"levelo_inurba_marseille","lat":43.2756,"lon":5.38425,"is_reserved":false,"is_disabled":false,"rental_uris":{"android":"levelo://app?vid=843ec0b4-2464-435f-b05d-c13f95b8a8d1","ios":"levelo://app?vid=843ec0b4-2464-435f-b05d-c13f95b8a8d1"},"vehicle_type_id":"4","last_reported":1770835758,"current_range_meters":6800,"station_id":"ce4bhh92rcd13ifvqfi0","pricing_plan_id":"cebpf4jnsgd1na2vs0mg"},{"bike_id":"26fd39b2-683b-4f48-af64-734479f41e4f","system_id":"levelo_inurba_marseille","lat":43.28465,"lon":5.38415,"is_reserved":false,"is_disabled":false,"rental_uris":{"android":"levelo://app?vid=26fd39b2-683b-4f48-af64-734479f41e4f","ios":"levelo://app?vid=26fd39b2-683b-4f48-af64-734479f41e4f"},"vehicle_type_id":"4","last_reported":1770835758,"current_range_meters":6800,"station_id":"ce4bh512rcd13ifvqe3g","pricing_plan_id":"cebpf4jnsgd1na2vs0mg"},{"bike_id":"4dd60373-8ff7-40c1-a2c0-fc9a7c935991","system_id":"levelo_inurba_marseille","lat":43.28986,"lon":5.39853,"is_reserved":false,"is_disabled":false,"rental_uris":{"android":"levelo://app?vid=4dd60373-8ff7-40c1-a2c0-fc9a7c935991","ios":"levelo://app?vid=4dd60373-8ff7-40c1-a2c0-fc9a7c935991"},"vehicle_type_id":"4","last_reported":1770835758,"current_range_meters":6800,"station_id":"","pricing_plan_id":"cebpf4jnsgd1na2vs0mg"},{"bike_id":"fc926e62-d547-4211-87f5-199b8d976494","system_id":"levelo_inurba_marseille","lat":43.29257,"lon":5.36838,"is_reserved":false,"is_disabled":false,"rental_uris":{"android":"levelo://app?vid=fc926e62-d547-4211-87f5-199b8d976494","ios":"levelo://app?vid=fc926e62-d547-4211-87f5-199b8d976494"},"vehicle_type_id":"4","last_reported":1770835758,"current_range_meters":6800,"station_id":"ce4bhbp2rcd13ifvqesg","pricing_plan_id":"cebpf4jnsgd1na2vs0mg"},{"bike_id":"33352d89-c7bd-4d2f-8796-2f3b2fb0783e","system_id":"levelo_inurba_marseille","lat":43.28182,"lon":5.4277,"is_reserved":false,"is_disabled":false,"rental_uris":{"android":"levelo://app?vid=33352d89-c7bd-4d2f-8796-2f3b2fb0783e","ios":"levelo://app?vid=33352d89-c7bd-4d2f-8796-2f3b2fb0783e"},"vehicle_type_id":"4","last_reported":1770835758,"current_range_meters":6800,"station_id":"","pricing_plan_id":"cebpf4jnsgd1na2vs0mg"},{"bike_id":"e0601493-cc83-4451-bf55-92bc2f06e6f1","system_id":"levelo_inurba_marseille","lat":43.30912,"lon":5.36845,"is_reserved":false,"is_disabled":false,"rental_uris":{"android":"levelo://app?vid=e0601493-cc83-4451-bf55-92bc2f06e6f1","ios":"levelo://app?vid=e0601493-cc83-4451-bf55-92bc2f06e6f1"},"vehicle_type_id":"4","last_reported":1770835758,"current_range_meters":6800,"station_id":"ce4bgn92rcd13ifvqbvg","pricing_plan_id":"cebpf4jnsgd1na2vs0mg"},{"bike_id":"73b862d2-74cf-4817-a068-7b67ae2b63e4","system_id":"levelo_inurba_marseille","lat":43.29266,"lon":5.38444,"is_reserved":false,"is_disabled":false,"rental_uris":{"android":"levelo://app?vid=73b862d2-74cf-4817-a068-7b67ae2b63e4","ios":"levelo://app?vid=73b862d2-74cf-4817-a068-7b67ae2b63e4"},"vehicle_type_id":"4","last_reported":1770835758,"current_range_meters":6800,"station_id":"ce4bh692rcd13ifvqea0","pricing_plan_id":"cebpf4jnsgd1na2vs0mg"},{"bike_id":"91c3aa1b-6ba9-4cf3-a083-c7879249a02c","system_id":"levelo_inurba_marseille","lat":43.29055,"lon":5.35905,"is_reserved":false,"is_disabled":false,"rental_uris":{"android":"levelo://app?vid=91c3aa1b-6ba9-4cf3-a083-c7879249a02c","ios":"levelo://app?vid=91c3aa1b-6ba9-4cf3-a083-c7879249a02c"},"vehicle_type_id":"4","last_reported":1770835758,"current_range_meters":6800,"station_id":"ce4bha92rcd13ifvqeg0","pricing_plan_id":"cebpf4jnsgd1na2vs0mg"},{"bike_id":"30b0354f-22dc-4535-af7c-650710ae3f47","system_id":"levelo_inurba_marseille","lat":43.31703,"lon":5.37737,"is_reserved":false,"is_disabled":false,"rental_uris":{"android":"levelo://app?vid=30b0354f-22dc-4535-af7c-650710ae3f47","ios":"levelo://app?vid=30b0354f-22dc-4535-af7c-650710ae3f47"},"vehicle_type_id":"4","last_reported":1770835758,"current_range_meters":6800,"station_id":"ce4bgth2rcd13ifvqch0","pricing_plan_id":"cebpf4jnsgd1na2vs0mg"},{"bike_id":"35884372-d2e4-4dd3-bc86-50267dbafd38","system_id":"levelo_inurba_marseille","lat":43.28448,"lon":5.39203,"is_reserved":false,"is_disabled":false,"rental_uris":{"android":"levelo://app?vid=35884372-d2e4-4dd3-bc86-50267dbafd38","ios":"levelo://app?vid=35884372-d2e4-4dd3-bc86-50267dbafd38"},"vehicle_type_id":"4","last_reported":1770835758,"current_range_meters":6800,"station_id":"ce4bhoh2rcd13ifvqh5g","pricing_plan_id":"cebpf4jnsgd1na2vs0mg"},{"bike_id":"fe86c9ba-789d-48cb-b139-57215407552e","system_id":"levelo_inurba_marseille","lat":43.33768,"lon":5.37456,"is_reserved":false,"is_disabled":false,"rental_uris":{"android":"levelo://app?vid=fe86c9ba-789d-48cb-b139-57215407552e","ios":"levelo://app?vid=fe86c9ba-789d-48cb-b139-57215407552e"},"vehicle_type_id":"4","last_reported":1770835758,"current_range_meters":7200,"station_id":"","pricing_plan_id":"cebpf4jnsgd1na2vs0mg"},{"bike_id":"0d60f49b-2168-485f-9c8c-8bf326d0ba55","system_id":"levelo_inurba_marseille","lat":43.24502,"lon":5.42448,"is_reserved":false,"is_disabled":false,"rental_uris":{"android":"levelo://app?vid=0d60f49b-2168-485f-9c8c-8bf326d0ba55","ios":"levelo://app?vid=0d60f49b-2168-485f-9c8c-8bf326d0ba55"},"vehicle_type_id":"4","last_reported":1770835758,"current_range_meters":7200,"station_id":"","pricing_plan_id":"cebpf4jnsgd1na2vs0mg"},{"bike_id":"1a0d99f0-ee74-4956-bad4-992b0789ccc7","system_id":"levelo_inurba_marseille","lat":43.2119,"lon":5.35066,"is_reserved":false,"is_disabled":false,"rental_uris":{"android":"levelo://app?vid=1a0d99f0-ee74-4956-bad4-992b0789ccc7","ios":"levelo://app?vid=1a0d99f0-ee74-4956-bad4-992b0789ccc7"},"vehicle_type_id":"4","last_reported":1770835758,"current_range_meters":7200,"station_id":"st_cvj6sg6p6f1abm77japg","pricing_plan_id":"cebpf4jnsgd1na2vs0mg"},{"bike_id":"d5788555-bc82-48f3-bf66-fbca9562e20e","system_id":"levelo_inurba_marseille","lat":43.29877,"lon":5.39734,"is_reserved":false,"is_disabled":false,"rental_uris":{"android":"levelo://app?vid=d5788555-bc82-48f3-bf66-fbca9562e20e","ios":"levelo://app?vid=d5788555-bc82-48f3-bf66-fbca9562e20e"},"vehicle_type_id":"4","last_reported":1770835758,"current_range_meters":7200,"station_id":"ce4bh0h2rcd13ifvqd50","pricing_plan_id":"cebpf4jnsgd1na2vs0mg"},{"bike_id":"cd8d69b7-d3d9-4d19-b431-0fa6eed36a57","system_id":"levelo_inurba_marseille","lat":43.281082,"lon":5.37831,"is_reserved":false,"is_disabled":false,"rental_uris":{"android":"levelo://app?vid=cd8d69b7-d3d9-4d19-b431-0fa6eed36a57","ios":"levelo://app?vid=cd8d69b7-d3d9-4d19-b431-0fa6eed36a57"},"vehicle_type_id":"4","last_reported":1770835758,"current_range_meters":7200,"station_id":"ce4bha12rcd13ifvqee0","pricing_plan_id":"cebpf4jnsgd1na2vs0mg"},{"bike_id":"8b7be9a8-e573-4715-b5dd-5cc8dd700ea4","system_id":"levelo_inurba_marseille","lat":43.31783,"lon":5.38991,"is_reserved":false,"is_disabled":false,"rental_uris":{"android":"levelo://app?vid=8b7be9a8-e573-4715-b5dd-5cc8dd700ea4","ios":"levelo://app?vid=8b7be9a8-e573-4715-b5dd-5cc8dd700ea4"},"vehicle_type_id":"4","last_reported":1770835758,"current_range_meters":7200,"station_id":"ce4bhqp2rcd13ifvqhng","pricing_plan_id":"cebpf4jnsgd1na2vs0mg"},{"bike_id":"02ae9b10-bc6d-4991-9f3e-456fad332dbf","system_id":"levelo_inurba_marseille","lat":43.2792,"lon":5.39581,"is_reserved":false,"is_disabled":false,"rental_uris":{"android":"levelo://app?vid=02ae9b10-bc6d-4991-9f3e-456fad332dbf","ios":"levelo://app?vid=02ae9b10-bc6d-4991-9f3e-456fad332dbf"},"vehicle_type_id":"4","last_reported":1770835758,"current_range_meters":7200,"station_id":"ce4bhf92rcd13ifvqf40","pricing_plan_id":"cebpf4jnsgd1na2vs0mg"},{"bike_id":"8ff4a9fa-0d2e-4f7f-8193-e7a8dba5ca9a","system_id":"levelo_inurba_marseille","lat":43.25331,"lon":5.42157,"is_reserved":false,"is_disabled":false,"rental_uris":{"android":"levelo://app?vid=8ff4a9fa-0d2e-4f7f-8193-e7a8dba5ca9a","ios":"levelo://app?vid=8ff4a9fa-0d2e-4f7f-8193-e7a8dba5ca9a"},"vehicle_type_id":"4","last_reported":1770835758,"current_range_meters":7200,"station_id":"st_d2m65c5bi1j21697t3ng","pricing_plan_id":"cebpf4jnsgd1na2vs0mg"},{"bike_id":"8c97fd60-d6c0-4520-87ac-76619983536f","system_id":"levelo_inurba_marseille","lat":43.2773,"lon":5.37398,"is_reserved":false,"is_disabled":false,"rental_uris":{"android":"levelo://app?vid=8c97fd60-d6c0-4520-87ac-76619983536f","ios":"levelo://app?vid=8c97fd60-d6c0-4520-87ac-76619983536f"},"vehicle_type_id":"4","last_reported":1770835758,"current_range_meters":7200,"station_id":"","pricing_plan_id":"cebpf4jnsgd1na2vs0mg"},{"bike_id":"ae861497-9a22-4231-afa9-8238d5c5713c","system_id":"levelo_inurba_marseille","lat":43.24187,"lon":5.36372,"is_reserved":false,"is_disabled":false,"rental_uris":{"android":"levelo://app?vid=ae861497-9a22-4231-afa9-8238d5c5713c","ios":"levelo://app?vid=ae861497-9a22-4231-afa9-8238d5c5713c"},"vehicle_type_id":"4","last_reported":1770835758,"current_range_meters":7200,"station_id":"cpo36qri1sfpv3e86is0","pricing_plan_id":"cebpf4jnsgd1na2vs0mg"},{"bike_id":"ac8d4e76-78f4-4161-bbf6-db35ff2f9ca7","system_id":"levelo_inurba_marseille","lat":43.30688,"lon":5.41031,"is_reserved":false,"is_disabled":false,"rental_uris":{"android":"levelo://app?vid=ac8d4e76-78f4-4161-bbf6-db35ff2f9ca7","ios":"levelo://app?vid=ac8d4e76-78f4-4161-bbf6-db35ff2f9ca7"},"vehicle_type_id":"4","last_reported":1770835758,"current_range_meters":7200,"station_id":"","pricing_plan_id":"cebpf4jnsgd1na2vs0mg"},{"bike_id":"7b92e220-9d47-4ab3-998f-d8a4cc588b3b","system_id":"levelo_inurba_marseille","lat":43.24964,"lon":5.40474,"is_reserved":false,"is_disabled":false,"rental_uris":{"android":"levelo://app?vid=7b92e220-9d47-4ab3-998f-d8a4cc588b3b","ios":"levelo://app?vid=7b92e220-9d47-4ab3-998f-d8a4cc588b3b"},"vehicle_type_id":"4","last_reported":1770835758,"current_range_meters":7200,"station_id":"st_d2ngiaodas8pm72gd1h0","pricing_plan_id":"cebpf4jnsgd1na2vs0mg"},{"bike_id":"73adc959-6ab7-428b-b7d2-aaafd84c0048","system_id":"levelo_inurba_marseille","lat":43.28855,"lon":5.35863,"is_reserved":false,"is_disabled":false,"rental_uris":{"android":"levelo://app?vid=73adc959-6ab7-428b-b7d2-aaafd84c0048","ios":"levelo://app?vid=73adc959-6ab7-428b-b7d2-aaafd84c0048"},"vehicle_type_id":"4","last_reported":1770835758,"current_range_meters":7200,"station_id":"ce4bhb12rcd13ifvqem0","pricing_plan_id":"cebpf4jnsgd1na2vs0mg"},{"bike_id":"6efe5f0a-6c4f-403e-907f-5428484845d2","system_id":"levelo_inurba_marseille","lat":43.31709,"lon":5.40387,"is_reserved":false,"is_disabled":false,"rental_uris":{"android":"levelo://app?vid=6efe5f0a-6c4f-403e-907f-5428484845d2","ios":"levelo://app?vid=6efe5f0a-6c4f-403e-907f-5428484845d2"},"vehicle_type_id":"4","last_reported":1770835758,"current_range_meters":7200,"station_id":"","pricing_plan_id":"cebpf4jnsgd1na2vs0mg"},{"bike_id":"2a63844a-84ce-42ba-a570-71001293621e","system_id":"levelo_inurba_marseille","lat":43.30824,"lon":5.43535,"is_reserved":false,"is_disabled":false,"rental_uris":{"android":"levelo://app?vid=2a63844a-84ce-42ba-a570-71001293621e","ios":"levelo://app?vid=2a63844a-84ce-42ba-a570-71001293621e"},"vehicle_type_id":"4","last_reported":1770835758,"current_range_meters":7200,"station_id":"","pricing_plan_id":"cebpf4jnsgd1na2vs0mg"},{"bike_id":"80402ecf-b8d7-4b37-a51b-bc25571b17fe","system_id":"levelo_inurba_marseille","lat":43.26196,"lon":5.40477,"is_reserved":false,"is_disabled":true,"rental_uris":{"android":"levelo://app?vid=80402ecf-b8d7-4b37-a51b-bc25571b17fe","ios":"levelo://app?vid=80402ecf-b8d7-4b37-a51b-bc25571b17fe"},"vehicle_type_id":"4","last_reported":1770835758,"current_range_meters":7200,"station_id":"ce4bhmh2rcd13ifvqgmg","pricing_plan_id":"cebpf4jnsgd1na2vs0mg"},{"bike_id":"ea1c6171-5afb-4c13-9162-abe8d2806df9","system_id":"levelo_inurba_marseille","lat":43.27057,"lon":5.3831,"is_reserved":false,"is_disabled":false,"rental_uris":{"android":"levelo://app?vid=ea1c6171-5afb-4c13-9162-abe8d2806df9","ios":"levelo://app?vid=ea1c6171-5afb-4c13-9162-abe8d2806df9"},"vehicle_type_id":"4","last_reported":1770835758,"current_range_meters":7200,"station_id":"st_d3n2fo6cfp8s73cte1j0","pricing_plan_id":"cebpf4jnsgd1na2vs0mg"},{"bike_id":"f2771c45-2ad0-4168-bbd5-c0743a6ce978","system_id":"levelo_inurba_marseille","lat":43.296035,"lon":5.38121,"is_reserved":false,"is_disabled":false,"rental_uris":{"android":"levelo://app?vid=f2771c45-2ad0-4168-bbd5-c0743a6ce978","ios":"levelo://app?vid=f2771c45-2ad0-4168-bbd5-c0743a6ce978"},"vehicle_type_id":"4","last_reported":1770835758,"current_range_meters":7200,"station_id":"ce4bgl12rcd13ifvqbo0","pricing_plan_id":"cebpf4jnsgd1na2vs0mg"},{"bike_id":"3994f5c1-bf2b-4a24-a275-4da559f65bef","system_id":"levelo_inurba_marseille","lat":43.31268,"lon":5.40163,"is_reserved":false,"is_disabled":false,"rental_uris":{"android":"levelo://app?vid=3994f5c1-bf2b-4a24-a275-4da559f65bef","ios":"levelo://app?vid=3994f5c1-bf2b-4a24-a275-4da559f65bef"},"vehicle_type_id":"4","last_reported":1770835758,"current_range_meters":7200,"station_id":"ce4bh092rcd13ifvqd30","pricing_plan_id":"cebpf4jnsgd1na2vs0mg"},{"bike_id":"b4618117-7084-4992-a916-2dc59b69f7fb","system_id":"levelo_inurba_marseille","lat":43.29531,"lon":5.38538,"is_reserved":false,"is_disabled":false,"rental_uris":{"android":"levelo://app?vid=b4618117-7084-4992-a916-2dc59b69f7fb","ios":"levelo://app?vid=b4618117-7084-4992-a916-2dc59b69f7fb"},"vehicle_type_id":"4","last_reported":1770835758,"current_range_meters":7200,"station_id":"ce4bgih2rcd13ifvqba0","pricing_plan_id":"cebpf4jnsgd1na2vs0mg"},{"bike_id":"cc43a2a6-4df1-46ee-89a5-e5908a5338ed","system_id":"levelo_inurba_marseille","lat":43.28476,"lon":5.48381,"is_reserved":false,"is_disabled":false,"rental_uris":{"android":"levelo://app?vid=cc43a2a6-4df1-46ee-89a5-e5908a5338ed","ios":"levelo://app?vid=cc43a2a6-4df1-46ee-89a5-e5908a5338ed"},"vehicle_type_id":"4","last_reported":1770835758,"current_range_meters":7200,"station_id":"st_d3svhcjqgbts73a3dn0g","pricing_plan_id":"cebpf4jnsgd1na2vs0mg"},{"bike_id":"adea831c-22b5-45fd-8757-774606906c99","system_id":"levelo_inurba_marseille","lat":43.25512,"lon":5.37653,"is_reserved":false,"is_disabled":false,"rental_uris":{"android":"levelo://app?vid=adea831c-22b5-45fd-8757-774606906c99","ios":"levelo://app?vid=adea831c-22b5-45fd-8757-774606906c99"},"vehicle_type_id":"4","last_reported":1770835758,"current_range_meters":8000,"station_id":"ce4bhh12rcd13ifvqff0","pricing_plan_id":"cebpf4jnsgd1na2vs0mg"},{"bike_id":"9c4fa197-e784-47a1-9a3e-1e64aa186f14","system_id":"levelo_inurba_marseille","lat":43.25932,"lon":5.40902,"is_reserved":false,"is_disabled":false,"rental_uris":{"android":"levelo://app?vid=9c4fa197-e784-47a1-9a3e-1e64aa186f14","ios":"levelo://app?vid=9c4fa197-e784-47a1-9a3e-1e64aa186f14"},"vehicle_type_id":"4","last_reported":1770835758,"current_range_meters":8000,"station_id":"ce4bhm92rcd13ifvqglg","pricing_plan_id":"cebpf4jnsgd1na2vs0mg"},{"bike_id":"062188ea-bb7c-4305-9db6-8d3c62c894c4","system_id":"levelo_inurba_marseille","lat":43.30209,"lon":5.40076,"is_reserved":false,"is_disabled":false,"rental_uris":{"android":"levelo://app?vid=062188ea-bb7c-4305-9db6-8d3c62c894c4","ios":"levelo://app?vid=062188ea-bb7c-4305-9db6-8d3c62c894c4"},"vehicle_type_id":"4","last_reported":1770835758,"current_range_meters":8000,"station_id":"","pricing_plan_id":"cebpf4jnsgd1na2vs0mg"},{"bike_id":"e44df137-3a9f-4865-a2d3-769a6f5bfc14","system_id":"levelo_inurba_marseille","lat":43.30906,"lon":5.36852,"is_reserved":false,"is_disabled":false,"rental_uris":{"android":"levelo://app?vid=e44df137-3a9f-4865-a2d3-769a6f5bfc14","ios":"levelo://app?vid=e44df137-3a9f-4865-a2d3-769a6f5bfc14"},"vehicle_type_id":"4","last_reported":1770835758,"current_range_meters":8000,"station_id":"ce4bgn92rcd13ifvqbvg","pricing_plan_id":"cebpf4jnsgd1na2vs0mg"},{"bike_id":"069eabd3-b663-4b33-b353-f5e3094d5bf7","system_id":"levelo_inurba_marseille","lat":43.30534,"lon":5.36525,"is_reserved":false,"is_disabled":false,"rental_uris":{"android":"levelo://app?vid=069eabd3-b663-4b33-b353-f5e3094d5bf7","ios":"levelo://app?vid=069eabd3-b663-4b33-b353-f5e3094d5bf7"},"vehicle_type_id":"4","last_reported":1770835758,"current_range_meters":8000,"station_id":"ce4bgs12rcd13ifvqcag","pricing_plan_id":"cebpf4jnsgd1na2vs0mg"},{"bike_id":"fdcca747-1f0c-4265-9d25-6a349973ec5d","system_id":"levelo_inurba_marseille","lat":43.33158,"lon":5.37696,"is_reserved":false,"is_disabled":false,"rental_uris":{"android":"levelo://app?vid=fdcca747-1f0c-4265-9d25-6a349973ec5d","ios":"levelo://app?vid=fdcca747-1f0c-4265-9d25-6a349973ec5d"},"vehicle_type_id":"4","last_reported":1770835758,"current_range_meters":8000,"station_id":"st_d46cu089ee8s73dldbu0","pricing_plan_id":"cebpf4jnsgd1na2vs0mg"},{"bike_id":"63fa437f-0154-4afc-a0c2-c9660e8328f6","system_id":"levelo_inurba_marseille","lat":43.2862,"lon":5.39895,"is_reserved":false,"is_disabled":false,"rental_uris":{"android":"levelo://app?vid=63fa437f-0154-4afc-a0c2-c9660e8328f6","ios":"levelo://app?vid=63fa437f-0154-4afc-a0c2-c9660e8328f6"},"vehicle_type_id":"4","last_reported":1770835758,"current_range_meters":8000,"station_id":"st_d4a7ka997mjs738ck50g","pricing_plan_id":"cebpf4jnsgd1na2vs0mg"},{"bike_id":"4fd8eece-b22e-43bb-8f4c-03ab303ec417","system_id":"levelo_inurba_marseille","lat":43.31133,"lon":5.3776,"is_reserved":false,"is_disabled":false,"rental_uris":{"android":"levelo://app?vid=4fd8eece-b22e-43bb-8f4c-03ab303ec417","ios":"levelo://app?vid=4fd8eece-b22e-43bb-8f4c-03ab303ec417"},"vehicle_type_id":"4","last_reported":1770835758,"current_range_meters":8000,"station_id":"ce4bgt92rcd13ifvqcg0","pricing_plan_id":"cebpf4jnsgd1na2vs0mg"},{"bike_id":"5fda65b6-7f98-4bf6-b2de-a2c95ed917cc","system_id":"levelo_inurba_marseille","lat":43.254471,"lon":5.38445,"is_reserved":false,"is_disabled":false,"rental_uris":{"android":"levelo://app?vid=5fda65b6-7f98-4bf6-b2de-a2c95ed917cc","ios":"levelo://app?vid=5fda65b6-7f98-4bf6-b2de-a2c95ed917cc"},"vehicle_type_id":"4","last_reported":1770835758,"current_range_meters":8000,"station_id":"","pricing_plan_id":"cebpf4jnsgd1na2vs0mg"},{"bike_id":"ac9a885a-fe7d-4871-905c-95e91acf3aa8","system_id":"levelo_inurba_marseille","lat":43.22562,"lon":5.41625,"is_reserved":false,"is_disabled":false,"rental_uris":{"android":"levelo://app?vid=ac9a885a-fe7d-4871-905c-95e91acf3aa8","ios":"levelo://app?vid=ac9a885a-fe7d-4871-905c-95e91acf3aa8"},"vehicle_type_id":"4","last_reported":1770835758,"current_range_meters":8000,"station_id":"st_d2o4gvlbi1j2169b742g","pricing_plan_id":"cebpf4jnsgd1na2vs0mg"},{"bike_id":"86d4fe23-69b8-443a-a079-cfaf305b250a","system_id":"levelo_inurba_marseille","lat":43.29222,"lon":5.36081,"is_reserved":false,"is_disabled":false,"rental_uris":{"android":"levelo://app?vid=86d4fe23-69b8-443a-a079-cfaf305b250a","ios":"levelo://app?vid=86d4fe23-69b8-443a-a079-cfaf305b250a"},"vehicle_type_id":"4","last_reported":1770835758,"current_range_meters":8000,"station_id":"ce4bhbh2rcd13ifvqeqg","pricing_plan_id":"cebpf4jnsgd1na2vs0mg"},{"bike_id":"1c8ad576-b604-4822-b51b-92bbf6fee65c","system_id":"levelo_inurba_marseille","lat":43.26589,"lon":5.39095,"is_reserved":false,"is_disabled":false,"rental_uris":{"android":"levelo://app?vid=1c8ad576-b604-4822-b51b-92bbf6fee65c","ios":"levelo://app?vid=1c8ad576-b604-4822-b51b-92bbf6fee65c"},"vehicle_type_id":"4","last_reported":1770835758,"current_range_meters":8000,"station_id":"","pricing_plan_id":"cebpf4jnsgd1na2vs0mg"},{"bike_id":"60144355-c5a2-4b27-9517-15dba4ba79a0","system_id":"levelo_inurba_marseille","lat":43.25584,"lon":5.38239,"is_reserved":false,"is_disabled":true,"rental_uris":{"android":"levelo://app?vid=60144355-c5a2-4b27-9517-15dba4ba79a0","ios":"levelo://app?vid=60144355-c5a2-4b27-9517-15dba4ba79a0"},"vehicle_type_id":"4","last_reported":1770835758,"current_range_meters":8000,"station_id":"ce4bhih2rcd13ifvqfs0","pricing_plan_id":"cebpf4jnsgd1na2vs0mg"},{"bike_id":"bf3e85a3-8bb6-49da-a61e-dfdc8a348318","system_id":"levelo_inurba_marseille","lat":43.29003,"lon":5.356014,"is_reserved":false,"is_disabled":false,"rental_uris":{"android":"levelo://app?vid=bf3e85a3-8bb6-49da-a61e-dfdc8a348318","ios":"levelo://app?vid=bf3e85a3-8bb6-49da-a61e-dfdc8a348318"},"vehicle_type_id":"4","last_reported":1770835758,"current_range_meters":8000,"station_id":"ce4bhb92rcd13ifvqen0","pricing_plan_id":"cebpf4jnsgd1na2vs0mg"},{"bike_id":"a2f2cbbe-9ce4-4cab-88e6-da1feaefef72","system_id":"levelo_inurba_marseille","lat":43.241835,"lon":5.39705,"is_reserved":false,"is_disabled":false,"rental_uris":{"android":"levelo://app?vid=a2f2cbbe-9ce4-4cab-88e6-da1feaefef72","ios":"levelo://app?vid=a2f2cbbe-9ce4-4cab-88e6-da1feaefef72"},"vehicle_type_id":"4","last_reported":1770835758,"current_range_meters":8000,"station_id":"ce4bhn12rcd13ifvqgpg","pricing_plan_id":"cebpf4jnsgd1na2vs0mg"},{"bike_id":"ea03ce43-be45-4e97-ae51-fe19970320b2","system_id":"levelo_inurba_marseille","lat":43.31223,"lon":5.36844,"is_reserved":false,"is_disabled":false,"rental_uris":{"android":"levelo://app?vid=ea03ce43-be45-4e97-ae51-fe19970320b2","ios":"levelo://app?vid=ea03ce43-be45-4e97-ae51-fe19970320b2"},"vehicle_type_id":"4","last_reported":1770835758,"current_range_meters":8000,"station_id":"ce4bgl92rcd13ifvqbq0","pricing_plan_id":"cebpf4jnsgd1na2vs0mg"},{"bike_id":"babdcd4a-655b-4e95-88f5-77a8529739da","system_id":"levelo_inurba_marseille","lat":43.22564,"lon":5.41631,"is_reserved":false,"is_disabled":false,"rental_uris":{"android":"levelo://app?vid=babdcd4a-655b-4e95-88f5-77a8529739da","ios":"levelo://app?vid=babdcd4a-655b-4e95-88f5-77a8529739da"},"vehicle_type_id":"4","last_reported":1770835758,"current_range_meters":8000,"station_id":"st_d2o4gvlbi1j2169b742g","pricing_plan_id":"cebpf4jnsgd1na2vs0mg"},{"bike_id":"e5f6fbc0-79bf-4a02-84c6-e4620cc9aeec","system_id":"levelo_inurba_marseille","lat":43.290139,"lon":5.38632,"is_reserved":false,"is_disabled":false,"rental_uris":{"android":"levelo://app?vid=e5f6fbc0-79bf-4a02-84c6-e4620cc9aeec","ios":"levelo://app?vid=e5f6fbc0-79bf-4a02-84c6-e4620cc9aeec"},"vehicle_type_id":"4","last_reported":1770835758,"current_range_meters":8400,"station_id":"ce4bh4p2rcd13ifvqe0g","pricing_plan_id":"cebpf4jnsgd1na2vs0mg"},{"bike_id":"fe85a283-164e-4135-8ab7-7e2210250f6e","system_id":"levelo_inurba_marseille","lat":43.26063,"lon":5.39378,"is_reserved":false,"is_disabled":false,"rental_uris":{"android":"levelo://app?vid=fe85a283-164e-4135-8ab7-7e2210250f6e","ios":"levelo://app?vid=fe85a283-164e-4135-8ab7-7e2210250f6e"},"vehicle_type_id":"4","last_reported":1770835758,"current_range_meters":8400,"station_id":"ce4bhh92rcd13ifvqfj0","pricing_plan_id":"cebpf4jnsgd1na2vs0mg"},{"bike_id":"c1d994da-b33c-4a64-a196-28f0ec7412ca","system_id":"levelo_inurba_marseille","lat":43.31694,"lon":5.43698,"is_reserved":false,"is_disabled":false,"rental_uris":{"android":"levelo://app?vid=c1d994da-b33c-4a64-a196-28f0ec7412ca","ios":"levelo://app?vid=c1d994da-b33c-4a64-a196-28f0ec7412ca"},"vehicle_type_id":"4","last_reported":1770835758,"current_range_meters":8400,"station_id":"ce4bhp92rcd13ifvqhcg","pricing_plan_id":"cebpf4jnsgd1na2vs0mg"},{"bike_id":"834da72d-2e32-479e-bc3f-592da1e51209","system_id":"levelo_inurba_marseille","lat":43.27079,"lon":5.42278,"is_reserved":false,"is_disabled":false,"rental_uris":{"android":"levelo://app?vid=834da72d-2e32-479e-bc3f-592da1e51209","ios":"levelo://app?vid=834da72d-2e32-479e-bc3f-592da1e51209"},"vehicle_type_id":"4","last_reported":1770835758,"current_range_meters":8400,"station_id":"ce4bhk92rcd13ifvqgb0","pricing_plan_id":"cebpf4jnsgd1na2vs0mg"},{"bike_id":"ba0b2d2c-35aa-4322-be5a-af29af413301","system_id":"levelo_inurba_marseille","lat":43.29535,"lon":5.38549,"is_reserved":false,"is_disabled":false,"rental_uris":{"android":"levelo://app?vid=ba0b2d2c-35aa-4322-be5a-af29af413301","ios":"levelo://app?vid=ba0b2d2c-35aa-4322-be5a-af29af413301"},"vehicle_type_id":"4","last_reported":1770835758,"current_range_meters":8400,"station_id":"ce4bgih2rcd13ifvqba0","pricing_plan_id":"cebpf4jnsgd1na2vs0mg"},{"bike_id":"4878db2c-1746-4e84-a2dc-9ef31135b542","system_id":"levelo_inurba_marseille","lat":43.25881,"lon":5.39911,"is_reserved":false,"is_disabled":false,"rental_uris":{"android":"levelo://app?vid=4878db2c-1746-4e84-a2dc-9ef31135b542","ios":"levelo://app?vid=4878db2c-1746-4e84-a2dc-9ef31135b542"},"vehicle_type_id":"4","last_reported":1770835758,"current_range_meters":8400,"station_id":"ce4bhl92rcd13ifvqghg","pricing_plan_id":"cebpf4jnsgd1na2vs0mg"},{"bike_id":"d997c6b7-acb1-4efa-ae35-2d8c161e2e69","system_id":"levelo_inurba_marseille","lat":43.23192,"lon":5.3554,"is_reserved":false,"is_disabled":false,"rental_uris":{"android":"levelo://app?vid=d997c6b7-acb1-4efa-ae35-2d8c161e2e69","ios":"levelo://app?vid=d997c6b7-acb1-4efa-ae35-2d8c161e2e69"},"vehicle_type_id":"4","last_reported":1770835758,"current_range_meters":8400,"station_id":"ce4bhu92rcd13ifvqi70","pricing_plan_id":"cebpf4jnsgd1na2vs0mg"},{"bike_id":"9e3bc487-b0e5-43b2-98b8-caa6f87f206e","system_id":"levelo_inurba_marseille","lat":43.31722,"lon":5.37767,"is_reserved":false,"is_disabled":false,"rental_uris":{"android":"levelo://app?vid=9e3bc487-b0e5-43b2-98b8-caa6f87f206e","ios":"levelo://app?vid=9e3bc487-b0e5-43b2-98b8-caa6f87f206e"},"vehicle_type_id":"4","last_reported":1770835758,"current_range_meters":8400,"station_id":"ce4bgth2rcd13ifvqch0","pricing_plan_id":"cebpf4jnsgd1na2vs0mg"},{"bike_id":"a9753177-0e8a-4992-81b3-7adec029f064","system_id":"levelo_inurba_marseille","lat":43.303454,"lon":5.418699,"is_reserved":false,"is_disabled":false,"rental_uris":{"android":"levelo://app?vid=a9753177-0e8a-4992-81b3-7adec029f064","ios":"levelo://app?vid=a9753177-0e8a-4992-81b3-7adec029f064"},"vehicle_type_id":"4","last_reported":1770835758,"current_range_meters":8400,"station_id":"ce4bhop2rcd13ifvqh7g","pricing_plan_id":"cebpf4jnsgd1na2vs0mg"},{"bike_id":"1b0fd623-7e57-4000-8479-ea9160ac13c8","system_id":"levelo_inurba_marseille","lat":43.28701,"lon":5.37384,"is_reserved":false,"is_disabled":false,"rental_uris":{"android":"levelo://app?vid=1b0fd623-7e57-4000-8479-ea9160ac13c8","ios":"levelo://app?vid=1b0fd623-7e57-4000-8479-ea9160ac13c8"},"vehicle_type_id":"4","last_reported":1770835758,"current_range_meters":8400,"station_id":"ce4bh3p2rcd13ifvqdq0","pricing_plan_id":"cebpf4jnsgd1na2vs0mg"},{"bike_id":"602b1aa7-ae78-4f99-bdeb-c1fa3809495e","system_id":"levelo_inurba_marseille","lat":43.2438,"lon":5.37066,"is_reserved":false,"is_disabled":false,"rental_uris":{"android":"levelo://app?vid=602b1aa7-ae78-4f99-bdeb-c1fa3809495e","ios":"levelo://app?vid=602b1aa7-ae78-4f99-bdeb-c1fa3809495e"},"vehicle_type_id":"4","last_reported":1770835758,"current_range_meters":8400,"station_id":"ce4bhhh2rcd13ifvqfk0","pricing_plan_id":"cebpf4jnsgd1na2vs0mg"},{"bike_id":"9b586055-3525-4e43-ae53-8d6c2fff45ed","system_id":"levelo_inurba_marseille","lat":43.24177,"lon":5.36406,"is_reserved":false,"is_disabled":false,"rental_uris":{"android":"levelo://app?vid=9b586055-3525-4e43-ae53-8d6c2fff45ed","ios":"levelo://app?vid=9b586055-3525-4e43-ae53-8d6c2fff45ed"},"vehicle_type_id":"4","last_reported":1770835758,"current_range_meters":8400,"station_id":"cpo36qri1sfpv3e86is0","pricing_plan_id":"cebpf4jnsgd1na2vs0mg"},{"bike_id":"984cee98-af16-42cf-8e4d-eb2b3c2af590","system_id":"levelo_inurba_marseille","lat":43.29542,"lon":5.38558,"is_reserved":false,"is_disabled":false,"rental_uris":{"android":"levelo://app?vid=984cee98-af16-42cf-8e4d-eb2b3c2af590","ios":"levelo://app?vid=984cee98-af16-42cf-8e4d-eb2b3c2af590"},"vehicle_type_id":"4","last_reported":1770835758,"current_range_meters":8400,"station_id":"ce4bgih2rcd13ifvqba0","pricing_plan_id":"cebpf4jnsgd1na2vs0mg"},{"bike_id":"fe4ee05c-ad4b-4888-9cc1-3bef96c9edd8","system_id":"levelo_inurba_marseille","lat":43.24463,"lon":5.42532,"is_reserved":false,"is_disabled":false,"rental_uris":{"android":"levelo://app?vid=fe4ee05c-ad4b-4888-9cc1-3bef96c9edd8","ios":"levelo://app?vid=fe4ee05c-ad4b-4888-9cc1-3bef96c9edd8"},"vehicle_type_id":"4","last_reported":1770835758,"current_range_meters":8400,"station_id":"st_d4a3vfp97mjs738cd8kg","pricing_plan_id":"cebpf4jnsgd1na2vs0mg"},{"bike_id":"bcce5f79-20a0-405d-958a-043b21ab798e","system_id":"levelo_inurba_marseille","lat":43.29269,"lon":5.38421,"is_reserved":false,"is_disabled":false,"rental_uris":{"android":"levelo://app?vid=bcce5f79-20a0-405d-958a-043b21ab798e","ios":"levelo://app?vid=bcce5f79-20a0-405d-958a-043b21ab798e"},"vehicle_type_id":"4","last_reported":1770835758,"current_range_meters":8400,"station_id":"ce4bh692rcd13ifvqea0","pricing_plan_id":"cebpf4jnsgd1na2vs0mg"},{"bike_id":"2078f022-81f2-476d-9478-f1faba0023cf","system_id":"levelo_inurba_marseille","lat":43.29273,"lon":5.38431,"is_reserved":false,"is_disabled":false,"rental_uris":{"android":"levelo://app?vid=2078f022-81f2-476d-9478-f1faba0023cf","ios":"levelo://app?vid=2078f022-81f2-476d-9478-f1faba0023cf"},"vehicle_type_id":"4","last_reported":1770835758,"current_range_meters":8400,"station_id":"ce4bh692rcd13ifvqea0","pricing_plan_id":"cebpf4jnsgd1na2vs0mg"},{"bike_id":"af88578f-1339-4d5d-b019-9c948826c3e9","system_id":"levelo_inurba_marseille","lat":43.27333,"lon":5.39076,"is_reserved":false,"is_disabled":false,"rental_uris":{"android":"levelo://app?vid=af88578f-1339-4d5d-b019-9c948826c3e9","ios":"levelo://app?vid=af88578f-1339-4d5d-b019-9c948826c3e9"},"vehicle_type_id":"4","last_reported":1770835758,"current_range_meters":8400,"station_id":"ce4bhgp2rcd13ifvqfe0","pricing_plan_id":"cebpf4jnsgd1na2vs0mg"},{"bike_id":"1ef2e3fb-a11e-4cc4-96b5-ecbfbbb8d188","system_id":"levelo_inurba_marseille","lat":43.31492,"lon":5.372875,"is_reserved":false,"is_disabled":false,"rental_uris":{"android":"levelo://app?vid=1ef2e3fb-a11e-4cc4-96b5-ecbfbbb8d188","ios":"levelo://app?vid=1ef2e3fb-a11e-4cc4-96b5-ecbfbbb8d188"},"vehicle_type_id":"4","last_reported":1770835758,"current_range_meters":8400,"station_id":"ce4bgt12rcd13ifvqcd0","pricing_plan_id":"cebpf4jnsgd1na2vs0mg"},{"bike_id":"8b4b38ac-f6cb-48ed-90a4-30149ea67fd7","system_id":"levelo_inurba_marseille","lat":43.29204,"lon":5.39659,"is_reserved":false,"is_disabled":false,"rental_uris":{"android":"levelo://app?vid=8b4b38ac-f6cb-48ed-90a4-30149ea67fd7","ios":"levelo://app?vid=8b4b38ac-f6cb-48ed-90a4-30149ea67fd7"},"vehicle_type_id":"4","last_reported":1770835758,"current_range_meters":8400,"station_id":"","pricing_plan_id":"cebpf4jnsgd1na2vs0mg"},{"bike_id":"20203afd-3c72-4acb-8f85-5dd1c68a7efd","system_id":"levelo_inurba_marseille","lat":43.29283,"lon":5.3745,"is_reserved":false,"is_disabled":false,"rental_uris":{"android":"levelo://app?vid=20203afd-3c72-4acb-8f85-5dd1c68a7efd","ios":"levelo://app?vid=20203afd-3c72-4acb-8f85-5dd1c68a7efd"},"vehicle_type_id":"4","last_reported":1770835758,"current_range_meters":8800,"station_id":"ce4bgi12rcd13ifvqb70","pricing_plan_id":"cebpf4jnsgd1na2vs0mg"},{"bike_id":"8e298756-702e-457c-bb9c-74d840066687","system_id":"levelo_inurba_marseille","lat":43.29,"lon":5.35606,"is_reserved":false,"is_disabled":false,"rental_uris":{"android":"levelo://app?vid=8e298756-702e-457c-bb9c-74d840066687","ios":"levelo://app?vid=8e298756-702e-457c-bb9c-74d840066687"},"vehicle_type_id":"4","last_reported":1770835758,"current_range_meters":8800,"station_id":"ce4bhb92rcd13ifvqen0","pricing_plan_id":"cebpf4jnsgd1na2vs0mg"},{"bike_id":"f80528f9-6bb1-4b22-a63c-5e57ad403fb2","system_id":"levelo_inurba_marseille","lat":43.24654,"lon":5.38143,"is_reserved":false,"is_disabled":false,"rental_uris":{"android":"levelo://app?vid=f80528f9-6bb1-4b22-a63c-5e57ad403fb2","ios":"levelo://app?vid=f80528f9-6bb1-4b22-a63c-5e57ad403fb2"},"vehicle_type_id":"4","last_reported":1770835758,"current_range_meters":8800,"station_id":"ce4bhih2rcd13ifvqfr0","pricing_plan_id":"cebpf4jnsgd1na2vs0mg"},{"bike_id":"406b8143-680c-411e-8da6-8818c609b259","system_id":"levelo_inurba_marseille","lat":43.22925,"lon":5.35376,"is_reserved":false,"is_disabled":false,"rental_uris":{"android":"levelo://app?vid=406b8143-680c-411e-8da6-8818c609b259","ios":"levelo://app?vid=406b8143-680c-411e-8da6-8818c609b259"},"vehicle_type_id":"4","last_reported":1770835758,"current_range_meters":8800,"station_id":"cpo3532slgdg3j2ikp40","pricing_plan_id":"cebpf4jnsgd1na2vs0mg"},{"bike_id":"abb916b3-74af-4c17-94d0-fe9eafd044ff","system_id":"levelo_inurba_marseille","lat":43.29589,"lon":5.37501,"is_reserved":false,"is_disabled":false,"rental_uris":{"android":"levelo://app?vid=abb916b3-74af-4c17-94d0-fe9eafd044ff","ios":"levelo://app?vid=abb916b3-74af-4c17-94d0-fe9eafd044ff"},"vehicle_type_id":"4","last_reported":1770835758,"current_range_meters":8800,"station_id":"ce4bgh92rcd13ifvqb50","pricing_plan_id":"cebpf4jnsgd1na2vs0mg"},{"bike_id":"d6ac2655-5d13-492c-96b2-0753705b3ccf","system_id":"levelo_inurba_marseille","lat":43.30143,"lon":5.37408,"is_reserved":false,"is_disabled":false,"rental_uris":{"android":"levelo://app?vid=d6ac2655-5d13-492c-96b2-0753705b3ccf","ios":"levelo://app?vid=d6ac2655-5d13-492c-96b2-0753705b3ccf"},"vehicle_type_id":"4","last_reported":1770835758,"current_range_meters":8800,"station_id":"ce4bgs92rcd13ifvqcc0","pricing_plan_id":"cebpf4jnsgd1na2vs0mg"},{"bike_id":"ebe8494b-bba7-4445-98de-ce66ef8f32c5","system_id":"levelo_inurba_marseille","lat":43.29536,"lon":5.3853,"is_reserved":false,"is_disabled":false,"rental_uris":{"android":"levelo://app?vid=ebe8494b-bba7-4445-98de-ce66ef8f32c5","ios":"levelo://app?vid=ebe8494b-bba7-4445-98de-ce66ef8f32c5"},"vehicle_type_id":"4","last_reported":1770835758,"current_range_meters":8800,"station_id":"ce4bgih2rcd13ifvqba0","pricing_plan_id":"cebpf4jnsgd1na2vs0mg"},{"bike_id":"e7d96f11-e4c7-4d54-a091-6ac519acb6a5","system_id":"levelo_inurba_marseille","lat":43.28604,"lon":5.39941,"is_reserved":false,"is_disabled":false,"rental_uris":{"android":"levelo://app?vid=e7d96f11-e4c7-4d54-a091-6ac519acb6a5","ios":"levelo://app?vid=e7d96f11-e4c7-4d54-a091-6ac519acb6a5"},"vehicle_type_id":"4","last_reported":1770835758,"current_range_meters":8800,"station_id":"","pricing_plan_id":"cebpf4jnsgd1na2vs0mg"},{"bike_id":"7373e048-0697-42be-9a17-d478c47616d8","system_id":"levelo_inurba_marseille","lat":43.29159,"lon":5.38617,"is_reserved":false,"is_disabled":false,"rental_uris":{"android":"levelo://app?vid=7373e048-0697-42be-9a17-d478c47616d8","ios":"levelo://app?vid=7373e048-0697-42be-9a17-d478c47616d8"},"vehicle_type_id":"4","last_reported":1770835758,"current_range_meters":8800,"station_id":"ce4bh4p2rcd13ifvqe0g","pricing_plan_id":"cebpf4jnsgd1na2vs0mg"},{"bike_id":"48e51c2c-d55f-4098-8ec5-eb37bd86ae9a","system_id":"levelo_inurba_marseille","lat":43.28366,"lon":5.38963,"is_reserved":false,"is_disabled":false,"rental_uris":{"android":"levelo://app?vid=48e51c2c-d55f-4098-8ec5-eb37bd86ae9a","ios":"levelo://app?vid=48e51c2c-d55f-4098-8ec5-eb37bd86ae9a"},"vehicle_type_id":"4","last_reported":1770835758,"current_range_meters":8800,"station_id":"","pricing_plan_id":"cebpf4jnsgd1na2vs0mg"},{"bike_id":"9f033575-6369-46b2-8ded-c3ba921253f1","system_id":"levelo_inurba_marseille","lat":43.28716,"lon":5.37384,"is_reserved":false,"is_disabled":false,"rental_uris":{"android":"levelo://app?vid=9f033575-6369-46b2-8ded-c3ba921253f1","ios":"levelo://app?vid=9f033575-6369-46b2-8ded-c3ba921253f1"},"vehicle_type_id":"4","last_reported":1770835758,"current_range_meters":8800,"station_id":"ce4bh3p2rcd13ifvqdq0","pricing_plan_id":"cebpf4jnsgd1na2vs0mg"},{"bike_id":"274ea62a-e153-4e2c-bdee-a88aa40b9a8e","system_id":"levelo_inurba_marseille","lat":43.24827,"lon":5.37472,"is_reserved":false,"is_disabled":false,"rental_uris":{"android":"levelo://app?vid=274ea62a-e153-4e2c-bdee-a88aa40b9a8e","ios":"levelo://app?vid=274ea62a-e153-4e2c-bdee-a88aa40b9a8e"},"vehicle_type_id":"4","last_reported":1770835758,"current_range_meters":8800,"station_id":"ce4bhgh2rcd13ifvqfb0","pricing_plan_id":"cebpf4jnsgd1na2vs0mg"},{"bike_id":"9cc69006-ea52-4b81-9572-ad30fd871300","system_id":"levelo_inurba_marseille","lat":43.29275,"lon":5.36843,"is_reserved":false,"is_disabled":false,"rental_uris":{"android":"levelo://app?vid=9cc69006-ea52-4b81-9572-ad30fd871300","ios":"levelo://app?vid=9cc69006-ea52-4b81-9572-ad30fd871300"},"vehicle_type_id":"4","last_reported":1770835758,"current_range_meters":8800,"station_id":"ce4bhbp2rcd13ifvqesg","pricing_plan_id":"cebpf4jnsgd1na2vs0mg"},{"bike_id":"14c8fc50-6319-4302-a77c-3752995b1d73","system_id":"levelo_inurba_marseille","lat":43.25719,"lon":5.41114,"is_reserved":false,"is_disabled":false,"rental_uris":{"android":"levelo://app?vid=14c8fc50-6319-4302-a77c-3752995b1d73","ios":"levelo://app?vid=14c8fc50-6319-4302-a77c-3752995b1d73"},"vehicle_type_id":"4","last_reported":1770835758,"current_range_meters":9200,"station_id":"ce4bhkp2rcd13ifvqgd0","pricing_plan_id":"cebpf4jnsgd1na2vs0mg"},{"bike_id":"eb153995-5d33-4b1d-a5c0-ee8cc4302ea8","system_id":"levelo_inurba_marseille","lat":43.26568,"lon":5.3903,"is_reserved":false,"is_disabled":false,"rental_uris":{"android":"levelo://app?vid=eb153995-5d33-4b1d-a5c0-ee8cc4302ea8","ios":"levelo://app?vid=eb153995-5d33-4b1d-a5c0-ee8cc4302ea8"},"vehicle_type_id":"4","last_reported":1770835758,"current_range_meters":9200,"station_id":"ce4bhe12rcd13ifvqf30","pricing_plan_id":"cebpf4jnsgd1na2vs0mg"},{"bike_id":"adedccca-d77d-4967-91ed-2661b5b510ba","system_id":"levelo_inurba_marseille","lat":43.22562,"lon":5.41627,"is_reserved":false,"is_disabled":false,"rental_uris":{"android":"levelo://app?vid=adedccca-d77d-4967-91ed-2661b5b510ba","ios":"levelo://app?vid=adedccca-d77d-4967-91ed-2661b5b510ba"},"vehicle_type_id":"4","last_reported":1770835758,"current_range_meters":9200,"station_id":"st_d2o4gvlbi1j2169b742g","pricing_plan_id":"cebpf4jnsgd1na2vs0mg"},{"bike_id":"db216a6a-6cad-4fe1-86d5-ee6067a7397c","system_id":"levelo_inurba_marseille","lat":43.30226,"lon":5.39472,"is_reserved":false,"is_disabled":false,"rental_uris":{"android":"levelo://app?vid=db216a6a-6cad-4fe1-86d5-ee6067a7397c","ios":"levelo://app?vid=db216a6a-6cad-4fe1-86d5-ee6067a7397c"},"vehicle_type_id":"4","last_reported":1770835758,"current_range_meters":9200,"station_id":"ce4bh0p2rcd13ifvqd70","pricing_plan_id":"cebpf4jnsgd1na2vs0mg"},{"bike_id":"661c1ad9-8e78-490b-aa77-0dd317a910f6","system_id":"levelo_inurba_marseille","lat":43.272036,"lon":5.391893,"is_reserved":false,"is_disabled":true,"rental_uris":{"android":"levelo://app?vid=661c1ad9-8e78-490b-aa77-0dd317a910f6","ios":"levelo://app?vid=661c1ad9-8e78-490b-aa77-0dd317a910f6"},"vehicle_type_id":"4","last_reported":1770835758,"current_range_meters":9200,"station_id":"ce4bhhp2rcd13ifvqfm0","pricing_plan_id":"cebpf4jnsgd1na2vs0mg"},{"bike_id":"048b85e1-5a53-4c85-9711-e9625c85da14","system_id":"levelo_inurba_marseille","lat":43.296179,"lon":5.377155,"is_reserved":false,"is_disabled":false,"rental_uris":{"android":"levelo://app?vid=048b85e1-5a53-4c85-9711-e9625c85da14","ios":"levelo://app?vid=048b85e1-5a53-4c85-9711-e9625c85da14"},"vehicle_type_id":"4","last_reported":1770835758,"current_range_meters":9200,"station_id":"ce4bgi92rcd13ifvqb90","pricing_plan_id":"cebpf4jnsgd1na2vs0mg"},