{"last_updated":1729573771,"ttl":60,"version":"2.2","data":{"bikes":[{"bike_id":"9a89681b-50ef-4d7d-98de-b2afb5895f27","system_id":"levelo_inurba_marseille","lat":43.23178,"lon":5.39982,"is_reserved":false,"is_disabled":false,"rental_uris":{"android":"levelo://app?vid=9a89681b-50ef-4d7d-98de-b2afb5895f27","ios":"levelo://app?vid=9a89681b-50ef-4d7d-98de-b2afb5895f27"},"vehicle_type_id":"4","last_reported":1729573771,"current_range_meters":38000,"station_id":"ce4bhn12rcd13ifvqgqg","pricing_plan_id":"cebpf4jnsgd1na2vs0mg"},{"bike_id":"0ca52630-f8cc-4bbf-a31b-0430175e1f93","system_id":"levelo_inurba_marseille","lat":43.29424,"lon":5.38625,"is_reserved":false,"is_disabled":false,"rental_uris":{"android":"levelo://app?vid=0ca52630-f8cc-4bbf-a31b-0430175e1f93","ios":"levelo://app?vid=0ca52630-f8cc-4bbf-a31b-0430175e1f93"},"vehicle_type_id":"4","last_reported":1729573771,"current_range_meters":38000,"station_id":"ce4bh2h2rcd13ifvqdh0","pricing_plan_id":"cebpf4jnsgd1na2vs0mg"},{"bike_id":"8704e08b-7e31-4439-affd-72da191bf121","system_id":"levelo_inurba_marseille","lat":43.2467,"lon":5.38158,"is_reserved":false,"is_disabled":false,"rental_uris":{"android":"levelo://app?vid=8704e08b-7e31-4439-affd-72da191bf121","ios":"levelo://app?vid=8704e08b-7e31-4439-affd-72da191bf121"},"vehicle_type_id":"4","last_reported":1729573771,"current_range_meters":28800,"station_id":"ce4bhih2rcd13ifvqfr0","pricing_plan_id":"cebpf4jnsgd1na2vs0mg"},{"bike_id":"93fa3798-63dd-4a89-934e-9dcbd5bc93a8","system_id":"levelo_inurba_marseille","lat":43.308869,"lon":5.396436,"is_reserved":false,"is_disabled":false,"rental_uris":{"android":"levelo://app?vid=93fa3798-63dd-4a89-934e-9dcbd5bc93a8","ios":"levelo://app?vid=93fa3798-63dd-4a89-934e-9dcbd5bc93a8"},"vehicle_type_id":"4","last_reported":1729573771,"current_range_meters":39200,"station_id":"ce4bh012rcd13ifvqcv0","pricing_plan_id":"cebpf4jnsgd1na2vs0mg"},{"bike_id":"faa7e7cd-15e9-4ba1-aba2-11bbf3e08543","system_id":"levelo_inurba_marseille","lat":43.287256,"lon":5.360784,"is_reserved":false,"is_disabled":false,"rental_uris":{"android":"levelo://app?vid=faa7e7cd-15e9-4ba1-aba2-11bbf3e08543","ios":"levelo://app?vid=faa7e7cd-15e9-4ba1-aba2-11bbf3e08543"},"vehicle_type_id":"4","last_reported":1729573771,"current_range_meters":38800,"station_id":"cki0cbj6b192h4jlfktg","pricing_plan_id":"cebpf4jnsgd1na2vs0mg"},{"bike_id":"f6ea7288-765c-4be6-918b-74447ffffe08","system_id":"levelo_inurba_marseille","lat":43.30475,"lon":5.37889,"is_reserved":false,"is_disabled":false,"rental_uris":{"android":"levelo://app?vid=f6ea7288-765c-4be6-918b-74447ffffe08","ios":"levelo://app?vid=f6ea7288-765c-4be6-918b-74447ffffe08"},"vehicle_type_id":"4","last_reported":1729573771,"current_range_meters":39200,"station_id":"ce4bgup2rcd13ifvqcn0","pricing_plan_id":"cebpf4jnsgd1na2vs0mg"},{"bike_id":"db21b9b6-ffa5-4209-856b-c3959b135717","system_id":"levelo_inurba_marseille","lat":43.31697,"lon":5.37746,"is_reserved":false,"is_disabled":false,"rental_uris":{"android":"levelo://app?vid=db21b9b6-ffa5-4209-856b-c3959b135717","ios":"levelo://app?vid=db21b9b6-ffa5-4209-856b-c3959b135717"},"vehicle_type_id":"4","last_reported":1729573771,"current_range_meters":39200,"station_id":"ce4bgth2rcd13ifvqch0","pricing_plan_id":"cebpf4jnsgd1na2vs0mg"},{"bike_id":"b9bd86a8-f279-41d1-9f64-4b53277aa669","system_id":"levelo_inurba_marseille","lat":43.27618,"lon":5.36107,"is_reserved":false,"is_disabled":false,"rental_uris":{"android":"levelo://app?vid=b9bd86a8-f279-41d1-9f64-4b53277aa669","ios":"levelo://app?vid=b9bd86a8-f279-41d1-9f64-4b53277aa669"},"vehicle_type_id":"4","last_reported":1729573771,"current_range_meters":38400,"station_id":"ce4bgj92rcd13ifvqbe0","pricing_plan_id":"cebpf4jnsgd1na2vs0mg"},{"bike_id":"00ee2bc0-1656-4233-9f87-2c357bb5b96f","system_id":"levelo_inurba_marseille","lat":43.26567,"lon":5.39009,"is_reserved":false,"is_disabled":false,"rental_uris":{"android":"levelo://app?vid=00ee2bc0-1656-4233-9f87-2c357bb5b96f","ios":"levelo://app?vid=00ee2bc0-1656-4233-9f87-2c357bb5b96f"},"vehicle_type_id":"4","last_reported":1729573771,"current_range_meters":35200,"station_id":"ce4bhe12rcd13ifvqf30","pricing_plan_id":"cebpf4jnsgd1na2vs0mg"},{"bike_id":"f2e91c0a-b0ac-47d0-80fe-ca49263fb23e","system_id":"levelo_inurba_marseille","lat":43.2925,"lon":5.40913,"is_reserved":false,"is_disabled":false,"rental_uris":{"android":"levelo://app?vid=f2e91c0a-b0ac-47d0-80fe-ca49263fb23e","ios":"levelo://app?vid=f2e91c0a-b0ac-47d0-80fe-ca49263fb23e"},"vehicle_type_id":"4","last_reported":1729573771,"current_range_meters":38400,"station_id":"ce4bh192rcd13ifvqdc0","pricing_plan_id":"cebpf4jnsgd1na2vs0mg"},{"bike_id":"056124ee-b6f9-468d-94ef-5fa46e18bd36","system_id":"levelo_inurba_marseille","lat":43.33613,"lon":5.41038,"is_reserved":false,"is_disabled":false,"rental_uris":{"android":"levelo://app?vid=056124ee-b6f9-468d-94ef-5fa46e18bd36","ios":"levelo://app?vid=056124ee-b6f9-468d-94ef-5fa46e18bd36"},"vehicle_type_id":"4","last_reported":1729573771,"current_range_meters":38800,"station_id":"ce4bhqh2rcd13ifvqhmg","pricing_plan_id":"cebpf4jnsgd1na2vs0mg"},{"bike_id":"c863ab3d-1edc-4863-a6c7-73e4e0932069","system_id":"levelo_inurba_marseille","lat":43.33601,"lon":5.41022,"is_reserved":false,"is_disabled":false,"rental_uris":{"android":"levelo://app?vid=c863ab3d-1edc-4863-a6c7-73e4e0932069","ios":"levelo://app?vid=c863ab3d-1edc-4863-a6c7-73e4e0932069"},"vehicle_type_id":"4","last_reported":1729573771,"current_range_meters":6000,"station_id":"ce4bhqh2rcd13ifvqhmg","pricing_plan_id":"cebpf4jnsgd1na2vs0mg"},{"bike_id":"3282e7b3-c396-43eb-aa24-95242e00e05d","system_id":"levelo_inurba_marseille","lat":43.26933,"lon":5.40249,"is_reserved":false,"is_disabled":false,"rental_uris":{"android":"levelo://app?vid=3282e7b3-c396-43eb-aa24-95242e00e05d","ios":"levelo://app?vid=3282e7b3-c396-43eb-aa24-95242e00e05d"},"vehicle_type_id":"4","last_reported":1729573771,"current_range_meters":38800,"station_id":"cjm6bp8fraef2m0cb0m0","pricing_plan_id":"cebpf4jnsgd1na2vs0mg"},{"bike_id":"c764f7d7-8419-4e5d-bad6-2070cd11b991","system_id":"levelo_inurba_marseille","lat":43.313582,"lon":5.384966,"is_reserved":false,"is_disabled":false,"rental_uris":{"android":"levelo://app?vid=c764f7d7-8419-4e5d-bad6-2070cd11b991","ios":"levelo://app?vid=c764f7d7-8419-4e5d-bad6-2070cd11b991"},"vehicle_type_id":"4","last_reported":1729573771,"current_range_meters":38000,"station_id":"ce4bgt92rcd13ifvqcf0","pricing_plan_id":"cebpf4jnsgd1na2vs0mg"},{"bike_id":"40a4ee97-8b19-4f27-bfaf-f27262625095","system_id":"levelo_inurba_marseille","lat":43.27181,"lon":5.40993,"is_reserved":false,"is_disabled":false,"rental_uris":{"android":"levelo://app?vid=40a4ee97-8b19-4f27-bfaf-f27262625095","ios":"levelo://app?vid=40a4ee97-8b19-4f27-bfaf-f27262625095"},"vehicle_type_id":"4","last_reported":1729573771,"current_range_meters":37600,"station_id":"ce4bhl12rcd13ifvqgf0","pricing_plan_id":"cebpf4jnsgd1na2vs0mg"},{"bike_id":"b8aa97cc-df5c-4052-b32f-7592ab28a1b6","system_id":"levelo_inurba_marseille","lat":43.32123,"lon":5.38811,"is_reserved":false,"is_disabled":false,"rental_uris":{"android":"levelo://app?vid=b8aa97cc-df5c-4052-b32f-7592ab28a1b6","ios":"levelo://app?vid=b8aa97cc-df5c-4052-b32f-7592ab28a1b6"},"vehicle_type_id":"4","last_reported":1729573771,"current_range_meters":28800,"station_id":"","pricing_plan_id":"cebpf4jnsgd1na2vs0mg"},{"bike_id":"dda2d351-1eab-421c-b87f-4111e4062a04","system_id":"levelo_inurba_marseille","lat":43.32289,"lon":5.38265,"is_reserved":false,"is_disabled":false,"rental_uris":{"android":"levelo://app?vid=dda2d351-1eab-421c-b87f-4111e4062a04","ios":"levelo://app?vid=dda2d351-1eab-421c-b87f-4111e4062a04"},"vehicle_type_id":"4","last_reported":1729573771,"current_range_meters":13600,"station_id":"ce4bhr12rcd13ifvqhqg","pricing_plan_id":"cebpf4jnsgd1na2vs0mg"},{"bike_id":"00ab5bd7-d235-4133-b178-d5a6f0798224","system_id":"levelo_inurba_marseille","lat":43.3028,"lon":5.37704,"is_reserved":false,"is_disabled":false,"rental_uris":{"android":"levelo://app?vid=00ab5bd7-d235-4133-b178-d5a6f0798224","ios":"levelo://app?vid=00ab5bd7-d235-4133-b178-d5a6f0798224"},"vehicle_type_id":"4","last_reported":1729573771,"current_range_meters":38000,"station_id":"ce4bguh2rcd13ifvqcj0","pricing_plan_id":"cebpf4jnsgd1na2vs0mg"},{"bike_id":"8b1b5549-026d-499e-8f57-a5860290ed8f","system_id":"levelo_inurba_marseille","lat":43.30541,"lon":5.36725,"is_reserved":false,"is_disabled":false,"rental_uris":{"android":"levelo://app?vid=8b1b5549-026d-499e-8f57-a5860290ed8f","ios":"levelo://app?vid=8b1b5549-026d-499e-8f57-a5860290ed8f"},"vehicle_type_id":"4","last_reported":1729573771,"current_range_meters":36400,"station_id":"ce4bgrp2rcd13ifvqc9g","pricing_plan_id":"cebpf4jnsgd1na2vs0mg"},{"bike_id":"e2f32c24-c928-4a8d-b66e-7262f920a2b4","system_id":"levelo_inurba_marseille","lat":43.31541,"lon":5.38037,"is_reserved":false,"is_disabled":false,"rental_uris":{"android":"levelo://app?vid=e2f32c24-c928-4a8d-b66e-7262f920a2b4","ios":"levelo://app?vid=e2f32c24-c928-4a8d-b66e-7262f920a2b4"},"vehicle_type_id":"4","last_reported":1729573771,"current_range_meters":8800,"station_id":"ce4bhsp2rcd13ifvqi50","pricing_plan_id":"cebpf4jnsgd1na2vs0mg"},{"bike_id":"796f8d9f-fd8f-432a-b630-5d8238bd7c27","system_id":"levelo_inurba_marseille","lat":43.291922,"lon":5.357937,"is_reserved":false,"is_disabled":false,"rental_uris":{"android":"levelo://app?vid=796f8d9f-fd8f-432a-b630-5d8238bd7c27","ios":"levelo://app?vid=796f8d9f-fd8f-432a-b630-5d8238bd7c27"},"vehicle_type_id":"4","last_reported":1729573771,"current_range_meters":38800,"station_id":"ce4bhb12rcd13ifvqel0","pricing_plan_id":"cebpf4jnsgd1na2vs0mg"},{"bike_id":"b606898d-22d4-42e2-8852-cb29200db5d9","system_id":"levelo_inurba_marseille","lat":43.29576,"lon":5.39979,"is_reserved":false,"is_disabled":false,"rental_uris":{"android":"levelo://app?vid=b606898d-22d4-42e2-8852-cb29200db5d9","ios":"levelo://app?vid=b606898d-22d4-42e2-8852-cb29200db5d9"},"vehicle_type_id":"4","last_reported":1729573771,"current_range_meters":38800,"station_id":"ce4bh312rcd13ifvqdj0","pricing_plan_id":"cebpf4jnsgd1na2vs0mg"},{"bike_id":"c32831a9-e064-4d70-bbdd-66063ddbadde","system_id":"levelo_inurba_marseille","lat":43.25944,"lon":5.40899,"is_reserved":false,"is_disabled":false,"rental_uris":{"android":"levelo://app?vid=c32831a9-e064-4d70-bbdd-66063ddbadde","ios":"levelo://app?vid=c32831a9-e064-4d70-bbdd-66063ddbadde"},"vehicle_type_id":"4","last_reported":1729573771,"current_range_meters":38000,"station_id":"ce4bhm92rcd13ifvqglg","pricing_plan_id":"cebpf4jnsgd1na2vs0mg"},{"bike_id":"f320bad5-c890-4726-b6d8-ec012cf400c3","system_id":"levelo_inurba_marseille","lat":43.29002,"lon":5.35619,"is_reserved":false,"is_disabled":false,"rental_uris":{"android":"levelo://app?vid=f320bad5-c890-4726-b6d8-ec012cf400c3","ios":"levelo://app?vid=f320bad5-c890-4726-b6d8-ec012cf400c3"},"vehicle_type_id":"4","last_reported":1729573771,"current_range_meters":38800,"station_id":"ce4bhb92rcd13ifvqen0","pricing_plan_id":"cebpf4jnsgd1na2vs0mg"},{"bike_id":"eb69d266-7f9f-4bad-bf4b-cb0a701a9511","system_id":"levelo_inurba_marseille","lat":43.27936,"lon":5.41761,"is_reserved":false,"is_disabled":false,"rental_uris":{"android":"levelo://app?vid=eb69d266-7f9f-4bad-bf4b-cb0a701a9511","ios":"levelo://app?vid=eb69d266-7f9f-4bad-bf4b-cb0a701a9511"},"vehicle_type_id":"4","last_reported":1729573771,"current_range_meters":6400,"station_id":"","pricing_plan_id":"cebpf4jnsgd1na2vs0mg"},{"bike_id":"5700ca7b-4b04-4654-9ace-208c9e150bc3","system_id":"levelo_inurba_marseille","lat":43.23959,"lon":5.36627,"is_reserved":false,"is_disabled":false,"rental_uris":{"android":"levelo://app?vid=5700ca7b-4b04-4654-9ace-208c9e150bc3","ios":"levelo://app?vid=5700ca7b-4b04-4654-9ace-208c9e150bc3"},"vehicle_type_id":"4","last_reported":1729573771,"current_range_meters":35600,"station_id":"ce4bhi12rcd13ifvqfp0","pricing_plan_id":"cebpf4jnsgd1na2vs0mg"},{"bike_id":"3796dbc0-b1e7-471d-b45b-7051e248094c","system_id":"levelo_inurba_marseille","lat":43.29781,"lon":5.38116,"is_reserved":false,"is_disabled":false,"rental_uris":{"android":"levelo://app?vid=3796dbc0-b1e7-471d-b45b-7051e248094c","ios":"levelo://app?vid=3796dbc0-b1e7-471d-b45b-7051e248094c"},"vehicle_type_id":"4","last_reported":1729573771,"current_range_meters":12000,"station_id":"ce4bgip2rcd13ifvqbb0","pricing_plan_id":"cebpf4jnsgd1na2vs0mg"},{"bike_id":"e7aabb63-3526-4943-ab21-5db50e10559a","system_id":"levelo_inurba_marseille","lat":43.28702,"lon":5.37394,"is_reserved":false,"is_disabled":false,"rental_uris":{"android":"levelo://app?vid=e7aabb63-3526-4943-ab21-5db50e10559a","ios":"levelo://app?vid=e7aabb63-3526-4943-ab21-5db50e10559a"},"vehicle_type_id":"4","last_reported":1729573771,"current_range_meters":8400,"station_id":"ce4bh3p2rcd13ifvqdq0","pricing_plan_id":"cebpf4jnsgd1na2vs0mg"},{"bike_id":"f6c9be39-c087-4b75-9648-136fc7275428","system_id":"levelo_inurba_marseille","lat":43.30138,"lon":5.38099,"is_reserved":false,"is_disabled":false,"rental_uris":{"android":"levelo://app?vid=f6c9be39-c087-4b75-9648-136fc7275428","ios":"levelo://app?vid=f6c9be39-c087-4b75-9648-136fc7275428"},"vehicle_type_id":"4","last_reported":1729573771,"current_range_meters":24800,"station_id":"ce4bgjp2rcd13ifvqbh0","pricing_plan_id":"cebpf4jnsgd1na2vs0mg"},{"bike_id":"6cdd3cb5-ba15-4e85-8896-0ce16f3566f8","system_id":"levelo_inurba_marseille","lat":43.2407,"lon":5.37755,"is_reserved":false,"is_disabled":false,"rental_uris":{"android":"levelo://app?vid=6cdd3cb5-ba15-4e85-8896-0ce16f3566f8","ios":"levelo://app?vid=6cdd3cb5-ba15-4e85-8896-0ce16f3566f8"},"vehicle_type_id":"4","last_reported":1729573771,"current_range_meters":38000,"station_id":"ce4bhnp2rcd13ifvqgvg","pricing_plan_id":"cebpf4jnsgd1na2vs0mg"},{"bike_id":"1c35994b-cece-4553-a8a1-4af08476c849","system_id":"levelo_inurba_marseille","lat":43.32365,"lon":5.38881,"is_reserved":false,"is_disabled":false,"rental_uris":{"android":"levelo://app?vid=1c35994b-cece-4553-a8a1-4af08476c849","ios":"levelo://app?vid=1c35994b-cece-4553-a8a1-4af08476c849"},"vehicle_type_id":"4","last_reported":1729573771,"current_range_meters":36400,"station_id":"ce4bhqp2rcd13ifvqhog","pricing_plan_id":"cebpf4jnsgd1na2vs0mg"},{"bike_id":"44a3fd2a-1cc5-445f-9173-9db4d01dcb2a","system_id":"levelo_inurba_marseille","lat":43.27564,"lon":5.38438,"is_reserved":false,"is_disabled":false,"rental_uris":{"android":"levelo://app?vid=44a3fd2a-1cc5-445f-9173-9db4d01dcb2a","ios":"levelo://app?vid=44a3fd2a-1cc5-445f-9173-9db4d01dcb2a"},"vehicle_type_id":"4","last_reported":1729573771,"current_range_meters":38400,"station_id":"ce4bhh92rcd13ifvqfi0","pricing_plan_id":"cebpf4jnsgd1na2vs0mg"},{"bike_id":"f0d73bb9-c2c4-4b64-a1eb-02b7529993c8","system_id":"levelo_inurba_marseille","lat":43.27549,"lon":5.38437,"is_reserved":false,"is_disabled":false,"rental_uris":{"android":"levelo://app?vid=f0d73bb9-c2c4-4b64-a1eb-02b7529993c8","ios":"levelo://app?vid=f0d73bb9-c2c4-4b64-a1eb-02b7529993c8"},"vehicle_type_id":"4","last_reported":1729573771,"current_range_meters":27600,"station_id":"ce4bhh92rcd13ifvqfi0","pricing_plan_id":"cebpf4jnsgd1na2vs0mg"},{"bike_id":"d446a555-49be-49be-a11a-13447f0374cb","system_id":"levelo_inurba_marseille","lat":43.24073,"lon":5.377566,"is_reserved":false,"is_disabled":false,"rental_uris":{"android":"levelo://app?vid=d446a555-49be-49be-a11a-13447f0374cb","ios":"levelo://app?vid=d446a555-49be-49be-a11a-13447f0374cb"},"vehicle_type_id":"4","last_reported":1729573771,"current_range_meters":12400,"station_id":"ce4bhnp2rcd13ifvqgvg","pricing_plan_id":"cebpf4jnsgd1na2vs0mg"},{"bike_id":"6693cd0c-fe48-434b-8c32-77dc3a0e9af8","system_id":"levelo_inurba_marseille","lat":43.33219,"lon":5.38161,"is_reserved":false,"is_disabled":false,"rental_uris":{"android":"levelo://app?vid=6693cd0c-fe48-434b-8c32-77dc3a0e9af8","ios":"levelo://app?vid=6693cd0c-fe48-434b-8c32-77dc3a0e9af8"},"vehicle_type_id":"4","last_reported":1729573771,"current_range_meters":36400,"station_id":"","pricing_plan_id":"cebpf4jnsgd1na2vs0mg"},{"bike_id":"d8fcc4fa-ed39-4df3-8a67-0231297479c5","system_id":"levelo_inurba_marseille","lat":43.32657,"lon":5.40991,"is_reserved":false,"is_disabled":false,"rental_uris":{"android":"levelo://app?vid=d8fcc4fa-ed39-4df3-8a67-0231297479c5","ios":"levelo://app?vid=d8fcc4fa-ed39-4df3-8a67-0231297479c5"},"vehicle_type_id":"4","last_reported":1729573771,"current_range_meters":6400,"station_id":"ce4bhpp2rcd13ifvqhgg","pricing_plan_id":"cebpf4jnsgd1na2vs0mg"},{"bike_id":"e73d1adb-8500-4389-9d09-453539232231","system_id":"levelo_inurba_marseille","lat":43.27494,"lon":5.4245,"is_reserved":false,"is_disabled":false,"rental_uris":{"android":"levelo://app?vid=e73d1adb-8500-4389-9d09-453539232231","ios":"levelo://app?vid=e73d1adb-8500-4389-9d09-453539232231"},"vehicle_type_id":"4","last_reported":1729573771,"current_range_meters":14800,"station_id":"ce4bhn92rcd13ifvqgrg","pricing_plan_id":"cebpf4jnsgd1na2vs0mg"},{"bike_id":"03c51820-cb2f-4040-944f-2f970b04d942","system_id":"levelo_inurba_marseille","lat":43.3172,"lon":5.43717,"is_reserved":false,"is_disabled":false,"rental_uris":{"android":"levelo://app?vid=03c51820-cb2f-4040-944f-2f970b04d942","ios":"levelo://app?vid=03c51820-cb2f-4040-944f-2f970b04d942"},"vehicle_type_id":"4","last_reported":1729573771,"current_range_meters":16000,"station_id":"ce4bhp92rcd13ifvqhcg","pricing_plan_id":"cebpf4jnsgd1na2vs0mg"},{"bike_id":"cba2af9b-3719-4b16-aa61-d05fec60a0ee","system_id":"levelo_inurba_marseille","lat":43.3172,"lon":5.43706,"is_reserved":false,"is_disabled":false,"rental_uris":{"android":"levelo://app?vid=cba2af9b-3719-4b16-aa61-d05fec60a0ee","ios":"levelo://app?vid=cba2af9b-3719-4b16-aa61-d05fec60a0ee"},"vehicle_type_id":"4","last_reported":1729573771,"current_range_meters":39200,"station_id":"ce4bhp92rcd13ifvqhcg","pricing_plan_id":"cebpf4jnsgd1na2vs0mg"},{"bike_id":"71f5ec11-3924-4ba9-9ca8-9e072cfb8650","system_id":"levelo_inurba_marseille","lat":43.306574,"lon":5.400834,"is_reserved":false,"is_disabled":false,"rental_uris":{"android":"levelo://app?vid=71f5ec11-3924-4ba9-9ca8-9e072cfb8650","ios":"levelo://app?vid=71f5ec11-3924-4ba9-9ca8-9e072cfb8650"},"vehicle_type_id":"4","last_reported":1729573771,"current_range_meters":25200,"station_id":"ce4bh112rcd13ifvqda0","pricing_plan_id":"cebpf4jnsgd1na2vs0mg"},{"bike_id":"f7d7e980-5c84-4432-b54b-9d2a213d76b4","system_id":"levelo_inurba_marseille","lat":43.30915,"lon":5.36845,"is_reserved":false,"is_disabled":false,"rental_uris":{"android":"levelo://app?vid=f7d7e980-5c84-4432-b54b-9d2a213d76b4","ios":"levelo://app?vid=f7d7e980-5c84-4432-b54b-9d2a213d76b4"},"vehicle_type_id":"4","last_reported":1729573771,"current_range_meters":38400,"station_id":"ce4bgn92rcd13ifvqbvg","pricing_plan_id":"cebpf4jnsgd1na2vs0mg"},{"bike_id":"abe658d4-12a8-41db-b6b3-738fdbd608a2","system_id":"levelo_inurba_marseille","lat":43.23192,"lon":5.35551,"is_reserved":false,"is_disabled":false,"rental_uris":{"android":"levelo://app?vid=abe658d4-12a8-41db-b6b3-738fdbd608a2","ios":"levelo://app?vid=abe658d4-12a8-41db-b6b3-738fdbd608a2"},"vehicle_type_id":"4","last_reported":1729573771,"current_range_meters":36400,"station_id":"ce4bhu92rcd13ifvqi70","pricing_plan_id":"cebpf4jnsgd1na2vs0mg"},{"bike_id":"fcde1605-ea98-4318-b804-12d50326119e","system_id":"levelo_inurba_marseille","lat":43.25118,"lon":5.40326,"is_reserved":false,"is_disabled":false,"rental_uris":{"android":"levelo://app?vid=fcde1605-ea98-4318-b804-12d50326119e","ios":"levelo://app?vid=fcde1605-ea98-4318-b804-12d50326119e"},"vehicle_type_id":"4","last_reported":1729573771,"current_range_meters":8800,"station_id":"ce4bhlh2rcd13ifvqgig","pricing_plan_id":"cebpf4jnsgd1na2vs0mg"},{"bike_id":"a750dacc-b2b9-423f-a132-5846c13b35f8","system_id":"levelo_inurba_marseille","lat":43.30427,"lon":5.39747,"is_reserved":false,"is_disabled":false,"rental_uris":{"android":"levelo://app?vid=a750dacc-b2b9-423f-a132-5846c13b35f8","ios":"levelo://app?vid=a750dacc-b2b9-423f-a132-5846c13b35f8"},"vehicle_type_id":"4","last_reported":1729573771,"current_range_meters":38800,"station_id":"ce4bh092rcd13ifvqd20","pricing_plan_id":"cebpf4jnsgd1na2vs0mg"},{"bike_id":"8f033525-bc8f-42c4-9121-468701b80638","system_id":"levelo_inurba_marseille","lat":43.24999,"lon":5.38914,"is_reserved":false,"is_disabled":false,"rental_uris":{"android":"levelo://app?vid=8f033525-bc8f-42c4-9121-468701b80638","ios":"levelo://app?vid=8f033525-bc8f-42c4-9121-468701b80638"},"vehicle_type_id":"4","last_reported":1729573771,"current_range_meters":38800,"station_id":"ce4bhgp2rcd13ifvqfd0","pricing_plan_id":"cebpf4jnsgd1na2vs0mg"},{"bike_id":"476c1381-131f-4fad-85c7-425454dd3a44","system_id":"levelo_inurba_marseille","lat":43.28733,"lon":5.36087,"is_reserved":false,"is_disabled":false,"rental_uris":{"android":"levelo://app?vid=476c1381-131f-4fad-85c7-425454dd3a44","ios":"levelo://app?vid=476c1381-131f-4fad-85c7-425454dd3a44"},"vehicle_type_id":"4","last_reported":1729573771,"current_range_meters":38800,"station_id":"cki0cbj6b192h4jlfktg","pricing_plan_id":"cebpf4jnsgd1na2vs0mg"},{"bike_id":"1ec16de5-9ac0-497e-b627-148b746fa226","system_id":"levelo_inurba_marseille","lat":43.2846,"lon":5.35885,"is_reserved":false,"is_disabled":false,"rental_uris":{"android":"levelo://app?vid=1ec16de5-9ac0-497e-b627-148b746fa226","ios":"levelo://app?vid=1ec16de5-9ac0-497e-b627-148b746fa226"},"vehicle_type_id":"4","last_reported":1729573771,"current_range_meters":28800,"station_id":"ce4bhah2rcd13ifvqei0","pricing_plan_id":"cebpf4jnsgd1na2vs0mg"},{"bike_id":"f8d4fc2f-6c65-4577-a483-2bded2a41922","system_id":"levelo_inurba_marseille","lat":43.30592,"lon":5.39348,"is_reserved":false,"is_disabled":false,"rental_uris":{"android":"levelo://app?vid=f8d4fc2f-6c65-4577-a483-2bded2a41922","ios":"levelo://app?vid=f8d4fc2f-6c65-4577-a483-2bded2a41922"},"vehicle_type_id":"4","last_reported":1729573771,"current_range_meters":38800,"station_id":"ce4bh0p2rcd13ifvqd80","pricing_plan_id":"cebpf4jnsgd1na2vs0mg"},{"bike_id":"53d789e4-9e73-41ed-8bc7-649492e16c6f","system_id":"levelo_inurba_marseille","lat":43.30275,"lon":5.37712,"is_reserved":false,"is_disabled":false,"rental_uris":{"android":"levelo://app?vid=53d789e4-9e73-41ed-8bc7-649492e16c6f","ios":"levelo://app?vid=53d789e4-9e73-41ed-8bc7-649492e16c6f"},"vehicle_type_id":"4","last_reported":1729573771,"current_range_meters":34000,"station_id":"ce4bguh2rcd13ifvqcj0","pricing_plan_id":"cebpf4jnsgd1na2vs0mg"},{"bike_id":"36565f3a-03e7-446c-bedb-a0cf54053a60","system_id":"levelo_inurba_marseille","lat":43.29792,"lon":5.38109,"is_reserved":false,"is_disabled":false,"rental_uris":{"android":"levelo://app?vid=36565f3a-03e7-446c-bedb-a0cf54053a60","ios":"levelo://app?vid=36565f3a-03e7-446c-bedb-a0cf54053a60"},"vehicle_type_id":"4","last_reported":1729573771,"current_range_meters":38800,"station_id":"ce4bgip2rcd13ifvqbb0","pricing_plan_id":"cebpf4jnsgd1na2vs0mg"},{"bike_id":"60717735-8180-439d-aa16-1261afe15895","system_id":"levelo_inurba_marseille","lat":43.24182,"lon":5.3973,"is_reserved":false,"is_disabled":false,"rental_uris":{"android":"levelo://app?vid=60717735-8180-439d-aa16-1261afe15895","ios":"levelo://app?vid=60717735-8180-439d-aa16-1261afe15895"},"vehicle_type_id":"4","last_reported":1729573771,"current_range_meters":34000,"station_id":"ce4bhn12rcd13ifvqgpg","pricing_plan_id":"cebpf4jnsgd1na2vs0mg"},{"bike_id":"825120c1-0038-4916-b709-08b76beaded5","system_id":"levelo_inurba_marseille","lat":43.31331,"lon":5.39688,"is_reserved":false,"is_disabled":false,"rental_uris":{"android":"levelo://app?vid=825120c1-0038-4916-b709-08b76beaded5","ios":"levelo://app?vid=825120c1-0038-4916-b709-08b76beaded5"},"vehicle_type_id":"4","last_reported":1729573771,"current_range_meters":8800,"station_id":"ce4bgvp2rcd13ifvqcu0","pricing_plan_id":"cebpf4jnsgd1na2vs0mg"},{"bike_id":"0508bf3b-2fad-4472-bc91-d782716ac9b1","system_id":"levelo_inurba_marseille","lat":43.27808,"lon":5.40717,"is_reserved":false,"is_disabled":false,"rental_uris":{"android":"levelo://app?vid=0508bf3b-2fad-4472-bc91-d782716ac9b1","ios":"levelo://app?vid=0508bf3b-2fad-4472-bc91-d782716ac9b1"},"vehicle_type_id":"4","last_reported":1729573771,"current_range_meters":22400,"station_id":"ce4bhnh2rcd13ifvqgtg","pricing_plan_id":"cebpf4jnsgd1na2vs0mg"},{"bike_id":"0d9fea0d-5188-4ebc-a956-c466b2766e8c","system_id":"levelo_inurba_marseille","lat":43.27488,"lon":5.42458,"is_reserved":false,"is_disabled":false,"rental_uris":{"android":"levelo://app?vid=0d9fea0d-5188-4ebc-a956-c466b2766e8c","ios":"levelo://app?vid=0d9fea0d-5188-4ebc-a956-c466b2766e8c"},"vehicle_type_id":"4","last_reported":1729573771,"current_range_meters":3200,"station_id":"ce4bhn92rcd13ifvqgrg","pricing_plan_id":"cebpf4jnsgd1na2vs0mg"},{"bike_id":"535e2cfa-a11f-4dd4-b0bb-e852441037d7","system_id":"levelo_inurba_marseille","lat":43.25866,"lon":5.39899,"is_reserved":false,"is_disabled":false,"rental_uris":{"android":"levelo://app?vid=535e2cfa-a11f-4dd4-b0bb-e852441037d7","ios":"levelo://app?vid=535e2cfa-a11f-4dd4-b0bb-e852441037d7"},"vehicle_type_id":"4","last_reported":1729573771,"current_range_meters":38400,"station_id":"ce4bhl92rcd13ifvqghg","pricing_plan_id":"cebpf4jnsgd1na2vs0mg"},{"bike_id":"3c2e9290-6792-4e2d-b00d-712b965be0bd","system_id":"levelo_inurba_marseille","lat":43.26421,"lon":5.38676,"is_reserved":false,"is_disabled":false,"rental_uris":{"android":"levelo://app?vid=3c2e9290-6792-4e2d-b00d-712b965be0bd","ios":"levelo://app?vid=3c2e9290-6792-4e2d-b00d-712b965be0bd"},"vehicle_type_id":"4","last_reported":1729573771,"current_range_meters":9200,"station_id":"","pricing_plan_id":"cebpf4jnsgd1na2vs0mg"},{"bike_id":"b8eb8c89-8773-4616-9dde-180f90e97972","system_id":"levelo_inurba_marseille","lat":43.30933,"lon":5.40141,"is_reserved":false,"is_disabled":false,"rental_uris":{"android":"levelo://app?vid=b8eb8c89-8773-4616-9dde-180f90e97972","ios":"levelo://app?vid=b8eb8c89-8773-4616-9dde-180f90e97972"},"vehicle_type_id":"4","last_reported":1729573771,"current_range_meters":27600,"station_id":"ce4bgvp2rcd13ifvqct0","pricing_plan_id":"cebpf4jnsgd1na2vs0mg"},{"bike_id":"96a49f6e-437d-4203-acfd-d50df9b6bc62","system_id":"levelo_inurba_marseille","lat":43.29274,"lon":5.40133,"is_reserved":false,"is_disabled":false,"rental_uris":{"android":"levelo://app?vid=96a49f6e-437d-4203-acfd-d50df9b6bc62","ios":"levelo://app?vid=96a49f6e-437d-4203-acfd-d50df9b6bc62"},"vehicle_type_id":"4","last_reported":1729573771,"current_range_meters":17600,"station_id":"ce4bh312rcd13ifvqdk0","pricing_plan_id":"cebpf4jnsgd1na2vs0mg"},{"bike_id":"19f09505-edb6-4621-8403-625ad0d0348b","system_id":"levelo_inurba_marseille","lat":43.30603,"lon":5.39353,"is_reserved":false,"is_disabled":false,"rental_uris":{"android":"levelo://app?vid=19f09505-edb6-4621-8403-625ad0d0348b","ios":"levelo://app?vid=19f09505-edb6-4621-8403-625ad0d0348b"},"vehicle_type_id":"4","last_reported":1729573771,"current_range_meters":38800,"station_id":"ce4bh0p2rcd13ifvqd80","pricing_plan_id":"cebpf4jnsgd1na2vs0mg"},{"bike_id":"566ef3cd-3e87-4087-a6aa-32a145c590e2","system_id":"levelo_inurba_marseille","lat":43.25577,"lon":5.38233,"is_reserved":false,"is_disabled":false,"rental_uris":{"android":"levelo://app?vid=566ef3cd-3e87-4087-a6aa-32a145c590e2","ios":"levelo://app?vid=566ef3cd-3e87-4087-a6aa-32a145c590e2"},"vehicle_type_id":"4","last_reported":1729573771,"current_range_meters":14000,"station_id":"ce4bhih2rcd13ifvqfs0","pricing_plan_id":"cebpf4jnsgd1na2vs0mg"},{"bike_id":"e73397ec-41ef-401f-966f-7b0b12ace5aa","system_id":"levelo_inurba_marseille","lat":43.23193,"lon":5.35553,"is_reserved":false,"is_disabled":false,"rental_uris":{"android":"levelo://app?vid=e73397ec-41ef-401f-966f-7b0b12ace5aa","ios":"levelo://app?vid=e73397ec-41ef-401f-966f-7b0b12ace5aa"},"vehicle_type_id":"4","last_reported":1729573771,"current_range_meters":39200,"station_id":"ce4bhu92rcd13ifvqi70","pricing_plan_id":"cebpf4jnsgd1na2vs0mg"},{"bike_id":"8d716763-2d1c-4074-b18b-e7392f675dd8","system_id":"levelo_inurba_marseille","lat":43.27831,"lon":5.39215,"is_reserved":false,"is_disabled":false,"rental_uris":{"android":"levelo://app?vid=8d716763-2d1c-4074-b18b-e7392f675dd8","ios":"levelo://app?vid=8d716763-2d1c-4074-b18b-e7392f675dd8"},"vehicle_type_id":"4","last_reported":1729573771,"current_range_meters":38800,"station_id":"ce4bhjp2rcd13ifvqga0","pricing_plan_id":"cebpf4jnsgd1na2vs0mg"},{"bike_id":"d587daae-0a71-435c-957b-ace6ff74f13a","system_id":"levelo_inurba_marseille","lat":43.23954,"lon":5.3665,"is_reserved":false,"is_disabled":false,"rental_uris":{"android":"levelo://app?vid=d587daae-0a71-435c-957b-ace6ff74f13a","ios":"levelo://app?vid=d587daae-0a71-435c-957b-ace6ff74f13a"},"vehicle_type_id":"4","last_reported":1729573771,"current_range_meters":10800,"station_id":"ce4bhi12rcd13ifvqfp0","pricing_plan_id":"cebpf4jnsgd1na2vs0mg"},{"bike_id":"99b5b67c-698a-45ec-924d-4b9367bbacbe","system_id":"levelo_inurba_marseille","lat":43.31489,"lon":5.37293,"is_reserved":false,"is_disabled":false,"rental_uris":{"android":"levelo://app?vid=99b5b67c-698a-45ec-924d-4b9367bbacbe","ios":"levelo://app?vid=99b5b67c-698a-45ec-924d-4b9367bbacbe"},"vehicle_type_id":"4","last_reported":1729573771,"current_range_meters":38800,"station_id":"ce4bgt12rcd13ifvqcd0","pricing_plan_id":"cebpf4jnsgd1na2vs0mg"},{"bike_id":"2e834380-0591-4a5f-a7c6-ec896c58b9ae","system_id":"levelo_inurba_marseille","lat":43.31541,"lon":5.40382,"is_reserved":false,"is_disabled":false,"rental_uris":{"android":"levelo://app?vid=2e834380-0591-4a5f-a7c6-ec896c58b9ae","ios":"levelo://app?vid=2e834380-0591-4a5f-a7c6-ec896c58b9ae"},"vehicle_type_id":"4","last_reported":1729573771,"current_range_meters":28400,"station_id":"","pricing_plan_id":"cebpf4jnsgd1na2vs0mg"},{"bike_id":"827e4aaf-a94f-4f31-84e7-3ed340a3432f","system_id":"levelo_inurba_marseille","lat":43.29277,"lon":5.40124,"is_reserved":false,"is_disabled":false,"rental_uris":{"android":"levelo://app?vid=827e4aaf-a94f-4f31-84e7-3ed340a3432f","ios":"levelo://app?vid=827e4aaf-a94f-4f31-84e7-3ed340a3432f"},"vehicle_type_id":"4","last_reported":1729573771,"current_range_meters":38800,"station_id":"ce4bh312rcd13ifvqdk0","pricing_plan_id":"cebpf4jnsgd1na2vs0mg"},{"bike_id":"4db5f57a-1837-492d-ba97-4e606b1a8f25","system_id":"levelo_inurba_marseille","lat":43.24175,"lon":5.39726,"is_reserved":false,"is_disabled":false,"rental_uris":{"android":"levelo://app?vid=4db5f57a-1837-492d-ba97-4e606b1a8f25","ios":"levelo://app?vid=4db5f57a-1837-492d-ba97-4e606b1a8f25"},"vehicle_type_id":"4","last_reported":1729573771,"current_range_meters":38400,"station_id":"ce4bhn12rcd13ifvqgpg","pricing_plan_id":"cebpf4jnsgd1na2vs0mg"},{"bike_id":"6500c164-02c8-4d61-bd40-ecb76f51559e","system_id":"levelo_inurba_marseille","lat":43.31335,"lon":5.39695,"is_reserved":false,"is_disabled":false,"rental_uris":{"android":"levelo://app?vid=6500c164-02c8-4d61-bd40-ecb76f51559e","ios":"levelo://app?vid=6500c164-02c8-4d61-bd40-ecb76f51559e"},"vehicle_type_id":"4","last_reported":1729573771,"current_range_meters":28800,"station_id":"ce4bgvp2rcd13ifvqcu0","pricing_plan_id":"cebpf4jnsgd1na2vs0mg"},{"bike_id":"7b55bf91-35db-4d77-ba2d-32a86d96429a","system_id":"levelo_inurba_marseille","lat":43.26681,"lon":5.38267,"is_reserved":false,"is_disabled":false,"rental_uris":{"android":"levelo://app?vid=7b55bf91-35db-4d77-ba2d-32a86d96429a","ios":"levelo://app?vid=7b55bf91-35db-4d77-ba2d-32a86d96429a"},"vehicle_type_id":"4","last_reported":1729573771,"current_range_meters":36800,"station_id":"ce4bhg92rcd13ifvqf90","pricing_plan_id":"cebpf4jnsgd1na2vs0mg"},{"bike_id":"0542018d-404c-4931-92ac-7d497686214b","system_id":"levelo_inurba_marseille","lat":43.29556,"lon":5.42289,"is_reserved":false,"is_disabled":false,"rental_uris":{"android":"levelo://app?vid=0542018d-404c-4931-92ac-7d497686214b","ios":"levelo://app?vid=0542018d-404c-4931-92ac-7d497686214b"},"vehicle_type_id":"4","last_reported":1729573771,"current_range_meters":38400,"station_id":"ce4bhph2rcd13ifvqhdg","pricing_plan_id":"cebpf4jnsgd1na2vs0mg"},{"bike_id":"74fe3667-c2c0-4f77-8d83-0ffcc924f6d3","system_id":"levelo_inurba_marseille","lat":43.31162,"lon":5.38722,"is_reserved":false,"is_disabled":false,"rental_uris":{"android":"levelo://app?vid=74fe3667-c2c0-4f77-8d83-0ffcc924f6d3","ios":"levelo://app?vid=74fe3667-c2c0-4f77-8d83-0ffcc924f6d3"},"vehicle_type_id":"4","last_reported":1729573771,"current_range_meters":28000,"station_id":"ce4bgv12rcd13ifvqcp0","pricing_plan_id":"cebpf4jnsgd1na2vs0mg"},{"bike_id":"bc1c4b65-b2ef-458a-9377-0e29b328aa0e","system_id":"levelo_inurba_marseille","lat":43.30352,"lon":5.4188,"is_reserved":false,"is_disabled":false,"rental_uris":{"android":"levelo://app?vid=bc1c4b65-b2ef-458a-9377-0e29b328aa0e","ios":"levelo://app?vid=bc1c4b65-b2ef-458a-9377-0e29b328aa0e"},"vehicle_type_id":"4","last_reported":1729573771,"current_range_meters":38800,"station_id":"ce4bhop2rcd13ifvqh7g","pricing_plan_id":"cebpf4jnsgd1na2vs0mg"},{"bike_id":"67349b8d-80b3-4749-832d-07f7e424b34c","system_id":"levelo_inurba_marseille","lat":43.26678,"lon":5.38265,"is_reserved":false,"is_disabled":false,"rental_uris":{"android":"levelo://app?vid=67349b8d-80b3-4749-832d-07f7e424b34c","ios":"levelo://app?vid=67349b8d-80b3-4749-832d-07f7e424b34c"},"vehicle_type_id":"4","last_reported":1729573771,"current_range_meters":38800,"station_id":"ce4bhg92rcd13ifvqf90","pricing_plan_id":"cebpf4jnsgd1na2vs0mg"},{"bike_id":"87fbb144-aad0-4c95-afc2-bb4c53a8e28d","system_id":"levelo_inurba_marseille","lat":43.28357,"lon":5.38111,"is_reserved":false,"is_disabled":false,"rental_uris":{"android":"levelo://app?vid=87fbb144-aad0-4c95-afc2-bb4c53a8e28d","ios":"levelo://app?vid=87fbb144-aad0-4c95-afc2-bb4c53a8e28d"},"vehicle_type_id":"4","last_reported":1729573771,"current_range_meters":38400,"station_id":"ce4bh412rcd13ifvqdr0","pricing_plan_id":"cebpf4jnsgd1na2vs0mg"},{"bike_id":"fe2a8dea-e15c-4b37-acda-a8e3b708d9cf","system_id":"levelo_inurba_marseille","lat":43.28665,"lon":5.36362,"is_reserved":false,"is_disabled":false,"rental_uris":{"android":"levelo://app?vid=fe2a8dea-e15c-4b37-acda-a8e3b708d9cf","ios":"levelo://app?vid=fe2a8dea-e15c-4b37-acda-a8e3b708d9cf"},"vehicle_type_id":"4","last_reported":1729573771,"current_range_meters":39200,"station_id":"ce4bhah2rcd13ifvqej0","pricing_plan_id":"cebpf4jnsgd1na2vs0mg"},{"bike_id":"d5699d3f-ec32-4374-bd94-40f14a0bb240","system_id":"levelo_inurba_marseille","lat":43.28863,"lon":5.35853,"is_reserved":false,"is_disabled":false,"rental_uris":{"android":"levelo://app?vid=d5699d3f-ec32-4374-bd94-40f14a0bb240","ios":"levelo://app?vid=d5699d3f-ec32-4374-bd94-40f14a0bb240"},"vehicle_type_id":"4","last_reported":1729573771,"current_range_meters":38000,"station_id":"ce4bhb12rcd13ifvqem0","pricing_plan_id":"cebpf4jnsgd1na2vs0mg"},{"bike_id":"39ee9764-c305-469f-9d9c-27c097ea855c","system_id":"levelo_inurba_marseille","lat":43.2397,"lon":5.36627,"is_reserved":false,"is_disabled":false,"rental_uris":{"android":"levelo://app?vid=39ee9764-c305-469f-9d9c-27c097ea855c","ios":"levelo://app?vid=39ee9764-c305-469f-9d9c-27c097ea855c"},"vehicle_type_id":"4","last_reported":1729573771,"current_range_meters":33200,"station_id":"ce4bhi12rcd13ifvqfp0","pricing_plan_id":"cebpf4jnsgd1na2vs0mg"},{"bike_id":"0904e3c7-820e-4021-911c-1377a52fe24b","system_id":"levelo_inurba_marseille","lat":43.30144,"lon":5.3742,"is_reserved":false,"is_disabled":false,"rental_uris":{"android":"levelo://app?vid=0904e3c7-820e-4021-911c-1377a52fe24b","ios":"levelo://app?vid=0904e3c7-820e-4021-911c-1377a52fe24b"},"vehicle_type_id":"4","last_reported":1729573771,"current_range_meters":38800,"station_id":"ce4bgs92rcd13ifvqcc0","pricing_plan_id":"cebpf4jnsgd1na2vs0mg"},{"bike_id":"804fb848-57f6-4944-985c-c6acefd10248","system_id":"levelo_inurba_marseille","lat":43.28149,"lon":5.42643,"is_reserved":false,"is_disabled":false,"rental_uris":{"android":"levelo://app?vid=804fb848-57f6-4944-985c-c6acefd10248","ios":"levelo://app?vid=804fb848-57f6-4944-985c-c6acefd10248"},"vehicle_type_id":"4","last_reported":1729573771,"current_range_meters":38800,"station_id":"ce4bhnh2rcd13ifvqgug","pricing_plan_id":"cebpf4jnsgd1na2vs0mg"},{"bike_id":"ce20ddcd-bcdd-4377-be21-52b2312c0048","system_id":"levelo_inurba_marseille","lat":43.29191,"lon":5.3579,"is_reserved":false,"is_disabled":false,"rental_uris":{"android":"levelo://app?vid=ce20ddcd-bcdd-4377-be21-52b2312c0048","ios":"levelo://app?vid=ce20ddcd-bcdd-4377-be21-52b2312c0048"},"vehicle_type_id":"4","last_reported":1729573771,"current_range_meters":38400,"station_id":"ce4bhb12rcd13ifvqel0","pricing_plan_id":"cebpf4jnsgd1na2vs0mg"},{"bike_id":"2aad55b5-7653-4273-9c29-0610bfcff7a9","system_id":"levelo_inurba_marseille","lat":43.25104,"lon":5.40326,"is_reserved":false,"is_disabled":false,"rental_uris":{"android":"levelo://app?vid=2aad55b5-7653-4273-9c29-0610bfcff7a9","ios":"levelo://app?vid=2aad55b5-7653-4273-9c29-0610bfcff7a9"},"vehicle_type_id":"4","last_reported":1729573771,"current_range_meters":38000,"station_id":"ce4bhlh2rcd13ifvqgig","pricing_plan_id":"cebpf4jnsgd1na2vs0mg"},{"bike_id":"f6b04e4d-9aa3-41a5-bf73-d370802d139a","system_id":"levelo_inurba_marseille","lat":43.33026,"lon":5.3904,"is_reserved":false,"is_disabled":false,"rental_uris":{"android":"levelo://app?vid=f6b04e4d-9aa3-41a5-bf73-d370802d139a","ios":"levelo://app?vid=f6b04e4d-9aa3-41a5-bf73-d370802d139a"},"vehicle_type_id":"4","last_reported":1729573771,"current_range_meters":38000,"station_id":"ce4bhr92rcd13ifvqhrg","pricing_plan_id":"cebpf4jnsgd1na2vs0mg"},{"bike_id":"cb1f5b68-1056-4fae-b9dc-c0f0c6b03ec1","system_id":"levelo_inurba_marseille","lat":43.24544,"lon":5.39525,"is_reserved":false,"is_disabled":false,"rental_uris":{"android":"levelo://app?vid=cb1f5b68-1056-4fae-b9dc-c0f0c6b03ec1","ios":"levelo://app?vid=cb1f5b68-1056-4fae-b9dc-c0f0c6b03ec1"},"vehicle_type_id":"4","last_reported":1729573771,"current_range_meters":39200,"station_id":"ce4bhlp2rcd13ifvqgjg","pricing_plan_id":"cebpf4jnsgd1na2vs0mg"},{"bike_id":"9eb1a5f7-26a2-4236-9784-8acf029dcd3d","system_id":"levelo_inurba_marseille","lat":43.28103,"lon":5.37844,"is_reserved":false,"is_disabled":false,"rental_uris":{"android":"levelo://app?vid=9eb1a5f7-26a2-4236-9784-8acf029dcd3d","ios":"levelo://app?vid=9eb1a5f7-26a2-4236-9784-8acf029dcd3d"},"vehicle_type_id":"4","last_reported":1729573771,"current_range_meters":26000,"station_id":"ce4bha12rcd13ifvqee0","pricing_plan_id":"cebpf4jnsgd1na2vs0mg"},{"bike_id":"d67659aa-1879-49ff-9e21-343007f69c6c","system_id":"levelo_inurba_marseille","lat":43.30807,"lon":5.43525,"is_reserved":false,"is_disabled":false,"rental_uris":{"android":"levelo://app?vid=d67659aa-1879-49ff-9e21-343007f69c6c","ios":"levelo://app?vid=d67659aa-1879-49ff-9e21-343007f69c6c"},"vehicle_type_id":"4","last_reported":1729573771,"current_range_meters":38800,"station_id":"ce4bhph2rcd13ifvqheg","pricing_plan_id":"cebpf4jnsgd1na2vs0mg"},{"bike_id":"22f0e9f1-4795-468e-91c9-9da47019dc8a","system_id":"levelo_inurba_marseille","lat":43.25088,"lon":5.39515,"is_reserved":false,"is_disabled":false,"rental_uris":{"android":"levelo://app?vid=22f0e9f1-4795-468e-91c9-9da47019dc8a","ios":"levelo://app?vid=22f0e9f1-4795-468e-91c9-9da47019dc8a"},"vehicle_type_id":"4","last_reported":1729573771,"current_range_meters":38800,"station_id":"ce4bhm12rcd13ifvqgkg","pricing_plan_id":"cebpf4jnsgd1na2vs0mg"},{"bike_id":"c08827ab-7c1a-460d-a0d8-f56c7acded6a","system_id":"levelo_inurba_marseille","lat":43.30181,"lon":5.38061,"is_reserved":false,"is_disabled":false,"rental_uris":{"android":"levelo://app?vid=c08827ab-7c1a-460d-a0d8-f56c7acded6a","ios":"levelo://app?vid=c08827ab-7c1a-460d-a0d8-f56c7acded6a"},"vehicle_type_id":"4","last_reported":1729573771,"current_range_meters":34800,"station_id":"ce4bgjp2rcd13ifvqbh0","pricing_plan_id":"cebpf4jnsgd1na2vs0mg"},{"bike_id":"7a44cf7d-d2c0-4cf3-9a27-b81bada49023","system_id":"levelo_inurba_marseille","lat":43.29039,"lon":5.39975,"is_reserved":false,"is_disabled":false,"rental_uris":{"android":"levelo://app?vid=7a44cf7d-d2c0-4cf3-9a27-b81bada49023","ios":"levelo://app?vid=7a44cf7d-d2c0-4cf3-9a27-b81bada49023"},"vehicle_type_id":"4","last_reported":1729573771,"current_range_meters":26800,"station_id":"ce4bh392rcd13ifvqdm0","pricing_plan_id":"cebpf4jnsgd1na2vs0mg"},{"bike_id":"3f93d603-921b-4a4e-befa-30d9d8a80713","system_id":"levelo_inurba_marseille","lat":43.31068,"lon":5.38348,"is_reserved":false,"is_disabled":false,"rental_uris":{"android":"levelo://app?vid=3f93d603-921b-4a4e-befa-30d9d8a80713","ios":"levelo://app?vid=3f93d603-921b-4a4e-befa-30d9d8a80713"},"vehicle_type_id":"4","last_reported":1729573771,"current_range_meters":36400,"station_id":"ce4bgv92rcd13ifvqcr0","pricing_plan_id":"cebpf4jnsgd1na2vs0mg"},{"bike_id":"19119e7b-68fe-4a9e-b3d2-d1db016b71a7","system_id":"levelo_inurba_marseille","lat":43.26191,"lon":5.37444,"is_reserved":false,"is_disabled":false,"rental_uris":{"android":"levelo://app?vid=19119e7b-68fe-4a9e-b3d2-d1db016b71a7","ios":"levelo://app?vid=19119e7b-68fe-4a9e-b3d2-d1db016b71a7"},"vehicle_type_id":"4","last_reported":1729573771,"current_range_meters":32400,"station_id":"ce4bhgp2rcd13ifvqfc0","pricing_plan_id":"cebpf4jnsgd1na2vs0mg"},{"bike_id":"3edcc9de-82f8-488a-80ec-7f7f41bf5d14","system_id":"levelo_inurba_marseille","lat":43.3234,"lon":5.40615,"is_reserved":false,"is_disabled":false,"rental_uris":{"android":"levelo://app?vid=3edcc9de-82f8-488a-80ec-7f7f41bf5d14","ios":"levelo://app?vid=3edcc9de-82f8-488a-80ec-7f7f41bf5d14"},"vehicle_type_id":"4","last_reported":1729573771,"current_range_meters":9600,"station_id":"ce4bhq92rcd13ifvqhjg","pricing_plan_id":"cebpf4jnsgd1na2vs0mg"},{"bike_id":"a78a05f6-e187-4669-80d1-9675fd22ff5c","system_id":"levelo_inurba_marseille","lat":43.313646,"lon":5.384921,"is_reserved":false,"is_disabled":false,"rental_uris":{"android":"levelo://app?vid=a78a05f6-e187-4669-80d1-9675fd22ff5c","ios":"levelo://app?vid=a78a05f6-e187-4669-80d1-9675fd22ff5c"},"vehicle_type_id":"4","last_reported":1729573771,"current_range_meters":39200,"station_id":"ce4bgt92rcd13ifvqcf0","pricing_plan_id":"cebpf4jnsgd1na2vs0mg"},{"bike_id":"7bc8993f-b69f-4b96-8190-8b6682b7d70f","system_id":"levelo_inurba_marseille","lat":43.33727,"lon":5.39182,"is_reserved":false,"is_disabled":false,"rental_uris":{"android":"levelo://app?vid=7bc8993f-b69f-4b96-8190-8b6682b7d70f","ios":"levelo://app?vid=7bc8993f-b69f-4b96-8190-8b6682b7d70f"},"vehicle_type_id":"4","last_reported":1729573771,"current_range_meters":39200,"station_id":"ce4bhr92rcd13ifvqhsg","pricing_plan_id":"cebpf4jnsgd1na2vs0mg"},{"bike_id":"864575c1-85b8-4008-92ba-391073d4ed51","system_id":"levelo_inurba_marseille","lat":43.23194,"lon":5.35546,"is_reserved":false,"is_disabled":false,"rental_uris":{"android":"levelo://app?vid=864575c1-85b8-4008-92ba-391073d4ed51","ios":"levelo://app?vid=864575c1-85b8-4008-92ba-391073d4ed51"},"vehicle_type_id":"4","last_reported":1729573771,"current_range_meters":26000,"station_id":"ce4bhu92rcd13ifvqi70","pricing_plan_id":"cebpf4jnsgd1na2vs0mg"},{"bike_id":"d6a42643-35d5-4818-8868-8a5dfbcd72f3","system_id":"levelo_inurba_marseille","lat":43.30157,"lon":5.38073,"is_reserved":false,"is_disabled":false,"rental_uris":{"android":"levelo://app?vid=d6a42643-35d5-4818-8868-8a5dfbcd72f3","ios":"levelo://app?vid=d6a42643-35d5-4818-8868-8a5dfbcd72f3"},"vehicle_type_id":"4","last_reported":1729573771,"current_range_meters":36000,"station_id":"ce4bgjp2rcd13ifvqbh0","pricing_plan_id":"cebpf4jnsgd1na2vs0mg"},{"bike_id":"d0b044eb-7d98-490f-9444-f1bbe1b88bad","system_id":"levelo_inurba_marseille","lat":43.27208,"lon":5.39176,"is_reserved":false,"is_disabled":false,"rental_uris":{"android":"levelo://app?vid=d0b044eb-7d98-490f-9444-f1bbe1b88bad","ios":"levelo://app?vid=d0b044eb-7d98-490f-9444-f1bbe1b88bad"},"vehicle_type_id":"4","last_reported":1729573771,"current_range_meters":38800,"station_id":"ce4bhhp2rcd13ifvqfm0","pricing_plan_id":"cebpf4jnsgd1na2vs0mg"},{"bike_id":"7b0fd21e-069c-4369-8603-9aba1f31fcdc","system_id":"levelo_inurba_marseille","lat":43.27213,"lon":5.39186,"is_reserved":false,"is_disabled":false,"rental_uris":{"android":"levelo://app?vid=7b0fd21e-069c-4369-8603-9aba1f31fcdc","ios":"levelo://app?vid=7b0fd21e-069c-4369-8603-9aba1f31fcdc"},"vehicle_type_id":"4","last_reported":1729573771,"current_range_meters":38800,"station_id":"ce4bhhp2rcd13ifvqfm0","pricing_plan_id":"cebpf4jnsgd1na2vs0mg"},{"bike_id":"54d754fe-2c98-44e4-861b-5db40ec5287c","system_id":"levelo_inurba_marseille","lat":43.28267,"lon":5.35066,"is_reserved":false,"is_disabled":false,"rental_uris":{"android":"levelo://app?vid=54d754fe-2c98-44e4-861b-5db40ec5287c","ios":"levelo://app?vid=54d754fe-2c98-44e4-861b-5db40ec5287c"},"vehicle_type_id":"4","last_reported":1729573771,"current_range_meters":36800,"station_id":"ce4bhbp2rcd13ifvqerg","pricing_plan_id":"cebpf4jnsgd1na2vs0mg"},{"bike_id":"16b5569f-3556-4156-bb45-e177be9ecd99","system_id":"levelo_inurba_marseille","lat":43.27208,"lon":5.39176,"is_reserved":false,"is_disabled":false,"rental_uris":{"android":"levelo://app?vid=16b5569f-3556-4156-bb45-e177be9ecd99","ios":"levelo://app?vid=16b5569f-3556-4156-bb45-e177be9ecd99"},"vehicle_type_id":"4","last_reported":1729573771,"current_range_meters":37600,"station_id":"ce4bhhp2rcd13ifvqfm0","pricing_plan_id":"cebpf4jnsgd1na2vs0mg"},{"bike_id":"0728974d-1ad5-4181-91f2-6035aab7157d","system_id":"levelo_inurba_marseille","lat":43.23192,"lon":5.35547,"is_reserved":false,"is_disabled":false,"rental_uris":{"android":"levelo://app?vid=0728974d-1ad5-4181-91f2-6035aab7157d","ios":"levelo://app?vid=0728974d-1ad5-4181-91f2-6035aab7157d"},"vehicle_type_id":"4","last_reported":1729573771,"current_range_meters":38800,"station_id":"ce4bhu92rcd13ifvqi70","pricing_plan_id":"cebpf4jnsgd1na2vs0mg"},{"bike_id":"2289b981-14c8-4408-ac5a-34fd45dbe120","system_id":"levelo_inurba_marseille","lat":43.31235,"lon":5.36847,"is_reserved":false,"is_disabled":false,"rental_uris":{"android":"levelo://app?vid=2289b981-14c8-4408-ac5a-34fd45dbe120","ios":"levelo://app?vid=2289b981-14c8-4408-ac5a-34fd45dbe120"},"vehicle_type_id":"4","last_reported":1729573771,"current_range_meters":37600,"station_id":"ce4bgl92rcd13ifvqbq0","pricing_plan_id":"cebpf4jnsgd1na2vs0mg"},{"bike_id":"40789e63-bb12-414a-9e11-b14620ea6085","system_id":"levelo_inurba_marseille","lat":43.31707,"lon":5.37762,"is_reserved":false,"is_disabled":false,"rental_uris":{"android":"levelo://app?vid=40789e63-bb12-414a-9e11-b14620ea6085","ios":"levelo://app?vid=40789e63-bb12-414a-9e11-b14620ea6085"},"vehicle_type_id":"4","last_reported":1729573771,"current_range_meters":38000,"station_id":"ce4bgth2rcd13ifvqch0","pricing_plan_id":"cebpf4jnsgd1na2vs0mg"},{"bike_id":"2c2f3718-7209-4389-9d1d-d985a7daaef2","system_id":"levelo_inurba_marseille","lat":43.31679,"lon":5.37509,"is_reserved":false,"is_disabled":false,"rental_uris":{"android":"levelo://app?vid=2c2f3718-7209-4389-9d1d-d985a7daaef2","ios":"levelo://app?vid=2c2f3718-7209-4389-9d1d-d985a7daaef2"},"vehicle_type_id":"4","last_reported":1729573771,"current_range_meters":10800,"station_id":"","pricing_plan_id":"cebpf4jnsgd1na2vs0mg"},{"bike_id":"d36f241f-0fd4-4d00-b8d8-bbe04717c004","system_id":"levelo_inurba_marseille","lat":43.30425,"lon":5.41277,"is_reserved":false,"is_disabled":false,"rental_uris":{"android":"levelo://app?vid=d36f241f-0fd4-4d00-b8d8-bbe04717c004","ios":"levelo://app?vid=d36f241f-0fd4-4d00-b8d8-bbe04717c004"},"vehicle_type_id":"4","last_reported":1729573771,"current_range_meters":12800,"station_id":"ce4bhop2rcd13ifvqh8g","pricing_plan_id":"cebpf4jnsgd1na2vs0mg"},{"bike_id":"b9e8c52f-e6bf-42e4-8b4d-e1b4b2997faa","system_id":"levelo_inurba_marseille","lat":43.26784,"lon":5.39421,"is_reserved":false,"is_disabled":false,"rental_uris":{"android":"levelo://app?vid=b9e8c52f-e6bf-42e4-8b4d-e1b4b2997faa","ios":"levelo://app?vid=b9e8c52f-e6bf-42e4-8b4d-e1b4b2997faa"},"vehicle_type_id":"4","last_reported":1729573771,"current_range_meters":26800,"station_id":"ce4bhh12rcd13ifvqfg0","pricing_plan_id":"cebpf4jnsgd1na2vs0mg"},{"bike_id":"52d745c9-427b-4fcd-827c-6a4e25626b52","system_id":"levelo_inurba_marseille","lat":43.31358,"lon":5.38496,"is_reserved":false,"is_disabled":false,"rental_uris":{"android":"levelo://app?vid=52d745c9-427b-4fcd-827c-6a4e25626b52","ios":"levelo://app?vid=52d745c9-427b-4fcd-827c-6a4e25626b52"},"vehicle_type_id":"4","last_reported":1729573771,"current_range_meters":38800,"station_id":"ce4bgt92rcd13ifvqcf0","pricing_plan_id":"cebpf4jnsgd1na2vs0mg"},{"bike_id":"44995a22-033a-4c58-85c7-5fde1a0d1fd1","system_id":"levelo_inurba_marseille","lat":43.31756,"lon":5.39019,"is_reserved":false,"is_disabled":false,"rental_uris":{"android":"levelo://app?vid=44995a22-033a-4c58-85c7-5fde1a0d1fd1","ios":"levelo://app?vid=44995a22-033a-4c58-85c7-5fde1a0d1fd1"},"vehicle_type_id":"4","last_reported":1729573771,"current_range_meters":17200,"station_id":"ce4bhqp2rcd13ifvqhng","pricing_plan_id":"cebpf4jnsgd1na2vs0mg"},{"bike_id":"93bfb70d-d871-43c2-bbe7-1b116e511b36","system_id":"levelo_inurba_marseille","lat":43.26948,"lon":5.38639,"is_reserved":false,"is_disabled":false,"rental_uris":{"android":"levelo://app?vid=93bfb70d-d871-43c2-bbe7-1b116e511b36","ios":"levelo://app?vid=93bfb70d-d871-43c2-bbe7-1b116e511b36"},"vehicle_type_id":"4","last_reported":1729573771,"current_range_meters":38800,"station_id":"ce4bhh92rcd13ifvqfh0","pricing_plan_id":"cebpf4jnsgd1na2vs0mg"},{"bike_id":"f5d50e82-fece-4bbd-b888-8187784dc2e8","system_id":"levelo_inurba_marseille","lat":43.308844,"lon":5.396368,"is_reserved":false,"is_disabled":false,"rental_uris":{"android":"levelo://app?vid=f5d50e82-fece-4bbd-b888-8187784dc2e8","ios":"levelo://app?vid=f5d50e82-fece-4bbd-b888-8187784dc2e8"},"vehicle_type_id":"4","last_reported":1729573771,"current_range_meters":31200,"station_id":"ce4bh012rcd13ifvqcv0","pricing_plan_id":"cebpf4jnsgd1na2vs0mg"},{"bike_id":"e62a894f-aa91-43a8-a8db-f23b8737397d","system_id":"levelo_inurba_marseille","lat":43.31492,"lon":5.37308,"is_reserved":false,"is_disabled":false,"rental_uris":{"android":"levelo://app?vid=e62a894f-aa91-43a8-a8db-f23b8737397d","ios":"levelo://app?vid=e62a894f-aa91-43a8-a8db-f23b8737397d"},"vehicle_type_id":"4","last_reported":1729573771,"current_range_meters":28000,"station_id":"ce4bgt12rcd13ifvqcd0","pricing_plan_id":"cebpf4jnsgd1na2vs0mg"},{"bike_id":"33ceddba-4cde-4193-9e1a-0e1fdb0a2205","system_id":"levelo_inurba_marseille","lat":43.312711,"lon":5.401624,"is_reserved":false,"is_disabled":false,"rental_uris":{"android":"levelo://app?vid=33ceddba-4cde-4193-9e1a-0e1fdb0a2205","ios":"levelo://app?vid=33ceddba-4cde-4193-9e1a-0e1fdb0a2205"},"vehicle_type_id":"4","last_reported":1729573771,"current_range_meters":38800,"station_id":"ce4bh092rcd13ifvqd30","pricing_plan_id":"cebpf4jnsgd1na2vs0mg"},{"bike_id":"a83c7b68-cf4e-46de-88aa-de72078f7bcd","system_id":"levelo_inurba_marseille","lat":43.31167,"lon":5.38739,"is_reserved":false,"is_disabled":false,"rental_uris":{"android":"levelo://app?vid=a83c7b68-cf4e-46de-88aa-de72078f7bcd","ios":"levelo://app?vid=a83c7b68-cf4e-46de-88aa-de72078f7bcd"},"vehicle_type_id":"4","last_reported":1729573771,"current_range_meters":34800,"station_id":"ce4bgv12rcd13ifvqcp0","pricing_plan_id":"cebpf4jnsgd1na2vs0mg"},{"bike_id":"b80433ac-4b37-4869-84e8-91999a3765ef","system_id":"levelo_inurba_marseille","lat":43.33604,"lon":5.41024,"is_reserved":false,"is_disabled":false,"rental_uris":{"android":"levelo://app?vid=b80433ac-4b37-4869-84e8-91999a3765ef","ios":"levelo://app?vid=b80433ac-4b37-4869-84e8-91999a3765ef"},"vehicle_type_id":"4","last_reported":1729573771,"current_range_meters":28000,"station_id":"ce4bhqh2rcd13ifvqhmg","pricing_plan_id":"cebpf4jnsgd1na2vs0mg"},{"bike_id":"79a1e020-318b-42a1-a8c0-a424b1daf69e","system_id":"levelo_inurba_marseille","lat":43.296,"lon":5.36142,"is_reserved":false,"is_disabled":false,"rental_uris":{"android":"levelo://app?vid=79a1e020-318b-42a1-a8c0-a424b1daf69e","ios":"levelo://app?vid=79a1e020-318b-42a1-a8c0-a424b1daf69e"},"vehicle_type_id":"4","last_reported":1729573771,"current_range_meters":7200,"station_id":"","pricing_plan_id":"cebpf4jnsgd1na2vs0mg"},{"bike_id":"6398e522-375b-4d8b-96fe-81ff45d58e1e","system_id":"levelo_inurba_marseille","lat":43.27952,"lon":5.41043,"is_reserved":false,"is_disabled":false,"rental_uris":{"android":"levelo://app?vid=6398e522-375b-4d8b-96fe-81ff45d58e1e","ios":"levelo://app?vid=6398e522-375b-4d8b-96fe-81ff45d58e1e"},"vehicle_type_id":"4","last_reported":1729573771,"current_range_meters":5600,"station_id":"ce4bhnp2rcd13ifvqh0g","pricing_plan_id":"cebpf4jnsgd1na2vs0mg"},{"bike_id":"9bf9a108-7d5c-4517-b690-aa3ce06ef443","system_id":"levelo_inurba_marseille","lat":43.30348,"lon":5.41873,"is_reserved":false,"is_disabled":false,"rental_uris":{"android":"levelo://app?vid=9bf9a108-7d5c-4517-b690-aa3ce06ef443","ios":"levelo://app?vid=9bf9a108-7d5c-4517-b690-aa3ce06ef443"},"vehicle_type_id":"4","last_reported":1729573771,"current_range_meters":38800,"station_id":"ce4bhop2rcd13ifvqh7g","pricing_plan_id":"cebpf4jnsgd1na2vs0mg"},{"bike_id":"88fbf92f-3b8a-4fa9-958c-0728f903a748","system_id":"levelo_inurba_marseille","lat":43.290333,"lon":5.375583,"is_reserved":false,"is_disabled":false,"rental_uris":{"android":"levelo://app?vid=88fbf92f-3b8a-4fa9-958c-0728f903a748","ios":"levelo://app?vid=88fbf92f-3b8a-4fa9-958c-0728f903a748"},"vehicle_type_id":"4","last_reported":1729573771,"current_range_meters":32400,"station_id":"ce4bhh12rcd13ifvqfg0","pricing_plan_id":"cebpf4jnsgd1na2vs0mg"},{"bike_id":"a380b183-7537-4fff-8060-8ec31643c6dd","system_id":"levelo_inurba_marseille","lat":43.25108,"lon":5.40326,"is_reserved":false,"is_disabled":false,"rental_uris":{"android":"levelo://app?vid=a380b183-7537-4fff-8060-8ec31643c6dd","ios":"levelo://app?vid=a380b183-7537-4fff-8060-8ec31643c6dd"},"vehicle_type_id":"4","last_reported":1729573771,"current_range_meters":26800,"station_id":"ce4bhlh2rcd13ifvqgig","pricing_plan_id":"cebpf4jnsgd1na2vs0mg"},{"bike_id":"f4ca5a17-f390-4a3b-904b-bce04498a597","system_id":"levelo_inurba_marseille","lat":43.2893,"lon":5.38402,"is_reserved":false,"is_disabled":false,"rental_uris":{"android":"levelo://app?vid=f4ca5a17-f390-4a3b-904b-bce04498a597","ios":"levelo://app?vid=f4ca5a17-f390-4a3b-904b-bce04498a597"},"vehicle_type_id":"4","last_reported":1729573771,"current_range_meters":38800,"station_id":"ce4bh612rcd13ifvqe6g","pricing_plan_id":"cebpf4jnsgd1na2vs0mg"},{"bike_id":"ada05105-b609-4b47-b6ef-58f23d195ff5","system_id":"levelo_inurba_marseille","lat":43.2922,"lon":5.36049,"is_reserved":false,"is_disabled":false,"rental_uris":{"android":"levelo://app?vid=ada05105-b609-4b47-b6ef-58f23d195ff5","ios":"levelo://app?vid=ada05105-b609-4b47-b6ef-58f23d195ff5"},"vehicle_type_id":"4","last_reported":1729573771,"current_range_meters":9600,"station_id":"ce4bhbh2rcd13ifvqeqg","pricing_plan_id":"cebpf4jnsgd1na2vs0mg"},{"bike_id":"7adf842b-4b8c-4356-a23f-1be0cbaf4d21","system_id":"levelo_inurba_marseille","lat":43.23195,"lon":5.35542,"is_reserved":false,"is_disabled":false,"rental_uris":{"android":"levelo://app?vid=7adf842b-4b8c-4356-a23f-1be0cbaf4d21","ios":"levelo://app?vid=7adf842b-4b8c-4356-a23f-1be0cbaf4d21"},"vehicle_type_id":"4","last_reported":1729573771,"current_range_meters":10800,"station_id":"ce4bhu92rcd13ifvqi70","pricing_plan_id":"cebpf4jnsgd1na2vs0mg"},{"bike_id":"1505e4cd-8219-4389-bb14-ac621babe580","system_id":"levelo_inurba_marseille","lat":43.29033,"lon":5.3997,"is_reserved":false,"is_disabled":false,"rental_uris":{"android":"levelo://app?vid=1505e4cd-8219-4389-bb14-ac621babe580","ios":"levelo://app?vid=1505e4cd-8219-4389-bb14-ac621babe580"},"vehicle_type_id":"4","last_reported":1729573771,"current_range_meters":27200,"station_id":"ce4bh392rcd13ifvqdm0","pricing_plan_id":"cebpf4jnsgd1na2vs0mg"},{"bike_id":"3fbb21dc-457c-4028-8cc7-8a7ddebb915c","system_id":"levelo_inurba_marseille","lat":43.23196,"lon":5.35548,"is_reserved":false,"is_disabled":false,"rental_uris":{"android":"levelo://app?vid=3fbb21dc-457c-4028-8cc7-8a7ddebb915c","ios":"levelo://app?vid=3fbb21dc-457c-4028-8cc7-8a7ddebb915c"},"vehicle_type_id":"4","last_reported":1729573771,"current_range_meters":37600,"station_id":"ce4bhu92rcd13ifvqi70","pricing_plan_id":"cebpf4jnsgd1na2vs0mg"},{"bike_id":"8d66234d-ed10-4a56-b9bf-7024ed1a6c9c","system_id":"levelo_inurba_marseille","lat":43.32562,"lon":5.37912,"is_reserved":false,"is_disabled":false,"rental_uris":{"android":"levelo://app?vid=8d66234d-ed10-4a56-b9bf-7024ed1a6c9c","ios":"levelo://app?vid=8d66234d-ed10-4a56-b9bf-7024ed1a6c9c"},"vehicle_type_id":"4","last_reported":1729573771,"current_range_meters":8400,"station_id":"","pricing_plan_id":"cebpf4jnsgd1na2vs0mg"},{"bike_id":"b1ad18a9-9350-414c-b38d-d793e01e3edd","system_id":"levelo_inurba_marseille","lat":43.30157,"lon":5.38085,"is_reserved":false,"is_disabled":false,"rental_uris":{"android":"levelo://app?vid=b1ad18a9-9350-414c-b38d-d793e01e3edd","ios":"levelo://app?vid=b1ad18a9-9350-414c-b38d-d793e01e3edd"},"vehicle_type_id":"4","last_reported":1729573771,"current_range_meters":27600,"station_id":"ce4bgjp2rcd13ifvqbh0","pricing_plan_id":"cebpf4jnsgd1na2vs0mg"},{"bike_id":"e68f36c4-aa7f-4c29-ae05-5a8813b7b431","system_id":"levelo_inurba_marseille","lat":43.27811,"lon":5.4071,"is_reserved":false,"is_disabled":false,"rental_uris":{"android":"levelo://app?vid=e68f36c4-aa7f-4c29-ae05-5a8813b7b431","ios":"levelo://app?vid=e68f36c4-aa7f-4c29-ae05-5a8813b7b431"},"vehicle_type_id":"4","last_reported":1729573771,"current_range_meters":31200,"station_id":"ce4bhnh2rcd13ifvqgtg","pricing_plan_id":"cebpf4jnsgd1na2vs0mg"},{"bike_id":"a0749efe-97d9-4183-a72e-c1d2637d69c3","system_id":"levelo_inurba_marseille","lat":43.29805,"lon":5.40412,"is_reserved":false,"is_disabled":false,"rental_uris":{"android":"levelo://app?vid=a0749efe-97d9-4183-a72e-c1d2637d69c3","ios":"levelo://app?vid=a0749efe-97d9-4183-a72e-c1d2637d69c3"},"vehicle_type_id":"4","last_reported":1729573771,"current_range_meters":37600,"station_id":"ce4bh112rcd13ifvqd90","pricing_plan_id":"cebpf4jnsgd1na2vs0mg"},{"bike_id":"355f1dc2-3476-4496-8420-f36b2652912a","system_id":"levelo_inurba_marseille","lat":43.31332,"lon":5.39699,"is_reserved":false,"is_disabled":false,"rental_uris":{"android":"levelo://app?vid=355f1dc2-3476-4496-8420-f36b2652912a","ios":"levelo://app?vid=355f1dc2-3476-4496-8420-f36b2652912a"},"vehicle_type_id":"4","last_reported":1729573771,"current_range_meters":14800,"station_id":"ce4bgvp2rcd13ifvqcu0","pricing_plan_id":"cebpf4jnsgd1na2vs0mg"},{"bike_id":"1d043a7e-e4a0-4b52-a511-dae1798912e1","system_id":"levelo_inurba_marseille","lat":43.281555,"lon":5.426341,"is_reserved":false,"is_disabled":false,"rental_uris":{"android":"levelo://app?vid=1d043a7e-e4a0-4b52-a511-dae1798912e1","ios":"levelo://app?vid=1d043a7e-e4a0-4b52-a511-dae1798912e1"},"vehicle_type_id":"4","last_reported":1729573771,"current_range_meters":38000,"station_id":"ce4bhnh2rcd13ifvqgug","pricing_plan_id":"cebpf4jnsgd1na2vs0mg"},{"bike_id":"2e7e341d-6647-47b6-9b4f-10b43bf22d61","system_id":"levelo_inurba_marseille","lat":43.30417,"lon":5.41282,"is_reserved":false,"is_disabled":false,"rental_uris":{"android":"levelo://app?vid=2e7e341d-6647-47b6-9b4f-10b43bf22d61","ios":"levelo://app?vid=2e7e341d-6647-47b6-9b4f-10b43bf22d61"},"vehicle_type_id":"4","last_reported":1729573771,"current_range_meters":30800,"station_id":"ce4bhop2rcd13ifvqh8g","pricing_plan_id":"cebpf4jnsgd1na2vs0mg"},{"bike_id":"f17fa479-f2e2-48da-8a91-0c07b8b7f8e8","system_id":"levelo_inurba_marseille","lat":43.28466,"lon":5.3589,"is_reserved":false,"is_disabled":false,"rental_uris":{"android":"levelo://app?vid=f17fa479-f2e2-48da-8a91-0c07b8b7f8e8","ios":"levelo://app?vid=f17fa479-f2e2-48da-8a91-0c07b8b7f8e8"},"vehicle_type_id":"4","last_reported":1729573771,"current_range_meters":38000,"station_id":"ce4bhah2rcd13ifvqei0","pricing_plan_id":"cebpf4jnsgd1na2vs0mg"},{"bike_id":"9926919b-200e-4ea0-a4a8-95ae624636d3","system_id":"levelo_inurba_marseille","lat":43.25091,"lon":5.39517,"is_reserved":false,"is_disabled":false,"rental_uris":{"android":"levelo://app?vid=9926919b-200e-4ea0-a4a8-95ae624636d3","ios":"levelo://app?vid=9926919b-200e-4ea0-a4a8-95ae624636d3"},"vehicle_type_id":"4","last_reported":1729573771,"current_range_meters":28000,"station_id":"ce4bhm12rcd13ifvqgkg","pricing_plan_id":"cebpf4jnsgd1na2vs0mg"},{"bike_id":"1eadcc42-de84-4bd1-8d6a-153babdc9369","system_id":"levelo_inurba_marseille","lat":43.28269,"lon":5.35072,"is_reserved":false,"is_disabled":false,"rental_uris":{"android":"levelo://app?vid=1eadcc42-de84-4bd1-8d6a-153babdc9369","ios":"levelo://app?vid=1eadcc42-de84-4bd1-8d6a-153babdc9369"},"vehicle_type_id":"4","last_reported":1729573771,"current_range_meters":37600,"station_id":"ce4bhbp2rcd13ifvqerg","pricing_plan_id":"cebpf4jnsgd1na2vs0mg"},{"bike_id":"6cd915b7-8862-4c87-b58a-50cab51e10ad","system_id":"levelo_inurba_marseille","lat":43.29558,"lon":5.42284,"is_reserved":false,"is_disabled":false,"rental_uris":{"android":"levelo://app?vid=6cd915b7-8862-4c87-b58a-50cab51e10ad","ios":"levelo://app?vid=6cd915b7-8862-4c87-b58a-50cab51e10ad"},"vehicle_type_id":"4","last_reported":1729573771,"current_range_meters":22800,"station_id":"ce4bhph2rcd13ifvqhdg","pricing_plan_id":"cebpf4jnsgd1na2vs0mg"},{"bike_id":"6f0ed490-ff3a-43c7-abbb-a619b4389f21","system_id":"levelo_inurba_marseille","lat":43.29822,"lon":5.38066,"is_reserved":false,"is_disabled":false,"rental_uris":{"android":"levelo://app?vid=6f0ed490-ff3a-43c7-abbb-a619b4389f21","ios":"levelo://app?vid=6f0ed490-ff3a-43c7-abbb-a619b4389f21"},"vehicle_type_id":"4","last_reported":1729573771,"current_range_meters":37600,"station_id":"ce4bgip2rcd13ifvqbb0","pricing_plan_id":"cebpf4jnsgd1na2vs0mg"},{"bike_id":"b3104e33-9459-48f1-a6de-d63ef857c18a","system_id":"levelo_inurba_marseille","lat":43.32656,"lon":5.4099,"is_reserved":false,"is_disabled":false,"rental_uris":{"android":"levelo://app?vid=b3104e33-9459-48f1-a6de-d63ef857c18a","ios":"levelo://app?vid=b3104e33-9459-48f1-a6de-d63ef857c18a"},"vehicle_type_id":"4","last_reported":1729573771,"current_range_meters":31200,"station_id":"ce4bhpp2rcd13ifvqhgg","pricing_plan_id":"cebpf4jnsgd1na2vs0mg"},{"bike_id":"c8705fc9-9390-4bf1-aee1-00308af47a29","system_id":"levelo_inurba_marseille","lat":43.2901,"lon":5.35621,"is_reserved":false,"is_disabled":false,"rental_uris":{"android":"levelo://app?vid=c8705fc9-9390-4bf1-aee1-00308af47a29","ios":"levelo://app?vid=c8705fc9-9390-4bf1-aee1-00308af47a29"},"vehicle_type_id":"4","last_reported":1729573771,"current_range_meters":31200,"station_id":"ce4bhb92rcd13ifvqen0","pricing_plan_id":"cebpf4jnsgd1na2vs0mg"},{"bike_id":"155517ef-0a83-4c87-b2da-fb3d8d259bc7","system_id":"levelo_inurba_marseille","lat":43.25572,"lon":5.38238,"is_reserved":false,"is_disabled":false,"rental_uris":{"android":"levelo://app?vid=155517ef-0a83-4c87-b2da-fb3d8d259bc7","ios":"levelo://app?vid=155517ef-0a83-4c87-b2da-fb3d8d259bc7"},"vehicle_type_id":"4","last_reported":1729573771,"current_range_meters":37600,"station_id":"ce4bhih2rcd13ifvqfs0","pricing_plan_id":"cebpf4jnsgd1na2vs0mg"},{"bike_id":"4afd65d5-cd9b-48cd-9f28-fe6052f75715","system_id":"levelo_inurba_marseille","lat":43.29444,"lon":5.39744,"is_reserved":false,"is_disabled":false,"rental_uris":{"android":"levelo://app?vid=4afd65d5-cd9b-48cd-9f28-fe6052f75715","ios":"levelo://app?vid=4afd65d5-cd9b-48cd-9f28-fe6052f75715"},"vehicle_type_id":"4","last_reported":1729573771,"current_range_meters":38800,"station_id":"ce4bh3h2rcd13ifvqdo0","pricing_plan_id":"cebpf4jnsgd1na2vs0mg"},{"bike_id":"2d01babb-a88f-40ff-bc1c-db20c2d7144e","system_id":"levelo_inurba_marseille","lat":43.24809,"lon":5.37458,"is_reserved":false,"is_disabled":false,"rental_uris":{"android":"levelo://app?vid=2d01babb-a88f-40ff-bc1c-db20c2d7144e","ios":"levelo://app?vid=2d01babb-a88f-40ff-bc1c-db20c2d7144e"},"vehicle_type_id":"4","last_reported":1729573771,"current_range_meters":38400,"station_id":"ce4bhgh2rcd13ifvqfb0","pricing_plan_id":"cebpf4jnsgd1na2vs0mg"},{"bike_id":"94654e52-ac43-4d4d-9100-a81fd158ab8c","system_id":"levelo_inurba_marseille","lat":43.27177,"lon":5.4099,"is_reserved":false,"is_disabled":false,"rental_uris":{"android":"levelo://app?vid=94654e52-ac43-4d4d-9100-a81fd158ab8c","ios":"levelo://app?vid=94654e52-ac43-4d4d-9100-a81fd158ab8c"},"vehicle_type_id":"4","last_reported":1729573771,"current_range_meters":38800,"station_id":"ce4bhl12rcd13ifvqgf0","pricing_plan_id":"cebpf4jnsgd1na2vs0mg"},{"bike_id":"d35aead5-74d9-4a00-baad-d7d1ed435177","system_id":"levelo_inurba_marseille","lat":43.24073,"lon":5.37759,"is_reserved":false,"is_disabled":false,"rental_uris":{"android":"levelo://app?vid=d35aead5-74d9-4a00-baad-d7d1ed435177","ios":"levelo://app?vid=d35aead5-74d9-4a00-baad-d7d1ed435177"},"vehicle_type_id":"4","last_reported":1729573771,"current_range_meters":36800,"station_id":"ce4bhnp2rcd13ifvqgvg","pricing_plan_id":"cebpf4jnsgd1na2vs0mg"},{"bike_id":"45e47b32-b595-42fc-b7b4-fe5c0ba1b09b","system_id":"levelo_inurba_marseille","lat":43.31071,"lon":5.38347,"is_reserved":false,"is_disabled":false,"rental_uris":{"android":"levelo://app?vid=45e47b32-b595-42fc-b7b4-fe5c0ba1b09b","ios":"levelo://app?vid=45e47b32-b595-42fc-b7b4-fe5c0ba1b09b"},"vehicle_type_id":"4","last_reported":1729573771,"current_range_meters":27600,"station_id":"ce4bgv92rcd13ifvqcr0","pricing_plan_id":"cebpf4jnsgd1na2vs0mg"},{"bike_id":"3d336e58-b860-4dc5-8042-a71fd2927a26","system_id":"levelo_inurba_marseille","lat":43.299591,"lon":5.380822,"is_reserved":false,"is_disabled":false,"rental_uris":{"android":"levelo://app?vid=3d336e58-b860-4dc5-8042-a71fd2927a26","ios":"levelo://app?vid=3d336e58-b860-4dc5-8042-a71fd2927a26"},"vehicle_type_id":"4","last_reported":1729573771,"current_range_meters":28400,"station_id":"ce4bgip2rcd13ifvqbb0","pricing_plan_id":"cebpf4jnsgd1na2vs0mg"},{"bike_id":"9497472b-df01-4419-8ccb-4371f577f35f","system_id":"levelo_inurba_marseille","lat":43.25578,"lon":5.38238,"is_reserved":false,"is_disabled":false,"rental_uris":{"android":"levelo://app?vid=9497472b-df01-4419-8ccb-4371f577f35f","ios":"levelo://app?vid=9497472b-df01-4419-8ccb-4371f577f35f"},"vehicle_type_id":"4","last_reported":1729573771,"current_range_meters":18800,"station_id":"ce4bhih2rcd13ifvqfs0","pricing_plan_id":"cebpf4jnsgd1na2vs0mg"},{"bike_id":"3b14897a-daf5-4d7e-8b82-86c5bdae4669","system_id":"levelo_inurba_marseille","lat":43.2861,"lon":5.37065,"is_reserved":false,"is_disabled":false,"rental_uris":{"android":"levelo://app?vid=3b14897a-daf5-4d7e-8b82-86c5bdae4669","ios":"levelo://app?vid=3b14897a-daf5-4d7e-8b82-86c5bdae4669"},"vehicle_type_id":"4","last_reported":1729573771,"current_range_meters":27200,"station_id":"ce4bht12rcd13ifvqi60","pricing_plan_id":"cebpf4jnsgd1na2vs0mg"},{"bike_id":"262d6295-809d-45c9-9768-b3b5a2cf90b7","system_id":"levelo_inurba_marseille","lat":43.31352,"lon":5.36726,"is_reserved":false,"is_disabled":false,"rental_uris":{"android":"levelo://app?vid=262d6295-809d-45c9-9768-b3b5a2cf90b7","ios":"levelo://app?vid=262d6295-809d-45c9-9768-b3b5a2cf90b7"},"vehicle_type_id":"4","last_reported":1729573771,"current_range_meters":20400,"station_id":"ce4bgr92rcd13ifvqc6g","pricing_plan_id":"cebpf4jnsgd1na2vs0mg"},{"bike_id":"c3945b60-e38d-4106-8f18-92c7f436cc4f","system_id":"levelo_inurba_marseille","lat":43.33757,"lon":5.37448,"is_reserved":false,"is_disabled":false,"rental_uris":{"android":"levelo://app?vid=c3945b60-e38d-4106-8f18-92c7f436cc4f","ios":"levelo://app?vid=c3945b60-e38d-4106-8f18-92c7f436cc4f"},"vehicle_type_id":"4","last_reported":1729573771,"current_range_meters":33200,"station_id":"","pricing_plan_id":"cebpf4jnsgd1na2vs0mg"},{"bike_id":"06b2f90b-414f-474f-ab28-6f0dd375cd60","system_id":"levelo_inurba_marseille","lat":43.30144,"lon":5.38064,"is_reserved":false,"is_disabled":false,"rental_uris":{"android":"levelo://app?vid=06b2f90b-414f-474f-ab28-6f0dd375cd60","ios":"levelo://app?vid=06b2f90b-414f-474f-ab28-6f0dd375cd60"},"vehicle_type_id":"4","last_reported":1729573771,"current_range_meters":38400,"station_id":"ce4bgjp2rcd13ifvqbh0","pricing_plan_id":"cebpf4jnsgd1na2vs0mg"},{"bike_id":"de1ff86d-3061-40a1-be1e-8be446e6115e","system_id":"levelo_inurba_marseille","lat":43.29586,"lon":5.3816,"is_reserved":false,"is_disabled":false,"rental_uris":{"android":"levelo://app?vid=de1ff86d-3061-40a1-be1e-8be446e6115e","ios":"levelo://app?vid=de1ff86d-3061-40a1-be1e-8be446e6115e"},"vehicle_type_id":"4","last_reported":1729573771,"current_range_meters":16000,"station_id":"ce4bgl12rcd13ifvqbo0","pricing_plan_id":"cebpf4jnsgd1na2vs0mg"},{"bike_id":"f4204522-656c-4631-a7bd-3a1a72a52bfd","system_id":"levelo_inurba_marseille","lat":43.27615,"lon":5.35886,"is_reserved":false,"is_disabled":false,"rental_uris":{"android":"levelo://app?vid=f4204522-656c-4631-a7bd-3a1a72a52bfd","ios":"levelo://app?vid=f4204522-656c-4631-a7bd-3a1a72a52bfd"},"vehicle_type_id":"4","last_reported":1729573771,"current_range_meters":38000,"station_id":"","pricing_plan_id":"cebpf4jnsgd1na2vs0mg"},{"bike_id":"d05f3f10-f865-4e45-b668-3f4b5917a664","system_id":"levelo_inurba_marseille","lat":43.3019,"lon":5.36619,"is_reserved":false,"is_disabled":false,"rental_uris":{"android":"levelo://app?vid=d05f3f10-f865-4e45-b668-3f4b5917a664","ios":"levelo://app?vid=d05f3f10-f865-4e45-b668-3f4b5917a664"},"vehicle_type_id":"4","last_reported":1729573771,"current_range_meters":24800,"station_id":"ce4bgrh2rcd13ifvqc8g","pricing_plan_id":"cebpf4jnsgd1na2vs0mg"},{"bike_id":"23fad85c-fb31-4014-9ca7-dc1a6dcf8342","system_id":"levelo_inurba_marseille","lat":43.30143,"lon":5.37417,"is_reserved":false,"is_disabled":false,"rental_uris":{"android":"levelo://app?vid=23fad85c-fb31-4014-9ca7-dc1a6dcf8342","ios":"levelo://app?vid=23fad85c-fb31-4014-9ca7-dc1a6dcf8342"},"vehicle_type_id":"4","last_reported":1729573771,"current_range_meters":38400,"station_id":"ce4bgs92rcd13ifvqcc0","pricing_plan_id":"cebpf4jnsgd1na2vs0mg"},{"bike_id":"187768a6-b7a7-4705-b7cd-5ddf89bff83c","system_id":"levelo_inurba_marseille","lat":43.30896,"lon":5.39645,"is_reserved":false,"is_disabled":false,"rental_uris":{"android":"levelo://app?vid=187768a6-b7a7-4705-b7cd-5ddf89bff83c","ios":"levelo://app?vid=187768a6-b7a7-4705-b7cd-5ddf89bff83c"},"vehicle_type_id":"4","last_reported":1729573771,"current_range_meters":39200,"station_id":"ce4bh012rcd13ifvqcv0","pricing_plan_id":"cebpf4jnsgd1na2vs0mg"},{"bike_id":"1af7e746-f18e-4515-800e-e2caa01909e6","system_id":"levelo_inurba_marseille","lat":43.2835,"lon":5.38106,"is_reserved":false,"is_disabled":false,"rental_uris":{"android":"levelo://app?vid=1af7e746-f18e-4515-800e-e2caa01909e6","ios":"levelo://app?vid=1af7e746-f18e-4515-800e-e2caa01909e6"},"vehicle_type_id":"4","last_reported":1729573771,"current_range_meters":38800,"station_id":"ce4bh412rcd13ifvqdr0","pricing_plan_id":"cebpf4jnsgd1na2vs0mg"},{"bike_id":"fe464ea0-362d-441e-87d4-e9eb2e91d570","system_id":"levelo_inurba_marseille","lat":43.281029,"lon":5.3784,"is_reserved":false,"is_disabled":false,"rental_uris":{"android":"levelo://app?vid=fe464ea0-362d-441e-87d4-e9eb2e91d570","ios":"levelo://app?vid=fe464ea0-362d-441e-87d4-e9eb2e91d570"},"vehicle_type_id":"4","last_reported":1729573771,"current_range_meters":25200,"station_id":"ce4bha12rcd13ifvqee0","pricing_plan_id":"cebpf4jnsgd1na2vs0mg"},{"bike_id":"1cc8c524-3a72-465f-8ebe-e4c35d504abb","system_id":"levelo_inurba_marseille","lat":43.24076,"lon":5.37761,"is_reserved":false,"is_disabled":false,"rental_uris":{"android":"levelo://app?vid=1cc8c524-3a72-465f-8ebe-e4c35d504abb","ios":"levelo://app?vid=1cc8c524-3a72-465f-8ebe-e4c35d504abb"},"vehicle_type_id":"4","last_reported":1729573771,"current_range_meters":17200,"station_id":"ce4bhnp2rcd13ifvqgvg","pricing_plan_id":"cebpf4jnsgd1na2vs0mg"},{"bike_id":"d6302fba-4a4b-48e2-955d-c7fff95e7dbf","system_id":"levelo_inurba_marseille","lat":43.31287,"lon":5.40163,"is_reserved":false,"is_disabled":false,"rental_uris":{"android":"levelo://app?vid=d6302fba-4a4b-48e2-955d-c7fff95e7dbf","ios":"levelo://app?vid=d6302fba-4a4b-48e2-955d-c7fff95e7dbf"},"vehicle_type_id":"4","last_reported":1729573771,"current_range_meters":4800,"station_id":"ce4bh092rcd13ifvqd30","pricing_plan_id":"cebpf4jnsgd1na2vs0mg"},{"bike_id":"6fce70d1-b067-498f-b3d8-fa836c974f46","system_id":"levelo_inurba_marseille","lat":43.25502,"lon":5.3765,"is_reserved":false,"is_disabled":false,"rental_uris":{"android":"levelo://app?vid=6fce70d1-b067-498f-b3d8-fa836c974f46","ios":"levelo://app?vid=6fce70d1-b067-498f-b3d8-fa836c974f46"},"vehicle_type_id":"4","last_reported":1729573771,"current_range_meters":38000,"station_id":"ce4bhh12rcd13ifvqff0","pricing_plan_id":"cebpf4jnsgd1na2vs0mg"},{"bike_id":"4f68ae36-a4e1-417a-b787-88827d17303a","system_id":"levelo_inurba_marseille","lat":43.3016,"lon":5.38086,"is_reserved":false,"is_disabled":false,"rental_uris":{"android":"levelo://app?vid=4f68ae36-a4e1-417a-b787-88827d17303a","ios":"levelo://app?vid=4f68ae36-a4e1-417a-b787-88827d17303a"},"vehicle_type_id":"4","last_reported":1729573771,"current_range_meters":31200,"station_id":"ce4bgjp2rcd13ifvqbh0","pricing_plan_id":"cebpf4jnsgd1na2vs0mg"},{"bike_id":"7bd888b4-759f-4fe8-a5c7-bc761211ae06","system_id":"levelo_inurba_marseille","lat":43.25116,"lon":5.40322,"is_reserved":false,"is_disabled":false,"rental_uris":{"android":"levelo://app?vid=7bd888b4-759f-4fe8-a5c7-bc761211ae06","ios":"levelo://app?vid=7bd888b4-759f-4fe8-a5c7-bc761211ae06"},"vehicle_type_id":"4","last_reported":1729573771,"current_range_meters":35200,"station_id":"ce4bhlh2rcd13ifvqgig","pricing_plan_id":"cebpf4jnsgd1na2vs0mg"},{"bike_id":"6ba1088e-f6d7-458a-a335-f0b3c3746983","system_id":"levelo_inurba_marseille","lat":43.24181,"lon":5.39733,"is_reserved":false,"is_disabled":false,"rental_uris":{"android":"levelo://app?vid=6ba1088e-f6d7-458a-a335-f0b3c3746983","ios":"levelo://app?vid=6ba1088e-f6d7-458a-a335-f0b3c3746983"},"vehicle_type_id":"4","last_reported":1729573771,"current_range_meters":38400,"station_id":"ce4bhn12rcd13ifvqgpg","pricing_plan_id":"cebpf4jnsgd1na2vs0mg"},{"bike_id":"183c3604-732b-4cda-9610-1e85e35280b2","system_id":"levelo_inurba_marseille","lat":43.25393,"lon":5.39432,"is_reserved":false,"is_disabled":false,"rental_uris":{"android":"levelo://app?vid=183c3604-732b-4cda-9610-1e85e35280b2","ios":"levelo://app?vid=183c3604-732b-4cda-9610-1e85e35280b2"},"vehicle_type_id":"4","last_reported":1729573771,"current_range_meters":32000,"station_id":"ce4bhip2rcd13ifvqft0","pricing_plan_id":"cebpf4jnsgd1na2vs0mg"},{"bike_id":"7c1a265d-e6b9-4abf-9ea7-bd6155b9c786","system_id":"levelo_inurba_marseille","lat":43.28103,"lon":5.37837,"is_reserved":false,"is_disabled":false,"rental_uris":{"android":"levelo://app?vid=7c1a265d-e6b9-4abf-9ea7-bd6155b9c786","ios":"levelo://app?vid=7c1a265d-e6b9-4abf-9ea7-bd6155b9c786"},"vehicle_type_id":"4","last_reported":1729573771,"current_range_meters":38000,"station_id":"ce4bha12rcd13ifvqee0","pricing_plan_id":"cebpf4jnsgd1na2vs0mg"},{"bike_id":"c6514999-11a6-4cc9-8fdc-53a83e26106a","system_id":"levelo_inurba_marseille","lat":43.25085,"lon":5.39511,"is_reserved":false,"is_disabled":false,"rental_uris":{"android":"levelo://app?vid=c6514999-11a6-4cc9-8fdc-53a83e26106a","ios":"levelo://app?vid=c6514999-11a6-4cc9-8fdc-53a83e26106a"},"vehicle_type_id":"4","last_reported":1729573771,"current_range_meters":38400,"station_id":"ce4bhm12rcd13ifvqgkg","pricing_plan_id":"cebpf4jnsgd1na2vs0mg"},{"bike_id":"24e922d8-f510-48d4-8c7f-6def24068e41","system_id":"levelo_inurba_marseille","lat":43.25492,"lon":5.37646,"is_reserved":false,"is_disabled":false,"rental_uris":{"android":"levelo://app?vid=24e922d8-f510-48d4-8c7f-6def24068e41","ios":"levelo://app?vid=24e922d8-f510-48d4-8c7f-6def24068e41"},"vehicle_type_id":"4","last_reported":1729573771,"current_range_meters":38800,"station_id":"ce4bhh12rcd13ifvqff0","pricing_plan_id":"cebpf4jnsgd1na2vs0mg"},{"bike_id":"fed181f1-bf63-44a2-8176-df50744f2b5a","system_id":"levelo_inurba_marseille","lat":43.33609,"lon":5.4103,"is_reserved":false,"is_disabled":false,"rental_uris":{"android":"levelo://app?vid=fed181f1-bf63-44a2-8176-df50744f2b5a","ios":"levelo://app?vid=fed181f1-bf63-44a2-8176-df50744f2b5a"},"vehicle_type_id":"4","last_reported":1729573771,"current_range_meters":20000,"station_id":"ce4bhqh2rcd13ifvqhmg","pricing_plan_id":"cebpf4jnsgd1na2vs0mg"},{"bike_id":"72f63983-e112-4b56-a265-24560ff50b47","system_id":"levelo_inurba_marseille","lat":43.31069,"lon":5.38355,"is_reserved":false,"is_disabled":false,"rental_uris":{"android":"levelo://app?vid=72f63983-e112-4b56-a265-24560ff50b47","ios":"levelo://app?vid=72f63983-e112-4b56-a265-24560ff50b47"},"vehicle_type_id":"4","last_reported":1729573771,"current_range_meters":28400,"station_id":"ce4bgv92rcd13ifvqcr0","pricing_plan_id":"cebpf4jnsgd1na2vs0mg"},{"bike_id":"8e1f1840-bf91-4e39-8f9d-54960a9d5deb","system_id":"levelo_inurba_marseille","lat":43.26196,"lon":5.37452,"is_reserved":false,"is_disabled":false,"rental_uris":{"android":"levelo://app?vid=8e1f1840-bf91-4e39-8f9d-54960a9d5deb","ios":"levelo://app?vid=8e1f1840-bf91-4e39-8f9d-54960a9d5deb"},"vehicle_type_id":"4","last_reported":1729573771,"current_range_meters":22400,"station_id":"ce4bhgp2rcd13ifvqfc0","pricing_plan_id":"cebpf4jnsgd1na2vs0mg"},{"bike_id":"97b6dd41-f6a5-4063-ab96-61be62bf84f9","system_id":"levelo_inurba_marseille","lat":43.30961,"lon":5.3905,"is_reserved":false,"is_disabled":false,"rental_uris":{"android":"levelo://app?vid=97b6dd41-f6a5-4063-ab96-61be62bf84f9","ios":"levelo://app?vid=97b6dd41-f6a5-4063-ab96-61be62bf84f9"},"vehicle_type_id":"4","last_reported":1729573771,"current_range_meters":40000,"station_id":"ce4bgup2rcd13ifvqco0","pricing_plan_id":"cebpf4jnsgd1na2vs0mg"},{"bike_id":"fc173ade-800e-46df-a64c-19fbb4304a28","system_id":"levelo_inurba_marseille","lat":43.28724,"lon":5.36081,"is_reserved":false,"is_disabled":false,"rental_uris":{"android":"levelo://app?vid=fc173ade-800e-46df-a64c-19fbb4304a28","ios":"levelo://app?vid=fc173ade-800e-46df-a64c-19fbb4304a28"},"vehicle_type_id":"4","last_reported":1729573771,"current_range_meters":15200,"station_id":"cki0cbj6b192h4jlfktg","pricing_plan_id":"cebpf4jnsgd1na2vs0mg"},{"bike_id":"c4bd4984-7993-47cd-a212-6b533f74abb4","system_id":"levelo_inurba_marseille","lat":43.31181,"lon":5.38704,"is_reserved":false,"is_disabled":false,"rental_uris":{"android":"levelo://app?vid=c4bd4984-7993-47cd-a212-6b533f74abb4","ios":"levelo://app?vid=c4bd4984-7993-47cd-a212-6b533f74abb4"},"vehicle_type_id":"4","last_reported":1729573771,"current_range_meters":22400,"station_id":"ce4bgv12rcd13ifvqcp0","pricing_plan_id":"cebpf4jnsgd1na2vs0mg"},{"bike_id":"6b9aeb13-d0b7-40d0-a95d-4ac695ad74f3","system_id":"levelo_inurba_marseille","lat":43.2923,"lon":5.3607,"is_reserved":false,"is_disabled":false,"rental_uris":{"android":"levelo://app?vid=6b9aeb13-d0b7-40d0-a95d-4ac695ad74f3","ios":"levelo://app?vid=6b9aeb13-d0b7-40d0-a95d-4ac695ad74f3"},"vehicle_type_id":"4","last_reported":1729573771,"current_range_meters":35600,"station_id":"ce4bhbh2rcd13ifvqeqg","pricing_plan_id":"cebpf4jnsgd1na2vs0mg"},{"bike_id":"2f6ccb91-b99c-471c-b9ae-ae42904658f2","system_id":"levelo_inurba_marseille","lat":43.28668,"lon":5.36353,"is_reserved":false,"is_disabled":false,"rental_uris":{"android":"levelo://app?vid=2f6ccb91-b99c-471c-b9ae-ae42904658f2","ios":"levelo://app?vid=2f6ccb91-b99c-471c-b9ae-ae42904658f2"},"vehicle_type_id":"4","last_reported":1729573771,"current_range_meters":27600,"station_id":"ce4bhah2rcd13ifvqej0","pricing_plan_id":"cebpf4jnsgd1na2vs0mg"},{"bike_id":"a883d5a1-82fb-4a6d-96ec-59664ae42f33","system_id":"levelo_inurba_marseille","lat":43.291034,"lon":5.381496,"is_reserved":false,"is_disabled":false,"rental_uris":{"android":"levelo://app?vid=a883d5a1-82fb-4a6d-96ec-59664ae42f33","ios":"levelo://app?vid=a883d5a1-82fb-4a6d-96ec-59664ae42f33"},"vehicle_type_id":"4","last_reported":1729573771,"current_range_meters":38800,"station_id":"ce4bh512rcd13ifvqe2g","pricing_plan_id":"cebpf4jnsgd1na2vs0mg"},{"bike_id":"00fb2410-25a2-42f4-8cb2-9a446cb85f79","system_id":"levelo_inurba_marseille","lat":43.27812,"lon":5.40717,"is_reserved":false,"is_disabled":false,"rental_uris":{"android":"levelo://app?vid=00fb2410-25a2-42f4-8cb2-9a446cb85f79","ios":"levelo://app?vid=00fb2410-25a2-42f4-8cb2-9a446cb85f79"},"vehicle_type_id":"4","last_reported":1729573771,"current_range_meters":32400,"station_id":"ce4bhnh2rcd13ifvqgtg","pricing_plan_id":"cebpf4jnsgd1na2vs0mg"},{"bike_id":"838134ea-11b7-4776-aad5-c9292871a849","system_id":"levelo_inurba_marseille","lat":43.31754,"lon":5.39014,"is_reserved":false,"is_disabled":false,"rental_uris":{"android":"levelo://app?vid=838134ea-11b7-4776-aad5-c9292871a849","ios":"levelo://app?vid=838134ea-11b7-4776-aad5-c9292871a849"},"vehicle_type_id":"4","last_reported":1729573771,"current_range_meters":37600,"station_id":"ce4bhqp2rcd13ifvqhng","pricing_plan_id":"cebpf4jnsgd1na2vs0mg"},{"bike_id":"3ea09a10-f162-4757-ba76-6a9d27859e6e","system_id":"levelo_inurba_marseille","lat":43.27673,"lon":5.38904,"is_reserved":false,"is_disabled":false,"rental_uris":{"android":"levelo://app?vid=3ea09a10-f162-4757-ba76-6a9d27859e6e","ios":"levelo://app?vid=3ea09a10-f162-4757-ba76-6a9d27859e6e"},"vehicle_type_id":"4","last_reported":1729573771,"current_range_meters":12000,"station_id":"ce4bhi12rcd13ifvqfo0","pricing_plan_id":"cebpf4jnsgd1na2vs0mg"},{"bike_id":"4a3aa950-2095-498f-87de-414e2c498191","system_id":"levelo_inurba_marseille","lat":43.28151,"lon":5.426421,"is_reserved":false,"is_disabled":false,"rental_uris":{"android":"levelo://app?vid=4a3aa950-2095-498f-87de-414e2c498191","ios":"levelo://app?vid=4a3aa950-2095-498f-87de-414e2c498191"},"vehicle_type_id":"4","last_reported":1729573771,"current_range_meters":39200,"station_id":"ce4bhnh2rcd13ifvqgug","pricing_plan_id":"cebpf4jnsgd1na2vs0mg"},{"bike_id":"f4d138cc-efea-45ee-b8e2-47b7659e2f71","system_id":"levelo_inurba_marseille","lat":43.301602,"lon":5.380702,"is_reserved":false,"is_disabled":false,"rental_uris":{"android":"levelo://app?vid=f4d138cc-efea-45ee-b8e2-47b7659e2f71","ios":"levelo://app?vid=f4d138cc-efea-45ee-b8e2-47b7659e2f71"},"vehicle_type_id":"4","last_reported":1729573771,"current_range_meters":26800,"station_id":"ce4bgjp2rcd13ifvqbh0","pricing_plan_id":"cebpf4jnsgd1na2vs0mg"},{"bike_id":"ca832f59-a618-411e-bcce-5749cfbe6484","system_id":"levelo_inurba_marseille","lat":43.27816,"lon":5.40717,"is_reserved":false,"is_disabled":false,"rental_uris":{"android":"levelo://app?vid=ca832f59-a618-411e-bcce-5749cfbe6484","ios":"levelo://app?vid=ca832f59-a618-411e-bcce-5749cfbe6484"},"vehicle_type_id":"4","last_reported":1729573771,"current_range_meters":39200,"station_id":"ce4bhnh2rcd13ifvqgtg","pricing_plan_id":"cebpf4jnsgd1na2vs0mg"},{"bike_id":"5f9c9073-abbb-4255-b6a6-ff730a1465c0","system_id":"levelo_inurba_marseille","lat":43.27614,"lon":5.36107,"is_reserved":false,"is_disabled":false,"rental_uris":{"android":"levelo://app?vid=5f9c9073-abbb-4255-b6a6-ff730a1465c0","ios":"levelo://app?vid=5f9c9073-abbb-4255-b6a6-ff730a1465c0"},"vehicle_type_id":"4","last_reported":1729573771,"current_range_meters":2000,"station_id":"ce4bgj92rcd13ifvqbe0","pricing_plan_id":"cebpf4jnsgd1na2vs0mg"},{"bike_id":"02e082cf-7264-467f-b9d2-39db71868ef5","system_id":"levelo_inurba_marseille","lat":43.27975,"lon":5.3874,"is_reserved":false,"is_disabled":false,"rental_uris":{"android":"levelo://app?vid=02e082cf-7264-467f-b9d2-39db71868ef5","ios":"levelo://app?vid=02e082cf-7264-467f-b9d2-39db71868ef5"},"vehicle_type_id":"4","last_reported":1729573771,"current_range_meters":10000,"station_id":"ce4bhg12rcd13ifvqf80","pricing_plan_id":"cebpf4jnsgd1na2vs0mg"},{"bike_id":"53e4ab62-8d2a-45b5-877a-d0e4b5445c87","system_id":"levelo_inurba_marseille","lat":43.29035,"lon":5.39957,"is_reserved":false,"is_disabled":false,"rental_uris":{"android":"levelo://app?vid=53e4ab62-8d2a-45b5-877a-d0e4b5445c87","ios":"levelo://app?vid=53e4ab62-8d2a-45b5-877a-d0e4b5445c87"},"vehicle_type_id":"4","last_reported":1729573771,"current_range_meters":39200,"station_id":"ce4bh392rcd13ifvqdm0","pricing_plan_id":"cebpf4jnsgd1na2vs0mg"},{"bike_id":"f3ea317e-004a-440f-9d50-4d1d8d28f4be","system_id":"levelo_inurba_marseille","lat":43.31484,"lon":5.37302,"is_reserved":false,"is_disabled":false,"rental_uris":{"android":"levelo://app?vid=f3ea317e-004a-440f-9d50-4d1d8d28f4be","ios":"levelo://app?vid=f3ea317e-004a-440f-9d50-4d1d8d28f4be"},"vehicle_type_id":"4","last_reported":1729573771,"current_range_meters":37600,"station_id":"ce4bgt12rcd13ifvqcd0","pricing_plan_id":"cebpf4jnsgd1na2vs0mg"},{"bike_id":"dc05d92d-106b-4f33-a138-b3eced1ad12e","system_id":"levelo_inurba_marseille","lat":43.31076,"lon":5.38346,"is_reserved":false,"is_disabled":false,"rental_uris":{"android":"levelo://app?vid=dc05d92d-106b-4f33-a138-b3eced1ad12e","ios":"levelo://app?vid=dc05d92d-106b-4f33-a138-b3eced1ad12e"},"vehicle_type_id":"4","last_reported":1729573771,"current_range_meters":30400,"station_id":"ce4bgv92rcd13ifvqcr0","pricing_plan_id":"cebpf4jnsgd1na2vs0mg"},{"bike_id":"849934f4-23f9-44e2-a115-a17824dd7215","system_id":"levelo_inurba_marseille","lat":43.31757,"lon":5.3902,"is_reserved":false,"is_disabled":false,"rental_uris":{"android":"levelo://app?vid=849934f4-23f9-44e2-a115-a17824dd7215","ios":"levelo://app?vid=849934f4-23f9-44e2-a115-a17824dd7215"},"vehicle_type_id":"4","last_reported":1729573771,"current_range_meters":14000,"station_id":"ce4bhqp2rcd13ifvqhng","pricing_plan_id":"cebpf4jnsgd1na2vs0mg"},{"bike_id":"3a9f3b8f-296d-48c3-bed7-9b1388c0fada","system_id":"levelo_inurba_marseille","lat":43.28945,"lon":5.39628,"is_reserved":false,"is_disabled":false,"rental_uris":{"android":"levelo://app?vid=3a9f3b8f-296d-48c3-bed7-9b1388c0fada","ios":"levelo://app?vid=3a9f3b8f-296d-48c3-bed7-9b1388c0fada"},"vehicle_type_id":"4","last_reported":1729573771,"current_range_meters":12800,"station_id":"ce4bh3h2rcd13ifvqdn0","pricing_plan_id":"cebpf4jnsgd1na2vs0mg"},{"bike_id":"0ce6a187-cd9b-4f08-b247-e6d5d0d87fc5","system_id":"levelo_inurba_marseille","lat":43.31172,"lon":5.38712,"is_reserved":false,"is_disabled":false,"rental_uris":{"android":"levelo://app?vid=0ce6a187-cd9b-4f08-b247-e6d5d0d87fc5","ios":"levelo://app?vid=0ce6a187-cd9b-4f08-b247-e6d5d0d87fc5"},"vehicle_type_id":"4","last_reported":1729573771,"current_range_meters":30400,"station_id":"ce4bgv12rcd13ifvqcp0","pricing_plan_id":"cebpf4jnsgd1na2vs0mg"},{"bike_id":"90c3a7c5-e4e7-4ce2-bfab-27e6176af8a4","system_id":"levelo_inurba_marseille","lat":43.285674,"lon":5.394934,"is_reserved":false,"is_disabled":false,"rental_uris":{"android":"levelo://app?vid=90c3a7c5-e4e7-4ce2-bfab-27e6176af8a4","ios":"levelo://app?vid=90c3a7c5-e4e7-4ce2-bfab-27e6176af8a4"},"vehicle_type_id":"4","last_reported":1729573771,"current_range_meters":38800,"station_id":"ce4bh292rcd13ifvqdg0","pricing_plan_id":"cebpf4jnsgd1na2vs0mg"},{"bike_id":"8273f07f-4a55-425c-8610-6e9ec4f94b46","system_id":"levelo_inurba_marseille","lat":43.33023,"lon":5.39043,"is_reserved":false,"is_disabled":false,"rental_uris":{"android":"levelo://app?vid=8273f07f-4a55-425c-8610-6e9ec4f94b46","ios":"levelo://app?vid=8273f07f-4a55-425c-8610-6e9ec4f94b46"},"vehicle_type_id":"4","last_reported":1729573771,"current_range_meters":39200,"station_id":"ce4bhr92rcd13ifvqhrg","pricing_plan_id":"cebpf4jnsgd1na2vs0mg"},{"bike_id":"815dd284-1bd2-4bb9-992a-b2116e2485bc","system_id":"levelo_inurba_marseille","lat":43.32779,"lon":5.36168,"is_reserved":false,"is_disabled":false,"rental_uris":{"android":"levelo://app?vid=815dd284-1bd2-4bb9-992a-b2116e2485bc","ios":"levelo://app?vid=815dd284-1bd2-4bb9-992a-b2116e2485bc"},"vehicle_type_id":"4","last_reported":1729573771,"current_range_meters":34800,"station_id":"","pricing_plan_id":"cebpf4jnsgd1na2vs0mg"},{"bike_id":"3788abb5-477f-4c60-a2ba-813f159876ac","system_id":"levelo_inurba_marseille","lat":43.27812,"lon":5.40712,"is_reserved":false,"is_disabled":false,"rental_uris":{"android":"levelo://app?vid=3788abb5-477f-4c60-a2ba-813f159876ac","ios":"levelo://app?vid=3788abb5-477f-4c60-a2ba-813f159876ac"},"vehicle_type_id":"4","last_reported":1729573771,"current_range_meters":39200,"station_id":"ce4bhnh2rcd13ifvqgtg","pricing_plan_id":"cebpf4jnsgd1na2vs0mg"},{"bike_id":"a6becff1-00d3-47fa-8898-3ba6d7221fbe","system_id":"levelo_inurba_marseille","lat":43.23196,"lon":5.3555,"is_reserved":false,"is_disabled":false,"rental_uris":{"android":"levelo://app?vid=a6becff1-00d3-47fa-8898-3ba6d7221fbe","ios":"levelo://app?vid=a6becff1-00d3-47fa-8898-3ba6d7221fbe"},"vehicle_type_id":"4","last_reported":1729573771,"current_range_meters":38000,"station_id":"ce4bhu92rcd13ifvqi70","pricing_plan_id":"cebpf4jnsgd1na2vs0mg"},{"bike_id":"26ed67c2-6d41-4c93-a441-367f4791d080","system_id":"levelo_inurba_marseille","lat":43.31114,"lon":5.37758,"is_reserved":false,"is_disabled":false,"rental_uris":{"android":"levelo://app?vid=26ed67c2-6d41-4c93-a441-367f4791d080","ios":"levelo://app?vid=26ed67c2-6d41-4c93-a441-367f4791d080"},"vehicle_type_id":"4","last_reported":1729573771,"current_range_meters":10000,"station_id":"ce4bgt92rcd13ifvqcg0","pricing_plan_id":"cebpf4jnsgd1na2vs0mg"},{"bike_id":"2b884fb0-97a2-4d3d-bedb-051530b2ea5d","system_id":"levelo_inurba_marseille","lat":43.28667,"lon":5.36356,"is_reserved":false,"is_disabled":false,"rental_uris":{"android":"levelo://app?vid=2b884fb0-97a2-4d3d-bedb-051530b2ea5d","ios":"levelo://app?vid=2b884fb0-97a2-4d3d-bedb-051530b2ea5d"},"vehicle_type_id":"4","last_reported":1729573771,"current_range_meters":39200,"station_id":"ce4bhah2rcd13ifvqej0","pricing_plan_id":"cebpf4jnsgd1na2vs0mg"},{"bike_id":"dee0d09e-7eb5-4f6e-83a5-90719294f0fc","system_id":"levelo_inurba_marseille","lat":43.27065,"lon":5.40258,"is_reserved":false,"is_disabled":false,"rental_uris":{"android":"levelo://app?vid=dee0d09e-7eb5-4f6e-83a5-90719294f0fc","ios":"levelo://app?vid=dee0d09e-7eb5-4f6e-83a5-90719294f0fc"},"vehicle_type_id":"4","last_reported":1729573771,"current_range_meters":38800,"station_id":"ce4bhk92rcd13ifvqgc0","pricing_plan_id":"cebpf4jnsgd1na2vs0mg"},{"bike_id":"2c1fae55-921d-4a72-86b0-19b559b438c8","system_id":"levelo_inurba_marseille","lat":43.31716,"lon":5.42403,"is_reserved":false,"is_disabled":false,"rental_uris":{"android":"levelo://app?vid=2c1fae55-921d-4a72-86b0-19b559b438c8","ios":"levelo://app?vid=2c1fae55-921d-4a72-86b0-19b559b438c8"},"vehicle_type_id":"4","last_reported":1729573771,"current_range_meters":39200,"station_id":"ce4bhp92rcd13ifvqhbg","pricing_plan_id":"cebpf4jnsgd1na2vs0mg"},{"bike_id":"19855be8-f032-4bb7-ab41-a45d89acb575","system_id":"levelo_inurba_marseille","lat":43.27066,"lon":5.42274,"is_reserved":false,"is_disabled":false,"rental_uris":{"android":"levelo://app?vid=19855be8-f032-4bb7-ab41-a45d89acb575","ios":"levelo://app?vid=19855be8-f032-4bb7-ab41-a45d89acb575"},"vehicle_type_id":"4","last_reported":1729573771,"current_range_meters":28400,"station_id":"ce4bhk92rcd13ifvqgb0","pricing_plan_id":"cebpf4jnsgd1na2vs0mg"},{"bike_id":"1f52981c-7bb8-4af1-af37-b4a098cafcb2","system_id":"levelo_inurba_marseille","lat":43.2815,"lon":5.42652,"is_reserved":false,"is_disabled":false,"rental_uris":{"android":"levelo://app?vid=1f52981c-7bb8-4af1-af37-b4a098cafcb2","ios":"levelo://app?vid=1f52981c-7bb8-4af1-af37-b4a098cafcb2"},"vehicle_type_id":"4","last_reported":1729573771,"current_range_meters":29600,"station_id":"ce4bhnh2rcd13ifvqgug","pricing_plan_id":"cebpf4jnsgd1na2vs0mg"},{"bike_id":"9bc3d3cf-ed53-488c-ab4e-603183e83e96","system_id":"levelo_inurba_marseille","lat":43.28464,"lon":5.35882,"is_reserved":false,"is_disabled":false,"rental_uris":{"android":"levelo://app?vid=9bc3d3cf-ed53-488c-ab4e-603183e83e96","ios":"levelo://app?vid=9bc3d3cf-ed53-488c-ab4e-603183e83e96"},"vehicle_type_id":"4","last_reported":1729573771,"current_range_meters":38800,"station_id":"ce4bhah2rcd13ifvqei0","pricing_plan_id":"cebpf4jnsgd1na2vs0mg"},{"bike_id":"2964a11f-51b8-4363-a1c8-8363abf6a1b2","system_id":"levelo_inurba_marseille","lat":43.33612,"lon":5.4102,"is_reserved":false,"is_disabled":false,"rental_uris":{"android":"levelo://app?vid=2964a11f-51b8-4363-a1c8-8363abf6a1b2","ios":"levelo://app?vid=2964a11f-51b8-4363-a1c8-8363abf6a1b2"},"vehicle_type_id":"4","last_reported":1729573771,"current_range_meters":26000,"station_id":"ce4bhqh2rcd13ifvqhmg","pricing_plan_id":"cebpf4jnsgd1na2vs0mg"},{"bike_id":"bf8d0617-6bef-47ca-8c84-936cfebcc97c","system_id":"levelo_inurba_marseille","lat":43.321094,"lon":5.367812,"is_reserved":false,"is_disabled":false,"rental_uris":{"android":"levelo://app?vid=bf8d0617-6bef-47ca-8c84-936cfebcc97c","ios":"levelo://app?vid=bf8d0617-6bef-47ca-8c84-936cfebcc97c"},"vehicle_type_id":"4","last_reported":1729573771,"current_range_meters":18000,"station_id":"ce4bhrh2rcd13ifvqhug","pricing_plan_id":"cebpf4jnsgd1na2vs0mg"},{"bike_id":"629f20cc-dfa1-43ee-b781-b6b2b0f7726e","system_id":"levelo_inurba_marseille","lat":43.25119,"lon":5.40321,"is_reserved":false,"is_disabled":false,"rental_uris":{"android":"levelo://app?vid=629f20cc-dfa1-43ee-b781-b6b2b0f7726e","ios":"levelo://app?vid=629f20cc-dfa1-43ee-b781-b6b2b0f7726e"},"vehicle_type_id":"4","last_reported":1729573771,"current_range_meters":14800,"station_id":"ce4bhlh2rcd13ifvqgig","pricing_plan_id":"cebpf4jnsgd1na2vs0mg"},{"bike_id":"f91cd0e2-7fe1-48d9-8e04-1ed2d04f7c33","system_id":"levelo_inurba_marseille","lat":43.30887,"lon":5.39644,"is_reserved":false,"is_disabled":false,"rental_uris":{"android":"levelo://app?vid=f91cd0e2-7fe1-48d9-8e04-1ed2d04f7c33","ios":"levelo://app?vid=f91cd0e2-7fe1-48d9-8e04-1ed2d04f7c33"},"vehicle_type_id":"4","last_reported":1729573771,"current_range_meters":24800,"station_id":"ce4bh012rcd13ifvqcv0","pricing_plan_id":"cebpf4jnsgd1na2vs0mg"},{"bike_id":"40928ea3-dcd7-49b1-80c8-e0997d5f011b","system_id":"levelo_inurba_marseille","lat":43.25717,"lon":5.41117,"is_reserved":false,"is_disabled":false,"rental_uris":{"android":"levelo://app?vid=40928ea3-dcd7-49b1-80c8-e0997d5f011b","ios":"levelo://app?vid=40928ea3-dcd7-49b1-80c8-e0997d5f011b"},"vehicle_type_id":"4","last_reported":1729573771,"current_range_meters":38800,"station_id":"ce4bhkp2rcd13ifvqgd0","pricing_plan_id":"cebpf4jnsgd1na2vs0mg"},{"bike_id":"7e3cb010-b5b3-478f-8b4d-4185ab46a9f4","system_id":"levelo_inurba_marseille","lat":43.29874,"lon":5.39724,"is_reserved":false,"is_disabled":false,"rental_uris":{"android":"levelo://app?vid=7e3cb010-b5b3-478f-8b4d-4185ab46a9f4","ios":"levelo://app?vid=7e3cb010-b5b3-478f-8b4d-4185ab46a9f4"},"vehicle_type_id":"4","last_reported":1729573771,"current_range_meters":30400,"station_id":"ce4bgr92rcd13ifvqc6g","pricing_plan_id":"cebpf4jnsgd1na2vs0mg"},{"bike_id":"4fa46629-26b5-47a9-98a9-bc741508e7fa","system_id":"levelo_inurba_marseille","lat":43.245518,"lon":5.395246,"is_reserved":false,"is_disabled":false,"rental_uris":{"android":"levelo://app?vid=4fa46629-26b5-47a9-98a9-bc741508e7fa","ios":"levelo://app?vid=4fa46629-26b5-47a9-98a9-bc741508e7fa"},"vehicle_type_id":"4","last_reported":1729573771,"current_range_meters":38400,"station_id":"ce4bhlp2rcd13ifvqgjg","pricing_plan_id":"cebpf4jnsgd1na2vs0mg"},{"bike_id":"44d195bb-cfb4-4f79-a98c-1e55ff1748d3","system_id":"levelo_inurba_marseille","lat":43.317116,"lon":5.437072,"is_reserved":false,"is_disabled":false,"rental_uris":{"android":"levelo://app?vid=44d195bb-cfb4-4f79-a98c-1e55ff1748d3","ios":"levelo://app?vid=44d195bb-cfb4-4f79-a98c-1e55ff1748d3"},"vehicle_type_id":"4","last_reported":1729573771,"current_range_meters":38800,"station_id":"ce4bhp92rcd13ifvqhcg","pricing_plan_id":"cebpf4jnsgd1na2vs0mg"},{"bike_id":"f85dec27-df63-4a18-926e-66f10af2c426","system_id":"levelo_inurba_marseille","lat":43.30204,"lon":5.36575,"is_reserved":false,"is_disabled":false,"rental_uris":{"android":"levelo://app?vid=f85dec27-df63-4a18-926e-66f10af2c426","ios":"levelo://app?vid=f85dec27-df63-4a18-926e-66f10af2c426"},"vehicle_type_id":"4","last_reported":1729573771,"current_range_meters":38800,"station_id":"ce4bgrh2rcd13ifvqc8g","pricing_plan_id":"cebpf4jnsgd1na2vs0mg"},{"bike_id":"6fdf348c-fb83-43a6-b95a-6306c34cb63d","system_id":"levelo_inurba_marseille","lat":43.23959,"lon":5.36648,"is_reserved":false,"is_disabled":false,"rental_uris":{"android":"levelo://app?vid=6fdf348c-fb83-43a6-b95a-6306c34cb63d","ios":"levelo://app?vid=6fdf348c-fb83-43a6-b95a-6306c34cb63d"},"vehicle_type_id":"4","last_reported":1729573771,"current_range_meters":36400,"station_id":"ce4bhi12rcd13ifvqfp0","pricing_plan_id":"cebpf4jnsgd1na2vs0mg"},{"bike_id":"53d7cb12-ac3a-45c2-9ef5-95640ee067a9","system_id":"levelo_inurba_marseille","lat":43.285694,"lon":5.394963,"is_reserved":false,"is_disabled":false,"rental_uris":{"android":"levelo://app?vid=53d7cb12-ac3a-45c2-9ef5-95640ee067a9","ios":"levelo://app?vid=53d7cb12-ac3a-45c2-9ef5-95640ee067a9"},"vehicle_type_id":"4","last_reported":1729573771,"current_range_meters":32000,"station_id":"ce4bh292rcd13ifvqdg0","pricing_plan_id":"cebpf4jnsgd1na2vs0mg"},{"bike_id":"ae3fcb04-be9a-4eda-86cc-c69683243e47","system_id":"levelo_inurba_marseille","lat":43.23961,"lon":5.3663,"is_reserved":false,"is_disabled":false,"rental_uris":{"android":"levelo://app?vid=ae3fcb04-be9a-4eda-86cc-c69683243e47","ios":"levelo://app?vid=ae3fcb04-be9a-4eda-86cc-c69683243e47"},"vehicle_type_id":"4","last_reported":1729573771,"current_range_meters":38800,"station_id":"ce4bhi12rcd13ifvqfp0","pricing_plan_id":"cebpf4jnsgd1na2vs0mg"},{"bike_id":"e01af3fb-a46a-472a-a9ce-4d0d6e75d0db","system_id":"levelo_inurba_marseille","lat":43.284554,"lon":5.358844,"is_reserved":false,"is_disabled":false,"rental_uris":{"android":"levelo://app?vid=e01af3fb-a46a-472a-a9ce-4d0d6e75d0db","ios":"levelo://app?vid=e01af3fb-a46a-472a-a9ce-4d0d6e75d0db"},"vehicle_type_id":"4","last_reported":1729573771,"current_range_meters":39200,"station_id":"ce4bhah2rcd13ifvqei0","pricing_plan_id":"cebpf4jnsgd1na2vs0mg"},{"bike_id":"79d1c28e-5008-47b1-b89b-2a5f5d8adf90","system_id":"levelo_inurba_marseille","lat":43.303084,"lon":5.368979,"is_reserved":false,"is_disabled":false,"rental_uris":{"android":"levelo://app?vid=79d1c28e-5008-47b1-b89b-2a5f5d8adf90","ios":"levelo://app?vid=79d1c28e-5008-47b1-b89b-2a5f5d8adf90"},"vehicle_type_id":"4","last_reported":1729573771,"current_range_meters":29600,"station_id":"ce4bgqh2rcd13ifvqc5g","pricing_plan_id":"cebpf4jnsgd1na2vs0mg"},{"bike_id":"646844c9-add7-45a5-8871-97d72f5946a5","system_id":"levelo_inurba_marseille","lat":43.30347,"lon":5.41878,"is_reserved":false,"is_disabled":false,"rental_uris":{"android":"levelo://app?vid=646844c9-add7-45a5-8871-97d72f5946a5","ios":"levelo://app?vid=646844c9-add7-45a5-8871-97d72f5946a5"},"vehicle_type_id":"4","last_reported":1729573771,"current_range_meters":38800,"station_id":"ce4bhop2rcd13ifvqh7g","pricing_plan_id":"cebpf4jnsgd1na2vs0mg"},{"bike_id":"a36f554b-75fb-48be-bd7c-89f26d247e08","system_id":"levelo_inurba_marseille","lat":43.289391,"lon":5.396246,"is_reserved":false,"is_disabled":false,"rental_uris":{"android":"levelo://app?vid=a36f554b-75fb-48be-bd7c-89f26d247e08","ios":"levelo://app?vid=a36f554b-75fb-48be-bd7c-89f26d247e08"},"vehicle_type_id":"4","last_reported":1729573771,"current_range_meters":38800,"station_id":"ce4bh3h2rcd13ifvqdn0","pricing_plan_id":"cebpf4jnsgd1na2vs0mg"},{"bike_id":"3286ebef-8744-475a-bc81-c7e2447d6f03","system_id":"levelo_inurba_marseille","lat":43.317113,"lon":5.437054,"is_reserved":false,"is_disabled":false,"rental_uris":{"android":"levelo://app?vid=3286ebef-8744-475a-bc81-c7e2447d6f03","ios":"levelo://app?vid=3286ebef-8744-475a-bc81-c7e2447d6f03"},"vehicle_type_id":"4","last_reported":1729573771,"current_range_meters":19200,"station_id":"ce4bhp92rcd13ifvqhcg","pricing_plan_id":"cebpf4jnsgd1na2vs0mg"},{"bike_id":"7186a4cc-670a-4f5d-956b-51d8aaf8646c","system_id":"levelo_inurba_marseille","lat":43.3373,"lon":5.39183,"is_reserved":false,"is_disabled":false,"rental_uris":{"android":"levelo://app?vid=7186a4cc-670a-4f5d-956b-51d8aaf8646c","ios":"levelo://app?vid=7186a4cc-670a-4f5d-956b-51d8aaf8646c"},"vehicle_type_id":"4","last_reported":1729573771,"current_range_meters":35200,"station_id":"ce4bhr92rcd13ifvqhsg","pricing_plan_id":"cebpf4jnsgd1na2vs0mg"},