{"last_updated":1758391900,"ttl":60,"version":"2.2","data":{"bikes":[{"bike_id":"514dce0a-fb66-4f51-bffc-937ddb020c5f","system_id":"levelo_inurba_marseille","lat":43.30452,"lon":5.38897,"is_reserved":false,"is_disabled":false,"rental_uris":{"android":"levelo://app?vid=514dce0a-fb66-4f51-bffc-937ddb020c5f","ios":"levelo://app?vid=514dce0a-fb66-4f51-bffc-937ddb020c5f"},"vehicle_type_id":"4","last_reported":1758391900,"current_range_meters":2800,"station_id":"ce4bgk12rcd13ifvqbi0","pricing_plan_id":"cebpf4jnsgd1na2vs0mg"},{"bike_id":"854f299d-d8b3-49bc-aa5b-4d18b34ad8b2","system_id":"levelo_inurba_marseille","lat":43.29574,"lon":5.37519,"is_reserved":false,"is_disabled":false,"rental_uris":{"android":"levelo://app?vid=854f299d-d8b3-49bc-aa5b-4d18b34ad8b2","ios":"levelo://app?vid=854f299d-d8b3-49bc-aa5b-4d18b34ad8b2"},"vehicle_type_id":"4","last_reported":1758391900,"current_range_meters":2800,"station_id":"ce4bgh92rcd13ifvqb50","pricing_plan_id":"cebpf4jnsgd1na2vs0mg"},{"bike_id":"131b0075-b288-4bd4-8fbf-15964ea472e9","system_id":"levelo_inurba_marseille","lat":43.29272,"lon":5.38433,"is_reserved":false,"is_disabled":false,"rental_uris":{"android":"levelo://app?vid=131b0075-b288-4bd4-8fbf-15964ea472e9","ios":"levelo://app?vid=131b0075-b288-4bd4-8fbf-15964ea472e9"},"vehicle_type_id":"4","last_reported":1758391900,"current_range_meters":2800,"station_id":"ce4bh692rcd13ifvqea0","pricing_plan_id":"cebpf4jnsgd1na2vs0mg"},{"bike_id":"74215ac2-c8a9-4e50-bd10-b494218f1065","system_id":"levelo_inurba_marseille","lat":43.30308,"lon":5.36882,"is_reserved":false,"is_disabled":false,"rental_uris":{"android":"levelo://app?vid=74215ac2-c8a9-4e50-bd10-b494218f1065","ios":"levelo://app?vid=74215ac2-c8a9-4e50-bd10-b494218f1065"},"vehicle_type_id":"4","last_reported":1758391900,"current_range_meters":3600,"station_id":"ce4bgqh2rcd13ifvqc5g","pricing_plan_id":"cebpf4jnsgd1na2vs0mg"},{"bike_id":"cd904e02-a611-4523-bc4a-c82e2082e425","system_id":"levelo_inurba_marseille","lat":43.29208,"lon":5.36059,"is_reserved":false,"is_disabled":false,"rental_uris":{"android":"levelo://app?vid=cd904e02-a611-4523-bc4a-c82e2082e425","ios":"levelo://app?vid=cd904e02-a611-4523-bc4a-c82e2082e425"},"vehicle_type_id":"4","last_reported":1758391900,"current_range_meters":2800,"station_id":"ce4bhbh2rcd13ifvqeqg","pricing_plan_id":"cebpf4jnsgd1na2vs0mg"},{"bike_id":"91db8205-f9c5-4e95-ab28-04826099af29","system_id":"levelo_inurba_marseille","lat":43.30798,"lon":5.38151,"is_reserved":false,"is_disabled":false,"rental_uris":{"android":"levelo://app?vid=91db8205-f9c5-4e95-ab28-04826099af29","ios":"levelo://app?vid=91db8205-f9c5-4e95-ab28-04826099af29"},"vehicle_type_id":"4","last_reported":1758391900,"current_range_meters":2800,"station_id":"ce4bgt12rcd13ifvqce0","pricing_plan_id":"cebpf4jnsgd1na2vs0mg"},{"bike_id":"c84ee564-4741-4e70-ad6b-71eb0d4b4531","system_id":"levelo_inurba_marseille","lat":43.25934,"lon":5.4091,"is_reserved":false,"is_disabled":false,"rental_uris":{"android":"levelo://app?vid=c84ee564-4741-4e70-ad6b-71eb0d4b4531","ios":"levelo://app?vid=c84ee564-4741-4e70-ad6b-71eb0d4b4531"},"vehicle_type_id":"4","last_reported":1758391900,"current_range_meters":2800,"station_id":"ce4bhm92rcd13ifvqglg","pricing_plan_id":"cebpf4jnsgd1na2vs0mg"},{"bike_id":"db4286d7-bfe6-4216-aade-ccdf61d587dc","system_id":"levelo_inurba_marseille","lat":43.30123,"lon":5.38791,"is_reserved":false,"is_disabled":true,"rental_uris":{"android":"levelo://app?vid=db4286d7-bfe6-4216-aade-ccdf61d587dc","ios":"levelo://app?vid=db4286d7-bfe6-4216-aade-ccdf61d587dc"},"vehicle_type_id":"4","last_reported":1758391900,"current_range_meters":3200,"station_id":"ce4bghh2rcd13ifvqb60","pricing_plan_id":"cebpf4jnsgd1na2vs0mg"},{"bike_id":"5e1549e6-879c-42e0-8ce8-b9675e30105c","system_id":"levelo_inurba_marseille","lat":43.21182,"lon":5.3508,"is_reserved":false,"is_disabled":false,"rental_uris":{"android":"levelo://app?vid=5e1549e6-879c-42e0-8ce8-b9675e30105c","ios":"levelo://app?vid=5e1549e6-879c-42e0-8ce8-b9675e30105c"},"vehicle_type_id":"4","last_reported":1758391900,"current_range_meters":3200,"station_id":"st_cvj6sg6p6f1abm77japg","pricing_plan_id":"cebpf4jnsgd1na2vs0mg"},{"bike_id":"0404f96a-99d9-40d1-8458-460cb8942226","system_id":"levelo_inurba_marseille","lat":43.239512,"lon":5.3666,"is_reserved":false,"is_disabled":false,"rental_uris":{"android":"levelo://app?vid=0404f96a-99d9-40d1-8458-460cb8942226","ios":"levelo://app?vid=0404f96a-99d9-40d1-8458-460cb8942226"},"vehicle_type_id":"4","last_reported":1758391900,"current_range_meters":3200,"station_id":"ce4bhi12rcd13ifvqfp0","pricing_plan_id":"cebpf4jnsgd1na2vs0mg"},{"bike_id":"a3eb1dcd-c5cf-4391-8c07-776c1895713a","system_id":"levelo_inurba_marseille","lat":43.2463,"lon":5.43138,"is_reserved":false,"is_disabled":false,"rental_uris":{"android":"levelo://app?vid=a3eb1dcd-c5cf-4391-8c07-776c1895713a","ios":"levelo://app?vid=a3eb1dcd-c5cf-4391-8c07-776c1895713a"},"vehicle_type_id":"4","last_reported":1758391900,"current_range_meters":3200,"station_id":"st_d2m6c4gdas8pm72e190g","pricing_plan_id":"cebpf4jnsgd1na2vs0mg"},{"bike_id":"9bea97fd-869a-4201-97d5-e9644bcdc6f4","system_id":"levelo_inurba_marseille","lat":43.23968,"lon":5.36622,"is_reserved":false,"is_disabled":false,"rental_uris":{"android":"levelo://app?vid=9bea97fd-869a-4201-97d5-e9644bcdc6f4","ios":"levelo://app?vid=9bea97fd-869a-4201-97d5-e9644bcdc6f4"},"vehicle_type_id":"4","last_reported":1758391900,"current_range_meters":3200,"station_id":"ce4bhi12rcd13ifvqfp0","pricing_plan_id":"cebpf4jnsgd1na2vs0mg"},{"bike_id":"7c954589-c7a4-4d91-9dc8-335b0d90eb2b","system_id":"levelo_inurba_marseille","lat":43.30585,"lon":5.3935,"is_reserved":false,"is_disabled":false,"rental_uris":{"android":"levelo://app?vid=7c954589-c7a4-4d91-9dc8-335b0d90eb2b","ios":"levelo://app?vid=7c954589-c7a4-4d91-9dc8-335b0d90eb2b"},"vehicle_type_id":"4","last_reported":1758391900,"current_range_meters":3200,"station_id":"ce4bh0p2rcd13ifvqd80","pricing_plan_id":"cebpf4jnsgd1na2vs0mg"},{"bike_id":"b22713a6-adcc-4ab9-b687-96b1f8575a53","system_id":"levelo_inurba_marseille","lat":43.31234,"lon":5.36849,"is_reserved":false,"is_disabled":false,"rental_uris":{"android":"levelo://app?vid=b22713a6-adcc-4ab9-b687-96b1f8575a53","ios":"levelo://app?vid=b22713a6-adcc-4ab9-b687-96b1f8575a53"},"vehicle_type_id":"4","last_reported":1758391900,"current_range_meters":3200,"station_id":"ce4bgl92rcd13ifvqbq0","pricing_plan_id":"cebpf4jnsgd1na2vs0mg"},{"bike_id":"989b7b56-c190-40a7-99b0-8b9c604c0592","system_id":"levelo_inurba_marseille","lat":43.29376,"lon":5.37827,"is_reserved":false,"is_disabled":false,"rental_uris":{"android":"levelo://app?vid=989b7b56-c190-40a7-99b0-8b9c604c0592","ios":"levelo://app?vid=989b7b56-c190-40a7-99b0-8b9c604c0592"},"vehicle_type_id":"4","last_reported":1758391900,"current_range_meters":3200,"station_id":"ce4bgjh2rcd13ifvqbf0","pricing_plan_id":"cebpf4jnsgd1na2vs0mg"},{"bike_id":"fce43978-0792-453f-b1b6-dbdc2e463c48","system_id":"levelo_inurba_marseille","lat":43.31697,"lon":5.43696,"is_reserved":false,"is_disabled":false,"rental_uris":{"android":"levelo://app?vid=fce43978-0792-453f-b1b6-dbdc2e463c48","ios":"levelo://app?vid=fce43978-0792-453f-b1b6-dbdc2e463c48"},"vehicle_type_id":"4","last_reported":1758391900,"current_range_meters":3200,"station_id":"ce4bhp92rcd13ifvqhcg","pricing_plan_id":"cebpf4jnsgd1na2vs0mg"},{"bike_id":"ba642d1a-a555-47b3-ab26-4b4ae3dc4806","system_id":"levelo_inurba_marseille","lat":43.2886,"lon":5.39293,"is_reserved":false,"is_disabled":false,"rental_uris":{"android":"levelo://app?vid=ba642d1a-a555-47b3-ab26-4b4ae3dc4806","ios":"levelo://app?vid=ba642d1a-a555-47b3-ab26-4b4ae3dc4806"},"vehicle_type_id":"4","last_reported":1758391900,"current_range_meters":3600,"station_id":"ce4bh2p2rcd13ifvqdi0","pricing_plan_id":"cebpf4jnsgd1na2vs0mg"},{"bike_id":"85c8e685-734d-4760-966b-86b771a65d9b","system_id":"levelo_inurba_marseille","lat":43.21186,"lon":5.35081,"is_reserved":false,"is_disabled":true,"rental_uris":{"android":"levelo://app?vid=85c8e685-734d-4760-966b-86b771a65d9b","ios":"levelo://app?vid=85c8e685-734d-4760-966b-86b771a65d9b"},"vehicle_type_id":"4","last_reported":1758391900,"current_range_meters":3600,"station_id":"st_cvj6sg6p6f1abm77japg","pricing_plan_id":"cebpf4jnsgd1na2vs0mg"},{"bike_id":"f89ef349-9fa3-48cd-a691-b8c24a0a6bd7","system_id":"levelo_inurba_marseille","lat":43.282721,"lon":5.350595,"is_reserved":false,"is_disabled":false,"rental_uris":{"android":"levelo://app?vid=f89ef349-9fa3-48cd-a691-b8c24a0a6bd7","ios":"levelo://app?vid=f89ef349-9fa3-48cd-a691-b8c24a0a6bd7"},"vehicle_type_id":"4","last_reported":1758391900,"current_range_meters":3600,"station_id":"","pricing_plan_id":"cebpf4jnsgd1na2vs0mg"},{"bike_id":"577d0e24-bf90-43b8-a759-bea08b7d7e19","system_id":"levelo_inurba_marseille","lat":43.21738,"lon":5.34607,"is_reserved":false,"is_disabled":true,"rental_uris":{"android":"levelo://app?vid=577d0e24-bf90-43b8-a759-bea08b7d7e19","ios":"levelo://app?vid=577d0e24-bf90-43b8-a759-bea08b7d7e19"},"vehicle_type_id":"4","last_reported":1758391900,"current_range_meters":3600,"station_id":"st_cvj6r9ubvosntc0bgbag","pricing_plan_id":"cebpf4jnsgd1na2vs0mg"},{"bike_id":"e3592146-9078-49b7-abca-546ac74c3e97","system_id":"levelo_inurba_marseille","lat":43.26048,"lon":5.394,"is_reserved":false,"is_disabled":false,"rental_uris":{"android":"levelo://app?vid=e3592146-9078-49b7-abca-546ac74c3e97","ios":"levelo://app?vid=e3592146-9078-49b7-abca-546ac74c3e97"},"vehicle_type_id":"4","last_reported":1758391900,"current_range_meters":3600,"station_id":"ce4bhh92rcd13ifvqfj0","pricing_plan_id":"cebpf4jnsgd1na2vs0mg"},{"bike_id":"bf4a70a9-11a1-40f0-9ac4-fe19c24770ca","system_id":"levelo_inurba_marseille","lat":43.30058,"lon":5.375871,"is_reserved":false,"is_disabled":false,"rental_uris":{"android":"levelo://app?vid=bf4a70a9-11a1-40f0-9ac4-fe19c24770ca","ios":"levelo://app?vid=bf4a70a9-11a1-40f0-9ac4-fe19c24770ca"},"vehicle_type_id":"4","last_reported":1758391900,"current_range_meters":3600,"station_id":"","pricing_plan_id":"cebpf4jnsgd1na2vs0mg"},{"bike_id":"42323a1a-489c-43cb-90ae-c675b27444d5","system_id":"levelo_inurba_marseille","lat":43.216476,"lon":5.343658,"is_reserved":false,"is_disabled":false,"rental_uris":{"android":"levelo://app?vid=42323a1a-489c-43cb-90ae-c675b27444d5","ios":"levelo://app?vid=42323a1a-489c-43cb-90ae-c675b27444d5"},"vehicle_type_id":"4","last_reported":1758391900,"current_range_meters":3600,"station_id":"","pricing_plan_id":"cebpf4jnsgd1na2vs0mg"},{"bike_id":"ba90adf0-1480-4efd-b301-dde79cde70f1","system_id":"levelo_inurba_marseille","lat":43.29002,"lon":5.38139,"is_reserved":false,"is_disabled":false,"rental_uris":{"android":"levelo://app?vid=ba90adf0-1480-4efd-b301-dde79cde70f1","ios":"levelo://app?vid=ba90adf0-1480-4efd-b301-dde79cde70f1"},"vehicle_type_id":"4","last_reported":1758391900,"current_range_meters":3600,"station_id":"ce4bh4p2rcd13ifvqe1g","pricing_plan_id":"cebpf4jnsgd1na2vs0mg"},{"bike_id":"c555b165-d1aa-44eb-940a-02a9fc561c3c","system_id":"levelo_inurba_marseille","lat":43.29553,"lon":5.42294,"is_reserved":false,"is_disabled":false,"rental_uris":{"android":"levelo://app?vid=c555b165-d1aa-44eb-940a-02a9fc561c3c","ios":"levelo://app?vid=c555b165-d1aa-44eb-940a-02a9fc561c3c"},"vehicle_type_id":"4","last_reported":1758391900,"current_range_meters":3600,"station_id":"ce4bhph2rcd13ifvqhdg","pricing_plan_id":"cebpf4jnsgd1na2vs0mg"},{"bike_id":"3da81f75-e84e-4411-9998-acf0cf532786","system_id":"levelo_inurba_marseille","lat":43.3078,"lon":5.3764,"is_reserved":false,"is_disabled":false,"rental_uris":{"android":"levelo://app?vid=3da81f75-e84e-4411-9998-acf0cf532786","ios":"levelo://app?vid=3da81f75-e84e-4411-9998-acf0cf532786"},"vehicle_type_id":"4","last_reported":1758391900,"current_range_meters":3600,"station_id":"ce4bgv92rcd13ifvqcq0","pricing_plan_id":"cebpf4jnsgd1na2vs0mg"},{"bike_id":"e942f984-8fe7-48d1-8f04-3806656b9996","system_id":"levelo_inurba_marseille","lat":43.3361,"lon":5.37928,"is_reserved":false,"is_disabled":false,"rental_uris":{"android":"levelo://app?vid=e942f984-8fe7-48d1-8f04-3806656b9996","ios":"levelo://app?vid=e942f984-8fe7-48d1-8f04-3806656b9996"},"vehicle_type_id":"4","last_reported":1758391900,"current_range_meters":4000,"station_id":"","pricing_plan_id":"cebpf4jnsgd1na2vs0mg"},{"bike_id":"975f69a6-5fcc-4bc9-85d3-bc23b4191b7b","system_id":"levelo_inurba_marseille","lat":43.30177,"lon":5.38102,"is_reserved":false,"is_disabled":false,"rental_uris":{"android":"levelo://app?vid=975f69a6-5fcc-4bc9-85d3-bc23b4191b7b","ios":"levelo://app?vid=975f69a6-5fcc-4bc9-85d3-bc23b4191b7b"},"vehicle_type_id":"4","last_reported":1758391900,"current_range_meters":4000,"station_id":"ce4bgjp2rcd13ifvqbh0","pricing_plan_id":"cebpf4jnsgd1na2vs0mg"},{"bike_id":"9f0f401b-ff98-4040-b24f-13fefb233bef","system_id":"levelo_inurba_marseille","lat":43.21191,"lon":5.35077,"is_reserved":false,"is_disabled":false,"rental_uris":{"android":"levelo://app?vid=9f0f401b-ff98-4040-b24f-13fefb233bef","ios":"levelo://app?vid=9f0f401b-ff98-4040-b24f-13fefb233bef"},"vehicle_type_id":"4","last_reported":1758391900,"current_range_meters":4000,"station_id":"st_cvj6sg6p6f1abm77japg","pricing_plan_id":"cebpf4jnsgd1na2vs0mg"},{"bike_id":"f77d38d5-789a-46e6-840c-10d94aa816a3","system_id":"levelo_inurba_marseille","lat":43.286615,"lon":5.363532,"is_reserved":false,"is_disabled":false,"rental_uris":{"android":"levelo://app?vid=f77d38d5-789a-46e6-840c-10d94aa816a3","ios":"levelo://app?vid=f77d38d5-789a-46e6-840c-10d94aa816a3"},"vehicle_type_id":"4","last_reported":1758391900,"current_range_meters":4000,"station_id":"ce4bhah2rcd13ifvqej0","pricing_plan_id":"cebpf4jnsgd1na2vs0mg"},{"bike_id":"34b18fc9-36ea-4b1a-9304-dd59248fa392","system_id":"levelo_inurba_marseille","lat":43.28714,"lon":5.3796,"is_reserved":false,"is_disabled":false,"rental_uris":{"android":"levelo://app?vid=34b18fc9-36ea-4b1a-9304-dd59248fa392","ios":"levelo://app?vid=34b18fc9-36ea-4b1a-9304-dd59248fa392"},"vehicle_type_id":"4","last_reported":1758391900,"current_range_meters":4400,"station_id":"ce4bh9p2rcd13ifvqec0","pricing_plan_id":"cebpf4jnsgd1na2vs0mg"},{"bike_id":"2854a191-1e9f-41d8-aae5-b319e575ae56","system_id":"levelo_inurba_marseille","lat":43.25112,"lon":5.40319,"is_reserved":false,"is_disabled":false,"rental_uris":{"android":"levelo://app?vid=2854a191-1e9f-41d8-aae5-b319e575ae56","ios":"levelo://app?vid=2854a191-1e9f-41d8-aae5-b319e575ae56"},"vehicle_type_id":"4","last_reported":1758391900,"current_range_meters":4400,"station_id":"ce4bhlh2rcd13ifvqgig","pricing_plan_id":"cebpf4jnsgd1na2vs0mg"},{"bike_id":"21f7e513-d427-470e-a82f-15d039c8c4da","system_id":"levelo_inurba_marseille","lat":43.28894,"lon":5.35845,"is_reserved":false,"is_disabled":false,"rental_uris":{"android":"levelo://app?vid=21f7e513-d427-470e-a82f-15d039c8c4da","ios":"levelo://app?vid=21f7e513-d427-470e-a82f-15d039c8c4da"},"vehicle_type_id":"4","last_reported":1758391900,"current_range_meters":4400,"station_id":"ce4bhb12rcd13ifvqem0","pricing_plan_id":"cebpf4jnsgd1na2vs0mg"},{"bike_id":"13631fe9-17b3-4b2d-9a48-037250c1ce2a","system_id":"levelo_inurba_marseille","lat":43.31149,"lon":5.39475,"is_reserved":false,"is_disabled":false,"rental_uris":{"android":"levelo://app?vid=13631fe9-17b3-4b2d-9a48-037250c1ce2a","ios":"levelo://app?vid=13631fe9-17b3-4b2d-9a48-037250c1ce2a"},"vehicle_type_id":"4","last_reported":1758391900,"current_range_meters":4400,"station_id":"","pricing_plan_id":"cebpf4jnsgd1na2vs0mg"},{"bike_id":"8316ff06-45ef-479f-b161-caf0921a357e","system_id":"levelo_inurba_marseille","lat":43.24059,"lon":5.37756,"is_reserved":false,"is_disabled":false,"rental_uris":{"android":"levelo://app?vid=8316ff06-45ef-479f-b161-caf0921a357e","ios":"levelo://app?vid=8316ff06-45ef-479f-b161-caf0921a357e"},"vehicle_type_id":"4","last_reported":1758391900,"current_range_meters":4400,"station_id":"ce4bhnp2rcd13ifvqgvg","pricing_plan_id":"cebpf4jnsgd1na2vs0mg"},{"bike_id":"d88b4b01-18be-42aa-ab08-335cafbfb429","system_id":"levelo_inurba_marseille","lat":43.28361,"lon":5.38647,"is_reserved":false,"is_disabled":false,"rental_uris":{"android":"levelo://app?vid=d88b4b01-18be-42aa-ab08-335cafbfb429","ios":"levelo://app?vid=d88b4b01-18be-42aa-ab08-335cafbfb429"},"vehicle_type_id":"4","last_reported":1758391900,"current_range_meters":4400,"station_id":"ce4bh492rcd13ifvqdvg","pricing_plan_id":"cebpf4jnsgd1na2vs0mg"},{"bike_id":"06bb7920-2b0b-482f-88f0-3829254f2253","system_id":"levelo_inurba_marseille","lat":43.30535,"lon":5.36558,"is_reserved":false,"is_disabled":false,"rental_uris":{"android":"levelo://app?vid=06bb7920-2b0b-482f-88f0-3829254f2253","ios":"levelo://app?vid=06bb7920-2b0b-482f-88f0-3829254f2253"},"vehicle_type_id":"4","last_reported":1758391900,"current_range_meters":4000,"station_id":"ce4bgs12rcd13ifvqcag","pricing_plan_id":"cebpf4jnsgd1na2vs0mg"},{"bike_id":"602d3b16-3694-4608-b72b-abdd93dc004c","system_id":"levelo_inurba_marseille","lat":43.28609,"lon":5.37068,"is_reserved":false,"is_disabled":false,"rental_uris":{"android":"levelo://app?vid=602d3b16-3694-4608-b72b-abdd93dc004c","ios":"levelo://app?vid=602d3b16-3694-4608-b72b-abdd93dc004c"},"vehicle_type_id":"4","last_reported":1758391900,"current_range_meters":4400,"station_id":"ce4bht12rcd13ifvqi60","pricing_plan_id":"cebpf4jnsgd1na2vs0mg"},{"bike_id":"618d815b-a5a1-4a7e-89ec-653134ae0a4f","system_id":"levelo_inurba_marseille","lat":43.21191,"lon":5.35076,"is_reserved":false,"is_disabled":false,"rental_uris":{"android":"levelo://app?vid=618d815b-a5a1-4a7e-89ec-653134ae0a4f","ios":"levelo://app?vid=618d815b-a5a1-4a7e-89ec-653134ae0a4f"},"vehicle_type_id":"4","last_reported":1758391900,"current_range_meters":4800,"station_id":"st_cvj6sg6p6f1abm77japg","pricing_plan_id":"cebpf4jnsgd1na2vs0mg"},{"bike_id":"dd54508b-cebc-429e-947d-94cace74c022","system_id":"levelo_inurba_marseille","lat":43.23956,"lon":5.36634,"is_reserved":false,"is_disabled":true,"rental_uris":{"android":"levelo://app?vid=dd54508b-cebc-429e-947d-94cace74c022","ios":"levelo://app?vid=dd54508b-cebc-429e-947d-94cace74c022"},"vehicle_type_id":"4","last_reported":1758391900,"current_range_meters":4800,"station_id":"ce4bhi12rcd13ifvqfp0","pricing_plan_id":"cebpf4jnsgd1na2vs0mg"},{"bike_id":"b9e66663-1555-4efb-b801-0649b1000e1b","system_id":"levelo_inurba_marseille","lat":43.32363,"lon":5.36747,"is_reserved":false,"is_disabled":false,"rental_uris":{"android":"levelo://app?vid=b9e66663-1555-4efb-b801-0649b1000e1b","ios":"levelo://app?vid=b9e66663-1555-4efb-b801-0649b1000e1b"},"vehicle_type_id":"4","last_reported":1758391900,"current_range_meters":4800,"station_id":"ce4bhsh2rcd13ifvqi2g","pricing_plan_id":"cebpf4jnsgd1na2vs0mg"},{"bike_id":"95598c39-66ee-42f1-83a8-e5fdfbfd8944","system_id":"levelo_inurba_marseille","lat":43.30123,"lon":5.39848,"is_reserved":false,"is_disabled":false,"rental_uris":{"android":"levelo://app?vid=95598c39-66ee-42f1-83a8-e5fdfbfd8944","ios":"levelo://app?vid=95598c39-66ee-42f1-83a8-e5fdfbfd8944"},"vehicle_type_id":"4","last_reported":1758391900,"current_range_meters":4800,"station_id":"ce4bh0h2rcd13ifvqd40","pricing_plan_id":"cebpf4jnsgd1na2vs0mg"},{"bike_id":"2f0c84be-e020-4960-9408-7685a02d0829","system_id":"levelo_inurba_marseille","lat":43.2174,"lon":5.34602,"is_reserved":false,"is_disabled":true,"rental_uris":{"android":"levelo://app?vid=2f0c84be-e020-4960-9408-7685a02d0829","ios":"levelo://app?vid=2f0c84be-e020-4960-9408-7685a02d0829"},"vehicle_type_id":"4","last_reported":1758391900,"current_range_meters":4800,"station_id":"st_cvj6r9ubvosntc0bgbag","pricing_plan_id":"cebpf4jnsgd1na2vs0mg"},{"bike_id":"cb83822e-93dc-43d1-9279-f27ec023780c","system_id":"levelo_inurba_marseille","lat":43.29283,"lon":5.36848,"is_reserved":false,"is_disabled":false,"rental_uris":{"android":"levelo://app?vid=cb83822e-93dc-43d1-9279-f27ec023780c","ios":"levelo://app?vid=cb83822e-93dc-43d1-9279-f27ec023780c"},"vehicle_type_id":"4","last_reported":1758391900,"current_range_meters":4800,"station_id":"ce4bhbp2rcd13ifvqesg","pricing_plan_id":"cebpf4jnsgd1na2vs0mg"},{"bike_id":"017b7c7f-4a48-41ce-8a36-82791d85cace","system_id":"levelo_inurba_marseille","lat":43.23968,"lon":5.3663,"is_reserved":false,"is_disabled":false,"rental_uris":{"android":"levelo://app?vid=017b7c7f-4a48-41ce-8a36-82791d85cace","ios":"levelo://app?vid=017b7c7f-4a48-41ce-8a36-82791d85cace"},"vehicle_type_id":"4","last_reported":1758391900,"current_range_meters":4800,"station_id":"ce4bhi12rcd13ifvqfp0","pricing_plan_id":"cebpf4jnsgd1na2vs0mg"},{"bike_id":"1774fc1f-bd94-4504-a73c-b6d3014b8a9d","system_id":"levelo_inurba_marseille","lat":43.28479,"lon":5.35882,"is_reserved":false,"is_disabled":false,"rental_uris":{"android":"levelo://app?vid=1774fc1f-bd94-4504-a73c-b6d3014b8a9d","ios":"levelo://app?vid=1774fc1f-bd94-4504-a73c-b6d3014b8a9d"},"vehicle_type_id":"4","last_reported":1758391900,"current_range_meters":5600,"station_id":"ce4bhah2rcd13ifvqei0","pricing_plan_id":"cebpf4jnsgd1na2vs0mg"},{"bike_id":"aaee9183-2d93-4a5f-86b0-8c8bf3a74a5c","system_id":"levelo_inurba_marseille","lat":43.3271,"lon":5.39213,"is_reserved":false,"is_disabled":false,"rental_uris":{"android":"levelo://app?vid=aaee9183-2d93-4a5f-86b0-8c8bf3a74a5c","ios":"levelo://app?vid=aaee9183-2d93-4a5f-86b0-8c8bf3a74a5c"},"vehicle_type_id":"4","last_reported":1758391900,"current_range_meters":5600,"station_id":"","pricing_plan_id":"cebpf4jnsgd1na2vs0mg"},{"bike_id":"cad97885-b582-49b2-8b83-0a6c3d079fc6","system_id":"levelo_inurba_marseille","lat":43.297018,"lon":5.365873,"is_reserved":false,"is_disabled":false,"rental_uris":{"android":"levelo://app?vid=cad97885-b582-49b2-8b83-0a6c3d079fc6","ios":"levelo://app?vid=cad97885-b582-49b2-8b83-0a6c3d079fc6"},"vehicle_type_id":"4","last_reported":1758391900,"current_range_meters":5600,"station_id":"ce4bgn12rcd13ifvqbt0","pricing_plan_id":"cebpf4jnsgd1na2vs0mg"},{"bike_id":"e4c60634-b6a1-4278-ae0c-4968ce2dd526","system_id":"levelo_inurba_marseille","lat":43.29621,"lon":5.37733,"is_reserved":false,"is_disabled":false,"rental_uris":{"android":"levelo://app?vid=e4c60634-b6a1-4278-ae0c-4968ce2dd526","ios":"levelo://app?vid=e4c60634-b6a1-4278-ae0c-4968ce2dd526"},"vehicle_type_id":"4","last_reported":1758391900,"current_range_meters":5600,"station_id":"ce4bgn12rcd13ifvqbt0","pricing_plan_id":"cebpf4jnsgd1na2vs0mg"},{"bike_id":"82abfd42-7f5a-4f2f-9166-956f52c47840","system_id":"levelo_inurba_marseille","lat":43.258149,"lon":5.39445,"is_reserved":false,"is_disabled":false,"rental_uris":{"android":"levelo://app?vid=82abfd42-7f5a-4f2f-9166-956f52c47840","ios":"levelo://app?vid=82abfd42-7f5a-4f2f-9166-956f52c47840"},"vehicle_type_id":"4","last_reported":1758391900,"current_range_meters":5600,"station_id":"ce4bhip2rcd13ifvqft0","pricing_plan_id":"cebpf4jnsgd1na2vs0mg"},{"bike_id":"6dc49f8f-31b8-485c-b489-e3fd253e6676","system_id":"levelo_inurba_marseille","lat":43.32658,"lon":5.409867,"is_reserved":false,"is_disabled":true,"rental_uris":{"android":"levelo://app?vid=6dc49f8f-31b8-485c-b489-e3fd253e6676","ios":"levelo://app?vid=6dc49f8f-31b8-485c-b489-e3fd253e6676"},"vehicle_type_id":"4","last_reported":1758391900,"current_range_meters":5600,"station_id":"ce4bhpp2rcd13ifvqhgg","pricing_plan_id":"cebpf4jnsgd1na2vs0mg"},{"bike_id":"70a791d4-6df3-4c9d-beb8-d1a264b0eb01","system_id":"levelo_inurba_marseille","lat":43.29576,"lon":5.36736,"is_reserved":false,"is_disabled":false,"rental_uris":{"android":"levelo://app?vid=70a791d4-6df3-4c9d-beb8-d1a264b0eb01","ios":"levelo://app?vid=70a791d4-6df3-4c9d-beb8-d1a264b0eb01"},"vehicle_type_id":"4","last_reported":1758391900,"current_range_meters":5600,"station_id":"ce4bgph2rcd13ifvqc2g","pricing_plan_id":"cebpf4jnsgd1na2vs0mg"},{"bike_id":"4a42c3a7-350b-4a49-9c56-c4b3d7531c94","system_id":"levelo_inurba_marseille","lat":43.305533,"lon":5.366949,"is_reserved":false,"is_disabled":false,"rental_uris":{"android":"levelo://app?vid=4a42c3a7-350b-4a49-9c56-c4b3d7531c94","ios":"levelo://app?vid=4a42c3a7-350b-4a49-9c56-c4b3d7531c94"},"vehicle_type_id":"4","last_reported":1758391900,"current_range_meters":5600,"station_id":"ce4bgrp2rcd13ifvqc9g","pricing_plan_id":"cebpf4jnsgd1na2vs0mg"},{"bike_id":"3fc4e8b9-5a26-42a0-b587-1099f8d06f5a","system_id":"levelo_inurba_marseille","lat":43.28925,"lon":5.38398,"is_reserved":false,"is_disabled":false,"rental_uris":{"android":"levelo://app?vid=3fc4e8b9-5a26-42a0-b587-1099f8d06f5a","ios":"levelo://app?vid=3fc4e8b9-5a26-42a0-b587-1099f8d06f5a"},"vehicle_type_id":"4","last_reported":1758391900,"current_range_meters":6000,"station_id":"ce4bh612rcd13ifvqe6g","pricing_plan_id":"cebpf4jnsgd1na2vs0mg"},{"bike_id":"04ac4072-76af-404d-8a72-a8ffe8ae8fcc","system_id":"levelo_inurba_marseille","lat":43.32547,"lon":5.39028,"is_reserved":false,"is_disabled":false,"rental_uris":{"android":"levelo://app?vid=04ac4072-76af-404d-8a72-a8ffe8ae8fcc","ios":"levelo://app?vid=04ac4072-76af-404d-8a72-a8ffe8ae8fcc"},"vehicle_type_id":"4","last_reported":1758391900,"current_range_meters":6000,"station_id":"","pricing_plan_id":"cebpf4jnsgd1na2vs0mg"},{"bike_id":"bf9deabc-977b-4273-8e7f-653b2346cb01","system_id":"levelo_inurba_marseille","lat":43.25087,"lon":5.39518,"is_reserved":false,"is_disabled":false,"rental_uris":{"android":"levelo://app?vid=bf9deabc-977b-4273-8e7f-653b2346cb01","ios":"levelo://app?vid=bf9deabc-977b-4273-8e7f-653b2346cb01"},"vehicle_type_id":"4","last_reported":1758391900,"current_range_meters":6000,"station_id":"ce4bhm12rcd13ifvqgkg","pricing_plan_id":"cebpf4jnsgd1na2vs0mg"},{"bike_id":"d4bc9141-33c7-48aa-8db7-e0101557d358","system_id":"levelo_inurba_marseille","lat":43.30591,"lon":5.39351,"is_reserved":false,"is_disabled":false,"rental_uris":{"android":"levelo://app?vid=d4bc9141-33c7-48aa-8db7-e0101557d358","ios":"levelo://app?vid=d4bc9141-33c7-48aa-8db7-e0101557d358"},"vehicle_type_id":"4","last_reported":1758391900,"current_range_meters":6400,"station_id":"ce4bh0p2rcd13ifvqd80","pricing_plan_id":"cebpf4jnsgd1na2vs0mg"},{"bike_id":"2742bf77-6029-49f5-b447-71b4ce5a5534","system_id":"levelo_inurba_marseille","lat":43.297929,"lon":5.38102,"is_reserved":false,"is_disabled":false,"rental_uris":{"android":"levelo://app?vid=2742bf77-6029-49f5-b447-71b4ce5a5534","ios":"levelo://app?vid=2742bf77-6029-49f5-b447-71b4ce5a5534"},"vehicle_type_id":"4","last_reported":1758391900,"current_range_meters":6400,"station_id":"","pricing_plan_id":"cebpf4jnsgd1na2vs0mg"},{"bike_id":"3698fdb1-00cd-4875-a0e4-8cc59e88ec8c","system_id":"levelo_inurba_marseille","lat":43.29293,"lon":5.37201,"is_reserved":false,"is_disabled":false,"rental_uris":{"android":"levelo://app?vid=3698fdb1-00cd-4875-a0e4-8cc59e88ec8c","ios":"levelo://app?vid=3698fdb1-00cd-4875-a0e4-8cc59e88ec8c"},"vehicle_type_id":"4","last_reported":1758391900,"current_range_meters":6400,"station_id":"ce4bgh92rcd13ifvqb40","pricing_plan_id":"cebpf4jnsgd1na2vs0mg"},{"bike_id":"bb8256ae-4f0f-4f62-b7b4-2bb0d597ecea","system_id":"levelo_inurba_marseille","lat":43.30431,"lon":5.3889,"is_reserved":false,"is_disabled":false,"rental_uris":{"android":"levelo://app?vid=bb8256ae-4f0f-4f62-b7b4-2bb0d597ecea","ios":"levelo://app?vid=bb8256ae-4f0f-4f62-b7b4-2bb0d597ecea"},"vehicle_type_id":"4","last_reported":1758391900,"current_range_meters":6400,"station_id":"ce4bgk12rcd13ifvqbi0","pricing_plan_id":"cebpf4jnsgd1na2vs0mg"},{"bike_id":"5679b860-b386-4881-b98f-836fada39c9c","system_id":"levelo_inurba_marseille","lat":43.31756,"lon":5.39021,"is_reserved":false,"is_disabled":false,"rental_uris":{"android":"levelo://app?vid=5679b860-b386-4881-b98f-836fada39c9c","ios":"levelo://app?vid=5679b860-b386-4881-b98f-836fada39c9c"},"vehicle_type_id":"4","last_reported":1758391900,"current_range_meters":6400,"station_id":"ce4bhqp2rcd13ifvqhng","pricing_plan_id":"cebpf4jnsgd1na2vs0mg"},{"bike_id":"4db2c599-c98a-4dd2-8105-928c31c12ad5","system_id":"levelo_inurba_marseille","lat":43.28427,"lon":5.39205,"is_reserved":false,"is_disabled":false,"rental_uris":{"android":"levelo://app?vid=4db2c599-c98a-4dd2-8105-928c31c12ad5","ios":"levelo://app?vid=4db2c599-c98a-4dd2-8105-928c31c12ad5"},"vehicle_type_id":"4","last_reported":1758391900,"current_range_meters":6400,"station_id":"ce4bhoh2rcd13ifvqh5g","pricing_plan_id":"cebpf4jnsgd1na2vs0mg"},{"bike_id":"8cfcb3ac-779a-473e-9cfb-6ba2582c327c","system_id":"levelo_inurba_marseille","lat":43.292649,"lon":5.384409,"is_reserved":false,"is_disabled":false,"rental_uris":{"android":"levelo://app?vid=8cfcb3ac-779a-473e-9cfb-6ba2582c327c","ios":"levelo://app?vid=8cfcb3ac-779a-473e-9cfb-6ba2582c327c"},"vehicle_type_id":"4","last_reported":1758391900,"current_range_meters":6400,"station_id":"ce4bh692rcd13ifvqea0","pricing_plan_id":"cebpf4jnsgd1na2vs0mg"},{"bike_id":"8b5d41cc-d39d-4cf3-84a2-818829374aea","system_id":"levelo_inurba_marseille","lat":43.29691,"lon":5.37712,"is_reserved":false,"is_disabled":false,"rental_uris":{"android":"levelo://app?vid=8b5d41cc-d39d-4cf3-84a2-818829374aea","ios":"levelo://app?vid=8b5d41cc-d39d-4cf3-84a2-818829374aea"},"vehicle_type_id":"4","last_reported":1758391900,"current_range_meters":6400,"station_id":"ce4bgkh2rcd13ifvqbl0","pricing_plan_id":"cebpf4jnsgd1na2vs0mg"},{"bike_id":"03cb04a7-4efd-4f15-bdaf-975fedd077fa","system_id":"levelo_inurba_marseille","lat":43.29871,"lon":5.38906,"is_reserved":false,"is_disabled":false,"rental_uris":{"android":"levelo://app?vid=03cb04a7-4efd-4f15-bdaf-975fedd077fa","ios":"levelo://app?vid=03cb04a7-4efd-4f15-bdaf-975fedd077fa"},"vehicle_type_id":"4","last_reported":1758391900,"current_range_meters":6400,"station_id":"ce4bh392rcd13ifvqdl0","pricing_plan_id":"cebpf4jnsgd1na2vs0mg"},{"bike_id":"2d1403df-e4ba-4947-8b04-a5ab019dc0f7","system_id":"levelo_inurba_marseille","lat":43.305358,"lon":5.365541,"is_reserved":false,"is_disabled":false,"rental_uris":{"android":"levelo://app?vid=2d1403df-e4ba-4947-8b04-a5ab019dc0f7","ios":"levelo://app?vid=2d1403df-e4ba-4947-8b04-a5ab019dc0f7"},"vehicle_type_id":"4","last_reported":1758391900,"current_range_meters":6800,"station_id":"ce4bgs12rcd13ifvqcag","pricing_plan_id":"cebpf4jnsgd1na2vs0mg"},{"bike_id":"5bc43869-8de6-4f6a-b467-4050153d11b0","system_id":"levelo_inurba_marseille","lat":43.292669,"lon":5.384347,"is_reserved":false,"is_disabled":false,"rental_uris":{"android":"levelo://app?vid=5bc43869-8de6-4f6a-b467-4050153d11b0","ios":"levelo://app?vid=5bc43869-8de6-4f6a-b467-4050153d11b0"},"vehicle_type_id":"4","last_reported":1758391900,"current_range_meters":6800,"station_id":"ce4bh692rcd13ifvqea0","pricing_plan_id":"cebpf4jnsgd1na2vs0mg"},{"bike_id":"32d2b6ba-beb1-4558-8f27-c8f4d6d88ac7","system_id":"levelo_inurba_marseille","lat":43.303056,"lon":5.392143,"is_reserved":false,"is_disabled":false,"rental_uris":{"android":"levelo://app?vid=32d2b6ba-beb1-4558-8f27-c8f4d6d88ac7","ios":"levelo://app?vid=32d2b6ba-beb1-4558-8f27-c8f4d6d88ac7"},"vehicle_type_id":"4","last_reported":1758391900,"current_range_meters":6800,"station_id":"ce4bgkh2rcd13ifvqbk0","pricing_plan_id":"cebpf4jnsgd1na2vs0mg"},{"bike_id":"53f9c866-3988-43c2-b38e-095ad639e0df","system_id":"levelo_inurba_marseille","lat":43.27926,"lon":5.39579,"is_reserved":false,"is_disabled":false,"rental_uris":{"android":"levelo://app?vid=53f9c866-3988-43c2-b38e-095ad639e0df","ios":"levelo://app?vid=53f9c866-3988-43c2-b38e-095ad639e0df"},"vehicle_type_id":"4","last_reported":1758391900,"current_range_meters":6000,"station_id":"ce4bgkh2rcd13ifvqbl0","pricing_plan_id":"cebpf4jnsgd1na2vs0mg"},{"bike_id":"a7e33355-6c1f-4517-8887-f9e3150b920b","system_id":"levelo_inurba_marseille","lat":43.27431,"lon":5.39412,"is_reserved":false,"is_disabled":false,"rental_uris":{"android":"levelo://app?vid=a7e33355-6c1f-4517-8887-f9e3150b920b","ios":"levelo://app?vid=a7e33355-6c1f-4517-8887-f9e3150b920b"},"vehicle_type_id":"4","last_reported":1758391900,"current_range_meters":6800,"station_id":"ce4bhdp2rcd13ifvqf20","pricing_plan_id":"cebpf4jnsgd1na2vs0mg"},{"bike_id":"3307b4a4-8f59-4689-8982-a4096fef1991","system_id":"levelo_inurba_marseille","lat":43.30538,"lon":5.36564,"is_reserved":false,"is_disabled":false,"rental_uris":{"android":"levelo://app?vid=3307b4a4-8f59-4689-8982-a4096fef1991","ios":"levelo://app?vid=3307b4a4-8f59-4689-8982-a4096fef1991"},"vehicle_type_id":"4","last_reported":1758391900,"current_range_meters":6800,"station_id":"ce4bgs12rcd13ifvqcag","pricing_plan_id":"cebpf4jnsgd1na2vs0mg"},{"bike_id":"3c9735e9-fd7e-4079-8199-725760347837","system_id":"levelo_inurba_marseille","lat":43.21168,"lon":5.35103,"is_reserved":false,"is_disabled":false,"rental_uris":{"android":"levelo://app?vid=3c9735e9-fd7e-4079-8199-725760347837","ios":"levelo://app?vid=3c9735e9-fd7e-4079-8199-725760347837"},"vehicle_type_id":"4","last_reported":1758391900,"current_range_meters":7200,"station_id":"st_cvj6sg6p6f1abm77japg","pricing_plan_id":"cebpf4jnsgd1na2vs0mg"},{"bike_id":"8f47a670-9a75-4fdd-925b-66c845f4bfd8","system_id":"levelo_inurba_marseille","lat":43.25713,"lon":5.41116,"is_reserved":false,"is_disabled":false,"rental_uris":{"android":"levelo://app?vid=8f47a670-9a75-4fdd-925b-66c845f4bfd8","ios":"levelo://app?vid=8f47a670-9a75-4fdd-925b-66c845f4bfd8"},"vehicle_type_id":"4","last_reported":1758391900,"current_range_meters":7200,"station_id":"ce4bhkp2rcd13ifvqgd0","pricing_plan_id":"cebpf4jnsgd1na2vs0mg"},{"bike_id":"e1065c32-ac19-477b-812a-39f964d50769","system_id":"levelo_inurba_marseille","lat":43.23186,"lon":5.35566,"is_reserved":false,"is_disabled":true,"rental_uris":{"android":"levelo://app?vid=e1065c32-ac19-477b-812a-39f964d50769","ios":"levelo://app?vid=e1065c32-ac19-477b-812a-39f964d50769"},"vehicle_type_id":"4","last_reported":1758391900,"current_range_meters":7200,"station_id":"ce4bhu92rcd13ifvqi70","pricing_plan_id":"cebpf4jnsgd1na2vs0mg"},{"bike_id":"b5ef4ea7-aa9d-4d0b-809b-fa8a6dad2034","system_id":"levelo_inurba_marseille","lat":43.29523,"lon":5.38539,"is_reserved":false,"is_disabled":false,"rental_uris":{"android":"levelo://app?vid=b5ef4ea7-aa9d-4d0b-809b-fa8a6dad2034","ios":"levelo://app?vid=b5ef4ea7-aa9d-4d0b-809b-fa8a6dad2034"},"vehicle_type_id":"4","last_reported":1758391900,"current_range_meters":7200,"station_id":"ce4bgih2rcd13ifvqba0","pricing_plan_id":"cebpf4jnsgd1na2vs0mg"},{"bike_id":"c799df13-2f12-40cb-81d6-1a057382e67c","system_id":"levelo_inurba_marseille","lat":43.29264,"lon":5.36852,"is_reserved":false,"is_disabled":false,"rental_uris":{"android":"levelo://app?vid=c799df13-2f12-40cb-81d6-1a057382e67c","ios":"levelo://app?vid=c799df13-2f12-40cb-81d6-1a057382e67c"},"vehicle_type_id":"4","last_reported":1758391900,"current_range_meters":7200,"station_id":"ce4bhbp2rcd13ifvqesg","pricing_plan_id":"cebpf4jnsgd1na2vs0mg"},{"bike_id":"5bb42022-0e19-48bc-a5b4-218bb1d7482e","system_id":"levelo_inurba_marseille","lat":43.31263,"lon":5.37747,"is_reserved":false,"is_disabled":false,"rental_uris":{"android":"levelo://app?vid=5bb42022-0e19-48bc-a5b4-218bb1d7482e","ios":"levelo://app?vid=5bb42022-0e19-48bc-a5b4-218bb1d7482e"},"vehicle_type_id":"4","last_reported":1758391900,"current_range_meters":7200,"station_id":"","pricing_plan_id":"cebpf4jnsgd1na2vs0mg"},{"bike_id":"aa34be38-4949-446f-9479-959823c62ef5","system_id":"levelo_inurba_marseille","lat":43.26556,"lon":5.37283,"is_reserved":false,"is_disabled":false,"rental_uris":{"android":"levelo://app?vid=aa34be38-4949-446f-9479-959823c62ef5","ios":"levelo://app?vid=aa34be38-4949-446f-9479-959823c62ef5"},"vehicle_type_id":"4","last_reported":1758391900,"current_range_meters":7200,"station_id":"ce4bhg12rcd13ifvqf70","pricing_plan_id":"cebpf4jnsgd1na2vs0mg"},{"bike_id":"bf6e6d27-c09e-4725-9fbc-20073fd5a515","system_id":"levelo_inurba_marseille","lat":43.289376,"lon":5.396214,"is_reserved":false,"is_disabled":false,"rental_uris":{"android":"levelo://app?vid=bf6e6d27-c09e-4725-9fbc-20073fd5a515","ios":"levelo://app?vid=bf6e6d27-c09e-4725-9fbc-20073fd5a515"},"vehicle_type_id":"4","last_reported":1758391900,"current_range_meters":7200,"station_id":"","pricing_plan_id":"cebpf4jnsgd1na2vs0mg"},{"bike_id":"55e164de-0a07-41c1-87b2-ec193e5bce52","system_id":"levelo_inurba_marseille","lat":43.29869,"lon":5.39733,"is_reserved":false,"is_disabled":false,"rental_uris":{"android":"levelo://app?vid=55e164de-0a07-41c1-87b2-ec193e5bce52","ios":"levelo://app?vid=55e164de-0a07-41c1-87b2-ec193e5bce52"},"vehicle_type_id":"4","last_reported":1758391900,"current_range_meters":7200,"station_id":"ce4bh0h2rcd13ifvqd50","pricing_plan_id":"cebpf4jnsgd1na2vs0mg"},{"bike_id":"0960e3dd-c358-4474-bd10-8223758e1f6b","system_id":"levelo_inurba_marseille","lat":43.296996,"lon":5.376855,"is_reserved":false,"is_disabled":false,"rental_uris":{"android":"levelo://app?vid=0960e3dd-c358-4474-bd10-8223758e1f6b","ios":"levelo://app?vid=0960e3dd-c358-4474-bd10-8223758e1f6b"},"vehicle_type_id":"4","last_reported":1758391900,"current_range_meters":7200,"station_id":"","pricing_plan_id":"cebpf4jnsgd1na2vs0mg"},{"bike_id":"9155b054-7f08-4dce-8ba2-214d1c0ccc28","system_id":"levelo_inurba_marseille","lat":43.29786,"lon":5.39338,"is_reserved":false,"is_disabled":false,"rental_uris":{"android":"levelo://app?vid=9155b054-7f08-4dce-8ba2-214d1c0ccc28","ios":"levelo://app?vid=9155b054-7f08-4dce-8ba2-214d1c0ccc28"},"vehicle_type_id":"4","last_reported":1758391900,"current_range_meters":6800,"station_id":"chh1huq6cuj3fo74tm60","pricing_plan_id":"cebpf4jnsgd1na2vs0mg"},{"bike_id":"1dbc6ff6-de1e-44f5-9332-c8820f81075d","system_id":"levelo_inurba_marseille","lat":43.2119,"lon":5.35074,"is_reserved":false,"is_disabled":true,"rental_uris":{"android":"levelo://app?vid=1dbc6ff6-de1e-44f5-9332-c8820f81075d","ios":"levelo://app?vid=1dbc6ff6-de1e-44f5-9332-c8820f81075d"},"vehicle_type_id":"4","last_reported":1758391900,"current_range_meters":8000,"station_id":"","pricing_plan_id":"cebpf4jnsgd1na2vs0mg"},{"bike_id":"296364ea-4bb9-41b0-8ecc-b2e6f66a7896","system_id":"levelo_inurba_marseille","lat":43.29177,"lon":5.37142,"is_reserved":false,"is_disabled":false,"rental_uris":{"android":"levelo://app?vid=296364ea-4bb9-41b0-8ecc-b2e6f66a7896","ios":"levelo://app?vid=296364ea-4bb9-41b0-8ecc-b2e6f66a7896"},"vehicle_type_id":"4","last_reported":1758391900,"current_range_meters":8000,"station_id":"ce4bha92rcd13ifvqeh0","pricing_plan_id":"cebpf4jnsgd1na2vs0mg"},{"bike_id":"daaf89e0-b11c-40ea-b8fb-8129ac2df5da","system_id":"levelo_inurba_marseille","lat":43.29897,"lon":5.38514,"is_reserved":false,"is_disabled":false,"rental_uris":{"android":"levelo://app?vid=daaf89e0-b11c-40ea-b8fb-8129ac2df5da","ios":"levelo://app?vid=daaf89e0-b11c-40ea-b8fb-8129ac2df5da"},"vehicle_type_id":"4","last_reported":1758391900,"current_range_meters":8000,"station_id":"","pricing_plan_id":"cebpf4jnsgd1na2vs0mg"},{"bike_id":"a12a900d-58ba-4e8f-9913-f025c9fbb5ff","system_id":"levelo_inurba_marseille","lat":43.29363,"lon":5.37851,"is_reserved":false,"is_disabled":false,"rental_uris":{"android":"levelo://app?vid=a12a900d-58ba-4e8f-9913-f025c9fbb5ff","ios":"levelo://app?vid=a12a900d-58ba-4e8f-9913-f025c9fbb5ff"},"vehicle_type_id":"4","last_reported":1758391900,"current_range_meters":8000,"station_id":"ce4bgjh2rcd13ifvqbf0","pricing_plan_id":"cebpf4jnsgd1na2vs0mg"},{"bike_id":"955bb41c-c239-40d5-8df5-2f982340c4a2","system_id":"levelo_inurba_marseille","lat":43.29297,"lon":5.37465,"is_reserved":false,"is_disabled":false,"rental_uris":{"android":"levelo://app?vid=955bb41c-c239-40d5-8df5-2f982340c4a2","ios":"levelo://app?vid=955bb41c-c239-40d5-8df5-2f982340c4a2"},"vehicle_type_id":"4","last_reported":1758391900,"current_range_meters":8000,"station_id":"ce4bgi12rcd13ifvqb70","pricing_plan_id":"cebpf4jnsgd1na2vs0mg"},{"bike_id":"4c08d0f2-93b3-4643-8458-ecdb74fe2a71","system_id":"levelo_inurba_marseille","lat":43.28656,"lon":5.36358,"is_reserved":false,"is_disabled":false,"rental_uris":{"android":"levelo://app?vid=4c08d0f2-93b3-4643-8458-ecdb74fe2a71","ios":"levelo://app?vid=4c08d0f2-93b3-4643-8458-ecdb74fe2a71"},"vehicle_type_id":"4","last_reported":1758391900,"current_range_meters":8000,"station_id":"ce4bhah2rcd13ifvqej0","pricing_plan_id":"cebpf4jnsgd1na2vs0mg"},{"bike_id":"ab5b9659-77bc-417b-8f8b-7002662fbf28","system_id":"levelo_inurba_marseille","lat":43.2932,"lon":5.41151,"is_reserved":false,"is_disabled":false,"rental_uris":{"android":"levelo://app?vid=ab5b9659-77bc-417b-8f8b-7002662fbf28","ios":"levelo://app?vid=ab5b9659-77bc-417b-8f8b-7002662fbf28"},"vehicle_type_id":"4","last_reported":1758391900,"current_range_meters":8000,"station_id":"","pricing_plan_id":"cebpf4jnsgd1na2vs0mg"},{"bike_id":"f81f3658-1e8f-4699-85ee-d660ff5ddf58","system_id":"levelo_inurba_marseille","lat":43.29792,"lon":5.39348,"is_reserved":false,"is_disabled":false,"rental_uris":{"android":"levelo://app?vid=f81f3658-1e8f-4699-85ee-d660ff5ddf58","ios":"levelo://app?vid=f81f3658-1e8f-4699-85ee-d660ff5ddf58"},"vehicle_type_id":"4","last_reported":1758391900,"current_range_meters":7200,"station_id":"chh1huq6cuj3fo74tm60","pricing_plan_id":"cebpf4jnsgd1na2vs0mg"},{"bike_id":"7dd65b1b-fb7b-4087-9803-34d477de11ae","system_id":"levelo_inurba_marseille","lat":43.21205,"lon":5.35046,"is_reserved":false,"is_disabled":false,"rental_uris":{"android":"levelo://app?vid=7dd65b1b-fb7b-4087-9803-34d477de11ae","ios":"levelo://app?vid=7dd65b1b-fb7b-4087-9803-34d477de11ae"},"vehicle_type_id":"4","last_reported":1758391900,"current_range_meters":8400,"station_id":"st_cvj6sg6p6f1abm77japg","pricing_plan_id":"cebpf4jnsgd1na2vs0mg"},{"bike_id":"18029dcb-75bf-4f53-8aa7-2409fe3d3bda","system_id":"levelo_inurba_marseille","lat":43.28412,"lon":5.37524,"is_reserved":false,"is_disabled":false,"rental_uris":{"android":"levelo://app?vid=18029dcb-75bf-4f53-8aa7-2409fe3d3bda","ios":"levelo://app?vid=18029dcb-75bf-4f53-8aa7-2409fe3d3bda"},"vehicle_type_id":"4","last_reported":1758391900,"current_range_meters":8400,"station_id":"ce4bh412rcd13ifvqds0","pricing_plan_id":"cebpf4jnsgd1na2vs0mg"},{"bike_id":"ff0b5be4-aa80-4f5c-a757-148d61ad1371","system_id":"levelo_inurba_marseille","lat":43.29288,"lon":5.37463,"is_reserved":false,"is_disabled":false,"rental_uris":{"android":"levelo://app?vid=ff0b5be4-aa80-4f5c-a757-148d61ad1371","ios":"levelo://app?vid=ff0b5be4-aa80-4f5c-a757-148d61ad1371"},"vehicle_type_id":"4","last_reported":1758391900,"current_range_meters":8400,"station_id":"ce4bgi12rcd13ifvqb70","pricing_plan_id":"cebpf4jnsgd1na2vs0mg"},{"bike_id":"3082f593-a5a6-48f9-afa8-383813f7af0b","system_id":"levelo_inurba_marseille","lat":43.21712,"lon":5.34652,"is_reserved":false,"is_disabled":true,"rental_uris":{"android":"levelo://app?vid=3082f593-a5a6-48f9-afa8-383813f7af0b","ios":"levelo://app?vid=3082f593-a5a6-48f9-afa8-383813f7af0b"},"vehicle_type_id":"4","last_reported":1758391900,"current_range_meters":8400,"station_id":"st_cvj6r9ubvosntc0bgbag","pricing_plan_id":"cebpf4jnsgd1na2vs0mg"},{"bike_id":"0e7612a4-3b2d-44eb-906b-f4504ffd2a7f","system_id":"levelo_inurba_marseille","lat":43.30242,"lon":5.40098,"is_reserved":false,"is_disabled":true,"rental_uris":{"android":"levelo://app?vid=0e7612a4-3b2d-44eb-906b-f4504ffd2a7f","ios":"levelo://app?vid=0e7612a4-3b2d-44eb-906b-f4504ffd2a7f"},"vehicle_type_id":"4","last_reported":1758391900,"current_range_meters":8400,"station_id":"ce4bgvh2rcd13ifvqcs0","pricing_plan_id":"cebpf4jnsgd1na2vs0mg"},{"bike_id":"c699b38b-aa80-4248-9a33-6a377d24bf49","system_id":"levelo_inurba_marseille","lat":43.31885,"lon":5.4074,"is_reserved":false,"is_disabled":false,"rental_uris":{"android":"levelo://app?vid=c699b38b-aa80-4248-9a33-6a377d24bf49","ios":"levelo://app?vid=c699b38b-aa80-4248-9a33-6a377d24bf49"},"vehicle_type_id":"4","last_reported":1758391900,"current_range_meters":8000,"station_id":"ce4bhq12rcd13ifvqhig","pricing_plan_id":"cebpf4jnsgd1na2vs0mg"},{"bike_id":"c627b34a-8e81-4438-af3b-4fd0aab1c160","system_id":"levelo_inurba_marseille","lat":43.29701,"lon":5.36015,"is_reserved":false,"is_disabled":false,"rental_uris":{"android":"levelo://app?vid=c627b34a-8e81-4438-af3b-4fd0aab1c160","ios":"levelo://app?vid=c627b34a-8e81-4438-af3b-4fd0aab1c160"},"vehicle_type_id":"4","last_reported":1758391900,"current_range_meters":8400,"station_id":"","pricing_plan_id":"cebpf4jnsgd1na2vs0mg"},{"bike_id":"669ea746-84ed-4a62-a1e9-6bc16ceba18d","system_id":"levelo_inurba_marseille","lat":43.31075,"lon":5.38346,"is_reserved":false,"is_disabled":false,"rental_uris":{"android":"levelo://app?vid=669ea746-84ed-4a62-a1e9-6bc16ceba18d","ios":"levelo://app?vid=669ea746-84ed-4a62-a1e9-6bc16ceba18d"},"vehicle_type_id":"4","last_reported":1758391900,"current_range_meters":8400,"station_id":"ce4bgv92rcd13ifvqcr0","pricing_plan_id":"cebpf4jnsgd1na2vs0mg"},{"bike_id":"0f98e986-93f8-4319-84bf-fc0efe4c4f99","system_id":"levelo_inurba_marseille","lat":43.29534,"lon":5.38549,"is_reserved":false,"is_disabled":false,"rental_uris":{"android":"levelo://app?vid=0f98e986-93f8-4319-84bf-fc0efe4c4f99","ios":"levelo://app?vid=0f98e986-93f8-4319-84bf-fc0efe4c4f99"},"vehicle_type_id":"4","last_reported":1758391900,"current_range_meters":8400,"station_id":"ce4bgih2rcd13ifvqba0","pricing_plan_id":"cebpf4jnsgd1na2vs0mg"},{"bike_id":"561432ee-8682-44dc-8984-7183ec2a1c3c","system_id":"levelo_inurba_marseille","lat":43.32364,"lon":5.38889,"is_reserved":false,"is_disabled":false,"rental_uris":{"android":"levelo://app?vid=561432ee-8682-44dc-8984-7183ec2a1c3c","ios":"levelo://app?vid=561432ee-8682-44dc-8984-7183ec2a1c3c"},"vehicle_type_id":"4","last_reported":1758391900,"current_range_meters":8800,"station_id":"ce4bhqp2rcd13ifvqhog","pricing_plan_id":"cebpf4jnsgd1na2vs0mg"},{"bike_id":"62b006f3-c13d-474e-aa4a-cdf48c6d75cd","system_id":"levelo_inurba_marseille","lat":43.26222,"lon":5.40447,"is_reserved":false,"is_disabled":false,"rental_uris":{"android":"levelo://app?vid=62b006f3-c13d-474e-aa4a-cdf48c6d75cd","ios":"levelo://app?vid=62b006f3-c13d-474e-aa4a-cdf48c6d75cd"},"vehicle_type_id":"4","last_reported":1758391900,"current_range_meters":8800,"station_id":"ce4bhmh2rcd13ifvqgmg","pricing_plan_id":"cebpf4jnsgd1na2vs0mg"},{"bike_id":"53264fdb-d3ce-412c-9b54-11908fde133c","system_id":"levelo_inurba_marseille","lat":43.25861,"lon":5.39903,"is_reserved":false,"is_disabled":true,"rental_uris":{"android":"levelo://app?vid=53264fdb-d3ce-412c-9b54-11908fde133c","ios":"levelo://app?vid=53264fdb-d3ce-412c-9b54-11908fde133c"},"vehicle_type_id":"4","last_reported":1758391900,"current_range_meters":8800,"station_id":"ce4bhl92rcd13ifvqghg","pricing_plan_id":"cebpf4jnsgd1na2vs0mg"},{"bike_id":"d02ac057-ce7a-4929-902d-50dcc1776798","system_id":"levelo_inurba_marseille","lat":43.27957,"lon":5.38709,"is_reserved":false,"is_disabled":false,"rental_uris":{"android":"levelo://app?vid=d02ac057-ce7a-4929-902d-50dcc1776798","ios":"levelo://app?vid=d02ac057-ce7a-4929-902d-50dcc1776798"},"vehicle_type_id":"4","last_reported":1758391900,"current_range_meters":8800,"station_id":"ce4bhg12rcd13ifvqf80","pricing_plan_id":"cebpf4jnsgd1na2vs0mg"},{"bike_id":"1775d405-23a9-4e35-86bd-cda5924dd79c","system_id":"levelo_inurba_marseille","lat":43.28821,"lon":5.39324,"is_reserved":false,"is_disabled":false,"rental_uris":{"android":"levelo://app?vid=1775d405-23a9-4e35-86bd-cda5924dd79c","ios":"levelo://app?vid=1775d405-23a9-4e35-86bd-cda5924dd79c"},"vehicle_type_id":"4","last_reported":1758391900,"current_range_meters":8800,"station_id":"ce4bh2p2rcd13ifvqdi0","pricing_plan_id":"cebpf4jnsgd1na2vs0mg"},{"bike_id":"53447d53-371e-4d5b-800e-f6b449f98a0d","system_id":"levelo_inurba_marseille","lat":43.29507,"lon":5.39025,"is_reserved":false,"is_disabled":false,"rental_uris":{"android":"levelo://app?vid=53447d53-371e-4d5b-800e-f6b449f98a0d","ios":"levelo://app?vid=53447d53-371e-4d5b-800e-f6b449f98a0d"},"vehicle_type_id":"4","last_reported":1758391900,"current_range_meters":8800,"station_id":"ce4bh3p2rcd13ifvqdp0","pricing_plan_id":"cebpf4jnsgd1na2vs0mg"},{"bike_id":"12ed6c49-784d-4e90-9587-47eae4f126ab","system_id":"levelo_inurba_marseille","lat":43.21744,"lon":5.346,"is_reserved":false,"is_disabled":true,"rental_uris":{"android":"levelo://app?vid=12ed6c49-784d-4e90-9587-47eae4f126ab","ios":"levelo://app?vid=12ed6c49-784d-4e90-9587-47eae4f126ab"},"vehicle_type_id":"4","last_reported":1758391900,"current_range_meters":8800,"station_id":"st_cvj6r9ubvosntc0bgbag","pricing_plan_id":"cebpf4jnsgd1na2vs0mg"},{"bike_id":"fcb3f6af-c7d4-4ccc-be82-7f951e8865a2","system_id":"levelo_inurba_marseille","lat":43.21195,"lon":5.35087,"is_reserved":false,"is_disabled":false,"rental_uris":{"android":"levelo://app?vid=fcb3f6af-c7d4-4ccc-be82-7f951e8865a2","ios":"levelo://app?vid=fcb3f6af-c7d4-4ccc-be82-7f951e8865a2"},"vehicle_type_id":"4","last_reported":1758391900,"current_range_meters":9200,"station_id":"st_cvj6sg6p6f1abm77japg","pricing_plan_id":"cebpf4jnsgd1na2vs0mg"},{"bike_id":"68f61077-b7cc-4471-b014-8685b4360422","system_id":"levelo_inurba_marseille","lat":43.29934,"lon":5.38524,"is_reserved":false,"is_disabled":false,"rental_uris":{"android":"levelo://app?vid=68f61077-b7cc-4471-b014-8685b4360422","ios":"levelo://app?vid=68f61077-b7cc-4471-b014-8685b4360422"},"vehicle_type_id":"4","last_reported":1758391900,"current_range_meters":8800,"station_id":"ce4bgj92rcd13ifvqbd0","pricing_plan_id":"cebpf4jnsgd1na2vs0mg"},{"bike_id":"c06f205f-b149-48e1-af6e-4e386850564e","system_id":"levelo_inurba_marseille","lat":43.2438,"lon":5.37072,"is_reserved":false,"is_disabled":true,"rental_uris":{"android":"levelo://app?vid=c06f205f-b149-48e1-af6e-4e386850564e","ios":"levelo://app?vid=c06f205f-b149-48e1-af6e-4e386850564e"},"vehicle_type_id":"4","last_reported":1758391900,"current_range_meters":9200,"station_id":"ce4bhhh2rcd13ifvqfk0","pricing_plan_id":"cebpf4jnsgd1na2vs0mg"},{"bike_id":"6383edd2-3ada-4cf2-9413-141dd528ad1f","system_id":"levelo_inurba_marseille","lat":43.2919,"lon":5.35805,"is_reserved":false,"is_disabled":false,"rental_uris":{"android":"levelo://app?vid=6383edd2-3ada-4cf2-9413-141dd528ad1f","ios":"levelo://app?vid=6383edd2-3ada-4cf2-9413-141dd528ad1f"},"vehicle_type_id":"4","last_reported":1758391900,"current_range_meters":8800,"station_id":"ce4bhb12rcd13ifvqel0","pricing_plan_id":"cebpf4jnsgd1na2vs0mg"},{"bike_id":"78dbe21a-dba7-45e9-af0c-405cf6e1764f","system_id":"levelo_inurba_marseille","lat":43.24077,"lon":5.37756,"is_reserved":false,"is_disabled":false,"rental_uris":{"android":"levelo://app?vid=78dbe21a-dba7-45e9-af0c-405cf6e1764f","ios":"levelo://app?vid=78dbe21a-dba7-45e9-af0c-405cf6e1764f"},"vehicle_type_id":"4","last_reported":1758391900,"current_range_meters":8800,"station_id":"ce4bhnp2rcd13ifvqgvg","pricing_plan_id":"cebpf4jnsgd1na2vs0mg"},{"bike_id":"63663824-8355-4dda-9c0f-af60dadabb98","system_id":"levelo_inurba_marseille","lat":43.28027,"lon":5.36956,"is_reserved":false,"is_disabled":false,"rental_uris":{"android":"levelo://app?vid=63663824-8355-4dda-9c0f-af60dadabb98","ios":"levelo://app?vid=63663824-8355-4dda-9c0f-af60dadabb98"},"vehicle_type_id":"4","last_reported":1758391900,"current_range_meters":9200,"station_id":"ce4bha12rcd13ifvqef0","pricing_plan_id":"cebpf4jnsgd1na2vs0mg"},{"bike_id":"62783dca-0773-46e3-b637-23c825315e9c","system_id":"levelo_inurba_marseille","lat":43.30153,"lon":5.38776,"is_reserved":false,"is_disabled":false,"rental_uris":{"android":"levelo://app?vid=62783dca-0773-46e3-b637-23c825315e9c","ios":"levelo://app?vid=62783dca-0773-46e3-b637-23c825315e9c"},"vehicle_type_id":"4","last_reported":1758391900,"current_range_meters":9200,"station_id":"ce4bghh2rcd13ifvqb60","pricing_plan_id":"cebpf4jnsgd1na2vs0mg"},{"bike_id":"1870752f-b716-4da7-9f98-f1a64c3a9448","system_id":"levelo_inurba_marseille","lat":43.29261,"lon":5.38443,"is_reserved":false,"is_disabled":false,"rental_uris":{"android":"levelo://app?vid=1870752f-b716-4da7-9f98-f1a64c3a9448","ios":"levelo://app?vid=1870752f-b716-4da7-9f98-f1a64c3a9448"},"vehicle_type_id":"4","last_reported":1758391900,"current_range_meters":9600,"station_id":"ce4bh692rcd13ifvqea0","pricing_plan_id":"cebpf4jnsgd1na2vs0mg"},{"bike_id":"481aa2a2-a660-4241-9835-8027872eb82b","system_id":"levelo_inurba_marseille","lat":43.29261,"lon":5.38442,"is_reserved":false,"is_disabled":false,"rental_uris":{"android":"levelo://app?vid=481aa2a2-a660-4241-9835-8027872eb82b","ios":"levelo://app?vid=481aa2a2-a660-4241-9835-8027872eb82b"},"vehicle_type_id":"4","last_reported":1758391900,"current_range_meters":9600,"station_id":"ce4bh692rcd13ifvqea0","pricing_plan_id":"cebpf4jnsgd1na2vs0mg"},{"bike_id":"617dca4b-4508-4d52-9e62-d583d919ac44","system_id":"levelo_inurba_marseille","lat":43.29734,"lon":5.37128,"is_reserved":false,"is_disabled":false,"rental_uris":{"android":"levelo://app?vid=617dca4b-4508-4d52-9e62-d583d919ac44","ios":"levelo://app?vid=617dca4b-4508-4d52-9e62-d583d919ac44"},"vehicle_type_id":"4","last_reported":1758391900,"current_range_meters":9600,"station_id":"","pricing_plan_id":"cebpf4jnsgd1na2vs0mg"},{"bike_id":"e8f90ea5-95f6-43e2-92ea-2afddad6d662","system_id":"levelo_inurba_marseille","lat":43.29509,"lon":5.39401,"is_reserved":false,"is_disabled":false,"rental_uris":{"android":"levelo://app?vid=e8f90ea5-95f6-43e2-92ea-2afddad6d662","ios":"levelo://app?vid=e8f90ea5-95f6-43e2-92ea-2afddad6d662"},"vehicle_type_id":"4","last_reported":1758391900,"current_range_meters":10800,"station_id":"ce4bh292rcd13ifvqdf0","pricing_plan_id":"cebpf4jnsgd1na2vs0mg"},{"bike_id":"575f379b-682e-45a6-a90b-e2da032a9ae0","system_id":"levelo_inurba_marseille","lat":43.21186,"lon":5.3508,"is_reserved":false,"is_disabled":false,"rental_uris":{"android":"levelo://app?vid=575f379b-682e-45a6-a90b-e2da032a9ae0","ios":"levelo://app?vid=575f379b-682e-45a6-a90b-e2da032a9ae0"},"vehicle_type_id":"4","last_reported":1758391900,"current_range_meters":9600,"station_id":"st_cvj6sg6p6f1abm77japg","pricing_plan_id":"cebpf4jnsgd1na2vs0mg"},{"bike_id":"0064b370-873b-4c46-b3c5-971e521f7c7c","system_id":"levelo_inurba_marseille","lat":43.292906,"lon":5.374648,"is_reserved":false,"is_disabled":false,"rental_uris":{"android":"levelo://app?vid=0064b370-873b-4c46-b3c5-971e521f7c7c","ios":"levelo://app?vid=0064b370-873b-4c46-b3c5-971e521f7c7c"},"vehicle_type_id":"4","last_reported":1758391900,"current_range_meters":10000,"station_id":"","pricing_plan_id":"cebpf4jnsgd1na2vs0mg"},{"bike_id":"5b84af94-a4d6-4b46-a63f-085ff5681f73","system_id":"levelo_inurba_marseille","lat":43.21192,"lon":5.35082,"is_reserved":false,"is_disabled":false,"rental_uris":{"android":"levelo://app?vid=5b84af94-a4d6-4b46-a63f-085ff5681f73","ios":"levelo://app?vid=5b84af94-a4d6-4b46-a63f-085ff5681f73"},"vehicle_type_id":"4","last_reported":1758391900,"current_range_meters":10000,"station_id":"st_cvj6sg6p6f1abm77japg","pricing_plan_id":"cebpf4jnsgd1na2vs0mg"},{"bike_id":"66712782-3b98-4d4e-8c13-d8f3dbcc0715","system_id":"levelo_inurba_marseille","lat":43.29594,"lon":5.37491,"is_reserved":false,"is_disabled":false,"rental_uris":{"android":"levelo://app?vid=66712782-3b98-4d4e-8c13-d8f3dbcc0715","ios":"levelo://app?vid=66712782-3b98-4d4e-8c13-d8f3dbcc0715"},"vehicle_type_id":"4","last_reported":1758391900,"current_range_meters":10000,"station_id":"ce4bgh92rcd13ifvqb50","pricing_plan_id":"cebpf4jnsgd1na2vs0mg"},{"bike_id":"b766d582-d4f0-4f9a-9867-0ae0b8177870","system_id":"levelo_inurba_marseille","lat":43.2118,"lon":5.35091,"is_reserved":false,"is_disabled":false,"rental_uris":{"android":"levelo://app?vid=b766d582-d4f0-4f9a-9867-0ae0b8177870","ios":"levelo://app?vid=b766d582-d4f0-4f9a-9867-0ae0b8177870"},"vehicle_type_id":"4","last_reported":1758391900,"current_range_meters":10000,"station_id":"st_cvj6sg6p6f1abm77japg","pricing_plan_id":"cebpf4jnsgd1na2vs0mg"},{"bike_id":"e6f59a7f-e88f-4d65-bed3-135ed8be6983","system_id":"levelo_inurba_marseille","lat":43.32551,"lon":5.39103,"is_reserved":false,"is_disabled":false,"rental_uris":{"android":"levelo://app?vid=e6f59a7f-e88f-4d65-bed3-135ed8be6983","ios":"levelo://app?vid=e6f59a7f-e88f-4d65-bed3-135ed8be6983"},"vehicle_type_id":"4","last_reported":1758391900,"current_range_meters":10000,"station_id":"","pricing_plan_id":"cebpf4jnsgd1na2vs0mg"},{"bike_id":"66d4afa6-14b4-41fa-86d4-7c7ac5d1107a","system_id":"levelo_inurba_marseille","lat":43.29525,"lon":5.38541,"is_reserved":false,"is_disabled":false,"rental_uris":{"android":"levelo://app?vid=66d4afa6-14b4-41fa-86d4-7c7ac5d1107a","ios":"levelo://app?vid=66d4afa6-14b4-41fa-86d4-7c7ac5d1107a"},"vehicle_type_id":"4","last_reported":1758391900,"current_range_meters":10000,"station_id":"ce4bgih2rcd13ifvqba0","pricing_plan_id":"cebpf4jnsgd1na2vs0mg"},{"bike_id":"d7f55dc2-1d6c-4af1-8837-c8b49e223995","system_id":"levelo_inurba_marseille","lat":43.295342,"lon":5.385413,"is_reserved":false,"is_disabled":false,"rental_uris":{"android":"levelo://app?vid=d7f55dc2-1d6c-4af1-8837-c8b49e223995","ios":"levelo://app?vid=d7f55dc2-1d6c-4af1-8837-c8b49e223995"},"vehicle_type_id":"4","last_reported":1758391900,"current_range_meters":10000,"station_id":"ce4bgih2rcd13ifvqba0","pricing_plan_id":"cebpf4jnsgd1na2vs0mg"},{"bike_id":"39207690-3181-4a36-a205-238d2901d3e0","system_id":"levelo_inurba_marseille","lat":43.29524,"lon":5.39035,"is_reserved":false,"is_disabled":false,"rental_uris":{"android":"levelo://app?vid=39207690-3181-4a36-a205-238d2901d3e0","ios":"levelo://app?vid=39207690-3181-4a36-a205-238d2901d3e0"},"vehicle_type_id":"4","last_reported":1758391900,"current_range_meters":9600,"station_id":"ce4bh3p2rcd13ifvqdp0","pricing_plan_id":"cebpf4jnsgd1na2vs0mg"},{"bike_id":"1cb81a6e-98b6-46dd-b258-421db789bf99","system_id":"levelo_inurba_marseille","lat":43.29974,"lon":5.38511,"is_reserved":false,"is_disabled":false,"rental_uris":{"android":"levelo://app?vid=1cb81a6e-98b6-46dd-b258-421db789bf99","ios":"levelo://app?vid=1cb81a6e-98b6-46dd-b258-421db789bf99"},"vehicle_type_id":"4","last_reported":1758391900,"current_range_meters":11200,"station_id":"ce4bgj92rcd13ifvqbd0","pricing_plan_id":"cebpf4jnsgd1na2vs0mg"},{"bike_id":"d0cd8d02-b72f-4243-9841-681ebf92100f","system_id":"levelo_inurba_marseille","lat":43.23964,"lon":5.3663,"is_reserved":false,"is_disabled":false,"rental_uris":{"android":"levelo://app?vid=d0cd8d02-b72f-4243-9841-681ebf92100f","ios":"levelo://app?vid=d0cd8d02-b72f-4243-9841-681ebf92100f"},"vehicle_type_id":"4","last_reported":1758391900,"current_range_meters":10800,"station_id":"ce4bhi12rcd13ifvqfp0","pricing_plan_id":"cebpf4jnsgd1na2vs0mg"},{"bike_id":"09bf928b-8752-427b-9ac9-f25d34288147","system_id":"levelo_inurba_marseille","lat":43.29637,"lon":5.36672,"is_reserved":false,"is_disabled":false,"rental_uris":{"android":"levelo://app?vid=09bf928b-8752-427b-9ac9-f25d34288147","ios":"levelo://app?vid=09bf928b-8752-427b-9ac9-f25d34288147"},"vehicle_type_id":"4","last_reported":1758391900,"current_range_meters":10800,"station_id":"ce4bgph2rcd13ifvqc2g","pricing_plan_id":"cebpf4jnsgd1na2vs0mg"},{"bike_id":"98e8af00-4b83-49fb-a286-0d2396c92bd0","system_id":"levelo_inurba_marseille","lat":43.30898,"lon":5.36854,"is_reserved":false,"is_disabled":true,"rental_uris":{"android":"levelo://app?vid=98e8af00-4b83-49fb-a286-0d2396c92bd0","ios":"levelo://app?vid=98e8af00-4b83-49fb-a286-0d2396c92bd0"},"vehicle_type_id":"4","last_reported":1758391900,"current_range_meters":10800,"station_id":"ce4bgn92rcd13ifvqbvg","pricing_plan_id":"cebpf4jnsgd1na2vs0mg"},{"bike_id":"e8e38dd0-e557-41b5-8273-2d9bd15cf96b","system_id":"levelo_inurba_marseille","lat":43.225292,"lon":5.348293,"is_reserved":false,"is_disabled":false,"rental_uris":{"android":"levelo://app?vid=e8e38dd0-e557-41b5-8273-2d9bd15cf96b","ios":"levelo://app?vid=e8e38dd0-e557-41b5-8273-2d9bd15cf96b"},"vehicle_type_id":"4","last_reported":1758391900,"current_range_meters":10800,"station_id":"st_cvj5dfep6f1abm77gieg","pricing_plan_id":"cebpf4jnsgd1na2vs0mg"},{"bike_id":"ca7124de-ce9c-4f9e-8c5f-6e03823db7ec","system_id":"levelo_inurba_marseille","lat":43.28606,"lon":5.37062,"is_reserved":false,"is_disabled":false,"rental_uris":{"android":"levelo://app?vid=ca7124de-ce9c-4f9e-8c5f-6e03823db7ec","ios":"levelo://app?vid=ca7124de-ce9c-4f9e-8c5f-6e03823db7ec"},"vehicle_type_id":"4","last_reported":1758391900,"current_range_meters":10800,"station_id":"ce4bht12rcd13ifvqi60","pricing_plan_id":"cebpf4jnsgd1na2vs0mg"},{"bike_id":"db3453cc-aa53-4b21-baa6-ff2dbc39d8a3","system_id":"levelo_inurba_marseille","lat":43.299042,"lon":5.381521,"is_reserved":false,"is_disabled":false,"rental_uris":{"android":"levelo://app?vid=db3453cc-aa53-4b21-baa6-ff2dbc39d8a3","ios":"levelo://app?vid=db3453cc-aa53-4b21-baa6-ff2dbc39d8a3"},"vehicle_type_id":"4","last_reported":1758391900,"current_range_meters":11200,"station_id":"ce4bgj12rcd13ifvqbc0","pricing_plan_id":"cebpf4jnsgd1na2vs0mg"},{"bike_id":"c10b5a32-7e88-42ca-a115-4d06d00650a9","system_id":"levelo_inurba_marseille","lat":43.24648,"lon":5.38888,"is_reserved":false,"is_disabled":false,"rental_uris":{"android":"levelo://app?vid=c10b5a32-7e88-42ca-a115-4d06d00650a9","ios":"levelo://app?vid=c10b5a32-7e88-42ca-a115-4d06d00650a9"},"vehicle_type_id":"4","last_reported":1758391900,"current_range_meters":10800,"station_id":"ce4bhg12rcd13ifvqf60","pricing_plan_id":"cebpf4jnsgd1na2vs0mg"},{"bike_id":"c4706891-6ce1-4440-91ff-a3ecf2ff007e","system_id":"levelo_inurba_marseille","lat":43.26374,"lon":5.40075,"is_reserved":false,"is_disabled":false,"rental_uris":{"android":"levelo://app?vid=c4706891-6ce1-4440-91ff-a3ecf2ff007e","ios":"levelo://app?vid=c4706891-6ce1-4440-91ff-a3ecf2ff007e"},"vehicle_type_id":"4","last_reported":1758391900,"current_range_meters":11200,"station_id":"","pricing_plan_id":"cebpf4jnsgd1na2vs0mg"},{"bike_id":"68ddb5af-0b78-419b-b6b1-a67afad5dcf1","system_id":"levelo_inurba_marseille","lat":43.30651,"lon":5.40101,"is_reserved":false,"is_disabled":false,"rental_uris":{"android":"levelo://app?vid=68ddb5af-0b78-419b-b6b1-a67afad5dcf1","ios":"levelo://app?vid=68ddb5af-0b78-419b-b6b1-a67afad5dcf1"},"vehicle_type_id":"4","last_reported":1758391900,"current_range_meters":11200,"station_id":"ce4bh112rcd13ifvqda0","pricing_plan_id":"cebpf4jnsgd1na2vs0mg"},{"bike_id":"dd83ad9a-dee7-4e16-968c-551bbb62d249","system_id":"levelo_inurba_marseille","lat":43.289208,"lon":5.384102,"is_reserved":false,"is_disabled":false,"rental_uris":{"android":"levelo://app?vid=dd83ad9a-dee7-4e16-968c-551bbb62d249","ios":"levelo://app?vid=dd83ad9a-dee7-4e16-968c-551bbb62d249"},"vehicle_type_id":"4","last_reported":1758391900,"current_range_meters":10000,"station_id":"ce4bh612rcd13ifvqe6g","pricing_plan_id":"cebpf4jnsgd1na2vs0mg"},{"bike_id":"03b49144-99e8-4c80-9285-a982b902395d","system_id":"levelo_inurba_marseille","lat":43.29306,"lon":5.371691,"is_reserved":false,"is_disabled":false,"rental_uris":{"android":"levelo://app?vid=03b49144-99e8-4c80-9285-a982b902395d","ios":"levelo://app?vid=03b49144-99e8-4c80-9285-a982b902395d"},"vehicle_type_id":"4","last_reported":1758391900,"current_range_meters":11600,"station_id":"ce4bgh92rcd13ifvqb40","pricing_plan_id":"cebpf4jnsgd1na2vs0mg"},{"bike_id":"c47270e1-3008-442e-8931-a1b242b6949e","system_id":"levelo_inurba_marseille","lat":43.21184,"lon":5.35089,"is_reserved":false,"is_disabled":false,"rental_uris":{"android":"levelo://app?vid=c47270e1-3008-442e-8931-a1b242b6949e","ios":"levelo://app?vid=c47270e1-3008-442e-8931-a1b242b6949e"},"vehicle_type_id":"4","last_reported":1758391900,"current_range_meters":11600,"station_id":"st_cvj6sg6p6f1abm77japg","pricing_plan_id":"cebpf4jnsgd1na2vs0mg"},{"bike_id":"66190937-7373-4b54-8678-e4bbdd95552f","system_id":"levelo_inurba_marseille","lat":43.30528,"lon":5.36559,"is_reserved":false,"is_disabled":false,"rental_uris":{"android":"levelo://app?vid=66190937-7373-4b54-8678-e4bbdd95552f","ios":"levelo://app?vid=66190937-7373-4b54-8678-e4bbdd95552f"},"vehicle_type_id":"4","last_reported":1758391900,"current_range_meters":11600,"station_id":"ce4bgs12rcd13ifvqcag","pricing_plan_id":"cebpf4jnsgd1na2vs0mg"},{"bike_id":"100fc699-7bc2-45de-9e70-967069e79569","system_id":"levelo_inurba_marseille","lat":43.27952,"lon":5.41023,"is_reserved":false,"is_disabled":false,"rental_uris":{"android":"levelo://app?vid=100fc699-7bc2-45de-9e70-967069e79569","ios":"levelo://app?vid=100fc699-7bc2-45de-9e70-967069e79569"},"vehicle_type_id":"4","last_reported":1758391900,"current_range_meters":11600,"station_id":"ce4bhnp2rcd13ifvqh0g","pricing_plan_id":"cebpf4jnsgd1na2vs0mg"},{"bike_id":"59657d36-7abb-47ff-9c45-619329c760b3","system_id":"levelo_inurba_marseille","lat":43.28039,"lon":5.36937,"is_reserved":false,"is_disabled":false,"rental_uris":{"android":"levelo://app?vid=59657d36-7abb-47ff-9c45-619329c760b3","ios":"levelo://app?vid=59657d36-7abb-47ff-9c45-619329c760b3"},"vehicle_type_id":"4","last_reported":1758391900,"current_range_meters":11200,"station_id":"ce4bha12rcd13ifvqef0","pricing_plan_id":"cebpf4jnsgd1na2vs0mg"},{"bike_id":"853b2d92-0034-4ced-996f-5d682e76e100","system_id":"levelo_inurba_marseille","lat":43.297947,"lon":5.404082,"is_reserved":false,"is_disabled":false,"rental_uris":{"android":"levelo://app?vid=853b2d92-0034-4ced-996f-5d682e76e100","ios":"levelo://app?vid=853b2d92-0034-4ced-996f-5d682e76e100"},"vehicle_type_id":"4","last_reported":1758391900,"current_range_meters":11600,"station_id":"ce4bh112rcd13ifvqd90","pricing_plan_id":"cebpf4jnsgd1na2vs0mg"},{"bike_id":"b0c0240f-7562-4cd7-914b-5ba1c1b002b8","system_id":"levelo_inurba_marseille","lat":43.29801,"lon":5.381,"is_reserved":false,"is_disabled":false,"rental_uris":{"android":"levelo://app?vid=b0c0240f-7562-4cd7-914b-5ba1c1b002b8","ios":"levelo://app?vid=b0c0240f-7562-4cd7-914b-5ba1c1b002b8"},"vehicle_type_id":"4","last_reported":1758391900,"current_range_meters":11600,"station_id":"ce4bgip2rcd13ifvqbb0","pricing_plan_id":"cebpf4jnsgd1na2vs0mg"},{"bike_id":"61c58e0b-8043-4a81-b703-ad26e4c74021","system_id":"levelo_inurba_marseille","lat":43.28609,"lon":5.37058,"is_reserved":false,"is_disabled":false,"rental_uris":{"android":"levelo://app?vid=61c58e0b-8043-4a81-b703-ad26e4c74021","ios":"levelo://app?vid=61c58e0b-8043-4a81-b703-ad26e4c74021"},"vehicle_type_id":"4","last_reported":1758391900,"current_range_meters":11600,"station_id":"ce4bht12rcd13ifvqi60","pricing_plan_id":"cebpf4jnsgd1na2vs0mg"},{"bike_id":"009f6857-d064-41cf-8fcb-8b2005827672","system_id":"levelo_inurba_marseille","lat":43.241625,"lon":5.363936,"is_reserved":false,"is_disabled":false,"rental_uris":{"android":"levelo://app?vid=009f6857-d064-41cf-8fcb-8b2005827672","ios":"levelo://app?vid=009f6857-d064-41cf-8fcb-8b2005827672"},"vehicle_type_id":"4","last_reported":1758391900,"current_range_meters":11600,"station_id":"cpo36qri1sfpv3e86is0","pricing_plan_id":"cebpf4jnsgd1na2vs0mg"},{"bike_id":"11f536f5-f858-4572-b106-c5cc3146e3cd","system_id":"levelo_inurba_marseille","lat":43.25342,"lon":5.42173,"is_reserved":false,"is_disabled":false,"rental_uris":{"android":"levelo://app?vid=11f536f5-f858-4572-b106-c5cc3146e3cd","ios":"levelo://app?vid=11f536f5-f858-4572-b106-c5cc3146e3cd"},"vehicle_type_id":"4","last_reported":1758391900,"current_range_meters":11600,"station_id":"st_d2m65c5bi1j21697t3ng","pricing_plan_id":"cebpf4jnsgd1na2vs0mg"},{"bike_id":"e0350e70-2592-4f30-a29f-913a6972d66c","system_id":"levelo_inurba_marseille","lat":43.26225,"lon":5.40452,"is_reserved":false,"is_disabled":false,"rental_uris":{"android":"levelo://app?vid=e0350e70-2592-4f30-a29f-913a6972d66c","ios":"levelo://app?vid=e0350e70-2592-4f30-a29f-913a6972d66c"},"vehicle_type_id":"4","last_reported":1758391900,"current_range_meters":11600,"station_id":"ce4bhmh2rcd13ifvqgmg","pricing_plan_id":"cebpf4jnsgd1na2vs0mg"},{"bike_id":"b28737fd-09d4-4010-9930-756ec3570700","system_id":"levelo_inurba_marseille","lat":43.296879,"lon":5.37329,"is_reserved":false,"is_disabled":false,"rental_uris":{"android":"levelo://app?vid=b28737fd-09d4-4010-9930-756ec3570700","ios":"levelo://app?vid=b28737fd-09d4-4010-9930-756ec3570700"},"vehicle_type_id":"4","last_reported":1758391900,"current_range_meters":14400,"station_id":"ce4bgk12rcd13ifvqbj0","pricing_plan_id":"cebpf4jnsgd1na2vs0mg"},{"bike_id":"d54c4595-6719-4332-8af6-ed86f06a58e8","system_id":"levelo_inurba_marseille","lat":43.2955,"lon":5.42295,"is_reserved":false,"is_disabled":false,"rental_uris":{"android":"levelo://app?vid=d54c4595-6719-4332-8af6-ed86f06a58e8","ios":"levelo://app?vid=d54c4595-6719-4332-8af6-ed86f06a58e8"},"vehicle_type_id":"4","last_reported":1758391900,"current_range_meters":12000,"station_id":"ce4bhph2rcd13ifvqhdg","pricing_plan_id":"cebpf4jnsgd1na2vs0mg"},{"bike_id":"36b875f9-b72f-4071-8b6b-3cbf0836f901","system_id":"levelo_inurba_marseille","lat":43.30587,"lon":5.39357,"is_reserved":false,"is_disabled":false,"rental_uris":{"android":"levelo://app?vid=36b875f9-b72f-4071-8b6b-3cbf0836f901","ios":"levelo://app?vid=36b875f9-b72f-4071-8b6b-3cbf0836f901"},"vehicle_type_id":"4","last_reported":1758391900,"current_range_meters":11600,"station_id":"ce4bh0p2rcd13ifvqd80","pricing_plan_id":"cebpf4jnsgd1na2vs0mg"},{"bike_id":"4b2a640d-e4d0-4b44-8057-cbcfc7c8bc99","system_id":"levelo_inurba_marseille","lat":43.30141,"lon":5.37427,"is_reserved":false,"is_disabled":false,"rental_uris":{"android":"levelo://app?vid=4b2a640d-e4d0-4b44-8057-cbcfc7c8bc99","ios":"levelo://app?vid=4b2a640d-e4d0-4b44-8057-cbcfc7c8bc99"},"vehicle_type_id":"4","last_reported":1758391900,"current_range_meters":12400,"station_id":"ce4bgs92rcd13ifvqcc0","pricing_plan_id":"cebpf4jnsgd1na2vs0mg"},{"bike_id":"dcf569b1-dd71-440f-b4d4-5a08cc00abf4","system_id":"levelo_inurba_marseille","lat":43.28024,"lon":5.36931,"is_reserved":false,"is_disabled":false,"rental_uris":{"android":"levelo://app?vid=dcf569b1-dd71-440f-b4d4-5a08cc00abf4","ios":"levelo://app?vid=dcf569b1-dd71-440f-b4d4-5a08cc00abf4"},"vehicle_type_id":"4","last_reported":1758391900,"current_range_meters":12400,"station_id":"ce4bha12rcd13ifvqef0","pricing_plan_id":"cebpf4jnsgd1na2vs0mg"},{"bike_id":"0f7caa9f-1d1a-40d7-9b4a-2f8720e63681","system_id":"levelo_inurba_marseille","lat":43.3087,"lon":5.3756,"is_reserved":false,"is_disabled":false,"rental_uris":{"android":"levelo://app?vid=0f7caa9f-1d1a-40d7-9b4a-2f8720e63681","ios":"levelo://app?vid=0f7caa9f-1d1a-40d7-9b4a-2f8720e63681"},"vehicle_type_id":"4","last_reported":1758391900,"current_range_meters":12800,"station_id":"","pricing_plan_id":"cebpf4jnsgd1na2vs0mg"},{"bike_id":"213f818a-2fc2-423a-8734-2921a1895f7c","system_id":"levelo_inurba_marseille","lat":43.21191,"lon":5.3508,"is_reserved":false,"is_disabled":false,"rental_uris":{"android":"levelo://app?vid=213f818a-2fc2-423a-8734-2921a1895f7c","ios":"levelo://app?vid=213f818a-2fc2-423a-8734-2921a1895f7c"},"vehicle_type_id":"4","last_reported":1758391900,"current_range_meters":12800,"station_id":"st_cvj6sg6p6f1abm77japg","pricing_plan_id":"cebpf4jnsgd1na2vs0mg"},{"bike_id":"8ea07d81-a2c3-4a1a-ac5f-c39a8f5e57da","system_id":"levelo_inurba_marseille","lat":43.28574,"lon":5.39498,"is_reserved":false,"is_disabled":false,"rental_uris":{"android":"levelo://app?vid=8ea07d81-a2c3-4a1a-ac5f-c39a8f5e57da","ios":"levelo://app?vid=8ea07d81-a2c3-4a1a-ac5f-c39a8f5e57da"},"vehicle_type_id":"4","last_reported":1758391900,"current_range_meters":12800,"station_id":"ce4bh292rcd13ifvqdg0","pricing_plan_id":"cebpf4jnsgd1na2vs0mg"},{"bike_id":"35f9ca27-aa6e-4e19-97e6-2ba38b41480b","system_id":"levelo_inurba_marseille","lat":43.24806,"lon":5.37461,"is_reserved":false,"is_disabled":false,"rental_uris":{"android":"levelo://app?vid=35f9ca27-aa6e-4e19-97e6-2ba38b41480b","ios":"levelo://app?vid=35f9ca27-aa6e-4e19-97e6-2ba38b41480b"},"vehicle_type_id":"4","last_reported":1758391900,"current_range_meters":14000,"station_id":"ce4bhgh2rcd13ifvqfb0","pricing_plan_id":"cebpf4jnsgd1na2vs0mg"},{"bike_id":"0788839d-7e69-473e-9d8b-5495f11bdf25","system_id":"levelo_inurba_marseille","lat":43.24949,"lon":5.40487,"is_reserved":false,"is_disabled":false,"rental_uris":{"android":"levelo://app?vid=0788839d-7e69-473e-9d8b-5495f11bdf25","ios":"levelo://app?vid=0788839d-7e69-473e-9d8b-5495f11bdf25"},"vehicle_type_id":"4","last_reported":1758391900,"current_range_meters":12800,"station_id":"st_d2ngiaodas8pm72gd1h0","pricing_plan_id":"cebpf4jnsgd1na2vs0mg"},{"bike_id":"c1843d42-9f15-4235-8c7f-0c60147cb155","system_id":"levelo_inurba_marseille","lat":43.21201,"lon":5.35074,"is_reserved":false,"is_disabled":false,"rental_uris":{"android":"levelo://app?vid=c1843d42-9f15-4235-8c7f-0c60147cb155","ios":"levelo://app?vid=c1843d42-9f15-4235-8c7f-0c60147cb155"},"vehicle_type_id":"4","last_reported":1758391900,"current_range_meters":12800,"station_id":"st_cvj6sg6p6f1abm77japg","pricing_plan_id":"cebpf4jnsgd1na2vs0mg"},{"bike_id":"438ead59-de14-4fa0-a61d-03a70a4122ae","system_id":"levelo_inurba_marseille","lat":43.97269,"lon":4.89146,"is_reserved":false,"is_disabled":true,"rental_uris":{"android":"levelo://app?vid=438ead59-de14-4fa0-a61d-03a70a4122ae","ios":"levelo://app?vid=438ead59-de14-4fa0-a61d-03a70a4122ae"},"vehicle_type_id":"4","last_reported":1758391900,"current_range_meters":12800,"station_id":"","pricing_plan_id":"cebpf4jnsgd1na2vs0mg"},{"bike_id":"595e1e58-c9ac-4fc1-aa57-c82d557e8683","system_id":"levelo_inurba_marseille","lat":43.29583,"lon":5.38116,"is_reserved":false,"is_disabled":false,"rental_uris":{"android":"levelo://app?vid=595e1e58-c9ac-4fc1-aa57-c82d557e8683","ios":"levelo://app?vid=595e1e58-c9ac-4fc1-aa57-c82d557e8683"},"vehicle_type_id":"4","last_reported":1758391900,"current_range_meters":12800,"station_id":"ce4bgl12rcd13ifvqbo0","pricing_plan_id":"cebpf4jnsgd1na2vs0mg"},{"bike_id":"fe81f2e7-1c9c-467c-b21f-d961b95255b5","system_id":"levelo_inurba_marseille","lat":43.29536,"lon":5.38533,"is_reserved":false,"is_disabled":false,"rental_uris":{"android":"levelo://app?vid=fe81f2e7-1c9c-467c-b21f-d961b95255b5","ios":"levelo://app?vid=fe81f2e7-1c9c-467c-b21f-d961b95255b5"},"vehicle_type_id":"4","last_reported":1758391900,"current_range_meters":13600,"station_id":"ce4bgih2rcd13ifvqba0","pricing_plan_id":"cebpf4jnsgd1na2vs0mg"},{"bike_id":"ef88f8ab-0536-412a-b7bd-3a52751abfd5","system_id":"levelo_inurba_marseille","lat":43.29573,"lon":5.39971,"is_reserved":false,"is_disabled":false,"rental_uris":{"android":"levelo://app?vid=ef88f8ab-0536-412a-b7bd-3a52751abfd5","ios":"levelo://app?vid=ef88f8ab-0536-412a-b7bd-3a52751abfd5"},"vehicle_type_id":"4","last_reported":1758391900,"current_range_meters":16800,"station_id":"ce4bh312rcd13ifvqdj0","pricing_plan_id":"cebpf4jnsgd1na2vs0mg"},{"bike_id":"79a5239a-8ab5-49e2-adcc-19dae24a5e33","system_id":"levelo_inurba_marseille","lat":43.26552,"lon":5.37287,"is_reserved":false,"is_disabled":false,"rental_uris":{"android":"levelo://app?vid=79a5239a-8ab5-49e2-adcc-19dae24a5e33","ios":"levelo://app?vid=79a5239a-8ab5-49e2-adcc-19dae24a5e33"},"vehicle_type_id":"4","last_reported":1758391900,"current_range_meters":13600,"station_id":"ce4bhg12rcd13ifvqf70","pricing_plan_id":"cebpf4jnsgd1na2vs0mg"},{"bike_id":"cfbf3dd3-e110-4e8b-9fc2-970a4653a0c0","system_id":"levelo_inurba_marseille","lat":43.286134,"lon":5.370643,"is_reserved":false,"is_disabled":false,"rental_uris":{"android":"levelo://app?vid=cfbf3dd3-e110-4e8b-9fc2-970a4653a0c0","ios":"levelo://app?vid=cfbf3dd3-e110-4e8b-9fc2-970a4653a0c0"},"vehicle_type_id":"4","last_reported":1758391900,"current_range_meters":13600,"station_id":"ce4bht12rcd13ifvqi60","pricing_plan_id":"cebpf4jnsgd1na2vs0mg"},{"bike_id":"78ab512a-6d6c-4d68-8a1d-49c520a9178d","system_id":"levelo_inurba_marseille","lat":43.30903,"lon":5.3685,"is_reserved":false,"is_disabled":false,"rental_uris":{"android":"levelo://app?vid=78ab512a-6d6c-4d68-8a1d-49c520a9178d","ios":"levelo://app?vid=78ab512a-6d6c-4d68-8a1d-49c520a9178d"},"vehicle_type_id":"4","last_reported":1758391900,"current_range_meters":12800,"station_id":"ce4bgn92rcd13ifvqbvg","pricing_plan_id":"cebpf4jnsgd1na2vs0mg"},{"bike_id":"d5b5694f-37b9-4c10-9678-aadba0159273","system_id":"levelo_inurba_marseille","lat":43.30149,"lon":5.37387,"is_reserved":false,"is_disabled":false,"rental_uris":{"android":"levelo://app?vid=d5b5694f-37b9-4c10-9678-aadba0159273","ios":"levelo://app?vid=d5b5694f-37b9-4c10-9678-aadba0159273"},"vehicle_type_id":"4","last_reported":1758391900,"current_range_meters":13600,"station_id":"ce4bgs92rcd13ifvqcc0","pricing_plan_id":"cebpf4jnsgd1na2vs0mg"},{"bike_id":"8c1dc0dc-1e6d-4716-86f0-efd2beb7da2d","system_id":"levelo_inurba_marseille","lat":43.29632,"lon":5.40595,"is_reserved":false,"is_disabled":false,"rental_uris":{"android":"levelo://app?vid=8c1dc0dc-1e6d-4716-86f0-efd2beb7da2d","ios":"levelo://app?vid=8c1dc0dc-1e6d-4716-86f0-efd2beb7da2d"},"vehicle_type_id":"4","last_reported":1758391900,"current_range_meters":13600,"station_id":"ce4bh0h2rcd13ifvqd60","pricing_plan_id":"cebpf4jnsgd1na2vs0mg"},{"bike_id":"8e6747cf-b8c6-4cd7-bba9-81728939e96e","system_id":"levelo_inurba_marseille","lat":43.27851,"lon":5.40698,"is_reserved":false,"is_disabled":true,"rental_uris":{"android":"levelo://app?vid=8e6747cf-b8c6-4cd7-bba9-81728939e96e","ios":"levelo://app?vid=8e6747cf-b8c6-4cd7-bba9-81728939e96e"},"vehicle_type_id":"4","last_reported":1758391900,"current_range_meters":13600,"station_id":"ce4bhnh2rcd13ifvqgtg","pricing_plan_id":"cebpf4jnsgd1na2vs0mg"},{"bike_id":"55d1bc08-fd54-4a82-afc7-2adcaa7b1c4e","system_id":"levelo_inurba_marseille","lat":43.30024,"lon":5.37709,"is_reserved":false,"is_disabled":false,"rental_uris":{"android":"levelo://app?vid=55d1bc08-fd54-4a82-afc7-2adcaa7b1c4e","ios":"levelo://app?vid=55d1bc08-fd54-4a82-afc7-2adcaa7b1c4e"},"vehicle_type_id":"4","last_reported":1758391900,"current_range_meters":13600,"station_id":"","pricing_plan_id":"cebpf4jnsgd1na2vs0mg"},{"bike_id":"f7f4c7c0-1a95-4eb1-b79f-326276e52122","system_id":"levelo_inurba_marseille","lat":43.29012,"lon":5.38128,"is_reserved":false,"is_disabled":false,"rental_uris":{"android":"levelo://app?vid=f7f4c7c0-1a95-4eb1-b79f-326276e52122","ios":"levelo://app?vid=f7f4c7c0-1a95-4eb1-b79f-326276e52122"},"vehicle_type_id":"4","last_reported":1758391900,"current_range_meters":13600,"station_id":"ce4bh4p2rcd13ifvqe1g","pricing_plan_id":"cebpf4jnsgd1na2vs0mg"},{"bike_id":"2d82061a-a240-43d1-93a6-ab71cf777b3c","system_id":"levelo_inurba_marseille","lat":43.21157,"lon":5.35101,"is_reserved":false,"is_disabled":false,"rental_uris":{"android":"levelo://app?vid=2d82061a-a240-43d1-93a6-ab71cf777b3c","ios":"levelo://app?vid=2d82061a-a240-43d1-93a6-ab71cf777b3c"},"vehicle_type_id":"4","last_reported":1758391900,"current_range_meters":13600,"station_id":"st_cvj6sg6p6f1abm77japg","pricing_plan_id":"cebpf4jnsgd1na2vs0mg"},{"bike_id":"1c78702c-5765-4795-95b2-43fe376fa445","system_id":"levelo_inurba_marseille","lat":43.306118,"lon":5.393391,"is_reserved":false,"is_disabled":false,"rental_uris":{"android":"levelo://app?vid=1c78702c-5765-4795-95b2-43fe376fa445","ios":"levelo://app?vid=1c78702c-5765-4795-95b2-43fe376fa445"},"vehicle_type_id":"4","last_reported":1758391900,"current_range_meters":13600,"station_id":"ce4bh0p2rcd13ifvqd80","pricing_plan_id":"cebpf4jnsgd1na2vs0mg"},{"bike_id":"ccfba528-604f-4cd8-b4c4-0fe09ce9292c","system_id":"levelo_inurba_marseille","lat":43.31328,"lon":5.39696,"is_reserved":false,"is_disabled":false,"rental_uris":{"android":"levelo://app?vid=ccfba528-604f-4cd8-b4c4-0fe09ce9292c","ios":"levelo://app?vid=ccfba528-604f-4cd8-b4c4-0fe09ce9292c"},"vehicle_type_id":"4","last_reported":1758391900,"current_range_meters":13600,"station_id":"ce4bgvp2rcd13ifvqcu0","pricing_plan_id":"cebpf4jnsgd1na2vs0mg"},{"bike_id":"32161537-7a92-4238-84bb-ce8e71a38c73","system_id":"levelo_inurba_marseille","lat":43.29513,"lon":5.3941,"is_reserved":false,"is_disabled":false,"rental_uris":{"android":"levelo://app?vid=32161537-7a92-4238-84bb-ce8e71a38c73","ios":"levelo://app?vid=32161537-7a92-4238-84bb-ce8e71a38c73"},"vehicle_type_id":"4","last_reported":1758391900,"current_range_meters":16400,"station_id":"ce4bh292rcd13ifvqdf0","pricing_plan_id":"cebpf4jnsgd1na2vs0mg"},{"bike_id":"a07a513e-e5a9-4481-8592-d991379bc662","system_id":"levelo_inurba_marseille","lat":43.337536,"lon":5.374536,"is_reserved":false,"is_disabled":false,"rental_uris":{"android":"levelo://app?vid=a07a513e-e5a9-4481-8592-d991379bc662","ios":"levelo://app?vid=a07a513e-e5a9-4481-8592-d991379bc662"},"vehicle_type_id":"4","last_reported":1758391900,"current_range_meters":13600,"station_id":"","pricing_plan_id":"cebpf4jnsgd1na2vs0mg"},{"bike_id":"12cde005-a0d0-41c8-aedf-50f7e90b7a39","system_id":"levelo_inurba_marseille","lat":43.29305,"lon":5.37164,"is_reserved":false,"is_disabled":false,"rental_uris":{"android":"levelo://app?vid=12cde005-a0d0-41c8-aedf-50f7e90b7a39","ios":"levelo://app?vid=12cde005-a0d0-41c8-aedf-50f7e90b7a39"},"vehicle_type_id":"4","last_reported":1758391900,"current_range_meters":14000,"station_id":"ce4bgh92rcd13ifvqb40","pricing_plan_id":"cebpf4jnsgd1na2vs0mg"},{"bike_id":"76fbbde8-bed0-487c-8f23-c44a34d4bb93","system_id":"levelo_inurba_marseille","lat":43.28687,"lon":5.37936,"is_reserved":false,"is_disabled":false,"rental_uris":{"android":"levelo://app?vid=76fbbde8-bed0-487c-8f23-c44a34d4bb93","ios":"levelo://app?vid=76fbbde8-bed0-487c-8f23-c44a34d4bb93"},"vehicle_type_id":"4","last_reported":1758391900,"current_range_meters":14000,"station_id":"ce4bh9p2rcd13ifvqec0","pricing_plan_id":"cebpf4jnsgd1na2vs0mg"},{"bike_id":"d701ffb6-d985-42e1-8545-ee350fa0185e","system_id":"levelo_inurba_marseille","lat":43.28567,"lon":5.37152,"is_reserved":false,"is_disabled":true,"rental_uris":{"android":"levelo://app?vid=d701ffb6-d985-42e1-8545-ee350fa0185e","ios":"levelo://app?vid=d701ffb6-d985-42e1-8545-ee350fa0185e"},"vehicle_type_id":"4","last_reported":1758391900,"current_range_meters":14000,"station_id":"ce4bht12rcd13ifvqi60","pricing_plan_id":"cebpf4jnsgd1na2vs0mg"},{"bike_id":"97893650-9a0c-47e4-baee-ec60bbc1b06d","system_id":"levelo_inurba_marseille","lat":43.25731,"lon":5.41096,"is_reserved":false,"is_disabled":true,"rental_uris":{"android":"levelo://app?vid=97893650-9a0c-47e4-baee-ec60bbc1b06d","ios":"levelo://app?vid=97893650-9a0c-47e4-baee-ec60bbc1b06d"},"vehicle_type_id":"4","last_reported":1758391900,"current_range_meters":14000,"station_id":"ce4bhkp2rcd13ifvqgd0","pricing_plan_id":"cebpf4jnsgd1na2vs0mg"},{"bike_id":"d21a982d-81dd-4211-a419-5c1609cc41c9","system_id":"levelo_inurba_marseille","lat":43.29982,"lon":5.3852,"is_reserved":false,"is_disabled":false,"rental_uris":{"android":"levelo://app?vid=d21a982d-81dd-4211-a419-5c1609cc41c9","ios":"levelo://app?vid=d21a982d-81dd-4211-a419-5c1609cc41c9"},"vehicle_type_id":"4","last_reported":1758391900,"current_range_meters":14000,"station_id":"ce4bgj92rcd13ifvqbd0","pricing_plan_id":"cebpf4jnsgd1na2vs0mg"},{"bike_id":"2015c1f2-c286-408a-b930-50d865ce0bb9","system_id":"levelo_inurba_marseille","lat":43.21191,"lon":5.3509,"is_reserved":false,"is_disabled":false,"rental_uris":{"android":"levelo://app?vid=2015c1f2-c286-408a-b930-50d865ce0bb9","ios":"levelo://app?vid=2015c1f2-c286-408a-b930-50d865ce0bb9"},"vehicle_type_id":"4","last_reported":1758391900,"current_range_meters":14000,"station_id":"st_cvj6sg6p6f1abm77japg","pricing_plan_id":"cebpf4jnsgd1na2vs0mg"},{"bike_id":"c3ff8149-0449-4116-a8f8-76af61caa29b","system_id":"levelo_inurba_marseille","lat":43.29541,"lon":5.37503,"is_reserved":false,"is_disabled":false,"rental_uris":{"android":"levelo://app?vid=c3ff8149-0449-4116-a8f8-76af61caa29b","ios":"levelo://app?vid=c3ff8149-0449-4116-a8f8-76af61caa29b"},"vehicle_type_id":"4","last_reported":1758391900,"current_range_meters":14400,"station_id":"ce4bgkp2rcd13ifvqbmg","pricing_plan_id":"cebpf4jnsgd1na2vs0mg"},{"bike_id":"68adab37-f5ad-4072-b58a-fe6c68285ca6","system_id":"levelo_inurba_marseille","lat":43.3061,"lon":5.37674,"is_reserved":false,"is_disabled":false,"rental_uris":{"android":"levelo://app?vid=68adab37-f5ad-4072-b58a-fe6c68285ca6","ios":"levelo://app?vid=68adab37-f5ad-4072-b58a-fe6c68285ca6"},"vehicle_type_id":"4","last_reported":1758391900,"current_range_meters":14400,"station_id":"","pricing_plan_id":"cebpf4jnsgd1na2vs0mg"},{"bike_id":"88282de9-b169-4668-a617-00b53be0a3ea","system_id":"levelo_inurba_marseille","lat":43.29302,"lon":5.37166,"is_reserved":false,"is_disabled":false,"rental_uris":{"android":"levelo://app?vid=88282de9-b169-4668-a617-00b53be0a3ea","ios":"levelo://app?vid=88282de9-b169-4668-a617-00b53be0a3ea"},"vehicle_type_id":"4","last_reported":1758391900,"current_range_meters":14400,"station_id":"ce4bgh92rcd13ifvqb40","pricing_plan_id":"cebpf4jnsgd1na2vs0mg"},{"bike_id":"b6ade922-6531-42b0-b09e-d643a04a1ff8","system_id":"levelo_inurba_marseille","lat":43.246549,"lon":5.381549,"is_reserved":false,"is_disabled":false,"rental_uris":{"android":"levelo://app?vid=b6ade922-6531-42b0-b09e-d643a04a1ff8","ios":"levelo://app?vid=b6ade922-6531-42b0-b09e-d643a04a1ff8"},"vehicle_type_id":"4","last_reported":1758391900,"current_range_meters":14400,"station_id":"ce4bhih2rcd13ifvqfr0","pricing_plan_id":"cebpf4jnsgd1na2vs0mg"},{"bike_id":"8f90c6e9-c2a0-414b-a280-ed01b517d1e8","system_id":"levelo_inurba_marseille","lat":43.21177,"lon":5.35076,"is_reserved":false,"is_disabled":false,"rental_uris":{"android":"levelo://app?vid=8f90c6e9-c2a0-414b-a280-ed01b517d1e8","ios":"levelo://app?vid=8f90c6e9-c2a0-414b-a280-ed01b517d1e8"},"vehicle_type_id":"4","last_reported":1758391900,"current_range_meters":14400,"station_id":"st_cvj6sg6p6f1abm77japg","pricing_plan_id":"cebpf4jnsgd1na2vs0mg"},{"bike_id":"82049ca9-159a-46d5-8e53-d2f45659ee65","system_id":"levelo_inurba_marseille","lat":43.2953,"lon":5.38547,"is_reserved":false,"is_disabled":false,"rental_uris":{"android":"levelo://app?vid=82049ca9-159a-46d5-8e53-d2f45659ee65","ios":"levelo://app?vid=82049ca9-159a-46d5-8e53-d2f45659ee65"},"vehicle_type_id":"4","last_reported":1758391900,"current_range_meters":14400,"station_id":"ce4bgih2rcd13ifvqba0","pricing_plan_id":"cebpf4jnsgd1na2vs0mg"},{"bike_id":"534ff5b4-9e83-493b-9063-104ef0af4212","system_id":"levelo_inurba_marseille","lat":43.27988,"lon":5.41673,"is_reserved":false,"is_disabled":true,"rental_uris":{"android":"levelo://app?vid=534ff5b4-9e83-493b-9063-104ef0af4212","ios":"levelo://app?vid=534ff5b4-9e83-493b-9063-104ef0af4212"},"vehicle_type_id":"4","last_reported":1758391900,"current_range_meters":14400,"station_id":"ce4bho12rcd13ifvqh1g","pricing_plan_id":"cebpf4jnsgd1na2vs0mg"},{"bike_id":"437f982a-c8b9-4920-b22b-9e83eeff41c6","system_id":"levelo_inurba_marseille","lat":43.30646,"lon":5.40079,"is_reserved":false,"is_disabled":false,"rental_uris":{"android":"levelo://app?vid=437f982a-c8b9-4920-b22b-9e83eeff41c6","ios":"levelo://app?vid=437f982a-c8b9-4920-b22b-9e83eeff41c6"},"vehicle_type_id":"4","last_reported":1758391900,"current_range_meters":14400,"station_id":"ce4bh112rcd13ifvqda0","pricing_plan_id":"cebpf4jnsgd1na2vs0mg"},{"bike_id":"087fc7d2-239e-4df8-87ba-f9b498dffd76","system_id":"levelo_inurba_marseille","lat":43.29021,"lon":5.38144,"is_reserved":false,"is_disabled":false,"rental_uris":{"android":"levelo://app?vid=087fc7d2-239e-4df8-87ba-f9b498dffd76","ios":"levelo://app?vid=087fc7d2-239e-4df8-87ba-f9b498dffd76"},"vehicle_type_id":"4","last_reported":1758391900,"current_range_meters":14400,"station_id":"ce4bh4p2rcd13ifvqe1g","pricing_plan_id":"cebpf4jnsgd1na2vs0mg"},{"bike_id":"b7a73876-adfc-4d54-8b7d-f0317606fba1","system_id":"levelo_inurba_marseille","lat":43.31075,"lon":5.38351,"is_reserved":false,"is_disabled":false,"rental_uris":{"android":"levelo://app?vid=b7a73876-adfc-4d54-8b7d-f0317606fba1","ios":"levelo://app?vid=b7a73876-adfc-4d54-8b7d-f0317606fba1"},"vehicle_type_id":"4","last_reported":1758391900,"current_range_meters":14800,"station_id":"ce4bgv92rcd13ifvqcr0","pricing_plan_id":"cebpf4jnsgd1na2vs0mg"},{"bike_id":"94bffb54-cb82-4459-b525-982dc5ae41bb","system_id":"levelo_inurba_marseille","lat":43.28349,"lon":5.38109,"is_reserved":false,"is_disabled":false,"rental_uris":{"android":"levelo://app?vid=94bffb54-cb82-4459-b525-982dc5ae41bb","ios":"levelo://app?vid=94bffb54-cb82-4459-b525-982dc5ae41bb"},"vehicle_type_id":"4","last_reported":1758391900,"current_range_meters":14800,"station_id":"ce4bh412rcd13ifvqdr0","pricing_plan_id":"cebpf4jnsgd1na2vs0mg"},{"bike_id":"9637c146-59d7-436a-a4f3-e8022fe36949","system_id":"levelo_inurba_marseille","lat":43.21195,"lon":5.35072,"is_reserved":false,"is_disabled":false,"rental_uris":{"android":"levelo://app?vid=9637c146-59d7-436a-a4f3-e8022fe36949","ios":"levelo://app?vid=9637c146-59d7-436a-a4f3-e8022fe36949"},"vehicle_type_id":"4","last_reported":1758391900,"current_range_meters":14800,"station_id":"st_cvj6sg6p6f1abm77japg","pricing_plan_id":"cebpf4jnsgd1na2vs0mg"},{"bike_id":"4d283c78-69d8-44f3-96d8-001edad80651","system_id":"levelo_inurba_marseille","lat":43.29092,"lon":5.38124,"is_reserved":false,"is_disabled":false,"rental_uris":{"android":"levelo://app?vid=4d283c78-69d8-44f3-96d8-001edad80651","ios":"levelo://app?vid=4d283c78-69d8-44f3-96d8-001edad80651"},"vehicle_type_id":"4","last_reported":1758391900,"current_range_meters":14800,"station_id":"ce4bh512rcd13ifvqe2g","pricing_plan_id":"cebpf4jnsgd1na2vs0mg"},{"bike_id":"ffbb8dfb-c741-4b3e-bfd1-3094165c9f22","system_id":"levelo_inurba_marseille","lat":43.2707,"lon":5.42284,"is_reserved":false,"is_disabled":false,"rental_uris":{"android":"levelo://app?vid=ffbb8dfb-c741-4b3e-bfd1-3094165c9f22","ios":"levelo://app?vid=ffbb8dfb-c741-4b3e-bfd1-3094165c9f22"},"vehicle_type_id":"4","last_reported":1758391900,"current_range_meters":14800,"station_id":"ce4bhk92rcd13ifvqgb0","pricing_plan_id":"cebpf4jnsgd1na2vs0mg"},{"bike_id":"de23a2b3-ca67-46cd-8431-70001e9699d8","system_id":"levelo_inurba_marseille","lat":43.284172,"lon":5.375048,"is_reserved":false,"is_disabled":false,"rental_uris":{"android":"levelo://app?vid=de23a2b3-ca67-46cd-8431-70001e9699d8","ios":"levelo://app?vid=de23a2b3-ca67-46cd-8431-70001e9699d8"},"vehicle_type_id":"4","last_reported":1758391900,"current_range_meters":14800,"station_id":"ce4bh412rcd13ifvqds0","pricing_plan_id":"cebpf4jnsgd1na2vs0mg"},{"bike_id":"dc3a8ae2-ac24-4796-9b4f-5b74e767939a","system_id":"levelo_inurba_marseille","lat":43.30135,"lon":5.38816,"is_reserved":false,"is_disabled":false,"rental_uris":{"android":"levelo://app?vid=dc3a8ae2-ac24-4796-9b4f-5b74e767939a","ios":"levelo://app?vid=dc3a8ae2-ac24-4796-9b4f-5b74e767939a"},"vehicle_type_id":"4","last_reported":1758391900,"current_range_meters":14800,"station_id":"ce4bghh2rcd13ifvqb60","pricing_plan_id":"cebpf4jnsgd1na2vs0mg"},{"bike_id":"481ea9eb-8a37-40ee-a3f8-b09048d5ce2f","system_id":"levelo_inurba_marseille","lat":43.29528,"lon":5.39036,"is_reserved":false,"is_disabled":false,"rental_uris":{"android":"levelo://app?vid=481ea9eb-8a37-40ee-a3f8-b09048d5ce2f","ios":"levelo://app?vid=481ea9eb-8a37-40ee-a3f8-b09048d5ce2f"},"vehicle_type_id":"4","last_reported":1758391900,"current_range_meters":14400,"station_id":"ce4bh3p2rcd13ifvqdp0","pricing_plan_id":"cebpf4jnsgd1na2vs0mg"},{"bike_id":"5319fae8-be79-4d87-b5d0-b333eba32d6a","system_id":"levelo_inurba_marseille","lat":43.211816,"lon":5.350923,"is_reserved":false,"is_disabled":false,"rental_uris":{"android":"levelo://app?vid=5319fae8-be79-4d87-b5d0-b333eba32d6a","ios":"levelo://app?vid=5319fae8-be79-4d87-b5d0-b333eba32d6a"},"vehicle_type_id":"4","last_reported":1758391900,"current_range_meters":15200,"station_id":"st_cvj6sg6p6f1abm77japg","pricing_plan_id":"cebpf4jnsgd1na2vs0mg"},{"bike_id":"051a86e5-0589-4514-9f36-2a24e05ee70c","system_id":"levelo_inurba_marseille","lat":43.29527,"lon":5.38546,"is_reserved":false,"is_disabled":false,"rental_uris":{"android":"levelo://app?vid=051a86e5-0589-4514-9f36-2a24e05ee70c","ios":"levelo://app?vid=051a86e5-0589-4514-9f36-2a24e05ee70c"},"vehicle_type_id":"4","last_reported":1758391900,"current_range_meters":15200,"station_id":"ce4bgih2rcd13ifvqba0","pricing_plan_id":"cebpf4jnsgd1na2vs0mg"},{"bike_id":"5d633773-c86d-4663-ae55-dfb6f9eda023","system_id":"levelo_inurba_marseille","lat":43.2593,"lon":5.40879,"is_reserved":false,"is_disabled":false,"rental_uris":{"android":"levelo://app?vid=5d633773-c86d-4663-ae55-dfb6f9eda023","ios":"levelo://app?vid=5d633773-c86d-4663-ae55-dfb6f9eda023"},"vehicle_type_id":"4","last_reported":1758391900,"current_range_meters":15200,"station_id":"","pricing_plan_id":"cebpf4jnsgd1na2vs0mg"},{"bike_id":"43d57fd4-047e-4ac8-97e5-ec9b96239472","system_id":"levelo_inurba_marseille","lat":43.33096,"lon":5.39764,"is_reserved":false,"is_disabled":false,"rental_uris":{"android":"levelo://app?vid=43d57fd4-047e-4ac8-97e5-ec9b96239472","ios":"levelo://app?vid=43d57fd4-047e-4ac8-97e5-ec9b96239472"},"vehicle_type_id":"4","last_reported":1758391900,"current_range_meters":15200,"station_id":"","pricing_plan_id":"cebpf4jnsgd1na2vs0mg"},{"bike_id":"d801b961-8b0f-429d-9d3e-817010448aec","system_id":"levelo_inurba_marseille","lat":43.337632,"lon":5.374376,"is_reserved":false,"is_disabled":false,"rental_uris":{"android":"levelo://app?vid=d801b961-8b0f-429d-9d3e-817010448aec","ios":"levelo://app?vid=d801b961-8b0f-429d-9d3e-817010448aec"},"vehicle_type_id":"4","last_reported":1758391900,"current_range_meters":16000,"station_id":"","pricing_plan_id":"cebpf4jnsgd1na2vs0mg"},{"bike_id":"354c5f36-9a04-4506-9c1d-70c806757701","system_id":"levelo_inurba_marseille","lat":43.28441,"lon":5.391839,"is_reserved":false,"is_disabled":false,"rental_uris":{"android":"levelo://app?vid=354c5f36-9a04-4506-9c1d-70c806757701","ios":"levelo://app?vid=354c5f36-9a04-4506-9c1d-70c806757701"},"vehicle_type_id":"4","last_reported":1758391900,"current_range_meters":16000,"station_id":"ce4bhoh2rcd13ifvqh5g","pricing_plan_id":"cebpf4jnsgd1na2vs0mg"},{"bike_id":"ab296eb7-cbcb-405b-9bac-d2f60891c835","system_id":"levelo_inurba_marseille","lat":43.29972,"lon":5.38496,"is_reserved":false,"is_disabled":false,"rental_uris":{"android":"levelo://app?vid=ab296eb7-cbcb-405b-9bac-d2f60891c835","ios":"levelo://app?vid=ab296eb7-cbcb-405b-9bac-d2f60891c835"},"vehicle_type_id":"4","last_reported":1758391900,"current_range_meters":16000,"station_id":"ce4bgj92rcd13ifvqbd0","pricing_plan_id":"cebpf4jnsgd1na2vs0mg"},{"bike_id":"a3797e3d-07a3-441c-8434-4c614eae3326","system_id":"levelo_inurba_marseille","lat":43.25516,"lon":5.37617,"is_reserved":false,"is_disabled":false,"rental_uris":{"android":"levelo://app?vid=a3797e3d-07a3-441c-8434-4c614eae3326","ios":"levelo://app?vid=a3797e3d-07a3-441c-8434-4c614eae3326"},"vehicle_type_id":"4","last_reported":1758391900,"current_range_meters":16000,"station_id":"ce4bhh12rcd13ifvqff0","pricing_plan_id":"cebpf4jnsgd1na2vs0mg"},{"bike_id":"eb103872-17f2-4b2f-a1c9-35607b3611bc","system_id":"levelo_inurba_marseille","lat":43.30151,"lon":5.38109,"is_reserved":false,"is_disabled":false,"rental_uris":{"android":"levelo://app?vid=eb103872-17f2-4b2f-a1c9-35607b3611bc","ios":"levelo://app?vid=eb103872-17f2-4b2f-a1c9-35607b3611bc"},"vehicle_type_id":"4","last_reported":1758391900,"current_range_meters":16000,"station_id":"ce4bgjp2rcd13ifvqbh0","pricing_plan_id":"cebpf4jnsgd1na2vs0mg"},{"bike_id":"6e9042cf-83d9-4b58-970e-09a2949ba46c","system_id":"levelo_inurba_marseille","lat":43.29599,"lon":5.381,"is_reserved":false,"is_disabled":false,"rental_uris":{"android":"levelo://app?vid=6e9042cf-83d9-4b58-970e-09a2949ba46c","ios":"levelo://app?vid=6e9042cf-83d9-4b58-970e-09a2949ba46c"},"vehicle_type_id":"4","last_reported":1758391900,"current_range_meters":16000,"station_id":"ce4bgl12rcd13ifvqbo0","pricing_plan_id":"cebpf4jnsgd1na2vs0mg"},{"bike_id":"385061a2-878d-430b-8386-11ecde15d592","system_id":"levelo_inurba_marseille","lat":43.23564,"lon":5.36147,"is_reserved":false,"is_disabled":false,"rental_uris":{"android":"levelo://app?vid=385061a2-878d-430b-8386-11ecde15d592","ios":"levelo://app?vid=385061a2-878d-430b-8386-11ecde15d592"},"vehicle_type_id":"4","last_reported":1758391900,"current_range_meters":16000,"station_id":"","pricing_plan_id":"cebpf4jnsgd1na2vs0mg"},{"bike_id":"6b165080-53ca-4468-b9ba-d53336830980","system_id":"levelo_inurba_marseille","lat":43.3107,"lon":5.38355,"is_reserved":false,"is_disabled":false,"rental_uris":{"android":"levelo://app?vid=6b165080-53ca-4468-b9ba-d53336830980","ios":"levelo://app?vid=6b165080-53ca-4468-b9ba-d53336830980"},"vehicle_type_id":"4","last_reported":1758391900,"current_range_meters":16400,"station_id":"ce4bgv92rcd13ifvqcr0","pricing_plan_id":"cebpf4jnsgd1na2vs0mg"},{"bike_id":"118b6d7e-3328-44e2-ae13-d04071b8c00f","system_id":"levelo_inurba_marseille","lat":43.21188,"lon":5.35082,"is_reserved":false,"is_disabled":false,"rental_uris":{"android":"levelo://app?vid=118b6d7e-3328-44e2-ae13-d04071b8c00f","ios":"levelo://app?vid=118b6d7e-3328-44e2-ae13-d04071b8c00f"},"vehicle_type_id":"4","last_reported":1758391900,"current_range_meters":16400,"station_id":"st_cvj6sg6p6f1abm77japg","pricing_plan_id":"cebpf4jnsgd1na2vs0mg"},{"bike_id":"3284bfeb-86d6-44e4-a66d-cd2579902edf","system_id":"levelo_inurba_marseille","lat":43.29268,"lon":5.38441,"is_reserved":false,"is_disabled":false,"rental_uris":{"android":"levelo://app?vid=3284bfeb-86d6-44e4-a66d-cd2579902edf","ios":"levelo://app?vid=3284bfeb-86d6-44e4-a66d-cd2579902edf"},"vehicle_type_id":"4","last_reported":1758391900,"current_range_meters":16400,"station_id":"ce4bh692rcd13ifvqea0","pricing_plan_id":"cebpf4jnsgd1na2vs0mg"},{"bike_id":"81f07bbe-cad7-4297-9e0d-b2380f297505","system_id":"levelo_inurba_marseille","lat":43.2989,"lon":5.38914,"is_reserved":false,"is_disabled":false,"rental_uris":{"android":"levelo://app?vid=81f07bbe-cad7-4297-9e0d-b2380f297505","ios":"levelo://app?vid=81f07bbe-cad7-4297-9e0d-b2380f297505"},"vehicle_type_id":"4","last_reported":1758391900,"current_range_meters":16400,"station_id":"ce4bh392rcd13ifvqdl0","pricing_plan_id":"cebpf4jnsgd1na2vs0mg"},{"bike_id":"15609c4e-f589-422c-9a62-c8d2d4eb92fd","system_id":"levelo_inurba_marseille","lat":43.33031,"lon":5.3905,"is_reserved":false,"is_disabled":false,"rental_uris":{"android":"levelo://app?vid=15609c4e-f589-422c-9a62-c8d2d4eb92fd","ios":"levelo://app?vid=15609c4e-f589-422c-9a62-c8d2d4eb92fd"},"vehicle_type_id":"4","last_reported":1758391900,"current_range_meters":16400,"station_id":"ce4bhr92rcd13ifvqhrg","pricing_plan_id":"cebpf4jnsgd1na2vs0mg"},{"bike_id":"b3fe673d-5eb2-48b9-b30d-5bb54294d7e6","system_id":"levelo_inurba_marseille","lat":43.32291,"lon":5.38265,"is_reserved":false,"is_disabled":false,"rental_uris":{"android":"levelo://app?vid=b3fe673d-5eb2-48b9-b30d-5bb54294d7e6","ios":"levelo://app?vid=b3fe673d-5eb2-48b9-b30d-5bb54294d7e6"},"vehicle_type_id":"4","last_reported":1758391900,"current_range_meters":16400,"station_id":"ce4bhr12rcd13ifvqhqg","pricing_plan_id":"cebpf4jnsgd1na2vs0mg"},{"bike_id":"eb0a5c3c-6d2d-4047-97d7-714b54e2c622","system_id":"levelo_inurba_marseille","lat":43.284049,"lon":5.37511,"is_reserved":false,"is_disabled":false,"rental_uris":{"android":"levelo://app?vid=eb0a5c3c-6d2d-4047-97d7-714b54e2c622","ios":"levelo://app?vid=eb0a5c3c-6d2d-4047-97d7-714b54e2c622"},"vehicle_type_id":"4","last_reported":1758391900,"current_range_meters":16800,"station_id":"ce4bh412rcd13ifvqds0","pricing_plan_id":"cebpf4jnsgd1na2vs0mg"},{"bike_id":"87e6a2ef-cabb-4d23-a9b1-ec4f24b0d81b","system_id":"levelo_inurba_marseille","lat":43.30526,"lon":5.36724,"is_reserved":false,"is_disabled":false,"rental_uris":{"android":"levelo://app?vid=87e6a2ef-cabb-4d23-a9b1-ec4f24b0d81b","ios":"levelo://app?vid=87e6a2ef-cabb-4d23-a9b1-ec4f24b0d81b"},"vehicle_type_id":"4","last_reported":1758391900,"current_range_meters":16800,"station_id":"ce4bgrp2rcd13ifvqc9g","pricing_plan_id":"cebpf4jnsgd1na2vs0mg"},{"bike_id":"ae5ccd80-2896-4733-9148-6522e9bbfe0c","system_id":"levelo_inurba_marseille","lat":43.2255,"lon":5.4164,"is_reserved":false,"is_disabled":true,"rental_uris":{"android":"levelo://app?vid=ae5ccd80-2896-4733-9148-6522e9bbfe0c","ios":"levelo://app?vid=ae5ccd80-2896-4733-9148-6522e9bbfe0c"},"vehicle_type_id":"4","last_reported":1758391900,"current_range_meters":16800,"station_id":"st_d2o4gvlbi1j2169b742g","pricing_plan_id":"cebpf4jnsgd1na2vs0mg"},{"bike_id":"0ae20310-363d-4ecb-88f7-1f38bed8aa53","system_id":"levelo_inurba_marseille","lat":43.25726,"lon":5.41111,"is_reserved":false,"is_disabled":false,"rental_uris":{"android":"levelo://app?vid=0ae20310-363d-4ecb-88f7-1f38bed8aa53","ios":"levelo://app?vid=0ae20310-363d-4ecb-88f7-1f38bed8aa53"},