{"last_updated":1734174448,"ttl":60,"version":"2.2","data":{"bikes":[{"bike_id":"45c22bfb-3859-46ca-bbdd-b43970628095","system_id":"levelo_inurba_marseille","lat":43.23185,"lon":5.39996,"is_reserved":false,"is_disabled":false,"rental_uris":{"android":"levelo://app?vid=45c22bfb-3859-46ca-bbdd-b43970628095","ios":"levelo://app?vid=45c22bfb-3859-46ca-bbdd-b43970628095"},"vehicle_type_id":"4","last_reported":1734174448,"current_range_meters":22800,"station_id":"ce4bhn12rcd13ifvqgqg","pricing_plan_id":"cebpf4jnsgd1na2vs0mg"},{"bike_id":"3e5d99b9-1aaf-48b9-b5fb-fb7a0b5b1ba5","system_id":"levelo_inurba_marseille","lat":43.29042,"lon":5.39247,"is_reserved":false,"is_disabled":true,"rental_uris":{"android":"levelo://app?vid=3e5d99b9-1aaf-48b9-b5fb-fb7a0b5b1ba5","ios":"levelo://app?vid=3e5d99b9-1aaf-48b9-b5fb-fb7a0b5b1ba5"},"vehicle_type_id":"4","last_reported":1734174448,"current_range_meters":0,"station_id":"","pricing_plan_id":"cebpf4jnsgd1na2vs0mg"},{"bike_id":"af33395a-4aa6-4975-b01b-9c2e20fc584e","system_id":"levelo_inurba_marseille","lat":43.27914,"lon":5.39581,"is_reserved":false,"is_disabled":false,"rental_uris":{"android":"levelo://app?vid=af33395a-4aa6-4975-b01b-9c2e20fc584e","ios":"levelo://app?vid=af33395a-4aa6-4975-b01b-9c2e20fc584e"},"vehicle_type_id":"4","last_reported":1734174448,"current_range_meters":30400,"station_id":"ce4bhf92rcd13ifvqf40","pricing_plan_id":"cebpf4jnsgd1na2vs0mg"},{"bike_id":"52885a4e-74fa-4f10-a6f9-bc302ba84385","system_id":"levelo_inurba_marseille","lat":43.26192,"lon":5.37453,"is_reserved":false,"is_disabled":false,"rental_uris":{"android":"levelo://app?vid=52885a4e-74fa-4f10-a6f9-bc302ba84385","ios":"levelo://app?vid=52885a4e-74fa-4f10-a6f9-bc302ba84385"},"vehicle_type_id":"4","last_reported":1734174448,"current_range_meters":36400,"station_id":"ce4bhgp2rcd13ifvqfc0","pricing_plan_id":"cebpf4jnsgd1na2vs0mg"},{"bike_id":"c7de71a1-0ff8-4d5a-93fa-40f456754ca0","system_id":"levelo_inurba_marseille","lat":43.26554,"lon":5.37288,"is_reserved":false,"is_disabled":false,"rental_uris":{"android":"levelo://app?vid=c7de71a1-0ff8-4d5a-93fa-40f456754ca0","ios":"levelo://app?vid=c7de71a1-0ff8-4d5a-93fa-40f456754ca0"},"vehicle_type_id":"4","last_reported":1734174448,"current_range_meters":28400,"station_id":"ce4bhg12rcd13ifvqf70","pricing_plan_id":"cebpf4jnsgd1na2vs0mg"},{"bike_id":"548b71d6-57f8-4fef-ad05-d9f3c9d122d8","system_id":"levelo_inurba_marseille","lat":43.23161,"lon":5.43706,"is_reserved":false,"is_disabled":false,"rental_uris":{"android":"levelo://app?vid=548b71d6-57f8-4fef-ad05-d9f3c9d122d8","ios":"levelo://app?vid=548b71d6-57f8-4fef-ad05-d9f3c9d122d8"},"vehicle_type_id":"4","last_reported":1734174448,"current_range_meters":31200,"station_id":"ce4bhmp2rcd13ifvqgog","pricing_plan_id":"cebpf4jnsgd1na2vs0mg"},{"bike_id":"5b85565d-da8c-476d-91d7-933b2b1cf338","system_id":"levelo_inurba_marseille","lat":43.26679,"lon":5.38272,"is_reserved":false,"is_disabled":false,"rental_uris":{"android":"levelo://app?vid=5b85565d-da8c-476d-91d7-933b2b1cf338","ios":"levelo://app?vid=5b85565d-da8c-476d-91d7-933b2b1cf338"},"vehicle_type_id":"4","last_reported":1734174448,"current_range_meters":38000,"station_id":"ce4bhg92rcd13ifvqf90","pricing_plan_id":"cebpf4jnsgd1na2vs0mg"},{"bike_id":"d8f61f36-e15a-4519-977e-9dabd1aa9102","system_id":"levelo_inurba_marseille","lat":43.30237,"lon":5.40103,"is_reserved":false,"is_disabled":false,"rental_uris":{"android":"levelo://app?vid=d8f61f36-e15a-4519-977e-9dabd1aa9102","ios":"levelo://app?vid=d8f61f36-e15a-4519-977e-9dabd1aa9102"},"vehicle_type_id":"4","last_reported":1734174448,"current_range_meters":37600,"station_id":"ce4bgvh2rcd13ifvqcs0","pricing_plan_id":"cebpf4jnsgd1na2vs0mg"},{"bike_id":"35642114-ba9f-4cd0-9d6f-a2edaa6e597b","system_id":"levelo_inurba_marseille","lat":43.30459,"lon":5.37896,"is_reserved":false,"is_disabled":false,"rental_uris":{"android":"levelo://app?vid=35642114-ba9f-4cd0-9d6f-a2edaa6e597b","ios":"levelo://app?vid=35642114-ba9f-4cd0-9d6f-a2edaa6e597b"},"vehicle_type_id":"4","last_reported":1734174448,"current_range_meters":14400,"station_id":"ce4bgup2rcd13ifvqcn0","pricing_plan_id":"cebpf4jnsgd1na2vs0mg"},{"bike_id":"1d050bf6-2c3b-4d15-9f2a-a610d976c6fb","system_id":"levelo_inurba_marseille","lat":43.23659,"lon":5.39895,"is_reserved":false,"is_disabled":false,"rental_uris":{"android":"levelo://app?vid=1d050bf6-2c3b-4d15-9f2a-a610d976c6fb","ios":"levelo://app?vid=1d050bf6-2c3b-4d15-9f2a-a610d976c6fb"},"vehicle_type_id":"4","last_reported":1734174448,"current_range_meters":38400,"station_id":"ce4bhgp2rcd13ifvqfd0","pricing_plan_id":"cebpf4jnsgd1na2vs0mg"},{"bike_id":"cbfe3c7e-bd4c-472f-bd87-4337f508f0af","system_id":"levelo_inurba_marseille","lat":43.29788,"lon":5.39349,"is_reserved":false,"is_disabled":false,"rental_uris":{"android":"levelo://app?vid=cbfe3c7e-bd4c-472f-bd87-4337f508f0af","ios":"levelo://app?vid=cbfe3c7e-bd4c-472f-bd87-4337f508f0af"},"vehicle_type_id":"4","last_reported":1734174448,"current_range_meters":27600,"station_id":"chh1huq6cuj3fo74tm60","pricing_plan_id":"cebpf4jnsgd1na2vs0mg"},{"bike_id":"e8ed717d-9f26-45a9-bc82-774d381028bc","system_id":"levelo_inurba_marseille","lat":43.29554,"lon":5.42285,"is_reserved":false,"is_disabled":false,"rental_uris":{"android":"levelo://app?vid=e8ed717d-9f26-45a9-bc82-774d381028bc","ios":"levelo://app?vid=e8ed717d-9f26-45a9-bc82-774d381028bc"},"vehicle_type_id":"4","last_reported":1734174448,"current_range_meters":20400,"station_id":"ce4bhph2rcd13ifvqhdg","pricing_plan_id":"cebpf4jnsgd1na2vs0mg"},{"bike_id":"03405ed4-f47f-46b6-b39b-e9f7857aa76c","system_id":"levelo_inurba_marseille","lat":43.3127,"lon":5.40185,"is_reserved":false,"is_disabled":false,"rental_uris":{"android":"levelo://app?vid=03405ed4-f47f-46b6-b39b-e9f7857aa76c","ios":"levelo://app?vid=03405ed4-f47f-46b6-b39b-e9f7857aa76c"},"vehicle_type_id":"4","last_reported":1734174448,"current_range_meters":7200,"station_id":"ce4bh092rcd13ifvqd30","pricing_plan_id":"cebpf4jnsgd1na2vs0mg"},{"bike_id":"d64735b9-3201-48f9-b7d1-d8bd9269830f","system_id":"levelo_inurba_marseille","lat":43.31329,"lon":5.39699,"is_reserved":false,"is_disabled":false,"rental_uris":{"android":"levelo://app?vid=d64735b9-3201-48f9-b7d1-d8bd9269830f","ios":"levelo://app?vid=d64735b9-3201-48f9-b7d1-d8bd9269830f"},"vehicle_type_id":"4","last_reported":1734174448,"current_range_meters":32400,"station_id":"ce4bgvp2rcd13ifvqcu0","pricing_plan_id":"cebpf4jnsgd1na2vs0mg"},{"bike_id":"92911da1-35ed-4153-b20b-4efa12b925ae","system_id":"levelo_inurba_marseille","lat":43.29553,"lon":5.365,"is_reserved":false,"is_disabled":false,"rental_uris":{"android":"levelo://app?vid=92911da1-35ed-4153-b20b-4efa12b925ae","ios":"levelo://app?vid=92911da1-35ed-4153-b20b-4efa12b925ae"},"vehicle_type_id":"4","last_reported":1734174448,"current_range_meters":17600,"station_id":"","pricing_plan_id":"cebpf4jnsgd1na2vs0mg"},{"bike_id":"c7b061a9-1121-45e7-84c9-388975827d47","system_id":"levelo_inurba_marseille","lat":43.29973,"lon":5.38484,"is_reserved":false,"is_disabled":true,"rental_uris":{"android":"levelo://app?vid=c7b061a9-1121-45e7-84c9-388975827d47","ios":"levelo://app?vid=c7b061a9-1121-45e7-84c9-388975827d47"},"vehicle_type_id":"4","last_reported":1734174448,"current_range_meters":17600,"station_id":"ce4bgj92rcd13ifvqbd0","pricing_plan_id":"cebpf4jnsgd1na2vs0mg"},{"bike_id":"80e5c1e3-8d27-43e3-9451-b00f65b301df","system_id":"levelo_inurba_marseille","lat":43.23191,"lon":5.35558,"is_reserved":false,"is_disabled":false,"rental_uris":{"android":"levelo://app?vid=80e5c1e3-8d27-43e3-9451-b00f65b301df","ios":"levelo://app?vid=80e5c1e3-8d27-43e3-9451-b00f65b301df"},"vehicle_type_id":"4","last_reported":1734174448,"current_range_meters":38800,"station_id":"ce4bhu92rcd13ifvqi70","pricing_plan_id":"cebpf4jnsgd1na2vs0mg"},{"bike_id":"496b9119-850a-49b3-bf98-295bb079ca7c","system_id":"levelo_inurba_marseille","lat":43.282,"lon":5.44581,"is_reserved":false,"is_disabled":false,"rental_uris":{"android":"levelo://app?vid=496b9119-850a-49b3-bf98-295bb079ca7c","ios":"levelo://app?vid=496b9119-850a-49b3-bf98-295bb079ca7c"},"vehicle_type_id":"4","last_reported":1734174448,"current_range_meters":10000,"station_id":"","pricing_plan_id":"cebpf4jnsgd1na2vs0mg"},{"bike_id":"0d67fd70-e4b1-42fe-abbd-da05c25ce133","system_id":"levelo_inurba_marseille","lat":43.27991,"lon":5.41659,"is_reserved":false,"is_disabled":false,"rental_uris":{"android":"levelo://app?vid=0d67fd70-e4b1-42fe-abbd-da05c25ce133","ios":"levelo://app?vid=0d67fd70-e4b1-42fe-abbd-da05c25ce133"},"vehicle_type_id":"4","last_reported":1734174448,"current_range_meters":38400,"station_id":"ce4bho12rcd13ifvqh1g","pricing_plan_id":"cebpf4jnsgd1na2vs0mg"},{"bike_id":"6ccb1b55-c0a9-46eb-8f0b-906ec7a25595","system_id":"levelo_inurba_marseille","lat":43.28268,"lon":5.35074,"is_reserved":false,"is_disabled":false,"rental_uris":{"android":"levelo://app?vid=6ccb1b55-c0a9-46eb-8f0b-906ec7a25595","ios":"levelo://app?vid=6ccb1b55-c0a9-46eb-8f0b-906ec7a25595"},"vehicle_type_id":"4","last_reported":1734174448,"current_range_meters":20000,"station_id":"ce4bhbp2rcd13ifvqerg","pricing_plan_id":"cebpf4jnsgd1na2vs0mg"},{"bike_id":"88f2033b-7e30-4fec-967e-f2db67085ede","system_id":"levelo_inurba_marseille","lat":43.34148,"lon":5.40935,"is_reserved":false,"is_disabled":false,"rental_uris":{"android":"levelo://app?vid=88f2033b-7e30-4fec-967e-f2db67085ede","ios":"levelo://app?vid=88f2033b-7e30-4fec-967e-f2db67085ede"},"vehicle_type_id":"4","last_reported":1734174448,"current_range_meters":38800,"station_id":"ce4bhqh2rcd13ifvqhlg","pricing_plan_id":"cebpf4jnsgd1na2vs0mg"},{"bike_id":"5baef8d5-cbef-415d-a7c4-3212b2dae114","system_id":"levelo_inurba_marseille","lat":43.26209,"lon":5.37444,"is_reserved":false,"is_disabled":false,"rental_uris":{"android":"levelo://app?vid=5baef8d5-cbef-415d-a7c4-3212b2dae114","ios":"levelo://app?vid=5baef8d5-cbef-415d-a7c4-3212b2dae114"},"vehicle_type_id":"4","last_reported":1734174448,"current_range_meters":38800,"station_id":"ce4bhgp2rcd13ifvqfc0","pricing_plan_id":"cebpf4jnsgd1na2vs0mg"},{"bike_id":"d5c89c1f-3bad-4af2-9449-e04c277a4696","system_id":"levelo_inurba_marseille","lat":43.299621,"lon":5.413182,"is_reserved":false,"is_disabled":true,"rental_uris":{"android":"levelo://app?vid=d5c89c1f-3bad-4af2-9449-e04c277a4696","ios":"levelo://app?vid=d5c89c1f-3bad-4af2-9449-e04c277a4696"},"vehicle_type_id":"4","last_reported":1734174448,"current_range_meters":38800,"station_id":"ce4bhp12rcd13ifvqh9g","pricing_plan_id":"cebpf4jnsgd1na2vs0mg"},{"bike_id":"df1b5f34-55e2-48b5-ae2b-4c705a8e689b","system_id":"levelo_inurba_marseille","lat":43.29599,"lon":5.38105,"is_reserved":false,"is_disabled":false,"rental_uris":{"android":"levelo://app?vid=df1b5f34-55e2-48b5-ae2b-4c705a8e689b","ios":"levelo://app?vid=df1b5f34-55e2-48b5-ae2b-4c705a8e689b"},"vehicle_type_id":"4","last_reported":1734174448,"current_range_meters":25200,"station_id":"ce4bgl12rcd13ifvqbo0","pricing_plan_id":"cebpf4jnsgd1na2vs0mg"},{"bike_id":"5dcb142e-3766-4e2c-b1fe-c9ebbc5d3c50","system_id":"levelo_inurba_marseille","lat":43.31996,"lon":5.38157,"is_reserved":false,"is_disabled":false,"rental_uris":{"android":"levelo://app?vid=5dcb142e-3766-4e2c-b1fe-c9ebbc5d3c50","ios":"levelo://app?vid=5dcb142e-3766-4e2c-b1fe-c9ebbc5d3c50"},"vehicle_type_id":"4","last_reported":1734174448,"current_range_meters":38800,"station_id":"ce4bhr12rcd13ifvqhpg","pricing_plan_id":"cebpf4jnsgd1na2vs0mg"},{"bike_id":"97faa98d-2883-4cc1-9039-dd9ec0a2b1c4","system_id":"levelo_inurba_marseille","lat":43.30116,"lon":5.39858,"is_reserved":false,"is_disabled":false,"rental_uris":{"android":"levelo://app?vid=97faa98d-2883-4cc1-9039-dd9ec0a2b1c4","ios":"levelo://app?vid=97faa98d-2883-4cc1-9039-dd9ec0a2b1c4"},"vehicle_type_id":"4","last_reported":1734174448,"current_range_meters":9600,"station_id":"ce4bh0h2rcd13ifvqd40","pricing_plan_id":"cebpf4jnsgd1na2vs0mg"},{"bike_id":"a7b8257e-8dd8-4089-b34c-9c18012a63d0","system_id":"levelo_inurba_marseille","lat":43.23146,"lon":5.43727,"is_reserved":false,"is_disabled":false,"rental_uris":{"android":"levelo://app?vid=a7b8257e-8dd8-4089-b34c-9c18012a63d0","ios":"levelo://app?vid=a7b8257e-8dd8-4089-b34c-9c18012a63d0"},"vehicle_type_id":"4","last_reported":1734174448,"current_range_meters":24000,"station_id":"ce4bhmp2rcd13ifvqgog","pricing_plan_id":"cebpf4jnsgd1na2vs0mg"},{"bike_id":"5162f5ae-dc57-409c-a631-a36848b5ac17","system_id":"levelo_inurba_marseille","lat":43.27169,"lon":5.40971,"is_reserved":false,"is_disabled":false,"rental_uris":{"android":"levelo://app?vid=5162f5ae-dc57-409c-a631-a36848b5ac17","ios":"levelo://app?vid=5162f5ae-dc57-409c-a631-a36848b5ac17"},"vehicle_type_id":"4","last_reported":1734174448,"current_range_meters":37600,"station_id":"ce4bhl12rcd13ifvqgf0","pricing_plan_id":"cebpf4jnsgd1na2vs0mg"},{"bike_id":"24ff158c-8779-4dcc-81fa-55a618b83502","system_id":"levelo_inurba_marseille","lat":43.29592,"lon":5.37681,"is_reserved":false,"is_disabled":false,"rental_uris":{"android":"levelo://app?vid=24ff158c-8779-4dcc-81fa-55a618b83502","ios":"levelo://app?vid=24ff158c-8779-4dcc-81fa-55a618b83502"},"vehicle_type_id":"4","last_reported":1734174448,"current_range_meters":25600,"station_id":"ce4bgi92rcd13ifvqb90","pricing_plan_id":"cebpf4jnsgd1na2vs0mg"},{"bike_id":"1246e6b9-1bba-43b9-9075-2687b084a677","system_id":"levelo_inurba_marseille","lat":43.25885,"lon":5.39928,"is_reserved":false,"is_disabled":false,"rental_uris":{"android":"levelo://app?vid=1246e6b9-1bba-43b9-9075-2687b084a677","ios":"levelo://app?vid=1246e6b9-1bba-43b9-9075-2687b084a677"},"vehicle_type_id":"4","last_reported":1734174448,"current_range_meters":39200,"station_id":"ce4bhl92rcd13ifvqghg","pricing_plan_id":"cebpf4jnsgd1na2vs0mg"},{"bike_id":"89276e2c-cf12-42cd-94d6-ea25c23de3f8","system_id":"levelo_inurba_marseille","lat":43.30305,"lon":5.36901,"is_reserved":false,"is_disabled":false,"rental_uris":{"android":"levelo://app?vid=89276e2c-cf12-42cd-94d6-ea25c23de3f8","ios":"levelo://app?vid=89276e2c-cf12-42cd-94d6-ea25c23de3f8"},"vehicle_type_id":"4","last_reported":1734174448,"current_range_meters":26000,"station_id":"ce4bgqh2rcd13ifvqc5g","pricing_plan_id":"cebpf4jnsgd1na2vs0mg"},{"bike_id":"e45ef0c9-bcb3-41d1-8037-dd4bd5e93c0a","system_id":"levelo_inurba_marseille","lat":43.29034,"lon":5.38647,"is_reserved":false,"is_disabled":false,"rental_uris":{"android":"levelo://app?vid=e45ef0c9-bcb3-41d1-8037-dd4bd5e93c0a","ios":"levelo://app?vid=e45ef0c9-bcb3-41d1-8037-dd4bd5e93c0a"},"vehicle_type_id":"4","last_reported":1734174448,"current_range_meters":24000,"station_id":"ce4bh4p2rcd13ifvqe0g","pricing_plan_id":"cebpf4jnsgd1na2vs0mg"},{"bike_id":"4fcbc983-6f02-4c3c-8352-f29d7735eab7","system_id":"levelo_inurba_marseille","lat":43.29619,"lon":5.37709,"is_reserved":false,"is_disabled":true,"rental_uris":{"android":"levelo://app?vid=4fcbc983-6f02-4c3c-8352-f29d7735eab7","ios":"levelo://app?vid=4fcbc983-6f02-4c3c-8352-f29d7735eab7"},"vehicle_type_id":"4","last_reported":1734174448,"current_range_meters":36800,"station_id":"ce4bgi92rcd13ifvqb90","pricing_plan_id":"cebpf4jnsgd1na2vs0mg"},{"bike_id":"ff4dd77c-9815-4ceb-84fd-29a29009fea2","system_id":"levelo_inurba_marseille","lat":43.2861,"lon":5.37065,"is_reserved":false,"is_disabled":false,"rental_uris":{"android":"levelo://app?vid=ff4dd77c-9815-4ceb-84fd-29a29009fea2","ios":"levelo://app?vid=ff4dd77c-9815-4ceb-84fd-29a29009fea2"},"vehicle_type_id":"4","last_reported":1734174448,"current_range_meters":36800,"station_id":"ce4bht12rcd13ifvqi60","pricing_plan_id":"cebpf4jnsgd1na2vs0mg"},{"bike_id":"9bfcebe4-fee2-409c-a8ab-5608ab6f061f","system_id":"levelo_inurba_marseille","lat":43.28151,"lon":5.42746,"is_reserved":false,"is_disabled":false,"rental_uris":{"android":"levelo://app?vid=9bfcebe4-fee2-409c-a8ab-5608ab6f061f","ios":"levelo://app?vid=9bfcebe4-fee2-409c-a8ab-5608ab6f061f"},"vehicle_type_id":"4","last_reported":1734174448,"current_range_meters":34800,"station_id":"","pricing_plan_id":"cebpf4jnsgd1na2vs0mg"},{"bike_id":"0ae96679-30aa-440d-8045-2883351ef681","system_id":"levelo_inurba_marseille","lat":43.30531,"lon":5.36543,"is_reserved":false,"is_disabled":false,"rental_uris":{"android":"levelo://app?vid=0ae96679-30aa-440d-8045-2883351ef681","ios":"levelo://app?vid=0ae96679-30aa-440d-8045-2883351ef681"},"vehicle_type_id":"4","last_reported":1734174448,"current_range_meters":26800,"station_id":"ce4bgs12rcd13ifvqcag","pricing_plan_id":"cebpf4jnsgd1na2vs0mg"},{"bike_id":"0e8a89dc-4e73-48a3-8682-6696627877b1","system_id":"levelo_inurba_marseille","lat":43.317563,"lon":5.390253,"is_reserved":false,"is_disabled":false,"rental_uris":{"android":"levelo://app?vid=0e8a89dc-4e73-48a3-8682-6696627877b1","ios":"levelo://app?vid=0e8a89dc-4e73-48a3-8682-6696627877b1"},"vehicle_type_id":"4","last_reported":1734174448,"current_range_meters":37600,"station_id":"ce4bhqp2rcd13ifvqhng","pricing_plan_id":"cebpf4jnsgd1na2vs0mg"},{"bike_id":"edaea664-24e0-4d6c-aa7a-497f5c5f88f6","system_id":"levelo_inurba_marseille","lat":43.27009,"lon":5.39154,"is_reserved":false,"is_disabled":true,"rental_uris":{"android":"levelo://app?vid=edaea664-24e0-4d6c-aa7a-497f5c5f88f6","ios":"levelo://app?vid=edaea664-24e0-4d6c-aa7a-497f5c5f88f6"},"vehicle_type_id":"4","last_reported":1734174448,"current_range_meters":0,"station_id":"","pricing_plan_id":"cebpf4jnsgd1na2vs0mg"},{"bike_id":"72ad76d7-5a2d-4089-9d42-96862758d84f","system_id":"levelo_inurba_marseille","lat":43.295245,"lon":5.390329,"is_reserved":false,"is_disabled":true,"rental_uris":{"android":"levelo://app?vid=72ad76d7-5a2d-4089-9d42-96862758d84f","ios":"levelo://app?vid=72ad76d7-5a2d-4089-9d42-96862758d84f"},"vehicle_type_id":"4","last_reported":1734174448,"current_range_meters":31200,"station_id":"ce4bh3p2rcd13ifvqdp0","pricing_plan_id":"cebpf4jnsgd1na2vs0mg"},{"bike_id":"19d39a81-af74-4d56-9ac2-862699519091","system_id":"levelo_inurba_marseille","lat":43.29711,"lon":5.36611,"is_reserved":false,"is_disabled":false,"rental_uris":{"android":"levelo://app?vid=19d39a81-af74-4d56-9ac2-862699519091","ios":"levelo://app?vid=19d39a81-af74-4d56-9ac2-862699519091"},"vehicle_type_id":"4","last_reported":1734174448,"current_range_meters":16000,"station_id":"ce4bgn12rcd13ifvqbt0","pricing_plan_id":"cebpf4jnsgd1na2vs0mg"},{"bike_id":"50e79d56-20da-4644-b889-cee65d2f80a2","system_id":"levelo_inurba_marseille","lat":43.28853,"lon":5.35867,"is_reserved":false,"is_disabled":false,"rental_uris":{"android":"levelo://app?vid=50e79d56-20da-4644-b889-cee65d2f80a2","ios":"levelo://app?vid=50e79d56-20da-4644-b889-cee65d2f80a2"},"vehicle_type_id":"4","last_reported":1734174448,"current_range_meters":24000,"station_id":"ce4bhb12rcd13ifvqem0","pricing_plan_id":"cebpf4jnsgd1na2vs0mg"},{"bike_id":"f4a95468-d4aa-4a8f-a55f-3897dad60cf3","system_id":"levelo_inurba_marseille","lat":43.26937,"lon":5.38925,"is_reserved":false,"is_disabled":false,"rental_uris":{"android":"levelo://app?vid=f4a95468-d4aa-4a8f-a55f-3897dad60cf3","ios":"levelo://app?vid=f4a95468-d4aa-4a8f-a55f-3897dad60cf3"},"vehicle_type_id":"4","last_reported":1734174448,"current_range_meters":31200,"station_id":"ce4bhhh2rcd13ifvqfl0","pricing_plan_id":"cebpf4jnsgd1na2vs0mg"},{"bike_id":"66331cc1-d263-487f-86ec-bf9d2260ae21","system_id":"levelo_inurba_marseille","lat":43.25856,"lon":5.39912,"is_reserved":false,"is_disabled":false,"rental_uris":{"android":"levelo://app?vid=66331cc1-d263-487f-86ec-bf9d2260ae21","ios":"levelo://app?vid=66331cc1-d263-487f-86ec-bf9d2260ae21"},"vehicle_type_id":"4","last_reported":1734174448,"current_range_meters":39200,"station_id":"ce4bhl92rcd13ifvqghg","pricing_plan_id":"cebpf4jnsgd1na2vs0mg"},{"bike_id":"8d83e094-d345-479b-93fa-3fc7a5e79307","system_id":"levelo_inurba_marseille","lat":43.28943,"lon":5.36638,"is_reserved":false,"is_disabled":false,"rental_uris":{"android":"levelo://app?vid=8d83e094-d345-479b-93fa-3fc7a5e79307","ios":"levelo://app?vid=8d83e094-d345-479b-93fa-3fc7a5e79307"},"vehicle_type_id":"4","last_reported":1734174448,"current_range_meters":3600,"station_id":"ce4bhap2rcd13ifvqek0","pricing_plan_id":"cebpf4jnsgd1na2vs0mg"},{"bike_id":"75d005f1-a104-4287-b501-1002db049ee7","system_id":"levelo_inurba_marseille","lat":43.33754,"lon":5.39166,"is_reserved":false,"is_disabled":false,"rental_uris":{"android":"levelo://app?vid=75d005f1-a104-4287-b501-1002db049ee7","ios":"levelo://app?vid=75d005f1-a104-4287-b501-1002db049ee7"},"vehicle_type_id":"4","last_reported":1734174448,"current_range_meters":38800,"station_id":"ce4bhr92rcd13ifvqhsg","pricing_plan_id":"cebpf4jnsgd1na2vs0mg"},{"bike_id":"dd49f10f-4914-46b9-a090-27becde92011","system_id":"levelo_inurba_marseille","lat":43.30428,"lon":5.39762,"is_reserved":false,"is_disabled":false,"rental_uris":{"android":"levelo://app?vid=dd49f10f-4914-46b9-a090-27becde92011","ios":"levelo://app?vid=dd49f10f-4914-46b9-a090-27becde92011"},"vehicle_type_id":"4","last_reported":1734174448,"current_range_meters":30000,"station_id":"ce4bh092rcd13ifvqd20","pricing_plan_id":"cebpf4jnsgd1na2vs0mg"},{"bike_id":"30b7f7b0-cffb-44e8-9e23-86428fe1183d","system_id":"levelo_inurba_marseille","lat":43.23059,"lon":5.35521,"is_reserved":false,"is_disabled":false,"rental_uris":{"android":"levelo://app?vid=30b7f7b0-cffb-44e8-9e23-86428fe1183d","ios":"levelo://app?vid=30b7f7b0-cffb-44e8-9e23-86428fe1183d"},"vehicle_type_id":"4","last_reported":1734174448,"current_range_meters":35200,"station_id":"cpo3342slgdg3j2ifvpg","pricing_plan_id":"cebpf4jnsgd1na2vs0mg"},{"bike_id":"41418124-18d7-4b78-aa41-e394984cb3d6","system_id":"levelo_inurba_marseille","lat":43.25867,"lon":5.39899,"is_reserved":false,"is_disabled":false,"rental_uris":{"android":"levelo://app?vid=41418124-18d7-4b78-aa41-e394984cb3d6","ios":"levelo://app?vid=41418124-18d7-4b78-aa41-e394984cb3d6"},"vehicle_type_id":"4","last_reported":1734174448,"current_range_meters":6000,"station_id":"ce4bhl92rcd13ifvqghg","pricing_plan_id":"cebpf4jnsgd1na2vs0mg"},{"bike_id":"b7397418-1287-4bcf-82ec-e7904f3e66a9","system_id":"levelo_inurba_marseille","lat":43.27902,"lon":5.38014,"is_reserved":false,"is_disabled":false,"rental_uris":{"android":"levelo://app?vid=b7397418-1287-4bcf-82ec-e7904f3e66a9","ios":"levelo://app?vid=b7397418-1287-4bcf-82ec-e7904f3e66a9"},"vehicle_type_id":"4","last_reported":1734174448,"current_range_meters":38800,"station_id":"ce4bhf92rcd13ifvqf50","pricing_plan_id":"cebpf4jnsgd1na2vs0mg"},{"bike_id":"c962957d-ec10-4997-96e1-a869343f922e","system_id":"levelo_inurba_marseille","lat":43.32663,"lon":5.36078,"is_reserved":false,"is_disabled":true,"rental_uris":{"android":"levelo://app?vid=c962957d-ec10-4997-96e1-a869343f922e","ios":"levelo://app?vid=c962957d-ec10-4997-96e1-a869343f922e"},"vehicle_type_id":"4","last_reported":1734174448,"current_range_meters":1200,"station_id":"","pricing_plan_id":"cebpf4jnsgd1na2vs0mg"},{"bike_id":"c0bcef52-3c6c-4bef-89e0-ef7ed7534e5e","system_id":"levelo_inurba_marseille","lat":43.29622,"lon":5.3773,"is_reserved":false,"is_disabled":false,"rental_uris":{"android":"levelo://app?vid=c0bcef52-3c6c-4bef-89e0-ef7ed7534e5e","ios":"levelo://app?vid=c0bcef52-3c6c-4bef-89e0-ef7ed7534e5e"},"vehicle_type_id":"4","last_reported":1734174448,"current_range_meters":38800,"station_id":"ce4bgi92rcd13ifvqb90","pricing_plan_id":"cebpf4jnsgd1na2vs0mg"},{"bike_id":"c560e434-6583-4069-9f7e-f8acea16bd6c","system_id":"levelo_inurba_marseille","lat":43.2978,"lon":5.39342,"is_reserved":false,"is_disabled":false,"rental_uris":{"android":"levelo://app?vid=c560e434-6583-4069-9f7e-f8acea16bd6c","ios":"levelo://app?vid=c560e434-6583-4069-9f7e-f8acea16bd6c"},"vehicle_type_id":"4","last_reported":1734174448,"current_range_meters":39200,"station_id":"chh1huq6cuj3fo74tm60","pricing_plan_id":"cebpf4jnsgd1na2vs0mg"},{"bike_id":"dba3791e-90b8-4cd9-8ad7-6ce408caca1d","system_id":"levelo_inurba_marseille","lat":43.29573,"lon":5.37528,"is_reserved":false,"is_disabled":false,"rental_uris":{"android":"levelo://app?vid=dba3791e-90b8-4cd9-8ad7-6ce408caca1d","ios":"levelo://app?vid=dba3791e-90b8-4cd9-8ad7-6ce408caca1d"},"vehicle_type_id":"4","last_reported":1734174448,"current_range_meters":38800,"station_id":"ce4bgh92rcd13ifvqb50","pricing_plan_id":"cebpf4jnsgd1na2vs0mg"},{"bike_id":"fe82721e-a1a0-4e44-a36d-eb22073144b8","system_id":"levelo_inurba_marseille","lat":43.30545,"lon":5.36685,"is_reserved":false,"is_disabled":false,"rental_uris":{"android":"levelo://app?vid=fe82721e-a1a0-4e44-a36d-eb22073144b8","ios":"levelo://app?vid=fe82721e-a1a0-4e44-a36d-eb22073144b8"},"vehicle_type_id":"4","last_reported":1734174448,"current_range_meters":38000,"station_id":"ce4bgrp2rcd13ifvqc9g","pricing_plan_id":"cebpf4jnsgd1na2vs0mg"},{"bike_id":"40d4d4c6-f2c1-4c16-bd11-f3a3b5e271f5","system_id":"levelo_inurba_marseille","lat":43.31163,"lon":5.38725,"is_reserved":false,"is_disabled":false,"rental_uris":{"android":"levelo://app?vid=40d4d4c6-f2c1-4c16-bd11-f3a3b5e271f5","ios":"levelo://app?vid=40d4d4c6-f2c1-4c16-bd11-f3a3b5e271f5"},"vehicle_type_id":"4","last_reported":1734174448,"current_range_meters":17200,"station_id":"ce4bgv12rcd13ifvqcp0","pricing_plan_id":"cebpf4jnsgd1na2vs0mg"},{"bike_id":"96be829a-c7a3-463c-a68c-f25e10551c3d","system_id":"levelo_inurba_marseille","lat":43.30887,"lon":5.39637,"is_reserved":false,"is_disabled":false,"rental_uris":{"android":"levelo://app?vid=96be829a-c7a3-463c-a68c-f25e10551c3d","ios":"levelo://app?vid=96be829a-c7a3-463c-a68c-f25e10551c3d"},"vehicle_type_id":"4","last_reported":1734174448,"current_range_meters":29600,"station_id":"ce4bh012rcd13ifvqcv0","pricing_plan_id":"cebpf4jnsgd1na2vs0mg"},{"bike_id":"773210ee-d19a-4226-90f8-e420da4ce6bd","system_id":"levelo_inurba_marseille","lat":43.30202,"lon":5.40087,"is_reserved":false,"is_disabled":true,"rental_uris":{"android":"levelo://app?vid=773210ee-d19a-4226-90f8-e420da4ce6bd","ios":"levelo://app?vid=773210ee-d19a-4226-90f8-e420da4ce6bd"},"vehicle_type_id":"4","last_reported":1734174448,"current_range_meters":2800,"station_id":"ce4bgvh2rcd13ifvqcs0","pricing_plan_id":"cebpf4jnsgd1na2vs0mg"},{"bike_id":"405cde8a-a24f-4138-a22b-2b56d3142abe","system_id":"levelo_inurba_marseille","lat":43.3136,"lon":5.38515,"is_reserved":false,"is_disabled":false,"rental_uris":{"android":"levelo://app?vid=405cde8a-a24f-4138-a22b-2b56d3142abe","ios":"levelo://app?vid=405cde8a-a24f-4138-a22b-2b56d3142abe"},"vehicle_type_id":"4","last_reported":1734174448,"current_range_meters":34000,"station_id":"ce4bgt92rcd13ifvqcf0","pricing_plan_id":"cebpf4jnsgd1na2vs0mg"},{"bike_id":"5381f8b3-2b9d-4435-9dad-c2316321cca9","system_id":"levelo_inurba_marseille","lat":43.27317,"lon":5.3909,"is_reserved":false,"is_disabled":false,"rental_uris":{"android":"levelo://app?vid=5381f8b3-2b9d-4435-9dad-c2316321cca9","ios":"levelo://app?vid=5381f8b3-2b9d-4435-9dad-c2316321cca9"},"vehicle_type_id":"4","last_reported":1734174448,"current_range_meters":37600,"station_id":"ce4bhgp2rcd13ifvqfe0","pricing_plan_id":"cebpf4jnsgd1na2vs0mg"},{"bike_id":"9ad311dd-c450-4f09-933a-ef53d4559dc3","system_id":"levelo_inurba_marseille","lat":43.269814,"lon":5.39865,"is_reserved":false,"is_disabled":false,"rental_uris":{"android":"levelo://app?vid=9ad311dd-c450-4f09-933a-ef53d4559dc3","ios":"levelo://app?vid=9ad311dd-c450-4f09-933a-ef53d4559dc3"},"vehicle_type_id":"4","last_reported":1734174448,"current_range_meters":27200,"station_id":"","pricing_plan_id":"cebpf4jnsgd1na2vs0mg"},{"bike_id":"fd910433-2801-4559-9b54-94fea46239e5","system_id":"levelo_inurba_marseille","lat":43.24386,"lon":5.37057,"is_reserved":false,"is_disabled":false,"rental_uris":{"android":"levelo://app?vid=fd910433-2801-4559-9b54-94fea46239e5","ios":"levelo://app?vid=fd910433-2801-4559-9b54-94fea46239e5"},"vehicle_type_id":"4","last_reported":1734174448,"current_range_meters":27200,"station_id":"ce4bhhh2rcd13ifvqfk0","pricing_plan_id":"cebpf4jnsgd1na2vs0mg"},{"bike_id":"3787bba6-8a43-4277-afd7-a70b2fecfb32","system_id":"levelo_inurba_marseille","lat":43.27314,"lon":5.39076,"is_reserved":false,"is_disabled":false,"rental_uris":{"android":"levelo://app?vid=3787bba6-8a43-4277-afd7-a70b2fecfb32","ios":"levelo://app?vid=3787bba6-8a43-4277-afd7-a70b2fecfb32"},"vehicle_type_id":"4","last_reported":1734174448,"current_range_meters":39200,"station_id":"ce4bhgp2rcd13ifvqfe0","pricing_plan_id":"cebpf4jnsgd1na2vs0mg"},{"bike_id":"af67ac53-ba21-4ff0-8334-95679e9ff2cc","system_id":"levelo_inurba_marseille","lat":43.278805,"lon":5.388003,"is_reserved":false,"is_disabled":true,"rental_uris":{"android":"levelo://app?vid=af67ac53-ba21-4ff0-8334-95679e9ff2cc","ios":"levelo://app?vid=af67ac53-ba21-4ff0-8334-95679e9ff2cc"},"vehicle_type_id":"4","last_reported":1734174448,"current_range_meters":2000,"station_id":"","pricing_plan_id":"cebpf4jnsgd1na2vs0mg"},{"bike_id":"c12e3cbc-6dcc-4880-b6ad-6bc6611c3ffb","system_id":"levelo_inurba_marseille","lat":43.31486,"lon":5.37307,"is_reserved":false,"is_disabled":false,"rental_uris":{"android":"levelo://app?vid=c12e3cbc-6dcc-4880-b6ad-6bc6611c3ffb","ios":"levelo://app?vid=c12e3cbc-6dcc-4880-b6ad-6bc6611c3ffb"},"vehicle_type_id":"4","last_reported":1734174448,"current_range_meters":32000,"station_id":"ce4bgt12rcd13ifvqcd0","pricing_plan_id":"cebpf4jnsgd1na2vs0mg"},{"bike_id":"c917976d-ec67-489d-89ca-bf35745513ec","system_id":"levelo_inurba_marseille","lat":43.27973,"lon":5.38738,"is_reserved":false,"is_disabled":false,"rental_uris":{"android":"levelo://app?vid=c917976d-ec67-489d-89ca-bf35745513ec","ios":"levelo://app?vid=c917976d-ec67-489d-89ca-bf35745513ec"},"vehicle_type_id":"4","last_reported":1734174448,"current_range_meters":28000,"station_id":"ce4bhg12rcd13ifvqf80","pricing_plan_id":"cebpf4jnsgd1na2vs0mg"},{"bike_id":"0232408d-292c-41d3-b181-663261afd040","system_id":"levelo_inurba_marseille","lat":43.27483,"lon":5.40925,"is_reserved":false,"is_disabled":false,"rental_uris":{"android":"levelo://app?vid=0232408d-292c-41d3-b181-663261afd040","ios":"levelo://app?vid=0232408d-292c-41d3-b181-663261afd040"},"vehicle_type_id":"4","last_reported":1734174448,"current_range_meters":34800,"station_id":"","pricing_plan_id":"cebpf4jnsgd1na2vs0mg"},{"bike_id":"08c81d55-80d1-413a-8724-fea143ee28b3","system_id":"levelo_inurba_marseille","lat":43.29412,"lon":5.38636,"is_reserved":false,"is_disabled":true,"rental_uris":{"android":"levelo://app?vid=08c81d55-80d1-413a-8724-fea143ee28b3","ios":"levelo://app?vid=08c81d55-80d1-413a-8724-fea143ee28b3"},"vehicle_type_id":"4","last_reported":1734174448,"current_range_meters":0,"station_id":"ce4bh2h2rcd13ifvqdh0","pricing_plan_id":"cebpf4jnsgd1na2vs0mg"},{"bike_id":"43e610a3-ae2a-4d11-b634-abc95d6e7307","system_id":"levelo_inurba_marseille","lat":43.32475,"lon":5.36591,"is_reserved":false,"is_disabled":false,"rental_uris":{"android":"levelo://app?vid=43e610a3-ae2a-4d11-b634-abc95d6e7307","ios":"levelo://app?vid=43e610a3-ae2a-4d11-b634-abc95d6e7307"},"vehicle_type_id":"4","last_reported":1734174448,"current_range_meters":38000,"station_id":"ce4bhs12rcd13ifvqhvg","pricing_plan_id":"cebpf4jnsgd1na2vs0mg"},{"bike_id":"9b4b0523-bd2e-4c02-8a7f-68d17a5c480c","system_id":"levelo_inurba_marseille","lat":43.32536,"lon":5.41462,"is_reserved":false,"is_disabled":false,"rental_uris":{"android":"levelo://app?vid=9b4b0523-bd2e-4c02-8a7f-68d17a5c480c","ios":"levelo://app?vid=9b4b0523-bd2e-4c02-8a7f-68d17a5c480c"},"vehicle_type_id":"4","last_reported":1734174448,"current_range_meters":38000,"station_id":"ce4bhq12rcd13ifvqhhg","pricing_plan_id":"cebpf4jnsgd1na2vs0mg"},{"bike_id":"d65fcea9-51ba-41f0-86fd-e798dfdd6f09","system_id":"levelo_inurba_marseille","lat":43.287,"lon":5.38303,"is_reserved":false,"is_disabled":true,"rental_uris":{"android":"levelo://app?vid=d65fcea9-51ba-41f0-86fd-e798dfdd6f09","ios":"levelo://app?vid=d65fcea9-51ba-41f0-86fd-e798dfdd6f09"},"vehicle_type_id":"4","last_reported":1734174448,"current_range_meters":0,"station_id":"","pricing_plan_id":"cebpf4jnsgd1na2vs0mg"},{"bike_id":"066d4b67-889e-489c-9d7b-bed75ec6880d","system_id":"levelo_inurba_marseille","lat":43.29568,"lon":5.37498,"is_reserved":false,"is_disabled":false,"rental_uris":{"android":"levelo://app?vid=066d4b67-889e-489c-9d7b-bed75ec6880d","ios":"levelo://app?vid=066d4b67-889e-489c-9d7b-bed75ec6880d"},"vehicle_type_id":"4","last_reported":1734174448,"current_range_meters":16400,"station_id":"ce4bgh92rcd13ifvqb50","pricing_plan_id":"cebpf4jnsgd1na2vs0mg"},{"bike_id":"73f4bb3e-cb3f-4053-aec8-a4dd16a5364e","system_id":"levelo_inurba_marseille","lat":43.29501,"lon":5.39423,"is_reserved":false,"is_disabled":true,"rental_uris":{"android":"levelo://app?vid=73f4bb3e-cb3f-4053-aec8-a4dd16a5364e","ios":"levelo://app?vid=73f4bb3e-cb3f-4053-aec8-a4dd16a5364e"},"vehicle_type_id":"4","last_reported":1734174448,"current_range_meters":36800,"station_id":"ce4bh292rcd13ifvqdf0","pricing_plan_id":"cebpf4jnsgd1na2vs0mg"},{"bike_id":"6ce34af6-c1ad-476d-a99d-f5cfdf92650e","system_id":"levelo_inurba_marseille","lat":43.27977,"lon":5.41676,"is_reserved":false,"is_disabled":false,"rental_uris":{"android":"levelo://app?vid=6ce34af6-c1ad-476d-a99d-f5cfdf92650e","ios":"levelo://app?vid=6ce34af6-c1ad-476d-a99d-f5cfdf92650e"},"vehicle_type_id":"4","last_reported":1734174448,"current_range_meters":36000,"station_id":"ce4bho12rcd13ifvqh1g","pricing_plan_id":"cebpf4jnsgd1na2vs0mg"},{"bike_id":"e5007d7d-30da-4cfd-a7f0-3df2adfbe187","system_id":"levelo_inurba_marseille","lat":43.29757,"lon":5.38979,"is_reserved":false,"is_disabled":false,"rental_uris":{"android":"levelo://app?vid=e5007d7d-30da-4cfd-a7f0-3df2adfbe187","ios":"levelo://app?vid=e5007d7d-30da-4cfd-a7f0-3df2adfbe187"},"vehicle_type_id":"4","last_reported":1734174448,"current_range_meters":17600,"station_id":"","pricing_plan_id":"cebpf4jnsgd1na2vs0mg"},{"bike_id":"621d72ce-78e0-4f2a-accb-0f59590e0fa4","system_id":"levelo_inurba_marseille","lat":43.30154,"lon":5.38088,"is_reserved":false,"is_disabled":false,"rental_uris":{"android":"levelo://app?vid=621d72ce-78e0-4f2a-accb-0f59590e0fa4","ios":"levelo://app?vid=621d72ce-78e0-4f2a-accb-0f59590e0fa4"},"vehicle_type_id":"4","last_reported":1734174448,"current_range_meters":25600,"station_id":"ce4bgjp2rcd13ifvqbh0","pricing_plan_id":"cebpf4jnsgd1na2vs0mg"},{"bike_id":"64203de9-e72b-4d66-9a84-7a315c7ed37f","system_id":"levelo_inurba_marseille","lat":43.29425,"lon":5.37412,"is_reserved":false,"is_disabled":true,"rental_uris":{"android":"levelo://app?vid=64203de9-e72b-4d66-9a84-7a315c7ed37f","ios":"levelo://app?vid=64203de9-e72b-4d66-9a84-7a315c7ed37f"},"vehicle_type_id":"4","last_reported":1734174448,"current_range_meters":0,"station_id":"","pricing_plan_id":"cebpf4jnsgd1na2vs0mg"},{"bike_id":"d2e2a6b1-d038-4db7-a7e6-0a47b8909959","system_id":"levelo_inurba_marseille","lat":43.31234,"lon":5.36867,"is_reserved":false,"is_disabled":false,"rental_uris":{"android":"levelo://app?vid=d2e2a6b1-d038-4db7-a7e6-0a47b8909959","ios":"levelo://app?vid=d2e2a6b1-d038-4db7-a7e6-0a47b8909959"},"vehicle_type_id":"4","last_reported":1734174448,"current_range_meters":38800,"station_id":"ce4bgl92rcd13ifvqbq0","pricing_plan_id":"cebpf4jnsgd1na2vs0mg"},{"bike_id":"1a43d4f9-8116-4f34-9271-de3c4e68d598","system_id":"levelo_inurba_marseille","lat":43.30812,"lon":5.38149,"is_reserved":false,"is_disabled":false,"rental_uris":{"android":"levelo://app?vid=1a43d4f9-8116-4f34-9271-de3c4e68d598","ios":"levelo://app?vid=1a43d4f9-8116-4f34-9271-de3c4e68d598"},"vehicle_type_id":"4","last_reported":1734174448,"current_range_meters":26800,"station_id":"ce4bgt12rcd13ifvqce0","pricing_plan_id":"cebpf4jnsgd1na2vs0mg"},{"bike_id":"c6335399-6c9e-42a4-90cb-a0b5ecb13295","system_id":"levelo_inurba_marseille","lat":43.247895,"lon":5.374615,"is_reserved":false,"is_disabled":false,"rental_uris":{"android":"levelo://app?vid=c6335399-6c9e-42a4-90cb-a0b5ecb13295","ios":"levelo://app?vid=c6335399-6c9e-42a4-90cb-a0b5ecb13295"},"vehicle_type_id":"4","last_reported":1734174448,"current_range_meters":38800,"station_id":"ce4bhgh2rcd13ifvqfb0","pricing_plan_id":"cebpf4jnsgd1na2vs0mg"},{"bike_id":"7351a686-3c6d-4e9a-b672-a95858dcab33","system_id":"levelo_inurba_marseille","lat":43.29575,"lon":5.37523,"is_reserved":false,"is_disabled":false,"rental_uris":{"android":"levelo://app?vid=7351a686-3c6d-4e9a-b672-a95858dcab33","ios":"levelo://app?vid=7351a686-3c6d-4e9a-b672-a95858dcab33"},"vehicle_type_id":"4","last_reported":1734174448,"current_range_meters":14400,"station_id":"ce4bgh92rcd13ifvqb50","pricing_plan_id":"cebpf4jnsgd1na2vs0mg"},{"bike_id":"4affb114-42a6-4277-adbc-6264935eaf9d","system_id":"levelo_inurba_marseille","lat":43.30537,"lon":5.3652,"is_reserved":false,"is_disabled":false,"rental_uris":{"android":"levelo://app?vid=4affb114-42a6-4277-adbc-6264935eaf9d","ios":"levelo://app?vid=4affb114-42a6-4277-adbc-6264935eaf9d"},"vehicle_type_id":"4","last_reported":1734174448,"current_range_meters":34000,"station_id":"ce4bgs12rcd13ifvqcag","pricing_plan_id":"cebpf4jnsgd1na2vs0mg"},{"bike_id":"f751d01e-b97c-4606-afb5-56be026ee7fc","system_id":"levelo_inurba_marseille","lat":43.29558,"lon":5.37519,"is_reserved":false,"is_disabled":false,"rental_uris":{"android":"levelo://app?vid=f751d01e-b97c-4606-afb5-56be026ee7fc","ios":"levelo://app?vid=f751d01e-b97c-4606-afb5-56be026ee7fc"},"vehicle_type_id":"4","last_reported":1734174448,"current_range_meters":38800,"station_id":"ce4bgh92rcd13ifvqb50","pricing_plan_id":"cebpf4jnsgd1na2vs0mg"},{"bike_id":"5c23befe-e7d4-4dee-ac43-14eb04f945cb","system_id":"levelo_inurba_marseille","lat":43.30892,"lon":5.37797,"is_reserved":false,"is_disabled":false,"rental_uris":{"android":"levelo://app?vid=5c23befe-e7d4-4dee-ac43-14eb04f945cb","ios":"levelo://app?vid=5c23befe-e7d4-4dee-ac43-14eb04f945cb"},"vehicle_type_id":"4","last_reported":1734174448,"current_range_meters":36800,"station_id":"","pricing_plan_id":"cebpf4jnsgd1na2vs0mg"},{"bike_id":"9e537004-7250-4650-9370-76464cbe54e8","system_id":"levelo_inurba_marseille","lat":43.24178,"lon":5.39735,"is_reserved":false,"is_disabled":false,"rental_uris":{"android":"levelo://app?vid=9e537004-7250-4650-9370-76464cbe54e8","ios":"levelo://app?vid=9e537004-7250-4650-9370-76464cbe54e8"},"vehicle_type_id":"4","last_reported":1734174448,"current_range_meters":37600,"station_id":"ce4bhn12rcd13ifvqgpg","pricing_plan_id":"cebpf4jnsgd1na2vs0mg"},{"bike_id":"e59a4be4-755f-40ec-8809-070a8a4b0388","system_id":"levelo_inurba_marseille","lat":43.27671,"lon":5.389,"is_reserved":false,"is_disabled":false,"rental_uris":{"android":"levelo://app?vid=e59a4be4-755f-40ec-8809-070a8a4b0388","ios":"levelo://app?vid=e59a4be4-755f-40ec-8809-070a8a4b0388"},"vehicle_type_id":"4","last_reported":1734174448,"current_range_meters":6400,"station_id":"ce4bhi12rcd13ifvqfo0","pricing_plan_id":"cebpf4jnsgd1na2vs0mg"},{"bike_id":"1ad04e4c-6bd5-4602-bf4b-b31cdbb2fc63","system_id":"levelo_inurba_marseille","lat":43.29915,"lon":5.37475,"is_reserved":false,"is_disabled":false,"rental_uris":{"android":"levelo://app?vid=1ad04e4c-6bd5-4602-bf4b-b31cdbb2fc63","ios":"levelo://app?vid=1ad04e4c-6bd5-4602-bf4b-b31cdbb2fc63"},"vehicle_type_id":"4","last_reported":1734174448,"current_range_meters":38800,"station_id":"ce4bgjh2rcd13ifvqbg0","pricing_plan_id":"cebpf4jnsgd1na2vs0mg"},{"bike_id":"5740ae4c-fd14-4007-b1d1-410c1440e7bc","system_id":"levelo_inurba_marseille","lat":43.27323,"lon":5.39063,"is_reserved":false,"is_disabled":true,"rental_uris":{"android":"levelo://app?vid=5740ae4c-fd14-4007-b1d1-410c1440e7bc","ios":"levelo://app?vid=5740ae4c-fd14-4007-b1d1-410c1440e7bc"},"vehicle_type_id":"4","last_reported":1734174448,"current_range_meters":0,"station_id":"ce4bhgp2rcd13ifvqfe0","pricing_plan_id":"cebpf4jnsgd1na2vs0mg"},{"bike_id":"645eec9e-39b6-4a50-9b37-852260570499","system_id":"levelo_inurba_marseille","lat":43.29896,"lon":5.43671,"is_reserved":false,"is_disabled":false,"rental_uris":{"android":"levelo://app?vid=645eec9e-39b6-4a50-9b37-852260570499","ios":"levelo://app?vid=645eec9e-39b6-4a50-9b37-852260570499"},"vehicle_type_id":"4","last_reported":1734174448,"current_range_meters":23200,"station_id":"ce4bhpp2rcd13ifvqhfg","pricing_plan_id":"cebpf4jnsgd1na2vs0mg"},{"bike_id":"e09232fc-13a1-4162-9377-b889198caa42","system_id":"levelo_inurba_marseille","lat":43.30534,"lon":5.3656,"is_reserved":false,"is_disabled":false,"rental_uris":{"android":"levelo://app?vid=e09232fc-13a1-4162-9377-b889198caa42","ios":"levelo://app?vid=e09232fc-13a1-4162-9377-b889198caa42"},"vehicle_type_id":"4","last_reported":1734174448,"current_range_meters":20000,"station_id":"ce4bgs12rcd13ifvqcag","pricing_plan_id":"cebpf4jnsgd1na2vs0mg"},{"bike_id":"b948092c-9ab4-45a3-af33-669f10a0ca1c","system_id":"levelo_inurba_marseille","lat":43.24805,"lon":5.37456,"is_reserved":false,"is_disabled":false,"rental_uris":{"android":"levelo://app?vid=b948092c-9ab4-45a3-af33-669f10a0ca1c","ios":"levelo://app?vid=b948092c-9ab4-45a3-af33-669f10a0ca1c"},"vehicle_type_id":"4","last_reported":1734174448,"current_range_meters":33200,"station_id":"ce4bhgh2rcd13ifvqfb0","pricing_plan_id":"cebpf4jnsgd1na2vs0mg"},{"bike_id":"07154a6e-1aad-4b6f-8cd5-49a1da2b8e24","system_id":"levelo_inurba_marseille","lat":43.23147,"lon":5.43709,"is_reserved":false,"is_disabled":false,"rental_uris":{"android":"levelo://app?vid=07154a6e-1aad-4b6f-8cd5-49a1da2b8e24","ios":"levelo://app?vid=07154a6e-1aad-4b6f-8cd5-49a1da2b8e24"},"vehicle_type_id":"4","last_reported":1734174448,"current_range_meters":25200,"station_id":"ce4bhmp2rcd13ifvqgog","pricing_plan_id":"cebpf4jnsgd1na2vs0mg"},{"bike_id":"f33ff20e-bea8-4fa7-a5f1-b3a99818f745","system_id":"levelo_inurba_marseille","lat":43.29021,"lon":5.38642,"is_reserved":false,"is_disabled":false,"rental_uris":{"android":"levelo://app?vid=f33ff20e-bea8-4fa7-a5f1-b3a99818f745","ios":"levelo://app?vid=f33ff20e-bea8-4fa7-a5f1-b3a99818f745"},"vehicle_type_id":"4","last_reported":1734174448,"current_range_meters":9600,"station_id":"ce4bh4p2rcd13ifvqe0g","pricing_plan_id":"cebpf4jnsgd1na2vs0mg"},{"bike_id":"95c2782c-f709-468e-bdf1-40555035f8b0","system_id":"levelo_inurba_marseille","lat":43.337444,"lon":5.374475,"is_reserved":false,"is_disabled":false,"rental_uris":{"android":"levelo://app?vid=95c2782c-f709-468e-bdf1-40555035f8b0","ios":"levelo://app?vid=95c2782c-f709-468e-bdf1-40555035f8b0"},"vehicle_type_id":"4","last_reported":1734174448,"current_range_meters":38800,"station_id":"chh1huq6cuj3fo74tm60","pricing_plan_id":"cebpf4jnsgd1na2vs0mg"},{"bike_id":"b169b590-37a0-4ccd-8191-68e20c453cd8","system_id":"levelo_inurba_marseille","lat":43.29305,"lon":5.37182,"is_reserved":false,"is_disabled":false,"rental_uris":{"android":"levelo://app?vid=b169b590-37a0-4ccd-8191-68e20c453cd8","ios":"levelo://app?vid=b169b590-37a0-4ccd-8191-68e20c453cd8"},"vehicle_type_id":"4","last_reported":1734174448,"current_range_meters":35600,"station_id":"ce4bgh92rcd13ifvqb40","pricing_plan_id":"cebpf4jnsgd1na2vs0mg"},{"bike_id":"818ef841-d8c0-4c92-9c0c-4a12654cda95","system_id":"levelo_inurba_marseille","lat":43.306,"lon":5.37237,"is_reserved":false,"is_disabled":false,"rental_uris":{"android":"levelo://app?vid=818ef841-d8c0-4c92-9c0c-4a12654cda95","ios":"levelo://app?vid=818ef841-d8c0-4c92-9c0c-4a12654cda95"},"vehicle_type_id":"4","last_reported":1734174448,"current_range_meters":26000,"station_id":"ce4bgqh2rcd13ifvqc4g","pricing_plan_id":"cebpf4jnsgd1na2vs0mg"},{"bike_id":"08cbdfac-3be1-46bf-a8b8-d6e51237a7ef","system_id":"levelo_inurba_marseille","lat":43.30542,"lon":5.3654,"is_reserved":false,"is_disabled":false,"rental_uris":{"android":"levelo://app?vid=08cbdfac-3be1-46bf-a8b8-d6e51237a7ef","ios":"levelo://app?vid=08cbdfac-3be1-46bf-a8b8-d6e51237a7ef"},"vehicle_type_id":"4","last_reported":1734174448,"current_range_meters":17600,"station_id":"ce4bgs12rcd13ifvqcag","pricing_plan_id":"cebpf4jnsgd1na2vs0mg"},{"bike_id":"cb88792c-61e1-45a7-8354-2daa848fb721","system_id":"levelo_inurba_marseille","lat":43.2956,"lon":5.37533,"is_reserved":false,"is_disabled":false,"rental_uris":{"android":"levelo://app?vid=cb88792c-61e1-45a7-8354-2daa848fb721","ios":"levelo://app?vid=cb88792c-61e1-45a7-8354-2daa848fb721"},"vehicle_type_id":"4","last_reported":1734174448,"current_range_meters":38800,"station_id":"ce4bgh92rcd13ifvqb50","pricing_plan_id":"cebpf4jnsgd1na2vs0mg"},{"bike_id":"1965b813-edf8-44e2-8c5f-8e5842072e8a","system_id":"levelo_inurba_marseille","lat":43.29682,"lon":5.37714,"is_reserved":false,"is_disabled":false,"rental_uris":{"android":"levelo://app?vid=1965b813-edf8-44e2-8c5f-8e5842072e8a","ios":"levelo://app?vid=1965b813-edf8-44e2-8c5f-8e5842072e8a"},"vehicle_type_id":"4","last_reported":1734174448,"current_range_meters":28000,"station_id":"ce4bgkh2rcd13ifvqbl0","pricing_plan_id":"cebpf4jnsgd1na2vs0mg"},{"bike_id":"bfb831ad-0686-43d0-adbf-fea0510215af","system_id":"levelo_inurba_marseille","lat":43.27051,"lon":5.40258,"is_reserved":false,"is_disabled":false,"rental_uris":{"android":"levelo://app?vid=bfb831ad-0686-43d0-adbf-fea0510215af","ios":"levelo://app?vid=bfb831ad-0686-43d0-adbf-fea0510215af"},"vehicle_type_id":"4","last_reported":1734174448,"current_range_meters":38800,"station_id":"ce4bhk92rcd13ifvqgc0","pricing_plan_id":"cebpf4jnsgd1na2vs0mg"},{"bike_id":"21b390a6-5849-4185-8e0b-7994a2957405","system_id":"levelo_inurba_marseille","lat":43.26033,"lon":5.37543,"is_reserved":false,"is_disabled":true,"rental_uris":{"android":"levelo://app?vid=21b390a6-5849-4185-8e0b-7994a2957405","ios":"levelo://app?vid=21b390a6-5849-4185-8e0b-7994a2957405"},"vehicle_type_id":"4","last_reported":1734174448,"current_range_meters":22000,"station_id":"","pricing_plan_id":"cebpf4jnsgd1na2vs0mg"},{"bike_id":"6bc7401a-ad66-4e4d-bfd6-a954bc5b40c0","system_id":"levelo_inurba_marseille","lat":43.29008,"lon":5.35611,"is_reserved":false,"is_disabled":false,"rental_uris":{"android":"levelo://app?vid=6bc7401a-ad66-4e4d-bfd6-a954bc5b40c0","ios":"levelo://app?vid=6bc7401a-ad66-4e4d-bfd6-a954bc5b40c0"},"vehicle_type_id":"4","last_reported":1734174448,"current_range_meters":36400,"station_id":"ce4bhb92rcd13ifvqen0","pricing_plan_id":"cebpf4jnsgd1na2vs0mg"},{"bike_id":"877aab67-dceb-42f2-93af-975366c9315f","system_id":"levelo_inurba_marseille","lat":43.30268,"lon":5.37709,"is_reserved":false,"is_disabled":false,"rental_uris":{"android":"levelo://app?vid=877aab67-dceb-42f2-93af-975366c9315f","ios":"levelo://app?vid=877aab67-dceb-42f2-93af-975366c9315f"},"vehicle_type_id":"4","last_reported":1734174448,"current_range_meters":38000,"station_id":"ce4bguh2rcd13ifvqcj0","pricing_plan_id":"cebpf4jnsgd1na2vs0mg"},{"bike_id":"28fc90b9-3e7b-4c11-b6c2-40d95902dadd","system_id":"levelo_inurba_marseille","lat":43.22914,"lon":5.35395,"is_reserved":false,"is_disabled":false,"rental_uris":{"android":"levelo://app?vid=28fc90b9-3e7b-4c11-b6c2-40d95902dadd","ios":"levelo://app?vid=28fc90b9-3e7b-4c11-b6c2-40d95902dadd"},"vehicle_type_id":"4","last_reported":1734174448,"current_range_meters":38800,"station_id":"cpo3532slgdg3j2ikp40","pricing_plan_id":"cebpf4jnsgd1na2vs0mg"},{"bike_id":"c5f43db4-45bc-418e-bac1-46135460304e","system_id":"levelo_inurba_marseille","lat":43.30414,"lon":5.41291,"is_reserved":false,"is_disabled":false,"rental_uris":{"android":"levelo://app?vid=c5f43db4-45bc-418e-bac1-46135460304e","ios":"levelo://app?vid=c5f43db4-45bc-418e-bac1-46135460304e"},"vehicle_type_id":"4","last_reported":1734174448,"current_range_meters":31200,"station_id":"","pricing_plan_id":"cebpf4jnsgd1na2vs0mg"},{"bike_id":"3c8aa2c8-57b6-4e43-b616-108d87bd9e75","system_id":"levelo_inurba_marseille","lat":43.27952,"lon":5.3872,"is_reserved":false,"is_disabled":false,"rental_uris":{"android":"levelo://app?vid=3c8aa2c8-57b6-4e43-b616-108d87bd9e75","ios":"levelo://app?vid=3c8aa2c8-57b6-4e43-b616-108d87bd9e75"},"vehicle_type_id":"4","last_reported":1734174448,"current_range_meters":38800,"station_id":"ce4bhg12rcd13ifvqf80","pricing_plan_id":"cebpf4jnsgd1na2vs0mg"},{"bike_id":"eb1496f4-67ed-47fd-8660-60023378367f","system_id":"levelo_inurba_marseille","lat":43.294212,"lon":5.374322,"is_reserved":false,"is_disabled":true,"rental_uris":{"android":"levelo://app?vid=eb1496f4-67ed-47fd-8660-60023378367f","ios":"levelo://app?vid=eb1496f4-67ed-47fd-8660-60023378367f"},"vehicle_type_id":"4","last_reported":1734174448,"current_range_meters":0,"station_id":"","pricing_plan_id":"cebpf4jnsgd1na2vs0mg"},{"bike_id":"edd07c02-9936-4457-bd98-063c892656f8","system_id":"levelo_inurba_marseille","lat":43.31036,"lon":5.37479,"is_reserved":false,"is_disabled":false,"rental_uris":{"android":"levelo://app?vid=edd07c02-9936-4457-bd98-063c892656f8","ios":"levelo://app?vid=edd07c02-9936-4457-bd98-063c892656f8"},"vehicle_type_id":"4","last_reported":1734174448,"current_range_meters":8400,"station_id":"","pricing_plan_id":"cebpf4jnsgd1na2vs0mg"},{"bike_id":"f959f7f5-71c3-41fe-b107-12c59d02cbd0","system_id":"levelo_inurba_marseille","lat":43.31223,"lon":5.36874,"is_reserved":false,"is_disabled":false,"rental_uris":{"android":"levelo://app?vid=f959f7f5-71c3-41fe-b107-12c59d02cbd0","ios":"levelo://app?vid=f959f7f5-71c3-41fe-b107-12c59d02cbd0"},"vehicle_type_id":"4","last_reported":1734174448,"current_range_meters":19600,"station_id":"ce4bgl92rcd13ifvqbq0","pricing_plan_id":"cebpf4jnsgd1na2vs0mg"},{"bike_id":"a2e3bf37-f1e5-4b35-adeb-0da3e0fe69d3","system_id":"levelo_inurba_marseille","lat":43.28638,"lon":5.38623,"is_reserved":false,"is_disabled":true,"rental_uris":{"android":"levelo://app?vid=a2e3bf37-f1e5-4b35-adeb-0da3e0fe69d3","ios":"levelo://app?vid=a2e3bf37-f1e5-4b35-adeb-0da3e0fe69d3"},"vehicle_type_id":"4","last_reported":1734174448,"current_range_meters":0,"station_id":"","pricing_plan_id":"cebpf4jnsgd1na2vs0mg"},{"bike_id":"db5734ec-b3e1-4315-b79b-5e95fd451939","system_id":"levelo_inurba_marseille","lat":43.30428,"lon":5.38912,"is_reserved":false,"is_disabled":false,"rental_uris":{"android":"levelo://app?vid=db5734ec-b3e1-4315-b79b-5e95fd451939","ios":"levelo://app?vid=db5734ec-b3e1-4315-b79b-5e95fd451939"},"vehicle_type_id":"4","last_reported":1734174448,"current_range_meters":39200,"station_id":"ce4bgk12rcd13ifvqbi0","pricing_plan_id":"cebpf4jnsgd1na2vs0mg"},{"bike_id":"7598c6ce-cf6e-4fb0-841c-5c5c2ee94d30","system_id":"levelo_inurba_marseille","lat":43.23136,"lon":5.43749,"is_reserved":false,"is_disabled":false,"rental_uris":{"android":"levelo://app?vid=7598c6ce-cf6e-4fb0-841c-5c5c2ee94d30","ios":"levelo://app?vid=7598c6ce-cf6e-4fb0-841c-5c5c2ee94d30"},"vehicle_type_id":"4","last_reported":1734174448,"current_range_meters":20400,"station_id":"ce4bhmp2rcd13ifvqgog","pricing_plan_id":"cebpf4jnsgd1na2vs0mg"},{"bike_id":"bdbbe775-4e15-4ea8-acd5-8b142dd9da55","system_id":"levelo_inurba_marseille","lat":43.30475,"lon":5.37886,"is_reserved":false,"is_disabled":false,"rental_uris":{"android":"levelo://app?vid=bdbbe775-4e15-4ea8-acd5-8b142dd9da55","ios":"levelo://app?vid=bdbbe775-4e15-4ea8-acd5-8b142dd9da55"},"vehicle_type_id":"4","last_reported":1734174448,"current_range_meters":32400,"station_id":"ce4bgup2rcd13ifvqcn0","pricing_plan_id":"cebpf4jnsgd1na2vs0mg"},{"bike_id":"ec927667-9164-479a-b446-395f55c955bb","system_id":"levelo_inurba_marseille","lat":43.22914,"lon":5.35376,"is_reserved":false,"is_disabled":false,"rental_uris":{"android":"levelo://app?vid=ec927667-9164-479a-b446-395f55c955bb","ios":"levelo://app?vid=ec927667-9164-479a-b446-395f55c955bb"},"vehicle_type_id":"4","last_reported":1734174448,"current_range_meters":38800,"station_id":"cpo3532slgdg3j2ikp40","pricing_plan_id":"cebpf4jnsgd1na2vs0mg"},{"bike_id":"e171553a-d499-40c6-b158-4c1c9a0d09dc","system_id":"levelo_inurba_marseille","lat":43.27152,"lon":5.4099,"is_reserved":false,"is_disabled":false,"rental_uris":{"android":"levelo://app?vid=e171553a-d499-40c6-b158-4c1c9a0d09dc","ios":"levelo://app?vid=e171553a-d499-40c6-b158-4c1c9a0d09dc"},"vehicle_type_id":"4","last_reported":1734174448,"current_range_meters":38800,"station_id":"ce4bhl12rcd13ifvqgf0","pricing_plan_id":"cebpf4jnsgd1na2vs0mg"},{"bike_id":"3bd9b001-4b98-42df-8ac3-1a10e66a2ef2","system_id":"levelo_inurba_marseille","lat":43.28074,"lon":5.3965,"is_reserved":false,"is_disabled":false,"rental_uris":{"android":"levelo://app?vid=3bd9b001-4b98-42df-8ac3-1a10e66a2ef2","ios":"levelo://app?vid=3bd9b001-4b98-42df-8ac3-1a10e66a2ef2"},"vehicle_type_id":"4","last_reported":1734174448,"current_range_meters":24800,"station_id":"ce4bho12rcd13ifvqh2g","pricing_plan_id":"cebpf4jnsgd1na2vs0mg"},{"bike_id":"a02bce7c-288c-46c0-a9fd-8aa8e0178c35","system_id":"levelo_inurba_marseille","lat":43.23174,"lon":5.35579,"is_reserved":false,"is_disabled":false,"rental_uris":{"android":"levelo://app?vid=a02bce7c-288c-46c0-a9fd-8aa8e0178c35","ios":"levelo://app?vid=a02bce7c-288c-46c0-a9fd-8aa8e0178c35"},"vehicle_type_id":"4","last_reported":1734174448,"current_range_meters":24800,"station_id":"ce4bhu92rcd13ifvqi70","pricing_plan_id":"cebpf4jnsgd1na2vs0mg"},{"bike_id":"88048084-7d10-44c8-944c-27f5ea481b2d","system_id":"levelo_inurba_marseille","lat":43.29211,"lon":5.36064,"is_reserved":false,"is_disabled":false,"rental_uris":{"android":"levelo://app?vid=88048084-7d10-44c8-944c-27f5ea481b2d","ios":"levelo://app?vid=88048084-7d10-44c8-944c-27f5ea481b2d"},"vehicle_type_id":"4","last_reported":1734174448,"current_range_meters":30800,"station_id":"ce4bhbh2rcd13ifvqeqg","pricing_plan_id":"cebpf4jnsgd1na2vs0mg"},{"bike_id":"807c66ce-b746-48c3-bf88-07717a49aec6","system_id":"levelo_inurba_marseille","lat":43.29981,"lon":5.37166,"is_reserved":false,"is_disabled":false,"rental_uris":{"android":"levelo://app?vid=807c66ce-b746-48c3-bf88-07717a49aec6","ios":"levelo://app?vid=807c66ce-b746-48c3-bf88-07717a49aec6"},"vehicle_type_id":"4","last_reported":1734174448,"current_range_meters":39200,"station_id":"ce4bgr92rcd13ifvqc7g","pricing_plan_id":"cebpf4jnsgd1na2vs0mg"},{"bike_id":"5b0b2149-975d-47a9-a76e-2cd95b7ec831","system_id":"levelo_inurba_marseille","lat":43.30355,"lon":5.41879,"is_reserved":false,"is_disabled":false,"rental_uris":{"android":"levelo://app?vid=5b0b2149-975d-47a9-a76e-2cd95b7ec831","ios":"levelo://app?vid=5b0b2149-975d-47a9-a76e-2cd95b7ec831"},"vehicle_type_id":"4","last_reported":1734174448,"current_range_meters":38400,"station_id":"ce4bhop2rcd13ifvqh7g","pricing_plan_id":"cebpf4jnsgd1na2vs0mg"},{"bike_id":"08a336e7-ecb9-44a4-b068-31dd6c070aa7","system_id":"levelo_inurba_marseille","lat":43.29582,"lon":5.37744,"is_reserved":false,"is_disabled":false,"rental_uris":{"android":"levelo://app?vid=08a336e7-ecb9-44a4-b068-31dd6c070aa7","ios":"levelo://app?vid=08a336e7-ecb9-44a4-b068-31dd6c070aa7"},"vehicle_type_id":"4","last_reported":1734174448,"current_range_meters":23200,"station_id":"ce4bgi92rcd13ifvqb90","pricing_plan_id":"cebpf4jnsgd1na2vs0mg"},{"bike_id":"fd12253f-5beb-47b8-ae4f-33f5f5761a8c","system_id":"levelo_inurba_marseille","lat":43.27191,"lon":5.39179,"is_reserved":false,"is_disabled":false,"rental_uris":{"android":"levelo://app?vid=fd12253f-5beb-47b8-ae4f-33f5f5761a8c","ios":"levelo://app?vid=fd12253f-5beb-47b8-ae4f-33f5f5761a8c"},"vehicle_type_id":"4","last_reported":1734174448,"current_range_meters":20800,"station_id":"ce4bhhp2rcd13ifvqfm0","pricing_plan_id":"cebpf4jnsgd1na2vs0mg"},{"bike_id":"fa90612f-7cb7-4169-894f-6478ec30bfe6","system_id":"levelo_inurba_marseille","lat":43.29551,"lon":5.42287,"is_reserved":false,"is_disabled":false,"rental_uris":{"android":"levelo://app?vid=fa90612f-7cb7-4169-894f-6478ec30bfe6","ios":"levelo://app?vid=fa90612f-7cb7-4169-894f-6478ec30bfe6"},"vehicle_type_id":"4","last_reported":1734174448,"current_range_meters":38800,"station_id":"ce4bhph2rcd13ifvqhdg","pricing_plan_id":"cebpf4jnsgd1na2vs0mg"},{"bike_id":"4a2ae887-1d68-4b08-92ee-5eee001f16f7","system_id":"levelo_inurba_marseille","lat":43.29796,"lon":5.38085,"is_reserved":false,"is_disabled":false,"rental_uris":{"android":"levelo://app?vid=4a2ae887-1d68-4b08-92ee-5eee001f16f7","ios":"levelo://app?vid=4a2ae887-1d68-4b08-92ee-5eee001f16f7"},"vehicle_type_id":"4","last_reported":1734174448,"current_range_meters":26000,"station_id":"ce4bgip2rcd13ifvqbb0","pricing_plan_id":"cebpf4jnsgd1na2vs0mg"},{"bike_id":"44a0683d-173b-4692-9edd-1a8b465502d3","system_id":"levelo_inurba_marseille","lat":43.29576,"lon":5.37524,"is_reserved":false,"is_disabled":false,"rental_uris":{"android":"levelo://app?vid=44a0683d-173b-4692-9edd-1a8b465502d3","ios":"levelo://app?vid=44a0683d-173b-4692-9edd-1a8b465502d3"},"vehicle_type_id":"4","last_reported":1734174448,"current_range_meters":28400,"station_id":"ce4bgh92rcd13ifvqb50","pricing_plan_id":"cebpf4jnsgd1na2vs0mg"},{"bike_id":"07bb9db8-ee37-4b8e-9e65-df645fd04af9","system_id":"levelo_inurba_marseille","lat":43.31487,"lon":5.37311,"is_reserved":false,"is_disabled":false,"rental_uris":{"android":"levelo://app?vid=07bb9db8-ee37-4b8e-9e65-df645fd04af9","ios":"levelo://app?vid=07bb9db8-ee37-4b8e-9e65-df645fd04af9"},"vehicle_type_id":"4","last_reported":1734174448,"current_range_meters":36400,"station_id":"ce4bgt12rcd13ifvqcd0","pricing_plan_id":"cebpf4jnsgd1na2vs0mg"},{"bike_id":"5a6694f4-8bd6-4a4d-aa57-0d9ab23c7941","system_id":"levelo_inurba_marseille","lat":43.30175,"lon":5.36606,"is_reserved":false,"is_disabled":false,"rental_uris":{"android":"levelo://app?vid=5a6694f4-8bd6-4a4d-aa57-0d9ab23c7941","ios":"levelo://app?vid=5a6694f4-8bd6-4a4d-aa57-0d9ab23c7941"},"vehicle_type_id":"4","last_reported":1734174448,"current_range_meters":28400,"station_id":"ce4bgrh2rcd13ifvqc8g","pricing_plan_id":"cebpf4jnsgd1na2vs0mg"},{"bike_id":"b5205575-de41-469c-8bf4-268796ad09be","system_id":"levelo_inurba_marseille","lat":43.25506,"lon":5.37649,"is_reserved":false,"is_disabled":false,"rental_uris":{"android":"levelo://app?vid=b5205575-de41-469c-8bf4-268796ad09be","ios":"levelo://app?vid=b5205575-de41-469c-8bf4-268796ad09be"},"vehicle_type_id":"4","last_reported":1734174448,"current_range_meters":39200,"station_id":"ce4bhh12rcd13ifvqff0","pricing_plan_id":"cebpf4jnsgd1na2vs0mg"},{"bike_id":"9261f6b5-433e-45b4-abdf-ae7304ed492f","system_id":"levelo_inurba_marseille","lat":43.29437,"lon":5.39753,"is_reserved":false,"is_disabled":false,"rental_uris":{"android":"levelo://app?vid=9261f6b5-433e-45b4-abdf-ae7304ed492f","ios":"levelo://app?vid=9261f6b5-433e-45b4-abdf-ae7304ed492f"},"vehicle_type_id":"4","last_reported":1734174448,"current_range_meters":32400,"station_id":"ce4bh3h2rcd13ifvqdo0","pricing_plan_id":"cebpf4jnsgd1na2vs0mg"},{"bike_id":"abe250a1-3d26-47a1-bae8-73bf3354b17a","system_id":"levelo_inurba_marseille","lat":43.27199,"lon":5.4099,"is_reserved":false,"is_disabled":false,"rental_uris":{"android":"levelo://app?vid=abe250a1-3d26-47a1-bae8-73bf3354b17a","ios":"levelo://app?vid=abe250a1-3d26-47a1-bae8-73bf3354b17a"},"vehicle_type_id":"4","last_reported":1734174448,"current_range_meters":11200,"station_id":"ce4bhl12rcd13ifvqgf0","pricing_plan_id":"cebpf4jnsgd1na2vs0mg"},{"bike_id":"ddd45005-b743-4932-8bc1-8601586aefd3","system_id":"levelo_inurba_marseille","lat":43.262,"lon":5.37456,"is_reserved":false,"is_disabled":false,"rental_uris":{"android":"levelo://app?vid=ddd45005-b743-4932-8bc1-8601586aefd3","ios":"levelo://app?vid=ddd45005-b743-4932-8bc1-8601586aefd3"},"vehicle_type_id":"4","last_reported":1734174448,"current_range_meters":36800,"station_id":"","pricing_plan_id":"cebpf4jnsgd1na2vs0mg"},{"bike_id":"ce9f2ae6-d005-47e2-a1b4-8674b1b9254b","system_id":"levelo_inurba_marseille","lat":43.30144,"lon":5.38076,"is_reserved":false,"is_disabled":false,"rental_uris":{"android":"levelo://app?vid=ce9f2ae6-d005-47e2-a1b4-8674b1b9254b","ios":"levelo://app?vid=ce9f2ae6-d005-47e2-a1b4-8674b1b9254b"},"vehicle_type_id":"4","last_reported":1734174448,"current_range_meters":38800,"station_id":"ce4bgjp2rcd13ifvqbh0","pricing_plan_id":"cebpf4jnsgd1na2vs0mg"},{"bike_id":"bad09c18-7711-41ee-bbb5-b5fd34fb1d4d","system_id":"levelo_inurba_marseille","lat":43.27179,"lon":5.41003,"is_reserved":false,"is_disabled":false,"rental_uris":{"android":"levelo://app?vid=bad09c18-7711-41ee-bbb5-b5fd34fb1d4d","ios":"levelo://app?vid=bad09c18-7711-41ee-bbb5-b5fd34fb1d4d"},"vehicle_type_id":"4","last_reported":1734174448,"current_range_meters":38800,"station_id":"ce4bhl12rcd13ifvqgf0","pricing_plan_id":"cebpf4jnsgd1na2vs0mg"},{"bike_id":"d2a0b895-cddb-4c91-8025-52871ff8256e","system_id":"levelo_inurba_marseille","lat":43.32223,"lon":5.38961,"is_reserved":false,"is_disabled":true,"rental_uris":{"android":"levelo://app?vid=d2a0b895-cddb-4c91-8025-52871ff8256e","ios":"levelo://app?vid=d2a0b895-cddb-4c91-8025-52871ff8256e"},"vehicle_type_id":"4","last_reported":1734174448,"current_range_meters":38800,"station_id":"","pricing_plan_id":"cebpf4jnsgd1na2vs0mg"},{"bike_id":"75506391-a12b-4ce2-997a-eff08551addc","system_id":"levelo_inurba_marseille","lat":43.23056,"lon":5.35496,"is_reserved":false,"is_disabled":false,"rental_uris":{"android":"levelo://app?vid=75506391-a12b-4ce2-997a-eff08551addc","ios":"levelo://app?vid=75506391-a12b-4ce2-997a-eff08551addc"},"vehicle_type_id":"4","last_reported":1734174448,"current_range_meters":36800,"station_id":"cpo3342slgdg3j2ifvpg","pricing_plan_id":"cebpf4jnsgd1na2vs0mg"},{"bike_id":"c9386dd6-8f0b-425f-ba06-4c88cbc1f623","system_id":"levelo_inurba_marseille","lat":43.255043,"lon":5.37658,"is_reserved":false,"is_disabled":false,"rental_uris":{"android":"levelo://app?vid=c9386dd6-8f0b-425f-ba06-4c88cbc1f623","ios":"levelo://app?vid=c9386dd6-8f0b-425f-ba06-4c88cbc1f623"},"vehicle_type_id":"4","last_reported":1734174448,"current_range_meters":38800,"station_id":"ce4bhh12rcd13ifvqff0","pricing_plan_id":"cebpf4jnsgd1na2vs0mg"},{"bike_id":"e7670056-028a-4ad6-a74c-f8db7e8100e8","system_id":"levelo_inurba_marseille","lat":43.29376,"lon":5.37858,"is_reserved":false,"is_disabled":false,"rental_uris":{"android":"levelo://app?vid=e7670056-028a-4ad6-a74c-f8db7e8100e8","ios":"levelo://app?vid=e7670056-028a-4ad6-a74c-f8db7e8100e8"},"vehicle_type_id":"4","last_reported":1734174448,"current_range_meters":30400,"station_id":"ce4bgjh2rcd13ifvqbf0","pricing_plan_id":"cebpf4jnsgd1na2vs0mg"},{"bike_id":"0dc53ed0-703c-41c7-a7ba-e5fe121ea6cc","system_id":"levelo_inurba_marseille","lat":43.28935,"lon":5.37885,"is_reserved":false,"is_disabled":false,"rental_uris":{"android":"levelo://app?vid=0dc53ed0-703c-41c7-a7ba-e5fe121ea6cc","ios":"levelo://app?vid=0dc53ed0-703c-41c7-a7ba-e5fe121ea6cc"},"vehicle_type_id":"4","last_reported":1734174448,"current_range_meters":29600,"station_id":"","pricing_plan_id":"cebpf4jnsgd1na2vs0mg"},{"bike_id":"21fa9444-1db9-4056-9545-16fb192374c6","system_id":"levelo_inurba_marseille","lat":43.26208,"lon":5.37922,"is_reserved":false,"is_disabled":false,"rental_uris":{"android":"levelo://app?vid=21fa9444-1db9-4056-9545-16fb192374c6","ios":"levelo://app?vid=21fa9444-1db9-4056-9545-16fb192374c6"},"vehicle_type_id":"4","last_reported":1734174448,"current_range_meters":34800,"station_id":"ce4bhjp2rcd13ifvqg90","pricing_plan_id":"cebpf4jnsgd1na2vs0mg"},{"bike_id":"f0688521-339d-4b11-98b4-8b413dfcdc75","system_id":"levelo_inurba_marseille","lat":43.30243,"lon":5.40046,"is_reserved":false,"is_disabled":true,"rental_uris":{"android":"levelo://app?vid=f0688521-339d-4b11-98b4-8b413dfcdc75","ios":"levelo://app?vid=f0688521-339d-4b11-98b4-8b413dfcdc75"},"vehicle_type_id":"4","last_reported":1734174448,"current_range_meters":21600,"station_id":"ce4bgvh2rcd13ifvqcs0","pricing_plan_id":"cebpf4jnsgd1na2vs0mg"},{"bike_id":"c75bddd8-53e9-48da-b5b5-42395c8f7395","system_id":"levelo_inurba_marseille","lat":43.33728,"lon":5.39203,"is_reserved":false,"is_disabled":false,"rental_uris":{"android":"levelo://app?vid=c75bddd8-53e9-48da-b5b5-42395c8f7395","ios":"levelo://app?vid=c75bddd8-53e9-48da-b5b5-42395c8f7395"},"vehicle_type_id":"4","last_reported":1734174448,"current_range_meters":38000,"station_id":"ce4bhr92rcd13ifvqhsg","pricing_plan_id":"cebpf4jnsgd1na2vs0mg"},{"bike_id":"be3d60a6-6fb6-4cc8-81d6-6fe96ff5ee23","system_id":"levelo_inurba_marseille","lat":43.2305,"lon":5.35513,"is_reserved":false,"is_disabled":false,"rental_uris":{"android":"levelo://app?vid=be3d60a6-6fb6-4cc8-81d6-6fe96ff5ee23","ios":"levelo://app?vid=be3d60a6-6fb6-4cc8-81d6-6fe96ff5ee23"},"vehicle_type_id":"4","last_reported":1734174448,"current_range_meters":36000,"station_id":"cpo3342slgdg3j2ifvpg","pricing_plan_id":"cebpf4jnsgd1na2vs0mg"},{"bike_id":"d4729cb9-601b-4fe4-abb4-aa409455fcdd","system_id":"levelo_inurba_marseille","lat":43.26203,"lon":5.37454,"is_reserved":false,"is_disabled":false,"rental_uris":{"android":"levelo://app?vid=d4729cb9-601b-4fe4-abb4-aa409455fcdd","ios":"levelo://app?vid=d4729cb9-601b-4fe4-abb4-aa409455fcdd"},"vehicle_type_id":"4","last_reported":1734174448,"current_range_meters":33600,"station_id":"ce4bhgp2rcd13ifvqfc0","pricing_plan_id":"cebpf4jnsgd1na2vs0mg"},{"bike_id":"1c42fdc6-7f83-4ce8-a45b-194e40a78dc1","system_id":"levelo_inurba_marseille","lat":43.26207,"lon":5.37443,"is_reserved":false,"is_disabled":false,"rental_uris":{"android":"levelo://app?vid=1c42fdc6-7f83-4ce8-a45b-194e40a78dc1","ios":"levelo://app?vid=1c42fdc6-7f83-4ce8-a45b-194e40a78dc1"},"vehicle_type_id":"4","last_reported":1734174448,"current_range_meters":16800,"station_id":"ce4bhgp2rcd13ifvqfc0","pricing_plan_id":"cebpf4jnsgd1na2vs0mg"},{"bike_id":"68c12a5e-5c8c-4d33-a2b5-71181e42729a","system_id":"levelo_inurba_marseille","lat":43.23177,"lon":5.4003,"is_reserved":false,"is_disabled":false,"rental_uris":{"android":"levelo://app?vid=68c12a5e-5c8c-4d33-a2b5-71181e42729a","ios":"levelo://app?vid=68c12a5e-5c8c-4d33-a2b5-71181e42729a"},"vehicle_type_id":"4","last_reported":1734174448,"current_range_meters":33200,"station_id":"ce4bhn12rcd13ifvqgqg","pricing_plan_id":"cebpf4jnsgd1na2vs0mg"},{"bike_id":"fd1d6366-cf9f-4720-bfed-437d147382a8","system_id":"levelo_inurba_marseille","lat":43.24997,"lon":5.38925,"is_reserved":false,"is_disabled":false,"rental_uris":{"android":"levelo://app?vid=fd1d6366-cf9f-4720-bfed-437d147382a8","ios":"levelo://app?vid=fd1d6366-cf9f-4720-bfed-437d147382a8"},"vehicle_type_id":"4","last_reported":1734174448,"current_range_meters":38800,"station_id":"ce4bhgp2rcd13ifvqfd0","pricing_plan_id":"cebpf4jnsgd1na2vs0mg"},{"bike_id":"b377a437-ba59-4356-810f-8a4d1c613335","system_id":"levelo_inurba_marseille","lat":43.27984,"lon":5.41663,"is_reserved":false,"is_disabled":false,"rental_uris":{"android":"levelo://app?vid=b377a437-ba59-4356-810f-8a4d1c613335","ios":"levelo://app?vid=b377a437-ba59-4356-810f-8a4d1c613335"},"vehicle_type_id":"4","last_reported":1734174448,"current_range_meters":38400,"station_id":"ce4bho12rcd13ifvqh1g","pricing_plan_id":"cebpf4jnsgd1na2vs0mg"},{"bike_id":"9332f19c-96e3-47ac-8807-c5c2384614c0","system_id":"levelo_inurba_marseille","lat":43.23058,"lon":5.35546,"is_reserved":false,"is_disabled":false,"rental_uris":{"android":"levelo://app?vid=9332f19c-96e3-47ac-8807-c5c2384614c0","ios":"levelo://app?vid=9332f19c-96e3-47ac-8807-c5c2384614c0"},"vehicle_type_id":"4","last_reported":1734174448,"current_range_meters":36800,"station_id":"cpo3342slgdg3j2ifvpg","pricing_plan_id":"cebpf4jnsgd1na2vs0mg"},{"bike_id":"380c9a62-9355-46ea-aba6-5d39cd47ad4b","system_id":"levelo_inurba_marseille","lat":43.313743,"lon":5.406143,"is_reserved":false,"is_disabled":true,"rental_uris":{"android":"levelo://app?vid=380c9a62-9355-46ea-aba6-5d39cd47ad4b","ios":"levelo://app?vid=380c9a62-9355-46ea-aba6-5d39cd47ad4b"},"vehicle_type_id":"4","last_reported":1734174448,"current_range_meters":0,"station_id":"","pricing_plan_id":"cebpf4jnsgd1na2vs0mg"},{"bike_id":"13d10f0d-5939-404f-8671-451817cf9706","system_id":"levelo_inurba_marseille","lat":43.27206,"lon":5.39103,"is_reserved":false,"is_disabled":false,"rental_uris":{"android":"levelo://app?vid=13d10f0d-5939-404f-8671-451817cf9706","ios":"levelo://app?vid=13d10f0d-5939-404f-8671-451817cf9706"},"vehicle_type_id":"4","last_reported":1734174448,"current_range_meters":37600,"station_id":"","pricing_plan_id":"cebpf4jnsgd1na2vs0mg"},{"bike_id":"669b5bc2-214d-4382-9235-9dbcc733b78c","system_id":"levelo_inurba_marseille","lat":43.32465,"lon":5.36572,"is_reserved":false,"is_disabled":false,"rental_uris":{"android":"levelo://app?vid=669b5bc2-214d-4382-9235-9dbcc733b78c","ios":"levelo://app?vid=669b5bc2-214d-4382-9235-9dbcc733b78c"},"vehicle_type_id":"4","last_reported":1734174448,"current_range_meters":37600,"station_id":"ce4bhs12rcd13ifvqhvg","pricing_plan_id":"cebpf4jnsgd1na2vs0mg"},{"bike_id":"a8942e43-f3d6-46fd-8576-2cc6b2787f3e","system_id":"levelo_inurba_marseille","lat":43.33014,"lon":5.39056,"is_reserved":false,"is_disabled":false,"rental_uris":{"android":"levelo://app?vid=a8942e43-f3d6-46fd-8576-2cc6b2787f3e","ios":"levelo://app?vid=a8942e43-f3d6-46fd-8576-2cc6b2787f3e"},"vehicle_type_id":"4","last_reported":1734174448,"current_range_meters":15200,"station_id":"ce4bhr92rcd13ifvqhrg","pricing_plan_id":"cebpf4jnsgd1na2vs0mg"},{"bike_id":"38e28076-6fb4-424b-89ae-8e47d3e1800a","system_id":"levelo_inurba_marseille","lat":43.2549,"lon":5.37649,"is_reserved":false,"is_disabled":false,"rental_uris":{"android":"levelo://app?vid=38e28076-6fb4-424b-89ae-8e47d3e1800a","ios":"levelo://app?vid=38e28076-6fb4-424b-89ae-8e47d3e1800a"},"vehicle_type_id":"4","last_reported":1734174448,"current_range_meters":38000,"station_id":"ce4bhh12rcd13ifvqff0","pricing_plan_id":"cebpf4jnsgd1na2vs0mg"},{"bike_id":"fda2c63f-1fe2-4d00-8d20-2677f78c6a20","system_id":"levelo_inurba_marseille","lat":43.26019,"lon":5.37551,"is_reserved":false,"is_disabled":false,"rental_uris":{"android":"levelo://app?vid=fda2c63f-1fe2-4d00-8d20-2677f78c6a20","ios":"levelo://app?vid=fda2c63f-1fe2-4d00-8d20-2677f78c6a20"},"vehicle_type_id":"4","last_reported":1734174448,"current_range_meters":27600,"station_id":"ce4bhgh2rcd13ifvqfa0","pricing_plan_id":"cebpf4jnsgd1na2vs0mg"},{"bike_id":"b36cdbb9-b969-4422-a5e7-6651690a15c4","system_id":"levelo_inurba_marseille","lat":43.26185,"lon":5.37466,"is_reserved":false,"is_disabled":false,"rental_uris":{"android":"levelo://app?vid=b36cdbb9-b969-4422-a5e7-6651690a15c4","ios":"levelo://app?vid=b36cdbb9-b969-4422-a5e7-6651690a15c4"},"vehicle_type_id":"4","last_reported":1734174448,"current_range_meters":36000,"station_id":"ce4bhgp2rcd13ifvqfc0","pricing_plan_id":"cebpf4jnsgd1na2vs0mg"},{"bike_id":"99500b29-d428-4fd4-a577-4f104590c1ca","system_id":"levelo_inurba_marseille","lat":43.29841,"lon":5.36274,"is_reserved":false,"is_disabled":false,"rental_uris":{"android":"levelo://app?vid=99500b29-d428-4fd4-a577-4f104590c1ca","ios":"levelo://app?vid=99500b29-d428-4fd4-a577-4f104590c1ca"},"vehicle_type_id":"4","last_reported":1734174448,"current_range_meters":38800,"station_id":"ce4bgpp2rcd13ifvqc3g","pricing_plan_id":"cebpf4jnsgd1na2vs0mg"},{"bike_id":"283ec910-2b59-4ffd-bbff-9867d116f826","system_id":"levelo_inurba_marseille","lat":43.337444,"lon":5.374475,"is_reserved":false,"is_disabled":true,"rental_uris":{"android":"levelo://app?vid=283ec910-2b59-4ffd-bbff-9867d116f826","ios":"levelo://app?vid=283ec910-2b59-4ffd-bbff-9867d116f826"},"vehicle_type_id":"4","last_reported":1734174448,"current_range_meters":0,"station_id":"","pricing_plan_id":"cebpf4jnsgd1na2vs0mg"},{"bike_id":"8b24efbf-8837-4698-87ac-d788e664161c","system_id":"levelo_inurba_marseille","lat":43.27981,"lon":5.40029,"is_reserved":false,"is_disabled":false,"rental_uris":{"android":"levelo://app?vid=8b24efbf-8837-4698-87ac-d788e664161c","ios":"levelo://app?vid=8b24efbf-8837-4698-87ac-d788e664161c"},"vehicle_type_id":"4","last_reported":1734174448,"current_range_meters":38800,"station_id":"ce4bho92rcd13ifvqh4g","pricing_plan_id":"cebpf4jnsgd1na2vs0mg"},{"bike_id":"047ae0e2-efdd-42fe-9ef9-2525b5d879ab","system_id":"levelo_inurba_marseille","lat":43.31708,"lon":5.37767,"is_reserved":false,"is_disabled":false,"rental_uris":{"android":"levelo://app?vid=047ae0e2-efdd-42fe-9ef9-2525b5d879ab","ios":"levelo://app?vid=047ae0e2-efdd-42fe-9ef9-2525b5d879ab"},"vehicle_type_id":"4","last_reported":1734174448,"current_range_meters":38800,"station_id":"ce4bgth2rcd13ifvqch0","pricing_plan_id":"cebpf4jnsgd1na2vs0mg"},{"bike_id":"b19238d0-c8ba-40b6-9394-8f44d88ea7a5","system_id":"levelo_inurba_marseille","lat":43.30606,"lon":5.37222,"is_reserved":false,"is_disabled":false,"rental_uris":{"android":"levelo://app?vid=b19238d0-c8ba-40b6-9394-8f44d88ea7a5","ios":"levelo://app?vid=b19238d0-c8ba-40b6-9394-8f44d88ea7a5"},"vehicle_type_id":"4","last_reported":1734174448,"current_range_meters":36800,"station_id":"ce4bgqh2rcd13ifvqc4g","pricing_plan_id":"cebpf4jnsgd1na2vs0mg"},{"bike_id":"d3a6bd98-b560-4701-a1a2-4e1f3e83b4a8","system_id":"levelo_inurba_marseille","lat":43.26677,"lon":5.38265,"is_reserved":false,"is_disabled":false,"rental_uris":{"android":"levelo://app?vid=d3a6bd98-b560-4701-a1a2-4e1f3e83b4a8","ios":"levelo://app?vid=d3a6bd98-b560-4701-a1a2-4e1f3e83b4a8"},"vehicle_type_id":"4","last_reported":1734174448,"current_range_meters":8000,"station_id":"ce4bhg92rcd13ifvqf90","pricing_plan_id":"cebpf4jnsgd1na2vs0mg"},{"bike_id":"fe6395e8-dd4d-419f-96c3-295d4de39938","system_id":"levelo_inurba_marseille","lat":43.29836,"lon":5.3626,"is_reserved":false,"is_disabled":false,"rental_uris":{"android":"levelo://app?vid=fe6395e8-dd4d-419f-96c3-295d4de39938","ios":"levelo://app?vid=fe6395e8-dd4d-419f-96c3-295d4de39938"},"vehicle_type_id":"4","last_reported":1734174448,"current_range_meters":38800,"station_id":"ce4bgpp2rcd13ifvqc3g","pricing_plan_id":"cebpf4jnsgd1na2vs0mg"},{"bike_id":"c6234abb-f24f-4e51-8203-a434dd5a5cf7","system_id":"levelo_inurba_marseille","lat":43.27186,"lon":5.40993,"is_reserved":false,"is_disabled":false,"rental_uris":{"android":"levelo://app?vid=c6234abb-f24f-4e51-8203-a434dd5a5cf7","ios":"levelo://app?vid=c6234abb-f24f-4e51-8203-a434dd5a5cf7"},"vehicle_type_id":"4","last_reported":1734174448,"current_range_meters":38400,"station_id":"ce4bhl12rcd13ifvqgf0","pricing_plan_id":"cebpf4jnsgd1na2vs0mg"},{"bike_id":"6e6a004b-462d-4b03-aeaa-2611256f0d89","system_id":"levelo_inurba_marseille","lat":43.28119,"lon":5.38937,"is_reserved":false,"is_disabled":true,"rental_uris":{"android":"levelo://app?vid=6e6a004b-462d-4b03-aeaa-2611256f0d89","ios":"levelo://app?vid=6e6a004b-462d-4b03-aeaa-2611256f0d89"},"vehicle_type_id":"4","last_reported":1734174448,"current_range_meters":0,"station_id":"","pricing_plan_id":"cebpf4jnsgd1na2vs0mg"},{"bike_id":"735cf19f-b67c-44a5-bb2d-cb05eb1081e7","system_id":"levelo_inurba_marseille","lat":43.29309,"lon":5.3717,"is_reserved":false,"is_disabled":false,"rental_uris":{"android":"levelo://app?vid=735cf19f-b67c-44a5-bb2d-cb05eb1081e7","ios":"levelo://app?vid=735cf19f-b67c-44a5-bb2d-cb05eb1081e7"},"vehicle_type_id":"4","last_reported":1734174448,"current_range_meters":33200,"station_id":"ce4bgh92rcd13ifvqb40","pricing_plan_id":"cebpf4jnsgd1na2vs0mg"},{"bike_id":"852cbc77-5bc9-446b-b936-b50dafc59f11","system_id":"levelo_inurba_marseille","lat":43.29091,"lon":5.38134,"is_reserved":false,"is_disabled":false,"rental_uris":{"android":"levelo://app?vid=852cbc77-5bc9-446b-b936-b50dafc59f11","ios":"levelo://app?vid=852cbc77-5bc9-446b-b936-b50dafc59f11"},"vehicle_type_id":"4","last_reported":1734174448,"current_range_meters":30400,"station_id":"ce4bh512rcd13ifvqe2g","pricing_plan_id":"cebpf4jnsgd1na2vs0mg"},{"bike_id":"6666abf9-47c2-42a4-9451-283e2fa4d06e","system_id":"levelo_inurba_marseille","lat":43.30354,"lon":5.41874,"is_reserved":false,"is_disabled":false,"rental_uris":{"android":"levelo://app?vid=6666abf9-47c2-42a4-9451-283e2fa4d06e","ios":"levelo://app?vid=6666abf9-47c2-42a4-9451-283e2fa4d06e"},"vehicle_type_id":"4","last_reported":1734174448,"current_range_meters":39200,"station_id":"ce4bhop2rcd13ifvqh7g","pricing_plan_id":"cebpf4jnsgd1na2vs0mg"},{"bike_id":"c3848dd6-dc25-44d4-8c07-ff3e79d88df9","system_id":"levelo_inurba_marseille","lat":43.30154,"lon":5.38095,"is_reserved":false,"is_disabled":false,"rental_uris":{"android":"levelo://app?vid=c3848dd6-dc25-44d4-8c07-ff3e79d88df9","ios":"levelo://app?vid=c3848dd6-dc25-44d4-8c07-ff3e79d88df9"},"vehicle_type_id":"4","last_reported":1734174448,"current_range_meters":37600,"station_id":"ce4bgjp2rcd13ifvqbh0","pricing_plan_id":"cebpf4jnsgd1na2vs0mg"},{"bike_id":"a9825185-3001-4d8d-9f3b-ed652af29296","system_id":"levelo_inurba_marseille","lat":43.28607,"lon":5.37065,"is_reserved":false,"is_disabled":false,"rental_uris":{"android":"levelo://app?vid=a9825185-3001-4d8d-9f3b-ed652af29296","ios":"levelo://app?vid=a9825185-3001-4d8d-9f3b-ed652af29296"},"vehicle_type_id":"4","last_reported":1734174448,"current_range_meters":38800,"station_id":"ce4bht12rcd13ifvqi60","pricing_plan_id":"cebpf4jnsgd1na2vs0mg"},{"bike_id":"93ef2f04-bd62-4677-b9f8-c154651cdced","system_id":"levelo_inurba_marseille","lat":43.30327,"lon":5.40444,"is_reserved":false,"is_disabled":false,"rental_uris":{"android":"levelo://app?vid=93ef2f04-bd62-4677-b9f8-c154651cdced","ios":"levelo://app?vid=93ef2f04-bd62-4677-b9f8-c154651cdced"},"vehicle_type_id":"4","last_reported":1734174448,"current_range_meters":39200,"station_id":"ce4bh012rcd13ifvqd10","pricing_plan_id":"cebpf4jnsgd1na2vs0mg"},{"bike_id":"e3ed667f-ae67-4730-b300-d002dfb9bc90","system_id":"levelo_inurba_marseille","lat":43.29532,"lon":5.37517,"is_reserved":false,"is_disabled":false,"rental_uris":{"android":"levelo://app?vid=e3ed667f-ae67-4730-b300-d002dfb9bc90","ios":"levelo://app?vid=e3ed667f-ae67-4730-b300-d002dfb9bc90"},"vehicle_type_id":"4","last_reported":1734174448,"current_range_meters":38800,"station_id":"ce4bgkp2rcd13ifvqbmg","pricing_plan_id":"cebpf4jnsgd1na2vs0mg"},{"bike_id":"1536d859-8531-4d78-87ee-c9b02f5fc438","system_id":"levelo_inurba_marseille","lat":43.23059,"lon":5.35507,"is_reserved":false,"is_disabled":false,"rental_uris":{"android":"levelo://app?vid=1536d859-8531-4d78-87ee-c9b02f5fc438","ios":"levelo://app?vid=1536d859-8531-4d78-87ee-c9b02f5fc438"},"vehicle_type_id":"4","last_reported":1734174448,"current_range_meters":17200,"station_id":"cpo3342slgdg3j2ifvpg","pricing_plan_id":"cebpf4jnsgd1na2vs0mg"},{"bike_id":"702fe746-2950-4d83-96ad-da74f787e42f","system_id":"levelo_inurba_marseille","lat":43.25864,"lon":5.39898,"is_reserved":false,"is_disabled":false,"rental_uris":{"android":"levelo://app?vid=702fe746-2950-4d83-96ad-da74f787e42f","ios":"levelo://app?vid=702fe746-2950-4d83-96ad-da74f787e42f"},"vehicle_type_id":"4","last_reported":1734174448,"current_range_meters":36800,"station_id":"ce4bhl92rcd13ifvqghg","pricing_plan_id":"cebpf4jnsgd1na2vs0mg"},{"bike_id":"fb43b26c-934a-4347-ac79-fc278456ad06","system_id":"levelo_inurba_marseille","lat":43.27994,"lon":5.40029,"is_reserved":false,"is_disabled":false,"rental_uris":{"android":"levelo://app?vid=fb43b26c-934a-4347-ac79-fc278456ad06","ios":"levelo://app?vid=fb43b26c-934a-4347-ac79-fc278456ad06"},"vehicle_type_id":"4","last_reported":1734174448,"current_range_meters":34000,"station_id":"ce4bho92rcd13ifvqh4g","pricing_plan_id":"cebpf4jnsgd1na2vs0mg"},{"bike_id":"7965bd8b-65b9-4460-9e65-36f253ebc53b","system_id":"levelo_inurba_marseille","lat":43.32041,"lon":5.41568,"is_reserved":false,"is_disabled":false,"rental_uris":{"android":"levelo://app?vid=7965bd8b-65b9-4460-9e65-36f253ebc53b","ios":"levelo://app?vid=7965bd8b-65b9-4460-9e65-36f253ebc53b"},"vehicle_type_id":"4","last_reported":1734174448,"current_range_meters":19600,"station_id":"ce4bhq92rcd13ifvqhkg","pricing_plan_id":"cebpf4jnsgd1na2vs0mg"},{"bike_id":"baf2a051-8c83-4545-8cb9-f2d0770a50f8","system_id":"levelo_inurba_marseille","lat":43.30984,"lon":5.38033,"is_reserved":false,"is_disabled":false,"rental_uris":{"android":"levelo://app?vid=baf2a051-8c83-4545-8cb9-f2d0770a50f8","ios":"levelo://app?vid=baf2a051-8c83-4545-8cb9-f2d0770a50f8"},"vehicle_type_id":"4","last_reported":1734174448,"current_range_meters":10800,"station_id":"","pricing_plan_id":"cebpf4jnsgd1na2vs0mg"},{"bike_id":"e5192aff-1008-4e7e-b82a-23b5df79d920","system_id":"levelo_inurba_marseille","lat":43.295629,"lon":5.423003,"is_reserved":false,"is_disabled":false,"rental_uris":{"android":"levelo://app?vid=e5192aff-1008-4e7e-b82a-23b5df79d920","ios":"levelo://app?vid=e5192aff-1008-4e7e-b82a-23b5df79d920"},"vehicle_type_id":"4","last_reported":1734174448,"current_range_meters":38000,"station_id":"ce4bhph2rcd13ifvqhdg","pricing_plan_id":"cebpf4jnsgd1na2vs0mg"},{"bike_id":"04f74f3a-620d-4cfe-a925-05d9d082937d","system_id":"levelo_inurba_marseille","lat":43.27988,"lon":5.41663,"is_reserved":false,"is_disabled":false,"rental_uris":{"android":"levelo://app?vid=04f74f3a-620d-4cfe-a925-05d9d082937d","ios":"levelo://app?vid=04f74f3a-620d-4cfe-a925-05d9d082937d"},"vehicle_type_id":"4","last_reported":1734174448,"current_range_meters":33600,"station_id":"ce4bho12rcd13ifvqh1g","pricing_plan_id":"cebpf4jnsgd1na2vs0mg"},{"bike_id":"593bfbd4-2a1d-40f6-a307-80de7fb32f83","system_id":"levelo_inurba_marseille","lat":43.2987,"lon":5.39721,"is_reserved":false,"is_disabled":false,"rental_uris":{"android":"levelo://app?vid=593bfbd4-2a1d-40f6-a307-80de7fb32f83","ios":"levelo://app?vid=593bfbd4-2a1d-40f6-a307-80de7fb32f83"},"vehicle_type_id":"4","last_reported":1734174448,"current_range_meters":30400,"station_id":"ce4bh0h2rcd13ifvqd50","pricing_plan_id":"cebpf4jnsgd1na2vs0mg"},{"bike_id":"a5589391-a7e4-412b-9a87-f917b2322580","system_id":"levelo_inurba_marseille","lat":43.23056,"lon":5.35511,"is_reserved":false,"is_disabled":false,"rental_uris":{"android":"levelo://app?vid=a5589391-a7e4-412b-9a87-f917b2322580","ios":"levelo://app?vid=a5589391-a7e4-412b-9a87-f917b2322580"},"vehicle_type_id":"4","last_reported":1734174448,"current_range_meters":36000,"station_id":"cpo3342slgdg3j2ifvpg","pricing_plan_id":"cebpf4jnsgd1na2vs0mg"},{"bike_id":"a579247b-5ccc-4d89-b7c8-75bec7047dd0","system_id":"levelo_inurba_marseille","lat":43.28128,"lon":5.37734,"is_reserved":false,"is_disabled":true,"rental_uris":{"android":"levelo://app?vid=a579247b-5ccc-4d89-b7c8-75bec7047dd0","ios":"levelo://app?vid=a579247b-5ccc-4d89-b7c8-75bec7047dd0"},"vehicle_type_id":"4","last_reported":1734174448,"current_range_meters":38000,"station_id":"","pricing_plan_id":"cebpf4jnsgd1na2vs0mg"},{"bike_id":"14afac6a-63b2-47cb-9bc3-0bc87d22bcde","system_id":"levelo_inurba_marseille","lat":43.32364,"lon":5.38878,"is_reserved":false,"is_disabled":false,"rental_uris":{"android":"levelo://app?vid=14afac6a-63b2-47cb-9bc3-0bc87d22bcde","ios":"levelo://app?vid=14afac6a-63b2-47cb-9bc3-0bc87d22bcde"},"vehicle_type_id":"4","last_reported":1734174448,"current_range_meters":38000,"station_id":"ce4bhqp2rcd13ifvqhog","pricing_plan_id":"cebpf4jnsgd1na2vs0mg"},{"bike_id":"cf114bb8-ce3e-43ba-8e23-69bcac3003fd","system_id":"levelo_inurba_marseille","lat":43.337793,"lon":5.374391,"is_reserved":false,"is_disabled":false,"rental_uris":{"android":"levelo://app?vid=cf114bb8-ce3e-43ba-8e23-69bcac3003fd","ios":"levelo://app?vid=cf114bb8-ce3e-43ba-8e23-69bcac3003fd"},"vehicle_type_id":"4","last_reported":1734174448,"current_range_meters":20800,"station_id":"","pricing_plan_id":"cebpf4jnsgd1na2vs0mg"},{"bike_id":"afc65c7e-2df0-479e-8802-76edad43706a","system_id":"levelo_inurba_marseille","lat":43.26196,"lon":5.37936,"is_reserved":false,"is_disabled":false,"rental_uris":{"android":"levelo://app?vid=afc65c7e-2df0-479e-8802-76edad43706a","ios":"levelo://app?vid=afc65c7e-2df0-479e-8802-76edad43706a"},"vehicle_type_id":"4","last_reported":1734174448,"current_range_meters":25600,"station_id":"ce4bhjp2rcd13ifvqg90","pricing_plan_id":"cebpf4jnsgd1na2vs0mg"},{"bike_id":"33431c68-9fa8-411e-b90f-e58b568e15be","system_id":"levelo_inurba_marseille","lat":43.27074,"lon":5.42285,"is_reserved":false,"is_disabled":false,"rental_uris":{"android":"levelo://app?vid=33431c68-9fa8-411e-b90f-e58b568e15be","ios":"levelo://app?vid=33431c68-9fa8-411e-b90f-e58b568e15be"},"vehicle_type_id":"4","last_reported":1734174448,"current_range_meters":25600,"station_id":"ce4bhk92rcd13ifvqgb0","pricing_plan_id":"cebpf4jnsgd1na2vs0mg"},{"bike_id":"78f525d5-67a4-45b6-be5f-eff0d5b5afa2","system_id":"levelo_inurba_marseille","lat":43.24646,"lon":5.38892,"is_reserved":false,"is_disabled":false,"rental_uris":{"android":"levelo://app?vid=78f525d5-67a4-45b6-be5f-eff0d5b5afa2","ios":"levelo://app?vid=78f525d5-67a4-45b6-be5f-eff0d5b5afa2"},"vehicle_type_id":"4","last_reported":1734174448,"current_range_meters":38000,"station_id":"ce4bhg12rcd13ifvqf60","pricing_plan_id":"cebpf4jnsgd1na2vs0mg"},{"bike_id":"829ba44b-24ac-4584-9bd7-65463bd0158e","system_id":"levelo_inurba_marseille","lat":43.29303,"lon":5.37463,"is_reserved":false,"is_disabled":false,"rental_uris":{"android":"levelo://app?vid=829ba44b-24ac-4584-9bd7-65463bd0158e","ios":"levelo://app?vid=829ba44b-24ac-4584-9bd7-65463bd0158e"},"vehicle_type_id":"4","last_reported":1734174448,"current_range_meters":36400,"station_id":"ce4bgi12rcd13ifvqb70","pricing_plan_id":"cebpf4jnsgd1na2vs0mg"},{"bike_id":"06b29307-6dd0-4c94-b164-21079ed18d9d","system_id":"levelo_inurba_marseille","lat":43.29374,"lon":5.37867,"is_reserved":false,"is_disabled":false,"rental_uris":{"android":"levelo://app?vid=06b29307-6dd0-4c94-b164-21079ed18d9d","ios":"levelo://app?vid=06b29307-6dd0-4c94-b164-21079ed18d9d"},"vehicle_type_id":"4","last_reported":1734174448,"current_range_meters":27200,"station_id":"ce4bgjh2rcd13ifvqbf0","pricing_plan_id":"cebpf4jnsgd1na2vs0mg"},{"bike_id":"ca3bf6a0-806c-4046-b219-bbea4c2ba646","system_id":"levelo_inurba_marseille","lat":43.23194,"lon":5.35548,"is_reserved":false,"is_disabled":false,"rental_uris":{"android":"levelo://app?vid=ca3bf6a0-806c-4046-b219-bbea4c2ba646","ios":"levelo://app?vid=ca3bf6a0-806c-4046-b219-bbea4c2ba646"},"vehicle_type_id":"4","last_reported":1734174448,"current_range_meters":38800,"station_id":"ce4bhu92rcd13ifvqi70","pricing_plan_id":"cebpf4jnsgd1na2vs0mg"},{"bike_id":"e92b53be-0a79-44c0-8c0f-b198c7a21d46","system_id":"levelo_inurba_marseille","lat":43.32364,"lon":5.3888,"is_reserved":false,"is_disabled":false,"rental_uris":{"android":"levelo://app?vid=e92b53be-0a79-44c0-8c0f-b198c7a21d46","ios":"levelo://app?vid=e92b53be-0a79-44c0-8c0f-b198c7a21d46"},"vehicle_type_id":"4","last_reported":1734174448,"current_range_meters":28800,"station_id":"ce4bhqp2rcd13ifvqhog","pricing_plan_id":"cebpf4jnsgd1na2vs0mg"},{"bike_id":"46b2fdec-0870-4ae2-84dc-b1f57512351e","system_id":"levelo_inurba_marseille","lat":43.337444,"lon":5.374475,"is_reserved":false,"is_disabled":true,"rental_uris":{"android":"levelo://app?vid=46b2fdec-0870-4ae2-84dc-b1f57512351e","ios":"levelo://app?vid=46b2fdec-0870-4ae2-84dc-b1f57512351e"},"vehicle_type_id":"4","last_reported":1734174448,"current_range_meters":0,"station_id":"","pricing_plan_id":"cebpf4jnsgd1na2vs0mg"},{"bike_id":"e07f8927-8121-4133-911c-f4fdbcb240cf","system_id":"levelo_inurba_marseille","lat":43.337679,"lon":5.374467,"is_reserved":false,"is_disabled":true,"rental_uris":{"android":"levelo://app?vid=e07f8927-8121-4133-911c-f4fdbcb240cf","ios":"levelo://app?vid=e07f8927-8121-4133-911c-f4fdbcb240cf"},"vehicle_type_id":"4","last_reported":1734174448,"current_range_meters":33600,"station_id":"","pricing_plan_id":"cebpf4jnsgd1na2vs0mg"},{"bike_id":"3a3039f8-74ce-4dbb-8ccd-f1cd8d5db2da","system_id":"levelo_inurba_marseille","lat":43.28469,"lon":5.38421,"is_reserved":false,"is_disabled":false,"rental_uris":{"android":"levelo://app?vid=3a3039f8-74ce-4dbb-8ccd-f1cd8d5db2da","ios":"levelo://app?vid=3a3039f8-74ce-4dbb-8ccd-f1cd8d5db2da"},"vehicle_type_id":"4","last_reported":1734174448,"current_range_meters":24800,"station_id":"ce4bh512rcd13ifvqe3g","pricing_plan_id":"cebpf4jnsgd1na2vs0mg"},{"bike_id":"f9e6bb9b-5af9-41b4-94d6-1a9a9891f123","system_id":"levelo_inurba_marseille","lat":43.24642,"lon":5.38894,"is_reserved":false,"is_disabled":false,"rental_uris":{"android":"levelo://app?vid=f9e6bb9b-5af9-41b4-94d6-1a9a9891f123","ios":"levelo://app?vid=f9e6bb9b-5af9-41b4-94d6-1a9a9891f123"},"vehicle_type_id":"4","last_reported":1734174448,"current_range_meters":24800,"station_id":"ce4bhg12rcd13ifvqf60","pricing_plan_id":"cebpf4jnsgd1na2vs0mg"},{"bike_id":"28fa2707-f4ac-4c74-b8f5-04537ad85632","system_id":"levelo_inurba_marseille","lat":43.29003,"lon":5.35609,"is_reserved":false,"is_disabled":false,"rental_uris":{"android":"levelo://app?vid=28fa2707-f4ac-4c74-b8f5-04537ad85632","ios":"levelo://app?vid=28fa2707-f4ac-4c74-b8f5-04537ad85632"},"vehicle_type_id":"4","last_reported":1734174448,"current_range_meters":28400,"station_id":"ce4bhb92rcd13ifvqen0","pricing_plan_id":"cebpf4jnsgd1na2vs0mg"},{"bike_id":"c4d5fc99-fb62-4fb8-843a-5330b156d1b3","system_id":"levelo_inurba_marseille","lat":43.3015,"lon":5.38084,"is_reserved":false,"is_disabled":false,"rental_uris":{"android":"levelo://app?vid=c4d5fc99-fb62-4fb8-843a-5330b156d1b3","ios":"levelo://app?vid=c4d5fc99-fb62-4fb8-843a-5330b156d1b3"},"vehicle_type_id":"4","last_reported":1734174448,"current_range_meters":28000,"station_id":"ce4bgjp2rcd13ifvqbh0","pricing_plan_id":"cebpf4jnsgd1na2vs0mg"},{"bike_id":"1144c187-d420-4b69-b036-39bf69e44478","system_id":"levelo_inurba_marseille","lat":43.26498,"lon":5.39539,"is_reserved":false,"is_disabled":false,"rental_uris":{"android":"levelo://app?vid=1144c187-d420-4b69-b036-39bf69e44478","ios":"levelo://app?vid=1144c187-d420-4b69-b036-39bf69e44478"},"vehicle_type_id":"4","last_reported":1734174448,"current_range_meters":25200,"station_id":"ce4bhi12rcd13ifvqfq0","pricing_plan_id":"cebpf4jnsgd1na2vs0mg"},{"bike_id":"5f11fdd9-45f0-4d70-8224-eef136d43616","system_id":"levelo_inurba_marseille","lat":43.27183,"lon":5.40974,"is_reserved":false,"is_disabled":false,"rental_uris":{"android":"levelo://app?vid=5f11fdd9-45f0-4d70-8224-eef136d43616","ios":"levelo://app?vid=5f11fdd9-45f0-4d70-8224-eef136d43616"},"vehicle_type_id":"4","last_reported":1734174448,"current_range_meters":34000,"station_id":"ce4bhl12rcd13ifvqgf0","pricing_plan_id":"cebpf4jnsgd1na2vs0mg"},{"bike_id":"550a6645-adcd-428f-b265-13b37828399c","system_id":"levelo_inurba_marseille","lat":43.28415,"lon":5.34994,"is_reserved":false,"is_disabled":true,"rental_uris":{"android":"levelo://app?vid=550a6645-adcd-428f-b265-13b37828399c","ios":"levelo://app?vid=550a6645-adcd-428f-b265-13b37828399c"},"vehicle_type_id":"4","last_reported":1734174448,"current_range_meters":1200,"station_id":"ce4bhbh2rcd13ifvqepg","pricing_plan_id":"cebpf4jnsgd1na2vs0mg"},{"bike_id":"28cb3dc5-0ad2-4bbe-a1e1-86a1df54d96b","system_id":"levelo_inurba_marseille","lat":43.337794,"lon":5.37439,"is_reserved":false,"is_disabled":false,"rental_uris":{"android":"levelo://app?vid=28cb3dc5-0ad2-4bbe-a1e1-86a1df54d96b","ios":"levelo://app?vid=28cb3dc5-0ad2-4bbe-a1e1-86a1df54d96b"},"vehicle_type_id":"4","last_reported":1734174448,"current_range_meters":18000,"station_id":"","pricing_plan_id":"cebpf4jnsgd1na2vs0mg"},{"bike_id":"78dfabfe-f693-47fe-85e9-64251b082357","system_id":"levelo_inurba_marseille","lat":43.29841,"lon":5.36274,"is_reserved":false,"is_disabled":false,"rental_uris":{"android":"levelo://app?vid=78dfabfe-f693-47fe-85e9-64251b082357","ios":"levelo://app?vid=78dfabfe-f693-47fe-85e9-64251b082357"},"vehicle_type_id":"4","last_reported":1734174448,"current_range_meters":33600,"station_id":"ce4bgpp2rcd13ifvqc3g","pricing_plan_id":"cebpf4jnsgd1na2vs0mg"},{"bike_id":"2448f112-093b-44a4-8c49-c482af2ba024","system_id":"levelo_inurba_marseille","lat":43.2306,"lon":5.35479,"is_reserved":false,"is_disabled":false,"rental_uris":{"android":"levelo://app?vid=2448f112-093b-44a4-8c49-c482af2ba024","ios":"levelo://app?vid=2448f112-093b-44a4-8c49-c482af2ba024"},"vehicle_type_id":"4","last_reported":1734174448,"current_range_meters":22400,"station_id":"cpo3342slgdg3j2ifvpg","pricing_plan_id":"cebpf4jnsgd1na2vs0mg"},{"bike_id":"169d6776-51ab-41b0-9567-a24adfb79d90","system_id":"levelo_inurba_marseille","lat":43.25856,"lon":5.39922,"is_reserved":false,"is_disabled":false,"rental_uris":{"android":"levelo://app?vid=169d6776-51ab-41b0-9567-a24adfb79d90","ios":"levelo://app?vid=169d6776-51ab-41b0-9567-a24adfb79d90"},"vehicle_type_id":"4","last_reported":1734174448,"current_range_meters":28000,"station_id":"ce4bhl92rcd13ifvqghg","pricing_plan_id":"cebpf4jnsgd1na2vs0mg"},{"bike_id":"eff6214a-e327-44ef-b149-b0c14110902c","system_id":"levelo_inurba_marseille","lat":43.30151,"lon":5.38088,"is_reserved":false,"is_disabled":false,"rental_uris":{"android":"levelo://app?vid=eff6214a-e327-44ef-b149-b0c14110902c","ios":"levelo://app?vid=eff6214a-e327-44ef-b149-b0c14110902c"},"vehicle_type_id":"4","last_reported":1734174448,"current_range_meters":38800,"station_id":"ce4bgjp2rcd13ifvqbh0","pricing_plan_id":"cebpf4jnsgd1na2vs0mg"},{"bike_id":"269d647c-7f75-4ab5-ba3e-aade4c95309f","system_id":"levelo_inurba_marseille","lat":43.28706,"lon":5.37415,"is_reserved":false,"is_disabled":true,"rental_uris":{"android":"levelo://app?vid=269d647c-7f75-4ab5-ba3e-aade4c95309f","ios":"levelo://app?vid=269d647c-7f75-4ab5-ba3e-aade4c95309f"},"vehicle_type_id":"4","last_reported":1734174448,"current_range_meters":29600,"station_id":"ce4bh3p2rcd13ifvqdq0","pricing_plan_id":"cebpf4jnsgd1na2vs0mg"},{"bike_id":"d214c25f-242c-440b-993d-cd644c655be6","system_id":"levelo_inurba_marseille","lat":43.23056,"lon":5.35541,"is_reserved":false,"is_disabled":false,"rental_uris":{"android":"levelo://app?vid=d214c25f-242c-440b-993d-cd644c655be6","ios":"levelo://app?vid=d214c25f-242c-440b-993d-cd644c655be6"},"vehicle_type_id":"4","last_reported":1734174448,"current_range_meters":30400,"station_id":"cpo3342slgdg3j2ifvpg","pricing_plan_id":"cebpf4jnsgd1na2vs0mg"},{"bike_id":"3cfe90b2-2605-4322-b8f0-ffdd885ba24b","system_id":"levelo_inurba_marseille","lat":43.3053,"lon":5.36535,"is_reserved":false,"is_disabled":false,"rental_uris":{"android":"levelo://app?vid=3cfe90b2-2605-4322-b8f0-ffdd885ba24b","ios":"levelo://app?vid=3cfe90b2-2605-4322-b8f0-ffdd885ba24b"},"vehicle_type_id":"4","last_reported":1734174448,"current_range_meters":25600,"station_id":"ce4bgs12rcd13ifvqcag","pricing_plan_id":"cebpf4jnsgd1na2vs0mg"},{"bike_id":"ff3ea3a0-2a6c-439e-a971-96d98fd19296","system_id":"levelo_inurba_marseille","lat":43.32496,"lon":5.36667,"is_reserved":false,"is_disabled":false,"rental_uris":{"android":"levelo://app?vid=ff3ea3a0-2a6c-439e-a971-96d98fd19296","ios":"levelo://app?vid=ff3ea3a0-2a6c-439e-a971-96d98fd19296"},"vehicle_type_id":"4","last_reported":1734174448,"current_range_meters":35600,"station_id":"","pricing_plan_id":"cebpf4jnsgd1na2vs0mg"},{"bike_id":"36fe7f2d-6b60-46ad-a5d3-ec5715357c26","system_id":"levelo_inurba_marseille","lat":43.33814,"lon":5.37425,"is_reserved":false,"is_disabled":false,"rental_uris":{"android":"levelo://app?vid=36fe7f2d-6b60-46ad-a5d3-ec5715357c26","ios":"levelo://app?vid=36fe7f2d-6b60-46ad-a5d3-ec5715357c26"},"vehicle_type_id":"4","last_reported":1734174448,"current_range_meters":30000,"station_id":"","pricing_plan_id":"cebpf4jnsgd1na2vs0mg"},{"bike_id":"840dc13b-fff6-4487-b56a-8e208f8cedbc","system_id":"levelo_inurba_marseille","lat":43.29041,"lon":5.39971,"is_reserved":false,"is_disabled":false,"rental_uris":{"android":"levelo://app?vid=840dc13b-fff6-4487-b56a-8e208f8cedbc","ios":"levelo://app?vid=840dc13b-fff6-4487-b56a-8e208f8cedbc"},"vehicle_type_id":"4","last_reported":1734174448,"current_range_meters":16000,"station_id":"ce4bh392rcd13ifvqdm0","pricing_plan_id":"cebpf4jnsgd1na2vs0mg"},{"bike_id":"6d05f7ba-808a-4403-b1f3-f8483fec843c","system_id":"levelo_inurba_marseille","lat":43.23184,"lon":5.35566,"is_reserved":false,"is_disabled":false,"rental_uris":{"android":"levelo://app?vid=6d05f7ba-808a-4403-b1f3-f8483fec843c","ios":"levelo://app?vid=6d05f7ba-808a-4403-b1f3-f8483fec843c"},"vehicle_type_id":"4","last_reported":1734174448,"current_range_meters":22800,"station_id":"ce4bhu92rcd13ifvqi70","pricing_plan_id":"cebpf4jnsgd1na2vs0mg"},{"bike_id":"b57ef38b-05ae-4182-af13-1d9817f87da6","system_id":"levelo_inurba_marseille","lat":43.26199,"lon":5.37945,"is_reserved":false,"is_disabled":false,"rental_uris":{"android":"levelo://app?vid=b57ef38b-05ae-4182-af13-1d9817f87da6","ios":"levelo://app?vid=b57ef38b-05ae-4182-af13-1d9817f87da6"},"vehicle_type_id":"4","last_reported":1734174448,"current_range_meters":37600,"station_id":"ce4bhjp2rcd13ifvqg90","pricing_plan_id":"cebpf4jnsgd1na2vs0mg"},{"bike_id":"d49b768b-33e5-474d-88d2-927a38d10582","system_id":"levelo_inurba_marseille","lat":43.3199,"lon":5.38166,"is_reserved":false,"is_disabled":false,"rental_uris":{"android":"levelo://app?vid=d49b768b-33e5-474d-88d2-927a38d10582","ios":"levelo://app?vid=d49b768b-33e5-474d-88d2-927a38d10582"},"vehicle_type_id":"4","last_reported":1734174448,"current_range_meters":16800,"station_id":"ce4bhr12rcd13ifvqhpg","pricing_plan_id":"cebpf4jnsgd1na2vs0mg"},{"bike_id":"a5397efa-629d-4917-8594-0532aea74fe2","system_id":"levelo_inurba_marseille","lat":43.28459,"lon":5.35922,"is_reserved":false,"is_disabled":true,"rental_uris":{"android":"levelo://app?vid=a5397efa-629d-4917-8594-0532aea74fe2","ios":"levelo://app?vid=a5397efa-629d-4917-8594-0532aea74fe2"},"vehicle_type_id":"4","last_reported":1734174448,"current_range_meters":14000,"station_id":"ce4bhah2rcd13ifvqei0","pricing_plan_id":"cebpf4jnsgd1na2vs0mg"},{"bike_id":"1cf16c8c-9252-4975-983c-1bb91c7cf0b5","system_id":"levelo_inurba_marseille","lat":43.29549,"lon":5.42301,"is_reserved":false,"is_disabled":false,"rental_uris":{"android":"levelo://app?vid=1cf16c8c-9252-4975-983c-1bb91c7cf0b5","ios":"levelo://app?vid=1cf16c8c-9252-4975-983c-1bb91c7cf0b5"},"vehicle_type_id":"4","last_reported":1734174448,"current_range_meters":32400,"station_id":"ce4bhph2rcd13ifvqhdg","pricing_plan_id":"cebpf4jnsgd1na2vs0mg"},{"bike_id":"3744000a-a7c6-46b0-88fa-536506826030","system_id":"levelo_inurba_marseille","lat":43.24651,"lon":5.38892,"is_reserved":false,"is_disabled":false,"rental_uris":{"android":"levelo://app?vid=3744000a-a7c6-46b0-88fa-536506826030","ios":"levelo://app?vid=3744000a-a7c6-46b0-88fa-536506826030"},"vehicle_type_id":"4","last_reported":1734174448,"current_range_meters":8400,"station_id":"ce4bhg12rcd13ifvqf60","pricing_plan_id":"cebpf4jnsgd1na2vs0mg"},{"bike_id":"9c8c1480-9ffa-4086-913c-c2125a6eb848","system_id":"levelo_inurba_marseille","lat":43.22933,"lon":5.35377,"is_reserved":false,"is_disabled":false,"rental_uris":{"android":"levelo://app?vid=9c8c1480-9ffa-4086-913c-c2125a6eb848","ios":"levelo://app?vid=9c8c1480-9ffa-4086-913c-c2125a6eb848"},"vehicle_type_id":"4","last_reported":1734174448,"current_range_meters":28000,"station_id":"cpo3532slgdg3j2ikp40","pricing_plan_id":"cebpf4jnsgd1na2vs0mg"},{"bike_id":"11211125-c613-4bc5-8497-4aa02f9e2a49","system_id":"levelo_inurba_marseille","lat":43.29419,"lon":5.38626,"is_reserved":false,"is_disabled":true,"rental_uris":{"android":"levelo://app?vid=11211125-c613-4bc5-8497-4aa02f9e2a49","ios":"levelo://app?vid=11211125-c613-4bc5-8497-4aa02f9e2a49"},"vehicle_type_id":"4","last_reported":1734174448,"current_range_meters":38800,"station_id":"ce4bh2h2rcd13ifvqdh0","pricing_plan_id":"cebpf4jnsgd1na2vs0mg"},{"bike_id":"5e7d6ff5-442e-4736-a6a1-2833041cb2f3","system_id":"levelo_inurba_marseille","lat":43.28038,"lon":5.36946,"is_reserved":false,"is_disabled":false,"rental_uris":{"android":"levelo://app?vid=5e7d6ff5-442e-4736-a6a1-2833041cb2f3","ios":"levelo://app?vid=5e7d6ff5-442e-4736-a6a1-2833041cb2f3"},"vehicle_type_id":"4","last_reported":1734174448,"current_range_meters":7200,"station_id":"ce4bha12rcd13ifvqef0","pricing_plan_id":"cebpf4jnsgd1na2vs0mg"},{"bike_id":"8ac2a64a-bd3a-44d6-89ec-800bf68390a1","system_id":"levelo_inurba_marseille","lat":43.30542,"lon":5.36536,"is_reserved":false,"is_disabled":false,"rental_uris":{"android":"levelo://app?vid=8ac2a64a-bd3a-44d6-89ec-800bf68390a1","ios":"levelo://app?vid=8ac2a64a-bd3a-44d6-89ec-800bf68390a1"},"vehicle_type_id":"4","last_reported":1734174448,"current_range_meters":36800,"station_id":"ce4bgs12rcd13ifvqcag","pricing_plan_id":"cebpf4jnsgd1na2vs0mg"},{"bike_id":"9d5f11ae-e28b-41c9-9497-65a3dd46a68e","system_id":"levelo_inurba_marseille","lat":43.29486,"lon":5.3747,"is_reserved":false,"is_disabled":false,"rental_uris":{"android":"levelo://app?vid=9d5f11ae-e28b-41c9-9497-65a3dd46a68e","ios":"levelo://app?vid=9d5f11ae-e28b-41c9-9497-65a3dd46a68e"},"vehicle_type_id":"4","last_reported":1734174448,"current_range_meters":34800,"station_id":"","pricing_plan_id":"cebpf4jnsgd1na2vs0mg"},