{"last_updated":1687385166,"ttl":30,"version":"2.2","data":{"bikes":[{"bike_id":"6e4fd040-1866-4783-872c-dd21a7ae18af","system_id":"levelo_inurba_marseille","lat":43.31354,"lon":5.37065,"is_reserved":false,"is_disabled":false,"rental_uris":{"android":"levelo://app?vid=6e4fd040-1866-4783-872c-dd21a7ae18af","ios":"levelo://app?vid=6e4fd040-1866-4783-872c-dd21a7ae18af"},"vehicle_type_id":"4","last_reported":1687385168,"current_range_meters":7200,"station_id":"","pricing_plan_id":"free"},{"bike_id":"4bfbb7f6-4523-4de9-b8c1-75d74f3b7b5f","system_id":"levelo_inurba_marseille","lat":43.308606,"lon":5.372099,"is_reserved":false,"is_disabled":false,"rental_uris":{"android":"levelo://app?vid=4bfbb7f6-4523-4de9-b8c1-75d74f3b7b5f","ios":"levelo://app?vid=4bfbb7f6-4523-4de9-b8c1-75d74f3b7b5f"},"vehicle_type_id":"4","last_reported":1687385168,"current_range_meters":30000,"station_id":"ce4bguh2rcd13ifvqckg","pricing_plan_id":"free"},{"bike_id":"2b43fa27-a724-44b1-81c9-df8d97158ccd","system_id":"levelo_inurba_marseille","lat":43.308606,"lon":5.372099,"is_reserved":false,"is_disabled":false,"rental_uris":{"android":"levelo://app?vid=2b43fa27-a724-44b1-81c9-df8d97158ccd","ios":"levelo://app?vid=2b43fa27-a724-44b1-81c9-df8d97158ccd"},"vehicle_type_id":"4","last_reported":1687385168,"current_range_meters":24000,"station_id":"ce4bguh2rcd13ifvqckg","pricing_plan_id":"free"},{"bike_id":"f548d716-5132-4478-8feb-21bb1fc3e9d9","system_id":"levelo_inurba_marseille","lat":43.308614,"lon":5.372098,"is_reserved":false,"is_disabled":false,"rental_uris":{"android":"levelo://app?vid=f548d716-5132-4478-8feb-21bb1fc3e9d9","ios":"levelo://app?vid=f548d716-5132-4478-8feb-21bb1fc3e9d9"},"vehicle_type_id":"4","last_reported":1687385168,"current_range_meters":2800,"station_id":"ce4bguh2rcd13ifvqckg","pricing_plan_id":"free"},{"bike_id":"64683820-cae3-470d-9f9b-9dffc6a0cf7a","system_id":"levelo_inurba_marseille","lat":43.305368,"lon":5.367343,"is_reserved":false,"is_disabled":false,"rental_uris":{"android":"levelo://app?vid=64683820-cae3-470d-9f9b-9dffc6a0cf7a","ios":"levelo://app?vid=64683820-cae3-470d-9f9b-9dffc6a0cf7a"},"vehicle_type_id":"4","last_reported":1687385168,"current_range_meters":31200,"station_id":"ce4bgrp2rcd13ifvqc9g","pricing_plan_id":"free"},{"bike_id":"de8acbc3-a78e-4e10-9372-041763c52aad","system_id":"levelo_inurba_marseille","lat":43.30309,"lon":5.36892,"is_reserved":false,"is_disabled":false,"rental_uris":{"android":"levelo://app?vid=de8acbc3-a78e-4e10-9372-041763c52aad","ios":"levelo://app?vid=de8acbc3-a78e-4e10-9372-041763c52aad"},"vehicle_type_id":"4","last_reported":1687385168,"current_range_meters":18400,"station_id":"ce4bgqh2rcd13ifvqc5g","pricing_plan_id":"free"},{"bike_id":"8c8f8e79-9a33-460e-99ea-dd247c512ff2","system_id":"levelo_inurba_marseille","lat":43.30298,"lon":5.36899,"is_reserved":false,"is_disabled":false,"rental_uris":{"android":"levelo://app?vid=8c8f8e79-9a33-460e-99ea-dd247c512ff2","ios":"levelo://app?vid=8c8f8e79-9a33-460e-99ea-dd247c512ff2"},"vehicle_type_id":"4","last_reported":1687385168,"current_range_meters":10400,"station_id":"ce4bgqh2rcd13ifvqc5g","pricing_plan_id":"free"},{"bike_id":"9401679d-9d64-4719-bf3c-b3071e6afbfe","system_id":"levelo_inurba_marseille","lat":43.315289,"lon":5.380349,"is_reserved":false,"is_disabled":false,"rental_uris":{"android":"levelo://app?vid=9401679d-9d64-4719-bf3c-b3071e6afbfe","ios":"levelo://app?vid=9401679d-9d64-4719-bf3c-b3071e6afbfe"},"vehicle_type_id":"4","last_reported":1687385168,"current_range_meters":0,"station_id":"ce4bhsp2rcd13ifvqi50","pricing_plan_id":"free"},{"bike_id":"72222bd3-3a1e-4ef6-b020-51a9e1c7024c","system_id":"levelo_inurba_marseille","lat":43.30796,"lon":5.3815,"is_reserved":false,"is_disabled":false,"rental_uris":{"android":"levelo://app?vid=72222bd3-3a1e-4ef6-b020-51a9e1c7024c","ios":"levelo://app?vid=72222bd3-3a1e-4ef6-b020-51a9e1c7024c"},"vehicle_type_id":"4","last_reported":1687385168,"current_range_meters":19600,"station_id":"ce4bgt12rcd13ifvqce0","pricing_plan_id":"free"},{"bike_id":"ae33307b-fcd5-479b-9ae1-9002ed226c6e","system_id":"levelo_inurba_marseille","lat":43.308012,"lon":5.381511,"is_reserved":false,"is_disabled":false,"rental_uris":{"android":"levelo://app?vid=ae33307b-fcd5-479b-9ae1-9002ed226c6e","ios":"levelo://app?vid=ae33307b-fcd5-479b-9ae1-9002ed226c6e"},"vehicle_type_id":"4","last_reported":1687385168,"current_range_meters":14400,"station_id":"ce4bgt12rcd13ifvqce0","pricing_plan_id":"free"},{"bike_id":"0e20d9ad-7d85-4494-b993-8363b0210243","system_id":"levelo_inurba_marseille","lat":43.308012,"lon":5.381511,"is_reserved":false,"is_disabled":false,"rental_uris":{"android":"levelo://app?vid=0e20d9ad-7d85-4494-b993-8363b0210243","ios":"levelo://app?vid=0e20d9ad-7d85-4494-b993-8363b0210243"},"vehicle_type_id":"4","last_reported":1687385168,"current_range_meters":18000,"station_id":"ce4bgt12rcd13ifvqce0","pricing_plan_id":"free"},{"bike_id":"f246cb7a-0851-4a26-b00e-1ad3bc1338b6","system_id":"levelo_inurba_marseille","lat":43.304606,"lon":5.379026,"is_reserved":false,"is_disabled":false,"rental_uris":{"android":"levelo://app?vid=f246cb7a-0851-4a26-b00e-1ad3bc1338b6","ios":"levelo://app?vid=f246cb7a-0851-4a26-b00e-1ad3bc1338b6"},"vehicle_type_id":"4","last_reported":1687385168,"current_range_meters":16000,"station_id":"ce4bgup2rcd13ifvqcn0","pricing_plan_id":"free"},{"bike_id":"43fc693e-f2a9-4aec-8fd9-d094bb02cb70","system_id":"levelo_inurba_marseille","lat":43.304606,"lon":5.379026,"is_reserved":false,"is_disabled":false,"rental_uris":{"android":"levelo://app?vid=43fc693e-f2a9-4aec-8fd9-d094bb02cb70","ios":"levelo://app?vid=43fc693e-f2a9-4aec-8fd9-d094bb02cb70"},"vehicle_type_id":"4","last_reported":1687385168,"current_range_meters":4400,"station_id":"ce4bgup2rcd13ifvqcn0","pricing_plan_id":"free"},{"bike_id":"ceb6273d-26b2-4bcc-8fc0-b51c5d871cd6","system_id":"levelo_inurba_marseille","lat":43.305364,"lon":5.384119,"is_reserved":false,"is_disabled":false,"rental_uris":{"android":"levelo://app?vid=ceb6273d-26b2-4bcc-8fc0-b51c5d871cd6","ios":"levelo://app?vid=ceb6273d-26b2-4bcc-8fc0-b51c5d871cd6"},"vehicle_type_id":"4","last_reported":1687385168,"current_range_meters":17200,"station_id":"ce4bgg92rcd13ifvqb30","pricing_plan_id":"free"},{"bike_id":"697957dd-af30-43c1-b403-50cfca499c60","system_id":"levelo_inurba_marseille","lat":43.299243,"lon":5.37481,"is_reserved":false,"is_disabled":false,"rental_uris":{"android":"levelo://app?vid=697957dd-af30-43c1-b403-50cfca499c60","ios":"levelo://app?vid=697957dd-af30-43c1-b403-50cfca499c60"},"vehicle_type_id":"4","last_reported":1687385168,"current_range_meters":3200,"station_id":"ce4bgjh2rcd13ifvqbg0","pricing_plan_id":"free"},{"bike_id":"8d01b662-f3b2-412e-81e0-a78969b8581c","system_id":"levelo_inurba_marseille","lat":43.299243,"lon":5.374807,"is_reserved":false,"is_disabled":false,"rental_uris":{"android":"levelo://app?vid=8d01b662-f3b2-412e-81e0-a78969b8581c","ios":"levelo://app?vid=8d01b662-f3b2-412e-81e0-a78969b8581c"},"vehicle_type_id":"4","last_reported":1687385168,"current_range_meters":0,"station_id":"ce4bgjh2rcd13ifvqbg0","pricing_plan_id":"free"},{"bike_id":"a74fd40c-3491-43b2-9922-cced8b6bbeba","system_id":"levelo_inurba_marseille","lat":43.311722,"lon":5.387247,"is_reserved":false,"is_disabled":false,"rental_uris":{"android":"levelo://app?vid=a74fd40c-3491-43b2-9922-cced8b6bbeba","ios":"levelo://app?vid=a74fd40c-3491-43b2-9922-cced8b6bbeba"},"vehicle_type_id":"4","last_reported":1687385168,"current_range_meters":4400,"station_id":"ce4bgv12rcd13ifvqcp0","pricing_plan_id":"free"},{"bike_id":"43db1591-9191-4c23-828f-3ac332c46295","system_id":"levelo_inurba_marseille","lat":43.311722,"lon":5.387247,"is_reserved":false,"is_disabled":false,"rental_uris":{"android":"levelo://app?vid=43db1591-9191-4c23-828f-3ac332c46295","ios":"levelo://app?vid=43db1591-9191-4c23-828f-3ac332c46295"},"vehicle_type_id":"4","last_reported":1687385168,"current_range_meters":8800,"station_id":"ce4bgv12rcd13ifvqcp0","pricing_plan_id":"free"},{"bike_id":"bdf8de96-def0-4b04-bb70-86e22ff0663e","system_id":"levelo_inurba_marseille","lat":43.299243,"lon":5.374807,"is_reserved":false,"is_disabled":false,"rental_uris":{"android":"levelo://app?vid=bdf8de96-def0-4b04-bb70-86e22ff0663e","ios":"levelo://app?vid=bdf8de96-def0-4b04-bb70-86e22ff0663e"},"vehicle_type_id":"4","last_reported":1687385168,"current_range_meters":24000,"station_id":"ce4bgjh2rcd13ifvqbg0","pricing_plan_id":"free"},{"bike_id":"e6ea61d5-da20-4ad2-b344-94c2975133fa","system_id":"levelo_inurba_marseille","lat":43.32274,"lon":5.38201,"is_reserved":false,"is_disabled":false,"rental_uris":{"android":"levelo://app?vid=e6ea61d5-da20-4ad2-b344-94c2975133fa","ios":"levelo://app?vid=e6ea61d5-da20-4ad2-b344-94c2975133fa"},"vehicle_type_id":"4","last_reported":1687385168,"current_range_meters":4800,"station_id":"","pricing_plan_id":"free"},{"bike_id":"ea372316-1322-4cab-adc8-27d2521d039c","system_id":"levelo_inurba_marseille","lat":43.32763,"lon":5.36706,"is_reserved":false,"is_disabled":false,"rental_uris":{"android":"levelo://app?vid=ea372316-1322-4cab-adc8-27d2521d039c","ios":"levelo://app?vid=ea372316-1322-4cab-adc8-27d2521d039c"},"vehicle_type_id":"4","last_reported":1687385168,"current_range_meters":24800,"station_id":"","pricing_plan_id":"free"},{"bike_id":"c3339efb-c603-45cb-8da9-01d5c529aca8","system_id":"levelo_inurba_marseille","lat":43.32346,"lon":5.38183,"is_reserved":false,"is_disabled":false,"rental_uris":{"android":"levelo://app?vid=c3339efb-c603-45cb-8da9-01d5c529aca8","ios":"levelo://app?vid=c3339efb-c603-45cb-8da9-01d5c529aca8"},"vehicle_type_id":"4","last_reported":1687385168,"current_range_meters":18400,"station_id":"","pricing_plan_id":"free"},{"bike_id":"fd53ee84-24b3-4ec6-b22a-b4cac25a1233","system_id":"levelo_inurba_marseille","lat":43.328371,"lon":5.366909,"is_reserved":false,"is_disabled":false,"rental_uris":{"android":"levelo://app?vid=fd53ee84-24b3-4ec6-b22a-b4cac25a1233","ios":"levelo://app?vid=fd53ee84-24b3-4ec6-b22a-b4cac25a1233"},"vehicle_type_id":"4","last_reported":1687385168,"current_range_meters":400,"station_id":"ce4bhs92rcd13ifvqi0g","pricing_plan_id":"free"},{"bike_id":"83c69af1-0d5e-4560-ace0-538d107a2e5f","system_id":"levelo_inurba_marseille","lat":43.328371,"lon":5.366909,"is_reserved":false,"is_disabled":false,"rental_uris":{"android":"levelo://app?vid=83c69af1-0d5e-4560-ace0-538d107a2e5f","ios":"levelo://app?vid=83c69af1-0d5e-4560-ace0-538d107a2e5f"},"vehicle_type_id":"4","last_reported":1687385168,"current_range_meters":19600,"station_id":"ce4bhs92rcd13ifvqi0g","pricing_plan_id":"free"},{"bike_id":"4c7e5c93-2a48-4a72-a6cf-97c503c7a2fa","system_id":"levelo_inurba_marseille","lat":43.328371,"lon":5.366909,"is_reserved":false,"is_disabled":false,"rental_uris":{"android":"levelo://app?vid=4c7e5c93-2a48-4a72-a6cf-97c503c7a2fa","ios":"levelo://app?vid=4c7e5c93-2a48-4a72-a6cf-97c503c7a2fa"},"vehicle_type_id":"4","last_reported":1687385168,"current_range_meters":15200,"station_id":"ce4bhs92rcd13ifvqi0g","pricing_plan_id":"free"},{"bike_id":"11bfd3fe-e149-45d7-8fab-b36fe62e4e06","system_id":"levelo_inurba_marseille","lat":43.29869,"lon":5.37637,"is_reserved":false,"is_disabled":false,"rental_uris":{"android":"levelo://app?vid=11bfd3fe-e149-45d7-8fab-b36fe62e4e06","ios":"levelo://app?vid=11bfd3fe-e149-45d7-8fab-b36fe62e4e06"},"vehicle_type_id":"4","last_reported":1687385168,"current_range_meters":25200,"station_id":"","pricing_plan_id":"free"},{"bike_id":"176f4894-d7fc-460e-aa5d-7c8c1e206dc3","system_id":"levelo_inurba_marseille","lat":43.29703,"lon":5.36604,"is_reserved":false,"is_disabled":false,"rental_uris":{"android":"levelo://app?vid=176f4894-d7fc-460e-aa5d-7c8c1e206dc3","ios":"levelo://app?vid=176f4894-d7fc-460e-aa5d-7c8c1e206dc3"},"vehicle_type_id":"4","last_reported":1687385168,"current_range_meters":17600,"station_id":"","pricing_plan_id":"free"},{"bike_id":"ad429282-451f-451b-b802-67f679067a60","system_id":"levelo_inurba_marseille","lat":43.296129,"lon":5.370777,"is_reserved":false,"is_disabled":false,"rental_uris":{"android":"levelo://app?vid=ad429282-451f-451b-b802-67f679067a60","ios":"levelo://app?vid=ad429282-451f-451b-b802-67f679067a60"},"vehicle_type_id":"4","last_reported":1687385168,"current_range_meters":29200,"station_id":"ce4bgnh2rcd13ifvqc0g","pricing_plan_id":"free"},{"bike_id":"0285acb1-1e52-4cc5-be50-22f28776f709","system_id":"levelo_inurba_marseille","lat":43.296131,"lon":5.370773,"is_reserved":false,"is_disabled":false,"rental_uris":{"android":"levelo://app?vid=0285acb1-1e52-4cc5-be50-22f28776f709","ios":"levelo://app?vid=0285acb1-1e52-4cc5-be50-22f28776f709"},"vehicle_type_id":"4","last_reported":1687385168,"current_range_meters":20400,"station_id":"ce4bgnh2rcd13ifvqc0g","pricing_plan_id":"free"},{"bike_id":"24f41ca5-b432-4feb-a0c8-a15026b97306","system_id":"levelo_inurba_marseille","lat":43.296131,"lon":5.370773,"is_reserved":false,"is_disabled":false,"rental_uris":{"android":"levelo://app?vid=24f41ca5-b432-4feb-a0c8-a15026b97306","ios":"levelo://app?vid=24f41ca5-b432-4feb-a0c8-a15026b97306"},"vehicle_type_id":"4","last_reported":1687385168,"current_range_meters":0,"station_id":"ce4bgnh2rcd13ifvqc0g","pricing_plan_id":"free"},{"bike_id":"041bc147-ef2f-419b-bb81-deca3bdf89e2","system_id":"levelo_inurba_marseille","lat":43.29611,"lon":5.36046,"is_reserved":false,"is_disabled":false,"rental_uris":{"android":"levelo://app?vid=041bc147-ef2f-419b-bb81-deca3bdf89e2","ios":"levelo://app?vid=041bc147-ef2f-419b-bb81-deca3bdf89e2"},"vehicle_type_id":"4","last_reported":1687385168,"current_range_meters":16800,"station_id":"","pricing_plan_id":"free"},{"bike_id":"8b9e3ba8-3a55-4cc5-9459-335ad26a44f2","system_id":"levelo_inurba_marseille","lat":43.317557,"lon":5.390173,"is_reserved":false,"is_disabled":false,"rental_uris":{"android":"levelo://app?vid=8b9e3ba8-3a55-4cc5-9459-335ad26a44f2","ios":"levelo://app?vid=8b9e3ba8-3a55-4cc5-9459-335ad26a44f2"},"vehicle_type_id":"4","last_reported":1687385168,"current_range_meters":21600,"station_id":"ce4bhqp2rcd13ifvqhng","pricing_plan_id":"free"},{"bike_id":"08825aa8-51a8-4d96-94bf-a64b9ffa0b57","system_id":"levelo_inurba_marseille","lat":43.317557,"lon":5.390173,"is_reserved":false,"is_disabled":false,"rental_uris":{"android":"levelo://app?vid=08825aa8-51a8-4d96-94bf-a64b9ffa0b57","ios":"levelo://app?vid=08825aa8-51a8-4d96-94bf-a64b9ffa0b57"},"vehicle_type_id":"4","last_reported":1687385168,"current_range_meters":20000,"station_id":"ce4bhqp2rcd13ifvqhng","pricing_plan_id":"free"},{"bike_id":"16e5fedd-6e86-436a-a0a2-72c7cd60a6ea","system_id":"levelo_inurba_marseille","lat":43.317557,"lon":5.390173,"is_reserved":false,"is_disabled":false,"rental_uris":{"android":"levelo://app?vid=16e5fedd-6e86-436a-a0a2-72c7cd60a6ea","ios":"levelo://app?vid=16e5fedd-6e86-436a-a0a2-72c7cd60a6ea"},"vehicle_type_id":"4","last_reported":1687385168,"current_range_meters":31200,"station_id":"ce4bhqp2rcd13ifvqhng","pricing_plan_id":"free"},{"bike_id":"d38c5de4-1b75-44fb-88b5-eb30bcdcd7d0","system_id":"levelo_inurba_marseille","lat":43.302008,"lon":5.394694,"is_reserved":false,"is_disabled":false,"rental_uris":{"android":"levelo://app?vid=d38c5de4-1b75-44fb-88b5-eb30bcdcd7d0","ios":"levelo://app?vid=d38c5de4-1b75-44fb-88b5-eb30bcdcd7d0"},"vehicle_type_id":"4","last_reported":1687385168,"current_range_meters":16800,"station_id":"ce4bh0p2rcd13ifvqd70","pricing_plan_id":"free"},{"bike_id":"37dc018f-83db-4790-9e62-9ce405bf61d6","system_id":"levelo_inurba_marseille","lat":43.304274,"lon":5.388873,"is_reserved":false,"is_disabled":false,"rental_uris":{"android":"levelo://app?vid=37dc018f-83db-4790-9e62-9ce405bf61d6","ios":"levelo://app?vid=37dc018f-83db-4790-9e62-9ce405bf61d6"},"vehicle_type_id":"4","last_reported":1687385168,"current_range_meters":13600,"station_id":"ce4bgk12rcd13ifvqbi0","pricing_plan_id":"free"},{"bike_id":"0e467a9e-96f7-4d72-acfd-f26a116370ad","system_id":"levelo_inurba_marseille","lat":43.304274,"lon":5.388873,"is_reserved":false,"is_disabled":false,"rental_uris":{"android":"levelo://app?vid=0e467a9e-96f7-4d72-acfd-f26a116370ad","ios":"levelo://app?vid=0e467a9e-96f7-4d72-acfd-f26a116370ad"},"vehicle_type_id":"4","last_reported":1687385168,"current_range_meters":25600,"station_id":"ce4bgk12rcd13ifvqbi0","pricing_plan_id":"free"},{"bike_id":"d7204c65-c915-4029-82dc-eaa86ee370c7","system_id":"levelo_inurba_marseille","lat":43.304274,"lon":5.388873,"is_reserved":false,"is_disabled":false,"rental_uris":{"android":"levelo://app?vid=d7204c65-c915-4029-82dc-eaa86ee370c7","ios":"levelo://app?vid=d7204c65-c915-4029-82dc-eaa86ee370c7"},"vehicle_type_id":"4","last_reported":1687385168,"current_range_meters":25200,"station_id":"ce4bgk12rcd13ifvqbi0","pricing_plan_id":"free"},{"bike_id":"2b701b89-d0ef-4050-a842-739854705574","system_id":"levelo_inurba_marseille","lat":43.304278,"lon":5.388868,"is_reserved":false,"is_disabled":false,"rental_uris":{"android":"levelo://app?vid=2b701b89-d0ef-4050-a842-739854705574","ios":"levelo://app?vid=2b701b89-d0ef-4050-a842-739854705574"},"vehicle_type_id":"4","last_reported":1687385168,"current_range_meters":29200,"station_id":"ce4bgk12rcd13ifvqbi0","pricing_plan_id":"free"},{"bike_id":"0891ece2-fc76-49b9-8c9d-7506721573b1","system_id":"levelo_inurba_marseille","lat":43.304274,"lon":5.388873,"is_reserved":false,"is_disabled":false,"rental_uris":{"android":"levelo://app?vid=0891ece2-fc76-49b9-8c9d-7506721573b1","ios":"levelo://app?vid=0891ece2-fc76-49b9-8c9d-7506721573b1"},"vehicle_type_id":"4","last_reported":1687385168,"current_range_meters":10800,"station_id":"ce4bgk12rcd13ifvqbi0","pricing_plan_id":"free"},{"bike_id":"945ee6ba-f238-42d1-aa78-e77b458dcb6d","system_id":"levelo_inurba_marseille","lat":43.304274,"lon":5.388873,"is_reserved":false,"is_disabled":false,"rental_uris":{"android":"levelo://app?vid=945ee6ba-f238-42d1-aa78-e77b458dcb6d","ios":"levelo://app?vid=945ee6ba-f238-42d1-aa78-e77b458dcb6d"},"vehicle_type_id":"4","last_reported":1687385168,"current_range_meters":21200,"station_id":"ce4bgk12rcd13ifvqbi0","pricing_plan_id":"free"},{"bike_id":"7345191e-4c1e-41c2-82bb-2cef63b688ee","system_id":"levelo_inurba_marseille","lat":43.29592,"lon":5.37701,"is_reserved":false,"is_disabled":false,"rental_uris":{"android":"levelo://app?vid=7345191e-4c1e-41c2-82bb-2cef63b688ee","ios":"levelo://app?vid=7345191e-4c1e-41c2-82bb-2cef63b688ee"},"vehicle_type_id":"4","last_reported":1687385168,"current_range_meters":0,"station_id":"","pricing_plan_id":"free"},{"bike_id":"315ce787-c23c-4130-9b2e-d90e73e5b0e6","system_id":"levelo_inurba_marseille","lat":43.299707,"lon":5.384859,"is_reserved":false,"is_disabled":false,"rental_uris":{"android":"levelo://app?vid=315ce787-c23c-4130-9b2e-d90e73e5b0e6","ios":"levelo://app?vid=315ce787-c23c-4130-9b2e-d90e73e5b0e6"},"vehicle_type_id":"4","last_reported":1687385168,"current_range_meters":0,"station_id":"ce4bgj92rcd13ifvqbd0","pricing_plan_id":"free"},{"bike_id":"a80b1fe8-e794-455a-bfa3-88c346d6f12d","system_id":"levelo_inurba_marseille","lat":43.29714,"lon":5.38122,"is_reserved":false,"is_disabled":false,"rental_uris":{"android":"levelo://app?vid=a80b1fe8-e794-455a-bfa3-88c346d6f12d","ios":"levelo://app?vid=a80b1fe8-e794-455a-bfa3-88c346d6f12d"},"vehicle_type_id":"4","last_reported":1687385168,"current_range_meters":15600,"station_id":"","pricing_plan_id":"free"},{"bike_id":"7ae0a70b-b34b-4619-b999-d91fc3badad9","system_id":"levelo_inurba_marseille","lat":43.32367,"lon":5.388836,"is_reserved":false,"is_disabled":false,"rental_uris":{"android":"levelo://app?vid=7ae0a70b-b34b-4619-b999-d91fc3badad9","ios":"levelo://app?vid=7ae0a70b-b34b-4619-b999-d91fc3badad9"},"vehicle_type_id":"4","last_reported":1687385168,"current_range_meters":22000,"station_id":"ce4bhqp2rcd13ifvqhog","pricing_plan_id":"free"},{"bike_id":"07e16fb3-d2a9-448f-a2bf-2b98a5617d56","system_id":"levelo_inurba_marseille","lat":43.32367,"lon":5.388836,"is_reserved":false,"is_disabled":false,"rental_uris":{"android":"levelo://app?vid=07e16fb3-d2a9-448f-a2bf-2b98a5617d56","ios":"levelo://app?vid=07e16fb3-d2a9-448f-a2bf-2b98a5617d56"},"vehicle_type_id":"4","last_reported":1687385168,"current_range_meters":19600,"station_id":"ce4bhqp2rcd13ifvqhog","pricing_plan_id":"free"},{"bike_id":"e041460a-54ae-4871-ad9f-b6135e0ef88f","system_id":"levelo_inurba_marseille","lat":43.32367,"lon":5.388836,"is_reserved":false,"is_disabled":false,"rental_uris":{"android":"levelo://app?vid=e041460a-54ae-4871-ad9f-b6135e0ef88f","ios":"levelo://app?vid=e041460a-54ae-4871-ad9f-b6135e0ef88f"},"vehicle_type_id":"4","last_reported":1687385168,"current_range_meters":0,"station_id":"ce4bhqp2rcd13ifvqhog","pricing_plan_id":"free"},{"bike_id":"c3604234-a48c-408a-968a-d7396d834b5f","system_id":"levelo_inurba_marseille","lat":43.32367,"lon":5.388836,"is_reserved":false,"is_disabled":false,"rental_uris":{"android":"levelo://app?vid=c3604234-a48c-408a-968a-d7396d834b5f","ios":"levelo://app?vid=c3604234-a48c-408a-968a-d7396d834b5f"},"vehicle_type_id":"4","last_reported":1687385168,"current_range_meters":8800,"station_id":"ce4bhqp2rcd13ifvqhog","pricing_plan_id":"free"},{"bike_id":"e9a5f79a-69b5-4c7c-81b9-81e43f3bff7b","system_id":"levelo_inurba_marseille","lat":43.32367,"lon":5.388836,"is_reserved":false,"is_disabled":false,"rental_uris":{"android":"levelo://app?vid=e9a5f79a-69b5-4c7c-81b9-81e43f3bff7b","ios":"levelo://app?vid=e9a5f79a-69b5-4c7c-81b9-81e43f3bff7b"},"vehicle_type_id":"4","last_reported":1687385168,"current_range_meters":24000,"station_id":"ce4bhqp2rcd13ifvqhog","pricing_plan_id":"free"},{"bike_id":"3cd10ad7-a316-4ed6-a3d9-f31d3f3622ac","system_id":"levelo_inurba_marseille","lat":43.32367,"lon":5.388836,"is_reserved":false,"is_disabled":false,"rental_uris":{"android":"levelo://app?vid=3cd10ad7-a316-4ed6-a3d9-f31d3f3622ac","ios":"levelo://app?vid=3cd10ad7-a316-4ed6-a3d9-f31d3f3622ac"},"vehicle_type_id":"4","last_reported":1687385168,"current_range_meters":21200,"station_id":"ce4bhqp2rcd13ifvqhog","pricing_plan_id":"free"},{"bike_id":"9da04b77-8cbd-4ced-9933-390cc6bb4911","system_id":"levelo_inurba_marseille","lat":43.32367,"lon":5.388836,"is_reserved":false,"is_disabled":false,"rental_uris":{"android":"levelo://app?vid=9da04b77-8cbd-4ced-9933-390cc6bb4911","ios":"levelo://app?vid=9da04b77-8cbd-4ced-9933-390cc6bb4911"},"vehicle_type_id":"4","last_reported":1687385168,"current_range_meters":4800,"station_id":"ce4bhqp2rcd13ifvqhog","pricing_plan_id":"free"},{"bike_id":"2416699f-f4ca-4fd7-861f-2eb65620cbe4","system_id":"levelo_inurba_marseille","lat":43.32367,"lon":5.388836,"is_reserved":false,"is_disabled":false,"rental_uris":{"android":"levelo://app?vid=2416699f-f4ca-4fd7-861f-2eb65620cbe4","ios":"levelo://app?vid=2416699f-f4ca-4fd7-861f-2eb65620cbe4"},"vehicle_type_id":"4","last_reported":1687385168,"current_range_meters":22000,"station_id":"ce4bhqp2rcd13ifvqhog","pricing_plan_id":"free"},{"bike_id":"62e1e21f-3f88-43a4-83a5-bbb9f2a86bae","system_id":"levelo_inurba_marseille","lat":43.32367,"lon":5.388836,"is_reserved":false,"is_disabled":false,"rental_uris":{"android":"levelo://app?vid=62e1e21f-3f88-43a4-83a5-bbb9f2a86bae","ios":"levelo://app?vid=62e1e21f-3f88-43a4-83a5-bbb9f2a86bae"},"vehicle_type_id":"4","last_reported":1687385168,"current_range_meters":19200,"station_id":"ce4bhqp2rcd13ifvqhog","pricing_plan_id":"free"},{"bike_id":"dc1288f2-21ad-492f-aa3f-836795dfb50f","system_id":"levelo_inurba_marseille","lat":43.30591,"lon":5.39354,"is_reserved":false,"is_disabled":false,"rental_uris":{"android":"levelo://app?vid=dc1288f2-21ad-492f-aa3f-836795dfb50f","ios":"levelo://app?vid=dc1288f2-21ad-492f-aa3f-836795dfb50f"},"vehicle_type_id":"4","last_reported":1687385168,"current_range_meters":10400,"station_id":"ce4bh0p2rcd13ifvqd80","pricing_plan_id":"free"},{"bike_id":"e796f016-8823-465c-96f4-49046f7331ba","system_id":"levelo_inurba_marseille","lat":43.305994,"lon":5.393687,"is_reserved":false,"is_disabled":false,"rental_uris":{"android":"levelo://app?vid=e796f016-8823-465c-96f4-49046f7331ba","ios":"levelo://app?vid=e796f016-8823-465c-96f4-49046f7331ba"},"vehicle_type_id":"4","last_reported":1687385168,"current_range_meters":4400,"station_id":"ce4bh0p2rcd13ifvqd80","pricing_plan_id":"free"},{"bike_id":"33d350b3-4ea1-4c4c-bf28-33e55f637179","system_id":"levelo_inurba_marseille","lat":43.302992,"lon":5.392136,"is_reserved":false,"is_disabled":false,"rental_uris":{"android":"levelo://app?vid=33d350b3-4ea1-4c4c-bf28-33e55f637179","ios":"levelo://app?vid=33d350b3-4ea1-4c4c-bf28-33e55f637179"},"vehicle_type_id":"4","last_reported":1687385168,"current_range_meters":24000,"station_id":"ce4bgkh2rcd13ifvqbk0","pricing_plan_id":"free"},{"bike_id":"66b480a6-9947-4496-98e2-93e61a3244b4","system_id":"levelo_inurba_marseille","lat":43.30379,"lon":5.39324,"is_reserved":false,"is_disabled":false,"rental_uris":{"android":"levelo://app?vid=66b480a6-9947-4496-98e2-93e61a3244b4","ios":"levelo://app?vid=66b480a6-9947-4496-98e2-93e61a3244b4"},"vehicle_type_id":"4","last_reported":1687385168,"current_range_meters":29600,"station_id":"","pricing_plan_id":"free"},{"bike_id":"37282271-669d-4d3a-897b-0986995470ef","system_id":"levelo_inurba_marseille","lat":43.291675,"lon":5.371583,"is_reserved":false,"is_disabled":false,"rental_uris":{"android":"levelo://app?vid=37282271-669d-4d3a-897b-0986995470ef","ios":"levelo://app?vid=37282271-669d-4d3a-897b-0986995470ef"},"vehicle_type_id":"4","last_reported":1687385168,"current_range_meters":0,"station_id":"ce4bha92rcd13ifvqeh0","pricing_plan_id":"free"},{"bike_id":"d7b894a1-bd71-4002-aa50-0025237c8a6f","system_id":"levelo_inurba_marseille","lat":43.309038,"lon":5.396546,"is_reserved":false,"is_disabled":false,"rental_uris":{"android":"levelo://app?vid=d7b894a1-bd71-4002-aa50-0025237c8a6f","ios":"levelo://app?vid=d7b894a1-bd71-4002-aa50-0025237c8a6f"},"vehicle_type_id":"4","last_reported":1687385168,"current_range_meters":0,"station_id":"ce4bh012rcd13ifvqcv0","pricing_plan_id":"free"},{"bike_id":"068fc60f-4716-4cd0-afc2-556cc1723478","system_id":"levelo_inurba_marseille","lat":43.309038,"lon":5.396546,"is_reserved":false,"is_disabled":false,"rental_uris":{"android":"levelo://app?vid=068fc60f-4716-4cd0-afc2-556cc1723478","ios":"levelo://app?vid=068fc60f-4716-4cd0-afc2-556cc1723478"},"vehicle_type_id":"4","last_reported":1687385168,"current_range_meters":0,"station_id":"ce4bh012rcd13ifvqcv0","pricing_plan_id":"free"},{"bike_id":"dcad718b-bdfb-467f-a3ba-b0d03762532f","system_id":"levelo_inurba_marseille","lat":43.309038,"lon":5.396546,"is_reserved":false,"is_disabled":false,"rental_uris":{"android":"levelo://app?vid=dcad718b-bdfb-467f-a3ba-b0d03762532f","ios":"levelo://app?vid=dcad718b-bdfb-467f-a3ba-b0d03762532f"},"vehicle_type_id":"4","last_reported":1687385168,"current_range_meters":21200,"station_id":"ce4bh012rcd13ifvqcv0","pricing_plan_id":"free"},{"bike_id":"319e7585-d7f2-4068-bc08-1126e7bfa104","system_id":"levelo_inurba_marseille","lat":43.30885,"lon":5.39638,"is_reserved":false,"is_disabled":false,"rental_uris":{"android":"levelo://app?vid=319e7585-d7f2-4068-bc08-1126e7bfa104","ios":"levelo://app?vid=319e7585-d7f2-4068-bc08-1126e7bfa104"},"vehicle_type_id":"4","last_reported":1687385168,"current_range_meters":16400,"station_id":"ce4bh012rcd13ifvqcv0","pricing_plan_id":"free"},{"bike_id":"2ccf7fab-876b-4ec8-8938-040ac560134e","system_id":"levelo_inurba_marseille","lat":43.313291,"lon":5.396838,"is_reserved":false,"is_disabled":false,"rental_uris":{"android":"levelo://app?vid=2ccf7fab-876b-4ec8-8938-040ac560134e","ios":"levelo://app?vid=2ccf7fab-876b-4ec8-8938-040ac560134e"},"vehicle_type_id":"4","last_reported":1687385168,"current_range_meters":9200,"station_id":"ce4bgvp2rcd13ifvqcu0","pricing_plan_id":"free"},{"bike_id":"1842f4d5-a465-4c02-9901-329ad8433b18","system_id":"levelo_inurba_marseille","lat":43.309038,"lon":5.396546,"is_reserved":false,"is_disabled":false,"rental_uris":{"android":"levelo://app?vid=1842f4d5-a465-4c02-9901-329ad8433b18","ios":"levelo://app?vid=1842f4d5-a465-4c02-9901-329ad8433b18"},"vehicle_type_id":"4","last_reported":1687385168,"current_range_meters":29200,"station_id":"ce4bh012rcd13ifvqcv0","pricing_plan_id":"free"},{"bike_id":"75682234-1163-401a-bb22-8791d08c523c","system_id":"levelo_inurba_marseille","lat":43.313291,"lon":5.396838,"is_reserved":false,"is_disabled":false,"rental_uris":{"android":"levelo://app?vid=75682234-1163-401a-bb22-8791d08c523c","ios":"levelo://app?vid=75682234-1163-401a-bb22-8791d08c523c"},"vehicle_type_id":"4","last_reported":1687385168,"current_range_meters":1600,"station_id":"ce4bgvp2rcd13ifvqcu0","pricing_plan_id":"free"},{"bike_id":"37540bd7-996e-4c39-9009-afe113030934","system_id":"levelo_inurba_marseille","lat":43.313291,"lon":5.396838,"is_reserved":false,"is_disabled":false,"rental_uris":{"android":"levelo://app?vid=37540bd7-996e-4c39-9009-afe113030934","ios":"levelo://app?vid=37540bd7-996e-4c39-9009-afe113030934"},"vehicle_type_id":"4","last_reported":1687385168,"current_range_meters":28800,"station_id":"ce4bgvp2rcd13ifvqcu0","pricing_plan_id":"free"},{"bike_id":"d62c593e-9083-42d7-a285-da5123f976ce","system_id":"levelo_inurba_marseille","lat":43.309038,"lon":5.396546,"is_reserved":false,"is_disabled":false,"rental_uris":{"android":"levelo://app?vid=d62c593e-9083-42d7-a285-da5123f976ce","ios":"levelo://app?vid=d62c593e-9083-42d7-a285-da5123f976ce"},"vehicle_type_id":"4","last_reported":1687385168,"current_range_meters":13200,"station_id":"ce4bh012rcd13ifvqcv0","pricing_plan_id":"free"},{"bike_id":"4d9cad11-cebf-4007-813a-5e1459831021","system_id":"levelo_inurba_marseille","lat":43.313291,"lon":5.396838,"is_reserved":false,"is_disabled":false,"rental_uris":{"android":"levelo://app?vid=4d9cad11-cebf-4007-813a-5e1459831021","ios":"levelo://app?vid=4d9cad11-cebf-4007-813a-5e1459831021"},"vehicle_type_id":"4","last_reported":1687385168,"current_range_meters":19600,"station_id":"ce4bgvp2rcd13ifvqcu0","pricing_plan_id":"free"},{"bike_id":"22018e84-a28c-4a9c-a4cd-224d22b85f23","system_id":"levelo_inurba_marseille","lat":43.313291,"lon":5.396838,"is_reserved":false,"is_disabled":false,"rental_uris":{"android":"levelo://app?vid=22018e84-a28c-4a9c-a4cd-224d22b85f23","ios":"levelo://app?vid=22018e84-a28c-4a9c-a4cd-224d22b85f23"},"vehicle_type_id":"4","last_reported":1687385168,"current_range_meters":26000,"station_id":"ce4bgvp2rcd13ifvqcu0","pricing_plan_id":"free"},{"bike_id":"44a3d3a5-99b5-4c95-a33e-4e52e00b990c","system_id":"levelo_inurba_marseille","lat":43.30881,"lon":5.39652,"is_reserved":false,"is_disabled":false,"rental_uris":{"android":"levelo://app?vid=44a3d3a5-99b5-4c95-a33e-4e52e00b990c","ios":"levelo://app?vid=44a3d3a5-99b5-4c95-a33e-4e52e00b990c"},"vehicle_type_id":"4","last_reported":1687385168,"current_range_meters":0,"station_id":"ce4bh012rcd13ifvqcv0","pricing_plan_id":"free"},{"bike_id":"1e5bbb80-cdcd-4a2d-ab90-0edd36e0b798","system_id":"levelo_inurba_marseille","lat":43.29531,"lon":5.38527,"is_reserved":false,"is_disabled":false,"rental_uris":{"android":"levelo://app?vid=1e5bbb80-cdcd-4a2d-ab90-0edd36e0b798","ios":"levelo://app?vid=1e5bbb80-cdcd-4a2d-ab90-0edd36e0b798"},"vehicle_type_id":"4","last_reported":1687385168,"current_range_meters":0,"station_id":"ce4bgih2rcd13ifvqba0","pricing_plan_id":"free"},{"bike_id":"39caba74-4fb1-413c-baf8-b9baf1d46b2c","system_id":"levelo_inurba_marseille","lat":43.29516,"lon":5.38529,"is_reserved":false,"is_disabled":false,"rental_uris":{"android":"levelo://app?vid=39caba74-4fb1-413c-baf8-b9baf1d46b2c","ios":"levelo://app?vid=39caba74-4fb1-413c-baf8-b9baf1d46b2c"},"vehicle_type_id":"4","last_reported":1687385168,"current_range_meters":0,"station_id":"","pricing_plan_id":"free"},{"bike_id":"2d231b87-01f7-4aeb-8dc5-527032965b2b","system_id":"levelo_inurba_marseille","lat":43.290631,"lon":5.359244,"is_reserved":false,"is_disabled":false,"rental_uris":{"android":"levelo://app?vid=2d231b87-01f7-4aeb-8dc5-527032965b2b","ios":"levelo://app?vid=2d231b87-01f7-4aeb-8dc5-527032965b2b"},"vehicle_type_id":"4","last_reported":1687385168,"current_range_meters":12000,"station_id":"ce4bha92rcd13ifvqeg0","pricing_plan_id":"free"},{"bike_id":"14421a8f-269d-4b0d-87e5-c922c4feb786","system_id":"levelo_inurba_marseille","lat":43.29039,"lon":5.3591,"is_reserved":false,"is_disabled":false,"rental_uris":{"android":"levelo://app?vid=14421a8f-269d-4b0d-87e5-c922c4feb786","ios":"levelo://app?vid=14421a8f-269d-4b0d-87e5-c922c4feb786"},"vehicle_type_id":"4","last_reported":1687385168,"current_range_meters":8800,"station_id":"ce4bha92rcd13ifvqeg0","pricing_plan_id":"free"},{"bike_id":"3f8a925a-6a54-4259-a38f-9cf091aab246","system_id":"levelo_inurba_marseille","lat":43.294162,"lon":5.386292,"is_reserved":false,"is_disabled":false,"rental_uris":{"android":"levelo://app?vid=3f8a925a-6a54-4259-a38f-9cf091aab246","ios":"levelo://app?vid=3f8a925a-6a54-4259-a38f-9cf091aab246"},"vehicle_type_id":"4","last_reported":1687385168,"current_range_meters":31200,"station_id":"ce4bh2h2rcd13ifvqdh0","pricing_plan_id":"free"},{"bike_id":"0609f09b-61e5-40d1-a057-3a5b9409ddd1","system_id":"levelo_inurba_marseille","lat":43.294162,"lon":5.386292,"is_reserved":false,"is_disabled":false,"rental_uris":{"android":"levelo://app?vid=0609f09b-61e5-40d1-a057-3a5b9409ddd1","ios":"levelo://app?vid=0609f09b-61e5-40d1-a057-3a5b9409ddd1"},"vehicle_type_id":"4","last_reported":1687385168,"current_range_meters":30000,"station_id":"ce4bh2h2rcd13ifvqdh0","pricing_plan_id":"free"},{"bike_id":"57d0fe63-e93a-46ac-b11f-97260719e183","system_id":"levelo_inurba_marseille","lat":43.29417,"lon":5.38642,"is_reserved":false,"is_disabled":false,"rental_uris":{"android":"levelo://app?vid=57d0fe63-e93a-46ac-b11f-97260719e183","ios":"levelo://app?vid=57d0fe63-e93a-46ac-b11f-97260719e183"},"vehicle_type_id":"4","last_reported":1687385168,"current_range_meters":11600,"station_id":"ce4bh2h2rcd13ifvqdh0","pricing_plan_id":"free"},{"bike_id":"937cb550-3a62-4733-85e4-378591493162","system_id":"levelo_inurba_marseille","lat":43.289184,"lon":5.366408,"is_reserved":false,"is_disabled":false,"rental_uris":{"android":"levelo://app?vid=937cb550-3a62-4733-85e4-378591493162","ios":"levelo://app?vid=937cb550-3a62-4733-85e4-378591493162"},"vehicle_type_id":"4","last_reported":1687385168,"current_range_meters":30000,"station_id":"ce4bhap2rcd13ifvqek0","pricing_plan_id":"free"},{"bike_id":"e053e4ef-c64c-49f1-833b-986400307407","system_id":"levelo_inurba_marseille","lat":43.29422,"lon":5.38668,"is_reserved":false,"is_disabled":false,"rental_uris":{"android":"levelo://app?vid=e053e4ef-c64c-49f1-833b-986400307407","ios":"levelo://app?vid=e053e4ef-c64c-49f1-833b-986400307407"},"vehicle_type_id":"4","last_reported":1687385168,"current_range_meters":10400,"station_id":"","pricing_plan_id":"free"},{"bike_id":"469f5818-a203-4757-9224-d39c3df2303b","system_id":"levelo_inurba_marseille","lat":43.28938,"lon":5.36397,"is_reserved":false,"is_disabled":false,"rental_uris":{"android":"levelo://app?vid=469f5818-a203-4757-9224-d39c3df2303b","ios":"levelo://app?vid=469f5818-a203-4757-9224-d39c3df2303b"},"vehicle_type_id":"4","last_reported":1687385168,"current_range_meters":0,"station_id":"ce4bhc92rcd13ifvqetg","pricing_plan_id":"free"},{"bike_id":"38eb09af-7166-42b9-865e-84246929498f","system_id":"levelo_inurba_marseille","lat":43.292644,"lon":5.384257,"is_reserved":false,"is_disabled":false,"rental_uris":{"android":"levelo://app?vid=38eb09af-7166-42b9-865e-84246929498f","ios":"levelo://app?vid=38eb09af-7166-42b9-865e-84246929498f"},"vehicle_type_id":"4","last_reported":1687385168,"current_range_meters":31200,"station_id":"ce4bh692rcd13ifvqea0","pricing_plan_id":"free"},{"bike_id":"e66b931b-c1e7-4dbb-ba54-f3a385eefda9","system_id":"levelo_inurba_marseille","lat":43.304296,"lon":5.397513,"is_reserved":false,"is_disabled":false,"rental_uris":{"android":"levelo://app?vid=e66b931b-c1e7-4dbb-ba54-f3a385eefda9","ios":"levelo://app?vid=e66b931b-c1e7-4dbb-ba54-f3a385eefda9"},"vehicle_type_id":"4","last_reported":1687385168,"current_range_meters":0,"station_id":"ce4bh092rcd13ifvqd20","pricing_plan_id":"free"},{"bike_id":"59d125af-16ef-419c-b0b1-36a03e1202e7","system_id":"levelo_inurba_marseille","lat":43.3304,"lon":5.38918,"is_reserved":false,"is_disabled":false,"rental_uris":{"android":"levelo://app?vid=59d125af-16ef-419c-b0b1-36a03e1202e7","ios":"levelo://app?vid=59d125af-16ef-419c-b0b1-36a03e1202e7"},"vehicle_type_id":"4","last_reported":1687385168,"current_range_meters":4000,"station_id":"ce4bhr92rcd13ifvqhrg","pricing_plan_id":"free"},{"bike_id":"18846a49-d402-46be-a78e-dde2aafef56d","system_id":"levelo_inurba_marseille","lat":43.33043,"lon":5.38917,"is_reserved":false,"is_disabled":false,"rental_uris":{"android":"levelo://app?vid=18846a49-d402-46be-a78e-dde2aafef56d","ios":"levelo://app?vid=18846a49-d402-46be-a78e-dde2aafef56d"},"vehicle_type_id":"4","last_reported":1687385168,"current_range_meters":18000,"station_id":"ce4bhr92rcd13ifvqhrg","pricing_plan_id":"free"},{"bike_id":"64d533f9-d91b-46e3-b745-e7bd18ed4968","system_id":"levelo_inurba_marseille","lat":43.33043,"lon":5.3892,"is_reserved":false,"is_disabled":false,"rental_uris":{"android":"levelo://app?vid=64d533f9-d91b-46e3-b745-e7bd18ed4968","ios":"levelo://app?vid=64d533f9-d91b-46e3-b745-e7bd18ed4968"},"vehicle_type_id":"4","last_reported":1687385168,"current_range_meters":26000,"station_id":"ce4bhr92rcd13ifvqhrg","pricing_plan_id":"free"},{"bike_id":"e1a45b0a-bebd-4c51-9017-f46b52c8e6b7","system_id":"levelo_inurba_marseille","lat":43.33043,"lon":5.38922,"is_reserved":false,"is_disabled":false,"rental_uris":{"android":"levelo://app?vid=e1a45b0a-bebd-4c51-9017-f46b52c8e6b7","ios":"levelo://app?vid=e1a45b0a-bebd-4c51-9017-f46b52c8e6b7"},"vehicle_type_id":"4","last_reported":1687385168,"current_range_meters":0,"station_id":"ce4bhr92rcd13ifvqhrg","pricing_plan_id":"free"},{"bike_id":"82d6893e-eccb-4c72-a658-fa65b60e4f4a","system_id":"levelo_inurba_marseille","lat":43.33044,"lon":5.38921,"is_reserved":false,"is_disabled":false,"rental_uris":{"android":"levelo://app?vid=82d6893e-eccb-4c72-a658-fa65b60e4f4a","ios":"levelo://app?vid=82d6893e-eccb-4c72-a658-fa65b60e4f4a"},"vehicle_type_id":"4","last_reported":1687385168,"current_range_meters":0,"station_id":"ce4bhr92rcd13ifvqhrg","pricing_plan_id":"free"},{"bike_id":"72a36de3-9c88-4e38-82cf-82f4854c3a2b","system_id":"levelo_inurba_marseille","lat":43.290104,"lon":5.356111,"is_reserved":false,"is_disabled":false,"rental_uris":{"android":"levelo://app?vid=72a36de3-9c88-4e38-82cf-82f4854c3a2b","ios":"levelo://app?vid=72a36de3-9c88-4e38-82cf-82f4854c3a2b"},"vehicle_type_id":"4","last_reported":1687385168,"current_range_meters":30400,"station_id":"ce4bhb92rcd13ifvqen0","pricing_plan_id":"free"},{"bike_id":"ebeb3295-d13a-43c4-a7fe-c6dda3efcec1","system_id":"levelo_inurba_marseille","lat":43.30642,"lon":5.401031,"is_reserved":false,"is_disabled":false,"rental_uris":{"android":"levelo://app?vid=ebeb3295-d13a-43c4-a7fe-c6dda3efcec1","ios":"levelo://app?vid=ebeb3295-d13a-43c4-a7fe-c6dda3efcec1"},"vehicle_type_id":"4","last_reported":1687385168,"current_range_meters":1200,"station_id":"ce4bh112rcd13ifvqda0","pricing_plan_id":"free"},{"bike_id":"ddf1e919-7d0d-4c59-8da5-79b6ddad8a23","system_id":"levelo_inurba_marseille","lat":43.297815,"lon":5.393548,"is_reserved":false,"is_disabled":false,"rental_uris":{"android":"levelo://app?vid=ddf1e919-7d0d-4c59-8da5-79b6ddad8a23","ios":"levelo://app?vid=ddf1e919-7d0d-4c59-8da5-79b6ddad8a23"},"vehicle_type_id":"4","last_reported":1687385168,"current_range_meters":12800,"station_id":"chh1huq6cuj3fo74tm60","pricing_plan_id":"free"},{"bike_id":"3c54c75b-b315-4c72-b900-6ea99828fb1d","system_id":"levelo_inurba_marseille","lat":43.295169,"lon":5.390426,"is_reserved":false,"is_disabled":false,"rental_uris":{"android":"levelo://app?vid=3c54c75b-b315-4c72-b900-6ea99828fb1d","ios":"levelo://app?vid=3c54c75b-b315-4c72-b900-6ea99828fb1d"},"vehicle_type_id":"4","last_reported":1687385168,"current_range_meters":24400,"station_id":"ce4bh3p2rcd13ifvqdp0","pricing_plan_id":"free"},{"bike_id":"828148db-772c-4e41-96c5-5718a835a9c2","system_id":"levelo_inurba_marseille","lat":43.28865,"lon":5.37294,"is_reserved":false,"is_disabled":false,"rental_uris":{"android":"levelo://app?vid=828148db-772c-4e41-96c5-5718a835a9c2","ios":"levelo://app?vid=828148db-772c-4e41-96c5-5718a835a9c2"},"vehicle_type_id":"4","last_reported":1687385168,"current_range_meters":0,"station_id":"ce4bh3p2rcd13ifvqdq0","pricing_plan_id":"free"},{"bike_id":"449ef148-30cd-442e-a082-b1e22e7b3327","system_id":"levelo_inurba_marseille","lat":43.29143,"lon":5.38487,"is_reserved":false,"is_disabled":false,"rental_uris":{"android":"levelo://app?vid=449ef148-30cd-442e-a082-b1e22e7b3327","ios":"levelo://app?vid=449ef148-30cd-442e-a082-b1e22e7b3327"},"vehicle_type_id":"4","last_reported":1687385168,"current_range_meters":12800,"station_id":"","pricing_plan_id":"free"},{"bike_id":"920782a2-8a9d-4d1c-af2c-1049d257077f","system_id":"levelo_inurba_marseille","lat":43.28848,"lon":5.35848,"is_reserved":false,"is_disabled":false,"rental_uris":{"android":"levelo://app?vid=920782a2-8a9d-4d1c-af2c-1049d257077f","ios":"levelo://app?vid=920782a2-8a9d-4d1c-af2c-1049d257077f"},"vehicle_type_id":"4","last_reported":1687385168,"current_range_meters":13600,"station_id":"","pricing_plan_id":"free"},{"bike_id":"a43dfcc4-b68d-48a8-9245-0cf21429285c","system_id":"levelo_inurba_marseille","lat":43.28856,"lon":5.358371,"is_reserved":false,"is_disabled":false,"rental_uris":{"android":"levelo://app?vid=a43dfcc4-b68d-48a8-9245-0cf21429285c","ios":"levelo://app?vid=a43dfcc4-b68d-48a8-9245-0cf21429285c"},"vehicle_type_id":"4","last_reported":1687385168,"current_range_meters":6400,"station_id":"ce4bhb12rcd13ifvqem0","pricing_plan_id":"free"},{"bike_id":"21623368-bf17-4d1f-9079-3559674bb5c4","system_id":"levelo_inurba_marseille","lat":43.28856,"lon":5.358371,"is_reserved":false,"is_disabled":false,"rental_uris":{"android":"levelo://app?vid=21623368-bf17-4d1f-9079-3559674bb5c4","ios":"levelo://app?vid=21623368-bf17-4d1f-9079-3559674bb5c4"},"vehicle_type_id":"4","last_reported":1687385168,"current_range_meters":14400,"station_id":"ce4bhb12rcd13ifvqem0","pricing_plan_id":"free"},{"bike_id":"7e291ccf-2acf-46be-8aff-bba95cbfe0b1","system_id":"levelo_inurba_marseille","lat":43.28839,"lon":5.3585,"is_reserved":false,"is_disabled":false,"rental_uris":{"android":"levelo://app?vid=7e291ccf-2acf-46be-8aff-bba95cbfe0b1","ios":"levelo://app?vid=7e291ccf-2acf-46be-8aff-bba95cbfe0b1"},"vehicle_type_id":"4","last_reported":1687385168,"current_range_meters":4400,"station_id":"ce4bhb12rcd13ifvqem0","pricing_plan_id":"free"},{"bike_id":"b143243a-a885-42f6-8e50-f24606ee1f79","system_id":"levelo_inurba_marseille","lat":43.29318,"lon":5.38907,"is_reserved":false,"is_disabled":false,"rental_uris":{"android":"levelo://app?vid=b143243a-a885-42f6-8e50-f24606ee1f79","ios":"levelo://app?vid=b143243a-a885-42f6-8e50-f24606ee1f79"},"vehicle_type_id":"4","last_reported":1687385168,"current_range_meters":7200,"station_id":"","pricing_plan_id":"free"},{"bike_id":"b456f868-0f03-4dc5-a873-699cb7b3a704","system_id":"levelo_inurba_marseille","lat":43.309371,"lon":5.401449,"is_reserved":false,"is_disabled":false,"rental_uris":{"android":"levelo://app?vid=b456f868-0f03-4dc5-a873-699cb7b3a704","ios":"levelo://app?vid=b456f868-0f03-4dc5-a873-699cb7b3a704"},"vehicle_type_id":"4","last_reported":1687385168,"current_range_meters":25200,"station_id":"ce4bgvp2rcd13ifvqct0","pricing_plan_id":"free"},{"bike_id":"2f8bc62c-cebd-40b7-b550-09580e847e5a","system_id":"levelo_inurba_marseille","lat":43.306412,"lon":5.401035,"is_reserved":false,"is_disabled":false,"rental_uris":{"android":"levelo://app?vid=2f8bc62c-cebd-40b7-b550-09580e847e5a","ios":"levelo://app?vid=2f8bc62c-cebd-40b7-b550-09580e847e5a"},"vehicle_type_id":"4","last_reported":1687385168,"current_range_meters":9600,"station_id":"ce4bh112rcd13ifvqda0","pricing_plan_id":"free"},{"bike_id":"b0bd3bcb-bd35-4f75-8285-8f528f09b8d5","system_id":"levelo_inurba_marseille","lat":43.337575,"lon":5.374489,"is_reserved":false,"is_disabled":false,"rental_uris":{"android":"levelo://app?vid=b0bd3bcb-bd35-4f75-8285-8f528f09b8d5","ios":"levelo://app?vid=b0bd3bcb-bd35-4f75-8285-8f528f09b8d5"},"vehicle_type_id":"4","last_reported":1687385168,"current_range_meters":18400,"station_id":"","pricing_plan_id":"free"},{"bike_id":"3d06d833-86af-4433-9cec-8d46901b9604","system_id":"levelo_inurba_marseille","lat":43.306412,"lon":5.401035,"is_reserved":false,"is_disabled":false,"rental_uris":{"android":"levelo://app?vid=3d06d833-86af-4433-9cec-8d46901b9604","ios":"levelo://app?vid=3d06d833-86af-4433-9cec-8d46901b9604"},"vehicle_type_id":"4","last_reported":1687385168,"current_range_meters":25200,"station_id":"ce4bh112rcd13ifvqda0","pricing_plan_id":"free"},{"bike_id":"e98fd470-ba5c-4335-83c7-0d48f777407a","system_id":"levelo_inurba_marseille","lat":43.33761,"lon":5.37453,"is_reserved":false,"is_disabled":false,"rental_uris":{"android":"levelo://app?vid=e98fd470-ba5c-4335-83c7-0d48f777407a","ios":"levelo://app?vid=e98fd470-ba5c-4335-83c7-0d48f777407a"},"vehicle_type_id":"4","last_reported":1687385168,"current_range_meters":29600,"station_id":"","pricing_plan_id":"free"},{"bike_id":"ea13fcaa-4d20-4289-af71-8f4dbcd98934","system_id":"levelo_inurba_marseille","lat":43.30635,"lon":5.40087,"is_reserved":false,"is_disabled":false,"rental_uris":{"android":"levelo://app?vid=ea13fcaa-4d20-4289-af71-8f4dbcd98934","ios":"levelo://app?vid=ea13fcaa-4d20-4289-af71-8f4dbcd98934"},"vehicle_type_id":"4","last_reported":1687385168,"current_range_meters":21600,"station_id":"ce4bh112rcd13ifvqda0","pricing_plan_id":"free"},{"bike_id":"63acad59-0211-4884-86e3-7f25cff296d6","system_id":"levelo_inurba_marseille","lat":43.306412,"lon":5.401035,"is_reserved":false,"is_disabled":false,"rental_uris":{"android":"levelo://app?vid=63acad59-0211-4884-86e3-7f25cff296d6","ios":"levelo://app?vid=63acad59-0211-4884-86e3-7f25cff296d6"},"vehicle_type_id":"4","last_reported":1687385168,"current_range_meters":16400,"station_id":"ce4bh112rcd13ifvqda0","pricing_plan_id":"free"},{"bike_id":"326999b6-8a34-4cf3-ad33-48bc9107cedc","system_id":"levelo_inurba_marseille","lat":43.30642,"lon":5.401031,"is_reserved":false,"is_disabled":false,"rental_uris":{"android":"levelo://app?vid=326999b6-8a34-4cf3-ad33-48bc9107cedc","ios":"levelo://app?vid=326999b6-8a34-4cf3-ad33-48bc9107cedc"},"vehicle_type_id":"4","last_reported":1687385168,"current_range_meters":20000,"station_id":"ce4bh112rcd13ifvqda0","pricing_plan_id":"free"},{"bike_id":"960bc347-24ea-490f-93d4-ea52089baa22","system_id":"levelo_inurba_marseille","lat":43.337758,"lon":5.374363,"is_reserved":false,"is_disabled":false,"rental_uris":{"android":"levelo://app?vid=960bc347-24ea-490f-93d4-ea52089baa22","ios":"levelo://app?vid=960bc347-24ea-490f-93d4-ea52089baa22"},"vehicle_type_id":"4","last_reported":1687385168,"current_range_meters":31200,"station_id":"","pricing_plan_id":"free"},{"bike_id":"22d0f434-1d58-433f-8fc6-66e6bbf8c1ff","system_id":"levelo_inurba_marseille","lat":43.301117,"lon":5.398795,"is_reserved":false,"is_disabled":false,"rental_uris":{"android":"levelo://app?vid=22d0f434-1d58-433f-8fc6-66e6bbf8c1ff","ios":"levelo://app?vid=22d0f434-1d58-433f-8fc6-66e6bbf8c1ff"},"vehicle_type_id":"4","last_reported":1687385168,"current_range_meters":24000,"station_id":"ce4bh0h2rcd13ifvqd40","pricing_plan_id":"free"},{"bike_id":"3925028d-7afd-4f56-87a2-8d6b3c3d59eb","system_id":"levelo_inurba_marseille","lat":43.301117,"lon":5.398795,"is_reserved":false,"is_disabled":false,"rental_uris":{"android":"levelo://app?vid=3925028d-7afd-4f56-87a2-8d6b3c3d59eb","ios":"levelo://app?vid=3925028d-7afd-4f56-87a2-8d6b3c3d59eb"},"vehicle_type_id":"4","last_reported":1687385168,"current_range_meters":3200,"station_id":"ce4bh0h2rcd13ifvqd40","pricing_plan_id":"free"},{"bike_id":"7c534e79-8e37-4b3b-a49f-f79d64d6a68a","system_id":"levelo_inurba_marseille","lat":43.298681,"lon":5.397225,"is_reserved":false,"is_disabled":false,"rental_uris":{"android":"levelo://app?vid=7c534e79-8e37-4b3b-a49f-f79d64d6a68a","ios":"levelo://app?vid=7c534e79-8e37-4b3b-a49f-f79d64d6a68a"},"vehicle_type_id":"4","last_reported":1687385168,"current_range_meters":14800,"station_id":"ce4bh0h2rcd13ifvqd50","pricing_plan_id":"free"},{"bike_id":"5ac9d796-b27a-4447-a4d6-792edb99c64a","system_id":"levelo_inurba_marseille","lat":43.286591,"lon":5.363346,"is_reserved":false,"is_disabled":false,"rental_uris":{"android":"levelo://app?vid=5ac9d796-b27a-4447-a4d6-792edb99c64a","ios":"levelo://app?vid=5ac9d796-b27a-4447-a4d6-792edb99c64a"},"vehicle_type_id":"4","last_reported":1687385168,"current_range_meters":15200,"station_id":"ce4bhah2rcd13ifvqej0","pricing_plan_id":"free"},{"bike_id":"7583b83a-fd6f-49bc-9afa-75c5f81f258e","system_id":"levelo_inurba_marseille","lat":43.286961,"lon":5.373785,"is_reserved":false,"is_disabled":false,"rental_uris":{"android":"levelo://app?vid=7583b83a-fd6f-49bc-9afa-75c5f81f258e","ios":"levelo://app?vid=7583b83a-fd6f-49bc-9afa-75c5f81f258e"},"vehicle_type_id":"4","last_reported":1687385168,"current_range_meters":18000,"station_id":"ce4bh3p2rcd13ifvqdq0","pricing_plan_id":"free"},{"bike_id":"f7d620f4-c89b-4784-9fad-80449c08b470","system_id":"levelo_inurba_marseille","lat":43.286591,"lon":5.363346,"is_reserved":false,"is_disabled":false,"rental_uris":{"android":"levelo://app?vid=f7d620f4-c89b-4784-9fad-80449c08b470","ios":"levelo://app?vid=f7d620f4-c89b-4784-9fad-80449c08b470"},"vehicle_type_id":"4","last_reported":1687385168,"current_range_meters":21200,"station_id":"ce4bhah2rcd13ifvqej0","pricing_plan_id":"free"},{"bike_id":"55fce76e-8309-43fa-83f6-36fe1476aefd","system_id":"levelo_inurba_marseille","lat":43.298681,"lon":5.397225,"is_reserved":false,"is_disabled":false,"rental_uris":{"android":"levelo://app?vid=55fce76e-8309-43fa-83f6-36fe1476aefd","ios":"levelo://app?vid=55fce76e-8309-43fa-83f6-36fe1476aefd"},"vehicle_type_id":"4","last_reported":1687385168,"current_range_meters":24800,"station_id":"ce4bh0h2rcd13ifvqd50","pricing_plan_id":"free"},{"bike_id":"831f7fac-f2ef-44d7-bad0-1ab9e090538f","system_id":"levelo_inurba_marseille","lat":43.286591,"lon":5.363346,"is_reserved":false,"is_disabled":false,"rental_uris":{"android":"levelo://app?vid=831f7fac-f2ef-44d7-bad0-1ab9e090538f","ios":"levelo://app?vid=831f7fac-f2ef-44d7-bad0-1ab9e090538f"},"vehicle_type_id":"4","last_reported":1687385168,"current_range_meters":4800,"station_id":"ce4bhah2rcd13ifvqej0","pricing_plan_id":"free"},{"bike_id":"752f54d3-f004-4d5d-96ba-954e79e6fda3","system_id":"levelo_inurba_marseille","lat":43.28665,"lon":5.36344,"is_reserved":false,"is_disabled":false,"rental_uris":{"android":"levelo://app?vid=752f54d3-f004-4d5d-96ba-954e79e6fda3","ios":"levelo://app?vid=752f54d3-f004-4d5d-96ba-954e79e6fda3"},"vehicle_type_id":"4","last_reported":1687385168,"current_range_meters":25200,"station_id":"ce4bhah2rcd13ifvqej0","pricing_plan_id":"free"},{"bike_id":"40f18ab3-de4f-4fe7-8e6b-a1785a6f3ad8","system_id":"levelo_inurba_marseille","lat":43.28701,"lon":5.37387,"is_reserved":false,"is_disabled":false,"rental_uris":{"android":"levelo://app?vid=40f18ab3-de4f-4fe7-8e6b-a1785a6f3ad8","ios":"levelo://app?vid=40f18ab3-de4f-4fe7-8e6b-a1785a6f3ad8"},"vehicle_type_id":"4","last_reported":1687385168,"current_range_meters":21200,"station_id":"ce4bh3p2rcd13ifvqdq0","pricing_plan_id":"free"},{"bike_id":"10e07bbb-f609-413c-9c39-9ca0df52c65b","system_id":"levelo_inurba_marseille","lat":43.28664,"lon":5.36346,"is_reserved":false,"is_disabled":false,"rental_uris":{"android":"levelo://app?vid=10e07bbb-f609-413c-9c39-9ca0df52c65b","ios":"levelo://app?vid=10e07bbb-f609-413c-9c39-9ca0df52c65b"},"vehicle_type_id":"4","last_reported":1687385168,"current_range_meters":7600,"station_id":"ce4bhah2rcd13ifvqej0","pricing_plan_id":"free"},{"bike_id":"53ef1716-f0d5-42f3-8254-2119acb58d51","system_id":"levelo_inurba_marseille","lat":43.298681,"lon":5.397225,"is_reserved":false,"is_disabled":false,"rental_uris":{"android":"levelo://app?vid=53ef1716-f0d5-42f3-8254-2119acb58d51","ios":"levelo://app?vid=53ef1716-f0d5-42f3-8254-2119acb58d51"},"vehicle_type_id":"4","last_reported":1687385168,"current_range_meters":31200,"station_id":"ce4bh0h2rcd13ifvqd50","pricing_plan_id":"free"},{"bike_id":"4ce65e0f-ae61-401d-acb9-4621869f5c1c","system_id":"levelo_inurba_marseille","lat":43.286961,"lon":5.373785,"is_reserved":false,"is_disabled":false,"rental_uris":{"android":"levelo://app?vid=4ce65e0f-ae61-401d-acb9-4621869f5c1c","ios":"levelo://app?vid=4ce65e0f-ae61-401d-acb9-4621869f5c1c"},"vehicle_type_id":"4","last_reported":1687385168,"current_range_meters":31200,"station_id":"ce4bh3p2rcd13ifvqdq0","pricing_plan_id":"free"},{"bike_id":"95baba30-79b4-4157-8f44-f30ce2a2f4fb","system_id":"levelo_inurba_marseille","lat":43.28663,"lon":5.36345,"is_reserved":false,"is_disabled":false,"rental_uris":{"android":"levelo://app?vid=95baba30-79b4-4157-8f44-f30ce2a2f4fb","ios":"levelo://app?vid=95baba30-79b4-4157-8f44-f30ce2a2f4fb"},"vehicle_type_id":"4","last_reported":1687385168,"current_range_meters":19600,"station_id":"ce4bhah2rcd13ifvqej0","pricing_plan_id":"free"},{"bike_id":"e763deb1-e2d9-45e4-8488-e8fbebbdb67e","system_id":"levelo_inurba_marseille","lat":43.286591,"lon":5.363346,"is_reserved":false,"is_disabled":false,"rental_uris":{"android":"levelo://app?vid=e763deb1-e2d9-45e4-8488-e8fbebbdb67e","ios":"levelo://app?vid=e763deb1-e2d9-45e4-8488-e8fbebbdb67e"},"vehicle_type_id":"4","last_reported":1687385168,"current_range_meters":25200,"station_id":"ce4bhah2rcd13ifvqej0","pricing_plan_id":"free"},{"bike_id":"b85cd7e5-acb9-4c72-a5de-d49062dc2121","system_id":"levelo_inurba_marseille","lat":43.286961,"lon":5.373785,"is_reserved":false,"is_disabled":false,"rental_uris":{"android":"levelo://app?vid=b85cd7e5-acb9-4c72-a5de-d49062dc2121","ios":"levelo://app?vid=b85cd7e5-acb9-4c72-a5de-d49062dc2121"},"vehicle_type_id":"4","last_reported":1687385168,"current_range_meters":12800,"station_id":"ce4bh3p2rcd13ifvqdq0","pricing_plan_id":"free"},{"bike_id":"77acd233-2bc2-4b61-9669-0600a71fb45d","system_id":"levelo_inurba_marseille","lat":43.286597,"lon":5.363442,"is_reserved":false,"is_disabled":false,"rental_uris":{"android":"levelo://app?vid=77acd233-2bc2-4b61-9669-0600a71fb45d","ios":"levelo://app?vid=77acd233-2bc2-4b61-9669-0600a71fb45d"},"vehicle_type_id":"4","last_reported":1687385168,"current_range_meters":6400,"station_id":"ce4bhah2rcd13ifvqej0","pricing_plan_id":"free"},{"bike_id":"44adcc71-aa90-483b-88ac-2ae2603e8423","system_id":"levelo_inurba_marseille","lat":43.28657,"lon":5.36346,"is_reserved":false,"is_disabled":false,"rental_uris":{"android":"levelo://app?vid=44adcc71-aa90-483b-88ac-2ae2603e8423","ios":"levelo://app?vid=44adcc71-aa90-483b-88ac-2ae2603e8423"},"vehicle_type_id":"4","last_reported":1687385168,"current_range_meters":18400,"station_id":"ce4bhah2rcd13ifvqej0","pricing_plan_id":"free"},{"bike_id":"b8cf9da6-9afd-4572-a985-61b514f887bd","system_id":"levelo_inurba_marseille","lat":43.302759,"lon":5.400793,"is_reserved":false,"is_disabled":false,"rental_uris":{"android":"levelo://app?vid=b8cf9da6-9afd-4572-a985-61b514f887bd","ios":"levelo://app?vid=b8cf9da6-9afd-4572-a985-61b514f887bd"},"vehicle_type_id":"4","last_reported":1687385168,"current_range_meters":18800,"station_id":"ce4bgvh2rcd13ifvqcs0","pricing_plan_id":"free"},{"bike_id":"977fdd97-1449-4c5e-b7d2-a9163bb81393","system_id":"levelo_inurba_marseille","lat":43.302759,"lon":5.400793,"is_reserved":false,"is_disabled":false,"rental_uris":{"android":"levelo://app?vid=977fdd97-1449-4c5e-b7d2-a9163bb81393","ios":"levelo://app?vid=977fdd97-1449-4c5e-b7d2-a9163bb81393"},"vehicle_type_id":"4","last_reported":1687385168,"current_range_meters":8800,"station_id":"ce4bgvh2rcd13ifvqcs0","pricing_plan_id":"free"},{"bike_id":"8bc432cd-75f7-4ccc-96d4-e085128619fa","system_id":"levelo_inurba_marseille","lat":43.302759,"lon":5.400793,"is_reserved":false,"is_disabled":false,"rental_uris":{"android":"levelo://app?vid=8bc432cd-75f7-4ccc-96d4-e085128619fa","ios":"levelo://app?vid=8bc432cd-75f7-4ccc-96d4-e085128619fa"},"vehicle_type_id":"4","last_reported":1687385168,"current_range_meters":8400,"station_id":"ce4bgvh2rcd13ifvqcs0","pricing_plan_id":"free"},{"bike_id":"59c75826-8648-4de4-9dc7-cc33c5f2577c","system_id":"levelo_inurba_marseille","lat":43.290336,"lon":5.386425,"is_reserved":false,"is_disabled":false,"rental_uris":{"android":"levelo://app?vid=59c75826-8648-4de4-9dc7-cc33c5f2577c","ios":"levelo://app?vid=59c75826-8648-4de4-9dc7-cc33c5f2577c"},"vehicle_type_id":"4","last_reported":1687385168,"current_range_meters":4800,"station_id":"ce4bh4p2rcd13ifvqe0g","pricing_plan_id":"free"},{"bike_id":"175e63a5-4487-4a3e-95d5-7935affbc0fc","system_id":"levelo_inurba_marseille","lat":43.302759,"lon":5.400793,"is_reserved":false,"is_disabled":false,"rental_uris":{"android":"levelo://app?vid=175e63a5-4487-4a3e-95d5-7935affbc0fc","ios":"levelo://app?vid=175e63a5-4487-4a3e-95d5-7935affbc0fc"},"vehicle_type_id":"4","last_reported":1687385168,"current_range_meters":7600,"station_id":"ce4bgvh2rcd13ifvqcs0","pricing_plan_id":"free"},{"bike_id":"c9e2716e-f890-4989-9b58-4bd99c8b1969","system_id":"levelo_inurba_marseille","lat":43.302759,"lon":5.400793,"is_reserved":false,"is_disabled":false,"rental_uris":{"android":"levelo://app?vid=c9e2716e-f890-4989-9b58-4bd99c8b1969","ios":"levelo://app?vid=c9e2716e-f890-4989-9b58-4bd99c8b1969"},"vehicle_type_id":"4","last_reported":1687385168,"current_range_meters":22400,"station_id":"ce4bgvh2rcd13ifvqcs0","pricing_plan_id":"free"},{"bike_id":"13ff0957-064f-4207-a9f7-471113d44d1f","system_id":"levelo_inurba_marseille","lat":43.286039,"lon":5.370679,"is_reserved":false,"is_disabled":false,"rental_uris":{"android":"levelo://app?vid=13ff0957-064f-4207-a9f7-471113d44d1f","ios":"levelo://app?vid=13ff0957-064f-4207-a9f7-471113d44d1f"},"vehicle_type_id":"4","last_reported":1687385168,"current_range_meters":11600,"station_id":"ce4bht12rcd13ifvqi60","pricing_plan_id":"free"},{"bike_id":"a69611a4-4427-48f1-8cf5-68e91a38613f","system_id":"levelo_inurba_marseille","lat":43.286132,"lon":5.370631,"is_reserved":false,"is_disabled":false,"rental_uris":{"android":"levelo://app?vid=a69611a4-4427-48f1-8cf5-68e91a38613f","ios":"levelo://app?vid=a69611a4-4427-48f1-8cf5-68e91a38613f"},"vehicle_type_id":"4","last_reported":1687385168,"current_range_meters":0,"station_id":"ce4bht12rcd13ifvqi60","pricing_plan_id":"free"},{"bike_id":"5942720f-225c-431f-9a4e-4e2cc97bb64d","system_id":"levelo_inurba_marseille","lat":43.286039,"lon":5.370679,"is_reserved":false,"is_disabled":false,"rental_uris":{"android":"levelo://app?vid=5942720f-225c-431f-9a4e-4e2cc97bb64d","ios":"levelo://app?vid=5942720f-225c-431f-9a4e-4e2cc97bb64d"},"vehicle_type_id":"4","last_reported":1687385168,"current_range_meters":31200,"station_id":"ce4bht12rcd13ifvqi60","pricing_plan_id":"free"},{"bike_id":"a2e91142-564f-4c44-9982-98d37590d088","system_id":"levelo_inurba_marseille","lat":43.302759,"lon":5.400793,"is_reserved":false,"is_disabled":false,"rental_uris":{"android":"levelo://app?vid=a2e91142-564f-4c44-9982-98d37590d088","ios":"levelo://app?vid=a2e91142-564f-4c44-9982-98d37590d088"},"vehicle_type_id":"4","last_reported":1687385168,"current_range_meters":5600,"station_id":"ce4bgvh2rcd13ifvqcs0","pricing_plan_id":"free"},{"bike_id":"2f435e18-b20f-4ced-a99d-40006f709dcc","system_id":"levelo_inurba_marseille","lat":43.28611,"lon":5.37072,"is_reserved":false,"is_disabled":false,"rental_uris":{"android":"levelo://app?vid=2f435e18-b20f-4ced-a99d-40006f709dcc","ios":"levelo://app?vid=2f435e18-b20f-4ced-a99d-40006f709dcc"},"vehicle_type_id":"4","last_reported":1687385168,"current_range_meters":31200,"station_id":"ce4bht12rcd13ifvqi60","pricing_plan_id":"free"},{"bike_id":"e13f2d34-45aa-4d69-a4b2-302a974c9184","system_id":"levelo_inurba_marseille","lat":43.287185,"lon":5.379373,"is_reserved":false,"is_disabled":false,"rental_uris":{"android":"levelo://app?vid=e13f2d34-45aa-4d69-a4b2-302a974c9184","ios":"levelo://app?vid=e13f2d34-45aa-4d69-a4b2-302a974c9184"},"vehicle_type_id":"4","last_reported":1687385168,"current_range_meters":18800,"station_id":"ce4bh9p2rcd13ifvqec0","pricing_plan_id":"free"},{"bike_id":"2d1925d7-b2a2-4e73-a84e-ac89bec17aa5","system_id":"levelo_inurba_marseille","lat":43.287184,"lon":5.37937,"is_reserved":false,"is_disabled":false,"rental_uris":{"android":"levelo://app?vid=2d1925d7-b2a2-4e73-a84e-ac89bec17aa5","ios":"levelo://app?vid=2d1925d7-b2a2-4e73-a84e-ac89bec17aa5"},"vehicle_type_id":"4","last_reported":1687385168,"current_range_meters":26800,"station_id":"ce4bh9p2rcd13ifvqec0","pricing_plan_id":"free"},{"bike_id":"07b9842b-2517-49a0-974b-39ecfef4e47c","system_id":"levelo_inurba_marseille","lat":43.287184,"lon":5.37937,"is_reserved":false,"is_disabled":false,"rental_uris":{"android":"levelo://app?vid=07b9842b-2517-49a0-974b-39ecfef4e47c","ios":"levelo://app?vid=07b9842b-2517-49a0-974b-39ecfef4e47c"},"vehicle_type_id":"4","last_reported":1687385168,"current_range_meters":3600,"station_id":"ce4bh9p2rcd13ifvqec0","pricing_plan_id":"free"},{"bike_id":"839c98f1-861e-47d6-9db9-569af3415229","system_id":"levelo_inurba_marseille","lat":43.316517,"lon":5.404375,"is_reserved":false,"is_disabled":false,"rental_uris":{"android":"levelo://app?vid=839c98f1-861e-47d6-9db9-569af3415229","ios":"levelo://app?vid=839c98f1-861e-47d6-9db9-569af3415229"},"vehicle_type_id":"4","last_reported":1687385168,"current_range_meters":4000,"station_id":"ce4bh012rcd13ifvqd00","pricing_plan_id":"free"},{"bike_id":"1831d22d-2b5c-48e5-bdd9-d47bab21c9ff","system_id":"levelo_inurba_marseille","lat":43.316517,"lon":5.404375,"is_reserved":false,"is_disabled":false,"rental_uris":{"android":"levelo://app?vid=1831d22d-2b5c-48e5-bdd9-d47bab21c9ff","ios":"levelo://app?vid=1831d22d-2b5c-48e5-bdd9-d47bab21c9ff"},"vehicle_type_id":"4","last_reported":1687385168,"current_range_meters":16400,"station_id":"ce4bh012rcd13ifvqd00","pricing_plan_id":"free"},{"bike_id":"ab8539b2-736a-4721-9a0c-06371dec4d30","system_id":"levelo_inurba_marseille","lat":43.316517,"lon":5.404375,"is_reserved":false,"is_disabled":false,"rental_uris":{"android":"levelo://app?vid=ab8539b2-736a-4721-9a0c-06371dec4d30","ios":"levelo://app?vid=ab8539b2-736a-4721-9a0c-06371dec4d30"},"vehicle_type_id":"4","last_reported":1687385168,"current_range_meters":0,"station_id":"ce4bh012rcd13ifvqd00","pricing_plan_id":"free"},{"bike_id":"ff1f164a-4f31-406d-89c6-d615ce910843","system_id":"levelo_inurba_marseille","lat":43.29984,"lon":5.4009,"is_reserved":false,"is_disabled":false,"rental_uris":{"android":"levelo://app?vid=ff1f164a-4f31-406d-89c6-d615ce910843","ios":"levelo://app?vid=ff1f164a-4f31-406d-89c6-d615ce910843"},"vehicle_type_id":"4","last_reported":1687385168,"current_range_meters":23600,"station_id":"","pricing_plan_id":"free"},{"bike_id":"4a6f9a44-042e-4d5d-98e7-79dcc12e144b","system_id":"levelo_inurba_marseille","lat":43.284534,"lon":5.358662,"is_reserved":false,"is_disabled":false,"rental_uris":{"android":"levelo://app?vid=4a6f9a44-042e-4d5d-98e7-79dcc12e144b","ios":"levelo://app?vid=4a6f9a44-042e-4d5d-98e7-79dcc12e144b"},"vehicle_type_id":"4","last_reported":1687385168,"current_range_meters":2800,"station_id":"ce4bhah2rcd13ifvqei0","pricing_plan_id":"free"},{"bike_id":"89afea90-46d1-4477-9203-e5b7463e6163","system_id":"levelo_inurba_marseille","lat":43.28466,"lon":5.35893,"is_reserved":false,"is_disabled":false,"rental_uris":{"android":"levelo://app?vid=89afea90-46d1-4477-9203-e5b7463e6163","ios":"levelo://app?vid=89afea90-46d1-4477-9203-e5b7463e6163"},"vehicle_type_id":"4","last_reported":1687385168,"current_range_meters":19200,"station_id":"ce4bhah2rcd13ifvqei0","pricing_plan_id":"free"},{"bike_id":"5dff3f96-450a-4f3e-af1e-375a8a0ea7f6","system_id":"levelo_inurba_marseille","lat":43.28465,"lon":5.35894,"is_reserved":false,"is_disabled":false,"rental_uris":{"android":"levelo://app?vid=5dff3f96-450a-4f3e-af1e-375a8a0ea7f6","ios":"levelo://app?vid=5dff3f96-450a-4f3e-af1e-375a8a0ea7f6"},"vehicle_type_id":"4","last_reported":1687385168,"current_range_meters":5200,"station_id":"ce4bhah2rcd13ifvqei0","pricing_plan_id":"free"},{"bike_id":"ea3df451-77aa-4bac-8e9d-4f79895ab3cb","system_id":"levelo_inurba_marseille","lat":43.284534,"lon":5.358662,"is_reserved":false,"is_disabled":false,"rental_uris":{"android":"levelo://app?vid=ea3df451-77aa-4bac-8e9d-4f79895ab3cb","ios":"levelo://app?vid=ea3df451-77aa-4bac-8e9d-4f79895ab3cb"},"vehicle_type_id":"4","last_reported":1687385168,"current_range_meters":4000,"station_id":"ce4bhah2rcd13ifvqei0","pricing_plan_id":"free"},{"bike_id":"7fb8f2f4-4fdf-47c9-b4c0-45b3bea8a6e3","system_id":"levelo_inurba_marseille","lat":43.284534,"lon":5.358662,"is_reserved":false,"is_disabled":false,"rental_uris":{"android":"levelo://app?vid=7fb8f2f4-4fdf-47c9-b4c0-45b3bea8a6e3","ios":"levelo://app?vid=7fb8f2f4-4fdf-47c9-b4c0-45b3bea8a6e3"},"vehicle_type_id":"4","last_reported":1687385168,"current_range_meters":0,"station_id":"ce4bhah2rcd13ifvqei0","pricing_plan_id":"free"},{"bike_id":"f2115ca7-ee95-4088-91ee-d6b68bdc128c","system_id":"levelo_inurba_marseille","lat":43.284534,"lon":5.358662,"is_reserved":false,"is_disabled":false,"rental_uris":{"android":"levelo://app?vid=f2115ca7-ee95-4088-91ee-d6b68bdc128c","ios":"levelo://app?vid=f2115ca7-ee95-4088-91ee-d6b68bdc128c"},"vehicle_type_id":"4","last_reported":1687385168,"current_range_meters":16400,"station_id":"ce4bhah2rcd13ifvqei0","pricing_plan_id":"free"},{"bike_id":"d5a02aec-1d42-40e6-ad78-527cece98e1c","system_id":"levelo_inurba_marseille","lat":43.284534,"lon":5.358662,"is_reserved":false,"is_disabled":false,"rental_uris":{"android":"levelo://app?vid=d5a02aec-1d42-40e6-ad78-527cece98e1c","ios":"levelo://app?vid=d5a02aec-1d42-40e6-ad78-527cece98e1c"},"vehicle_type_id":"4","last_reported":1687385168,"current_range_meters":22800,"station_id":"ce4bhah2rcd13ifvqei0","pricing_plan_id":"free"},{"bike_id":"a9108953-558a-493b-a03e-d9eda8cbbe41","system_id":"levelo_inurba_marseille","lat":43.28454,"lon":5.35882,"is_reserved":false,"is_disabled":false,"rental_uris":{"android":"levelo://app?vid=a9108953-558a-493b-a03e-d9eda8cbbe41","ios":"levelo://app?vid=a9108953-558a-493b-a03e-d9eda8cbbe41"},"vehicle_type_id":"4","last_reported":1687385168,"current_range_meters":5600,"station_id":"ce4bhah2rcd13ifvqei0","pricing_plan_id":"free"},{"bike_id":"2175a724-cb8f-4896-b270-a52582b1891f","system_id":"levelo_inurba_marseille","lat":43.29438,"lon":5.39746,"is_reserved":false,"is_disabled":false,"rental_uris":{"android":"levelo://app?vid=2175a724-cb8f-4896-b270-a52582b1891f","ios":"levelo://app?vid=2175a724-cb8f-4896-b270-a52582b1891f"},"vehicle_type_id":"4","last_reported":1687385168,"current_range_meters":0,"station_id":"ce4bh3h2rcd13ifvqdo0","pricing_plan_id":"free"},{"bike_id":"47c384b1-9e91-41c0-b214-8f715b4ff9b9","system_id":"levelo_inurba_marseille","lat":43.284534,"lon":5.358662,"is_reserved":false,"is_disabled":false,"rental_uris":{"android":"levelo://app?vid=47c384b1-9e91-41c0-b214-8f715b4ff9b9","ios":"levelo://app?vid=47c384b1-9e91-41c0-b214-8f715b4ff9b9"},"vehicle_type_id":"4","last_reported":1687385168,"current_range_meters":400,"station_id":"ce4bhah2rcd13ifvqei0","pricing_plan_id":"free"},{"bike_id":"cb89f314-be4a-4ca9-8b0b-f17e2412e61c","system_id":"levelo_inurba_marseille","lat":43.2845,"lon":5.35881,"is_reserved":false,"is_disabled":false,"rental_uris":{"android":"levelo://app?vid=cb89f314-be4a-4ca9-8b0b-f17e2412e61c","ios":"levelo://app?vid=cb89f314-be4a-4ca9-8b0b-f17e2412e61c"},"vehicle_type_id":"4","last_reported":1687385168,"current_range_meters":18800,"station_id":"ce4bhah2rcd13ifvqei0","pricing_plan_id":"free"},{"bike_id":"0baccac3-14d3-4ca0-8717-88a97457efc8","system_id":"levelo_inurba_marseille","lat":43.29435,"lon":5.39763,"is_reserved":false,"is_disabled":false,"rental_uris":{"android":"levelo://app?vid=0baccac3-14d3-4ca0-8717-88a97457efc8","ios":"levelo://app?vid=0baccac3-14d3-4ca0-8717-88a97457efc8"},"vehicle_type_id":"4","last_reported":1687385168,"current_range_meters":10000,"station_id":"ce4bh3h2rcd13ifvqdo0","pricing_plan_id":"free"},{"bike_id":"c1dd2e01-b41b-4f44-820f-f6b4ad8ae2c6","system_id":"levelo_inurba_marseille","lat":43.286595,"lon":5.386795,"is_reserved":false,"is_disabled":false,"rental_uris":{"android":"levelo://app?vid=c1dd2e01-b41b-4f44-820f-f6b4ad8ae2c6","ios":"levelo://app?vid=c1dd2e01-b41b-4f44-820f-f6b4ad8ae2c6"},"vehicle_type_id":"4","last_reported":1687385168,"current_range_meters":27200,"station_id":"ce4bh492rcd13ifvqdug","pricing_plan_id":"free"},{"bike_id":"f6fda2f2-04f1-4377-bae3-2fc212d95c47","system_id":"levelo_inurba_marseille","lat":43.34234,"lon":5.36192,"is_reserved":false,"is_disabled":false,"rental_uris":{"android":"levelo://app?vid=f6fda2f2-04f1-4377-bae3-2fc212d95c47","ios":"levelo://app?vid=f6fda2f2-04f1-4377-bae3-2fc212d95c47"},"vehicle_type_id":"4","last_reported":1687385168,"current_range_meters":4400,"station_id":"","pricing_plan_id":"free"},{"bike_id":"0ebfa868-beab-4ad8-98b9-fcc23018321d","system_id":"levelo_inurba_marseille","lat":43.28381,"lon":5.37832,"is_reserved":false,"is_disabled":false,"rental_uris":{"android":"levelo://app?vid=0ebfa868-beab-4ad8-98b9-fcc23018321d","ios":"levelo://app?vid=0ebfa868-beab-4ad8-98b9-fcc23018321d"},"vehicle_type_id":"4","last_reported":1687385168,"current_range_meters":12400,"station_id":"","pricing_plan_id":"free"},{"bike_id":"87dddf10-84ef-4c92-963f-13fd8975ced1","system_id":"levelo_inurba_marseille","lat":43.30667,"lon":5.40797,"is_reserved":false,"is_disabled":false,"rental_uris":{"android":"levelo://app?vid=87dddf10-84ef-4c92-963f-13fd8975ced1","ios":"levelo://app?vid=87dddf10-84ef-4c92-963f-13fd8975ced1"},"vehicle_type_id":"4","last_reported":1687385168,"current_range_meters":12400,"station_id":"","pricing_plan_id":"free"},{"bike_id":"6a0ca442-eece-49f9-a351-c568dbd33355","system_id":"levelo_inurba_marseille","lat":43.284793,"lon":5.384113,"is_reserved":false,"is_disabled":false,"rental_uris":{"android":"levelo://app?vid=6a0ca442-eece-49f9-a351-c568dbd33355","ios":"levelo://app?vid=6a0ca442-eece-49f9-a351-c568dbd33355"},"vehicle_type_id":"4","last_reported":1687385168,"current_range_meters":1600,"station_id":"ce4bh512rcd13ifvqe3g","pricing_plan_id":"free"},{"bike_id":"92acb786-3265-4c54-8f46-03bcd23bbef4","system_id":"levelo_inurba_marseille","lat":43.284793,"lon":5.384113,"is_reserved":false,"is_disabled":false,"rental_uris":{"android":"levelo://app?vid=92acb786-3265-4c54-8f46-03bcd23bbef4","ios":"levelo://app?vid=92acb786-3265-4c54-8f46-03bcd23bbef4"},"vehicle_type_id":"4","last_reported":1687385168,"current_range_meters":22000,"station_id":"ce4bh512rcd13ifvqe3g","pricing_plan_id":"free"},{"bike_id":"0b57380c-746e-4bb0-ad49-9d067400a90d","system_id":"levelo_inurba_marseille","lat":43.288497,"lon":5.393089,"is_reserved":false,"is_disabled":false,"rental_uris":{"android":"levelo://app?vid=0b57380c-746e-4bb0-ad49-9d067400a90d","ios":"levelo://app?vid=0b57380c-746e-4bb0-ad49-9d067400a90d"},"vehicle_type_id":"4","last_reported":1687385168,"current_range_meters":0,"station_id":"ce4bh2p2rcd13ifvqdi0","pricing_plan_id":"free"},{"bike_id":"42a38250-ff99-40db-8219-01e07be02d38","system_id":"levelo_inurba_marseille","lat":43.288497,"lon":5.393089,"is_reserved":false,"is_disabled":false,"rental_uris":{"android":"levelo://app?vid=42a38250-ff99-40db-8219-01e07be02d38","ios":"levelo://app?vid=42a38250-ff99-40db-8219-01e07be02d38"},"vehicle_type_id":"4","last_reported":1687385168,"current_range_meters":7600,"station_id":"ce4bh2p2rcd13ifvqdi0","pricing_plan_id":"free"},{"bike_id":"870fd6bd-0b86-449c-b6d3-db555f216a45","system_id":"levelo_inurba_marseille","lat":43.288497,"lon":5.393089,"is_reserved":false,"is_disabled":false,"rental_uris":{"android":"levelo://app?vid=870fd6bd-0b86-449c-b6d3-db555f216a45","ios":"levelo://app?vid=870fd6bd-0b86-449c-b6d3-db555f216a45"},"vehicle_type_id":"4","last_reported":1687385168,"current_range_meters":800,"station_id":"ce4bh2p2rcd13ifvqdi0","pricing_plan_id":"free"},{"bike_id":"5cd2d786-8a18-44b5-80e2-f88f2abf281b","system_id":"levelo_inurba_marseille","lat":43.288497,"lon":5.393089,"is_reserved":false,"is_disabled":false,"rental_uris":{"android":"levelo://app?vid=5cd2d786-8a18-44b5-80e2-f88f2abf281b","ios":"levelo://app?vid=5cd2d786-8a18-44b5-80e2-f88f2abf281b"},"vehicle_type_id":"4","last_reported":1687385168,"current_range_meters":22800,"station_id":"ce4bh2p2rcd13ifvqdi0","pricing_plan_id":"free"},{"bike_id":"d8db9aba-00d9-4fef-834d-99aa5f1c9105","system_id":"levelo_inurba_marseille","lat":43.288501,"lon":5.393087,"is_reserved":false,"is_disabled":false,"rental_uris":{"android":"levelo://app?vid=d8db9aba-00d9-4fef-834d-99aa5f1c9105","ios":"levelo://app?vid=d8db9aba-00d9-4fef-834d-99aa5f1c9105"},"vehicle_type_id":"4","last_reported":1687385168,"current_range_meters":15600,"station_id":"ce4bh2p2rcd13ifvqdi0","pricing_plan_id":"free"},{"bike_id":"00b4d942-d645-4a17-a320-9c02b5ecca68","system_id":"levelo_inurba_marseille","lat":43.288501,"lon":5.393087,"is_reserved":false,"is_disabled":false,"rental_uris":{"android":"levelo://app?vid=00b4d942-d645-4a17-a320-9c02b5ecca68","ios":"levelo://app?vid=00b4d942-d645-4a17-a320-9c02b5ecca68"},"vehicle_type_id":"4","last_reported":1687385168,"current_range_meters":8800,"station_id":"ce4bh2p2rcd13ifvqdi0","pricing_plan_id":"free"},{"bike_id":"62bde34a-c3b0-462b-8b7e-b5cb4bf8370c","system_id":"levelo_inurba_marseille","lat":43.283494,"lon":5.380945,"is_reserved":false,"is_disabled":false,"rental_uris":{"android":"levelo://app?vid=62bde34a-c3b0-462b-8b7e-b5cb4bf8370c","ios":"levelo://app?vid=62bde34a-c3b0-462b-8b7e-b5cb4bf8370c"},"vehicle_type_id":"4","last_reported":1687385168,"current_range_meters":2000,"station_id":"ce4bh412rcd13ifvqdr0","pricing_plan_id":"free"},{"bike_id":"49d94a69-82c3-4923-8a3a-dbf379dbb744","system_id":"levelo_inurba_marseille","lat":43.283498,"lon":5.380948,"is_reserved":false,"is_disabled":false,"rental_uris":{"android":"levelo://app?vid=49d94a69-82c3-4923-8a3a-dbf379dbb744","ios":"levelo://app?vid=49d94a69-82c3-4923-8a3a-dbf379dbb744"},"vehicle_type_id":"4","last_reported":1687385168,"current_range_meters":15600,"station_id":"ce4bh412rcd13ifvqdr0","pricing_plan_id":"free"},{"bike_id":"74ae3289-896f-403c-ac3b-f84b9beac258","system_id":"levelo_inurba_marseille","lat":43.281044,"lon":5.378308,"is_reserved":false,"is_disabled":false,"rental_uris":{"android":"levelo://app?vid=74ae3289-896f-403c-ac3b-f84b9beac258","ios":"levelo://app?vid=74ae3289-896f-403c-ac3b-f84b9beac258"},"vehicle_type_id":"4","last_reported":1687385168,"current_range_meters":28000,"station_id":"ce4bha12rcd13ifvqee0","pricing_plan_id":"free"},{"bike_id":"99a23def-4b53-476c-be63-e94103ccf011","system_id":"levelo_inurba_marseille","lat":43.289363,"lon":5.396322,"is_reserved":false,"is_disabled":false,"rental_uris":{"android":"levelo://app?vid=99a23def-4b53-476c-be63-e94103ccf011","ios":"levelo://app?vid=99a23def-4b53-476c-be63-e94103ccf011"},"vehicle_type_id":"4","last_reported":1687385168,"current_range_meters":24400,"station_id":"ce4bh3h2rcd13ifvqdn0","pricing_plan_id":"free"},{"bike_id":"350b1ce1-59bf-4a77-88c2-d69c86c7de81","system_id":"levelo_inurba_marseille","lat":43.29274,"lon":5.40114,"is_reserved":false,"is_disabled":false,"rental_uris":{"android":"levelo://app?vid=350b1ce1-59bf-4a77-88c2-d69c86c7de81","ios":"levelo://app?vid=350b1ce1-59bf-4a77-88c2-d69c86c7de81"},"vehicle_type_id":"4","last_reported":1687385168,"current_range_meters":15200,"station_id":"ce4bh312rcd13ifvqdk0","pricing_plan_id":"free"},{"bike_id":"18b29af1-f935-480f-8856-b048c10ae606","system_id":"levelo_inurba_marseille","lat":43.283502,"lon":5.386471,"is_reserved":false,"is_disabled":false,"rental_uris":{"android":"levelo://app?vid=18b29af1-f935-480f-8856-b048c10ae606","ios":"levelo://app?vid=18b29af1-f935-480f-8856-b048c10ae606"},"vehicle_type_id":"4","last_reported":1687385168,"current_range_meters":29600,"station_id":"ce4bh492rcd13ifvqdvg","pricing_plan_id":"free"},{"bike_id":"cf41148a-0838-41a5-8b03-72f865f824bc","system_id":"levelo_inurba_marseille","lat":43.28039,"lon":5.369297,"is_reserved":false,"is_disabled":false,"rental_uris":{"android":"levelo://app?vid=cf41148a-0838-41a5-8b03-72f865f824bc","ios":"levelo://app?vid=cf41148a-0838-41a5-8b03-72f865f824bc"},"vehicle_type_id":"4","last_reported":1687385168,"current_range_meters":27600,"station_id":"ce4bha12rcd13ifvqef0","pricing_plan_id":"free"},{"bike_id":"dca18a58-b6b0-4013-8b59-f68382f80858","system_id":"levelo_inurba_marseille","lat":43.283502,"lon":5.386471,"is_reserved":false,"is_disabled":false,"rental_uris":{"android":"levelo://app?vid=dca18a58-b6b0-4013-8b59-f68382f80858","ios":"levelo://app?vid=dca18a58-b6b0-4013-8b59-f68382f80858"},"vehicle_type_id":"4","last_reported":1687385168,"current_range_meters":5200,"station_id":"ce4bh492rcd13ifvqdvg","pricing_plan_id":"free"},{"bike_id":"cf2d3927-f3a2-4940-aed2-bc9614f5cb54","system_id":"levelo_inurba_marseille","lat":43.283502,"lon":5.386471,"is_reserved":false,"is_disabled":false,"rental_uris":{"android":"levelo://app?vid=cf2d3927-f3a2-4940-aed2-bc9614f5cb54","ios":"levelo://app?vid=cf2d3927-f3a2-4940-aed2-bc9614f5cb54"},"vehicle_type_id":"4","last_reported":1687385168,"current_range_meters":17200,"station_id":"ce4bh492rcd13ifvqdvg","pricing_plan_id":"free"},{"bike_id":"ead060ac-d64f-4688-89f5-1cfa3cf42a7f","system_id":"levelo_inurba_marseille","lat":43.283502,"lon":5.386471,"is_reserved":false,"is_disabled":false,"rental_uris":{"android":"levelo://app?vid=ead060ac-d64f-4688-89f5-1cfa3cf42a7f","ios":"levelo://app?vid=ead060ac-d64f-4688-89f5-1cfa3cf42a7f"},"vehicle_type_id":"4","last_reported":1687385168,"current_range_meters":17200,"station_id":"ce4bh492rcd13ifvqdvg","pricing_plan_id":"free"},{"bike_id":"825991e4-e000-4666-9741-1229e3a82d84","system_id":"levelo_inurba_marseille","lat":43.283502,"lon":5.386471,"is_reserved":false,"is_disabled":false,"rental_uris":{"android":"levelo://app?vid=825991e4-e000-4666-9741-1229e3a82d84","ios":"levelo://app?vid=825991e4-e000-4666-9741-1229e3a82d84"},"vehicle_type_id":"4","last_reported":1687385168,"current_range_meters":0,"station_id":"ce4bh492rcd13ifvqdvg","pricing_plan_id":"free"},{"bike_id":"671fbe10-5a8f-4ec6-9e00-95231d830f2b","system_id":"levelo_inurba_marseille","lat":43.283502,"lon":5.386471,"is_reserved":false,"is_disabled":false,"rental_uris":{"android":"levelo://app?vid=671fbe10-5a8f-4ec6-9e00-95231d830f2b","ios":"levelo://app?vid=671fbe10-5a8f-4ec6-9e00-95231d830f2b"},"vehicle_type_id":"4","last_reported":1687385168,"current_range_meters":28000,"station_id":"ce4bh492rcd13ifvqdvg","pricing_plan_id":"free"},{"bike_id":"99929adb-751a-4fdf-adff-5c0f0b174c60","system_id":"levelo_inurba_marseille","lat":43.280382,"lon":5.369291,"is_reserved":false,"is_disabled":false,"rental_uris":{"android":"levelo://app?vid=99929adb-751a-4fdf-adff-5c0f0b174c60","ios":"levelo://app?vid=99929adb-751a-4fdf-adff-5c0f0b174c60"},"vehicle_type_id":"4","last_reported":1687385168,"current_range_meters":28400,"station_id":"ce4bha12rcd13ifvqef0","pricing_plan_id":"free"},{"bike_id":"068b5efa-0e8f-4c99-9433-94b822ddf6ff","system_id":"levelo_inurba_marseille","lat":43.283502,"lon":5.386471,"is_reserved":false,"is_disabled":false,"rental_uris":{"android":"levelo://app?vid=068b5efa-0e8f-4c99-9433-94b822ddf6ff","ios":"levelo://app?vid=068b5efa-0e8f-4c99-9433-94b822ddf6ff"},"vehicle_type_id":"4","last_reported":1687385168,"current_range_meters":0,"station_id":"ce4bh492rcd13ifvqdvg","pricing_plan_id":"free"},{"bike_id":"cb01990f-b731-4e91-9524-0fdab2e14eb3","system_id":"levelo_inurba_marseille","lat":43.283502,"lon":5.386471,"is_reserved":false,"is_disabled":false,"rental_uris":{"android":"levelo://app?vid=cb01990f-b731-4e91-9524-0fdab2e14eb3","ios":"levelo://app?vid=cb01990f-b731-4e91-9524-0fdab2e14eb3"},"vehicle_type_id":"4","last_reported":1687385168,"current_range_meters":400,"station_id":"ce4bh492rcd13ifvqdvg","pricing_plan_id":"free"},{"bike_id":"9e24e938-db4b-4af2-b821-55d860d2d793","system_id":"levelo_inurba_marseille","lat":43.283502,"lon":5.386471,"is_reserved":false,"is_disabled":false,"rental_uris":{"android":"levelo://app?vid=9e24e938-db4b-4af2-b821-55d860d2d793","ios":"levelo://app?vid=9e24e938-db4b-4af2-b821-55d860d2d793"},"vehicle_type_id":"4","last_reported":1687385168,"current_range_meters":21200,"station_id":"ce4bh492rcd13ifvqdvg","pricing_plan_id":"free"},{"bike_id":"9373117e-f9a2-4a02-b105-5a07fac89260","system_id":"levelo_inurba_marseille","lat":43.283502,"lon":5.386471,"is_reserved":false,"is_disabled":false,"rental_uris":{"android":"levelo://app?vid=9373117e-f9a2-4a02-b105-5a07fac89260","ios":"levelo://app?vid=9373117e-f9a2-4a02-b105-5a07fac89260"},"vehicle_type_id":"4","last_reported":1687385168,"current_range_meters":22400,"station_id":"ce4bh492rcd13ifvqdvg","pricing_plan_id":"free"},{"bike_id":"ad5f4298-ece2-49aa-8ff9-6b91238e63d3","system_id":"levelo_inurba_marseille","lat":43.283502,"lon":5.386471,"is_reserved":false,"is_disabled":false,"rental_uris":{"android":"levelo://app?vid=ad5f4298-ece2-49aa-8ff9-6b91238e63d3","ios":"levelo://app?vid=ad5f4298-ece2-49aa-8ff9-6b91238e63d3"},"vehicle_type_id":"4","last_reported":1687385168,"current_range_meters":20000,"station_id":"ce4bh492rcd13ifvqdvg","pricing_plan_id":"free"},{"bike_id":"680a1a6b-b686-480e-9304-3b8a929b16c3","system_id":"levelo_inurba_marseille","lat":43.290412,"lon":5.399633,"is_reserved":false,"is_disabled":false,"rental_uris":{"android":"levelo://app?vid=680a1a6b-b686-480e-9304-3b8a929b16c3","ios":"levelo://app?vid=680a1a6b-b686-480e-9304-3b8a929b16c3"},"vehicle_type_id":"4","last_reported":1687385168,"current_range_meters":11600,"station_id":"ce4bh392rcd13ifvqdm0","pricing_plan_id":"free"},{"bike_id":"cb671578-2c44-4682-a32e-50e7803eaffc","system_id":"levelo_inurba_marseille","lat":43.29036,"lon":5.39947,"is_reserved":false,"is_disabled":false,"rental_uris":{"android":"levelo://app?vid=cb671578-2c44-4682-a32e-50e7803eaffc","ios":"levelo://app?vid=cb671578-2c44-4682-a32e-50e7803eaffc"},"vehicle_type_id":"4","last_reported":1687385168,"current_range_meters":4000,"station_id":"ce4bh392rcd13ifvqdm0","pricing_plan_id":"free"},{"bike_id":"c839b08f-bbc5-4c17-9212-24241e65cf8d","system_id":"levelo_inurba_marseille","lat":43.29041,"lon":5.39961,"is_reserved":false,"is_disabled":false,"rental_uris":{"android":"levelo://app?vid=c839b08f-bbc5-4c17-9212-24241e65cf8d","ios":"levelo://app?vid=c839b08f-bbc5-4c17-9212-24241e65cf8d"},"vehicle_type_id":"4","last_reported":1687385168,"current_range_meters":3200,"station_id":"ce4bh392rcd13ifvqdm0","pricing_plan_id":"free"},{"bike_id":"c45b6ee0-a1c3-4c0b-89dc-16068e19e942","system_id":"levelo_inurba_marseille","lat":43.290412,"lon":5.399633,"is_reserved":false,"is_disabled":false,"rental_uris":{"android":"levelo://app?vid=c45b6ee0-a1c3-4c0b-89dc-16068e19e942","ios":"levelo://app?vid=c45b6ee0-a1c3-4c0b-89dc-16068e19e942"},"vehicle_type_id":"4","last_reported":1687385168,"current_range_meters":12800,"station_id":"ce4bh392rcd13ifvqdm0","pricing_plan_id":"free"},{"bike_id":"74df874e-c4c6-42ea-8508-f872271c9300","system_id":"levelo_inurba_marseille","lat":43.290412,"lon":5.399633,"is_reserved":false,"is_disabled":false,"rental_uris":{"android":"levelo://app?vid=74df874e-c4c6-42ea-8508-f872271c9300","ios":"levelo://app?vid=74df874e-c4c6-42ea-8508-f872271c9300"},"vehicle_type_id":"4","last_reported":1687385168,"current_range_meters":1200,"station_id":"ce4bh392rcd13ifvqdm0","pricing_plan_id":"free"},{"bike_id":"6edfa868-0223-45b2-a411-78d9f86c6568","system_id":"levelo_inurba_marseille","lat":43.290412,"lon":5.399633,"is_reserved":false,"is_disabled":false,"rental_uris":{"android":"levelo://app?vid=6edfa868-0223-45b2-a411-78d9f86c6568","ios":"levelo://app?vid=6edfa868-0223-45b2-a411-78d9f86c6568"},"vehicle_type_id":"4","last_reported":1687385168,"current_range_meters":4000,"station_id":"ce4bh392rcd13ifvqdm0","pricing_plan_id":"free"},{"bike_id":"1678dc83-48b8-41be-b64a-d9cbe60b2c08","system_id":"levelo_inurba_marseille","lat":43.29036,"lon":5.39974,"is_reserved":false,"is_disabled":false,"rental_uris":{"android":"levelo://app?vid=1678dc83-48b8-41be-b64a-d9cbe60b2c08","ios":"levelo://app?vid=1678dc83-48b8-41be-b64a-d9cbe60b2c08"},"vehicle_type_id":"4","last_reported":1687385168,"current_range_meters":0,"station_id":"ce4bh392rcd13ifvqdm0","pricing_plan_id":"free"},{"bike_id":"bd153cb0-8a74-4f68-a317-c4ce083b13f5","system_id":"levelo_inurba_marseille","lat":43.28353,"lon":5.38724,"is_reserved":false,"is_disabled":false,"rental_uris":{"android":"levelo://app?vid=bd153cb0-8a74-4f68-a317-c4ce083b13f5","ios":"levelo://app?vid=bd153cb0-8a74-4f68-a317-c4ce083b13f5"},"vehicle_type_id":"4","last_reported":1687385168,"current_range_meters":17200,"station_id":"","pricing_plan_id":"free"},{"bike_id":"bb9f1867-50cd-49ba-91ce-c4c9a6e8669c","system_id":"levelo_inurba_marseille","lat":43.28107,"lon":5.37837,"is_reserved":false,"is_disabled":false,"rental_uris":{"android":"levelo://app?vid=bb9f1867-50cd-49ba-91ce-c4c9a6e8669c","ios":"levelo://app?vid=bb9f1867-50cd-49ba-91ce-c4c9a6e8669c"},"vehicle_type_id":"4","last_reported":1687385168,"current_range_meters":800,"station_id":"ce4bha12rcd13ifvqee0","pricing_plan_id":"free"},{"bike_id":"69c6d6b5-519a-4df0-8fe6-82d00484e1af","system_id":"levelo_inurba_marseille","lat":43.281044,"lon":5.378308,"is_reserved":false,"is_disabled":false,"rental_uris":{"android":"levelo://app?vid=69c6d6b5-519a-4df0-8fe6-82d00484e1af","ios":"levelo://app?vid=69c6d6b5-519a-4df0-8fe6-82d00484e1af"},"vehicle_type_id":"4","last_reported":1687385168,"current_range_meters":3200,"station_id":"ce4bha12rcd13ifvqee0","pricing_plan_id":"free"},{"bike_id":"a27203df-6ab0-45c6-a73f-5bb6f7ece534","system_id":"levelo_inurba_marseille","lat":43.281044,"lon":5.378308,"is_reserved":false,"is_disabled":false,"rental_uris":{"android":"levelo://app?vid=a27203df-6ab0-45c6-a73f-5bb6f7ece534","ios":"levelo://app?vid=a27203df-6ab0-45c6-a73f-5bb6f7ece534"},"vehicle_type_id":"4","last_reported":1687385168,"current_range_meters":3600,"station_id":"ce4bha12rcd13ifvqee0","pricing_plan_id":"free"},{"bike_id":"cceaecc7-da83-419d-a760-b210cd973174","system_id":"levelo_inurba_marseille","lat":43.281044,"lon":5.378308,"is_reserved":false,"is_disabled":false,"rental_uris":{"android":"levelo://app?vid=cceaecc7-da83-419d-a760-b210cd973174","ios":"levelo://app?vid=cceaecc7-da83-419d-a760-b210cd973174"},"vehicle_type_id":"4","last_reported":1687385168,"current_range_meters":22400,"station_id":"ce4bha12rcd13ifvqee0","pricing_plan_id":"free"},{"bike_id":"2b7a87f8-13ae-461c-8979-bd8772575fc0","system_id":"levelo_inurba_marseille","lat":43.281044,"lon":5.378308,"is_reserved":false,"is_disabled":false,"rental_uris":{"android":"levelo://app?vid=2b7a87f8-13ae-461c-8979-bd8772575fc0","ios":"levelo://app?vid=2b7a87f8-13ae-461c-8979-bd8772575fc0"},"vehicle_type_id":"4","last_reported":1687385168,"current_range_meters":6800,"station_id":"ce4bha12rcd13ifvqee0","pricing_plan_id":"free"},{"bike_id":"b5da25b9-64ce-4cd8-93ef-eae342560812","system_id":"levelo_inurba_marseille","lat":43.296263,"lon":5.40601,"is_reserved":false,"is_disabled":false,"rental_uris":{"android":"levelo://app?vid=b5da25b9-64ce-4cd8-93ef-eae342560812","ios":"levelo://app?vid=b5da25b9-64ce-4cd8-93ef-eae342560812"},"vehicle_type_id":"4","last_reported":1687385168,"current_range_meters":7600,"station_id":"ce4bh0h2rcd13ifvqd60","pricing_plan_id":"free"},{"bike_id":"215dd2ec-a147-4fb6-9668-0df111907315","system_id":"levelo_inurba_marseille","lat":43.29634,"lon":5.40604,"is_reserved":false,"is_disabled":false,"rental_uris":{"android":"levelo://app?vid=215dd2ec-a147-4fb6-9668-0df111907315","ios":"levelo://app?vid=215dd2ec-a147-4fb6-9668-0df111907315"},"vehicle_type_id":"4","last_reported":1687385168,"current_range_meters":24800,"station_id":"ce4bh0h2rcd13ifvqd60","pricing_plan_id":"free"},{"bike_id":"20031e6d-fe1f-4839-b985-406bbdc18eed","system_id":"levelo_inurba_marseille","lat":43.27923,"lon":5.36823,"is_reserved":false,"is_disabled":false,"rental_uris":{"android":"levelo://app?vid=20031e6d-fe1f-4839-b985-406bbdc18eed","ios":"levelo://app?vid=20031e6d-fe1f-4839-b985-406bbdc18eed"},"vehicle_type_id":"4","last_reported":1687385168,"current_range_meters":20800,"station_id":"","pricing_plan_id":"free"},{"bike_id":"3b13118e-e700-487b-8eb2-bf3de2250f2d","system_id":"levelo_inurba_marseille","lat":43.284462,"lon":5.392121,"is_reserved":false,"is_disabled":false,"rental_uris":{"android":"levelo://app?vid=3b13118e-e700-487b-8eb2-bf3de2250f2d","ios":"levelo://app?vid=3b13118e-e700-487b-8eb2-bf3de2250f2d"},"vehicle_type_id":"4","last_reported":1687385168,"current_range_meters":7200,"station_id":"ce4bhoh2rcd13ifvqh5g","pricing_plan_id":"free"},{"bike_id":"5d9ded73-0842-4f01-b89b-d664679f507f","system_id":"levelo_inurba_marseille","lat":43.284462,"lon":5.392121,"is_reserved":false,"is_disabled":false,"rental_uris":{"android":"levelo://app?vid=5d9ded73-0842-4f01-b89b-d664679f507f","ios":"levelo://app?vid=5d9ded73-0842-4f01-b89b-d664679f507f"},"vehicle_type_id":"4","last_reported":1687385168,"current_range_meters":19600,"station_id":"ce4bhoh2rcd13ifvqh5g","pricing_plan_id":"free"},{"bike_id":"e92403c5-3fc2-4e8d-8145-00725468d737","system_id":"levelo_inurba_marseille","lat":43.284462,"lon":5.392121,"is_reserved":false,"is_disabled":false,"rental_uris":{"android":"levelo://app?vid=e92403c5-3fc2-4e8d-8145-00725468d737","ios":"levelo://app?vid=e92403c5-3fc2-4e8d-8145-00725468d737"},"vehicle_type_id":"4","last_reported":1687385168,"current_range_meters":800,"station_id":"ce4bhoh2rcd13ifvqh5g","pricing_plan_id":"free"},{"bike_id":"47c2827b-d297-46ba-96b9-bfe3d72653b2","system_id":"levelo_inurba_marseille","lat":43.284462,"lon":5.392121,"is_reserved":false,"is_disabled":false,"rental_uris":{"android":"levelo://app?vid=47c2827b-d297-46ba-96b9-bfe3d72653b2","ios":"levelo://app?vid=47c2827b-d297-46ba-96b9-bfe3d72653b2"},"vehicle_type_id":"4","last_reported":1687385168,"current_range_meters":8800,"station_id":"ce4bhoh2rcd13ifvqh5g","pricing_plan_id":"free"},{"bike_id":"a0a3ddd1-a1aa-466e-97ba-809239f19c70","system_id":"levelo_inurba_marseille","lat":43.284462,"lon":5.392121,"is_reserved":false,"is_disabled":false,"rental_uris":{"android":"levelo://app?vid=a0a3ddd1-a1aa-466e-97ba-809239f19c70","ios":"levelo://app?vid=a0a3ddd1-a1aa-466e-97ba-809239f19c70"},"vehicle_type_id":"4","last_reported":1687385168,"current_range_meters":6400,"station_id":"ce4bhoh2rcd13ifvqh5g","pricing_plan_id":"free"},{"bike_id":"a574e6b9-b8b4-49e3-a3c5-498d1f6f4f57","system_id":"levelo_inurba_marseille","lat":43.28571,"lon":5.39491,"is_reserved":false,"is_disabled":false,"rental_uris":{"android":"levelo://app?vid=a574e6b9-b8b4-49e3-a3c5-498d1f6f4f57","ios":"levelo://app?vid=a574e6b9-b8b4-49e3-a3c5-498d1f6f4f57"},"vehicle_type_id":"4","last_reported":1687385168,"current_range_meters":14000,"station_id":"ce4bh292rcd13ifvqdg0","pricing_plan_id":"free"},{"bike_id":"5f82cc2b-47e2-493e-89d6-ca86f6aaba5a","system_id":"levelo_inurba_marseille","lat":43.28573,"lon":5.394992,"is_reserved":false,"is_disabled":false,"rental_uris":{"android":"levelo://app?vid=5f82cc2b-47e2-493e-89d6-ca86f6aaba5a","ios":"levelo://app?vid=5f82cc2b-47e2-493e-89d6-ca86f6aaba5a"},"vehicle_type_id":"4","last_reported":1687385168,"current_range_meters":400,"station_id":"ce4bh292rcd13ifvqdg0","pricing_plan_id":"free"},{"bike_id":"d0605c49-68ae-41f0-a63f-83512d2f5572","system_id":"levelo_inurba_marseille","lat":43.285742,"lon":5.395004,"is_reserved":false,"is_disabled":false,"rental_uris":{"android":"levelo://app?vid=d0605c49-68ae-41f0-a63f-83512d2f5572","ios":"levelo://app?vid=d0605c49-68ae-41f0-a63f-83512d2f5572"},"vehicle_type_id":"4","last_reported":1687385168,"current_range_meters":16400,"station_id":"ce4bh292rcd13ifvqdg0","pricing_plan_id":"free"},{"bike_id":"189c57e1-9835-4801-a05a-c41e19fcac80","system_id":"levelo_inurba_marseille","lat":43.32657,"lon":5.40988,"is_reserved":false,"is_disabled":false,"rental_uris":{"android":"levelo://app?vid=189c57e1-9835-4801-a05a-c41e19fcac80","ios":"levelo://app?vid=189c57e1-9835-4801-a05a-c41e19fcac80"},"vehicle_type_id":"4","last_reported":1687385168,"current_range_meters":26000,"station_id":"ce4bhpp2rcd13ifvqhgg","pricing_plan_id":"free"},{"bike_id":"bde14cc2-7f6e-431e-950b-953f49fac3a5","system_id":"levelo_inurba_marseille","lat":43.326605,"lon":5.409903,"is_reserved":false,"is_disabled":false,"rental_uris":{"android":"levelo://app?vid=bde14cc2-7f6e-431e-950b-953f49fac3a5","ios":"levelo://app?vid=bde14cc2-7f6e-431e-950b-953f49fac3a5"},"vehicle_type_id":"4","last_reported":1687385168,"current_range_meters":28000,"station_id":"ce4bhpp2rcd13ifvqhgg","pricing_plan_id":"free"},{"bike_id":"42b3680c-6022-4319-945e-27cb9e3f8446","system_id":"levelo_inurba_marseille","lat":43.326605,"lon":5.409903,"is_reserved":false,"is_disabled":false,"rental_uris":{"android":"levelo://app?vid=42b3680c-6022-4319-945e-27cb9e3f8446","ios":"levelo://app?vid=42b3680c-6022-4319-945e-27cb9e3f8446"},"vehicle_type_id":"4","last_reported":1687385168,"current_range_meters":21200,"station_id":"ce4bhpp2rcd13ifvqhgg","pricing_plan_id":"free"},{"bike_id":"e878727b-84cd-42b1-a62e-cfdf05b0329c","system_id":"levelo_inurba_marseille","lat":43.3266,"lon":5.40987,"is_reserved":false,"is_disabled":false,"rental_uris":{"android":"levelo://app?vid=e878727b-84cd-42b1-a62e-cfdf05b0329c","ios":"levelo://app?vid=e878727b-84cd-42b1-a62e-cfdf05b0329c"},"vehicle_type_id":"4","last_reported":1687385168,"current_range_meters":30000,"station_id":"ce4bhpp2rcd13ifvqhgg","pricing_plan_id":"free"},{"bike_id":"36610db2-8dd3-4bd2-9efb-abbd30e48c1b","system_id":"levelo_inurba_marseille","lat":43.326594,"lon":5.409889,"is_reserved":false,"is_disabled":false,"rental_uris":{"android":"levelo://app?vid=36610db2-8dd3-4bd2-9efb-abbd30e48c1b","ios":"levelo://app?vid=36610db2-8dd3-4bd2-9efb-abbd30e48c1b"},"vehicle_type_id":"4","last_reported":1687385168,"current_range_meters":13600,"station_id":"ce4bhpp2rcd13ifvqhgg","pricing_plan_id":"free"},{"bike_id":"e81eaef4-2f92-4fd8-b443-8aefe8e35a18","system_id":"levelo_inurba_marseille","lat":43.3266,"lon":5.40989,"is_reserved":false,"is_disabled":false,"rental_uris":{"android":"levelo://app?vid=e81eaef4-2f92-4fd8-b443-8aefe8e35a18","ios":"levelo://app?vid=e81eaef4-2f92-4fd8-b443-8aefe8e35a18"},"vehicle_type_id":"4","last_reported":1687385168,"current_range_meters":28400,"station_id":"ce4bhpp2rcd13ifvqhgg","pricing_plan_id":"free"},{"bike_id":"3e33ecde-d214-42f9-86e4-ca381be9da0e","system_id":"levelo_inurba_marseille","lat":43.326605,"lon":5.409903,"is_reserved":false,"is_disabled":false,"rental_uris":{"android":"levelo://app?vid=3e33ecde-d214-42f9-86e4-ca381be9da0e","ios":"levelo://app?vid=3e33ecde-d214-42f9-86e4-ca381be9da0e"},"vehicle_type_id":"4","last_reported":1687385168,"current_range_meters":8000,"station_id":"ce4bhpp2rcd13ifvqhgg","pricing_plan_id":"free"},{"bike_id":"ff22564b-7f59-4dba-a7bd-0f1bc5689db1","system_id":"levelo_inurba_marseille","lat":43.32662,"lon":5.40993,"is_reserved":false,"is_disabled":false,"rental_uris":{"android":"levelo://app?vid=ff22564b-7f59-4dba-a7bd-0f1bc5689db1","ios":"levelo://app?vid=ff22564b-7f59-4dba-a7bd-0f1bc5689db1"},"vehicle_type_id":"4","last_reported":1687385168,"current_range_meters":31200,"station_id":"ce4bhpp2rcd13ifvqhgg","pricing_plan_id":"free"},{"bike_id":"8f54255f-404b-4eba-9358-5e770b285589","system_id":"levelo_inurba_marseille","lat":43.27618,"lon":5.361009,"is_reserved":false,"is_disabled":false,"rental_uris":{"android":"levelo://app?vid=8f54255f-404b-4eba-9358-5e770b285589","ios":"levelo://app?vid=8f54255f-404b-4eba-9358-5e770b285589"},"vehicle_type_id":"4","last_reported":1687385168,"current_range_meters":800,"station_id":"ce4bgj92rcd13ifvqbe0","pricing_plan_id":"free"},{"bike_id":"a9a870fe-ddaf-46fd-ad13-6d9a4d6b162d","system_id":"levelo_inurba_marseille","lat":43.279087,"lon":5.380114,"is_reserved":false,"is_disabled":false,"rental_uris":{"android":"levelo://app?vid=a9a870fe-ddaf-46fd-ad13-6d9a4d6b162d","ios":"levelo://app?vid=a9a870fe-ddaf-46fd-ad13-6d9a4d6b162d"},"vehicle_type_id":"4","last_reported":1687385168,"current_range_meters":2400,"station_id":"ce4bhf92rcd13ifvqf50","pricing_plan_id":"free"},{"bike_id":"f47d889e-f3a7-4cf7-b89b-498d12032e77","system_id":"levelo_inurba_marseille","lat":43.2929,"lon":5.40667,"is_reserved":false,"is_disabled":false,"rental_uris":{"android":"levelo://app?vid=f47d889e-f3a7-4cf7-b89b-498d12032e77","ios":"levelo://app?vid=f47d889e-f3a7-4cf7-b89b-498d12032e77"},"vehicle_type_id":"4","last_reported":1687385168,"current_range_meters":17600,"station_id":"","pricing_plan_id":"free"},{"bike_id":"6d55cbfc-26b0-4da6-a109-389df28986d7","system_id":"levelo_inurba_marseille","lat":43.279087,"lon":5.380114,"is_reserved":false,"is_disabled":false,"rental_uris":{"android":"levelo://app?vid=6d55cbfc-26b0-4da6-a109-389df28986d7","ios":"levelo://app?vid=6d55cbfc-26b0-4da6-a109-389df28986d7"},"vehicle_type_id":"4","last_reported":1687385168,"current_range_meters":21600,"station_id":"ce4bhf92rcd13ifvqf50","pricing_plan_id":"free"},{"bike_id":"81e91320-65e3-495c-a393-5d13fe415f29","system_id":"levelo_inurba_marseille","lat":43.287154,"lon":5.399979,"is_reserved":false,"is_disabled":false,"rental_uris":{"android":"levelo://app?vid=81e91320-65e3-495c-a393-5d13fe415f29","ios":"levelo://app?vid=81e91320-65e3-495c-a393-5d13fe415f29"},"vehicle_type_id":"4","last_reported":1687385168,"current_range_meters":31200,"station_id":"ce4bho92rcd13ifvqh3g","pricing_plan_id":"free"},{"bike_id":"2df45873-168d-42d2-8f98-03cf797ff383","system_id":"levelo_inurba_marseille","lat":43.287154,"lon":5.399979,"is_reserved":false,"is_disabled":false,"rental_uris":{"android":"levelo://app?vid=2df45873-168d-42d2-8f98-03cf797ff383","ios":"levelo://app?vid=2df45873-168d-42d2-8f98-03cf797ff383"},"vehicle_type_id":"4","last_reported":1687385168,"current_range_meters":12800,"station_id":"ce4bho92rcd13ifvqh3g","pricing_plan_id":"free"},{"bike_id":"6bb1cdff-15b7-45a0-bf1f-ae167d643c96","system_id":"levelo_inurba_marseille","lat":43.287154,"lon":5.399979,"is_reserved":false,"is_disabled":false,"rental_uris":{"android":"levelo://app?vid=6bb1cdff-15b7-45a0-bf1f-ae167d643c96","ios":"levelo://app?vid=6bb1cdff-15b7-45a0-bf1f-ae167d643c96"},"vehicle_type_id":"4","last_reported":1687385168,"current_range_meters":11200,"station_id":"ce4bho92rcd13ifvqh3g","pricing_plan_id":"free"},{"bike_id":"2314b802-dfe9-49f2-a3fe-3867f122e2bd","system_id":"levelo_inurba_marseille","lat":43.287154,"lon":5.399979,"is_reserved":false,"is_disabled":false,"rental_uris":{"android":"levelo://app?vid=2314b802-dfe9-49f2-a3fe-3867f122e2bd","ios":"levelo://app?vid=2314b802-dfe9-49f2-a3fe-3867f122e2bd"},"vehicle_type_id":"4","last_reported":1687385168,"current_range_meters":31200,"station_id":"ce4bho92rcd13ifvqh3g","pricing_plan_id":"free"},{"bike_id":"325f823a-ccf0-4dc2-8067-aa61381d1aa6","system_id":"levelo_inurba_marseille","lat":43.287154,"lon":5.399979,"is_reserved":false,"is_disabled":false,"rental_uris":{"android":"levelo://app?vid=325f823a-ccf0-4dc2-8067-aa61381d1aa6","ios":"levelo://app?vid=325f823a-ccf0-4dc2-8067-aa61381d1aa6"},"vehicle_type_id":"4","last_reported":1687385168,"current_range_meters":16800,"station_id":"ce4bho92rcd13ifvqh3g","pricing_plan_id":"free"},{"bike_id":"5ec2f6b2-7ce5-4bc9-99f9-1d131c6dd3eb","system_id":"levelo_inurba_marseille","lat":43.287154,"lon":5.399979,"is_reserved":false,"is_disabled":false,"rental_uris":{"android":"levelo://app?vid=5ec2f6b2-7ce5-4bc9-99f9-1d131c6dd3eb","ios":"levelo://app?vid=5ec2f6b2-7ce5-4bc9-99f9-1d131c6dd3eb"},"vehicle_type_id":"4","last_reported":1687385168,"current_range_meters":17200,"station_id":"ce4bho92rcd13ifvqh3g","pricing_plan_id":"free"},