{"last_updated":1746810544,"ttl":60,"version":"2.2","data":{"bikes":[{"bike_id":"39fee3b6-7972-4229-8d58-1bba2febac66","system_id":"levelo_inurba_marseille","lat":43.21746,"lon":5.34605,"is_reserved":false,"is_disabled":false,"rental_uris":{"android":"levelo://app?vid=39fee3b6-7972-4229-8d58-1bba2febac66","ios":"levelo://app?vid=39fee3b6-7972-4229-8d58-1bba2febac66"},"vehicle_type_id":"4","last_reported":1746810545,"current_range_meters":2800,"station_id":"st_cvj6r9ubvosntc0bgbag","pricing_plan_id":"cebpf4jnsgd1na2vs0mg"},{"bike_id":"123406a3-60c2-4081-92b2-3056b4e289cc","system_id":"levelo_inurba_marseille","lat":43.24556,"lon":5.39518,"is_reserved":false,"is_disabled":false,"rental_uris":{"android":"levelo://app?vid=123406a3-60c2-4081-92b2-3056b4e289cc","ios":"levelo://app?vid=123406a3-60c2-4081-92b2-3056b4e289cc"},"vehicle_type_id":"4","last_reported":1746810545,"current_range_meters":2800,"station_id":"ce4bhlp2rcd13ifvqgjg","pricing_plan_id":"cebpf4jnsgd1na2vs0mg"},{"bike_id":"8b5fce96-fdeb-464e-9e9b-5056500482c5","system_id":"levelo_inurba_marseille","lat":43.29296,"lon":5.40159,"is_reserved":false,"is_disabled":false,"rental_uris":{"android":"levelo://app?vid=8b5fce96-fdeb-464e-9e9b-5056500482c5","ios":"levelo://app?vid=8b5fce96-fdeb-464e-9e9b-5056500482c5"},"vehicle_type_id":"4","last_reported":1746810545,"current_range_meters":3200,"station_id":"ce4bh312rcd13ifvqdk0","pricing_plan_id":"cebpf4jnsgd1na2vs0mg"},{"bike_id":"e70a6cc7-17eb-4c4e-8e7c-f66b5cfc0fab","system_id":"levelo_inurba_marseille","lat":43.21202,"lon":5.35089,"is_reserved":false,"is_disabled":false,"rental_uris":{"android":"levelo://app?vid=e70a6cc7-17eb-4c4e-8e7c-f66b5cfc0fab","ios":"levelo://app?vid=e70a6cc7-17eb-4c4e-8e7c-f66b5cfc0fab"},"vehicle_type_id":"4","last_reported":1746810545,"current_range_meters":3200,"station_id":"st_cvj6sg6p6f1abm77japg","pricing_plan_id":"cebpf4jnsgd1na2vs0mg"},{"bike_id":"3d5d960c-1482-45a9-879a-03eaba13f770","system_id":"levelo_inurba_marseille","lat":43.28398,"lon":5.37517,"is_reserved":false,"is_disabled":false,"rental_uris":{"android":"levelo://app?vid=3d5d960c-1482-45a9-879a-03eaba13f770","ios":"levelo://app?vid=3d5d960c-1482-45a9-879a-03eaba13f770"},"vehicle_type_id":"4","last_reported":1746810545,"current_range_meters":3200,"station_id":"ce4bh412rcd13ifvqds0","pricing_plan_id":"cebpf4jnsgd1na2vs0mg"},{"bike_id":"f221955e-3e51-4da6-85de-1dc88f910d13","system_id":"levelo_inurba_marseille","lat":43.25824,"lon":5.394368,"is_reserved":false,"is_disabled":false,"rental_uris":{"android":"levelo://app?vid=f221955e-3e51-4da6-85de-1dc88f910d13","ios":"levelo://app?vid=f221955e-3e51-4da6-85de-1dc88f910d13"},"vehicle_type_id":"4","last_reported":1746810545,"current_range_meters":3600,"station_id":"ce4bhip2rcd13ifvqft0","pricing_plan_id":"cebpf4jnsgd1na2vs0mg"},{"bike_id":"89b0fde3-7c78-4629-8f3c-3d0a3435f0ec","system_id":"levelo_inurba_marseille","lat":43.23149,"lon":5.43704,"is_reserved":false,"is_disabled":false,"rental_uris":{"android":"levelo://app?vid=89b0fde3-7c78-4629-8f3c-3d0a3435f0ec","ios":"levelo://app?vid=89b0fde3-7c78-4629-8f3c-3d0a3435f0ec"},"vehicle_type_id":"4","last_reported":1746810545,"current_range_meters":3600,"station_id":"ce4bhmp2rcd13ifvqgog","pricing_plan_id":"cebpf4jnsgd1na2vs0mg"},{"bike_id":"5d2ffde0-bd88-4e06-8590-690d9343d21d","system_id":"levelo_inurba_marseille","lat":43.30641,"lon":5.401,"is_reserved":false,"is_disabled":false,"rental_uris":{"android":"levelo://app?vid=5d2ffde0-bd88-4e06-8590-690d9343d21d","ios":"levelo://app?vid=5d2ffde0-bd88-4e06-8590-690d9343d21d"},"vehicle_type_id":"4","last_reported":1746810545,"current_range_meters":3600,"station_id":"ce4bh112rcd13ifvqda0","pricing_plan_id":"cebpf4jnsgd1na2vs0mg"},{"bike_id":"594199fb-b43d-4fa8-be11-897c90ecda33","system_id":"levelo_inurba_marseille","lat":43.25502,"lon":5.3765,"is_reserved":false,"is_disabled":false,"rental_uris":{"android":"levelo://app?vid=594199fb-b43d-4fa8-be11-897c90ecda33","ios":"levelo://app?vid=594199fb-b43d-4fa8-be11-897c90ecda33"},"vehicle_type_id":"4","last_reported":1746810545,"current_range_meters":3600,"station_id":"ce4bhh12rcd13ifvqff0","pricing_plan_id":"cebpf4jnsgd1na2vs0mg"},{"bike_id":"33cf1c5b-f54d-4056-b219-50d3e17bd27c","system_id":"levelo_inurba_marseille","lat":43.27298,"lon":5.39121,"is_reserved":false,"is_disabled":false,"rental_uris":{"android":"levelo://app?vid=33cf1c5b-f54d-4056-b219-50d3e17bd27c","ios":"levelo://app?vid=33cf1c5b-f54d-4056-b219-50d3e17bd27c"},"vehicle_type_id":"4","last_reported":1746810545,"current_range_meters":3600,"station_id":"ce4bhgp2rcd13ifvqfe0","pricing_plan_id":"cebpf4jnsgd1na2vs0mg"},{"bike_id":"04a5cf88-4c19-4cda-8c31-688377c05efa","system_id":"levelo_inurba_marseille","lat":43.28708,"lon":5.39991,"is_reserved":false,"is_disabled":false,"rental_uris":{"android":"levelo://app?vid=04a5cf88-4c19-4cda-8c31-688377c05efa","ios":"levelo://app?vid=04a5cf88-4c19-4cda-8c31-688377c05efa"},"vehicle_type_id":"4","last_reported":1746810545,"current_range_meters":3600,"station_id":"ce4bho92rcd13ifvqh3g","pricing_plan_id":"cebpf4jnsgd1na2vs0mg"},{"bike_id":"6b28fa1e-bbee-47a8-bb9e-660a0dbe426c","system_id":"levelo_inurba_marseille","lat":43.25576,"lon":5.38233,"is_reserved":false,"is_disabled":false,"rental_uris":{"android":"levelo://app?vid=6b28fa1e-bbee-47a8-bb9e-660a0dbe426c","ios":"levelo://app?vid=6b28fa1e-bbee-47a8-bb9e-660a0dbe426c"},"vehicle_type_id":"4","last_reported":1746810545,"current_range_meters":4000,"station_id":"ce4bhih2rcd13ifvqfs0","pricing_plan_id":"cebpf4jnsgd1na2vs0mg"},{"bike_id":"ff4b29cc-d1fe-4d85-9ca0-8475feb557fc","system_id":"levelo_inurba_marseille","lat":43.29083,"lon":5.37163,"is_reserved":false,"is_disabled":false,"rental_uris":{"android":"levelo://app?vid=ff4b29cc-d1fe-4d85-9ca0-8475feb557fc","ios":"levelo://app?vid=ff4b29cc-d1fe-4d85-9ca0-8475feb557fc"},"vehicle_type_id":"4","last_reported":1746810545,"current_range_meters":3600,"station_id":"ce4bh5p2rcd13ifvqe4g","pricing_plan_id":"cebpf4jnsgd1na2vs0mg"},{"bike_id":"79f72d8c-86d2-4ab7-801e-a21e1fee81fb","system_id":"levelo_inurba_marseille","lat":43.30804,"lon":5.38158,"is_reserved":false,"is_disabled":true,"rental_uris":{"android":"levelo://app?vid=79f72d8c-86d2-4ab7-801e-a21e1fee81fb","ios":"levelo://app?vid=79f72d8c-86d2-4ab7-801e-a21e1fee81fb"},"vehicle_type_id":"4","last_reported":1746810545,"current_range_meters":4000,"station_id":"ce4bgt12rcd13ifvqce0","pricing_plan_id":"cebpf4jnsgd1na2vs0mg"},{"bike_id":"f241fc55-44dc-46e5-a0de-c966426176cd","system_id":"levelo_inurba_marseille","lat":43.29925,"lon":5.3652,"is_reserved":false,"is_disabled":false,"rental_uris":{"android":"levelo://app?vid=f241fc55-44dc-46e5-a0de-c966426176cd","ios":"levelo://app?vid=f241fc55-44dc-46e5-a0de-c966426176cd"},"vehicle_type_id":"4","last_reported":1746810545,"current_range_meters":4800,"station_id":"ce4bgm92rcd13ifvqbr0","pricing_plan_id":"cebpf4jnsgd1na2vs0mg"},{"bike_id":"3fa05292-7790-420b-8635-b78e89e06ee3","system_id":"levelo_inurba_marseille","lat":43.30874,"lon":5.39138,"is_reserved":false,"is_disabled":false,"rental_uris":{"android":"levelo://app?vid=3fa05292-7790-420b-8635-b78e89e06ee3","ios":"levelo://app?vid=3fa05292-7790-420b-8635-b78e89e06ee3"},"vehicle_type_id":"4","last_reported":1746810545,"current_range_meters":4800,"station_id":"","pricing_plan_id":"cebpf4jnsgd1na2vs0mg"},{"bike_id":"d20f64d2-f844-4105-8cf2-f2a23cdc01d7","system_id":"levelo_inurba_marseille","lat":43.29312,"lon":5.37181,"is_reserved":false,"is_disabled":false,"rental_uris":{"android":"levelo://app?vid=d20f64d2-f844-4105-8cf2-f2a23cdc01d7","ios":"levelo://app?vid=d20f64d2-f844-4105-8cf2-f2a23cdc01d7"},"vehicle_type_id":"4","last_reported":1746810545,"current_range_meters":4800,"station_id":"ce4bgh92rcd13ifvqb40","pricing_plan_id":"cebpf4jnsgd1na2vs0mg"},{"bike_id":"9a356d22-e60c-462b-9e59-612799493831","system_id":"levelo_inurba_marseille","lat":43.25732,"lon":5.4111,"is_reserved":false,"is_disabled":false,"rental_uris":{"android":"levelo://app?vid=9a356d22-e60c-462b-9e59-612799493831","ios":"levelo://app?vid=9a356d22-e60c-462b-9e59-612799493831"},"vehicle_type_id":"4","last_reported":1746810545,"current_range_meters":5600,"station_id":"ce4bhkp2rcd13ifvqgd0","pricing_plan_id":"cebpf4jnsgd1na2vs0mg"},{"bike_id":"82f86238-c0b7-4499-8283-0840a9e35247","system_id":"levelo_inurba_marseille","lat":43.30927,"lon":5.40143,"is_reserved":false,"is_disabled":false,"rental_uris":{"android":"levelo://app?vid=82f86238-c0b7-4499-8283-0840a9e35247","ios":"levelo://app?vid=82f86238-c0b7-4499-8283-0840a9e35247"},"vehicle_type_id":"4","last_reported":1746810545,"current_range_meters":6000,"station_id":"ce4bgvp2rcd13ifvqct0","pricing_plan_id":"cebpf4jnsgd1na2vs0mg"},{"bike_id":"c85541bf-94ec-4481-bc71-0d98b10e32a7","system_id":"levelo_inurba_marseille","lat":43.25112,"lon":5.40335,"is_reserved":false,"is_disabled":false,"rental_uris":{"android":"levelo://app?vid=c85541bf-94ec-4481-bc71-0d98b10e32a7","ios":"levelo://app?vid=c85541bf-94ec-4481-bc71-0d98b10e32a7"},"vehicle_type_id":"4","last_reported":1746810545,"current_range_meters":6000,"station_id":"ce4bhlh2rcd13ifvqgig","pricing_plan_id":"cebpf4jnsgd1na2vs0mg"},{"bike_id":"da8fd4c4-9c74-49c9-a26e-002fac6ef7c1","system_id":"levelo_inurba_marseille","lat":43.28624,"lon":5.35104,"is_reserved":false,"is_disabled":false,"rental_uris":{"android":"levelo://app?vid=da8fd4c4-9c74-49c9-a26e-002fac6ef7c1","ios":"levelo://app?vid=da8fd4c4-9c74-49c9-a26e-002fac6ef7c1"},"vehicle_type_id":"4","last_reported":1746810545,"current_range_meters":6000,"station_id":"ce4bhch2rcd13ifvqeug","pricing_plan_id":"cebpf4jnsgd1na2vs0mg"},{"bike_id":"05e8939e-1395-4991-9bda-320181dd35cc","system_id":"levelo_inurba_marseille","lat":43.2623,"lon":5.40457,"is_reserved":false,"is_disabled":false,"rental_uris":{"android":"levelo://app?vid=05e8939e-1395-4991-9bda-320181dd35cc","ios":"levelo://app?vid=05e8939e-1395-4991-9bda-320181dd35cc"},"vehicle_type_id":"4","last_reported":1746810545,"current_range_meters":6000,"station_id":"ce4bhmh2rcd13ifvqgmg","pricing_plan_id":"cebpf4jnsgd1na2vs0mg"},{"bike_id":"af44b6b7-06af-4c19-8105-49b4080b5e1d","system_id":"levelo_inurba_marseille","lat":43.23147,"lon":5.40017,"is_reserved":false,"is_disabled":false,"rental_uris":{"android":"levelo://app?vid=af44b6b7-06af-4c19-8105-49b4080b5e1d","ios":"levelo://app?vid=af44b6b7-06af-4c19-8105-49b4080b5e1d"},"vehicle_type_id":"4","last_reported":1746810545,"current_range_meters":6000,"station_id":"ce4bhn12rcd13ifvqgqg","pricing_plan_id":"cebpf4jnsgd1na2vs0mg"},{"bike_id":"7e934603-2821-4d15-8178-6da63150e456","system_id":"levelo_inurba_marseille","lat":43.26774,"lon":5.39402,"is_reserved":false,"is_disabled":false,"rental_uris":{"android":"levelo://app?vid=7e934603-2821-4d15-8178-6da63150e456","ios":"levelo://app?vid=7e934603-2821-4d15-8178-6da63150e456"},"vehicle_type_id":"4","last_reported":1746810545,"current_range_meters":6000,"station_id":"ce4bhh12rcd13ifvqfg0","pricing_plan_id":"cebpf4jnsgd1na2vs0mg"},{"bike_id":"3c6d0c37-471a-4ce7-b166-52edc6a87b8b","system_id":"levelo_inurba_marseille","lat":43.262103,"lon":5.404567,"is_reserved":false,"is_disabled":true,"rental_uris":{"android":"levelo://app?vid=3c6d0c37-471a-4ce7-b166-52edc6a87b8b","ios":"levelo://app?vid=3c6d0c37-471a-4ce7-b166-52edc6a87b8b"},"vehicle_type_id":"4","last_reported":1746810545,"current_range_meters":6000,"station_id":"ce4bhmh2rcd13ifvqgmg","pricing_plan_id":"cebpf4jnsgd1na2vs0mg"},{"bike_id":"47473f29-544c-4ec7-a5cb-c29fddacbb8a","system_id":"levelo_inurba_marseille","lat":43.251257,"lon":5.403651,"is_reserved":false,"is_disabled":false,"rental_uris":{"android":"levelo://app?vid=47473f29-544c-4ec7-a5cb-c29fddacbb8a","ios":"levelo://app?vid=47473f29-544c-4ec7-a5cb-c29fddacbb8a"},"vehicle_type_id":"4","last_reported":1746810545,"current_range_meters":6400,"station_id":"ce4bhlh2rcd13ifvqgig","pricing_plan_id":"cebpf4jnsgd1na2vs0mg"},{"bike_id":"a6e47de5-e1f9-43e4-a4fb-bc042d77cc44","system_id":"levelo_inurba_marseille","lat":43.30145,"lon":5.38092,"is_reserved":false,"is_disabled":false,"rental_uris":{"android":"levelo://app?vid=a6e47de5-e1f9-43e4-a4fb-bc042d77cc44","ios":"levelo://app?vid=a6e47de5-e1f9-43e4-a4fb-bc042d77cc44"},"vehicle_type_id":"4","last_reported":1746810545,"current_range_meters":6400,"station_id":"ce4bgjp2rcd13ifvqbh0","pricing_plan_id":"cebpf4jnsgd1na2vs0mg"},{"bike_id":"947a7b8a-53c3-4804-9e62-89d7716f5882","system_id":"levelo_inurba_marseille","lat":43.27913,"lon":5.39588,"is_reserved":false,"is_disabled":false,"rental_uris":{"android":"levelo://app?vid=947a7b8a-53c3-4804-9e62-89d7716f5882","ios":"levelo://app?vid=947a7b8a-53c3-4804-9e62-89d7716f5882"},"vehicle_type_id":"4","last_reported":1746810545,"current_range_meters":6400,"station_id":"ce4bhf92rcd13ifvqf40","pricing_plan_id":"cebpf4jnsgd1na2vs0mg"},{"bike_id":"debe0656-e4f7-4adc-8c2d-9dae1585fdcc","system_id":"levelo_inurba_marseille","lat":43.301373,"lon":5.398649,"is_reserved":false,"is_disabled":false,"rental_uris":{"android":"levelo://app?vid=debe0656-e4f7-4adc-8c2d-9dae1585fdcc","ios":"levelo://app?vid=debe0656-e4f7-4adc-8c2d-9dae1585fdcc"},"vehicle_type_id":"4","last_reported":1746810545,"current_range_meters":6400,"station_id":"","pricing_plan_id":"cebpf4jnsgd1na2vs0mg"},{"bike_id":"dc1aafa9-6d52-4f1f-9aa2-8892baf7a124","system_id":"levelo_inurba_marseille","lat":43.29984,"lon":5.38503,"is_reserved":false,"is_disabled":false,"rental_uris":{"android":"levelo://app?vid=dc1aafa9-6d52-4f1f-9aa2-8892baf7a124","ios":"levelo://app?vid=dc1aafa9-6d52-4f1f-9aa2-8892baf7a124"},"vehicle_type_id":"4","last_reported":1746810545,"current_range_meters":6400,"station_id":"ce4bgj92rcd13ifvqbd0","pricing_plan_id":"cebpf4jnsgd1na2vs0mg"},{"bike_id":"98fecbeb-d009-4eaf-97c7-c560cf17a8ef","system_id":"levelo_inurba_marseille","lat":43.26569,"lon":5.39018,"is_reserved":false,"is_disabled":false,"rental_uris":{"android":"levelo://app?vid=98fecbeb-d009-4eaf-97c7-c560cf17a8ef","ios":"levelo://app?vid=98fecbeb-d009-4eaf-97c7-c560cf17a8ef"},"vehicle_type_id":"4","last_reported":1746810545,"current_range_meters":6400,"station_id":"ce4bhe12rcd13ifvqf30","pricing_plan_id":"cebpf4jnsgd1na2vs0mg"},{"bike_id":"ba32ee3a-6a49-437c-90fb-7756461a61f4","system_id":"levelo_inurba_marseille","lat":43.24172,"lon":5.36401,"is_reserved":false,"is_disabled":false,"rental_uris":{"android":"levelo://app?vid=ba32ee3a-6a49-437c-90fb-7756461a61f4","ios":"levelo://app?vid=ba32ee3a-6a49-437c-90fb-7756461a61f4"},"vehicle_type_id":"4","last_reported":1746810545,"current_range_meters":6800,"station_id":"cpo36qri1sfpv3e86is0","pricing_plan_id":"cebpf4jnsgd1na2vs0mg"},{"bike_id":"d4814aac-483d-48f5-a913-b39dde41f978","system_id":"levelo_inurba_marseille","lat":43.30885,"lon":5.372,"is_reserved":false,"is_disabled":false,"rental_uris":{"android":"levelo://app?vid=d4814aac-483d-48f5-a913-b39dde41f978","ios":"levelo://app?vid=d4814aac-483d-48f5-a913-b39dde41f978"},"vehicle_type_id":"4","last_reported":1746810545,"current_range_meters":6400,"station_id":"ce4bguh2rcd13ifvqckg","pricing_plan_id":"cebpf4jnsgd1na2vs0mg"},{"bike_id":"a8c84e0f-6048-4db0-8ef4-a90b2abfd663","system_id":"levelo_inurba_marseille","lat":43.24652,"lon":5.38897,"is_reserved":false,"is_disabled":false,"rental_uris":{"android":"levelo://app?vid=a8c84e0f-6048-4db0-8ef4-a90b2abfd663","ios":"levelo://app?vid=a8c84e0f-6048-4db0-8ef4-a90b2abfd663"},"vehicle_type_id":"4","last_reported":1746810545,"current_range_meters":6800,"station_id":"ce4bhg12rcd13ifvqf60","pricing_plan_id":"cebpf4jnsgd1na2vs0mg"},{"bike_id":"21697811-aef7-4bda-af27-c509235b4fc4","system_id":"levelo_inurba_marseille","lat":43.29001,"lon":5.35598,"is_reserved":false,"is_disabled":false,"rental_uris":{"android":"levelo://app?vid=21697811-aef7-4bda-af27-c509235b4fc4","ios":"levelo://app?vid=21697811-aef7-4bda-af27-c509235b4fc4"},"vehicle_type_id":"4","last_reported":1746810545,"current_range_meters":6400,"station_id":"ce4bhb92rcd13ifvqen0","pricing_plan_id":"cebpf4jnsgd1na2vs0mg"},{"bike_id":"fc01e7d0-8b46-40f1-8398-55071e760a2f","system_id":"levelo_inurba_marseille","lat":43.25593,"lon":5.38247,"is_reserved":false,"is_disabled":false,"rental_uris":{"android":"levelo://app?vid=fc01e7d0-8b46-40f1-8398-55071e760a2f","ios":"levelo://app?vid=fc01e7d0-8b46-40f1-8398-55071e760a2f"},"vehicle_type_id":"4","last_reported":1746810545,"current_range_meters":7200,"station_id":"ce4bhih2rcd13ifvqfs0","pricing_plan_id":"cebpf4jnsgd1na2vs0mg"},{"bike_id":"0e01b1b4-a2c4-4044-8420-c7d18a5a94eb","system_id":"levelo_inurba_marseille","lat":43.28151,"lon":5.42624,"is_reserved":false,"is_disabled":false,"rental_uris":{"android":"levelo://app?vid=0e01b1b4-a2c4-4044-8420-c7d18a5a94eb","ios":"levelo://app?vid=0e01b1b4-a2c4-4044-8420-c7d18a5a94eb"},"vehicle_type_id":"4","last_reported":1746810545,"current_range_meters":7200,"station_id":"ce4bhnh2rcd13ifvqgug","pricing_plan_id":"cebpf4jnsgd1na2vs0mg"},{"bike_id":"61b87472-f839-430c-a7fb-4bae787a4e4b","system_id":"levelo_inurba_marseille","lat":43.29263,"lon":5.38428,"is_reserved":false,"is_disabled":false,"rental_uris":{"android":"levelo://app?vid=61b87472-f839-430c-a7fb-4bae787a4e4b","ios":"levelo://app?vid=61b87472-f839-430c-a7fb-4bae787a4e4b"},"vehicle_type_id":"4","last_reported":1746810545,"current_range_meters":7200,"station_id":"ce4bh692rcd13ifvqea0","pricing_plan_id":"cebpf4jnsgd1na2vs0mg"},{"bike_id":"eabf6de9-ac45-4b34-b2cd-1041883d4522","system_id":"levelo_inurba_marseille","lat":43.28149,"lon":5.42644,"is_reserved":false,"is_disabled":false,"rental_uris":{"android":"levelo://app?vid=eabf6de9-ac45-4b34-b2cd-1041883d4522","ios":"levelo://app?vid=eabf6de9-ac45-4b34-b2cd-1041883d4522"},"vehicle_type_id":"4","last_reported":1746810545,"current_range_meters":7200,"station_id":"ce4bhnh2rcd13ifvqgug","pricing_plan_id":"cebpf4jnsgd1na2vs0mg"},{"bike_id":"c79ceaa3-0b1d-449c-ba54-4ffefe4bef1e","system_id":"levelo_inurba_marseille","lat":43.29787,"lon":5.39352,"is_reserved":false,"is_disabled":false,"rental_uris":{"android":"levelo://app?vid=c79ceaa3-0b1d-449c-ba54-4ffefe4bef1e","ios":"levelo://app?vid=c79ceaa3-0b1d-449c-ba54-4ffefe4bef1e"},"vehicle_type_id":"4","last_reported":1746810545,"current_range_meters":7200,"station_id":"chh1huq6cuj3fo74tm60","pricing_plan_id":"cebpf4jnsgd1na2vs0mg"},{"bike_id":"85aca280-c0aa-47a3-9369-d100569d2c78","system_id":"levelo_inurba_marseille","lat":43.25574,"lon":5.3825,"is_reserved":false,"is_disabled":false,"rental_uris":{"android":"levelo://app?vid=85aca280-c0aa-47a3-9369-d100569d2c78","ios":"levelo://app?vid=85aca280-c0aa-47a3-9369-d100569d2c78"},"vehicle_type_id":"4","last_reported":1746810545,"current_range_meters":7200,"station_id":"ce4bhih2rcd13ifvqfs0","pricing_plan_id":"cebpf4jnsgd1na2vs0mg"},{"bike_id":"b6230f2e-ecb6-4fc1-9a66-32ca83f41953","system_id":"levelo_inurba_marseille","lat":43.29308,"lon":5.37181,"is_reserved":false,"is_disabled":false,"rental_uris":{"android":"levelo://app?vid=b6230f2e-ecb6-4fc1-9a66-32ca83f41953","ios":"levelo://app?vid=b6230f2e-ecb6-4fc1-9a66-32ca83f41953"},"vehicle_type_id":"4","last_reported":1746810545,"current_range_meters":7200,"station_id":"ce4bgh92rcd13ifvqb40","pricing_plan_id":"cebpf4jnsgd1na2vs0mg"},{"bike_id":"6c4f2bfe-2c37-4f9b-8b69-6089f979af4d","system_id":"levelo_inurba_marseille","lat":43.30599,"lon":5.39359,"is_reserved":false,"is_disabled":true,"rental_uris":{"android":"levelo://app?vid=6c4f2bfe-2c37-4f9b-8b69-6089f979af4d","ios":"levelo://app?vid=6c4f2bfe-2c37-4f9b-8b69-6089f979af4d"},"vehicle_type_id":"4","last_reported":1746810545,"current_range_meters":8000,"station_id":"ce4bh0p2rcd13ifvqd80","pricing_plan_id":"cebpf4jnsgd1na2vs0mg"},{"bike_id":"f673a50d-776a-4d4f-8bc2-0f75017ffb52","system_id":"levelo_inurba_marseille","lat":43.284499,"lon":5.358347,"is_reserved":false,"is_disabled":false,"rental_uris":{"android":"levelo://app?vid=f673a50d-776a-4d4f-8bc2-0f75017ffb52","ios":"levelo://app?vid=f673a50d-776a-4d4f-8bc2-0f75017ffb52"},"vehicle_type_id":"4","last_reported":1746810545,"current_range_meters":8000,"station_id":"ce4bhah2rcd13ifvqei0","pricing_plan_id":"cebpf4jnsgd1na2vs0mg"},{"bike_id":"c393ca9d-ad98-4b42-8e37-6e7bdcd00568","system_id":"levelo_inurba_marseille","lat":43.30541,"lon":5.3656,"is_reserved":false,"is_disabled":false,"rental_uris":{"android":"levelo://app?vid=c393ca9d-ad98-4b42-8e37-6e7bdcd00568","ios":"levelo://app?vid=c393ca9d-ad98-4b42-8e37-6e7bdcd00568"},"vehicle_type_id":"4","last_reported":1746810545,"current_range_meters":8000,"station_id":"ce4bgs12rcd13ifvqcag","pricing_plan_id":"cebpf4jnsgd1na2vs0mg"},{"bike_id":"646ba954-815a-4ccd-8b80-50c81b3fd373","system_id":"levelo_inurba_marseille","lat":43.30205,"lon":5.39463,"is_reserved":false,"is_disabled":false,"rental_uris":{"android":"levelo://app?vid=646ba954-815a-4ccd-8b80-50c81b3fd373","ios":"levelo://app?vid=646ba954-815a-4ccd-8b80-50c81b3fd373"},"vehicle_type_id":"4","last_reported":1746810545,"current_range_meters":8000,"station_id":"","pricing_plan_id":"cebpf4jnsgd1na2vs0mg"},{"bike_id":"7a70bd67-ef32-4c57-b6c2-6bf8fc51054f","system_id":"levelo_inurba_marseille","lat":43.27952,"lon":5.41775,"is_reserved":false,"is_disabled":false,"rental_uris":{"android":"levelo://app?vid=7a70bd67-ef32-4c57-b6c2-6bf8fc51054f","ios":"levelo://app?vid=7a70bd67-ef32-4c57-b6c2-6bf8fc51054f"},"vehicle_type_id":"4","last_reported":1746810545,"current_range_meters":8000,"station_id":"","pricing_plan_id":"cebpf4jnsgd1na2vs0mg"},{"bike_id":"65410890-b8cb-4d06-bd6a-e670b7f1256a","system_id":"levelo_inurba_marseille","lat":43.286594,"lon":5.386665,"is_reserved":false,"is_disabled":false,"rental_uris":{"android":"levelo://app?vid=65410890-b8cb-4d06-bd6a-e670b7f1256a","ios":"levelo://app?vid=65410890-b8cb-4d06-bd6a-e670b7f1256a"},"vehicle_type_id":"4","last_reported":1746810545,"current_range_meters":8000,"station_id":"ce4bh492rcd13ifvqdug","pricing_plan_id":"cebpf4jnsgd1na2vs0mg"},{"bike_id":"25fa4ded-a552-46a9-a3f7-85cf84ea20e7","system_id":"levelo_inurba_marseille","lat":43.24181,"lon":5.39732,"is_reserved":false,"is_disabled":false,"rental_uris":{"android":"levelo://app?vid=25fa4ded-a552-46a9-a3f7-85cf84ea20e7","ios":"levelo://app?vid=25fa4ded-a552-46a9-a3f7-85cf84ea20e7"},"vehicle_type_id":"4","last_reported":1746810545,"current_range_meters":8000,"station_id":"ce4bhn12rcd13ifvqgpg","pricing_plan_id":"cebpf4jnsgd1na2vs0mg"},{"bike_id":"8eccc4be-56cb-47dc-a32f-5996e2ca7926","system_id":"levelo_inurba_marseille","lat":43.29032,"lon":5.37566,"is_reserved":false,"is_disabled":false,"rental_uris":{"android":"levelo://app?vid=8eccc4be-56cb-47dc-a32f-5996e2ca7926","ios":"levelo://app?vid=8eccc4be-56cb-47dc-a32f-5996e2ca7926"},"vehicle_type_id":"4","last_reported":1746810545,"current_range_meters":8000,"station_id":"ce4bh692rcd13ifvqe90","pricing_plan_id":"cebpf4jnsgd1na2vs0mg"},{"bike_id":"4392a77b-c6a9-441c-9b6e-8bfc6f9fb7b3","system_id":"levelo_inurba_marseille","lat":43.28152,"lon":5.426477,"is_reserved":false,"is_disabled":false,"rental_uris":{"android":"levelo://app?vid=4392a77b-c6a9-441c-9b6e-8bfc6f9fb7b3","ios":"levelo://app?vid=4392a77b-c6a9-441c-9b6e-8bfc6f9fb7b3"},"vehicle_type_id":"4","last_reported":1746810545,"current_range_meters":8000,"station_id":"ce4bhnh2rcd13ifvqgug","pricing_plan_id":"cebpf4jnsgd1na2vs0mg"},{"bike_id":"0f5ca589-0ef7-428d-94ec-f0fc8b76ceb4","system_id":"levelo_inurba_marseille","lat":43.28155,"lon":5.42651,"is_reserved":false,"is_disabled":false,"rental_uris":{"android":"levelo://app?vid=0f5ca589-0ef7-428d-94ec-f0fc8b76ceb4","ios":"levelo://app?vid=0f5ca589-0ef7-428d-94ec-f0fc8b76ceb4"},"vehicle_type_id":"4","last_reported":1746810545,"current_range_meters":8400,"station_id":"ce4bhnh2rcd13ifvqgug","pricing_plan_id":"cebpf4jnsgd1na2vs0mg"},{"bike_id":"283c096d-9775-40df-9ef5-3ff56b9146cb","system_id":"levelo_inurba_marseille","lat":43.229274,"lon":5.3538,"is_reserved":false,"is_disabled":true,"rental_uris":{"android":"levelo://app?vid=283c096d-9775-40df-9ef5-3ff56b9146cb","ios":"levelo://app?vid=283c096d-9775-40df-9ef5-3ff56b9146cb"},"vehicle_type_id":"4","last_reported":1746810545,"current_range_meters":8400,"station_id":"cpo3532slgdg3j2ikp40","pricing_plan_id":"cebpf4jnsgd1na2vs0mg"},{"bike_id":"caf9033d-5f00-49c3-b1ee-1328b62008dc","system_id":"levelo_inurba_marseille","lat":43.33578,"lon":5.42817,"is_reserved":false,"is_disabled":false,"rental_uris":{"android":"levelo://app?vid=caf9033d-5f00-49c3-b1ee-1328b62008dc","ios":"levelo://app?vid=caf9033d-5f00-49c3-b1ee-1328b62008dc"},"vehicle_type_id":"4","last_reported":1746810545,"current_range_meters":8400,"station_id":"","pricing_plan_id":"cebpf4jnsgd1na2vs0mg"},{"bike_id":"86bc8c3e-b40f-4494-bcaf-2c13ca119bd5","system_id":"levelo_inurba_marseille","lat":43.28171,"lon":5.42609,"is_reserved":false,"is_disabled":false,"rental_uris":{"android":"levelo://app?vid=86bc8c3e-b40f-4494-bcaf-2c13ca119bd5","ios":"levelo://app?vid=86bc8c3e-b40f-4494-bcaf-2c13ca119bd5"},"vehicle_type_id":"4","last_reported":1746810545,"current_range_meters":8400,"station_id":"ce4bhnh2rcd13ifvqgug","pricing_plan_id":"cebpf4jnsgd1na2vs0mg"},{"bike_id":"5e8cf154-0eb5-4091-aff4-0926d0794ef3","system_id":"levelo_inurba_marseille","lat":43.27995,"lon":5.40014,"is_reserved":false,"is_disabled":false,"rental_uris":{"android":"levelo://app?vid=5e8cf154-0eb5-4091-aff4-0926d0794ef3","ios":"levelo://app?vid=5e8cf154-0eb5-4091-aff4-0926d0794ef3"},"vehicle_type_id":"4","last_reported":1746810545,"current_range_meters":8400,"station_id":"ce4bho92rcd13ifvqh4g","pricing_plan_id":"cebpf4jnsgd1na2vs0mg"},{"bike_id":"a1bf28d2-3052-47de-a759-634ae7b18821","system_id":"levelo_inurba_marseille","lat":43.25501,"lon":5.37648,"is_reserved":false,"is_disabled":false,"rental_uris":{"android":"levelo://app?vid=a1bf28d2-3052-47de-a759-634ae7b18821","ios":"levelo://app?vid=a1bf28d2-3052-47de-a759-634ae7b18821"},"vehicle_type_id":"4","last_reported":1746810545,"current_range_meters":8800,"station_id":"ce4bhh12rcd13ifvqff0","pricing_plan_id":"cebpf4jnsgd1na2vs0mg"},{"bike_id":"589d5d5b-db42-4542-92dd-6d3f21109017","system_id":"levelo_inurba_marseille","lat":43.3022,"lon":5.45414,"is_reserved":false,"is_disabled":false,"rental_uris":{"android":"levelo://app?vid=589d5d5b-db42-4542-92dd-6d3f21109017","ios":"levelo://app?vid=589d5d5b-db42-4542-92dd-6d3f21109017"},"vehicle_type_id":"4","last_reported":1746810545,"current_range_meters":8800,"station_id":"","pricing_plan_id":"cebpf4jnsgd1na2vs0mg"},{"bike_id":"812e31b7-42f9-4d63-b220-e99af5c192ed","system_id":"levelo_inurba_marseille","lat":43.31201,"lon":5.4161,"is_reserved":false,"is_disabled":false,"rental_uris":{"android":"levelo://app?vid=812e31b7-42f9-4d63-b220-e99af5c192ed","ios":"levelo://app?vid=812e31b7-42f9-4d63-b220-e99af5c192ed"},"vehicle_type_id":"4","last_reported":1746810545,"current_range_meters":8800,"station_id":"","pricing_plan_id":"cebpf4jnsgd1na2vs0mg"},{"bike_id":"2d33e413-3dcd-4977-b315-29e4804a1ab2","system_id":"levelo_inurba_marseille","lat":43.26197,"lon":5.37448,"is_reserved":false,"is_disabled":false,"rental_uris":{"android":"levelo://app?vid=2d33e413-3dcd-4977-b315-29e4804a1ab2","ios":"levelo://app?vid=2d33e413-3dcd-4977-b315-29e4804a1ab2"},"vehicle_type_id":"4","last_reported":1746810545,"current_range_meters":9200,"station_id":"ce4bhgp2rcd13ifvqfc0","pricing_plan_id":"cebpf4jnsgd1na2vs0mg"},{"bike_id":"a5035683-e922-4659-b77f-9b07031bc84e","system_id":"levelo_inurba_marseille","lat":43.21759,"lon":5.34595,"is_reserved":false,"is_disabled":true,"rental_uris":{"android":"levelo://app?vid=a5035683-e922-4659-b77f-9b07031bc84e","ios":"levelo://app?vid=a5035683-e922-4659-b77f-9b07031bc84e"},"vehicle_type_id":"4","last_reported":1746810545,"current_range_meters":9200,"station_id":"st_cvj6r9ubvosntc0bgbag","pricing_plan_id":"cebpf4jnsgd1na2vs0mg"},{"bike_id":"3a965e32-0e21-402c-babe-9fa80d6674d3","system_id":"levelo_inurba_marseille","lat":43.27216,"lon":5.40972,"is_reserved":false,"is_disabled":false,"rental_uris":{"android":"levelo://app?vid=3a965e32-0e21-402c-babe-9fa80d6674d3","ios":"levelo://app?vid=3a965e32-0e21-402c-babe-9fa80d6674d3"},"vehicle_type_id":"4","last_reported":1746810545,"current_range_meters":9200,"station_id":"","pricing_plan_id":"cebpf4jnsgd1na2vs0mg"},{"bike_id":"4deef5fd-a912-43e8-acab-7ba6af6decec","system_id":"levelo_inurba_marseille","lat":43.2814,"lon":5.42663,"is_reserved":false,"is_disabled":false,"rental_uris":{"android":"levelo://app?vid=4deef5fd-a912-43e8-acab-7ba6af6decec","ios":"levelo://app?vid=4deef5fd-a912-43e8-acab-7ba6af6decec"},"vehicle_type_id":"4","last_reported":1746810545,"current_range_meters":9200,"station_id":"ce4bhnh2rcd13ifvqgug","pricing_plan_id":"cebpf4jnsgd1na2vs0mg"},{"bike_id":"7a5fadd3-8c62-41d9-a6bb-67d5e88b5d9f","system_id":"levelo_inurba_marseille","lat":43.31725,"lon":5.40444,"is_reserved":false,"is_disabled":false,"rental_uris":{"android":"levelo://app?vid=7a5fadd3-8c62-41d9-a6bb-67d5e88b5d9f","ios":"levelo://app?vid=7a5fadd3-8c62-41d9-a6bb-67d5e88b5d9f"},"vehicle_type_id":"4","last_reported":1746810545,"current_range_meters":9600,"station_id":"ce4bh012rcd13ifvqd00","pricing_plan_id":"cebpf4jnsgd1na2vs0mg"},{"bike_id":"caccb556-2ad0-45b8-84b8-819024dd44e6","system_id":"levelo_inurba_marseille","lat":43.297894,"lon":5.36789,"is_reserved":false,"is_disabled":false,"rental_uris":{"android":"levelo://app?vid=caccb556-2ad0-45b8-84b8-819024dd44e6","ios":"levelo://app?vid=caccb556-2ad0-45b8-84b8-819024dd44e6"},"vehicle_type_id":"4","last_reported":1746810545,"current_range_meters":9600,"station_id":"","pricing_plan_id":"cebpf4jnsgd1na2vs0mg"},{"bike_id":"d02d1804-b9ba-4fc2-8e74-5957f375c0e6","system_id":"levelo_inurba_marseille","lat":43.24805,"lon":5.37455,"is_reserved":false,"is_disabled":false,"rental_uris":{"android":"levelo://app?vid=d02d1804-b9ba-4fc2-8e74-5957f375c0e6","ios":"levelo://app?vid=d02d1804-b9ba-4fc2-8e74-5957f375c0e6"},"vehicle_type_id":"4","last_reported":1746810545,"current_range_meters":9600,"station_id":"ce4bhgh2rcd13ifvqfb0","pricing_plan_id":"cebpf4jnsgd1na2vs0mg"},{"bike_id":"d0fcc52a-c236-404d-8b13-255d77348371","system_id":"levelo_inurba_marseille","lat":43.31333,"lon":5.3969,"is_reserved":false,"is_disabled":false,"rental_uris":{"android":"levelo://app?vid=d0fcc52a-c236-404d-8b13-255d77348371","ios":"levelo://app?vid=d0fcc52a-c236-404d-8b13-255d77348371"},"vehicle_type_id":"4","last_reported":1746810545,"current_range_meters":9600,"station_id":"ce4bgvp2rcd13ifvqcu0","pricing_plan_id":"cebpf4jnsgd1na2vs0mg"},{"bike_id":"7bbddab9-ce58-49c5-8696-be4254399f31","system_id":"levelo_inurba_marseille","lat":43.29258,"lon":5.36847,"is_reserved":false,"is_disabled":true,"rental_uris":{"android":"levelo://app?vid=7bbddab9-ce58-49c5-8696-be4254399f31","ios":"levelo://app?vid=7bbddab9-ce58-49c5-8696-be4254399f31"},"vehicle_type_id":"4","last_reported":1746810545,"current_range_meters":9600,"station_id":"ce4bhbp2rcd13ifvqesg","pricing_plan_id":"cebpf4jnsgd1na2vs0mg"},{"bike_id":"1759becc-73ec-4c81-88af-356fac441646","system_id":"levelo_inurba_marseille","lat":43.29888,"lon":5.39728,"is_reserved":false,"is_disabled":false,"rental_uris":{"android":"levelo://app?vid=1759becc-73ec-4c81-88af-356fac441646","ios":"levelo://app?vid=1759becc-73ec-4c81-88af-356fac441646"},"vehicle_type_id":"4","last_reported":1746810545,"current_range_meters":10000,"station_id":"ce4bh0h2rcd13ifvqd50","pricing_plan_id":"cebpf4jnsgd1na2vs0mg"},{"bike_id":"7109da3d-3aea-48cf-a3c0-cd880a43accf","system_id":"levelo_inurba_marseille","lat":43.28939,"lon":5.36649,"is_reserved":false,"is_disabled":false,"rental_uris":{"android":"levelo://app?vid=7109da3d-3aea-48cf-a3c0-cd880a43accf","ios":"levelo://app?vid=7109da3d-3aea-48cf-a3c0-cd880a43accf"},"vehicle_type_id":"4","last_reported":1746810545,"current_range_meters":10000,"station_id":"ce4bhap2rcd13ifvqek0","pricing_plan_id":"cebpf4jnsgd1na2vs0mg"},{"bike_id":"51d0cb43-b907-4fea-a444-7b836beb81a6","system_id":"levelo_inurba_marseille","lat":43.28411,"lon":5.34976,"is_reserved":false,"is_disabled":false,"rental_uris":{"android":"levelo://app?vid=51d0cb43-b907-4fea-a444-7b836beb81a6","ios":"levelo://app?vid=51d0cb43-b907-4fea-a444-7b836beb81a6"},"vehicle_type_id":"4","last_reported":1746810545,"current_range_meters":10000,"station_id":"ce4bhbh2rcd13ifvqepg","pricing_plan_id":"cebpf4jnsgd1na2vs0mg"},{"bike_id":"b0c54ead-2c9a-4d45-904a-5e1b9abf7338","system_id":"levelo_inurba_marseille","lat":43.27901,"lon":5.44111,"is_reserved":false,"is_disabled":false,"rental_uris":{"android":"levelo://app?vid=b0c54ead-2c9a-4d45-904a-5e1b9abf7338","ios":"levelo://app?vid=b0c54ead-2c9a-4d45-904a-5e1b9abf7338"},"vehicle_type_id":"4","last_reported":1746810545,"current_range_meters":10000,"station_id":"","pricing_plan_id":"cebpf4jnsgd1na2vs0mg"},{"bike_id":"3c7670ff-3628-42b4-8ea8-664d4fa357dd","system_id":"levelo_inurba_marseille","lat":43.28,"lon":5.41663,"is_reserved":false,"is_disabled":false,"rental_uris":{"android":"levelo://app?vid=3c7670ff-3628-42b4-8ea8-664d4fa357dd","ios":"levelo://app?vid=3c7670ff-3628-42b4-8ea8-664d4fa357dd"},"vehicle_type_id":"4","last_reported":1746810545,"current_range_meters":10000,"station_id":"ce4bho12rcd13ifvqh1g","pricing_plan_id":"cebpf4jnsgd1na2vs0mg"},{"bike_id":"a29542ce-7eb2-4976-b3f1-2dace36bc04a","system_id":"levelo_inurba_marseille","lat":43.29032,"lon":5.35609,"is_reserved":false,"is_disabled":false,"rental_uris":{"android":"levelo://app?vid=a29542ce-7eb2-4976-b3f1-2dace36bc04a","ios":"levelo://app?vid=a29542ce-7eb2-4976-b3f1-2dace36bc04a"},"vehicle_type_id":"4","last_reported":1746810545,"current_range_meters":10000,"station_id":"ce4bhb92rcd13ifvqen0","pricing_plan_id":"cebpf4jnsgd1na2vs0mg"},{"bike_id":"b4a7070a-af37-48be-94c9-e3a4aaa47762","system_id":"levelo_inurba_marseille","lat":43.2693,"lon":5.38923,"is_reserved":false,"is_disabled":false,"rental_uris":{"android":"levelo://app?vid=b4a7070a-af37-48be-94c9-e3a4aaa47762","ios":"levelo://app?vid=b4a7070a-af37-48be-94c9-e3a4aaa47762"},"vehicle_type_id":"4","last_reported":1746810545,"current_range_meters":10000,"station_id":"ce4bhhh2rcd13ifvqfl0","pricing_plan_id":"cebpf4jnsgd1na2vs0mg"},{"bike_id":"c2a33f68-1a61-4786-9af9-d925692d410f","system_id":"levelo_inurba_marseille","lat":43.24805,"lon":5.37456,"is_reserved":false,"is_disabled":false,"rental_uris":{"android":"levelo://app?vid=c2a33f68-1a61-4786-9af9-d925692d410f","ios":"levelo://app?vid=c2a33f68-1a61-4786-9af9-d925692d410f"},"vehicle_type_id":"4","last_reported":1746810545,"current_range_meters":10000,"station_id":"ce4bhgh2rcd13ifvqfb0","pricing_plan_id":"cebpf4jnsgd1na2vs0mg"},{"bike_id":"b5abaa59-aabc-4b95-9b88-ab5d0418902d","system_id":"levelo_inurba_marseille","lat":43.3373,"lon":5.39185,"is_reserved":false,"is_disabled":false,"rental_uris":{"android":"levelo://app?vid=b5abaa59-aabc-4b95-9b88-ab5d0418902d","ios":"levelo://app?vid=b5abaa59-aabc-4b95-9b88-ab5d0418902d"},"vehicle_type_id":"4","last_reported":1746810545,"current_range_meters":10800,"station_id":"ce4bhr92rcd13ifvqhsg","pricing_plan_id":"cebpf4jnsgd1na2vs0mg"},{"bike_id":"dd6e41a0-037c-4e83-aa3b-a52e85dfae0a","system_id":"levelo_inurba_marseille","lat":43.23179,"lon":5.39995,"is_reserved":false,"is_disabled":false,"rental_uris":{"android":"levelo://app?vid=dd6e41a0-037c-4e83-aa3b-a52e85dfae0a","ios":"levelo://app?vid=dd6e41a0-037c-4e83-aa3b-a52e85dfae0a"},"vehicle_type_id":"4","last_reported":1746810545,"current_range_meters":10800,"station_id":"ce4bhn12rcd13ifvqgqg","pricing_plan_id":"cebpf4jnsgd1na2vs0mg"},{"bike_id":"36727bfd-c924-4146-8478-15477e61e4f2","system_id":"levelo_inurba_marseille","lat":43.26499,"lon":5.3955,"is_reserved":false,"is_disabled":false,"rental_uris":{"android":"levelo://app?vid=36727bfd-c924-4146-8478-15477e61e4f2","ios":"levelo://app?vid=36727bfd-c924-4146-8478-15477e61e4f2"},"vehicle_type_id":"4","last_reported":1746810545,"current_range_meters":10800,"station_id":"ce4bhi12rcd13ifvqfq0","pricing_plan_id":"cebpf4jnsgd1na2vs0mg"},{"bike_id":"044478cb-8194-4092-b984-4fc9c042ef68","system_id":"levelo_inurba_marseille","lat":43.28764,"lon":5.46507,"is_reserved":false,"is_disabled":false,"rental_uris":{"android":"levelo://app?vid=044478cb-8194-4092-b984-4fc9c042ef68","ios":"levelo://app?vid=044478cb-8194-4092-b984-4fc9c042ef68"},"vehicle_type_id":"4","last_reported":1746810545,"current_range_meters":10800,"station_id":"","pricing_plan_id":"cebpf4jnsgd1na2vs0mg"},{"bike_id":"f8bd5ba1-0844-4c6d-9b78-f958f1313745","system_id":"levelo_inurba_marseille","lat":43.293453,"lon":5.428613,"is_reserved":false,"is_disabled":false,"rental_uris":{"android":"levelo://app?vid=f8bd5ba1-0844-4c6d-9b78-f958f1313745","ios":"levelo://app?vid=f8bd5ba1-0844-4c6d-9b78-f958f1313745"},"vehicle_type_id":"4","last_reported":1746810545,"current_range_meters":10800,"station_id":"","pricing_plan_id":"cebpf4jnsgd1na2vs0mg"},{"bike_id":"2fe4eaf9-281e-4ad3-84e3-4efcddb0104b","system_id":"levelo_inurba_marseille","lat":43.2315,"lon":5.4372,"is_reserved":false,"is_disabled":false,"rental_uris":{"android":"levelo://app?vid=2fe4eaf9-281e-4ad3-84e3-4efcddb0104b","ios":"levelo://app?vid=2fe4eaf9-281e-4ad3-84e3-4efcddb0104b"},"vehicle_type_id":"4","last_reported":1746810545,"current_range_meters":10800,"station_id":"ce4bhmp2rcd13ifvqgog","pricing_plan_id":"cebpf4jnsgd1na2vs0mg"},{"bike_id":"9de2891b-a048-4cb7-b026-c3b853e57f10","system_id":"levelo_inurba_marseille","lat":43.2315,"lon":5.43723,"is_reserved":false,"is_disabled":false,"rental_uris":{"android":"levelo://app?vid=9de2891b-a048-4cb7-b026-c3b853e57f10","ios":"levelo://app?vid=9de2891b-a048-4cb7-b026-c3b853e57f10"},"vehicle_type_id":"4","last_reported":1746810545,"current_range_meters":10800,"station_id":"ce4bhmp2rcd13ifvqgog","pricing_plan_id":"cebpf4jnsgd1na2vs0mg"},{"bike_id":"20e5509b-05bf-44ad-b4a5-4d24ec053cab","system_id":"levelo_inurba_marseille","lat":43.24389,"lon":5.37062,"is_reserved":false,"is_disabled":false,"rental_uris":{"android":"levelo://app?vid=20e5509b-05bf-44ad-b4a5-4d24ec053cab","ios":"levelo://app?vid=20e5509b-05bf-44ad-b4a5-4d24ec053cab"},"vehicle_type_id":"4","last_reported":1746810545,"current_range_meters":10800,"station_id":"ce4bhhh2rcd13ifvqfk0","pricing_plan_id":"cebpf4jnsgd1na2vs0mg"},{"bike_id":"33995915-dc50-4b94-a241-e612ef51d7b6","system_id":"levelo_inurba_marseille","lat":43.31362,"lon":5.38489,"is_reserved":false,"is_disabled":false,"rental_uris":{"android":"levelo://app?vid=33995915-dc50-4b94-a241-e612ef51d7b6","ios":"levelo://app?vid=33995915-dc50-4b94-a241-e612ef51d7b6"},"vehicle_type_id":"4","last_reported":1746810545,"current_range_meters":11200,"station_id":"ce4bgt92rcd13ifvqcf0","pricing_plan_id":"cebpf4jnsgd1na2vs0mg"},{"bike_id":"d754871d-da93-4db3-8abc-89114e638e29","system_id":"levelo_inurba_marseille","lat":43.29004,"lon":5.3561,"is_reserved":false,"is_disabled":false,"rental_uris":{"android":"levelo://app?vid=d754871d-da93-4db3-8abc-89114e638e29","ios":"levelo://app?vid=d754871d-da93-4db3-8abc-89114e638e29"},"vehicle_type_id":"4","last_reported":1746810545,"current_range_meters":10800,"station_id":"ce4bhb92rcd13ifvqen0","pricing_plan_id":"cebpf4jnsgd1na2vs0mg"},{"bike_id":"6aebeb53-c8ce-46c7-8042-3859d0c39c31","system_id":"levelo_inurba_marseille","lat":43.29084,"lon":5.37161,"is_reserved":false,"is_disabled":false,"rental_uris":{"android":"levelo://app?vid=6aebeb53-c8ce-46c7-8042-3859d0c39c31","ios":"levelo://app?vid=6aebeb53-c8ce-46c7-8042-3859d0c39c31"},"vehicle_type_id":"4","last_reported":1746810545,"current_range_meters":11200,"station_id":"ce4bh5p2rcd13ifvqe4g","pricing_plan_id":"cebpf4jnsgd1na2vs0mg"},{"bike_id":"345ce1fb-b861-4aee-8c4c-ecef8dad57fb","system_id":"levelo_inurba_marseille","lat":43.24381,"lon":5.37056,"is_reserved":false,"is_disabled":false,"rental_uris":{"android":"levelo://app?vid=345ce1fb-b861-4aee-8c4c-ecef8dad57fb","ios":"levelo://app?vid=345ce1fb-b861-4aee-8c4c-ecef8dad57fb"},"vehicle_type_id":"4","last_reported":1746810545,"current_range_meters":11200,"station_id":"ce4bhhh2rcd13ifvqfk0","pricing_plan_id":"cebpf4jnsgd1na2vs0mg"},{"bike_id":"e493c9a1-6a7d-4643-a37d-e07a2ad288bb","system_id":"levelo_inurba_marseille","lat":43.28701,"lon":5.37385,"is_reserved":false,"is_disabled":false,"rental_uris":{"android":"levelo://app?vid=e493c9a1-6a7d-4643-a37d-e07a2ad288bb","ios":"levelo://app?vid=e493c9a1-6a7d-4643-a37d-e07a2ad288bb"},"vehicle_type_id":"4","last_reported":1746810545,"current_range_meters":11600,"station_id":"ce4bh3p2rcd13ifvqdq0","pricing_plan_id":"cebpf4jnsgd1na2vs0mg"},{"bike_id":"efe74b90-a726-4188-91af-d2dc51f91b7b","system_id":"levelo_inurba_marseille","lat":43.29308,"lon":5.37184,"is_reserved":false,"is_disabled":false,"rental_uris":{"android":"levelo://app?vid=efe74b90-a726-4188-91af-d2dc51f91b7b","ios":"levelo://app?vid=efe74b90-a726-4188-91af-d2dc51f91b7b"},"vehicle_type_id":"4","last_reported":1746810545,"current_range_meters":11200,"station_id":"ce4bgh92rcd13ifvqb40","pricing_plan_id":"cebpf4jnsgd1na2vs0mg"},{"bike_id":"ead2ec5c-12e4-432d-be08-f92fe4e4390a","system_id":"levelo_inurba_marseille","lat":43.29266,"lon":5.38439,"is_reserved":false,"is_disabled":false,"rental_uris":{"android":"levelo://app?vid=ead2ec5c-12e4-432d-be08-f92fe4e4390a","ios":"levelo://app?vid=ead2ec5c-12e4-432d-be08-f92fe4e4390a"},"vehicle_type_id":"4","last_reported":1746810545,"current_range_meters":11600,"station_id":"ce4bh692rcd13ifvqea0","pricing_plan_id":"cebpf4jnsgd1na2vs0mg"},{"bike_id":"19004860-33a3-468f-93ae-7f012d3fb49a","system_id":"levelo_inurba_marseille","lat":43.28613,"lon":5.35105,"is_reserved":false,"is_disabled":false,"rental_uris":{"android":"levelo://app?vid=19004860-33a3-468f-93ae-7f012d3fb49a","ios":"levelo://app?vid=19004860-33a3-468f-93ae-7f012d3fb49a"},"vehicle_type_id":"4","last_reported":1746810545,"current_range_meters":11600,"station_id":"ce4bhch2rcd13ifvqeug","pricing_plan_id":"cebpf4jnsgd1na2vs0mg"},{"bike_id":"47bb6f34-9c89-4a6c-b2ec-6a2d3e007f08","system_id":"levelo_inurba_marseille","lat":43.25733,"lon":5.41121,"is_reserved":false,"is_disabled":false,"rental_uris":{"android":"levelo://app?vid=47bb6f34-9c89-4a6c-b2ec-6a2d3e007f08","ios":"levelo://app?vid=47bb6f34-9c89-4a6c-b2ec-6a2d3e007f08"},"vehicle_type_id":"4","last_reported":1746810545,"current_range_meters":11600,"station_id":"ce4bhkp2rcd13ifvqgd0","pricing_plan_id":"cebpf4jnsgd1na2vs0mg"},{"bike_id":"9a09d5c8-72d5-4e11-9673-2352e33a38cf","system_id":"levelo_inurba_marseille","lat":43.24069,"lon":5.37765,"is_reserved":false,"is_disabled":false,"rental_uris":{"android":"levelo://app?vid=9a09d5c8-72d5-4e11-9673-2352e33a38cf","ios":"levelo://app?vid=9a09d5c8-72d5-4e11-9673-2352e33a38cf"},"vehicle_type_id":"4","last_reported":1746810545,"current_range_meters":11600,"station_id":"ce4bhnp2rcd13ifvqgvg","pricing_plan_id":"cebpf4jnsgd1na2vs0mg"},{"bike_id":"ece27808-caa3-4deb-96c7-04097c718c7c","system_id":"levelo_inurba_marseille","lat":43.28651,"lon":5.39947,"is_reserved":false,"is_disabled":true,"rental_uris":{"android":"levelo://app?vid=ece27808-caa3-4deb-96c7-04097c718c7c","ios":"levelo://app?vid=ece27808-caa3-4deb-96c7-04097c718c7c"},"vehicle_type_id":"4","last_reported":1746810545,"current_range_meters":11600,"station_id":"","pricing_plan_id":"cebpf4jnsgd1na2vs0mg"},{"bike_id":"64752608-0450-41cc-958d-aae05ca0de51","system_id":"levelo_inurba_marseille","lat":43.28083,"lon":5.39654,"is_reserved":false,"is_disabled":false,"rental_uris":{"android":"levelo://app?vid=64752608-0450-41cc-958d-aae05ca0de51","ios":"levelo://app?vid=64752608-0450-41cc-958d-aae05ca0de51"},"vehicle_type_id":"4","last_reported":1746810545,"current_range_meters":11600,"station_id":"ce4bho12rcd13ifvqh2g","pricing_plan_id":"cebpf4jnsgd1na2vs0mg"},{"bike_id":"dac3c894-cadb-4b79-9ba0-abc0602e3270","system_id":"levelo_inurba_marseille","lat":43.295222,"lon":5.39408,"is_reserved":false,"is_disabled":false,"rental_uris":{"android":"levelo://app?vid=dac3c894-cadb-4b79-9ba0-abc0602e3270","ios":"levelo://app?vid=dac3c894-cadb-4b79-9ba0-abc0602e3270"},"vehicle_type_id":"4","last_reported":1746810545,"current_range_meters":12000,"station_id":"ce4bh292rcd13ifvqdf0","pricing_plan_id":"cebpf4jnsgd1na2vs0mg"},{"bike_id":"9cb56601-d547-4065-8776-c68a4c56cba5","system_id":"levelo_inurba_marseille","lat":43.29278,"lon":5.38431,"is_reserved":false,"is_disabled":false,"rental_uris":{"android":"levelo://app?vid=9cb56601-d547-4065-8776-c68a4c56cba5","ios":"levelo://app?vid=9cb56601-d547-4065-8776-c68a4c56cba5"},"vehicle_type_id":"4","last_reported":1746810545,"current_range_meters":12400,"station_id":"ce4bh692rcd13ifvqea0","pricing_plan_id":"cebpf4jnsgd1na2vs0mg"},{"bike_id":"1dce7141-6447-4725-8534-18848c26f2f4","system_id":"levelo_inurba_marseille","lat":43.24809,"lon":5.37456,"is_reserved":false,"is_disabled":false,"rental_uris":{"android":"levelo://app?vid=1dce7141-6447-4725-8534-18848c26f2f4","ios":"levelo://app?vid=1dce7141-6447-4725-8534-18848c26f2f4"},"vehicle_type_id":"4","last_reported":1746810545,"current_range_meters":12400,"station_id":"ce4bhgh2rcd13ifvqfb0","pricing_plan_id":"cebpf4jnsgd1na2vs0mg"},{"bike_id":"0f09929d-9ef4-41ed-84a5-290a6b80250c","system_id":"levelo_inurba_marseille","lat":43.25719,"lon":5.41118,"is_reserved":false,"is_disabled":false,"rental_uris":{"android":"levelo://app?vid=0f09929d-9ef4-41ed-84a5-290a6b80250c","ios":"levelo://app?vid=0f09929d-9ef4-41ed-84a5-290a6b80250c"},"vehicle_type_id":"4","last_reported":1746810545,"current_range_meters":12400,"station_id":"ce4bhkp2rcd13ifvqgd0","pricing_plan_id":"cebpf4jnsgd1na2vs0mg"},{"bike_id":"47e3b9fb-7fe8-4e14-913c-ae7189f02cb0","system_id":"levelo_inurba_marseille","lat":43.30634,"lon":5.40097,"is_reserved":false,"is_disabled":false,"rental_uris":{"android":"levelo://app?vid=47e3b9fb-7fe8-4e14-913c-ae7189f02cb0","ios":"levelo://app?vid=47e3b9fb-7fe8-4e14-913c-ae7189f02cb0"},"vehicle_type_id":"4","last_reported":1746810545,"current_range_meters":12400,"station_id":"ce4bh112rcd13ifvqda0","pricing_plan_id":"cebpf4jnsgd1na2vs0mg"},{"bike_id":"e6282093-23fb-41a9-859d-c0d9ad966535","system_id":"levelo_inurba_marseille","lat":43.31545,"lon":5.3823,"is_reserved":false,"is_disabled":false,"rental_uris":{"android":"levelo://app?vid=e6282093-23fb-41a9-859d-c0d9ad966535","ios":"levelo://app?vid=e6282093-23fb-41a9-859d-c0d9ad966535"},"vehicle_type_id":"4","last_reported":1746810545,"current_range_meters":12800,"station_id":"","pricing_plan_id":"cebpf4jnsgd1na2vs0mg"},{"bike_id":"e62d7219-d58e-4cdd-8080-935e117b0bfd","system_id":"levelo_inurba_marseille","lat":43.28637,"lon":5.35085,"is_reserved":false,"is_disabled":false,"rental_uris":{"android":"levelo://app?vid=e62d7219-d58e-4cdd-8080-935e117b0bfd","ios":"levelo://app?vid=e62d7219-d58e-4cdd-8080-935e117b0bfd"},"vehicle_type_id":"4","last_reported":1746810545,"current_range_meters":12800,"station_id":"ce4bhch2rcd13ifvqeug","pricing_plan_id":"cebpf4jnsgd1na2vs0mg"},{"bike_id":"9792aee6-764a-42f1-9e8d-f6fa2730ea8d","system_id":"levelo_inurba_marseille","lat":43.29597,"lon":5.381,"is_reserved":false,"is_disabled":false,"rental_uris":{"android":"levelo://app?vid=9792aee6-764a-42f1-9e8d-f6fa2730ea8d","ios":"levelo://app?vid=9792aee6-764a-42f1-9e8d-f6fa2730ea8d"},"vehicle_type_id":"4","last_reported":1746810545,"current_range_meters":12400,"station_id":"ce4bgl12rcd13ifvqbo0","pricing_plan_id":"cebpf4jnsgd1na2vs0mg"},{"bike_id":"86a85c38-4fba-4c4c-bd47-f5ae351d9df5","system_id":"levelo_inurba_marseille","lat":43.30867,"lon":5.39642,"is_reserved":false,"is_disabled":false,"rental_uris":{"android":"levelo://app?vid=86a85c38-4fba-4c4c-bd47-f5ae351d9df5","ios":"levelo://app?vid=86a85c38-4fba-4c4c-bd47-f5ae351d9df5"},"vehicle_type_id":"4","last_reported":1746810545,"current_range_meters":12800,"station_id":"ce4bh012rcd13ifvqcv0","pricing_plan_id":"cebpf4jnsgd1na2vs0mg"},{"bike_id":"40e732e1-5df3-409b-823c-91d552e297a0","system_id":"levelo_inurba_marseille","lat":43.30809,"lon":5.43515,"is_reserved":false,"is_disabled":false,"rental_uris":{"android":"levelo://app?vid=40e732e1-5df3-409b-823c-91d552e297a0","ios":"levelo://app?vid=40e732e1-5df3-409b-823c-91d552e297a0"},"vehicle_type_id":"4","last_reported":1746810545,"current_range_meters":13600,"station_id":"ce4bhph2rcd13ifvqheg","pricing_plan_id":"cebpf4jnsgd1na2vs0mg"},{"bike_id":"257486f5-03bd-4b74-b96f-72b61bd25309","system_id":"levelo_inurba_marseille","lat":43.2858,"lon":5.35086,"is_reserved":false,"is_disabled":false,"rental_uris":{"android":"levelo://app?vid=257486f5-03bd-4b74-b96f-72b61bd25309","ios":"levelo://app?vid=257486f5-03bd-4b74-b96f-72b61bd25309"},"vehicle_type_id":"4","last_reported":1746810545,"current_range_meters":13600,"station_id":"ce4bhch2rcd13ifvqeug","pricing_plan_id":"cebpf4jnsgd1na2vs0mg"},{"bike_id":"0a0d79df-bd29-44c4-a063-3a58924c071a","system_id":"levelo_inurba_marseille","lat":43.31713,"lon":5.4371,"is_reserved":false,"is_disabled":false,"rental_uris":{"android":"levelo://app?vid=0a0d79df-bd29-44c4-a063-3a58924c071a","ios":"levelo://app?vid=0a0d79df-bd29-44c4-a063-3a58924c071a"},"vehicle_type_id":"4","last_reported":1746810545,"current_range_meters":13600,"station_id":"ce4bhp92rcd13ifvqhcg","pricing_plan_id":"cebpf4jnsgd1na2vs0mg"},{"bike_id":"0cba2588-f0b4-4c5b-aeab-0ec8bbbf3064","system_id":"levelo_inurba_marseille","lat":43.25589,"lon":5.38309,"is_reserved":false,"is_disabled":false,"rental_uris":{"android":"levelo://app?vid=0cba2588-f0b4-4c5b-aeab-0ec8bbbf3064","ios":"levelo://app?vid=0cba2588-f0b4-4c5b-aeab-0ec8bbbf3064"},"vehicle_type_id":"4","last_reported":1746810545,"current_range_meters":14000,"station_id":"ce4bhih2rcd13ifvqfs0","pricing_plan_id":"cebpf4jnsgd1na2vs0mg"},{"bike_id":"d388abd5-c0e6-48dd-a7fc-1d6206199050","system_id":"levelo_inurba_marseille","lat":43.34137,"lon":5.36091,"is_reserved":false,"is_disabled":false,"rental_uris":{"android":"levelo://app?vid=d388abd5-c0e6-48dd-a7fc-1d6206199050","ios":"levelo://app?vid=d388abd5-c0e6-48dd-a7fc-1d6206199050"},"vehicle_type_id":"4","last_reported":1746810545,"current_range_meters":14000,"station_id":"","pricing_plan_id":"cebpf4jnsgd1na2vs0mg"},{"bike_id":"93899956-e1d4-4300-99f9-81445607a0e8","system_id":"levelo_inurba_marseille","lat":43.28857,"lon":5.35869,"is_reserved":false,"is_disabled":false,"rental_uris":{"android":"levelo://app?vid=93899956-e1d4-4300-99f9-81445607a0e8","ios":"levelo://app?vid=93899956-e1d4-4300-99f9-81445607a0e8"},"vehicle_type_id":"4","last_reported":1746810545,"current_range_meters":14000,"station_id":"ce4bhb12rcd13ifvqem0","pricing_plan_id":"cebpf4jnsgd1na2vs0mg"},{"bike_id":"2bcd659a-611c-43e2-89ef-f7e699246180","system_id":"levelo_inurba_marseille","lat":43.30244,"lon":5.40058,"is_reserved":false,"is_disabled":true,"rental_uris":{"android":"levelo://app?vid=2bcd659a-611c-43e2-89ef-f7e699246180","ios":"levelo://app?vid=2bcd659a-611c-43e2-89ef-f7e699246180"},"vehicle_type_id":"4","last_reported":1746810545,"current_range_meters":14400,"station_id":"ce4bgvh2rcd13ifvqcs0","pricing_plan_id":"cebpf4jnsgd1na2vs0mg"},{"bike_id":"1f2d53fb-62eb-4021-81a6-ba7c6649fb84","system_id":"levelo_inurba_marseille","lat":43.30558,"lon":5.36691,"is_reserved":false,"is_disabled":false,"rental_uris":{"android":"levelo://app?vid=1f2d53fb-62eb-4021-81a6-ba7c6649fb84","ios":"levelo://app?vid=1f2d53fb-62eb-4021-81a6-ba7c6649fb84"},"vehicle_type_id":"4","last_reported":1746810545,"current_range_meters":14400,"station_id":"ce4bgrp2rcd13ifvqc9g","pricing_plan_id":"cebpf4jnsgd1na2vs0mg"},{"bike_id":"6b07f5e7-a694-416e-b52a-c245c5288a57","system_id":"levelo_inurba_marseille","lat":43.29445,"lon":5.39735,"is_reserved":false,"is_disabled":false,"rental_uris":{"android":"levelo://app?vid=6b07f5e7-a694-416e-b52a-c245c5288a57","ios":"levelo://app?vid=6b07f5e7-a694-416e-b52a-c245c5288a57"},"vehicle_type_id":"4","last_reported":1746810545,"current_range_meters":14400,"station_id":"ce4bh3h2rcd13ifvqdo0","pricing_plan_id":"cebpf4jnsgd1na2vs0mg"},{"bike_id":"09e1dc14-26ac-446e-add0-27edb09cfb56","system_id":"levelo_inurba_marseille","lat":43.29277,"lon":5.36848,"is_reserved":false,"is_disabled":false,"rental_uris":{"android":"levelo://app?vid=09e1dc14-26ac-446e-add0-27edb09cfb56","ios":"levelo://app?vid=09e1dc14-26ac-446e-add0-27edb09cfb56"},"vehicle_type_id":"4","last_reported":1746810545,"current_range_meters":14400,"station_id":"","pricing_plan_id":"cebpf4jnsgd1na2vs0mg"},{"bike_id":"0112e015-663f-415e-9a8e-714ee0eca1e4","system_id":"levelo_inurba_marseille","lat":43.29841,"lon":5.36267,"is_reserved":false,"is_disabled":false,"rental_uris":{"android":"levelo://app?vid=0112e015-663f-415e-9a8e-714ee0eca1e4","ios":"levelo://app?vid=0112e015-663f-415e-9a8e-714ee0eca1e4"},"vehicle_type_id":"4","last_reported":1746810545,"current_range_meters":14400,"station_id":"ce4bgpp2rcd13ifvqc3g","pricing_plan_id":"cebpf4jnsgd1na2vs0mg"},{"bike_id":"e183bf8e-ebb5-4c91-9434-cdfe217d358f","system_id":"levelo_inurba_marseille","lat":43.262078,"lon":5.374198,"is_reserved":false,"is_disabled":false,"rental_uris":{"android":"levelo://app?vid=e183bf8e-ebb5-4c91-9434-cdfe217d358f","ios":"levelo://app?vid=e183bf8e-ebb5-4c91-9434-cdfe217d358f"},"vehicle_type_id":"4","last_reported":1746810545,"current_range_meters":14400,"station_id":"ce4bhgp2rcd13ifvqfc0","pricing_plan_id":"cebpf4jnsgd1na2vs0mg"},{"bike_id":"f6434407-c221-4f9d-828e-73dfee1c45fb","system_id":"levelo_inurba_marseille","lat":43.292727,"lon":5.368455,"is_reserved":false,"is_disabled":false,"rental_uris":{"android":"levelo://app?vid=f6434407-c221-4f9d-828e-73dfee1c45fb","ios":"levelo://app?vid=f6434407-c221-4f9d-828e-73dfee1c45fb"},"vehicle_type_id":"4","last_reported":1746810545,"current_range_meters":14400,"station_id":"ce4bhbp2rcd13ifvqesg","pricing_plan_id":"cebpf4jnsgd1na2vs0mg"},{"bike_id":"cfc24371-1dbb-47e2-ab98-22ee7bfe9524","system_id":"levelo_inurba_marseille","lat":43.292,"lon":5.35798,"is_reserved":false,"is_disabled":false,"rental_uris":{"android":"levelo://app?vid=cfc24371-1dbb-47e2-ab98-22ee7bfe9524","ios":"levelo://app?vid=cfc24371-1dbb-47e2-ab98-22ee7bfe9524"},"vehicle_type_id":"4","last_reported":1746810545,"current_range_meters":14400,"station_id":"ce4bhb12rcd13ifvqel0","pricing_plan_id":"cebpf4jnsgd1na2vs0mg"},{"bike_id":"c0f53e7d-bcca-4a81-8a92-fd276aec3dbc","system_id":"levelo_inurba_marseille","lat":43.21761,"lon":5.34579,"is_reserved":false,"is_disabled":false,"rental_uris":{"android":"levelo://app?vid=c0f53e7d-bcca-4a81-8a92-fd276aec3dbc","ios":"levelo://app?vid=c0f53e7d-bcca-4a81-8a92-fd276aec3dbc"},"vehicle_type_id":"4","last_reported":1746810545,"current_range_meters":14800,"station_id":"st_cvj6r9ubvosntc0bgbag","pricing_plan_id":"cebpf4jnsgd1na2vs0mg"},{"bike_id":"2fb3d06b-039b-4a7a-be1f-e389b38cb81f","system_id":"levelo_inurba_marseille","lat":43.24392,"lon":5.37062,"is_reserved":false,"is_disabled":false,"rental_uris":{"android":"levelo://app?vid=2fb3d06b-039b-4a7a-be1f-e389b38cb81f","ios":"levelo://app?vid=2fb3d06b-039b-4a7a-be1f-e389b38cb81f"},"vehicle_type_id":"4","last_reported":1746810545,"current_range_meters":14800,"station_id":"ce4bhhh2rcd13ifvqfk0","pricing_plan_id":"cebpf4jnsgd1na2vs0mg"},{"bike_id":"cc6f9c62-2924-4e7e-830b-b1eec505a08f","system_id":"levelo_inurba_marseille","lat":43.28281,"lon":5.35102,"is_reserved":false,"is_disabled":false,"rental_uris":{"android":"levelo://app?vid=cc6f9c62-2924-4e7e-830b-b1eec505a08f","ios":"levelo://app?vid=cc6f9c62-2924-4e7e-830b-b1eec505a08f"},"vehicle_type_id":"4","last_reported":1746810545,"current_range_meters":14800,"station_id":"ce4bhbp2rcd13ifvqerg","pricing_plan_id":"cebpf4jnsgd1na2vs0mg"},{"bike_id":"9367f21f-edf3-437d-89aa-02843f8d1972","system_id":"levelo_inurba_marseille","lat":43.27918,"lon":5.39574,"is_reserved":false,"is_disabled":false,"rental_uris":{"android":"levelo://app?vid=9367f21f-edf3-437d-89aa-02843f8d1972","ios":"levelo://app?vid=9367f21f-edf3-437d-89aa-02843f8d1972"},"vehicle_type_id":"4","last_reported":1746810545,"current_range_meters":14800,"station_id":"ce4bhf92rcd13ifvqf40","pricing_plan_id":"cebpf4jnsgd1na2vs0mg"},{"bike_id":"783d6935-1226-4c4a-9f32-08cc176cbcd8","system_id":"levelo_inurba_marseille","lat":43.29217,"lon":5.39314,"is_reserved":false,"is_disabled":false,"rental_uris":{"android":"levelo://app?vid=783d6935-1226-4c4a-9f32-08cc176cbcd8","ios":"levelo://app?vid=783d6935-1226-4c4a-9f32-08cc176cbcd8"},"vehicle_type_id":"4","last_reported":1746810545,"current_range_meters":15200,"station_id":"ce4bh192rcd13ifvqdd0","pricing_plan_id":"cebpf4jnsgd1na2vs0mg"},{"bike_id":"71eafe54-f3d2-4978-a324-05892d411c7d","system_id":"levelo_inurba_marseille","lat":43.26221,"lon":5.40463,"is_reserved":false,"is_disabled":false,"rental_uris":{"android":"levelo://app?vid=71eafe54-f3d2-4978-a324-05892d411c7d","ios":"levelo://app?vid=71eafe54-f3d2-4978-a324-05892d411c7d"},"vehicle_type_id":"4","last_reported":1746810545,"current_range_meters":15200,"station_id":"ce4bhmh2rcd13ifvqgmg","pricing_plan_id":"cebpf4jnsgd1na2vs0mg"},{"bike_id":"79ac1bf8-d2a1-4066-887f-257c345815c4","system_id":"levelo_inurba_marseille","lat":43.29536,"lon":5.38543,"is_reserved":false,"is_disabled":false,"rental_uris":{"android":"levelo://app?vid=79ac1bf8-d2a1-4066-887f-257c345815c4","ios":"levelo://app?vid=79ac1bf8-d2a1-4066-887f-257c345815c4"},"vehicle_type_id":"4","last_reported":1746810545,"current_range_meters":15200,"station_id":"ce4bgih2rcd13ifvqba0","pricing_plan_id":"cebpf4jnsgd1na2vs0mg"},{"bike_id":"2ce2cfff-86ac-42b2-8444-2f32fd3d9df8","system_id":"levelo_inurba_marseille","lat":43.2868,"lon":5.38659,"is_reserved":false,"is_disabled":false,"rental_uris":{"android":"levelo://app?vid=2ce2cfff-86ac-42b2-8444-2f32fd3d9df8","ios":"levelo://app?vid=2ce2cfff-86ac-42b2-8444-2f32fd3d9df8"},"vehicle_type_id":"4","last_reported":1746810545,"current_range_meters":15200,"station_id":"ce4bh492rcd13ifvqdug","pricing_plan_id":"cebpf4jnsgd1na2vs0mg"},{"bike_id":"6c6860d6-c52e-4252-b92b-54d336bdd0bf","system_id":"levelo_inurba_marseille","lat":43.21747,"lon":5.34605,"is_reserved":false,"is_disabled":false,"rental_uris":{"android":"levelo://app?vid=6c6860d6-c52e-4252-b92b-54d336bdd0bf","ios":"levelo://app?vid=6c6860d6-c52e-4252-b92b-54d336bdd0bf"},"vehicle_type_id":"4","last_reported":1746810545,"current_range_meters":16000,"station_id":"st_cvj6r9ubvosntc0bgbag","pricing_plan_id":"cebpf4jnsgd1na2vs0mg"},{"bike_id":"3db13b06-700c-4ed9-aaab-e8dd53e50686","system_id":"levelo_inurba_marseille","lat":43.29908,"lon":5.40394,"is_reserved":false,"is_disabled":false,"rental_uris":{"android":"levelo://app?vid=3db13b06-700c-4ed9-aaab-e8dd53e50686","ios":"levelo://app?vid=3db13b06-700c-4ed9-aaab-e8dd53e50686"},"vehicle_type_id":"4","last_reported":1746810545,"current_range_meters":16000,"station_id":"","pricing_plan_id":"cebpf4jnsgd1na2vs0mg"},{"bike_id":"d6a33ca5-ced0-48f0-97bb-21ed392652d2","system_id":"levelo_inurba_marseille","lat":43.32989,"lon":5.38419,"is_reserved":false,"is_disabled":false,"rental_uris":{"android":"levelo://app?vid=d6a33ca5-ced0-48f0-97bb-21ed392652d2","ios":"levelo://app?vid=d6a33ca5-ced0-48f0-97bb-21ed392652d2"},"vehicle_type_id":"4","last_reported":1746810545,"current_range_meters":16000,"station_id":"","pricing_plan_id":"cebpf4jnsgd1na2vs0mg"},{"bike_id":"1f67836b-1b40-476f-9a50-7f6ff65e0774","system_id":"levelo_inurba_marseille","lat":43.32319,"lon":5.38153,"is_reserved":false,"is_disabled":false,"rental_uris":{"android":"levelo://app?vid=1f67836b-1b40-476f-9a50-7f6ff65e0774","ios":"levelo://app?vid=1f67836b-1b40-476f-9a50-7f6ff65e0774"},"vehicle_type_id":"4","last_reported":1746810545,"current_range_meters":16000,"station_id":"ce4bhr12rcd13ifvqhqg","pricing_plan_id":"cebpf4jnsgd1na2vs0mg"},{"bike_id":"db26badc-406b-4979-88a8-322bfcbcc34d","system_id":"levelo_inurba_marseille","lat":43.26943,"lon":5.40251,"is_reserved":false,"is_disabled":false,"rental_uris":{"android":"levelo://app?vid=db26badc-406b-4979-88a8-322bfcbcc34d","ios":"levelo://app?vid=db26badc-406b-4979-88a8-322bfcbcc34d"},"vehicle_type_id":"4","last_reported":1746810545,"current_range_meters":16400,"station_id":"cjm6bp8fraef2m0cb0m0","pricing_plan_id":"cebpf4jnsgd1na2vs0mg"},{"bike_id":"bd82954d-a2f5-455d-8238-9a9d097a0bf5","system_id":"levelo_inurba_marseille","lat":43.25501,"lon":5.37658,"is_reserved":false,"is_disabled":false,"rental_uris":{"android":"levelo://app?vid=bd82954d-a2f5-455d-8238-9a9d097a0bf5","ios":"levelo://app?vid=bd82954d-a2f5-455d-8238-9a9d097a0bf5"},"vehicle_type_id":"4","last_reported":1746810545,"current_range_meters":16400,"station_id":"ce4bhh12rcd13ifvqff0","pricing_plan_id":"cebpf4jnsgd1na2vs0mg"},{"bike_id":"0bdcdff3-8294-49b9-80e9-145bbc1ad711","system_id":"levelo_inurba_marseille","lat":43.32273,"lon":5.36731,"is_reserved":false,"is_disabled":false,"rental_uris":{"android":"levelo://app?vid=0bdcdff3-8294-49b9-80e9-145bbc1ad711","ios":"levelo://app?vid=0bdcdff3-8294-49b9-80e9-145bbc1ad711"},"vehicle_type_id":"4","last_reported":1746810545,"current_range_meters":16400,"station_id":"","pricing_plan_id":"cebpf4jnsgd1na2vs0mg"},{"bike_id":"0d503c3c-a138-4066-a73d-7a70538e6fe4","system_id":"levelo_inurba_marseille","lat":43.30316,"lon":5.3921,"is_reserved":false,"is_disabled":false,"rental_uris":{"android":"levelo://app?vid=0d503c3c-a138-4066-a73d-7a70538e6fe4","ios":"levelo://app?vid=0d503c3c-a138-4066-a73d-7a70538e6fe4"},"vehicle_type_id":"4","last_reported":1746810545,"current_range_meters":16400,"station_id":"ce4bgkh2rcd13ifvqbk0","pricing_plan_id":"cebpf4jnsgd1na2vs0mg"},{"bike_id":"c1e46af6-d0b8-4d3d-b2f1-dcb8e8d337bf","system_id":"levelo_inurba_marseille","lat":43.24675,"lon":5.38166,"is_reserved":false,"is_disabled":false,"rental_uris":{"android":"levelo://app?vid=c1e46af6-d0b8-4d3d-b2f1-dcb8e8d337bf","ios":"levelo://app?vid=c1e46af6-d0b8-4d3d-b2f1-dcb8e8d337bf"},"vehicle_type_id":"4","last_reported":1746810545,"current_range_meters":16400,"station_id":"ce4bhih2rcd13ifvqfr0","pricing_plan_id":"cebpf4jnsgd1na2vs0mg"},{"bike_id":"ae56da91-db88-4ffc-a694-3dd270e97384","system_id":"levelo_inurba_marseille","lat":43.21749,"lon":5.34607,"is_reserved":false,"is_disabled":false,"rental_uris":{"android":"levelo://app?vid=ae56da91-db88-4ffc-a694-3dd270e97384","ios":"levelo://app?vid=ae56da91-db88-4ffc-a694-3dd270e97384"},"vehicle_type_id":"4","last_reported":1746810545,"current_range_meters":16400,"station_id":"st_cvj6r9ubvosntc0bgbag","pricing_plan_id":"cebpf4jnsgd1na2vs0mg"},{"bike_id":"4c0f9c7c-618e-4a6b-a88b-ea607198809a","system_id":"levelo_inurba_marseille","lat":43.25092,"lon":5.39516,"is_reserved":false,"is_disabled":false,"rental_uris":{"android":"levelo://app?vid=4c0f9c7c-618e-4a6b-a88b-ea607198809a","ios":"levelo://app?vid=4c0f9c7c-618e-4a6b-a88b-ea607198809a"},"vehicle_type_id":"4","last_reported":1746810545,"current_range_meters":16400,"station_id":"ce4bhm12rcd13ifvqgkg","pricing_plan_id":"cebpf4jnsgd1na2vs0mg"},{"bike_id":"08c04ff9-e615-4d87-ba3e-6b0e2342cce5","system_id":"levelo_inurba_marseille","lat":43.29594,"lon":5.36746,"is_reserved":false,"is_disabled":true,"rental_uris":{"android":"levelo://app?vid=08c04ff9-e615-4d87-ba3e-6b0e2342cce5","ios":"levelo://app?vid=08c04ff9-e615-4d87-ba3e-6b0e2342cce5"},"vehicle_type_id":"4","last_reported":1746810545,"current_range_meters":16400,"station_id":"ce4bgph2rcd13ifvqc2g","pricing_plan_id":"cebpf4jnsgd1na2vs0mg"},{"bike_id":"3134c536-c07e-4e0e-ad47-b92b994966f5","system_id":"levelo_inurba_marseille","lat":43.30522,"lon":5.36554,"is_reserved":false,"is_disabled":false,"rental_uris":{"android":"levelo://app?vid=3134c536-c07e-4e0e-ad47-b92b994966f5","ios":"levelo://app?vid=3134c536-c07e-4e0e-ad47-b92b994966f5"},"vehicle_type_id":"4","last_reported":1746810545,"current_range_meters":16800,"station_id":"ce4bgs12rcd13ifvqcag","pricing_plan_id":"cebpf4jnsgd1na2vs0mg"},{"bike_id":"6e24abe9-ff49-40a5-bfac-cd5aacf6ebea","system_id":"levelo_inurba_marseille","lat":43.229303,"lon":5.353787,"is_reserved":false,"is_disabled":false,"rental_uris":{"android":"levelo://app?vid=6e24abe9-ff49-40a5-bfac-cd5aacf6ebea","ios":"levelo://app?vid=6e24abe9-ff49-40a5-bfac-cd5aacf6ebea"},"vehicle_type_id":"4","last_reported":1746810545,"current_range_meters":16800,"station_id":"cpo3532slgdg3j2ikp40","pricing_plan_id":"cebpf4jnsgd1na2vs0mg"},{"bike_id":"d1d0e1d2-3f7c-4d66-93db-506d9182ccd4","system_id":"levelo_inurba_marseille","lat":43.29261,"lon":5.38433,"is_reserved":false,"is_disabled":false,"rental_uris":{"android":"levelo://app?vid=d1d0e1d2-3f7c-4d66-93db-506d9182ccd4","ios":"levelo://app?vid=d1d0e1d2-3f7c-4d66-93db-506d9182ccd4"},"vehicle_type_id":"4","last_reported":1746810545,"current_range_meters":16400,"station_id":"ce4bh692rcd13ifvqea0","pricing_plan_id":"cebpf4jnsgd1na2vs0mg"},{"bike_id":"cf6bc856-5840-4cc7-87f8-ebcb25a380e4","system_id":"levelo_inurba_marseille","lat":43.25578,"lon":5.38251,"is_reserved":false,"is_disabled":false,"rental_uris":{"android":"levelo://app?vid=cf6bc856-5840-4cc7-87f8-ebcb25a380e4","ios":"levelo://app?vid=cf6bc856-5840-4cc7-87f8-ebcb25a380e4"},"vehicle_type_id":"4","last_reported":1746810545,"current_range_meters":16800,"station_id":"ce4bhih2rcd13ifvqfs0","pricing_plan_id":"cebpf4jnsgd1na2vs0mg"},{"bike_id":"9a919805-a5a4-497f-a929-c9e08814771d","system_id":"levelo_inurba_marseille","lat":43.27977,"lon":5.4165,"is_reserved":false,"is_disabled":true,"rental_uris":{"android":"levelo://app?vid=9a919805-a5a4-497f-a929-c9e08814771d","ios":"levelo://app?vid=9a919805-a5a4-497f-a929-c9e08814771d"},"vehicle_type_id":"4","last_reported":1746810545,"current_range_meters":16800,"station_id":"ce4bho12rcd13ifvqh1g","pricing_plan_id":"cebpf4jnsgd1na2vs0mg"},{"bike_id":"9075558d-a90e-4935-8bd7-9a1ddc068efa","system_id":"levelo_inurba_marseille","lat":43.29264,"lon":5.37626,"is_reserved":false,"is_disabled":false,"rental_uris":{"android":"levelo://app?vid=9075558d-a90e-4935-8bd7-9a1ddc068efa","ios":"levelo://app?vid=9075558d-a90e-4935-8bd7-9a1ddc068efa"},"vehicle_type_id":"4","last_reported":1746810545,"current_range_meters":16800,"station_id":"ce4bgi12rcd13ifvqb80","pricing_plan_id":"cebpf4jnsgd1na2vs0mg"},{"bike_id":"7911d9df-be53-4908-8d00-3efa42a5a46d","system_id":"levelo_inurba_marseille","lat":43.29905,"lon":5.43657,"is_reserved":false,"is_disabled":false,"rental_uris":{"android":"levelo://app?vid=7911d9df-be53-4908-8d00-3efa42a5a46d","ios":"levelo://app?vid=7911d9df-be53-4908-8d00-3efa42a5a46d"},"vehicle_type_id":"4","last_reported":1746810545,"current_range_meters":16800,"station_id":"ce4bhpp2rcd13ifvqhfg","pricing_plan_id":"cebpf4jnsgd1na2vs0mg"},{"bike_id":"36d54903-b67c-4f0e-90a3-3c0965f36de5","system_id":"levelo_inurba_marseille","lat":43.25503,"lon":5.37654,"is_reserved":false,"is_disabled":false,"rental_uris":{"android":"levelo://app?vid=36d54903-b67c-4f0e-90a3-3c0965f36de5","ios":"levelo://app?vid=36d54903-b67c-4f0e-90a3-3c0965f36de5"},"vehicle_type_id":"4","last_reported":1746810545,"current_range_meters":16800,"station_id":"ce4bhh12rcd13ifvqff0","pricing_plan_id":"cebpf4jnsgd1na2vs0mg"},{"bike_id":"eb953476-a197-4ca5-95bd-99fd1e07e956","system_id":"levelo_inurba_marseille","lat":43.29736,"lon":5.37693,"is_reserved":false,"is_disabled":false,"rental_uris":{"android":"levelo://app?vid=eb953476-a197-4ca5-95bd-99fd1e07e956","ios":"levelo://app?vid=eb953476-a197-4ca5-95bd-99fd1e07e956"},"vehicle_type_id":"4","last_reported":1746810545,"current_range_meters":16800,"station_id":"ce4bgkh2rcd13ifvqbl0","pricing_plan_id":"cebpf4jnsgd1na2vs0mg"},{"bike_id":"d34a6f06-8a36-473c-8a3a-83a711228e81","system_id":"levelo_inurba_marseille","lat":43.29283,"lon":5.36835,"is_reserved":false,"is_disabled":false,"rental_uris":{"android":"levelo://app?vid=d34a6f06-8a36-473c-8a3a-83a711228e81","ios":"levelo://app?vid=d34a6f06-8a36-473c-8a3a-83a711228e81"},"vehicle_type_id":"4","last_reported":1746810545,"current_range_meters":16800,"station_id":"ce4bhbp2rcd13ifvqesg","pricing_plan_id":"cebpf4jnsgd1na2vs0mg"},{"bike_id":"bb9dd4d9-ef7c-411c-9ce2-6f0d8890189a","system_id":"levelo_inurba_marseille","lat":43.24167,"lon":5.36394,"is_reserved":false,"is_disabled":false,"rental_uris":{"android":"levelo://app?vid=bb9dd4d9-ef7c-411c-9ce2-6f0d8890189a","ios":"levelo://app?vid=bb9dd4d9-ef7c-411c-9ce2-6f0d8890189a"},"vehicle_type_id":"4","last_reported":1746810545,"current_range_meters":17200,"station_id":"cpo36qri1sfpv3e86is0","pricing_plan_id":"cebpf4jnsgd1na2vs0mg"},{"bike_id":"201b3e1b-2a9b-464a-9bc5-6fac58507cf7","system_id":"levelo_inurba_marseille","lat":43.26922,"lon":5.40275,"is_reserved":false,"is_disabled":false,"rental_uris":{"android":"levelo://app?vid=201b3e1b-2a9b-464a-9bc5-6fac58507cf7","ios":"levelo://app?vid=201b3e1b-2a9b-464a-9bc5-6fac58507cf7"},"vehicle_type_id":"4","last_reported":1746810545,"current_range_meters":17200,"station_id":"cjm6bp8fraef2m0cb0m0","pricing_plan_id":"cebpf4jnsgd1na2vs0mg"},{"bike_id":"b87b86e0-5b70-4481-b0f0-54aeb08e0eff","system_id":"levelo_inurba_marseille","lat":43.24073,"lon":5.37763,"is_reserved":false,"is_disabled":false,"rental_uris":{"android":"levelo://app?vid=b87b86e0-5b70-4481-b0f0-54aeb08e0eff","ios":"levelo://app?vid=b87b86e0-5b70-4481-b0f0-54aeb08e0eff"},"vehicle_type_id":"4","last_reported":1746810545,"current_range_meters":17200,"station_id":"ce4bhnp2rcd13ifvqgvg","pricing_plan_id":"cebpf4jnsgd1na2vs0mg"},{"bike_id":"4e1a556e-a9ea-4ffe-8980-fecfd6bf6315","system_id":"levelo_inurba_marseille","lat":43.29802,"lon":5.40399,"is_reserved":false,"is_disabled":false,"rental_uris":{"android":"levelo://app?vid=4e1a556e-a9ea-4ffe-8980-fecfd6bf6315","ios":"levelo://app?vid=4e1a556e-a9ea-4ffe-8980-fecfd6bf6315"},"vehicle_type_id":"4","last_reported":1746810545,"current_range_meters":17200,"station_id":"ce4bh112rcd13ifvqd90","pricing_plan_id":"cebpf4jnsgd1na2vs0mg"},{"bike_id":"17508b04-f061-4d8e-951a-e24982101938","system_id":"levelo_inurba_marseille","lat":43.27902,"lon":5.39596,"is_reserved":false,"is_disabled":false,"rental_uris":{"android":"levelo://app?vid=17508b04-f061-4d8e-951a-e24982101938","ios":"levelo://app?vid=17508b04-f061-4d8e-951a-e24982101938"},"vehicle_type_id":"4","last_reported":1746810545,"current_range_meters":17200,"station_id":"ce4bhf92rcd13ifvqf40","pricing_plan_id":"cebpf4jnsgd1na2vs0mg"},{"bike_id":"2123204f-4eac-47d2-b050-b6c347eaee89","system_id":"levelo_inurba_marseille","lat":43.231777,"lon":5.399862,"is_reserved":false,"is_disabled":false,"rental_uris":{"android":"levelo://app?vid=2123204f-4eac-47d2-b050-b6c347eaee89","ios":"levelo://app?vid=2123204f-4eac-47d2-b050-b6c347eaee89"},"vehicle_type_id":"4","last_reported":1746810545,"current_range_meters":17200,"station_id":"ce4bhn12rcd13ifvqgqg","pricing_plan_id":"cebpf4jnsgd1na2vs0mg"},{"bike_id":"5e3bb754-2ade-4101-9958-5327a2e98a42","system_id":"levelo_inurba_marseille","lat":43.29026,"lon":5.38135,"is_reserved":false,"is_disabled":false,"rental_uris":{"android":"levelo://app?vid=5e3bb754-2ade-4101-9958-5327a2e98a42","ios":"levelo://app?vid=5e3bb754-2ade-4101-9958-5327a2e98a42"},"vehicle_type_id":"4","last_reported":1746810545,"current_range_meters":17200,"station_id":"ce4bh4p2rcd13ifvqe1g","pricing_plan_id":"cebpf4jnsgd1na2vs0mg"},{"bike_id":"a1886a3e-4731-4209-bc59-b4cb566ed9e5","system_id":"levelo_inurba_marseille","lat":43.269443,"lon":5.402453,"is_reserved":false,"is_disabled":false,"rental_uris":{"android":"levelo://app?vid=a1886a3e-4731-4209-bc59-b4cb566ed9e5","ios":"levelo://app?vid=a1886a3e-4731-4209-bc59-b4cb566ed9e5"},"vehicle_type_id":"4","last_reported":1746810545,"current_range_meters":17200,"station_id":"cjm6bp8fraef2m0cb0m0","pricing_plan_id":"cebpf4jnsgd1na2vs0mg"},{"bike_id":"c65732d7-d6e4-4134-b90d-85c2276db215","system_id":"levelo_inurba_marseille","lat":43.26208,"lon":5.40448,"is_reserved":false,"is_disabled":false,"rental_uris":{"android":"levelo://app?vid=c65732d7-d6e4-4134-b90d-85c2276db215","ios":"levelo://app?vid=c65732d7-d6e4-4134-b90d-85c2276db215"},"vehicle_type_id":"4","last_reported":1746810545,"current_range_meters":17600,"station_id":"ce4bhmh2rcd13ifvqgmg","pricing_plan_id":"cebpf4jnsgd1na2vs0mg"},{"bike_id":"a0bb07d1-5a23-4671-9f8f-7a5ff521472d","system_id":"levelo_inurba_marseille","lat":43.2992,"lon":5.37468,"is_reserved":false,"is_disabled":false,"rental_uris":{"android":"levelo://app?vid=a0bb07d1-5a23-4671-9f8f-7a5ff521472d","ios":"levelo://app?vid=a0bb07d1-5a23-4671-9f8f-7a5ff521472d"},"vehicle_type_id":"4","last_reported":1746810545,"current_range_meters":17600,"station_id":"ce4bgjh2rcd13ifvqbg0","pricing_plan_id":"cebpf4jnsgd1na2vs0mg"},{"bike_id":"bb495b1d-188b-49e3-8195-6b30e0477e72","system_id":"levelo_inurba_marseille","lat":43.25054,"lon":5.3891,"is_reserved":false,"is_disabled":false,"rental_uris":{"android":"levelo://app?vid=bb495b1d-188b-49e3-8195-6b30e0477e72","ios":"levelo://app?vid=bb495b1d-188b-49e3-8195-6b30e0477e72"},"vehicle_type_id":"4","last_reported":1746810545,"current_range_meters":17600,"station_id":"ce4bhgp2rcd13ifvqfd0","pricing_plan_id":"cebpf4jnsgd1na2vs0mg"},{"bike_id":"1208665b-a689-4e32-8f85-40c17fb8f568","system_id":"levelo_inurba_marseille","lat":43.28147,"lon":5.42626,"is_reserved":false,"is_disabled":false,"rental_uris":{"android":"levelo://app?vid=1208665b-a689-4e32-8f85-40c17fb8f568","ios":"levelo://app?vid=1208665b-a689-4e32-8f85-40c17fb8f568"},"vehicle_type_id":"4","last_reported":1746810545,"current_range_meters":17600,"station_id":"ce4bhnh2rcd13ifvqgug","pricing_plan_id":"cebpf4jnsgd1na2vs0mg"},{"bike_id":"302dc1ff-ddb7-461b-960c-2c8bad53c829","system_id":"levelo_inurba_marseille","lat":43.2928,"lon":5.3685,"is_reserved":false,"is_disabled":false,"rental_uris":{"android":"levelo://app?vid=302dc1ff-ddb7-461b-960c-2c8bad53c829","ios":"levelo://app?vid=302dc1ff-ddb7-461b-960c-2c8bad53c829"},"vehicle_type_id":"4","last_reported":1746810545,"current_range_meters":18000,"station_id":"ce4bhbp2rcd13ifvqesg","pricing_plan_id":"cebpf4jnsgd1na2vs0mg"},{"bike_id":"5bee1775-528f-49e6-9c3e-19f7744c053e","system_id":"levelo_inurba_marseille","lat":43.27991,"lon":5.41662,"is_reserved":false,"is_disabled":false,"rental_uris":{"android":"levelo://app?vid=5bee1775-528f-49e6-9c3e-19f7744c053e","ios":"levelo://app?vid=5bee1775-528f-49e6-9c3e-19f7744c053e"},"vehicle_type_id":"4","last_reported":1746810545,"current_range_meters":18000,"station_id":"ce4bho12rcd13ifvqh1g","pricing_plan_id":"cebpf4jnsgd1na2vs0mg"},{"bike_id":"17a5764a-eb76-490e-a0a7-4cc4dfffbbb8","system_id":"levelo_inurba_marseille","lat":43.3031,"lon":5.36915,"is_reserved":false,"is_disabled":false,"rental_uris":{"android":"levelo://app?vid=17a5764a-eb76-490e-a0a7-4cc4dfffbbb8","ios":"levelo://app?vid=17a5764a-eb76-490e-a0a7-4cc4dfffbbb8"},"vehicle_type_id":"4","last_reported":1746810545,"current_range_meters":18000,"station_id":"ce4bgqh2rcd13ifvqc5g","pricing_plan_id":"cebpf4jnsgd1na2vs0mg"},{"bike_id":"06b1a4e0-e36e-4346-83e0-434393a00996","system_id":"levelo_inurba_marseille","lat":43.27048,"lon":5.40271,"is_reserved":false,"is_disabled":false,"rental_uris":{"android":"levelo://app?vid=06b1a4e0-e36e-4346-83e0-434393a00996","ios":"levelo://app?vid=06b1a4e0-e36e-4346-83e0-434393a00996"},"vehicle_type_id":"4","last_reported":1746810545,"current_range_meters":18000,"station_id":"ce4bhk92rcd13ifvqgc0","pricing_plan_id":"cebpf4jnsgd1na2vs0mg"},{"bike_id":"545e5687-b7df-4883-81be-75a8925d5f91","system_id":"levelo_inurba_marseille","lat":43.337444,"lon":5.374475,"is_reserved":false,"is_disabled":false,"rental_uris":{"android":"levelo://app?vid=545e5687-b7df-4883-81be-75a8925d5f91","ios":"levelo://app?vid=545e5687-b7df-4883-81be-75a8925d5f91"},"vehicle_type_id":"4","last_reported":1746810545,"current_range_meters":18000,"station_id":"","pricing_plan_id":"cebpf4jnsgd1na2vs0mg"},{"bike_id":"94cd8564-a06e-4cc5-88d9-996fbf8639fe","system_id":"levelo_inurba_marseille","lat":43.21751,"lon":5.34593,"is_reserved":false,"is_disabled":true,"rental_uris":{"android":"levelo://app?vid=94cd8564-a06e-4cc5-88d9-996fbf8639fe","ios":"levelo://app?vid=94cd8564-a06e-4cc5-88d9-996fbf8639fe"},"vehicle_type_id":"4","last_reported":1746810545,"current_range_meters":18800,"station_id":"st_cvj6r9ubvosntc0bgbag","pricing_plan_id":"cebpf4jnsgd1na2vs0mg"},{"bike_id":"fc2577e7-1497-425b-9d4f-ab8d7dc843c6","system_id":"levelo_inurba_marseille","lat":43.33771,"lon":5.37485,"is_reserved":false,"is_disabled":false,"rental_uris":{"android":"levelo://app?vid=fc2577e7-1497-425b-9d4f-ab8d7dc843c6","ios":"levelo://app?vid=fc2577e7-1497-425b-9d4f-ab8d7dc843c6"},"vehicle_type_id":"4","last_reported":1746810545,"current_range_meters":18800,"station_id":"","pricing_plan_id":"cebpf4jnsgd1na2vs0mg"},{"bike_id":"ef9a0e45-9fdf-4799-abb5-6014f47cff97","system_id":"levelo_inurba_marseille","lat":43.28992,"lon":5.35609,"is_reserved":false,"is_disabled":false,"rental_uris":{"android":"levelo://app?vid=ef9a0e45-9fdf-4799-abb5-6014f47cff97","ios":"levelo://app?vid=ef9a0e45-9fdf-4799-abb5-6014f47cff97"},"vehicle_type_id":"4","last_reported":1746810545,"current_range_meters":18800,"station_id":"ce4bhb92rcd13ifvqen0","pricing_plan_id":"cebpf4jnsgd1na2vs0mg"},{"bike_id":"17d03392-fb4b-4b7f-a73c-6dc6ca7290cb","system_id":"levelo_inurba_marseille","lat":43.29167,"lon":5.37171,"is_reserved":false,"is_disabled":false,"rental_uris":{"android":"levelo://app?vid=17d03392-fb4b-4b7f-a73c-6dc6ca7290cb","ios":"levelo://app?vid=17d03392-fb4b-4b7f-a73c-6dc6ca7290cb"},"vehicle_type_id":"4","last_reported":1746810545,"current_range_meters":18800,"station_id":"ce4bha92rcd13ifvqeh0","pricing_plan_id":"cebpf4jnsgd1na2vs0mg"},{"bike_id":"0f1773cc-ca8d-4f57-8341-5e931ce33322","system_id":"levelo_inurba_marseille","lat":43.30129,"lon":5.39863,"is_reserved":false,"is_disabled":false,"rental_uris":{"android":"levelo://app?vid=0f1773cc-ca8d-4f57-8341-5e931ce33322","ios":"levelo://app?vid=0f1773cc-ca8d-4f57-8341-5e931ce33322"},"vehicle_type_id":"4","last_reported":1746810545,"current_range_meters":18800,"station_id":"ce4bh0h2rcd13ifvqd40","pricing_plan_id":"cebpf4jnsgd1na2vs0mg"},{"bike_id":"66d39f5f-1aac-423b-9ea7-bf9c1b0e5079","system_id":"levelo_inurba_marseille","lat":43.27523,"lon":5.41135,"is_reserved":false,"is_disabled":false,"rental_uris":{"android":"levelo://app?vid=66d39f5f-1aac-423b-9ea7-bf9c1b0e5079","ios":"levelo://app?vid=66d39f5f-1aac-423b-9ea7-bf9c1b0e5079"},"vehicle_type_id":"4","last_reported":1746810545,"current_range_meters":18800,"station_id":"","pricing_plan_id":"cebpf4jnsgd1na2vs0mg"},{"bike_id":"396c7da6-4c84-43dc-96d5-100eadb8d124","system_id":"levelo_inurba_marseille","lat":43.28037,"lon":5.36951,"is_reserved":false,"is_disabled":false,"rental_uris":{"android":"levelo://app?vid=396c7da6-4c84-43dc-96d5-100eadb8d124","ios":"levelo://app?vid=396c7da6-4c84-43dc-96d5-100eadb8d124"},"vehicle_type_id":"4","last_reported":1746810545,"current_range_meters":19200,"station_id":"ce4bha12rcd13ifvqef0","pricing_plan_id":"cebpf4jnsgd1na2vs0mg"},{"bike_id":"5e539fc1-1181-4cd8-a150-63791303e21e","system_id":"levelo_inurba_marseille","lat":43.31091,"lon":5.424276,"is_reserved":false,"is_disabled":false,"rental_uris":{"android":"levelo://app?vid=5e539fc1-1181-4cd8-a150-63791303e21e","ios":"levelo://app?vid=5e539fc1-1181-4cd8-a150-63791303e21e"},"vehicle_type_id":"4","last_reported":1746810545,"current_range_meters":18800,"station_id":"ce4bhp92rcd13ifvqhag","pricing_plan_id":"cebpf4jnsgd1na2vs0mg"},{"bike_id":"c89652ce-6545-4532-bcbc-eafb6268f8ab","system_id":"levelo_inurba_marseille","lat":43.2944,"lon":5.38614,"is_reserved":false,"is_disabled":false,"rental_uris":{"android":"levelo://app?vid=c89652ce-6545-4532-bcbc-eafb6268f8ab","ios":"levelo://app?vid=c89652ce-6545-4532-bcbc-eafb6268f8ab"},"vehicle_type_id":"4","last_reported":1746810545,"current_range_meters":19200,"station_id":"ce4bh2h2rcd13ifvqdh0","pricing_plan_id":"cebpf4jnsgd1na2vs0mg"},{"bike_id":"9b84e65f-2424-4f8e-b51b-21355d123536","system_id":"levelo_inurba_marseille","lat":43.3152,"lon":5.37269,"is_reserved":false,"is_disabled":false,"rental_uris":{"android":"levelo://app?vid=9b84e65f-2424-4f8e-b51b-21355d123536","ios":"levelo://app?vid=9b84e65f-2424-4f8e-b51b-21355d123536"},"vehicle_type_id":"4","last_reported":1746810545,"current_range_meters":19600,"station_id":"","pricing_plan_id":"cebpf4jnsgd1na2vs0mg"},{"bike_id":"ba24f655-b676-4b74-b3eb-2b0fdad98350","system_id":"levelo_inurba_marseille","lat":43.24662,"lon":5.38168,"is_reserved":false,"is_disabled":false,"rental_uris":{"android":"levelo://app?vid=ba24f655-b676-4b74-b3eb-2b0fdad98350","ios":"levelo://app?vid=ba24f655-b676-4b74-b3eb-2b0fdad98350"},"vehicle_type_id":"4","last_reported":1746810545,"current_range_meters":19600,"station_id":"ce4bhih2rcd13ifvqfr0","pricing_plan_id":"cebpf4jnsgd1na2vs0mg"},{"bike_id":"6559c59c-cf66-4a7d-8594-421581793306","system_id":"levelo_inurba_marseille","lat":43.29225,"lon":5.36079,"is_reserved":false,"is_disabled":false,"rental_uris":{"android":"levelo://app?vid=6559c59c-cf66-4a7d-8594-421581793306","ios":"levelo://app?vid=6559c59c-cf66-4a7d-8594-421581793306"},"vehicle_type_id":"4","last_reported":1746810545,"current_range_meters":19600,"station_id":"ce4bhbh2rcd13ifvqeqg","pricing_plan_id":"cebpf4jnsgd1na2vs0mg"},{"bike_id":"ef6469b8-5bdd-4a87-addc-bbf094a0da53","system_id":"levelo_inurba_marseille","lat":43.29708,"lon":5.37695,"is_reserved":false,"is_disabled":false,"rental_uris":{"android":"levelo://app?vid=ef6469b8-5bdd-4a87-addc-bbf094a0da53","ios":"levelo://app?vid=ef6469b8-5bdd-4a87-addc-bbf094a0da53"},"vehicle_type_id":"4","last_reported":1746810545,"current_range_meters":19600,"station_id":"ce4bgkh2rcd13ifvqbl0","pricing_plan_id":"cebpf4jnsgd1na2vs0mg"},{"bike_id":"c58b10b5-29df-4573-a17f-ea48ed11d09b","system_id":"levelo_inurba_marseille","lat":43.27916,"lon":5.39575,"is_reserved":false,"is_disabled":false,"rental_uris":{"android":"levelo://app?vid=c58b10b5-29df-4573-a17f-ea48ed11d09b","ios":"levelo://app?vid=c58b10b5-29df-4573-a17f-ea48ed11d09b"},"vehicle_type_id":"4","last_reported":1746810545,"current_range_meters":19600,"station_id":"ce4bhf92rcd13ifvqf40","pricing_plan_id":"cebpf4jnsgd1na2vs0mg"},{"bike_id":"7bf4554d-fe3a-4247-9934-0a9231890271","system_id":"levelo_inurba_marseille","lat":43.298,"lon":5.40394,"is_reserved":false,"is_disabled":false,"rental_uris":{"android":"levelo://app?vid=7bf4554d-fe3a-4247-9934-0a9231890271","ios":"levelo://app?vid=7bf4554d-fe3a-4247-9934-0a9231890271"},"vehicle_type_id":"4","last_reported":1746810545,"current_range_meters":19600,"station_id":"ce4bh112rcd13ifvqd90","pricing_plan_id":"cebpf4jnsgd1na2vs0mg"},{"bike_id":"7d90bc0d-44f3-473c-95d5-40e345f273dc","system_id":"levelo_inurba_marseille","lat":43.30122,"lon":5.39866,"is_reserved":false,"is_disabled":false,"rental_uris":{"android":"levelo://app?vid=7d90bc0d-44f3-473c-95d5-40e345f273dc","ios":"levelo://app?vid=7d90bc0d-44f3-473c-95d5-40e345f273dc"},"vehicle_type_id":"4","last_reported":1746810545,"current_range_meters":20000,"station_id":"ce4bh0h2rcd13ifvqd40","pricing_plan_id":"cebpf4jnsgd1na2vs0mg"},{"bike_id":"a1121b36-b5cd-4dda-96ef-13a3dfaa55e1","system_id":"levelo_inurba_marseille","lat":43.301401,"lon":5.387791,"is_reserved":false,"is_disabled":false,"rental_uris":{"android":"levelo://app?vid=a1121b36-b5cd-4dda-96ef-13a3dfaa55e1","ios":"levelo://app?vid=a1121b36-b5cd-4dda-96ef-13a3dfaa55e1"},"vehicle_type_id":"4","last_reported":1746810545,"current_range_meters":20000,"station_id":"","pricing_plan_id":"cebpf4jnsgd1na2vs0mg"},{"bike_id":"462336e2-a4e8-4882-be35-4ed6969a7cd6","system_id":"levelo_inurba_marseille","lat":43.299333,"lon":5.386347,"is_reserved":false,"is_disabled":false,"rental_uris":{"android":"levelo://app?vid=462336e2-a4e8-4882-be35-4ed6969a7cd6","ios":"levelo://app?vid=462336e2-a4e8-4882-be35-4ed6969a7cd6"},"vehicle_type_id":"4","last_reported":1746810545,"current_range_meters":20000,"station_id":"","pricing_plan_id":"cebpf4jnsgd1na2vs0mg"},{"bike_id":"ee9ad537-eb31-44cb-8b2c-c41e0fd58f9b","system_id":"levelo_inurba_marseille","lat":43.32477,"lon":5.36563,"is_reserved":false,"is_disabled":false,"rental_uris":{"android":"levelo://app?vid=ee9ad537-eb31-44cb-8b2c-c41e0fd58f9b","ios":"levelo://app?vid=ee9ad537-eb31-44cb-8b2c-c41e0fd58f9b"},"vehicle_type_id":"4","last_reported":1746810545,"current_range_meters":20000,"station_id":"ce4bhs12rcd13ifvqhvg","pricing_plan_id":"cebpf4jnsgd1na2vs0mg"},{"bike_id":"7a413dfb-46e8-4834-9ee3-a63defaf715c","system_id":"levelo_inurba_marseille","lat":43.30972,"lon":5.39423,"is_reserved":false,"is_disabled":false,"rental_uris":{"android":"levelo://app?vid=7a413dfb-46e8-4834-9ee3-a63defaf715c","ios":"levelo://app?vid=7a413dfb-46e8-4834-9ee3-a63defaf715c"},"vehicle_type_id":"4","last_reported":1746810545,"current_range_meters":20000,"station_id":"","pricing_plan_id":"cebpf4jnsgd1na2vs0mg"},{"bike_id":"861619ce-c43c-403a-8bf4-91d20bd8c07d","system_id":"levelo_inurba_marseille","lat":43.307927,"lon":5.376618,"is_reserved":false,"is_disabled":false,"rental_uris":{"android":"levelo://app?vid=861619ce-c43c-403a-8bf4-91d20bd8c07d","ios":"levelo://app?vid=861619ce-c43c-403a-8bf4-91d20bd8c07d"},"vehicle_type_id":"4","last_reported":1746810545,"current_range_meters":20000,"station_id":"ce4bgv92rcd13ifvqcq0","pricing_plan_id":"cebpf4jnsgd1na2vs0mg"},{"bike_id":"c31504de-bb52-40bd-8b51-98ea8e8667e8","system_id":"levelo_inurba_marseille","lat":43.28609,"lon":5.37072,"is_reserved":false,"is_disabled":false,"rental_uris":{"android":"levelo://app?vid=c31504de-bb52-40bd-8b51-98ea8e8667e8","ios":"levelo://app?vid=c31504de-bb52-40bd-8b51-98ea8e8667e8"},"vehicle_type_id":"4","last_reported":1746810545,"current_range_meters":20000,"station_id":"ce4bht12rcd13ifvqi60","pricing_plan_id":"cebpf4jnsgd1na2vs0mg"},{"bike_id":"a3758cf4-72bc-45cd-914a-27c3903d81d4","system_id":"levelo_inurba_marseille","lat":43.27833,"lon":5.39205,"is_reserved":false,"is_disabled":false,"rental_uris":{"android":"levelo://app?vid=a3758cf4-72bc-45cd-914a-27c3903d81d4","ios":"levelo://app?vid=a3758cf4-72bc-45cd-914a-27c3903d81d4"},"vehicle_type_id":"4","last_reported":1746810545,"current_range_meters":20000,"station_id":"ce4bhjp2rcd13ifvqga0","pricing_plan_id":"cebpf4jnsgd1na2vs0mg"},{"bike_id":"f4391547-a057-463c-87d0-bc837cee24f5","system_id":"levelo_inurba_marseille","lat":43.30148,"lon":5.38785,"is_reserved":false,"is_disabled":false,"rental_uris":{"android":"levelo://app?vid=f4391547-a057-463c-87d0-bc837cee24f5","ios":"levelo://app?vid=f4391547-a057-463c-87d0-bc837cee24f5"},"vehicle_type_id":"4","last_reported":1746810545,"current_range_meters":20000,"station_id":"ce4bghh2rcd13ifvqb60","pricing_plan_id":"cebpf4jnsgd1na2vs0mg"},{"bike_id":"babf6872-24d8-4de0-be25-43e5dffee709","system_id":"levelo_inurba_marseille","lat":43.23166,"lon":5.39993,"is_reserved":false,"is_disabled":false,"rental_uris":{"android":"levelo://app?vid=babf6872-24d8-4de0-be25-43e5dffee709","ios":"levelo://app?vid=babf6872-24d8-4de0-be25-43e5dffee709"},"vehicle_type_id":"4","last_reported":1746810545,"current_range_meters":20400,"station_id":"ce4bhn12rcd13ifvqgqg","pricing_plan_id":"cebpf4jnsgd1na2vs0mg"},{"bike_id":"73fbfd90-fb35-49a1-b1d8-2df93ae442d4","system_id":"levelo_inurba_marseille","lat":43.3095,"lon":5.39023,"is_reserved":false,"is_disabled":false,"rental_uris":{"android":"levelo://app?vid=73fbfd90-fb35-49a1-b1d8-2df93ae442d4","ios":"levelo://app?vid=73fbfd90-fb35-49a1-b1d8-2df93ae442d4"},"vehicle_type_id":"4","last_reported":1746810545,"current_range_meters":20400,"station_id":"ce4bgup2rcd13ifvqco0","pricing_plan_id":"cebpf4jnsgd1na2vs0mg"},{"bike_id":"8e32e7e5-2d4a-4658-9e73-931996a176a0","system_id":"levelo_inurba_marseille","lat":43.28601,"lon":5.35092,"is_reserved":false,"is_disabled":false,"rental_uris":{"android":"levelo://app?vid=8e32e7e5-2d4a-4658-9e73-931996a176a0","ios":"levelo://app?vid=8e32e7e5-2d4a-4658-9e73-931996a176a0"},"vehicle_type_id":"4","last_reported":1746810545,"current_range_meters":20400,"station_id":"ce4bhch2rcd13ifvqeug","pricing_plan_id":"cebpf4jnsgd1na2vs0mg"},{"bike_id":"f34a79fb-9a2a-4d46-9bae-b3621d640434","system_id":"levelo_inurba_marseille","lat":43.31079,"lon":5.42434,"is_reserved":false,"is_disabled":true,"rental_uris":{"android":"levelo://app?vid=f34a79fb-9a2a-4d46-9bae-b3621d640434","ios":"levelo://app?vid=f34a79fb-9a2a-4d46-9bae-b3621d640434"},"vehicle_type_id":"4","last_reported":1746810545,"current_range_meters":20400,"station_id":"ce4bhp92rcd13ifvqhag","pricing_plan_id":"cebpf4jnsgd1na2vs0mg"},{"bike_id":"d415e7e2-f909-4c4f-94d7-56d33e682e41","system_id":"levelo_inurba_marseille","lat":43.243895,"lon":5.370667,"is_reserved":false,"is_disabled":true,"rental_uris":{"android":"levelo://app?vid=d415e7e2-f909-4c4f-94d7-56d33e682e41","ios":"levelo://app?vid=d415e7e2-f909-4c4f-94d7-56d33e682e41"},"vehicle_type_id":"4","last_reported":1746810545,"current_range_meters":20400,"station_id":"ce4bhhh2rcd13ifvqfk0","pricing_plan_id":"cebpf4jnsgd1na2vs0mg"},{"bike_id":"69bc7778-5fda-4b0d-b679-018447bdc20e","system_id":"levelo_inurba_marseille","lat":43.3031,"lon":5.36885,"is_reserved":false,"is_disabled":false,"rental_uris":{"android":"levelo://app?vid=69bc7778-5fda-4b0d-b679-018447bdc20e","ios":"levelo://app?vid=69bc7778-5fda-4b0d-b679-018447bdc20e"},"vehicle_type_id":"4","last_reported":1746810545,"current_range_meters":20400,"station_id":"ce4bgqh2rcd13ifvqc5g","pricing_plan_id":"cebpf4jnsgd1na2vs0mg"},{"bike_id":"5db22628-a3e2-49d0-997d-e87ad3577403","system_id":"levelo_inurba_marseille","lat":43.29747,"lon":5.39327,"is_reserved":false,"is_disabled":false,"rental_uris":{"android":"levelo://app?vid=5db22628-a3e2-49d0-997d-e87ad3577403","ios":"levelo://app?vid=5db22628-a3e2-49d0-997d-e87ad3577403"},"vehicle_type_id":"4","last_reported":1746810545,"current_range_meters":20400,"station_id":"chh1huq6cuj3fo74tm60","pricing_plan_id":"cebpf4jnsgd1na2vs0mg"},{"bike_id":"2bac2cda-5e6c-4ab8-a071-7622b4332e28","system_id":"levelo_inurba_marseille","lat":43.31987,"lon":5.41555,"is_reserved":false,"is_disabled":false,"rental_uris":{"android":"levelo://app?vid=2bac2cda-5e6c-4ab8-a071-7622b4332e28","ios":"levelo://app?vid=2bac2cda-5e6c-4ab8-a071-7622b4332e28"},"vehicle_type_id":"4","last_reported":1746810545,"current_range_meters":20400,"station_id":"ce4bhq92rcd13ifvqhkg","pricing_plan_id":"cebpf4jnsgd1na2vs0mg"},{"bike_id":"589be833-6fc8-4c7e-abe3-20b2a016c12e","system_id":"levelo_inurba_marseille","lat":43.21189,"lon":5.35093,"is_reserved":false,"is_disabled":false,"rental_uris":{"android":"levelo://app?vid=589be833-6fc8-4c7e-abe3-20b2a016c12e","ios":"levelo://app?vid=589be833-6fc8-4c7e-abe3-20b2a016c12e"},"vehicle_type_id":"4","last_reported":1746810545,"current_range_meters":20800,"station_id":"st_cvj6sg6p6f1abm77japg","pricing_plan_id":"cebpf4jnsgd1na2vs0mg"},{"bike_id":"81cb1c52-6cf5-4523-8f34-8059d73d81db","system_id":"levelo_inurba_marseille","lat":43.27073,"lon":5.42277,"is_reserved":false,"is_disabled":false,"rental_uris":{"android":"levelo://app?vid=81cb1c52-6cf5-4523-8f34-8059d73d81db","ios":"levelo://app?vid=81cb1c52-6cf5-4523-8f34-8059d73d81db"},"vehicle_type_id":"4","last_reported":1746810545,"current_range_meters":20400,"station_id":"ce4bhk92rcd13ifvqgb0","pricing_plan_id":"cebpf4jnsgd1na2vs0mg"},{"bike_id":"d53ddbd2-0c62-4579-9616-5222c8250d6d","system_id":"levelo_inurba_marseille","lat":43.30303,"lon":5.36883,"is_reserved":false,"is_disabled":false,"rental_uris":{"android":"levelo://app?vid=d53ddbd2-0c62-4579-9616-5222c8250d6d","ios":"levelo://app?vid=d53ddbd2-0c62-4579-9616-5222c8250d6d"},"vehicle_type_id":"4","last_reported":1746810545,"current_range_meters":20800,"station_id":"ce4bgqh2rcd13ifvqc5g","pricing_plan_id":"cebpf4jnsgd1na2vs0mg"},{"bike_id":"1294eec8-8d0d-4ef3-af6b-08ec2b275746","system_id":"levelo_inurba_marseille","lat":43.245819,"lon":5.395189,"is_reserved":false,"is_disabled":false,"rental_uris":{"android":"levelo://app?vid=1294eec8-8d0d-4ef3-af6b-08ec2b275746","ios":"levelo://app?vid=1294eec8-8d0d-4ef3-af6b-08ec2b275746"},"vehicle_type_id":"4","last_reported":1746810545,"current_range_meters":20800,"station_id":"ce4bhlp2rcd13ifvqgjg","pricing_plan_id":"cebpf4jnsgd1na2vs0mg"},{"bike_id":"49e5752d-bd00-4f4c-8c4f-44f4f96cb1bb","system_id":"levelo_inurba_marseille","lat":43.30538,"lon":5.36722,"is_reserved":false,"is_disabled":false,"rental_uris":{"android":"levelo://app?vid=49e5752d-bd00-4f4c-8c4f-44f4f96cb1bb","ios":"levelo://app?vid=49e5752d-bd00-4f4c-8c4f-44f4f96cb1bb"},"vehicle_type_id":"4","last_reported":1746810545,"current_range_meters":21600,"station_id":"ce4bgrp2rcd13ifvqc9g","pricing_plan_id":"cebpf4jnsgd1na2vs0mg"},{"bike_id":"0fb6b147-e9a8-4345-a220-93d47a47a517","system_id":"levelo_inurba_marseille","lat":43.229538,"lon":5.353814,"is_reserved":false,"is_disabled":false,"rental_uris":{"android":"levelo://app?vid=0fb6b147-e9a8-4345-a220-93d47a47a517","ios":"levelo://app?vid=0fb6b147-e9a8-4345-a220-93d47a47a517"},"vehicle_type_id":"4","last_reported":1746810545,"current_range_meters":21600,"station_id":"cpo3532slgdg3j2ikp40","pricing_plan_id":"cebpf4jnsgd1na2vs0mg"},{"bike_id":"11bac9a6-0e04-4c68-9615-f13539342864","system_id":"levelo_inurba_marseille","lat":43.212,"lon":5.35071,"is_reserved":false,"is_disabled":false,"rental_uris":{"android":"levelo://app?vid=11bac9a6-0e04-4c68-9615-f13539342864","ios":"levelo://app?vid=11bac9a6-0e04-4c68-9615-f13539342864"},"vehicle_type_id":"4","last_reported":1746810545,"current_range_meters":22000,"station_id":"st_cvj6sg6p6f1abm77japg","pricing_plan_id":"cebpf4jnsgd1na2vs0mg"},{"bike_id":"778d7a01-aa27-48cd-95de-3f51eedbe9f3","system_id":"levelo_inurba_marseille","lat":43.28724,"lon":5.37942,"is_reserved":false,"is_disabled":false,"rental_uris":{"android":"levelo://app?vid=778d7a01-aa27-48cd-95de-3f51eedbe9f3","ios":"levelo://app?vid=778d7a01-aa27-48cd-95de-3f51eedbe9f3"},"vehicle_type_id":"4","last_reported":1746810545,"current_range_meters":22000,"station_id":"ce4bh9p2rcd13ifvqec0","pricing_plan_id":"cebpf4jnsgd1na2vs0mg"},{"bike_id":"41fb1b4e-f0b2-47b8-a7ca-db437515f380","system_id":"levelo_inurba_marseille","lat":43.26228,"lon":5.40483,"is_reserved":false,"is_disabled":false,"rental_uris":{"android":"levelo://app?vid=41fb1b4e-f0b2-47b8-a7ca-db437515f380","ios":"levelo://app?vid=41fb1b4e-f0b2-47b8-a7ca-db437515f380"},"vehicle_type_id":"4","last_reported":1746810545,"current_range_meters":22000,"station_id":"ce4bhmh2rcd13ifvqgmg","pricing_plan_id":"cebpf4jnsgd1na2vs0mg"},{"bike_id":"508f3d6e-ee49-4685-9b68-7f581487d147","system_id":"levelo_inurba_marseille","lat":43.291992,"lon":5.393257,"is_reserved":false,"is_disabled":false,"rental_uris":{"android":"levelo://app?vid=508f3d6e-ee49-4685-9b68-7f581487d147","ios":"levelo://app?vid=508f3d6e-ee49-4685-9b68-7f581487d147"},"vehicle_type_id":"4","last_reported":1746810545,"current_range_meters":22000,"station_id":"ce4bh192rcd13ifvqdd0","pricing_plan_id":"cebpf4jnsgd1na2vs0mg"},{"bike_id":"7d1098fe-12cc-4730-b725-353b09bc2be5","system_id":"levelo_inurba_marseille","lat":43.27071,"lon":5.42287,"is_reserved":false,"is_disabled":false,"rental_uris":{"android":"levelo://app?vid=7d1098fe-12cc-4730-b725-353b09bc2be5","ios":"levelo://app?vid=7d1098fe-12cc-4730-b725-353b09bc2be5"},"vehicle_type_id":"4","last_reported":1746810545,"current_range_meters":22000,"station_id":"ce4bhk92rcd13ifvqgb0","pricing_plan_id":"cebpf4jnsgd1na2vs0mg"},{"bike_id":"623689b1-cd88-43df-9ad4-b4b46188cb22","system_id":"levelo_inurba_marseille","lat":43.24076,"lon":5.3776,"is_reserved":false,"is_disabled":false,"rental_uris":{"android":"levelo://app?vid=623689b1-cd88-43df-9ad4-b4b46188cb22","ios":"levelo://app?vid=623689b1-cd88-43df-9ad4-b4b46188cb22"},"vehicle_type_id":"4","last_reported":1746810545,"current_range_meters":22000,"station_id":"ce4bhnp2rcd13ifvqgvg","pricing_plan_id":"cebpf4jnsgd1na2vs0mg"},{"bike_id":"9fc43e62-d465-4ad4-8943-b6ce0e306587","system_id":"levelo_inurba_marseille","lat":43.3054,"lon":5.36726,"is_reserved":false,"is_disabled":false,"rental_uris":{"android":"levelo://app?vid=9fc43e62-d465-4ad4-8943-b6ce0e306587","ios":"levelo://app?vid=9fc43e62-d465-4ad4-8943-b6ce0e306587"},"vehicle_type_id":"4","last_reported":1746810545,"current_range_meters":22400,"station_id":"ce4bgrp2rcd13ifvqc9g","pricing_plan_id":"cebpf4jnsgd1na2vs0mg"},{"bike_id":"11056a4a-df74-456a-9e82-921fe113feb2","system_id":"levelo_inurba_marseille","lat":43.290159,"lon":5.381299,"is_reserved":false,"is_disabled":false,"rental_uris":{"android":"levelo://app?vid=11056a4a-df74-456a-9e82-921fe113feb2","ios":"levelo://app?vid=11056a4a-df74-456a-9e82-921fe113feb2"},"vehicle_type_id":"4","last_reported":1746810545,"current_range_meters":22400,"station_id":"","pricing_plan_id":"cebpf4jnsgd1na2vs0mg"},{"bike_id":"e0ca876c-f71f-4cd3-947b-5ded42c8fa86","system_id":"levelo_inurba_marseille","lat":43.3149,"lon":5.37308,"is_reserved":false,"is_disabled":false,"rental_uris":{"android":"levelo://app?vid=e0ca876c-f71f-4cd3-947b-5ded42c8fa86","ios":"levelo://app?vid=e0ca876c-f71f-4cd3-947b-5ded42c8fa86"},"vehicle_type_id":"4","last_reported":1746810545,"current_range_meters":22400,"station_id":"ce4bgt12rcd13ifvqcd0","pricing_plan_id":"cebpf4jnsgd1na2vs0mg"},{"bike_id":"16604e1d-271b-4888-8582-d9cb9bdb2cfe","system_id":"levelo_inurba_marseille","lat":43.28142,"lon":5.42591,"is_reserved":false,"is_disabled":false,"rental_uris":{"android":"levelo://app?vid=16604e1d-271b-4888-8582-d9cb9bdb2cfe","ios":"levelo://app?vid=16604e1d-271b-4888-8582-d9cb9bdb2cfe"},"vehicle_type_id":"4","last_reported":1746810545,"current_range_meters":22400,"station_id":"ce4bhnh2rcd13ifvqgug","pricing_plan_id":"cebpf4jnsgd1na2vs0mg"},{"bike_id":"6f058bef-1157-4da4-a747-c82d7a7024ac","system_id":"levelo_inurba_marseille","lat":43.27561,"lon":5.38426,"is_reserved":false,"is_disabled":false,"rental_uris":{"android":"levelo://app?vid=6f058bef-1157-4da4-a747-c82d7a7024ac","ios":"levelo://app?vid=6f058bef-1157-4da4-a747-c82d7a7024ac"},"vehicle_type_id":"4","last_reported":1746810545,"current_range_meters":22000,"station_id":"ce4bhh92rcd13ifvqfi0","pricing_plan_id":"cebpf4jnsgd1na2vs0mg"},{"bike_id":"11c27237-c265-4469-90d2-d65b708086cf","system_id":"levelo_inurba_marseille","lat":43.29633,"lon":5.40596,"is_reserved":false,"is_disabled":false,"rental_uris":{"android":"levelo://app?vid=11c27237-c265-4469-90d2-d65b708086cf","ios":"levelo://app?vid=11c27237-c265-4469-90d2-d65b708086cf"},"vehicle_type_id":"4","last_reported":1746810545,"current_range_meters":22000,"station_id":"ce4bh0h2rcd13ifvqd60","pricing_plan_id":"cebpf4jnsgd1na2vs0mg"},{"bike_id":"046407b5-f9a9-4088-9546-43dc26cb659c","system_id":"levelo_inurba_marseille","lat":43.3078,"lon":5.37653,"is_reserved":false,"is_disabled":false,"rental_uris":{"android":"levelo://app?vid=046407b5-f9a9-4088-9546-43dc26cb659c","ios":"levelo://app?vid=046407b5-f9a9-4088-9546-43dc26cb659c"},"vehicle_type_id":"4","last_reported":1746810545,"current_range_meters":22000,"station_id":"ce4bgv92rcd13ifvqcq0","pricing_plan_id":"cebpf4jnsgd1na2vs0mg"},{"bike_id":"77b48df3-3ba3-4210-8658-624cbc9c424a","system_id":"levelo_inurba_marseille","lat":43.25732,"lon":5.41114,"is_reserved":false,"is_disabled":false,"rental_uris":{"android":"levelo://app?vid=77b48df3-3ba3-4210-8658-624cbc9c424a","ios":"levelo://app?vid=77b48df3-3ba3-4210-8658-624cbc9c424a"},"vehicle_type_id":"4","last_reported":1746810545,"current_range_meters":22800,"station_id":"ce4bhkp2rcd13ifvqgd0","pricing_plan_id":"cebpf4jnsgd1na2vs0mg"},{"bike_id":"66a890f5-a323-4446-9cf4-82853270b56f","system_id":"levelo_inurba_marseille","lat":43.290194,"lon":5.356135,"is_reserved":false,"is_disabled":false,"rental_uris":{"android":"levelo://app?vid=66a890f5-a323-4446-9cf4-82853270b56f","ios":"levelo://app?vid=66a890f5-a323-4446-9cf4-82853270b56f"},"vehicle_type_id":"4","last_reported":1746810545,"current_range_meters":22800,"station_id":"ce4bhb92rcd13ifvqen0","pricing_plan_id":"cebpf4jnsgd1na2vs0mg"},{"bike_id":"1112df4d-33b1-44da-b208-20da763da086","system_id":"levelo_inurba_marseille","lat":43.29228,"lon":5.36126,"is_reserved":false,"is_disabled":false,"rental_uris":{"android":"levelo://app?vid=1112df4d-33b1-44da-b208-20da763da086","ios":"levelo://app?vid=1112df4d-33b1-44da-b208-20da763da086"},