{"last_updated":1746911296,"ttl":60,"version":"2.2","data":{"bikes":[{"bike_id":"c3d32a8f-d6ec-4db4-8b91-58a376392a8e","system_id":"levelo_inurba_marseille","lat":43.26944,"lon":5.39309,"is_reserved":false,"is_disabled":false,"rental_uris":{"android":"levelo://app?vid=c3d32a8f-d6ec-4db4-8b91-58a376392a8e","ios":"levelo://app?vid=c3d32a8f-d6ec-4db4-8b91-58a376392a8e"},"vehicle_type_id":"4","last_reported":1746911296,"current_range_meters":2800,"station_id":"","pricing_plan_id":"cebpf4jnsgd1na2vs0mg"},{"bike_id":"198023a9-5609-442c-8b95-a59cd525c879","system_id":"levelo_inurba_marseille","lat":43.28044,"lon":5.36952,"is_reserved":false,"is_disabled":false,"rental_uris":{"android":"levelo://app?vid=198023a9-5609-442c-8b95-a59cd525c879","ios":"levelo://app?vid=198023a9-5609-442c-8b95-a59cd525c879"},"vehicle_type_id":"4","last_reported":1746911296,"current_range_meters":2800,"station_id":"ce4bha12rcd13ifvqef0","pricing_plan_id":"cebpf4jnsgd1na2vs0mg"},{"bike_id":"7d431ede-1310-4464-8f05-7abbbd376513","system_id":"levelo_inurba_marseille","lat":43.27966,"lon":5.38756,"is_reserved":false,"is_disabled":false,"rental_uris":{"android":"levelo://app?vid=7d431ede-1310-4464-8f05-7abbbd376513","ios":"levelo://app?vid=7d431ede-1310-4464-8f05-7abbbd376513"},"vehicle_type_id":"4","last_reported":1746911296,"current_range_meters":2800,"station_id":"ce4bhg12rcd13ifvqf80","pricing_plan_id":"cebpf4jnsgd1na2vs0mg"},{"bike_id":"950504f1-3d4c-4519-842f-3808041776f1","system_id":"levelo_inurba_marseille","lat":43.26561,"lon":5.39017,"is_reserved":false,"is_disabled":false,"rental_uris":{"android":"levelo://app?vid=950504f1-3d4c-4519-842f-3808041776f1","ios":"levelo://app?vid=950504f1-3d4c-4519-842f-3808041776f1"},"vehicle_type_id":"4","last_reported":1746911296,"current_range_meters":2800,"station_id":"ce4bhe12rcd13ifvqf30","pricing_plan_id":"cebpf4jnsgd1na2vs0mg"},{"bike_id":"0a3eb716-b49e-4c2e-9e24-f3c936f60596","system_id":"levelo_inurba_marseille","lat":43.26051,"lon":5.39395,"is_reserved":false,"is_disabled":false,"rental_uris":{"android":"levelo://app?vid=0a3eb716-b49e-4c2e-9e24-f3c936f60596","ios":"levelo://app?vid=0a3eb716-b49e-4c2e-9e24-f3c936f60596"},"vehicle_type_id":"4","last_reported":1746911296,"current_range_meters":3200,"station_id":"ce4bhh92rcd13ifvqfj0","pricing_plan_id":"cebpf4jnsgd1na2vs0mg"},{"bike_id":"caf9033d-5f00-49c3-b1ee-1328b62008dc","system_id":"levelo_inurba_marseille","lat":43.33575,"lon":5.42858,"is_reserved":false,"is_disabled":false,"rental_uris":{"android":"levelo://app?vid=caf9033d-5f00-49c3-b1ee-1328b62008dc","ios":"levelo://app?vid=caf9033d-5f00-49c3-b1ee-1328b62008dc"},"vehicle_type_id":"4","last_reported":1746911296,"current_range_meters":3200,"station_id":"","pricing_plan_id":"cebpf4jnsgd1na2vs0mg"},{"bike_id":"9c0b1beb-cc97-454c-8d54-22dbe8b4ca89","system_id":"levelo_inurba_marseille","lat":43.28446,"lon":5.39201,"is_reserved":false,"is_disabled":false,"rental_uris":{"android":"levelo://app?vid=9c0b1beb-cc97-454c-8d54-22dbe8b4ca89","ios":"levelo://app?vid=9c0b1beb-cc97-454c-8d54-22dbe8b4ca89"},"vehicle_type_id":"4","last_reported":1746911296,"current_range_meters":4000,"station_id":"ce4bhoh2rcd13ifvqh5g","pricing_plan_id":"cebpf4jnsgd1na2vs0mg"},{"bike_id":"cdb2c243-fbdb-4b62-a933-f403dfb8a580","system_id":"levelo_inurba_marseille","lat":43.27886,"lon":5.3881,"is_reserved":false,"is_disabled":false,"rental_uris":{"android":"levelo://app?vid=cdb2c243-fbdb-4b62-a933-f403dfb8a580","ios":"levelo://app?vid=cdb2c243-fbdb-4b62-a933-f403dfb8a580"},"vehicle_type_id":"4","last_reported":1746911296,"current_range_meters":4000,"station_id":"","pricing_plan_id":"cebpf4jnsgd1na2vs0mg"},{"bike_id":"2803b40b-f117-4c7e-b5ad-7b2249dc2448","system_id":"levelo_inurba_marseille","lat":43.27178,"lon":5.40994,"is_reserved":false,"is_disabled":false,"rental_uris":{"android":"levelo://app?vid=2803b40b-f117-4c7e-b5ad-7b2249dc2448","ios":"levelo://app?vid=2803b40b-f117-4c7e-b5ad-7b2249dc2448"},"vehicle_type_id":"4","last_reported":1746911296,"current_range_meters":4400,"station_id":"ce4bhl12rcd13ifvqgf0","pricing_plan_id":"cebpf4jnsgd1na2vs0mg"},{"bike_id":"5ff775d2-f155-427c-9d7e-5f52746c8ad2","system_id":"levelo_inurba_marseille","lat":43.2606,"lon":5.39399,"is_reserved":false,"is_disabled":false,"rental_uris":{"android":"levelo://app?vid=5ff775d2-f155-427c-9d7e-5f52746c8ad2","ios":"levelo://app?vid=5ff775d2-f155-427c-9d7e-5f52746c8ad2"},"vehicle_type_id":"4","last_reported":1746911296,"current_range_meters":4400,"station_id":"ce4bhh92rcd13ifvqfj0","pricing_plan_id":"cebpf4jnsgd1na2vs0mg"},{"bike_id":"fa47f1bf-d293-4bca-acd1-3ba62fe98139","system_id":"levelo_inurba_marseille","lat":43.26866,"lon":5.40247,"is_reserved":false,"is_disabled":false,"rental_uris":{"android":"levelo://app?vid=fa47f1bf-d293-4bca-acd1-3ba62fe98139","ios":"levelo://app?vid=fa47f1bf-d293-4bca-acd1-3ba62fe98139"},"vehicle_type_id":"4","last_reported":1746911296,"current_range_meters":4400,"station_id":"ce501612rcd8frsf0b60","pricing_plan_id":"cebpf4jnsgd1na2vs0mg"},{"bike_id":"6014b758-e63d-4f1b-8c0a-74b4f5ed9e0e","system_id":"levelo_inurba_marseille","lat":43.28078,"lon":5.39647,"is_reserved":false,"is_disabled":false,"rental_uris":{"android":"levelo://app?vid=6014b758-e63d-4f1b-8c0a-74b4f5ed9e0e","ios":"levelo://app?vid=6014b758-e63d-4f1b-8c0a-74b4f5ed9e0e"},"vehicle_type_id":"4","last_reported":1746911296,"current_range_meters":4400,"station_id":"ce4bho12rcd13ifvqh2g","pricing_plan_id":"cebpf4jnsgd1na2vs0mg"},{"bike_id":"3d112367-c7f0-4d89-b152-ab865872c375","system_id":"levelo_inurba_marseille","lat":43.25144,"lon":5.3757,"is_reserved":false,"is_disabled":false,"rental_uris":{"android":"levelo://app?vid=3d112367-c7f0-4d89-b152-ab865872c375","ios":"levelo://app?vid=3d112367-c7f0-4d89-b152-ab865872c375"},"vehicle_type_id":"4","last_reported":1746911296,"current_range_meters":4800,"station_id":"","pricing_plan_id":"cebpf4jnsgd1na2vs0mg"},{"bike_id":"7ac7b435-f4ff-4a06-bfb1-a3d72c0e0913","system_id":"levelo_inurba_marseille","lat":43.31417,"lon":5.37631,"is_reserved":false,"is_disabled":false,"rental_uris":{"android":"levelo://app?vid=7ac7b435-f4ff-4a06-bfb1-a3d72c0e0913","ios":"levelo://app?vid=7ac7b435-f4ff-4a06-bfb1-a3d72c0e0913"},"vehicle_type_id":"4","last_reported":1746911296,"current_range_meters":4800,"station_id":"","pricing_plan_id":"cebpf4jnsgd1na2vs0mg"},{"bike_id":"cd485776-5d07-4bf1-a8bc-064c18e484b9","system_id":"levelo_inurba_marseille","lat":43.3013,"lon":5.39849,"is_reserved":false,"is_disabled":false,"rental_uris":{"android":"levelo://app?vid=cd485776-5d07-4bf1-a8bc-064c18e484b9","ios":"levelo://app?vid=cd485776-5d07-4bf1-a8bc-064c18e484b9"},"vehicle_type_id":"4","last_reported":1746911296,"current_range_meters":5600,"station_id":"ce4bh0h2rcd13ifvqd40","pricing_plan_id":"cebpf4jnsgd1na2vs0mg"},{"bike_id":"88050f2c-ea12-41b9-aa1f-954f1e156422","system_id":"levelo_inurba_marseille","lat":43.29709,"lon":5.37699,"is_reserved":false,"is_disabled":false,"rental_uris":{"android":"levelo://app?vid=88050f2c-ea12-41b9-aa1f-954f1e156422","ios":"levelo://app?vid=88050f2c-ea12-41b9-aa1f-954f1e156422"},"vehicle_type_id":"4","last_reported":1746911296,"current_range_meters":5600,"station_id":"ce4bgkh2rcd13ifvqbl0","pricing_plan_id":"cebpf4jnsgd1na2vs0mg"},{"bike_id":"90a4d605-c843-4437-8062-ea389c47c467","system_id":"levelo_inurba_marseille","lat":43.30424,"lon":5.39727,"is_reserved":false,"is_disabled":false,"rental_uris":{"android":"levelo://app?vid=90a4d605-c843-4437-8062-ea389c47c467","ios":"levelo://app?vid=90a4d605-c843-4437-8062-ea389c47c467"},"vehicle_type_id":"4","last_reported":1746911296,"current_range_meters":5600,"station_id":"ce4bh092rcd13ifvqd20","pricing_plan_id":"cebpf4jnsgd1na2vs0mg"},{"bike_id":"20db381c-0c5e-446f-882a-5370804f822c","system_id":"levelo_inurba_marseille","lat":43.29165,"lon":5.37157,"is_reserved":false,"is_disabled":false,"rental_uris":{"android":"levelo://app?vid=20db381c-0c5e-446f-882a-5370804f822c","ios":"levelo://app?vid=20db381c-0c5e-446f-882a-5370804f822c"},"vehicle_type_id":"4","last_reported":1746911296,"current_range_meters":5600,"station_id":"ce4bha92rcd13ifvqeh0","pricing_plan_id":"cebpf4jnsgd1na2vs0mg"},{"bike_id":"c832ec6f-1d9d-4c1b-89b3-820550f03458","system_id":"levelo_inurba_marseille","lat":43.2743,"lon":5.39423,"is_reserved":false,"is_disabled":false,"rental_uris":{"android":"levelo://app?vid=c832ec6f-1d9d-4c1b-89b3-820550f03458","ios":"levelo://app?vid=c832ec6f-1d9d-4c1b-89b3-820550f03458"},"vehicle_type_id":"4","last_reported":1746911296,"current_range_meters":5600,"station_id":"ce4bhdp2rcd13ifvqf20","pricing_plan_id":"cebpf4jnsgd1na2vs0mg"},{"bike_id":"1441959e-d9e5-49f1-8482-533ee9b159de","system_id":"levelo_inurba_marseille","lat":43.28941,"lon":5.36641,"is_reserved":false,"is_disabled":false,"rental_uris":{"android":"levelo://app?vid=1441959e-d9e5-49f1-8482-533ee9b159de","ios":"levelo://app?vid=1441959e-d9e5-49f1-8482-533ee9b159de"},"vehicle_type_id":"4","last_reported":1746911296,"current_range_meters":5600,"station_id":"ce4bhap2rcd13ifvqek0","pricing_plan_id":"cebpf4jnsgd1na2vs0mg"},{"bike_id":"0702c3b1-d42b-4aee-8838-5dfc77ec2bbb","system_id":"levelo_inurba_marseille","lat":43.27178,"lon":5.40986,"is_reserved":false,"is_disabled":false,"rental_uris":{"android":"levelo://app?vid=0702c3b1-d42b-4aee-8838-5dfc77ec2bbb","ios":"levelo://app?vid=0702c3b1-d42b-4aee-8838-5dfc77ec2bbb"},"vehicle_type_id":"4","last_reported":1746911296,"current_range_meters":6000,"station_id":"ce4bhl12rcd13ifvqgf0","pricing_plan_id":"cebpf4jnsgd1na2vs0mg"},{"bike_id":"832ec58b-d299-44b1-bd83-9db6983f07e3","system_id":"levelo_inurba_marseille","lat":43.30715,"lon":5.37378,"is_reserved":false,"is_disabled":false,"rental_uris":{"android":"levelo://app?vid=832ec58b-d299-44b1-bd83-9db6983f07e3","ios":"levelo://app?vid=832ec58b-d299-44b1-bd83-9db6983f07e3"},"vehicle_type_id":"4","last_reported":1746911296,"current_range_meters":6000,"station_id":"","pricing_plan_id":"cebpf4jnsgd1na2vs0mg"},{"bike_id":"b267e857-efb8-423a-86c1-709a2d8b7be7","system_id":"levelo_inurba_marseille","lat":43.29795,"lon":5.38088,"is_reserved":false,"is_disabled":false,"rental_uris":{"android":"levelo://app?vid=b267e857-efb8-423a-86c1-709a2d8b7be7","ios":"levelo://app?vid=b267e857-efb8-423a-86c1-709a2d8b7be7"},"vehicle_type_id":"4","last_reported":1746911296,"current_range_meters":6000,"station_id":"ce4bgip2rcd13ifvqbb0","pricing_plan_id":"cebpf4jnsgd1na2vs0mg"},{"bike_id":"69648ca7-2a15-4cb7-a4d2-196f29766b99","system_id":"levelo_inurba_marseille","lat":43.25473,"lon":5.3753,"is_reserved":false,"is_disabled":false,"rental_uris":{"android":"levelo://app?vid=69648ca7-2a15-4cb7-a4d2-196f29766b99","ios":"levelo://app?vid=69648ca7-2a15-4cb7-a4d2-196f29766b99"},"vehicle_type_id":"4","last_reported":1746911296,"current_range_meters":6000,"station_id":"","pricing_plan_id":"cebpf4jnsgd1na2vs0mg"},{"bike_id":"a29f9cb4-3f21-4e49-a9d9-92db46cb8fe6","system_id":"levelo_inurba_marseille","lat":43.26553,"lon":5.37285,"is_reserved":false,"is_disabled":false,"rental_uris":{"android":"levelo://app?vid=a29f9cb4-3f21-4e49-a9d9-92db46cb8fe6","ios":"levelo://app?vid=a29f9cb4-3f21-4e49-a9d9-92db46cb8fe6"},"vehicle_type_id":"4","last_reported":1746911296,"current_range_meters":6000,"station_id":"ce4bhg12rcd13ifvqf70","pricing_plan_id":"cebpf4jnsgd1na2vs0mg"},{"bike_id":"3af40228-8ea0-46a4-af45-5fac17cab5f1","system_id":"levelo_inurba_marseille","lat":43.29788,"lon":5.39349,"is_reserved":false,"is_disabled":false,"rental_uris":{"android":"levelo://app?vid=3af40228-8ea0-46a4-af45-5fac17cab5f1","ios":"levelo://app?vid=3af40228-8ea0-46a4-af45-5fac17cab5f1"},"vehicle_type_id":"4","last_reported":1746911296,"current_range_meters":6400,"station_id":"chh1huq6cuj3fo74tm60","pricing_plan_id":"cebpf4jnsgd1na2vs0mg"},{"bike_id":"636ffb93-3665-4662-8f3f-61644e5691e2","system_id":"levelo_inurba_marseille","lat":43.274306,"lon":5.394111,"is_reserved":false,"is_disabled":false,"rental_uris":{"android":"levelo://app?vid=636ffb93-3665-4662-8f3f-61644e5691e2","ios":"levelo://app?vid=636ffb93-3665-4662-8f3f-61644e5691e2"},"vehicle_type_id":"4","last_reported":1746911296,"current_range_meters":6400,"station_id":"ce4bhdp2rcd13ifvqf20","pricing_plan_id":"cebpf4jnsgd1na2vs0mg"},{"bike_id":"7561ca81-18ff-4062-bd0d-4e3e5b796d0e","system_id":"levelo_inurba_marseille","lat":43.27775,"lon":5.43499,"is_reserved":false,"is_disabled":false,"rental_uris":{"android":"levelo://app?vid=7561ca81-18ff-4062-bd0d-4e3e5b796d0e","ios":"levelo://app?vid=7561ca81-18ff-4062-bd0d-4e3e5b796d0e"},"vehicle_type_id":"4","last_reported":1746911296,"current_range_meters":6400,"station_id":"","pricing_plan_id":"cebpf4jnsgd1na2vs0mg"},{"bike_id":"d69c80ad-b04f-4021-9556-16e53a21adda","system_id":"levelo_inurba_marseille","lat":43.29838,"lon":5.36257,"is_reserved":false,"is_disabled":false,"rental_uris":{"android":"levelo://app?vid=d69c80ad-b04f-4021-9556-16e53a21adda","ios":"levelo://app?vid=d69c80ad-b04f-4021-9556-16e53a21adda"},"vehicle_type_id":"4","last_reported":1746911296,"current_range_meters":6400,"station_id":"ce4bgpp2rcd13ifvqc3g","pricing_plan_id":"cebpf4jnsgd1na2vs0mg"},{"bike_id":"8721b0b2-aa5e-47f2-98b6-4fd22cf926b9","system_id":"levelo_inurba_marseille","lat":43.23121,"lon":5.43722,"is_reserved":false,"is_disabled":false,"rental_uris":{"android":"levelo://app?vid=8721b0b2-aa5e-47f2-98b6-4fd22cf926b9","ios":"levelo://app?vid=8721b0b2-aa5e-47f2-98b6-4fd22cf926b9"},"vehicle_type_id":"4","last_reported":1746911296,"current_range_meters":6400,"station_id":"ce4bhmp2rcd13ifvqgog","pricing_plan_id":"cebpf4jnsgd1na2vs0mg"},{"bike_id":"93b3c579-248b-412d-b464-87f9fb70e513","system_id":"levelo_inurba_marseille","lat":43.29255,"lon":5.38316,"is_reserved":false,"is_disabled":false,"rental_uris":{"android":"levelo://app?vid=93b3c579-248b-412d-b464-87f9fb70e513","ios":"levelo://app?vid=93b3c579-248b-412d-b464-87f9fb70e513"},"vehicle_type_id":"4","last_reported":1746911296,"current_range_meters":6800,"station_id":"","pricing_plan_id":"cebpf4jnsgd1na2vs0mg"},{"bike_id":"d14a6269-3830-4052-a40e-331eb2b4f4d8","system_id":"levelo_inurba_marseille","lat":43.30136,"lon":5.37421,"is_reserved":false,"is_disabled":false,"rental_uris":{"android":"levelo://app?vid=d14a6269-3830-4052-a40e-331eb2b4f4d8","ios":"levelo://app?vid=d14a6269-3830-4052-a40e-331eb2b4f4d8"},"vehicle_type_id":"4","last_reported":1746911296,"current_range_meters":6800,"station_id":"ce4bgs92rcd13ifvqcc0","pricing_plan_id":"cebpf4jnsgd1na2vs0mg"},{"bike_id":"20d62d3a-f9ce-444c-ad20-a24efcb0537e","system_id":"levelo_inurba_marseille","lat":43.32,"lon":5.38154,"is_reserved":false,"is_disabled":true,"rental_uris":{"android":"levelo://app?vid=20d62d3a-f9ce-444c-ad20-a24efcb0537e","ios":"levelo://app?vid=20d62d3a-f9ce-444c-ad20-a24efcb0537e"},"vehicle_type_id":"4","last_reported":1746911296,"current_range_meters":6800,"station_id":"ce4bhr12rcd13ifvqhpg","pricing_plan_id":"cebpf4jnsgd1na2vs0mg"},{"bike_id":"810507fb-1d7c-4364-83f3-560d21ac1ef0","system_id":"levelo_inurba_marseille","lat":43.30149,"lon":5.38083,"is_reserved":false,"is_disabled":false,"rental_uris":{"android":"levelo://app?vid=810507fb-1d7c-4364-83f3-560d21ac1ef0","ios":"levelo://app?vid=810507fb-1d7c-4364-83f3-560d21ac1ef0"},"vehicle_type_id":"4","last_reported":1746911296,"current_range_meters":7200,"station_id":"ce4bgjp2rcd13ifvqbh0","pricing_plan_id":"cebpf4jnsgd1na2vs0mg"},{"bike_id":"d26470ec-c77f-4723-bf3b-b85ee2ae9447","system_id":"levelo_inurba_marseille","lat":43.306076,"lon":5.372371,"is_reserved":false,"is_disabled":false,"rental_uris":{"android":"levelo://app?vid=d26470ec-c77f-4723-bf3b-b85ee2ae9447","ios":"levelo://app?vid=d26470ec-c77f-4723-bf3b-b85ee2ae9447"},"vehicle_type_id":"4","last_reported":1746911296,"current_range_meters":7200,"station_id":"","pricing_plan_id":"cebpf4jnsgd1na2vs0mg"},{"bike_id":"904c7fc2-540f-4043-a405-5f5658266117","system_id":"levelo_inurba_marseille","lat":43.27606,"lon":5.37796,"is_reserved":false,"is_disabled":false,"rental_uris":{"android":"levelo://app?vid=904c7fc2-540f-4043-a405-5f5658266117","ios":"levelo://app?vid=904c7fc2-540f-4043-a405-5f5658266117"},"vehicle_type_id":"4","last_reported":1746911296,"current_range_meters":7200,"station_id":"","pricing_plan_id":"cebpf4jnsgd1na2vs0mg"},{"bike_id":"4b19c42a-1a68-4516-b11f-a54c0655823f","system_id":"levelo_inurba_marseille","lat":43.30641,"lon":5.40098,"is_reserved":false,"is_disabled":false,"rental_uris":{"android":"levelo://app?vid=4b19c42a-1a68-4516-b11f-a54c0655823f","ios":"levelo://app?vid=4b19c42a-1a68-4516-b11f-a54c0655823f"},"vehicle_type_id":"4","last_reported":1746911296,"current_range_meters":7200,"station_id":"ce4bh112rcd13ifvqda0","pricing_plan_id":"cebpf4jnsgd1na2vs0mg"},{"bike_id":"92d87bf1-60f8-44f9-b273-2bc2afd633ce","system_id":"levelo_inurba_marseille","lat":43.28458,"lon":5.35899,"is_reserved":false,"is_disabled":false,"rental_uris":{"android":"levelo://app?vid=92d87bf1-60f8-44f9-b273-2bc2afd633ce","ios":"levelo://app?vid=92d87bf1-60f8-44f9-b273-2bc2afd633ce"},"vehicle_type_id":"4","last_reported":1746911296,"current_range_meters":7200,"station_id":"ce4bhah2rcd13ifvqei0","pricing_plan_id":"cebpf4jnsgd1na2vs0mg"},{"bike_id":"97a0f559-bc2b-4566-abf6-22339ed2ce55","system_id":"levelo_inurba_marseille","lat":43.3054,"lon":5.36703,"is_reserved":false,"is_disabled":false,"rental_uris":{"android":"levelo://app?vid=97a0f559-bc2b-4566-abf6-22339ed2ce55","ios":"levelo://app?vid=97a0f559-bc2b-4566-abf6-22339ed2ce55"},"vehicle_type_id":"4","last_reported":1746911296,"current_range_meters":8000,"station_id":"ce4bgrp2rcd13ifvqc9g","pricing_plan_id":"cebpf4jnsgd1na2vs0mg"},{"bike_id":"f1cd8327-dfd5-4daf-af1f-61e0802cc613","system_id":"levelo_inurba_marseille","lat":43.284709,"lon":5.384325,"is_reserved":false,"is_disabled":false,"rental_uris":{"android":"levelo://app?vid=f1cd8327-dfd5-4daf-af1f-61e0802cc613","ios":"levelo://app?vid=f1cd8327-dfd5-4daf-af1f-61e0802cc613"},"vehicle_type_id":"4","last_reported":1746911296,"current_range_meters":8000,"station_id":"ce4bh512rcd13ifvqe3g","pricing_plan_id":"cebpf4jnsgd1na2vs0mg"},{"bike_id":"af30e8a3-f7da-48bc-84d2-ebe6fc8f40f6","system_id":"levelo_inurba_marseille","lat":43.30927,"lon":5.40142,"is_reserved":false,"is_disabled":false,"rental_uris":{"android":"levelo://app?vid=af30e8a3-f7da-48bc-84d2-ebe6fc8f40f6","ios":"levelo://app?vid=af30e8a3-f7da-48bc-84d2-ebe6fc8f40f6"},"vehicle_type_id":"4","last_reported":1746911296,"current_range_meters":8000,"station_id":"ce4bgvp2rcd13ifvqct0","pricing_plan_id":"cebpf4jnsgd1na2vs0mg"},{"bike_id":"44b6822a-3f74-4531-bc1a-e9caf355563c","system_id":"levelo_inurba_marseille","lat":43.25491,"lon":5.37606,"is_reserved":false,"is_disabled":false,"rental_uris":{"android":"levelo://app?vid=44b6822a-3f74-4531-bc1a-e9caf355563c","ios":"levelo://app?vid=44b6822a-3f74-4531-bc1a-e9caf355563c"},"vehicle_type_id":"4","last_reported":1746911296,"current_range_meters":8000,"station_id":"ce4bhh12rcd13ifvqff0","pricing_plan_id":"cebpf4jnsgd1na2vs0mg"},{"bike_id":"cb0833db-fb70-411a-a848-fabba5bd45d7","system_id":"levelo_inurba_marseille","lat":43.30145,"lon":5.37418,"is_reserved":false,"is_disabled":false,"rental_uris":{"android":"levelo://app?vid=cb0833db-fb70-411a-a848-fabba5bd45d7","ios":"levelo://app?vid=cb0833db-fb70-411a-a848-fabba5bd45d7"},"vehicle_type_id":"4","last_reported":1746911296,"current_range_meters":8400,"station_id":"ce4bgs92rcd13ifvqcc0","pricing_plan_id":"cebpf4jnsgd1na2vs0mg"},{"bike_id":"f37fd579-ee4e-46a5-9128-3c50468ec629","system_id":"levelo_inurba_marseille","lat":43.26548,"lon":5.37286,"is_reserved":false,"is_disabled":true,"rental_uris":{"android":"levelo://app?vid=f37fd579-ee4e-46a5-9128-3c50468ec629","ios":"levelo://app?vid=f37fd579-ee4e-46a5-9128-3c50468ec629"},"vehicle_type_id":"4","last_reported":1746911296,"current_range_meters":8400,"station_id":"ce4bhg12rcd13ifvqf70","pricing_plan_id":"cebpf4jnsgd1na2vs0mg"},{"bike_id":"e853834f-1da1-4382-b8ae-eca334bd6581","system_id":"levelo_inurba_marseille","lat":43.2807,"lon":5.36822,"is_reserved":false,"is_disabled":false,"rental_uris":{"android":"levelo://app?vid=e853834f-1da1-4382-b8ae-eca334bd6581","ios":"levelo://app?vid=e853834f-1da1-4382-b8ae-eca334bd6581"},"vehicle_type_id":"4","last_reported":1746911296,"current_range_meters":8400,"station_id":"","pricing_plan_id":"cebpf4jnsgd1na2vs0mg"},{"bike_id":"e6070e7a-9ce9-4093-b91b-ee4e1a856a5e","system_id":"levelo_inurba_marseille","lat":43.30214,"lon":5.39474,"is_reserved":false,"is_disabled":false,"rental_uris":{"android":"levelo://app?vid=e6070e7a-9ce9-4093-b91b-ee4e1a856a5e","ios":"levelo://app?vid=e6070e7a-9ce9-4093-b91b-ee4e1a856a5e"},"vehicle_type_id":"4","last_reported":1746911296,"current_range_meters":8400,"station_id":"ce4bh0p2rcd13ifvqd70","pricing_plan_id":"cebpf4jnsgd1na2vs0mg"},{"bike_id":"a2514267-4fd8-409f-be6c-38268e63cec1","system_id":"levelo_inurba_marseille","lat":43.2835,"lon":5.38102,"is_reserved":false,"is_disabled":true,"rental_uris":{"android":"levelo://app?vid=a2514267-4fd8-409f-be6c-38268e63cec1","ios":"levelo://app?vid=a2514267-4fd8-409f-be6c-38268e63cec1"},"vehicle_type_id":"4","last_reported":1746911296,"current_range_meters":8400,"station_id":"ce4bh412rcd13ifvqdr0","pricing_plan_id":"cebpf4jnsgd1na2vs0mg"},{"bike_id":"f30700cd-2b15-4379-bae3-a617af060209","system_id":"levelo_inurba_marseille","lat":43.21755,"lon":5.34597,"is_reserved":false,"is_disabled":true,"rental_uris":{"android":"levelo://app?vid=f30700cd-2b15-4379-bae3-a617af060209","ios":"levelo://app?vid=f30700cd-2b15-4379-bae3-a617af060209"},"vehicle_type_id":"4","last_reported":1746911296,"current_range_meters":8400,"station_id":"st_cvj6r9ubvosntc0bgbag","pricing_plan_id":"cebpf4jnsgd1na2vs0mg"},{"bike_id":"c8871d60-de65-4dc9-8457-ca42730446e7","system_id":"levelo_inurba_marseille","lat":43.317473,"lon":5.387745,"is_reserved":false,"is_disabled":false,"rental_uris":{"android":"levelo://app?vid=c8871d60-de65-4dc9-8457-ca42730446e7","ios":"levelo://app?vid=c8871d60-de65-4dc9-8457-ca42730446e7"},"vehicle_type_id":"4","last_reported":1746911296,"current_range_meters":8400,"station_id":"","pricing_plan_id":"cebpf4jnsgd1na2vs0mg"},{"bike_id":"c13f6770-edfc-46b5-bb2d-9740a2cce6d4","system_id":"levelo_inurba_marseille","lat":43.25497,"lon":5.3764,"is_reserved":false,"is_disabled":true,"rental_uris":{"android":"levelo://app?vid=c13f6770-edfc-46b5-bb2d-9740a2cce6d4","ios":"levelo://app?vid=c13f6770-edfc-46b5-bb2d-9740a2cce6d4"},"vehicle_type_id":"4","last_reported":1746911296,"current_range_meters":8400,"station_id":"ce4bhh12rcd13ifvqff0","pricing_plan_id":"cebpf4jnsgd1na2vs0mg"},{"bike_id":"aedac110-9a80-4055-b3bc-6fbbff4ed0bc","system_id":"levelo_inurba_marseille","lat":43.317517,"lon":5.372323,"is_reserved":false,"is_disabled":false,"rental_uris":{"android":"levelo://app?vid=aedac110-9a80-4055-b3bc-6fbbff4ed0bc","ios":"levelo://app?vid=aedac110-9a80-4055-b3bc-6fbbff4ed0bc"},"vehicle_type_id":"4","last_reported":1746911296,"current_range_meters":8800,"station_id":"","pricing_plan_id":"cebpf4jnsgd1na2vs0mg"},{"bike_id":"7d133824-1f9a-4c15-a32e-419ca57eeea8","system_id":"levelo_inurba_marseille","lat":43.29585,"lon":5.36758,"is_reserved":false,"is_disabled":true,"rental_uris":{"android":"levelo://app?vid=7d133824-1f9a-4c15-a32e-419ca57eeea8","ios":"levelo://app?vid=7d133824-1f9a-4c15-a32e-419ca57eeea8"},"vehicle_type_id":"4","last_reported":1746911296,"current_range_meters":8800,"station_id":"ce4bgph2rcd13ifvqc2g","pricing_plan_id":"cebpf4jnsgd1na2vs0mg"},{"bike_id":"86b478b2-1cf2-4e07-8a5c-76710e912a41","system_id":"levelo_inurba_marseille","lat":43.29125,"lon":5.3669,"is_reserved":false,"is_disabled":false,"rental_uris":{"android":"levelo://app?vid=86b478b2-1cf2-4e07-8a5c-76710e912a41","ios":"levelo://app?vid=86b478b2-1cf2-4e07-8a5c-76710e912a41"},"vehicle_type_id":"4","last_reported":1746911296,"current_range_meters":8800,"station_id":"","pricing_plan_id":"cebpf4jnsgd1na2vs0mg"},{"bike_id":"465deb1d-e492-4f66-b301-bcfe5271a3fa","system_id":"levelo_inurba_marseille","lat":43.31227,"lon":5.3686,"is_reserved":false,"is_disabled":false,"rental_uris":{"android":"levelo://app?vid=465deb1d-e492-4f66-b301-bcfe5271a3fa","ios":"levelo://app?vid=465deb1d-e492-4f66-b301-bcfe5271a3fa"},"vehicle_type_id":"4","last_reported":1746911296,"current_range_meters":8800,"station_id":"ce4bgl92rcd13ifvqbq0","pricing_plan_id":"cebpf4jnsgd1na2vs0mg"},{"bike_id":"814c300d-d261-4866-b022-44e7c5159380","system_id":"levelo_inurba_marseille","lat":43.24163,"lon":5.36405,"is_reserved":false,"is_disabled":true,"rental_uris":{"android":"levelo://app?vid=814c300d-d261-4866-b022-44e7c5159380","ios":"levelo://app?vid=814c300d-d261-4866-b022-44e7c5159380"},"vehicle_type_id":"4","last_reported":1746911296,"current_range_meters":9200,"station_id":"cpo36qri1sfpv3e86is0","pricing_plan_id":"cebpf4jnsgd1na2vs0mg"},{"bike_id":"7b7339e2-fe4b-432c-9322-7fd203a18a6c","system_id":"levelo_inurba_marseille","lat":43.301878,"lon":5.379673,"is_reserved":false,"is_disabled":false,"rental_uris":{"android":"levelo://app?vid=7b7339e2-fe4b-432c-9322-7fd203a18a6c","ios":"levelo://app?vid=7b7339e2-fe4b-432c-9322-7fd203a18a6c"},"vehicle_type_id":"4","last_reported":1746911296,"current_range_meters":9200,"station_id":"ce4bgup2rcd13ifvqcn0","pricing_plan_id":"cebpf4jnsgd1na2vs0mg"},{"bike_id":"900c41a1-901a-4bcd-8efc-fe1c61767494","system_id":"levelo_inurba_marseille","lat":43.310786,"lon":5.383518,"is_reserved":false,"is_disabled":false,"rental_uris":{"android":"levelo://app?vid=900c41a1-901a-4bcd-8efc-fe1c61767494","ios":"levelo://app?vid=900c41a1-901a-4bcd-8efc-fe1c61767494"},"vehicle_type_id":"4","last_reported":1746911296,"current_range_meters":800,"station_id":"ce4bgv92rcd13ifvqcr0","pricing_plan_id":"cebpf4jnsgd1na2vs0mg"},{"bike_id":"10ee2d0e-ca01-4e83-bbdf-6c08178a202f","system_id":"levelo_inurba_marseille","lat":43.285818,"lon":5.412904,"is_reserved":false,"is_disabled":false,"rental_uris":{"android":"levelo://app?vid=10ee2d0e-ca01-4e83-bbdf-6c08178a202f","ios":"levelo://app?vid=10ee2d0e-ca01-4e83-bbdf-6c08178a202f"},"vehicle_type_id":"4","last_reported":1746911296,"current_range_meters":9200,"station_id":"","pricing_plan_id":"cebpf4jnsgd1na2vs0mg"},{"bike_id":"44e88eeb-5d69-44d1-ad07-bcaf5276d14e","system_id":"levelo_inurba_marseille","lat":43.26233,"lon":5.40444,"is_reserved":false,"is_disabled":false,"rental_uris":{"android":"levelo://app?vid=44e88eeb-5d69-44d1-ad07-bcaf5276d14e","ios":"levelo://app?vid=44e88eeb-5d69-44d1-ad07-bcaf5276d14e"},"vehicle_type_id":"4","last_reported":1746911296,"current_range_meters":9200,"station_id":"ce4bhmh2rcd13ifvqgmg","pricing_plan_id":"cebpf4jnsgd1na2vs0mg"},{"bike_id":"99fb9985-2088-4a48-ae83-62aca3ba1639","system_id":"levelo_inurba_marseille","lat":43.31483,"lon":5.37294,"is_reserved":false,"is_disabled":true,"rental_uris":{"android":"levelo://app?vid=99fb9985-2088-4a48-ae83-62aca3ba1639","ios":"levelo://app?vid=99fb9985-2088-4a48-ae83-62aca3ba1639"},"vehicle_type_id":"4","last_reported":1746911296,"current_range_meters":9200,"station_id":"ce4bgt12rcd13ifvqcd0","pricing_plan_id":"cebpf4jnsgd1na2vs0mg"},{"bike_id":"42b9c270-4db5-46ea-a34e-57115884fa3e","system_id":"levelo_inurba_marseille","lat":43.25722,"lon":5.41101,"is_reserved":false,"is_disabled":false,"rental_uris":{"android":"levelo://app?vid=42b9c270-4db5-46ea-a34e-57115884fa3e","ios":"levelo://app?vid=42b9c270-4db5-46ea-a34e-57115884fa3e"},"vehicle_type_id":"4","last_reported":1746911296,"current_range_meters":9200,"station_id":"ce4bhkp2rcd13ifvqgd0","pricing_plan_id":"cebpf4jnsgd1na2vs0mg"},{"bike_id":"f56a23b8-e217-4f7d-945b-2d17be3dc077","system_id":"levelo_inurba_marseille","lat":43.27907,"lon":5.39585,"is_reserved":false,"is_disabled":false,"rental_uris":{"android":"levelo://app?vid=f56a23b8-e217-4f7d-945b-2d17be3dc077","ios":"levelo://app?vid=f56a23b8-e217-4f7d-945b-2d17be3dc077"},"vehicle_type_id":"4","last_reported":1746911296,"current_range_meters":9600,"station_id":"ce4bhf92rcd13ifvqf40","pricing_plan_id":"cebpf4jnsgd1na2vs0mg"},{"bike_id":"4f06fe77-36d3-4b35-b181-29f8e04116b1","system_id":"levelo_inurba_marseille","lat":43.30741,"lon":5.42442,"is_reserved":false,"is_disabled":false,"rental_uris":{"android":"levelo://app?vid=4f06fe77-36d3-4b35-b181-29f8e04116b1","ios":"levelo://app?vid=4f06fe77-36d3-4b35-b181-29f8e04116b1"},"vehicle_type_id":"4","last_reported":1746911296,"current_range_meters":9600,"station_id":"st_cvj6ca6bvosntc0bfgr0","pricing_plan_id":"cebpf4jnsgd1na2vs0mg"},{"bike_id":"bec28751-197c-40fb-9521-f923e2ffa2ac","system_id":"levelo_inurba_marseille","lat":43.28573,"lon":5.39491,"is_reserved":false,"is_disabled":false,"rental_uris":{"android":"levelo://app?vid=bec28751-197c-40fb-9521-f923e2ffa2ac","ios":"levelo://app?vid=bec28751-197c-40fb-9521-f923e2ffa2ac"},"vehicle_type_id":"4","last_reported":1746911296,"current_range_meters":9600,"station_id":"ce4bh292rcd13ifvqdg0","pricing_plan_id":"cebpf4jnsgd1na2vs0mg"},{"bike_id":"addf42a6-319a-4481-b243-e3f93f975b17","system_id":"levelo_inurba_marseille","lat":43.28974,"lon":5.37843,"is_reserved":false,"is_disabled":false,"rental_uris":{"android":"levelo://app?vid=addf42a6-319a-4481-b243-e3f93f975b17","ios":"levelo://app?vid=addf42a6-319a-4481-b243-e3f93f975b17"},"vehicle_type_id":"4","last_reported":1746911296,"current_range_meters":10000,"station_id":"ce4bh9p2rcd13ifvqed0","pricing_plan_id":"cebpf4jnsgd1na2vs0mg"},{"bike_id":"849bca3a-1c29-405d-807b-f4ebb31a1f2a","system_id":"levelo_inurba_marseille","lat":43.30255,"lon":5.38113,"is_reserved":false,"is_disabled":false,"rental_uris":{"android":"levelo://app?vid=849bca3a-1c29-405d-807b-f4ebb31a1f2a","ios":"levelo://app?vid=849bca3a-1c29-405d-807b-f4ebb31a1f2a"},"vehicle_type_id":"4","last_reported":1746911296,"current_range_meters":10000,"station_id":"","pricing_plan_id":"cebpf4jnsgd1na2vs0mg"},{"bike_id":"fe7d9d8f-d8ec-4a64-a141-7d4d83d01384","system_id":"levelo_inurba_marseille","lat":43.30885,"lon":5.39648,"is_reserved":false,"is_disabled":false,"rental_uris":{"android":"levelo://app?vid=fe7d9d8f-d8ec-4a64-a141-7d4d83d01384","ios":"levelo://app?vid=fe7d9d8f-d8ec-4a64-a141-7d4d83d01384"},"vehicle_type_id":"4","last_reported":1746911296,"current_range_meters":10000,"station_id":"ce4bh012rcd13ifvqcv0","pricing_plan_id":"cebpf4jnsgd1na2vs0mg"},{"bike_id":"e1fb970c-aa52-4d60-b6f6-2f99495b69b4","system_id":"levelo_inurba_marseille","lat":43.27425,"lon":5.39422,"is_reserved":false,"is_disabled":false,"rental_uris":{"android":"levelo://app?vid=e1fb970c-aa52-4d60-b6f6-2f99495b69b4","ios":"levelo://app?vid=e1fb970c-aa52-4d60-b6f6-2f99495b69b4"},"vehicle_type_id":"4","last_reported":1746911296,"current_range_meters":10000,"station_id":"ce4bhdp2rcd13ifvqf20","pricing_plan_id":"cebpf4jnsgd1na2vs0mg"},{"bike_id":"351ef218-24e5-4670-825d-fc1ac5cd3c19","system_id":"levelo_inurba_marseille","lat":43.31807,"lon":5.36818,"is_reserved":false,"is_disabled":false,"rental_uris":{"android":"levelo://app?vid=351ef218-24e5-4670-825d-fc1ac5cd3c19","ios":"levelo://app?vid=351ef218-24e5-4670-825d-fc1ac5cd3c19"},"vehicle_type_id":"4","last_reported":1746911296,"current_range_meters":10000,"station_id":"","pricing_plan_id":"cebpf4jnsgd1na2vs0mg"},{"bike_id":"2e2a6b7e-46b2-4616-bd49-09d1ae249f84","system_id":"levelo_inurba_marseille","lat":43.27681,"lon":5.38888,"is_reserved":false,"is_disabled":false,"rental_uris":{"android":"levelo://app?vid=2e2a6b7e-46b2-4616-bd49-09d1ae249f84","ios":"levelo://app?vid=2e2a6b7e-46b2-4616-bd49-09d1ae249f84"},"vehicle_type_id":"4","last_reported":1746911296,"current_range_meters":10000,"station_id":"ce4bhi12rcd13ifvqfo0","pricing_plan_id":"cebpf4jnsgd1na2vs0mg"},{"bike_id":"47146df5-3f3e-4586-80bc-49661ce8e6e7","system_id":"levelo_inurba_marseille","lat":43.2742,"lon":5.39412,"is_reserved":false,"is_disabled":false,"rental_uris":{"android":"levelo://app?vid=47146df5-3f3e-4586-80bc-49661ce8e6e7","ios":"levelo://app?vid=47146df5-3f3e-4586-80bc-49661ce8e6e7"},"vehicle_type_id":"4","last_reported":1746911296,"current_range_meters":10000,"station_id":"ce4bhdp2rcd13ifvqf20","pricing_plan_id":"cebpf4jnsgd1na2vs0mg"},{"bike_id":"c0bc0ea6-4473-4e07-9f41-bf52820844f7","system_id":"levelo_inurba_marseille","lat":43.25111,"lon":5.40322,"is_reserved":false,"is_disabled":false,"rental_uris":{"android":"levelo://app?vid=c0bc0ea6-4473-4e07-9f41-bf52820844f7","ios":"levelo://app?vid=c0bc0ea6-4473-4e07-9f41-bf52820844f7"},"vehicle_type_id":"4","last_reported":1746911296,"current_range_meters":10000,"station_id":"ce4bhlh2rcd13ifvqgig","pricing_plan_id":"cebpf4jnsgd1na2vs0mg"},{"bike_id":"76eb38bb-f6fa-4460-ae23-f70420b766e9","system_id":"levelo_inurba_marseille","lat":43.25119,"lon":5.40312,"is_reserved":false,"is_disabled":false,"rental_uris":{"android":"levelo://app?vid=76eb38bb-f6fa-4460-ae23-f70420b766e9","ios":"levelo://app?vid=76eb38bb-f6fa-4460-ae23-f70420b766e9"},"vehicle_type_id":"4","last_reported":1746911296,"current_range_meters":10800,"station_id":"ce4bhlh2rcd13ifvqgig","pricing_plan_id":"cebpf4jnsgd1na2vs0mg"},{"bike_id":"e551c910-f279-4345-983b-35636ebdf060","system_id":"levelo_inurba_marseille","lat":43.29074,"lon":5.3815,"is_reserved":false,"is_disabled":false,"rental_uris":{"android":"levelo://app?vid=e551c910-f279-4345-983b-35636ebdf060","ios":"levelo://app?vid=e551c910-f279-4345-983b-35636ebdf060"},"vehicle_type_id":"4","last_reported":1746911296,"current_range_meters":10800,"station_id":"ce4bh512rcd13ifvqe2g","pricing_plan_id":"cebpf4jnsgd1na2vs0mg"},{"bike_id":"d0958304-33d1-4b4f-81f9-03078b9d6ea8","system_id":"levelo_inurba_marseille","lat":43.28037,"lon":5.36943,"is_reserved":false,"is_disabled":false,"rental_uris":{"android":"levelo://app?vid=d0958304-33d1-4b4f-81f9-03078b9d6ea8","ios":"levelo://app?vid=d0958304-33d1-4b4f-81f9-03078b9d6ea8"},"vehicle_type_id":"4","last_reported":1746911296,"current_range_meters":10800,"station_id":"ce4bha12rcd13ifvqef0","pricing_plan_id":"cebpf4jnsgd1na2vs0mg"},{"bike_id":"eef07d64-116f-4531-8507-13c94ea02041","system_id":"levelo_inurba_marseille","lat":43.30327,"lon":5.40427,"is_reserved":false,"is_disabled":false,"rental_uris":{"android":"levelo://app?vid=eef07d64-116f-4531-8507-13c94ea02041","ios":"levelo://app?vid=eef07d64-116f-4531-8507-13c94ea02041"},"vehicle_type_id":"4","last_reported":1746911296,"current_range_meters":10800,"station_id":"ce4bh012rcd13ifvqd10","pricing_plan_id":"cebpf4jnsgd1na2vs0mg"},{"bike_id":"7b0d4e41-ae4e-4c3d-8709-ddefc68e0cee","system_id":"levelo_inurba_marseille","lat":43.29259,"lon":5.3844,"is_reserved":false,"is_disabled":false,"rental_uris":{"android":"levelo://app?vid=7b0d4e41-ae4e-4c3d-8709-ddefc68e0cee","ios":"levelo://app?vid=7b0d4e41-ae4e-4c3d-8709-ddefc68e0cee"},"vehicle_type_id":"4","last_reported":1746911296,"current_range_meters":10800,"station_id":"ce4bh692rcd13ifvqea0","pricing_plan_id":"cebpf4jnsgd1na2vs0mg"},{"bike_id":"a7e8b2b2-1022-4017-86ef-4f2a514f9658","system_id":"levelo_inurba_marseille","lat":43.29262,"lon":5.38434,"is_reserved":false,"is_disabled":false,"rental_uris":{"android":"levelo://app?vid=a7e8b2b2-1022-4017-86ef-4f2a514f9658","ios":"levelo://app?vid=a7e8b2b2-1022-4017-86ef-4f2a514f9658"},"vehicle_type_id":"4","last_reported":1746911296,"current_range_meters":10800,"station_id":"ce4bh692rcd13ifvqea0","pricing_plan_id":"cebpf4jnsgd1na2vs0mg"},{"bike_id":"0cc9e69f-6225-4ab0-9b05-5f73ef73c4b1","system_id":"levelo_inurba_marseille","lat":43.27834,"lon":5.39203,"is_reserved":false,"is_disabled":false,"rental_uris":{"android":"levelo://app?vid=0cc9e69f-6225-4ab0-9b05-5f73ef73c4b1","ios":"levelo://app?vid=0cc9e69f-6225-4ab0-9b05-5f73ef73c4b1"},"vehicle_type_id":"4","last_reported":1746911296,"current_range_meters":10800,"station_id":"ce4bhjp2rcd13ifvqga0","pricing_plan_id":"cebpf4jnsgd1na2vs0mg"},{"bike_id":"04c1226f-faa4-4a45-b805-4b9bcac57fa8","system_id":"levelo_inurba_marseille","lat":43.29257,"lon":5.39121,"is_reserved":false,"is_disabled":false,"rental_uris":{"android":"levelo://app?vid=04c1226f-faa4-4a45-b805-4b9bcac57fa8","ios":"levelo://app?vid=04c1226f-faa4-4a45-b805-4b9bcac57fa8"},"vehicle_type_id":"4","last_reported":1746911296,"current_range_meters":10800,"station_id":"","pricing_plan_id":"cebpf4jnsgd1na2vs0mg"},{"bike_id":"f789b59a-2542-4289-a296-8d49f0abb7a8","system_id":"levelo_inurba_marseille","lat":43.30783,"lon":5.37644,"is_reserved":false,"is_disabled":false,"rental_uris":{"android":"levelo://app?vid=f789b59a-2542-4289-a296-8d49f0abb7a8","ios":"levelo://app?vid=f789b59a-2542-4289-a296-8d49f0abb7a8"},"vehicle_type_id":"4","last_reported":1746911296,"current_range_meters":11200,"station_id":"ce4bgv92rcd13ifvqcq0","pricing_plan_id":"cebpf4jnsgd1na2vs0mg"},{"bike_id":"8055618e-eefc-42c3-bf68-9f33a962b7c9","system_id":"levelo_inurba_marseille","lat":43.29538,"lon":5.37477,"is_reserved":false,"is_disabled":false,"rental_uris":{"android":"levelo://app?vid=8055618e-eefc-42c3-bf68-9f33a962b7c9","ios":"levelo://app?vid=8055618e-eefc-42c3-bf68-9f33a962b7c9"},"vehicle_type_id":"4","last_reported":1746911296,"current_range_meters":11200,"station_id":"ce4bgkp2rcd13ifvqbmg","pricing_plan_id":"cebpf4jnsgd1na2vs0mg"},{"bike_id":"c78a30af-2525-4a8c-b919-fe0749359412","system_id":"levelo_inurba_marseille","lat":43.309246,"lon":5.401465,"is_reserved":false,"is_disabled":false,"rental_uris":{"android":"levelo://app?vid=c78a30af-2525-4a8c-b919-fe0749359412","ios":"levelo://app?vid=c78a30af-2525-4a8c-b919-fe0749359412"},"vehicle_type_id":"4","last_reported":1746911296,"current_range_meters":11200,"station_id":"ce4bgvp2rcd13ifvqct0","pricing_plan_id":"cebpf4jnsgd1na2vs0mg"},{"bike_id":"0dc52e4a-27c8-46bc-ac74-d0914cdf2355","system_id":"levelo_inurba_marseille","lat":43.28043,"lon":5.36937,"is_reserved":false,"is_disabled":false,"rental_uris":{"android":"levelo://app?vid=0dc52e4a-27c8-46bc-ac74-d0914cdf2355","ios":"levelo://app?vid=0dc52e4a-27c8-46bc-ac74-d0914cdf2355"},"vehicle_type_id":"4","last_reported":1746911296,"current_range_meters":11200,"station_id":"ce4bha12rcd13ifvqef0","pricing_plan_id":"cebpf4jnsgd1na2vs0mg"},{"bike_id":"67a378e1-7e89-41ff-a0bc-e22ce5b10084","system_id":"levelo_inurba_marseille","lat":43.313802,"lon":5.384884,"is_reserved":false,"is_disabled":false,"rental_uris":{"android":"levelo://app?vid=67a378e1-7e89-41ff-a0bc-e22ce5b10084","ios":"levelo://app?vid=67a378e1-7e89-41ff-a0bc-e22ce5b10084"},"vehicle_type_id":"4","last_reported":1746911296,"current_range_meters":11200,"station_id":"ce4bgt92rcd13ifvqcf0","pricing_plan_id":"cebpf4jnsgd1na2vs0mg"},{"bike_id":"7b1a19d4-5ed3-40d5-98f4-94cde2e26552","system_id":"levelo_inurba_marseille","lat":43.29016,"lon":5.38632,"is_reserved":false,"is_disabled":false,"rental_uris":{"android":"levelo://app?vid=7b1a19d4-5ed3-40d5-98f4-94cde2e26552","ios":"levelo://app?vid=7b1a19d4-5ed3-40d5-98f4-94cde2e26552"},"vehicle_type_id":"4","last_reported":1746911296,"current_range_meters":11200,"station_id":"ce4bh4p2rcd13ifvqe0g","pricing_plan_id":"cebpf4jnsgd1na2vs0mg"},{"bike_id":"733004fb-6040-48ee-a055-0030e2dc6ad0","system_id":"levelo_inurba_marseille","lat":43.2718,"lon":5.40995,"is_reserved":false,"is_disabled":false,"rental_uris":{"android":"levelo://app?vid=733004fb-6040-48ee-a055-0030e2dc6ad0","ios":"levelo://app?vid=733004fb-6040-48ee-a055-0030e2dc6ad0"},"vehicle_type_id":"4","last_reported":1746911296,"current_range_meters":11600,"station_id":"ce4bhl12rcd13ifvqgf0","pricing_plan_id":"cebpf4jnsgd1na2vs0mg"},{"bike_id":"b66c28d5-eb0b-4d43-a445-ee0070304033","system_id":"levelo_inurba_marseille","lat":43.29417,"lon":5.38626,"is_reserved":false,"is_disabled":false,"rental_uris":{"android":"levelo://app?vid=b66c28d5-eb0b-4d43-a445-ee0070304033","ios":"levelo://app?vid=b66c28d5-eb0b-4d43-a445-ee0070304033"},"vehicle_type_id":"4","last_reported":1746911296,"current_range_meters":11600,"station_id":"ce4bh2h2rcd13ifvqdh0","pricing_plan_id":"cebpf4jnsgd1na2vs0mg"},{"bike_id":"81ffbea1-f397-467a-a2c0-894bb2047b8a","system_id":"levelo_inurba_marseille","lat":43.26553,"lon":5.37286,"is_reserved":false,"is_disabled":false,"rental_uris":{"android":"levelo://app?vid=81ffbea1-f397-467a-a2c0-894bb2047b8a","ios":"levelo://app?vid=81ffbea1-f397-467a-a2c0-894bb2047b8a"},"vehicle_type_id":"4","last_reported":1746911296,"current_range_meters":11600,"station_id":"ce4bhg12rcd13ifvqf70","pricing_plan_id":"cebpf4jnsgd1na2vs0mg"},{"bike_id":"9362372c-e0ce-46af-818e-85bf6d30cd5b","system_id":"levelo_inurba_marseille","lat":43.29527,"lon":5.39401,"is_reserved":false,"is_disabled":false,"rental_uris":{"android":"levelo://app?vid=9362372c-e0ce-46af-818e-85bf6d30cd5b","ios":"levelo://app?vid=9362372c-e0ce-46af-818e-85bf6d30cd5b"},"vehicle_type_id":"4","last_reported":1746911296,"current_range_meters":11600,"station_id":"ce4bh292rcd13ifvqdf0","pricing_plan_id":"cebpf4jnsgd1na2vs0mg"},{"bike_id":"1d83476a-9395-4e91-90b3-3098d854b2b3","system_id":"levelo_inurba_marseille","lat":43.29274,"lon":5.38423,"is_reserved":false,"is_disabled":true,"rental_uris":{"android":"levelo://app?vid=1d83476a-9395-4e91-90b3-3098d854b2b3","ios":"levelo://app?vid=1d83476a-9395-4e91-90b3-3098d854b2b3"},"vehicle_type_id":"4","last_reported":1746911296,"current_range_meters":11600,"station_id":"ce4bh692rcd13ifvqea0","pricing_plan_id":"cebpf4jnsgd1na2vs0mg"},{"bike_id":"d41fb181-2091-4cc6-ac45-c661cf719fbf","system_id":"levelo_inurba_marseille","lat":43.28025,"lon":5.3693,"is_reserved":false,"is_disabled":false,"rental_uris":{"android":"levelo://app?vid=d41fb181-2091-4cc6-ac45-c661cf719fbf","ios":"levelo://app?vid=d41fb181-2091-4cc6-ac45-c661cf719fbf"},"vehicle_type_id":"4","last_reported":1746911296,"current_range_meters":11600,"station_id":"ce4bha12rcd13ifvqef0","pricing_plan_id":"cebpf4jnsgd1na2vs0mg"},{"bike_id":"7edc0507-10d6-435e-b7e1-e58cd2ccbdae","system_id":"levelo_inurba_marseille","lat":43.29915,"lon":5.37469,"is_reserved":false,"is_disabled":false,"rental_uris":{"android":"levelo://app?vid=7edc0507-10d6-435e-b7e1-e58cd2ccbdae","ios":"levelo://app?vid=7edc0507-10d6-435e-b7e1-e58cd2ccbdae"},"vehicle_type_id":"4","last_reported":1746911296,"current_range_meters":12000,"station_id":"ce4bgjh2rcd13ifvqbg0","pricing_plan_id":"cebpf4jnsgd1na2vs0mg"},{"bike_id":"db934911-44a6-4793-9c9a-b25ca32db974","system_id":"levelo_inurba_marseille","lat":43.28021,"lon":5.369407,"is_reserved":false,"is_disabled":false,"rental_uris":{"android":"levelo://app?vid=db934911-44a6-4793-9c9a-b25ca32db974","ios":"levelo://app?vid=db934911-44a6-4793-9c9a-b25ca32db974"},"vehicle_type_id":"4","last_reported":1746911296,"current_range_meters":12000,"station_id":"ce4bha12rcd13ifvqef0","pricing_plan_id":"cebpf4jnsgd1na2vs0mg"},{"bike_id":"e6e84bb3-d57e-4698-8ac9-28f5daa18fa3","system_id":"levelo_inurba_marseille","lat":43.29429,"lon":5.38626,"is_reserved":false,"is_disabled":false,"rental_uris":{"android":"levelo://app?vid=e6e84bb3-d57e-4698-8ac9-28f5daa18fa3","ios":"levelo://app?vid=e6e84bb3-d57e-4698-8ac9-28f5daa18fa3"},"vehicle_type_id":"4","last_reported":1746911296,"current_range_meters":12000,"station_id":"ce4bh2h2rcd13ifvqdh0","pricing_plan_id":"cebpf4jnsgd1na2vs0mg"},{"bike_id":"50a5f453-7480-4c0c-a853-520dbe4eaaaf","system_id":"levelo_inurba_marseille","lat":43.30331,"lon":5.40433,"is_reserved":false,"is_disabled":false,"rental_uris":{"android":"levelo://app?vid=50a5f453-7480-4c0c-a853-520dbe4eaaaf","ios":"levelo://app?vid=50a5f453-7480-4c0c-a853-520dbe4eaaaf"},"vehicle_type_id":"4","last_reported":1746911296,"current_range_meters":12400,"station_id":"ce4bh012rcd13ifvqd10","pricing_plan_id":"cebpf4jnsgd1na2vs0mg"},{"bike_id":"c6cb02b8-ca24-4999-9d23-c6bda9a45387","system_id":"levelo_inurba_marseille","lat":43.25119,"lon":5.40317,"is_reserved":false,"is_disabled":false,"rental_uris":{"android":"levelo://app?vid=c6cb02b8-ca24-4999-9d23-c6bda9a45387","ios":"levelo://app?vid=c6cb02b8-ca24-4999-9d23-c6bda9a45387"},"vehicle_type_id":"4","last_reported":1746911296,"current_range_meters":12400,"station_id":"ce4bhlh2rcd13ifvqgig","pricing_plan_id":"cebpf4jnsgd1na2vs0mg"},{"bike_id":"92ec1ed8-ed39-4e37-8f6d-88e2e51691b9","system_id":"levelo_inurba_marseille","lat":43.30427,"lon":5.39743,"is_reserved":false,"is_disabled":false,"rental_uris":{"android":"levelo://app?vid=92ec1ed8-ed39-4e37-8f6d-88e2e51691b9","ios":"levelo://app?vid=92ec1ed8-ed39-4e37-8f6d-88e2e51691b9"},"vehicle_type_id":"4","last_reported":1746911296,"current_range_meters":12400,"station_id":"ce4bh092rcd13ifvqd20","pricing_plan_id":"cebpf4jnsgd1na2vs0mg"},{"bike_id":"00693c05-49a6-45cf-b898-3aad74c6b26b","system_id":"levelo_inurba_marseille","lat":43.29531,"lon":5.38547,"is_reserved":false,"is_disabled":false,"rental_uris":{"android":"levelo://app?vid=00693c05-49a6-45cf-b898-3aad74c6b26b","ios":"levelo://app?vid=00693c05-49a6-45cf-b898-3aad74c6b26b"},"vehicle_type_id":"4","last_reported":1746911296,"current_range_meters":12400,"station_id":"ce4bgih2rcd13ifvqba0","pricing_plan_id":"cebpf4jnsgd1na2vs0mg"},{"bike_id":"6ef17d4a-3acf-4136-a3aa-30df54bf330a","system_id":"levelo_inurba_marseille","lat":43.30683,"lon":5.36763,"is_reserved":false,"is_disabled":false,"rental_uris":{"android":"levelo://app?vid=6ef17d4a-3acf-4136-a3aa-30df54bf330a","ios":"levelo://app?vid=6ef17d4a-3acf-4136-a3aa-30df54bf330a"},"vehicle_type_id":"4","last_reported":1746911296,"current_range_meters":12400,"station_id":"","pricing_plan_id":"cebpf4jnsgd1na2vs0mg"},{"bike_id":"5730214d-4f46-4c03-91a2-4a3cb261f72a","system_id":"levelo_inurba_marseille","lat":43.28947,"lon":5.38397,"is_reserved":false,"is_disabled":false,"rental_uris":{"android":"levelo://app?vid=5730214d-4f46-4c03-91a2-4a3cb261f72a","ios":"levelo://app?vid=5730214d-4f46-4c03-91a2-4a3cb261f72a"},"vehicle_type_id":"4","last_reported":1746911296,"current_range_meters":12400,"station_id":"ce4bh612rcd13ifvqe6g","pricing_plan_id":"cebpf4jnsgd1na2vs0mg"},{"bike_id":"fc2577e7-1497-425b-9d4f-ab8d7dc843c6","system_id":"levelo_inurba_marseille","lat":43.33771,"lon":5.37485,"is_reserved":false,"is_disabled":false,"rental_uris":{"android":"levelo://app?vid=fc2577e7-1497-425b-9d4f-ab8d7dc843c6","ios":"levelo://app?vid=fc2577e7-1497-425b-9d4f-ab8d7dc843c6"},"vehicle_type_id":"4","last_reported":1746911296,"current_range_meters":12800,"station_id":"","pricing_plan_id":"cebpf4jnsgd1na2vs0mg"},{"bike_id":"cf06a58c-6b90-4ee6-b7ff-5b33ec523703","system_id":"levelo_inurba_marseille","lat":43.28583,"lon":5.41303,"is_reserved":false,"is_disabled":false,"rental_uris":{"android":"levelo://app?vid=cf06a58c-6b90-4ee6-b7ff-5b33ec523703","ios":"levelo://app?vid=cf06a58c-6b90-4ee6-b7ff-5b33ec523703"},"vehicle_type_id":"4","last_reported":1746911296,"current_range_meters":12800,"station_id":"","pricing_plan_id":"cebpf4jnsgd1na2vs0mg"},{"bike_id":"5c71af10-5be0-4e47-bb44-84853335222b","system_id":"levelo_inurba_marseille","lat":43.28366,"lon":5.38638,"is_reserved":false,"is_disabled":false,"rental_uris":{"android":"levelo://app?vid=5c71af10-5be0-4e47-bb44-84853335222b","ios":"levelo://app?vid=5c71af10-5be0-4e47-bb44-84853335222b"},"vehicle_type_id":"4","last_reported":1746911296,"current_range_meters":12800,"station_id":"ce4bh492rcd13ifvqdvg","pricing_plan_id":"cebpf4jnsgd1na2vs0mg"},{"bike_id":"be68f53e-c170-4eda-9631-1f3f7e04560c","system_id":"levelo_inurba_marseille","lat":43.29423,"lon":5.38644,"is_reserved":false,"is_disabled":false,"rental_uris":{"android":"levelo://app?vid=be68f53e-c170-4eda-9631-1f3f7e04560c","ios":"levelo://app?vid=be68f53e-c170-4eda-9631-1f3f7e04560c"},"vehicle_type_id":"4","last_reported":1746911296,"current_range_meters":12800,"station_id":"ce4bh2h2rcd13ifvqdh0","pricing_plan_id":"cebpf4jnsgd1na2vs0mg"},{"bike_id":"9a83fb59-da31-4e0d-92d3-185f19609284","system_id":"levelo_inurba_marseille","lat":43.29424,"lon":5.38632,"is_reserved":false,"is_disabled":false,"rental_uris":{"android":"levelo://app?vid=9a83fb59-da31-4e0d-92d3-185f19609284","ios":"levelo://app?vid=9a83fb59-da31-4e0d-92d3-185f19609284"},"vehicle_type_id":"4","last_reported":1746911296,"current_range_meters":12800,"station_id":"ce4bh2h2rcd13ifvqdh0","pricing_plan_id":"cebpf4jnsgd1na2vs0mg"},{"bike_id":"e98e6ac3-dba8-4e58-a1ed-c122092021fc","system_id":"levelo_inurba_marseille","lat":43.30591,"lon":5.39348,"is_reserved":false,"is_disabled":false,"rental_uris":{"android":"levelo://app?vid=e98e6ac3-dba8-4e58-a1ed-c122092021fc","ios":"levelo://app?vid=e98e6ac3-dba8-4e58-a1ed-c122092021fc"},"vehicle_type_id":"4","last_reported":1746911296,"current_range_meters":12800,"station_id":"ce4bh0p2rcd13ifvqd80","pricing_plan_id":"cebpf4jnsgd1na2vs0mg"},{"bike_id":"9f73027e-3071-434a-aa02-98f371ac344e","system_id":"levelo_inurba_marseille","lat":43.279,"lon":5.38021,"is_reserved":false,"is_disabled":false,"rental_uris":{"android":"levelo://app?vid=9f73027e-3071-434a-aa02-98f371ac344e","ios":"levelo://app?vid=9f73027e-3071-434a-aa02-98f371ac344e"},"vehicle_type_id":"4","last_reported":1746911296,"current_range_meters":13600,"station_id":"ce4bhf92rcd13ifvqf50","pricing_plan_id":"cebpf4jnsgd1na2vs0mg"},{"bike_id":"b222ace3-ab88-460b-b1d6-41e908211cad","system_id":"levelo_inurba_marseille","lat":43.21743,"lon":5.34596,"is_reserved":false,"is_disabled":true,"rental_uris":{"android":"levelo://app?vid=b222ace3-ab88-460b-b1d6-41e908211cad","ios":"levelo://app?vid=b222ace3-ab88-460b-b1d6-41e908211cad"},"vehicle_type_id":"4","last_reported":1746911296,"current_range_meters":14000,"station_id":"st_cvj6r9ubvosntc0bgbag","pricing_plan_id":"cebpf4jnsgd1na2vs0mg"},{"bike_id":"9717a2a0-7656-4db2-b44a-65fc1b9a4abe","system_id":"levelo_inurba_marseille","lat":43.28367,"lon":5.381,"is_reserved":false,"is_disabled":false,"rental_uris":{"android":"levelo://app?vid=9717a2a0-7656-4db2-b44a-65fc1b9a4abe","ios":"levelo://app?vid=9717a2a0-7656-4db2-b44a-65fc1b9a4abe"},"vehicle_type_id":"4","last_reported":1746911296,"current_range_meters":14000,"station_id":"ce4bh412rcd13ifvqdr0","pricing_plan_id":"cebpf4jnsgd1na2vs0mg"},{"bike_id":"2e1d7e8a-a792-4cea-bb67-5ee5b23c44af","system_id":"levelo_inurba_marseille","lat":43.30321,"lon":5.36903,"is_reserved":false,"is_disabled":false,"rental_uris":{"android":"levelo://app?vid=2e1d7e8a-a792-4cea-bb67-5ee5b23c44af","ios":"levelo://app?vid=2e1d7e8a-a792-4cea-bb67-5ee5b23c44af"},"vehicle_type_id":"4","last_reported":1746911296,"current_range_meters":14000,"station_id":"ce4bgqh2rcd13ifvqc5g","pricing_plan_id":"cebpf4jnsgd1na2vs0mg"},{"bike_id":"a39c6ff3-b666-448a-b73a-24eff35a774b","system_id":"levelo_inurba_marseille","lat":43.29534,"lon":5.3856,"is_reserved":false,"is_disabled":false,"rental_uris":{"android":"levelo://app?vid=a39c6ff3-b666-448a-b73a-24eff35a774b","ios":"levelo://app?vid=a39c6ff3-b666-448a-b73a-24eff35a774b"},"vehicle_type_id":"4","last_reported":1746911296,"current_range_meters":14000,"station_id":"ce4bgih2rcd13ifvqba0","pricing_plan_id":"cebpf4jnsgd1na2vs0mg"},{"bike_id":"68db2cc3-aecf-4dda-abde-7b59ce0b03df","system_id":"levelo_inurba_marseille","lat":43.25822,"lon":5.39428,"is_reserved":false,"is_disabled":false,"rental_uris":{"android":"levelo://app?vid=68db2cc3-aecf-4dda-abde-7b59ce0b03df","ios":"levelo://app?vid=68db2cc3-aecf-4dda-abde-7b59ce0b03df"},"vehicle_type_id":"4","last_reported":1746911296,"current_range_meters":14400,"station_id":"ce4bhip2rcd13ifvqft0","pricing_plan_id":"cebpf4jnsgd1na2vs0mg"},{"bike_id":"d5333be4-ad78-408c-92ff-8239aca39ed8","system_id":"levelo_inurba_marseille","lat":43.28622,"lon":5.35091,"is_reserved":false,"is_disabled":false,"rental_uris":{"android":"levelo://app?vid=d5333be4-ad78-408c-92ff-8239aca39ed8","ios":"levelo://app?vid=d5333be4-ad78-408c-92ff-8239aca39ed8"},"vehicle_type_id":"4","last_reported":1746911296,"current_range_meters":14400,"station_id":"ce4bhch2rcd13ifvqeug","pricing_plan_id":"cebpf4jnsgd1na2vs0mg"},{"bike_id":"38bd4df7-e685-4a6f-b6a2-703b931cd19a","system_id":"levelo_inurba_marseille","lat":43.27068,"lon":5.4228,"is_reserved":false,"is_disabled":false,"rental_uris":{"android":"levelo://app?vid=38bd4df7-e685-4a6f-b6a2-703b931cd19a","ios":"levelo://app?vid=38bd4df7-e685-4a6f-b6a2-703b931cd19a"},"vehicle_type_id":"4","last_reported":1746911296,"current_range_meters":14400,"station_id":"ce4bhk92rcd13ifvqgb0","pricing_plan_id":"cebpf4jnsgd1na2vs0mg"},{"bike_id":"38f40749-e399-4983-9cbe-0a9d4c2f65ca","system_id":"levelo_inurba_marseille","lat":43.24659,"lon":5.38162,"is_reserved":false,"is_disabled":false,"rental_uris":{"android":"levelo://app?vid=38f40749-e399-4983-9cbe-0a9d4c2f65ca","ios":"levelo://app?vid=38f40749-e399-4983-9cbe-0a9d4c2f65ca"},"vehicle_type_id":"4","last_reported":1746911296,"current_range_meters":14400,"station_id":"ce4bhih2rcd13ifvqfr0","pricing_plan_id":"cebpf4jnsgd1na2vs0mg"},{"bike_id":"96ea79b2-16a0-4b5d-b5f8-65cc1f5ee5f1","system_id":"levelo_inurba_marseille","lat":43.29535,"lon":5.3854,"is_reserved":false,"is_disabled":false,"rental_uris":{"android":"levelo://app?vid=96ea79b2-16a0-4b5d-b5f8-65cc1f5ee5f1","ios":"levelo://app?vid=96ea79b2-16a0-4b5d-b5f8-65cc1f5ee5f1"},"vehicle_type_id":"4","last_reported":1746911296,"current_range_meters":14400,"station_id":"ce4bgih2rcd13ifvqba0","pricing_plan_id":"cebpf4jnsgd1na2vs0mg"},{"bike_id":"6d705489-d3d5-4e12-a28e-5d7bb8b109f3","system_id":"levelo_inurba_marseille","lat":43.26846,"lon":5.42758,"is_reserved":false,"is_disabled":false,"rental_uris":{"android":"levelo://app?vid=6d705489-d3d5-4e12-a28e-5d7bb8b109f3","ios":"levelo://app?vid=6d705489-d3d5-4e12-a28e-5d7bb8b109f3"},"vehicle_type_id":"4","last_reported":1746911296,"current_range_meters":14800,"station_id":"","pricing_plan_id":"cebpf4jnsgd1na2vs0mg"},{"bike_id":"a1121b36-b5cd-4dda-96ef-13a3dfaa55e1","system_id":"levelo_inurba_marseille","lat":43.301401,"lon":5.387791,"is_reserved":false,"is_disabled":false,"rental_uris":{"android":"levelo://app?vid=a1121b36-b5cd-4dda-96ef-13a3dfaa55e1","ios":"levelo://app?vid=a1121b36-b5cd-4dda-96ef-13a3dfaa55e1"},"vehicle_type_id":"4","last_reported":1746911296,"current_range_meters":14800,"station_id":"","pricing_plan_id":"cebpf4jnsgd1na2vs0mg"},{"bike_id":"78d4356d-c72f-45b1-b8a3-4bb9f6ec2190","system_id":"levelo_inurba_marseille","lat":43.30887,"lon":5.39622,"is_reserved":false,"is_disabled":false,"rental_uris":{"android":"levelo://app?vid=78d4356d-c72f-45b1-b8a3-4bb9f6ec2190","ios":"levelo://app?vid=78d4356d-c72f-45b1-b8a3-4bb9f6ec2190"},"vehicle_type_id":"4","last_reported":1746911296,"current_range_meters":14800,"station_id":"ce4bh012rcd13ifvqcv0","pricing_plan_id":"cebpf4jnsgd1na2vs0mg"},{"bike_id":"6287b388-2224-4c72-ad0b-aa276bf12f11","system_id":"levelo_inurba_marseille","lat":43.27166,"lon":5.40991,"is_reserved":false,"is_disabled":false,"rental_uris":{"android":"levelo://app?vid=6287b388-2224-4c72-ad0b-aa276bf12f11","ios":"levelo://app?vid=6287b388-2224-4c72-ad0b-aa276bf12f11"},"vehicle_type_id":"4","last_reported":1746911296,"current_range_meters":14800,"station_id":"ce4bhl12rcd13ifvqgf0","pricing_plan_id":"cebpf4jnsgd1na2vs0mg"},{"bike_id":"e6be88ab-5318-4631-933a-74c69ca8f743","system_id":"levelo_inurba_marseille","lat":43.29263,"lon":5.384473,"is_reserved":false,"is_disabled":false,"rental_uris":{"android":"levelo://app?vid=e6be88ab-5318-4631-933a-74c69ca8f743","ios":"levelo://app?vid=e6be88ab-5318-4631-933a-74c69ca8f743"},"vehicle_type_id":"4","last_reported":1746911296,"current_range_meters":14800,"station_id":"ce4bh692rcd13ifvqea0","pricing_plan_id":"cebpf4jnsgd1na2vs0mg"},{"bike_id":"7f78b57f-e709-420a-b476-cb6bf608bba9","system_id":"levelo_inurba_marseille","lat":43.25111,"lon":5.40321,"is_reserved":false,"is_disabled":false,"rental_uris":{"android":"levelo://app?vid=7f78b57f-e709-420a-b476-cb6bf608bba9","ios":"levelo://app?vid=7f78b57f-e709-420a-b476-cb6bf608bba9"},"vehicle_type_id":"4","last_reported":1746911296,"current_range_meters":14800,"station_id":"ce4bhlh2rcd13ifvqgig","pricing_plan_id":"cebpf4jnsgd1na2vs0mg"},{"bike_id":"3dbaedf2-3403-45e2-8a3c-9787af903680","system_id":"levelo_inurba_marseille","lat":43.2943,"lon":5.38627,"is_reserved":false,"is_disabled":false,"rental_uris":{"android":"levelo://app?vid=3dbaedf2-3403-45e2-8a3c-9787af903680","ios":"levelo://app?vid=3dbaedf2-3403-45e2-8a3c-9787af903680"},"vehicle_type_id":"4","last_reported":1746911296,"current_range_meters":14800,"station_id":"ce4bh2h2rcd13ifvqdh0","pricing_plan_id":"cebpf4jnsgd1na2vs0mg"},{"bike_id":"6add2d36-61c6-46c1-a56e-696306c1bd19","system_id":"levelo_inurba_marseille","lat":43.23373,"lon":5.36061,"is_reserved":false,"is_disabled":false,"rental_uris":{"android":"levelo://app?vid=6add2d36-61c6-46c1-a56e-696306c1bd19","ios":"levelo://app?vid=6add2d36-61c6-46c1-a56e-696306c1bd19"},"vehicle_type_id":"4","last_reported":1746911296,"current_range_meters":14800,"station_id":"","pricing_plan_id":"cebpf4jnsgd1na2vs0mg"},{"bike_id":"de92d825-f4e7-4684-912a-a4647cd8933b","system_id":"levelo_inurba_marseille","lat":43.30799,"lon":5.43523,"is_reserved":false,"is_disabled":false,"rental_uris":{"android":"levelo://app?vid=de92d825-f4e7-4684-912a-a4647cd8933b","ios":"levelo://app?vid=de92d825-f4e7-4684-912a-a4647cd8933b"},"vehicle_type_id":"4","last_reported":1746911296,"current_range_meters":15200,"station_id":"ce4bhph2rcd13ifvqheg","pricing_plan_id":"cebpf4jnsgd1na2vs0mg"},{"bike_id":"ca1dbf72-fa2f-4817-a611-b313b1a2023c","system_id":"levelo_inurba_marseille","lat":43.271841,"lon":5.362721,"is_reserved":false,"is_disabled":false,"rental_uris":{"android":"levelo://app?vid=ca1dbf72-fa2f-4817-a611-b313b1a2023c","ios":"levelo://app?vid=ca1dbf72-fa2f-4817-a611-b313b1a2023c"},"vehicle_type_id":"4","last_reported":1746911296,"current_range_meters":15200,"station_id":"ce4bhbh2rcd13ifvqepg","pricing_plan_id":"cebpf4jnsgd1na2vs0mg"},{"bike_id":"6ba4efc8-70da-4c3d-8bbe-72a7af12fae5","system_id":"levelo_inurba_marseille","lat":43.30336,"lon":5.40441,"is_reserved":false,"is_disabled":false,"rental_uris":{"android":"levelo://app?vid=6ba4efc8-70da-4c3d-8bbe-72a7af12fae5","ios":"levelo://app?vid=6ba4efc8-70da-4c3d-8bbe-72a7af12fae5"},"vehicle_type_id":"4","last_reported":1746911296,"current_range_meters":15200,"station_id":"ce4bh012rcd13ifvqd10","pricing_plan_id":"cebpf4jnsgd1na2vs0mg"},{"bike_id":"d83b7170-8eed-47c1-b0ec-1140d3a45dea","system_id":"levelo_inurba_marseille","lat":43.307958,"lon":5.435217,"is_reserved":false,"is_disabled":false,"rental_uris":{"android":"levelo://app?vid=d83b7170-8eed-47c1-b0ec-1140d3a45dea","ios":"levelo://app?vid=d83b7170-8eed-47c1-b0ec-1140d3a45dea"},"vehicle_type_id":"4","last_reported":1746911296,"current_range_meters":15200,"station_id":"ce4bhph2rcd13ifvqheg","pricing_plan_id":"cebpf4jnsgd1na2vs0mg"},{"bike_id":"e2434f42-8ebb-4eed-a218-d21bf35b3735","system_id":"levelo_inurba_marseille","lat":43.29788,"lon":5.3811,"is_reserved":false,"is_disabled":true,"rental_uris":{"android":"levelo://app?vid=e2434f42-8ebb-4eed-a218-d21bf35b3735","ios":"levelo://app?vid=e2434f42-8ebb-4eed-a218-d21bf35b3735"},"vehicle_type_id":"4","last_reported":1746911296,"current_range_meters":16000,"station_id":"ce4bgip2rcd13ifvqbb0","pricing_plan_id":"cebpf4jnsgd1na2vs0mg"},{"bike_id":"5bba5f0e-fac8-4f25-aa39-14e97ab23af0","system_id":"levelo_inurba_marseille","lat":43.24808,"lon":5.37459,"is_reserved":false,"is_disabled":false,"rental_uris":{"android":"levelo://app?vid=5bba5f0e-fac8-4f25-aa39-14e97ab23af0","ios":"levelo://app?vid=5bba5f0e-fac8-4f25-aa39-14e97ab23af0"},"vehicle_type_id":"4","last_reported":1746911296,"current_range_meters":16000,"station_id":"ce4bhgh2rcd13ifvqfb0","pricing_plan_id":"cebpf4jnsgd1na2vs0mg"},{"bike_id":"847ad4f0-f740-49d3-b050-3b13a65b4323","system_id":"levelo_inurba_marseille","lat":43.29538,"lon":5.3853,"is_reserved":false,"is_disabled":false,"rental_uris":{"android":"levelo://app?vid=847ad4f0-f740-49d3-b050-3b13a65b4323","ios":"levelo://app?vid=847ad4f0-f740-49d3-b050-3b13a65b4323"},"vehicle_type_id":"4","last_reported":1746911296,"current_range_meters":16000,"station_id":"ce4bgih2rcd13ifvqba0","pricing_plan_id":"cebpf4jnsgd1na2vs0mg"},{"bike_id":"6663a384-abed-48bd-861f-d563c5fcecd4","system_id":"levelo_inurba_marseille","lat":43.28415,"lon":5.34987,"is_reserved":false,"is_disabled":true,"rental_uris":{"android":"levelo://app?vid=6663a384-abed-48bd-861f-d563c5fcecd4","ios":"levelo://app?vid=6663a384-abed-48bd-861f-d563c5fcecd4"},"vehicle_type_id":"4","last_reported":1746911296,"current_range_meters":16000,"station_id":"ce4bhbh2rcd13ifvqepg","pricing_plan_id":"cebpf4jnsgd1na2vs0mg"},{"bike_id":"2dbdf915-d2fb-4c36-8994-b53e3db07015","system_id":"levelo_inurba_marseille","lat":43.21749,"lon":5.34608,"is_reserved":false,"is_disabled":true,"rental_uris":{"android":"levelo://app?vid=2dbdf915-d2fb-4c36-8994-b53e3db07015","ios":"levelo://app?vid=2dbdf915-d2fb-4c36-8994-b53e3db07015"},"vehicle_type_id":"4","last_reported":1746911296,"current_range_meters":16000,"station_id":"st_cvj6r9ubvosntc0bgbag","pricing_plan_id":"cebpf4jnsgd1na2vs0mg"},{"bike_id":"13b0ccc3-423d-43b4-87ae-0d6ebc4ae8a4","system_id":"levelo_inurba_marseille","lat":43.28926,"lon":5.38389,"is_reserved":false,"is_disabled":false,"rental_uris":{"android":"levelo://app?vid=13b0ccc3-423d-43b4-87ae-0d6ebc4ae8a4","ios":"levelo://app?vid=13b0ccc3-423d-43b4-87ae-0d6ebc4ae8a4"},"vehicle_type_id":"4","last_reported":1746911296,"current_range_meters":16000,"station_id":"ce4bh612rcd13ifvqe6g","pricing_plan_id":"cebpf4jnsgd1na2vs0mg"},{"bike_id":"361b896a-8a61-495e-a8e3-3871e0db88b6","system_id":"levelo_inurba_marseille","lat":43.31711,"lon":5.43715,"is_reserved":false,"is_disabled":false,"rental_uris":{"android":"levelo://app?vid=361b896a-8a61-495e-a8e3-3871e0db88b6","ios":"levelo://app?vid=361b896a-8a61-495e-a8e3-3871e0db88b6"},"vehicle_type_id":"4","last_reported":1746911296,"current_range_meters":16000,"station_id":"ce4bhp92rcd13ifvqhcg","pricing_plan_id":"cebpf4jnsgd1na2vs0mg"},{"bike_id":"ff692124-ecfa-4d0c-ac37-693364a1e805","system_id":"levelo_inurba_marseille","lat":43.28155,"lon":5.42647,"is_reserved":false,"is_disabled":false,"rental_uris":{"android":"levelo://app?vid=ff692124-ecfa-4d0c-ac37-693364a1e805","ios":"levelo://app?vid=ff692124-ecfa-4d0c-ac37-693364a1e805"},"vehicle_type_id":"4","last_reported":1746911296,"current_range_meters":16000,"station_id":"ce4bhnh2rcd13ifvqgug","pricing_plan_id":"cebpf4jnsgd1na2vs0mg"},{"bike_id":"414912d1-c40b-4b57-8860-d1b418c7cd47","system_id":"levelo_inurba_marseille","lat":43.28934,"lon":5.3839,"is_reserved":false,"is_disabled":false,"rental_uris":{"android":"levelo://app?vid=414912d1-c40b-4b57-8860-d1b418c7cd47","ios":"levelo://app?vid=414912d1-c40b-4b57-8860-d1b418c7cd47"},"vehicle_type_id":"4","last_reported":1746911296,"current_range_meters":16000,"station_id":"ce4bh612rcd13ifvqe6g","pricing_plan_id":"cebpf4jnsgd1na2vs0mg"},{"bike_id":"f53ed44a-6582-4356-a7da-17d0165bd15b","system_id":"levelo_inurba_marseille","lat":43.28419,"lon":5.34984,"is_reserved":false,"is_disabled":false,"rental_uris":{"android":"levelo://app?vid=f53ed44a-6582-4356-a7da-17d0165bd15b","ios":"levelo://app?vid=f53ed44a-6582-4356-a7da-17d0165bd15b"},"vehicle_type_id":"4","last_reported":1746911296,"current_range_meters":16000,"station_id":"ce4bhbh2rcd13ifvqepg","pricing_plan_id":"cebpf4jnsgd1na2vs0mg"},{"bike_id":"78bdd65d-acd5-4212-b9ce-1f713fbfe66f","system_id":"levelo_inurba_marseille","lat":43.21187,"lon":5.35072,"is_reserved":false,"is_disabled":true,"rental_uris":{"android":"levelo://app?vid=78bdd65d-acd5-4212-b9ce-1f713fbfe66f","ios":"levelo://app?vid=78bdd65d-acd5-4212-b9ce-1f713fbfe66f"},"vehicle_type_id":"4","last_reported":1746911296,"current_range_meters":16000,"station_id":"st_cvj6sg6p6f1abm77japg","pricing_plan_id":"cebpf4jnsgd1na2vs0mg"},{"bike_id":"e12ea456-d9ad-4b3f-9ddf-fc045a89685e","system_id":"levelo_inurba_marseille","lat":43.27068,"lon":5.42275,"is_reserved":false,"is_disabled":false,"rental_uris":{"android":"levelo://app?vid=e12ea456-d9ad-4b3f-9ddf-fc045a89685e","ios":"levelo://app?vid=e12ea456-d9ad-4b3f-9ddf-fc045a89685e"},"vehicle_type_id":"4","last_reported":1746911296,"current_range_meters":16400,"station_id":"ce4bhk92rcd13ifvqgb0","pricing_plan_id":"cebpf4jnsgd1na2vs0mg"},{"bike_id":"496bf91d-0e22-4f82-9db8-4564c3fe494f","system_id":"levelo_inurba_marseille","lat":43.26553,"lon":5.39007,"is_reserved":false,"is_disabled":false,"rental_uris":{"android":"levelo://app?vid=496bf91d-0e22-4f82-9db8-4564c3fe494f","ios":"levelo://app?vid=496bf91d-0e22-4f82-9db8-4564c3fe494f"},"vehicle_type_id":"4","last_reported":1746911296,"current_range_meters":16400,"station_id":"ce4bhe12rcd13ifvqf30","pricing_plan_id":"cebpf4jnsgd1na2vs0mg"},{"bike_id":"54d7ffa3-a40c-4847-af0f-20f835bef043","system_id":"levelo_inurba_marseille","lat":43.2842,"lon":5.3498,"is_reserved":false,"is_disabled":false,"rental_uris":{"android":"levelo://app?vid=54d7ffa3-a40c-4847-af0f-20f835bef043","ios":"levelo://app?vid=54d7ffa3-a40c-4847-af0f-20f835bef043"},"vehicle_type_id":"4","last_reported":1746911296,"current_range_meters":16400,"station_id":"ce4bhbh2rcd13ifvqepg","pricing_plan_id":"cebpf4jnsgd1na2vs0mg"},{"bike_id":"a09203b9-9e18-4e81-be6c-94e0ad131257","system_id":"levelo_inurba_marseille","lat":43.32483,"lon":5.36563,"is_reserved":false,"is_disabled":false,"rental_uris":{"android":"levelo://app?vid=a09203b9-9e18-4e81-be6c-94e0ad131257","ios":"levelo://app?vid=a09203b9-9e18-4e81-be6c-94e0ad131257"},"vehicle_type_id":"4","last_reported":1746911296,"current_range_meters":16400,"station_id":"ce4bhs12rcd13ifvqhvg","pricing_plan_id":"cebpf4jnsgd1na2vs0mg"},{"bike_id":"f5ca684c-953b-4dab-aeec-7beb4111c8e3","system_id":"levelo_inurba_marseille","lat":43.29418,"lon":5.38676,"is_reserved":false,"is_disabled":false,"rental_uris":{"android":"levelo://app?vid=f5ca684c-953b-4dab-aeec-7beb4111c8e3","ios":"levelo://app?vid=f5ca684c-953b-4dab-aeec-7beb4111c8e3"},"vehicle_type_id":"4","last_reported":1746911296,"current_range_meters":16400,"station_id":"ce4bh2h2rcd13ifvqdh0","pricing_plan_id":"cebpf4jnsgd1na2vs0mg"},{"bike_id":"3684b1c2-d7ad-4b8b-ac33-a9a32f54a7fe","system_id":"levelo_inurba_marseille","lat":43.25113,"lon":5.40313,"is_reserved":false,"is_disabled":false,"rental_uris":{"android":"levelo://app?vid=3684b1c2-d7ad-4b8b-ac33-a9a32f54a7fe","ios":"levelo://app?vid=3684b1c2-d7ad-4b8b-ac33-a9a32f54a7fe"},"vehicle_type_id":"4","last_reported":1746911296,"current_range_meters":16400,"station_id":"ce4bhlh2rcd13ifvqgig","pricing_plan_id":"cebpf4jnsgd1na2vs0mg"},{"bike_id":"5a3ef520-38cb-4f9e-838a-386b119a1157","system_id":"levelo_inurba_marseille","lat":43.30248,"lon":5.40053,"is_reserved":false,"is_disabled":false,"rental_uris":{"android":"levelo://app?vid=5a3ef520-38cb-4f9e-838a-386b119a1157","ios":"levelo://app?vid=5a3ef520-38cb-4f9e-838a-386b119a1157"},"vehicle_type_id":"4","last_reported":1746911296,"current_range_meters":16400,"station_id":"ce4bgvh2rcd13ifvqcs0","pricing_plan_id":"cebpf4jnsgd1na2vs0mg"},{"bike_id":"13fa2dba-5a58-4588-b4a1-7956487d21f6","system_id":"levelo_inurba_marseille","lat":43.32251,"lon":5.36739,"is_reserved":false,"is_disabled":false,"rental_uris":{"android":"levelo://app?vid=13fa2dba-5a58-4588-b4a1-7956487d21f6","ios":"levelo://app?vid=13fa2dba-5a58-4588-b4a1-7956487d21f6"},"vehicle_type_id":"4","last_reported":1746911296,"current_range_meters":16400,"station_id":"","pricing_plan_id":"cebpf4jnsgd1na2vs0mg"},{"bike_id":"d1efa0d2-08d0-4d26-bf3f-39327b65b2fa","system_id":"levelo_inurba_marseille","lat":43.29914,"lon":5.37472,"is_reserved":false,"is_disabled":false,"rental_uris":{"android":"levelo://app?vid=d1efa0d2-08d0-4d26-bf3f-39327b65b2fa","ios":"levelo://app?vid=d1efa0d2-08d0-4d26-bf3f-39327b65b2fa"},"vehicle_type_id":"4","last_reported":1746911296,"current_range_meters":16400,"station_id":"ce4bgjh2rcd13ifvqbg0","pricing_plan_id":"cebpf4jnsgd1na2vs0mg"},{"bike_id":"f7387fde-a7d5-45ec-9b02-4766c798d384","system_id":"levelo_inurba_marseille","lat":43.29422,"lon":5.38642,"is_reserved":false,"is_disabled":false,"rental_uris":{"android":"levelo://app?vid=f7387fde-a7d5-45ec-9b02-4766c798d384","ios":"levelo://app?vid=f7387fde-a7d5-45ec-9b02-4766c798d384"},"vehicle_type_id":"4","last_reported":1746911296,"current_range_meters":16800,"station_id":"ce4bh2h2rcd13ifvqdh0","pricing_plan_id":"cebpf4jnsgd1na2vs0mg"},{"bike_id":"072f7495-afed-4292-895b-8ad90115315c","system_id":"levelo_inurba_marseille","lat":43.304173,"lon":5.413078,"is_reserved":false,"is_disabled":false,"rental_uris":{"android":"levelo://app?vid=072f7495-afed-4292-895b-8ad90115315c","ios":"levelo://app?vid=072f7495-afed-4292-895b-8ad90115315c"},"vehicle_type_id":"4","last_reported":1746911296,"current_range_meters":16800,"station_id":"ce4bhop2rcd13ifvqh8g","pricing_plan_id":"cebpf4jnsgd1na2vs0mg"},{"bike_id":"43537185-2341-4abe-bfc3-e1f46de7c25a","system_id":"levelo_inurba_marseille","lat":43.27071,"lon":5.42282,"is_reserved":false,"is_disabled":false,"rental_uris":{"android":"levelo://app?vid=43537185-2341-4abe-bfc3-e1f46de7c25a","ios":"levelo://app?vid=43537185-2341-4abe-bfc3-e1f46de7c25a"},"vehicle_type_id":"4","last_reported":1746911296,"current_range_meters":16800,"station_id":"ce4bhk92rcd13ifvqgb0","pricing_plan_id":"cebpf4jnsgd1na2vs0mg"},{"bike_id":"8c7f13bd-4703-459f-82f1-2194761f7e4e","system_id":"levelo_inurba_marseille","lat":43.28732,"lon":5.37941,"is_reserved":false,"is_disabled":false,"rental_uris":{"android":"levelo://app?vid=8c7f13bd-4703-459f-82f1-2194761f7e4e","ios":"levelo://app?vid=8c7f13bd-4703-459f-82f1-2194761f7e4e"},"vehicle_type_id":"4","last_reported":1746911296,"current_range_meters":16800,"station_id":"ce4bh9p2rcd13ifvqec0","pricing_plan_id":"cebpf4jnsgd1na2vs0mg"},{"bike_id":"11b2de39-86c6-4c62-a25f-a276bb77b690","system_id":"levelo_inurba_marseille","lat":43.248,"lon":5.37453,"is_reserved":false,"is_disabled":false,"rental_uris":{"android":"levelo://app?vid=11b2de39-86c6-4c62-a25f-a276bb77b690","ios":"levelo://app?vid=11b2de39-86c6-4c62-a25f-a276bb77b690"},"vehicle_type_id":"4","last_reported":1746911296,"current_range_meters":16800,"station_id":"ce4bhgh2rcd13ifvqfb0","pricing_plan_id":"cebpf4jnsgd1na2vs0mg"},{"bike_id":"eabf14a0-7bd3-4e89-8bac-05906d0f4b2c","system_id":"levelo_inurba_marseille","lat":43.279729,"lon":5.387278,"is_reserved":false,"is_disabled":true,"rental_uris":{"android":"levelo://app?vid=eabf14a0-7bd3-4e89-8bac-05906d0f4b2c","ios":"levelo://app?vid=eabf14a0-7bd3-4e89-8bac-05906d0f4b2c"},"vehicle_type_id":"4","last_reported":1746911296,"current_range_meters":16800,"station_id":"ce4bhg12rcd13ifvqf80","pricing_plan_id":"cebpf4jnsgd1na2vs0mg"},{"bike_id":"d18d4370-2bd6-49a0-b879-64148b9a89fb","system_id":"levelo_inurba_marseille","lat":43.28933,"lon":5.384,"is_reserved":false,"is_disabled":false,"rental_uris":{"android":"levelo://app?vid=d18d4370-2bd6-49a0-b879-64148b9a89fb","ios":"levelo://app?vid=d18d4370-2bd6-49a0-b879-64148b9a89fb"},"vehicle_type_id":"4","last_reported":1746911296,"current_range_meters":17200,"station_id":"ce4bh612rcd13ifvqe6g","pricing_plan_id":"cebpf4jnsgd1na2vs0mg"},{"bike_id":"14d693c5-ecb3-4074-a67c-588bec49507c","system_id":"levelo_inurba_marseille","lat":43.29101,"lon":5.3813,"is_reserved":false,"is_disabled":false,"rental_uris":{"android":"levelo://app?vid=14d693c5-ecb3-4074-a67c-588bec49507c","ios":"levelo://app?vid=14d693c5-ecb3-4074-a67c-588bec49507c"},"vehicle_type_id":"4","last_reported":1746911296,"current_range_meters":17200,"station_id":"ce4bh512rcd13ifvqe2g","pricing_plan_id":"cebpf4jnsgd1na2vs0mg"},{"bike_id":"6d52c8b8-f7f4-4ed7-a061-7701ec026864","system_id":"levelo_inurba_marseille","lat":43.279074,"lon":5.383149,"is_reserved":false,"is_disabled":false,"rental_uris":{"android":"levelo://app?vid=6d52c8b8-f7f4-4ed7-a061-7701ec026864","ios":"levelo://app?vid=6d52c8b8-f7f4-4ed7-a061-7701ec026864"},"vehicle_type_id":"4","last_reported":1746911296,"current_range_meters":17200,"station_id":"ce4bhf92rcd13ifvqf50","pricing_plan_id":"cebpf4jnsgd1na2vs0mg"},{"bike_id":"cc62d2da-5a20-4806-9c3f-389790a326f5","system_id":"levelo_inurba_marseille","lat":43.243983,"lon":5.370559,"is_reserved":false,"is_disabled":true,"rental_uris":{"android":"levelo://app?vid=cc62d2da-5a20-4806-9c3f-389790a326f5","ios":"levelo://app?vid=cc62d2da-5a20-4806-9c3f-389790a326f5"},"vehicle_type_id":"4","last_reported":1746911296,"current_range_meters":17200,"station_id":"ce4bhhh2rcd13ifvqfk0","pricing_plan_id":"cebpf4jnsgd1na2vs0mg"},{"bike_id":"29bcc0a3-f441-4905-b817-702918cd7f8e","system_id":"levelo_inurba_marseille","lat":43.28274,"lon":5.36158,"is_reserved":false,"is_disabled":false,"rental_uris":{"android":"levelo://app?vid=29bcc0a3-f441-4905-b817-702918cd7f8e","ios":"levelo://app?vid=29bcc0a3-f441-4905-b817-702918cd7f8e"},"vehicle_type_id":"4","last_reported":1746911296,"current_range_meters":17200,"station_id":"","pricing_plan_id":"cebpf4jnsgd1na2vs0mg"},{"bike_id":"878d7e05-aee1-4634-a9d2-4769a525200b","system_id":"levelo_inurba_marseille","lat":43.29909,"lon":5.37469,"is_reserved":false,"is_disabled":false,"rental_uris":{"android":"levelo://app?vid=878d7e05-aee1-4634-a9d2-4769a525200b","ios":"levelo://app?vid=878d7e05-aee1-4634-a9d2-4769a525200b"},"vehicle_type_id":"4","last_reported":1746911296,"current_range_meters":17200,"station_id":"ce4bgjh2rcd13ifvqbg0","pricing_plan_id":"cebpf4jnsgd1na2vs0mg"},{"bike_id":"7d8521a6-45e2-42ef-806d-525920cc795e","system_id":"levelo_inurba_marseille","lat":43.2907,"lon":5.37179,"is_reserved":false,"is_disabled":false,"rental_uris":{"android":"levelo://app?vid=7d8521a6-45e2-42ef-806d-525920cc795e","ios":"levelo://app?vid=7d8521a6-45e2-42ef-806d-525920cc795e"},"vehicle_type_id":"4","last_reported":1746911296,"current_range_meters":17200,"station_id":"ce4bh5p2rcd13ifvqe4g","pricing_plan_id":"cebpf4jnsgd1na2vs0mg"},{"bike_id":"5f292918-0351-47bc-b52f-404937095ee0","system_id":"levelo_inurba_marseille","lat":43.23442,"lon":5.35921,"is_reserved":false,"is_disabled":false,"rental_uris":{"android":"levelo://app?vid=5f292918-0351-47bc-b52f-404937095ee0","ios":"levelo://app?vid=5f292918-0351-47bc-b52f-404937095ee0"},"vehicle_type_id":"4","last_reported":1746911296,"current_range_meters":17600,"station_id":"","pricing_plan_id":"cebpf4jnsgd1na2vs0mg"},{"bike_id":"3a3a5a55-e9a4-4f49-a47c-53485b9831fe","system_id":"levelo_inurba_marseille","lat":43.30725,"lon":5.42433,"is_reserved":false,"is_disabled":false,"rental_uris":{"android":"levelo://app?vid=3a3a5a55-e9a4-4f49-a47c-53485b9831fe","ios":"levelo://app?vid=3a3a5a55-e9a4-4f49-a47c-53485b9831fe"},"vehicle_type_id":"4","last_reported":1746911296,"current_range_meters":17600,"station_id":"st_cvj6ca6bvosntc0bfgr0","pricing_plan_id":"cebpf4jnsgd1na2vs0mg"},{"bike_id":"555e06ff-fb18-49e1-a7d9-2cdad7bf0c5a","system_id":"levelo_inurba_marseille","lat":43.2734,"lon":5.39132,"is_reserved":false,"is_disabled":false,"rental_uris":{"android":"levelo://app?vid=555e06ff-fb18-49e1-a7d9-2cdad7bf0c5a","ios":"levelo://app?vid=555e06ff-fb18-49e1-a7d9-2cdad7bf0c5a"},"vehicle_type_id":"4","last_reported":1746911296,"current_range_meters":17600,"station_id":"","pricing_plan_id":"cebpf4jnsgd1na2vs0mg"},{"bike_id":"3bacbf6b-f09c-4233-a5b1-859d2ae4bee3","system_id":"levelo_inurba_marseille","lat":43.29265,"lon":5.38441,"is_reserved":false,"is_disabled":false,"rental_uris":{"android":"levelo://app?vid=3bacbf6b-f09c-4233-a5b1-859d2ae4bee3","ios":"levelo://app?vid=3bacbf6b-f09c-4233-a5b1-859d2ae4bee3"},"vehicle_type_id":"4","last_reported":1746911296,"current_range_meters":17600,"station_id":"ce4bh692rcd13ifvqea0","pricing_plan_id":"cebpf4jnsgd1na2vs0mg"},{"bike_id":"8981df74-b767-47c2-b9be-ab9fe1464fd8","system_id":"levelo_inurba_marseille","lat":43.30964,"lon":5.39066,"is_reserved":false,"is_disabled":false,"rental_uris":{"android":"levelo://app?vid=8981df74-b767-47c2-b9be-ab9fe1464fd8","ios":"levelo://app?vid=8981df74-b767-47c2-b9be-ab9fe1464fd8"},"vehicle_type_id":"4","last_reported":1746911296,"current_range_meters":17600,"station_id":"ce4bgup2rcd13ifvqco0","pricing_plan_id":"cebpf4jnsgd1na2vs0mg"},{"bike_id":"52736094-3941-425f-b915-d6bb150d0d07","system_id":"levelo_inurba_marseille","lat":43.302124,"lon":5.394729,"is_reserved":false,"is_disabled":false,"rental_uris":{"android":"levelo://app?vid=52736094-3941-425f-b915-d6bb150d0d07","ios":"levelo://app?vid=52736094-3941-425f-b915-d6bb150d0d07"},"vehicle_type_id":"4","last_reported":1746911296,"current_range_meters":17600,"station_id":"","pricing_plan_id":"cebpf4jnsgd1na2vs0mg"},{"bike_id":"c7d8547e-0225-4e89-874b-3e8ef1bf026e","system_id":"levelo_inurba_marseille","lat":43.30987,"lon":5.39007,"is_reserved":false,"is_disabled":false,"rental_uris":{"android":"levelo://app?vid=c7d8547e-0225-4e89-874b-3e8ef1bf026e","ios":"levelo://app?vid=c7d8547e-0225-4e89-874b-3e8ef1bf026e"},"vehicle_type_id":"4","last_reported":1746911296,"current_range_meters":17600,"station_id":"ce4bgv12rcd13ifvqcp0","pricing_plan_id":"cebpf4jnsgd1na2vs0mg"},{"bike_id":"f52c819d-ca4b-4640-b458-b877db1bf990","system_id":"levelo_inurba_marseille","lat":43.29853,"lon":5.40958,"is_reserved":false,"is_disabled":false,"rental_uris":{"android":"levelo://app?vid=f52c819d-ca4b-4640-b458-b877db1bf990","ios":"levelo://app?vid=f52c819d-ca4b-4640-b458-b877db1bf990"},"vehicle_type_id":"4","last_reported":1746911296,"current_range_meters":18000,"station_id":"","pricing_plan_id":"cebpf4jnsgd1na2vs0mg"},{"bike_id":"3cf91f01-f2d6-49b6-b319-1b3a0f0b8792","system_id":"levelo_inurba_marseille","lat":43.282991,"lon":5.401967,"is_reserved":false,"is_disabled":false,"rental_uris":{"android":"levelo://app?vid=3cf91f01-f2d6-49b6-b319-1b3a0f0b8792","ios":"levelo://app?vid=3cf91f01-f2d6-49b6-b319-1b3a0f0b8792"},"vehicle_type_id":"4","last_reported":1746911296,"current_range_meters":18000,"station_id":"ce4bhnp2rcd13ifvqh0g","pricing_plan_id":"cebpf4jnsgd1na2vs0mg"},{"bike_id":"7445e7d6-4605-48ee-af17-c3e71b5a2935","system_id":"levelo_inurba_marseille","lat":43.29415,"lon":5.38623,"is_reserved":false,"is_disabled":false,"rental_uris":{"android":"levelo://app?vid=7445e7d6-4605-48ee-af17-c3e71b5a2935","ios":"levelo://app?vid=7445e7d6-4605-48ee-af17-c3e71b5a2935"},"vehicle_type_id":"4","last_reported":1746911296,"current_range_meters":18000,"station_id":"ce4bh2h2rcd13ifvqdh0","pricing_plan_id":"cebpf4jnsgd1na2vs0mg"},{"bike_id":"cb021410-dc36-49fc-9d9d-4f5e6409e183","system_id":"levelo_inurba_marseille","lat":43.29564,"lon":5.39972,"is_reserved":false,"is_disabled":false,"rental_uris":{"android":"levelo://app?vid=cb021410-dc36-49fc-9d9d-4f5e6409e183","ios":"levelo://app?vid=cb021410-dc36-49fc-9d9d-4f5e6409e183"},"vehicle_type_id":"4","last_reported":1746911296,"current_range_meters":18000,"station_id":"ce4bh312rcd13ifvqdj0","pricing_plan_id":"cebpf4jnsgd1na2vs0mg"},{"bike_id":"eea2c32a-fa80-40a4-ae2c-18d1ca8ee305","system_id":"levelo_inurba_marseille","lat":43.31071,"lon":5.38355,"is_reserved":false,"is_disabled":false,"rental_uris":{"android":"levelo://app?vid=eea2c32a-fa80-40a4-ae2c-18d1ca8ee305","ios":"levelo://app?vid=eea2c32a-fa80-40a4-ae2c-18d1ca8ee305"},"vehicle_type_id":"4","last_reported":1746911296,"current_range_meters":18000,"station_id":"ce4bgv92rcd13ifvqcr0","pricing_plan_id":"cebpf4jnsgd1na2vs0mg"},{"bike_id":"50193ae5-4456-41cd-8bcb-dec6cf61b153","system_id":"levelo_inurba_marseille","lat":43.27492,"lon":5.42451,"is_reserved":false,"is_disabled":false,"rental_uris":{"android":"levelo://app?vid=50193ae5-4456-41cd-8bcb-dec6cf61b153","ios":"levelo://app?vid=50193ae5-4456-41cd-8bcb-dec6cf61b153"},"vehicle_type_id":"4","last_reported":1746911296,"current_range_meters":18800,"station_id":"ce4bhn92rcd13ifvqgrg","pricing_plan_id":"cebpf4jnsgd1na2vs0mg"},{"bike_id":"586c2cd7-37f2-433d-87b5-06810581a1c1","system_id":"levelo_inurba_marseille","lat":43.29028,"lon":5.38644,"is_reserved":false,"is_disabled":false,"rental_uris":{"android":"levelo://app?vid=586c2cd7-37f2-433d-87b5-06810581a1c1","ios":"levelo://app?vid=586c2cd7-37f2-433d-87b5-06810581a1c1"},"vehicle_type_id":"4","last_reported":1746911296,"current_range_meters":18800,"station_id":"ce4bh4p2rcd13ifvqe0g","pricing_plan_id":"cebpf4jnsgd1na2vs0mg"},{"bike_id":"082db1f0-99c6-4f93-a484-bdf136979352","system_id":"levelo_inurba_marseille","lat":43.294129,"lon":5.386273,"is_reserved":false,"is_disabled":false,"rental_uris":{"android":"levelo://app?vid=082db1f0-99c6-4f93-a484-bdf136979352","ios":"levelo://app?vid=082db1f0-99c6-4f93-a484-bdf136979352"},"vehicle_type_id":"4","last_reported":1746911296,"current_range_meters":18800,"station_id":"ce4bh2h2rcd13ifvqdh0","pricing_plan_id":"cebpf4jnsgd1na2vs0mg"},{"bike_id":"736ac8af-785f-483e-b64f-e41d07111d8b","system_id":"levelo_inurba_marseille","lat":43.27904,"lon":5.37998,"is_reserved":false,"is_disabled":false,"rental_uris":{"android":"levelo://app?vid=736ac8af-785f-483e-b64f-e41d07111d8b","ios":"levelo://app?vid=736ac8af-785f-483e-b64f-e41d07111d8b"},"vehicle_type_id":"4","last_reported":1746911296,"current_range_meters":18800,"station_id":"ce4bhf92rcd13ifvqf50","pricing_plan_id":"cebpf4jnsgd1na2vs0mg"},{"bike_id":"e64b6efa-8ad8-4af7-8d4d-f16b57fe35e2","system_id":"levelo_inurba_marseille","lat":43.28603,"lon":5.3706,"is_reserved":false,"is_disabled":true,"rental_uris":{"android":"levelo://app?vid=e64b6efa-8ad8-4af7-8d4d-f16b57fe35e2","ios":"levelo://app?vid=e64b6efa-8ad8-4af7-8d4d-f16b57fe35e2"},"vehicle_type_id":"4","last_reported":1746911296,"current_range_meters":18800,"station_id":"ce4bht12rcd13ifvqi60","pricing_plan_id":"cebpf4jnsgd1na2vs0mg"},{"bike_id":"1ba2c5e0-3dc0-457d-8d4d-52cafc00b2d2","system_id":"levelo_inurba_marseille","lat":43.29428,"lon":5.38623,"is_reserved":false,"is_disabled":false,"rental_uris":{"android":"levelo://app?vid=1ba2c5e0-3dc0-457d-8d4d-52cafc00b2d2","ios":"levelo://app?vid=1ba2c5e0-3dc0-457d-8d4d-52cafc00b2d2"},"vehicle_type_id":"4","last_reported":1746911296,"current_range_meters":18800,"station_id":"ce4bh2h2rcd13ifvqdh0","pricing_plan_id":"cebpf4jnsgd1na2vs0mg"},{"bike_id":"e2dd0ac8-65be-49b0-ab5f-0d56305ee5c8","system_id":"levelo_inurba_marseille","lat":43.30887,"lon":5.37197,"is_reserved":false,"is_disabled":false,"rental_uris":{"android":"levelo://app?vid=e2dd0ac8-65be-49b0-ab5f-0d56305ee5c8","ios":"levelo://app?vid=e2dd0ac8-65be-49b0-ab5f-0d56305ee5c8"},"vehicle_type_id":"4","last_reported":1746911296,"current_range_meters":18800,"station_id":"ce4bguh2rcd13ifvqckg","pricing_plan_id":"cebpf4jnsgd1na2vs0mg"},{"bike_id":"5720b896-d515-4270-b5fa-fd0eecb4c9a7","system_id":"levelo_inurba_marseille","lat":43.31726,"lon":5.42397,"is_reserved":false,"is_disabled":false,"rental_uris":{"android":"levelo://app?vid=5720b896-d515-4270-b5fa-fd0eecb4c9a7","ios":"levelo://app?vid=5720b896-d515-4270-b5fa-fd0eecb4c9a7"},"vehicle_type_id":"4","last_reported":1746911296,"current_range_meters":18800,"station_id":"ce4bhp92rcd13ifvqhbg","pricing_plan_id":"cebpf4jnsgd1na2vs0mg"},{"bike_id":"4fa87156-d1a3-43f5-b049-05e7dce83076","system_id":"levelo_inurba_marseille","lat":43.28425,"lon":5.37524,"is_reserved":false,"is_disabled":false,"rental_uris":{"android":"levelo://app?vid=4fa87156-d1a3-43f5-b049-05e7dce83076","ios":"levelo://app?vid=4fa87156-d1a3-43f5-b049-05e7dce83076"},"vehicle_type_id":"4","last_reported":1746911296,"current_range_meters":18800,"station_id":"ce4bh412rcd13ifvqds0","pricing_plan_id":"cebpf4jnsgd1na2vs0mg"},{"bike_id":"1f604cf9-be0c-4844-9e86-45854f188106","system_id":"levelo_inurba_marseille","lat":43.2866,"lon":5.38668,"is_reserved":false,"is_disabled":false,"rental_uris":{"android":"levelo://app?vid=1f604cf9-be0c-4844-9e86-45854f188106","ios":"levelo://app?vid=1f604cf9-be0c-4844-9e86-45854f188106"},"vehicle_type_id":"4","last_reported":1746911296,"current_range_meters":19200,"station_id":"ce4bh492rcd13ifvqdug","pricing_plan_id":"cebpf4jnsgd1na2vs0mg"},{"bike_id":"099be2d4-1352-4ec0-9b04-c9d4b32bba21","system_id":"levelo_inurba_marseille","lat":43.290309,"lon":5.359345,"is_reserved":false,"is_disabled":false,"rental_uris":{"android":"levelo://app?vid=099be2d4-1352-4ec0-9b04-c9d4b32bba21","ios":"levelo://app?vid=099be2d4-1352-4ec0-9b04-c9d4b32bba21"},"vehicle_type_id":"4","last_reported":1746911296,"current_range_meters":19200,"station_id":"ce4bha92rcd13ifvqeg0","pricing_plan_id":"cebpf4jnsgd1na2vs0mg"},{"bike_id":"9eb45cff-0f92-440d-b5e4-f9f552e30ae0","system_id":"levelo_inurba_marseille","lat":43.28421,"lon":5.34984,"is_reserved":false,"is_disabled":true,"rental_uris":{"android":"levelo://app?vid=9eb45cff-0f92-440d-b5e4-f9f552e30ae0","ios":"levelo://app?vid=9eb45cff-0f92-440d-b5e4-f9f552e30ae0"},"vehicle_type_id":"4","last_reported":1746911296,"current_range_meters":19200,"station_id":"ce4bhbh2rcd13ifvqepg","pricing_plan_id":"cebpf4jnsgd1na2vs0mg"},{"bike_id":"534c9c23-cdbf-4ba7-9a1a-17f5c93a4d5b","system_id":"levelo_inurba_marseille","lat":43.30331,"lon":5.36821,"is_reserved":false,"is_disabled":false,"rental_uris":{"android":"levelo://app?vid=534c9c23-cdbf-4ba7-9a1a-17f5c93a4d5b","ios":"levelo://app?vid=534c9c23-cdbf-4ba7-9a1a-17f5c93a4d5b"},"vehicle_type_id":"4","last_reported":1746911296,"current_range_meters":19200,"station_id":"","pricing_plan_id":"cebpf4jnsgd1na2vs0mg"},{"bike_id":"075979de-4a30-43d9-9e11-c9183ef3a80b","system_id":"levelo_inurba_marseille","lat":43.29192,"lon":5.39322,"is_reserved":false,"is_disabled":false,"rental_uris":{"android":"levelo://app?vid=075979de-4a30-43d9-9e11-c9183ef3a80b","ios":"levelo://app?vid=075979de-4a30-43d9-9e11-c9183ef3a80b"},"vehicle_type_id":"4","last_reported":1746911296,"current_range_meters":19200,"station_id":"ce4bh192rcd13ifvqdd0","pricing_plan_id":"cebpf4jnsgd1na2vs0mg"},{"bike_id":"2ea7ee04-3175-43c7-92f3-a4405c82682a","system_id":"levelo_inurba_marseille","lat":43.29259,"lon":5.38453,"is_reserved":false,"is_disabled":false,"rental_uris":{"android":"levelo://app?vid=2ea7ee04-3175-43c7-92f3-a4405c82682a","ios":"levelo://app?vid=2ea7ee04-3175-43c7-92f3-a4405c82682a"},"vehicle_type_id":"4","last_reported":1746911296,"current_range_meters":19600,"station_id":"ce4bh692rcd13ifvqea0","pricing_plan_id":"cebpf4jnsgd1na2vs0mg"},{"bike_id":"618b5830-0da9-447f-b805-28b1e98a4bc9","system_id":"levelo_inurba_marseille","lat":43.29864,"lon":5.38898,"is_reserved":false,"is_disabled":false,"rental_uris":{"android":"levelo://app?vid=618b5830-0da9-447f-b805-28b1e98a4bc9","ios":"levelo://app?vid=618b5830-0da9-447f-b805-28b1e98a4bc9"},"vehicle_type_id":"4","last_reported":1746911296,"current_range_meters":19600,"station_id":"","pricing_plan_id":"cebpf4jnsgd1na2vs0mg"},{"bike_id":"7be2175f-bee4-46db-b2a1-05be0e4b9ff3","system_id":"levelo_inurba_marseille","lat":43.28487,"lon":5.38417,"is_reserved":false,"is_disabled":false,"rental_uris":{"android":"levelo://app?vid=7be2175f-bee4-46db-b2a1-05be0e4b9ff3","ios":"levelo://app?vid=7be2175f-bee4-46db-b2a1-05be0e4b9ff3"},"vehicle_type_id":"4","last_reported":1746911296,"current_range_meters":19600,"station_id":"ce4bh512rcd13ifvqe3g","pricing_plan_id":"cebpf4jnsgd1na2vs0mg"},{"bike_id":"6f33d593-b6b8-45ca-b839-ed5fd0e98215","system_id":"levelo_inurba_marseille","lat":43.21199,"lon":5.35071,"is_reserved":false,"is_disabled":true,"rental_uris":{"android":"levelo://app?vid=6f33d593-b6b8-45ca-b839-ed5fd0e98215","ios":"levelo://app?vid=6f33d593-b6b8-45ca-b839-ed5fd0e98215"},"vehicle_type_id":"4","last_reported":1746911296,"current_range_meters":19600,"station_id":"st_cvj6sg6p6f1abm77japg","pricing_plan_id":"cebpf4jnsgd1na2vs0mg"},{"bike_id":"5c977c6a-65d9-4e33-bbc8-a7f09f990237","system_id":"levelo_inurba_marseille","lat":43.25115,"lon":5.40317,"is_reserved":false,"is_disabled":false,"rental_uris":{"android":"levelo://app?vid=5c977c6a-65d9-4e33-bbc8-a7f09f990237","ios":"levelo://app?vid=5c977c6a-65d9-4e33-bbc8-a7f09f990237"},"vehicle_type_id":"4","last_reported":1746911296,"current_range_meters":20000,"station_id":"ce4bhlh2rcd13ifvqgig","pricing_plan_id":"cebpf4jnsgd1na2vs0mg"},{"bike_id":"0b334158-065c-437e-bf68-c4b9559cc8e2","system_id":"levelo_inurba_marseille","lat":43.30553,"lon":5.36547,"is_reserved":false,"is_disabled":false,"rental_uris":{"android":"levelo://app?vid=0b334158-065c-437e-bf68-c4b9559cc8e2","ios":"levelo://app?vid=0b334158-065c-437e-bf68-c4b9559cc8e2"},"vehicle_type_id":"4","last_reported":1746911296,"current_range_meters":20000,"station_id":"ce4bgs12rcd13ifvqcag","pricing_plan_id":"cebpf4jnsgd1na2vs0mg"},{"bike_id":"b4b1209b-d6e4-40f3-a5a3-2300ab342735","system_id":"levelo_inurba_marseille","lat":43.29894,"lon":5.43668,"is_reserved":false,"is_disabled":false,"rental_uris":{"android":"levelo://app?vid=b4b1209b-d6e4-40f3-a5a3-2300ab342735","ios":"levelo://app?vid=b4b1209b-d6e4-40f3-a5a3-2300ab342735"},"vehicle_type_id":"4","last_reported":1746911296,"current_range_meters":20000,"station_id":"ce4bhpp2rcd13ifvqhfg","pricing_plan_id":"cebpf4jnsgd1na2vs0mg"},{"bike_id":"af8a3713-5a45-44b6-8df9-23e9caa804e4","system_id":"levelo_inurba_marseille","lat":43.29026,"lon":5.38135,"is_reserved":false,"is_disabled":false,"rental_uris":{"android":"levelo://app?vid=af8a3713-5a45-44b6-8df9-23e9caa804e4","ios":"levelo://app?vid=af8a3713-5a45-44b6-8df9-23e9caa804e4"},"vehicle_type_id":"4","last_reported":1746911296,"current_range_meters":20400,"station_id":"ce4bh4p2rcd13ifvqe1g","pricing_plan_id":"cebpf4jnsgd1na2vs0mg"},{"bike_id":"08e05532-ef98-4167-9fd1-c0f58539efa2","system_id":"levelo_inurba_marseille","lat":43.28461,"lon":5.358915,"is_reserved":false,"is_disabled":false,"rental_uris":{"android":"levelo://app?vid=08e05532-ef98-4167-9fd1-c0f58539efa2","ios":"levelo://app?vid=08e05532-ef98-4167-9fd1-c0f58539efa2"},"vehicle_type_id":"4","last_reported":1746911296,"current_range_meters":20400,"station_id":"ce4bhah2rcd13ifvqei0","pricing_plan_id":"cebpf4jnsgd1na2vs0mg"},{"bike_id":"4762718c-a376-420c-be5d-ae5208641990","system_id":"levelo_inurba_marseille","lat":43.284643,"lon":5.35897,"is_reserved":false,"is_disabled":true,"rental_uris":{"android":"levelo://app?vid=4762718c-a376-420c-be5d-ae5208641990","ios":"levelo://app?vid=4762718c-a376-420c-be5d-ae5208641990"},"vehicle_type_id":"4","last_reported":1746911296,"current_range_meters":20400,"station_id":"ce4bhah2rcd13ifvqei0","pricing_plan_id":"cebpf4jnsgd1na2vs0mg"},{"bike_id":"8ff650b1-9989-41ca-81a0-f23d1ea4a5af","system_id":"levelo_inurba_marseille","lat":43.30955,"lon":5.39058,"is_reserved":false,"is_disabled":false,"rental_uris":{"android":"levelo://app?vid=8ff650b1-9989-41ca-81a0-f23d1ea4a5af","ios":"levelo://app?vid=8ff650b1-9989-41ca-81a0-f23d1ea4a5af"},"vehicle_type_id":"4","last_reported":1746911296,"current_range_meters":20400,"station_id":"ce4bgup2rcd13ifvqco0","pricing_plan_id":"cebpf4jnsgd1na2vs0mg"},{"bike_id":"47909324-4547-4668-aebe-b12a230948e8","system_id":"levelo_inurba_marseille","lat":43.28575,"lon":5.39495,"is_reserved":false,"is_disabled":false,"rental_uris":{"android":"levelo://app?vid=47909324-4547-4668-aebe-b12a230948e8","ios":"levelo://app?vid=47909324-4547-4668-aebe-b12a230948e8"},"vehicle_type_id":"4","last_reported":1746911296,"current_range_meters":20400,"station_id":"ce4bh292rcd13ifvqdg0","pricing_plan_id":"cebpf4jnsgd1na2vs0mg"},{"bike_id":"2ae42f68-68c5-48a6-88e8-602aa446efd4","system_id":"levelo_inurba_marseille","lat":43.290295,"lon":5.386465,"is_reserved":false,"is_disabled":false,"rental_uris":{"android":"levelo://app?vid=2ae42f68-68c5-48a6-88e8-602aa446efd4","ios":"levelo://app?vid=2ae42f68-68c5-48a6-88e8-602aa446efd4"},"vehicle_type_id":"4","last_reported":1746911296,"current_range_meters":20400,"station_id":"ce4bh4p2rcd13ifvqe0g","pricing_plan_id":"cebpf4jnsgd1na2vs0mg"},{"bike_id":"95c07f58-992e-486e-9e01-f8c38af93653","system_id":"levelo_inurba_marseille","lat":43.305322,"lon":5.367091,"is_reserved":false,"is_disabled":true,"rental_uris":{"android":"levelo://app?vid=95c07f58-992e-486e-9e01-f8c38af93653","ios":"levelo://app?vid=95c07f58-992e-486e-9e01-f8c38af93653"},"vehicle_type_id":"4","last_reported":1746911296,"current_range_meters":20400,"station_id":"ce4bgrp2rcd13ifvqc9g","pricing_plan_id":"cebpf4jnsgd1na2vs0mg"},{"bike_id":"68986113-215d-4b35-8e2e-144e587bcc61","system_id":"levelo_inurba_marseille","lat":43.30541,"lon":5.38425,"is_reserved":false,"is_disabled":false,"rental_uris":{"android":"levelo://app?vid=68986113-215d-4b35-8e2e-144e587bcc61","ios":"levelo://app?vid=68986113-215d-4b35-8e2e-144e587bcc61"},"vehicle_type_id":"4","last_reported":1746911296,"current_range_meters":20800,"station_id":"ce4bgg92rcd13ifvqb30","pricing_plan_id":"cebpf4jnsgd1na2vs0mg"},{"bike_id":"e2d24696-f2bb-49c8-8008-ab29d4335095","system_id":"levelo_inurba_marseille","lat":43.2863,"lon":5.35097,"is_reserved":false,"is_disabled":false,"rental_uris":{"android":"levelo://app?vid=e2d24696-f2bb-49c8-8008-ab29d4335095","ios":"levelo://app?vid=e2d24696-f2bb-49c8-8008-ab29d4335095"},"vehicle_type_id":"4","last_reported":1746911296,"current_range_meters":20800,"station_id":"ce4bhch2rcd13ifvqeug","pricing_plan_id":"cebpf4jnsgd1na2vs0mg"},{"bike_id":"7c6133d2-b2b8-4b15-b64c-d37a05de9961","system_id":"levelo_inurba_marseille","lat":43.28529,"lon":5.38026,"is_reserved":false,"is_disabled":false,"rental_uris":{"android":"levelo://app?vid=7c6133d2-b2b8-4b15-b64c-d37a05de9961","ios":"levelo://app?vid=7c6133d2-b2b8-4b15-b64c-d37a05de9961"},"vehicle_type_id":"4","last_reported":1746911296,"current_range_meters":20800,"station_id":"","pricing_plan_id":"cebpf4jnsgd1na2vs0mg"},{"bike_id":"77b898d6-83c3-4819-8f10-342d8faa3aa9","system_id":"levelo_inurba_marseille","lat":43.27069,"lon":5.42274,"is_reserved":false,"is_disabled":true,"rental_uris":{"android":"levelo://app?vid=77b898d6-83c3-4819-8f10-342d8faa3aa9","ios":"levelo://app?vid=77b898d6-83c3-4819-8f10-342d8faa3aa9"},"vehicle_type_id":"4","last_reported":1746911296,"current_range_meters":20800,"station_id":"ce4bhk92rcd13ifvqgb0","pricing_plan_id":"cebpf4jnsgd1na2vs0mg"},{"bike_id":"65f21071-dede-4e2a-9685-6a888f5819b8","system_id":"levelo_inurba_marseille","lat":43.2868,"lon":5.38661,"is_reserved":false,"is_disabled":false,"rental_uris":{"android":"levelo://app?vid=65f21071-dede-4e2a-9685-6a888f5819b8","ios":"levelo://app?vid=65f21071-dede-4e2a-9685-6a888f5819b8"},"vehicle_type_id":"4","last_reported":1746911296,"current_range_meters":20800,"station_id":"ce4bh492rcd13ifvqdug","pricing_plan_id":"cebpf4jnsgd1na2vs0mg"},{"bike_id":"bb95814f-2983-4b66-bfb1-098e1bfd67c2","system_id":"levelo_inurba_marseille","lat":43.29886,"lon":5.38909,"is_reserved":false,"is_disabled":false,"rental_uris":{"android":"levelo://app?vid=bb95814f-2983-4b66-bfb1-098e1bfd67c2","ios":"levelo://app?vid=bb95814f-2983-4b66-bfb1-098e1bfd67c2"},"vehicle_type_id":"4","last_reported":1746911296,"current_range_meters":20800,"station_id":"ce4bh392rcd13ifvqdl0","pricing_plan_id":"cebpf4jnsgd1na2vs0mg"},{"bike_id":"fc51e9bb-46a3-4582-8ddc-ef55e24beb6a","system_id":"levelo_inurba_marseille","lat":43.28123,"lon":5.37819,"is_reserved":false,"is_disabled":false,"rental_uris":{"android":"levelo://app?vid=fc51e9bb-46a3-4582-8ddc-ef55e24beb6a","ios":"levelo://app?vid=fc51e9bb-46a3-4582-8ddc-ef55e24beb6a"},"vehicle_type_id":"4","last_reported":1746911296,"current_range_meters":20800,"station_id":"ce4bha12rcd13ifvqee0","pricing_plan_id":"cebpf4jnsgd1na2vs0mg"},{"bike_id":"2474e82c-629a-4b4e-ac77-604ceab2f3d3","system_id":"levelo_inurba_marseille","lat":43.3117,"lon":5.38714,"is_reserved":false,"is_disabled":false,"rental_uris":{"android":"levelo://app?vid=2474e82c-629a-4b4e-ac77-604ceab2f3d3","ios":"levelo://app?vid=2474e82c-629a-4b4e-ac77-604ceab2f3d3"},"vehicle_type_id":"4","last_reported":1746911296,"current_range_meters":20800,"station_id":"ce4bgv12rcd13ifvqcp0","pricing_plan_id":"cebpf4jnsgd1na2vs0mg"},{"bike_id":"23829df7-2968-4793-ac4d-61155c0448f9","system_id":"levelo_inurba_marseille","lat":43.26501,"lon":5.39535,"is_reserved":false,"is_disabled":false,"rental_uris":{"android":"levelo://app?vid=23829df7-2968-4793-ac4d-61155c0448f9","ios":"levelo://app?vid=23829df7-2968-4793-ac4d-61155c0448f9"},"vehicle_type_id":"4","last_reported":1746911296,"current_range_meters":21600,"station_id":"ce4bhi12rcd13ifvqfq0","pricing_plan_id":"cebpf4jnsgd1na2vs0mg"},{"bike_id":"d3d233e8-ddf6-405a-9e9c-75ee3e6db206","system_id":"levelo_inurba_marseille","lat":43.29265,"lon":5.38429,"is_reserved":false,"is_disabled":false,"rental_uris":{"android":"levelo://app?vid=d3d233e8-ddf6-405a-9e9c-75ee3e6db206","ios":"levelo://app?vid=d3d233e8-ddf6-405a-9e9c-75ee3e6db206"},"vehicle_type_id":"4","last_reported":1746911296,"current_range_meters":21600,"station_id":"ce4bh692rcd13ifvqea0","pricing_plan_id":"cebpf4jnsgd1na2vs0mg"},{"bike_id":"1c7075a5-efce-4488-96bd-8e23566b7ed7","system_id":"levelo_inurba_marseille","lat":43.24673,"lon":5.38162,"is_reserved":false,"is_disabled":false,"rental_uris":{"android":"levelo://app?vid=1c7075a5-efce-4488-96bd-8e23566b7ed7","ios":"levelo://app?vid=1c7075a5-efce-4488-96bd-8e23566b7ed7"},"vehicle_type_id":"4","last_reported":1746911296,"current_range_meters":21600,"station_id":"ce4bhih2rcd13ifvqfr0","pricing_plan_id":"cebpf4jnsgd1na2vs0mg"},{"bike_id":"e2446bb8-e0aa-49c6-ac8e-844057c1ceff","system_id":"levelo_inurba_marseille","lat":43.30206,"lon":5.37492,"is_reserved":false,"is_disabled":false,"rental_uris":{"android":"levelo://app?vid=e2446bb8-e0aa-49c6-ac8e-844057c1ceff","ios":"levelo://app?vid=e2446bb8-e0aa-49c6-ac8e-844057c1ceff"},"vehicle_type_id":"4","last_reported":1746911296,"current_range_meters":21600,"station_id":"ce4bguh2rcd13ifvqcj0","pricing_plan_id":"cebpf4jnsgd1na2vs0mg"},{"bike_id":"67ae29c5-ce37-463e-9ce2-4def8ad777f9","system_id":"levelo_inurba_marseille","lat":43.27817,"lon":5.40706,"is_reserved":false,"is_disabled":false,"rental_uris":{"android":"levelo://app?vid=67ae29c5-ce37-463e-9ce2-4def8ad777f9","ios":"levelo://app?vid=67ae29c5-ce37-463e-9ce2-4def8ad777f9"},"vehicle_type_id":"4","last_reported":1746911296,"current_range_meters":22000,"station_id":"ce4bhnh2rcd13ifvqgtg","pricing_plan_id":"cebpf4jnsgd1na2vs0mg"},{"bike_id":"c37ca2b1-69dc-46e9-94be-7c01aebc93d5","system_id":"levelo_inurba_marseille","lat":43.303107,"lon":5.368966,"is_reserved":false,"is_disabled":false,"rental_uris":{"android":"levelo://app?vid=c37ca2b1-69dc-46e9-94be-7c01aebc93d5","ios":"levelo://app?vid=c37ca2b1-69dc-46e9-94be-7c01aebc93d5"},"vehicle_type_id":"4","last_reported":1746911296,"current_range_meters":22000,"station_id":"ce4bgqh2rcd13ifvqc5g","pricing_plan_id":"cebpf4jnsgd1na2vs0mg"},{"bike_id":"cbddb541-e24f-4307-99eb-92d81daa9fd4","system_id":"levelo_inurba_marseille","lat":43.28042,"lon":5.36955,"is_reserved":false,"is_disabled":false,"rental_uris":{"android":"levelo://app?vid=cbddb541-e24f-4307-99eb-92d81daa9fd4","ios":"levelo://app?vid=cbddb541-e24f-4307-99eb-92d81daa9fd4"},"vehicle_type_id":"4","last_reported":1746911296,"current_range_meters":22000,"station_id":"ce4bha12rcd13ifvqef0","pricing_plan_id":"cebpf4jnsgd1na2vs0mg"},{"bike_id":"87a31558-c07a-4e0e-9cb0-ce61306f75e0","system_id":"levelo_inurba_marseille","lat":43.30636,"lon":5.40078,"is_reserved":false,"is_disabled":false,"rental_uris":{"android":"levelo://app?vid=87a31558-c07a-4e0e-9cb0-ce61306f75e0","ios":"levelo://app?vid=87a31558-c07a-4e0e-9cb0-ce61306f75e0"},"vehicle_type_id":"4","last_reported":1746911296,"current_range_meters":22000,"station_id":"ce4bh112rcd13ifvqda0","pricing_plan_id":"cebpf4jnsgd1na2vs0mg"},{"bike_id":"d8f85698-9cc7-4fac-ba09-0118aa7df1b5","system_id":"levelo_inurba_marseille","lat":43.31363,"lon":5.38489,"is_reserved":false,"is_disabled":true,"rental_uris":{"android":"levelo://app?vid=d8f85698-9cc7-4fac-ba09-0118aa7df1b5","ios":"levelo://app?vid=d8f85698-9cc7-4fac-ba09-0118aa7df1b5"},"vehicle_type_id":"4","last_reported":1746911296,"current_range_meters":22000,"station_id":"ce4bgt92rcd13ifvqcf0","pricing_plan_id":"cebpf4jnsgd1na2vs0mg"},{"bike_id":"bf2957e5-5d69-484d-9a7c-4fa8a6f9e20c","system_id":"levelo_inurba_marseille","lat":43.28158,"lon":5.42648,"is_reserved":false,"is_disabled":false,"rental_uris":{"android":"levelo://app?vid=bf2957e5-5d69-484d-9a7c-4fa8a6f9e20c","ios":"levelo://app?vid=bf2957e5-5d69-484d-9a7c-4fa8a6f9e20c"},"vehicle_type_id":"4","last_reported":1746911296,"current_range_meters":22000,"station_id":"ce4bhnh2rcd13ifvqgug","pricing_plan_id":"cebpf4jnsgd1na2vs0mg"},