{"last_updated":1744366242,"ttl":60,"version":"2.2","data":{"bikes":[{"bike_id":"fabbe2b7-5dc3-474e-ac2c-43b4fc9c2c01","system_id":"levelo_inurba_marseille","lat":43.26567,"lon":5.38996,"is_reserved":false,"is_disabled":false,"rental_uris":{"android":"levelo://app?vid=fabbe2b7-5dc3-474e-ac2c-43b4fc9c2c01","ios":"levelo://app?vid=fabbe2b7-5dc3-474e-ac2c-43b4fc9c2c01"},"vehicle_type_id":"4","last_reported":1744366242,"current_range_meters":2800,"station_id":"ce4bhe12rcd13ifvqf30","pricing_plan_id":"cebpf4jnsgd1na2vs0mg"},{"bike_id":"5a16a524-d80b-4954-9faa-3432a7543492","system_id":"levelo_inurba_marseille","lat":43.29068,"lon":5.37158,"is_reserved":false,"is_disabled":false,"rental_uris":{"android":"levelo://app?vid=5a16a524-d80b-4954-9faa-3432a7543492","ios":"levelo://app?vid=5a16a524-d80b-4954-9faa-3432a7543492"},"vehicle_type_id":"4","last_reported":1744366242,"current_range_meters":3600,"station_id":"ce4bh5p2rcd13ifvqe4g","pricing_plan_id":"cebpf4jnsgd1na2vs0mg"},{"bike_id":"7dba109f-6172-4fa4-883a-65d8fd562295","system_id":"levelo_inurba_marseille","lat":43.29167,"lon":5.37152,"is_reserved":false,"is_disabled":false,"rental_uris":{"android":"levelo://app?vid=7dba109f-6172-4fa4-883a-65d8fd562295","ios":"levelo://app?vid=7dba109f-6172-4fa4-883a-65d8fd562295"},"vehicle_type_id":"4","last_reported":1744366242,"current_range_meters":4000,"station_id":"ce4bha92rcd13ifvqeh0","pricing_plan_id":"cebpf4jnsgd1na2vs0mg"},{"bike_id":"d99c0b99-fbd4-40ba-91b4-cfd3e7a09609","system_id":"levelo_inurba_marseille","lat":43.231569,"lon":5.437094,"is_reserved":false,"is_disabled":false,"rental_uris":{"android":"levelo://app?vid=d99c0b99-fbd4-40ba-91b4-cfd3e7a09609","ios":"levelo://app?vid=d99c0b99-fbd4-40ba-91b4-cfd3e7a09609"},"vehicle_type_id":"4","last_reported":1744366242,"current_range_meters":4000,"station_id":"ce4bhmp2rcd13ifvqgog","pricing_plan_id":"cebpf4jnsgd1na2vs0mg"},{"bike_id":"802be928-57ff-4162-825f-b7c2b5108de8","system_id":"levelo_inurba_marseille","lat":43.26944,"lon":5.40262,"is_reserved":false,"is_disabled":false,"rental_uris":{"android":"levelo://app?vid=802be928-57ff-4162-825f-b7c2b5108de8","ios":"levelo://app?vid=802be928-57ff-4162-825f-b7c2b5108de8"},"vehicle_type_id":"4","last_reported":1744366242,"current_range_meters":4400,"station_id":"cjm6bp8fraef2m0cb0m0","pricing_plan_id":"cebpf4jnsgd1na2vs0mg"},{"bike_id":"d52aaf75-f0a1-40a8-ac92-cb5f51662055","system_id":"levelo_inurba_marseille","lat":43.282684,"lon":5.350672,"is_reserved":false,"is_disabled":false,"rental_uris":{"android":"levelo://app?vid=d52aaf75-f0a1-40a8-ac92-cb5f51662055","ios":"levelo://app?vid=d52aaf75-f0a1-40a8-ac92-cb5f51662055"},"vehicle_type_id":"4","last_reported":1744366242,"current_range_meters":4800,"station_id":"ce4bgup2rcd13ifvqcn0","pricing_plan_id":"cebpf4jnsgd1na2vs0mg"},{"bike_id":"c42a61fa-ac9f-481d-b3c2-72e01aa7d9c5","system_id":"levelo_inurba_marseille","lat":43.31324,"lon":5.39681,"is_reserved":false,"is_disabled":false,"rental_uris":{"android":"levelo://app?vid=c42a61fa-ac9f-481d-b3c2-72e01aa7d9c5","ios":"levelo://app?vid=c42a61fa-ac9f-481d-b3c2-72e01aa7d9c5"},"vehicle_type_id":"4","last_reported":1744366242,"current_range_meters":4800,"station_id":"ce4bgvp2rcd13ifvqcu0","pricing_plan_id":"cebpf4jnsgd1na2vs0mg"},{"bike_id":"3d2b8ff4-325c-49bf-b719-fc7495a3fb03","system_id":"levelo_inurba_marseille","lat":43.23147,"lon":5.43725,"is_reserved":false,"is_disabled":false,"rental_uris":{"android":"levelo://app?vid=3d2b8ff4-325c-49bf-b719-fc7495a3fb03","ios":"levelo://app?vid=3d2b8ff4-325c-49bf-b719-fc7495a3fb03"},"vehicle_type_id":"4","last_reported":1744366242,"current_range_meters":4800,"station_id":"ce4bhmp2rcd13ifvqgog","pricing_plan_id":"cebpf4jnsgd1na2vs0mg"},{"bike_id":"c243072f-6bd2-4d94-ba83-04162cf2a05c","system_id":"levelo_inurba_marseille","lat":43.27198,"lon":5.40119,"is_reserved":false,"is_disabled":false,"rental_uris":{"android":"levelo://app?vid=c243072f-6bd2-4d94-ba83-04162cf2a05c","ios":"levelo://app?vid=c243072f-6bd2-4d94-ba83-04162cf2a05c"},"vehicle_type_id":"4","last_reported":1744366242,"current_range_meters":4800,"station_id":"","pricing_plan_id":"cebpf4jnsgd1na2vs0mg"},{"bike_id":"ebbed158-4037-4feb-b13a-a002ad483a21","system_id":"levelo_inurba_marseille","lat":43.23187,"lon":5.35555,"is_reserved":false,"is_disabled":true,"rental_uris":{"android":"levelo://app?vid=ebbed158-4037-4feb-b13a-a002ad483a21","ios":"levelo://app?vid=ebbed158-4037-4feb-b13a-a002ad483a21"},"vehicle_type_id":"4","last_reported":1744366242,"current_range_meters":5600,"station_id":"ce4bhu92rcd13ifvqi70","pricing_plan_id":"cebpf4jnsgd1na2vs0mg"},{"bike_id":"83c132b1-a954-4d5a-a32d-9f99af4faa3c","system_id":"levelo_inurba_marseille","lat":43.30924,"lon":5.41527,"is_reserved":false,"is_disabled":false,"rental_uris":{"android":"levelo://app?vid=83c132b1-a954-4d5a-a32d-9f99af4faa3c","ios":"levelo://app?vid=83c132b1-a954-4d5a-a32d-9f99af4faa3c"},"vehicle_type_id":"4","last_reported":1744366242,"current_range_meters":5600,"station_id":"","pricing_plan_id":"cebpf4jnsgd1na2vs0mg"},{"bike_id":"22ccdee3-9ca5-4456-9298-1b295c60547f","system_id":"levelo_inurba_marseille","lat":43.30158,"lon":5.3809,"is_reserved":false,"is_disabled":false,"rental_uris":{"android":"levelo://app?vid=22ccdee3-9ca5-4456-9298-1b295c60547f","ios":"levelo://app?vid=22ccdee3-9ca5-4456-9298-1b295c60547f"},"vehicle_type_id":"4","last_reported":1744366242,"current_range_meters":6000,"station_id":"ce4bgjp2rcd13ifvqbh0","pricing_plan_id":"cebpf4jnsgd1na2vs0mg"},{"bike_id":"42644588-78be-46b9-9121-1119a7c91922","system_id":"levelo_inurba_marseille","lat":43.32499,"lon":5.36548,"is_reserved":false,"is_disabled":false,"rental_uris":{"android":"levelo://app?vid=42644588-78be-46b9-9121-1119a7c91922","ios":"levelo://app?vid=42644588-78be-46b9-9121-1119a7c91922"},"vehicle_type_id":"4","last_reported":1744366242,"current_range_meters":6000,"station_id":"ce4bhs12rcd13ifvqhvg","pricing_plan_id":"cebpf4jnsgd1na2vs0mg"},{"bike_id":"c9f685de-1e16-46fd-b3d7-dc518324fc4c","system_id":"levelo_inurba_marseille","lat":43.27373,"lon":5.36254,"is_reserved":false,"is_disabled":false,"rental_uris":{"android":"levelo://app?vid=c9f685de-1e16-46fd-b3d7-dc518324fc4c","ios":"levelo://app?vid=c9f685de-1e16-46fd-b3d7-dc518324fc4c"},"vehicle_type_id":"4","last_reported":1744366242,"current_range_meters":6400,"station_id":"ce4bhbh2rcd13ifvqeo0","pricing_plan_id":"cebpf4jnsgd1na2vs0mg"},{"bike_id":"3102b6c5-7de9-4edb-84c1-78cca2d45726","system_id":"levelo_inurba_marseille","lat":43.27181,"lon":5.40986,"is_reserved":false,"is_disabled":false,"rental_uris":{"android":"levelo://app?vid=3102b6c5-7de9-4edb-84c1-78cca2d45726","ios":"levelo://app?vid=3102b6c5-7de9-4edb-84c1-78cca2d45726"},"vehicle_type_id":"4","last_reported":1744366242,"current_range_meters":6400,"station_id":"ce4bhl12rcd13ifvqgf0","pricing_plan_id":"cebpf4jnsgd1na2vs0mg"},{"bike_id":"fc4148d1-a2e5-49df-af09-452711b307f6","system_id":"levelo_inurba_marseille","lat":43.24175,"lon":5.39737,"is_reserved":false,"is_disabled":false,"rental_uris":{"android":"levelo://app?vid=fc4148d1-a2e5-49df-af09-452711b307f6","ios":"levelo://app?vid=fc4148d1-a2e5-49df-af09-452711b307f6"},"vehicle_type_id":"4","last_reported":1744366242,"current_range_meters":6800,"station_id":"ce4bhn12rcd13ifvqgpg","pricing_plan_id":"cebpf4jnsgd1na2vs0mg"},{"bike_id":"4a3e0919-27c2-445a-a961-2bd3243a227d","system_id":"levelo_inurba_marseille","lat":43.31634,"lon":5.37324,"is_reserved":false,"is_disabled":false,"rental_uris":{"android":"levelo://app?vid=4a3e0919-27c2-445a-a961-2bd3243a227d","ios":"levelo://app?vid=4a3e0919-27c2-445a-a961-2bd3243a227d"},"vehicle_type_id":"4","last_reported":1744366242,"current_range_meters":6800,"station_id":"","pricing_plan_id":"cebpf4jnsgd1na2vs0mg"},{"bike_id":"d0a8e340-5ce5-445a-97dc-245aaf2fa477","system_id":"levelo_inurba_marseille","lat":43.32349,"lon":5.4062,"is_reserved":false,"is_disabled":true,"rental_uris":{"android":"levelo://app?vid=d0a8e340-5ce5-445a-97dc-245aaf2fa477","ios":"levelo://app?vid=d0a8e340-5ce5-445a-97dc-245aaf2fa477"},"vehicle_type_id":"4","last_reported":1744366242,"current_range_meters":6800,"station_id":"ce4bhq92rcd13ifvqhjg","pricing_plan_id":"cebpf4jnsgd1na2vs0mg"},{"bike_id":"6db38dd8-9ac2-4b6e-91c4-9f21e11ee01b","system_id":"levelo_inurba_marseille","lat":43.27814,"lon":5.40699,"is_reserved":false,"is_disabled":false,"rental_uris":{"android":"levelo://app?vid=6db38dd8-9ac2-4b6e-91c4-9f21e11ee01b","ios":"levelo://app?vid=6db38dd8-9ac2-4b6e-91c4-9f21e11ee01b"},"vehicle_type_id":"4","last_reported":1744366242,"current_range_meters":6800,"station_id":"ce4bhnh2rcd13ifvqgtg","pricing_plan_id":"cebpf4jnsgd1na2vs0mg"},{"bike_id":"41f2f1c5-a00a-48a8-b51a-f3e951ef5e54","system_id":"levelo_inurba_marseille","lat":43.23151,"lon":5.43703,"is_reserved":false,"is_disabled":false,"rental_uris":{"android":"levelo://app?vid=41f2f1c5-a00a-48a8-b51a-f3e951ef5e54","ios":"levelo://app?vid=41f2f1c5-a00a-48a8-b51a-f3e951ef5e54"},"vehicle_type_id":"4","last_reported":1744366242,"current_range_meters":6800,"station_id":"ce4bhmp2rcd13ifvqgog","pricing_plan_id":"cebpf4jnsgd1na2vs0mg"},{"bike_id":"d6a36295-6dab-4459-af89-db3f4b8c87e5","system_id":"levelo_inurba_marseille","lat":43.293149,"lon":5.374509,"is_reserved":false,"is_disabled":false,"rental_uris":{"android":"levelo://app?vid=d6a36295-6dab-4459-af89-db3f4b8c87e5","ios":"levelo://app?vid=d6a36295-6dab-4459-af89-db3f4b8c87e5"},"vehicle_type_id":"4","last_reported":1744366242,"current_range_meters":7200,"station_id":"ce4bgi12rcd13ifvqb70","pricing_plan_id":"cebpf4jnsgd1na2vs0mg"},{"bike_id":"c51ac5b9-b5d5-465a-baa0-887b119e40dd","system_id":"levelo_inurba_marseille","lat":43.27207,"lon":5.39175,"is_reserved":false,"is_disabled":false,"rental_uris":{"android":"levelo://app?vid=c51ac5b9-b5d5-465a-baa0-887b119e40dd","ios":"levelo://app?vid=c51ac5b9-b5d5-465a-baa0-887b119e40dd"},"vehicle_type_id":"4","last_reported":1744366242,"current_range_meters":8400,"station_id":"ce4bhhp2rcd13ifvqfm0","pricing_plan_id":"cebpf4jnsgd1na2vs0mg"},{"bike_id":"5b20d250-25c6-42f7-80d6-9e3b106ffc42","system_id":"levelo_inurba_marseille","lat":43.3057,"lon":5.36523,"is_reserved":false,"is_disabled":false,"rental_uris":{"android":"levelo://app?vid=5b20d250-25c6-42f7-80d6-9e3b106ffc42","ios":"levelo://app?vid=5b20d250-25c6-42f7-80d6-9e3b106ffc42"},"vehicle_type_id":"4","last_reported":1744366242,"current_range_meters":8400,"station_id":"ce4bgs12rcd13ifvqcag","pricing_plan_id":"cebpf4jnsgd1na2vs0mg"},{"bike_id":"82522d85-616f-4b70-b6f0-591320032371","system_id":"levelo_inurba_marseille","lat":43.317154,"lon":5.424163,"is_reserved":false,"is_disabled":false,"rental_uris":{"android":"levelo://app?vid=82522d85-616f-4b70-b6f0-591320032371","ios":"levelo://app?vid=82522d85-616f-4b70-b6f0-591320032371"},"vehicle_type_id":"4","last_reported":1744366242,"current_range_meters":8400,"station_id":"ce4bhp92rcd13ifvqhbg","pricing_plan_id":"cebpf4jnsgd1na2vs0mg"},{"bike_id":"00bef7e6-f10e-41f0-8924-9eea2e7a6389","system_id":"levelo_inurba_marseille","lat":43.231921,"lon":5.355539,"is_reserved":false,"is_disabled":true,"rental_uris":{"android":"levelo://app?vid=00bef7e6-f10e-41f0-8924-9eea2e7a6389","ios":"levelo://app?vid=00bef7e6-f10e-41f0-8924-9eea2e7a6389"},"vehicle_type_id":"4","last_reported":1744366242,"current_range_meters":9200,"station_id":"ce4bhu92rcd13ifvqi70","pricing_plan_id":"cebpf4jnsgd1na2vs0mg"},{"bike_id":"362903b3-a9a0-4c09-9107-e3a97ffbaa7a","system_id":"levelo_inurba_marseille","lat":43.28617,"lon":5.35101,"is_reserved":false,"is_disabled":false,"rental_uris":{"android":"levelo://app?vid=362903b3-a9a0-4c09-9107-e3a97ffbaa7a","ios":"levelo://app?vid=362903b3-a9a0-4c09-9107-e3a97ffbaa7a"},"vehicle_type_id":"4","last_reported":1744366242,"current_range_meters":9200,"station_id":"ce4bhch2rcd13ifvqeug","pricing_plan_id":"cebpf4jnsgd1na2vs0mg"},{"bike_id":"6ef6912d-bc9b-4275-8227-dfb9dbf3a52a","system_id":"levelo_inurba_marseille","lat":43.30961,"lon":5.39027,"is_reserved":false,"is_disabled":false,"rental_uris":{"android":"levelo://app?vid=6ef6912d-bc9b-4275-8227-dfb9dbf3a52a","ios":"levelo://app?vid=6ef6912d-bc9b-4275-8227-dfb9dbf3a52a"},"vehicle_type_id":"4","last_reported":1744366242,"current_range_meters":9200,"station_id":"ce4bgup2rcd13ifvqco0","pricing_plan_id":"cebpf4jnsgd1na2vs0mg"},{"bike_id":"bb046c73-9bde-4bbb-a370-0ca4247e111f","system_id":"levelo_inurba_marseille","lat":43.28721,"lon":5.36084,"is_reserved":false,"is_disabled":false,"rental_uris":{"android":"levelo://app?vid=bb046c73-9bde-4bbb-a370-0ca4247e111f","ios":"levelo://app?vid=bb046c73-9bde-4bbb-a370-0ca4247e111f"},"vehicle_type_id":"4","last_reported":1744366242,"current_range_meters":8800,"station_id":"cki0cbj6b192h4jlfktg","pricing_plan_id":"cebpf4jnsgd1na2vs0mg"},{"bike_id":"5afba03e-e657-4c6e-b88f-f404d866524b","system_id":"levelo_inurba_marseille","lat":43.30957,"lon":5.39021,"is_reserved":false,"is_disabled":false,"rental_uris":{"android":"levelo://app?vid=5afba03e-e657-4c6e-b88f-f404d866524b","ios":"levelo://app?vid=5afba03e-e657-4c6e-b88f-f404d866524b"},"vehicle_type_id":"4","last_reported":1744366242,"current_range_meters":9200,"station_id":"ce4bgup2rcd13ifvqco0","pricing_plan_id":"cebpf4jnsgd1na2vs0mg"},{"bike_id":"8d69f91a-83e6-4a7c-8f41-7a043cc38d40","system_id":"levelo_inurba_marseille","lat":43.30143,"lon":5.37424,"is_reserved":false,"is_disabled":false,"rental_uris":{"android":"levelo://app?vid=8d69f91a-83e6-4a7c-8f41-7a043cc38d40","ios":"levelo://app?vid=8d69f91a-83e6-4a7c-8f41-7a043cc38d40"},"vehicle_type_id":"4","last_reported":1744366242,"current_range_meters":9600,"station_id":"ce4bgs92rcd13ifvqcc0","pricing_plan_id":"cebpf4jnsgd1na2vs0mg"},{"bike_id":"30e7be75-b0d9-4a9d-a98a-5c23f42adae2","system_id":"levelo_inurba_marseille","lat":43.23153,"lon":5.43704,"is_reserved":false,"is_disabled":false,"rental_uris":{"android":"levelo://app?vid=30e7be75-b0d9-4a9d-a98a-5c23f42adae2","ios":"levelo://app?vid=30e7be75-b0d9-4a9d-a98a-5c23f42adae2"},"vehicle_type_id":"4","last_reported":1744366242,"current_range_meters":9600,"station_id":"ce4bhmp2rcd13ifvqgog","pricing_plan_id":"cebpf4jnsgd1na2vs0mg"},{"bike_id":"f211b8ec-4090-4baf-9a24-ef043073fdb8","system_id":"levelo_inurba_marseille","lat":43.3055,"lon":5.36533,"is_reserved":false,"is_disabled":false,"rental_uris":{"android":"levelo://app?vid=f211b8ec-4090-4baf-9a24-ef043073fdb8","ios":"levelo://app?vid=f211b8ec-4090-4baf-9a24-ef043073fdb8"},"vehicle_type_id":"4","last_reported":1744366242,"current_range_meters":9600,"station_id":"ce4bgs12rcd13ifvqcag","pricing_plan_id":"cebpf4jnsgd1na2vs0mg"},{"bike_id":"3fc6432f-8fc7-4647-8704-c4ed89e24e83","system_id":"levelo_inurba_marseille","lat":43.29074,"lon":5.3717,"is_reserved":false,"is_disabled":false,"rental_uris":{"android":"levelo://app?vid=3fc6432f-8fc7-4647-8704-c4ed89e24e83","ios":"levelo://app?vid=3fc6432f-8fc7-4647-8704-c4ed89e24e83"},"vehicle_type_id":"4","last_reported":1744366242,"current_range_meters":9600,"station_id":"ce4bh5p2rcd13ifvqe4g","pricing_plan_id":"cebpf4jnsgd1na2vs0mg"},{"bike_id":"79b3d107-28ac-47e9-8ff8-ba90f7925720","system_id":"levelo_inurba_marseille","lat":43.29983,"lon":5.37147,"is_reserved":false,"is_disabled":false,"rental_uris":{"android":"levelo://app?vid=79b3d107-28ac-47e9-8ff8-ba90f7925720","ios":"levelo://app?vid=79b3d107-28ac-47e9-8ff8-ba90f7925720"},"vehicle_type_id":"4","last_reported":1744366242,"current_range_meters":9600,"station_id":"ce4bgr92rcd13ifvqc7g","pricing_plan_id":"cebpf4jnsgd1na2vs0mg"},{"bike_id":"d91e24f7-818c-4c57-b5ea-3b047a6d99c8","system_id":"levelo_inurba_marseille","lat":43.29219,"lon":5.36059,"is_reserved":false,"is_disabled":false,"rental_uris":{"android":"levelo://app?vid=d91e24f7-818c-4c57-b5ea-3b047a6d99c8","ios":"levelo://app?vid=d91e24f7-818c-4c57-b5ea-3b047a6d99c8"},"vehicle_type_id":"4","last_reported":1744366242,"current_range_meters":10000,"station_id":"ce4bhbh2rcd13ifvqeqg","pricing_plan_id":"cebpf4jnsgd1na2vs0mg"},{"bike_id":"fb616cd3-23a4-48e3-9a4e-7023a427b4b8","system_id":"levelo_inurba_marseille","lat":43.2965,"lon":5.39558,"is_reserved":false,"is_disabled":false,"rental_uris":{"android":"levelo://app?vid=fb616cd3-23a4-48e3-9a4e-7023a427b4b8","ios":"levelo://app?vid=fb616cd3-23a4-48e3-9a4e-7023a427b4b8"},"vehicle_type_id":"4","last_reported":1744366242,"current_range_meters":10000,"station_id":"","pricing_plan_id":"cebpf4jnsgd1na2vs0mg"},{"bike_id":"c47a0fbc-7ec8-4903-8fdc-2b92af7359f5","system_id":"levelo_inurba_marseille","lat":43.31173,"lon":5.38718,"is_reserved":false,"is_disabled":false,"rental_uris":{"android":"levelo://app?vid=c47a0fbc-7ec8-4903-8fdc-2b92af7359f5","ios":"levelo://app?vid=c47a0fbc-7ec8-4903-8fdc-2b92af7359f5"},"vehicle_type_id":"4","last_reported":1744366242,"current_range_meters":10000,"station_id":"ce4bgv12rcd13ifvqcp0","pricing_plan_id":"cebpf4jnsgd1na2vs0mg"},{"bike_id":"9aac65b8-8f8f-49f0-b49e-a5d1465af970","system_id":"levelo_inurba_marseille","lat":43.30952,"lon":5.39089,"is_reserved":false,"is_disabled":false,"rental_uris":{"android":"levelo://app?vid=9aac65b8-8f8f-49f0-b49e-a5d1465af970","ios":"levelo://app?vid=9aac65b8-8f8f-49f0-b49e-a5d1465af970"},"vehicle_type_id":"4","last_reported":1744366242,"current_range_meters":10000,"station_id":"ce4bgup2rcd13ifvqco0","pricing_plan_id":"cebpf4jnsgd1na2vs0mg"},{"bike_id":"eab6cbfa-cb8e-47d7-b0d6-226ab7facec7","system_id":"levelo_inurba_marseille","lat":43.31711,"lon":5.42391,"is_reserved":false,"is_disabled":true,"rental_uris":{"android":"levelo://app?vid=eab6cbfa-cb8e-47d7-b0d6-226ab7facec7","ios":"levelo://app?vid=eab6cbfa-cb8e-47d7-b0d6-226ab7facec7"},"vehicle_type_id":"4","last_reported":1744366242,"current_range_meters":10000,"station_id":"ce4bhp92rcd13ifvqhbg","pricing_plan_id":"cebpf4jnsgd1na2vs0mg"},{"bike_id":"f960aa00-83ad-493a-b0ad-c401b24799e7","system_id":"levelo_inurba_marseille","lat":43.24176,"lon":5.39726,"is_reserved":false,"is_disabled":false,"rental_uris":{"android":"levelo://app?vid=f960aa00-83ad-493a-b0ad-c401b24799e7","ios":"levelo://app?vid=f960aa00-83ad-493a-b0ad-c401b24799e7"},"vehicle_type_id":"4","last_reported":1744366242,"current_range_meters":10800,"station_id":"ce4bhn12rcd13ifvqgpg","pricing_plan_id":"cebpf4jnsgd1na2vs0mg"},{"bike_id":"e4584e81-d0ff-45d4-a366-ed824c8de9b6","system_id":"levelo_inurba_marseille","lat":43.23146,"lon":5.43718,"is_reserved":false,"is_disabled":true,"rental_uris":{"android":"levelo://app?vid=e4584e81-d0ff-45d4-a366-ed824c8de9b6","ios":"levelo://app?vid=e4584e81-d0ff-45d4-a366-ed824c8de9b6"},"vehicle_type_id":"4","last_reported":1744366242,"current_range_meters":10800,"station_id":"ce4bhmp2rcd13ifvqgog","pricing_plan_id":"cebpf4jnsgd1na2vs0mg"},{"bike_id":"1fd77beb-0f9b-4f3f-abb1-addf12da837a","system_id":"levelo_inurba_marseille","lat":43.28709,"lon":5.39969,"is_reserved":false,"is_disabled":false,"rental_uris":{"android":"levelo://app?vid=1fd77beb-0f9b-4f3f-abb1-addf12da837a","ios":"levelo://app?vid=1fd77beb-0f9b-4f3f-abb1-addf12da837a"},"vehicle_type_id":"4","last_reported":1744366242,"current_range_meters":10800,"station_id":"ce4bho92rcd13ifvqh3g","pricing_plan_id":"cebpf4jnsgd1na2vs0mg"},{"bike_id":"b279c8f0-ac53-43b8-b20b-e49925f02612","system_id":"levelo_inurba_marseille","lat":43.32553,"lon":5.4148,"is_reserved":false,"is_disabled":false,"rental_uris":{"android":"levelo://app?vid=b279c8f0-ac53-43b8-b20b-e49925f02612","ios":"levelo://app?vid=b279c8f0-ac53-43b8-b20b-e49925f02612"},"vehicle_type_id":"4","last_reported":1744366242,"current_range_meters":10800,"station_id":"ce4bhq12rcd13ifvqhhg","pricing_plan_id":"cebpf4jnsgd1na2vs0mg"},{"bike_id":"4b62ceb0-3657-48c1-8c0f-5ef42bdc9c04","system_id":"levelo_inurba_marseille","lat":43.2306,"lon":5.35482,"is_reserved":false,"is_disabled":false,"rental_uris":{"android":"levelo://app?vid=4b62ceb0-3657-48c1-8c0f-5ef42bdc9c04","ios":"levelo://app?vid=4b62ceb0-3657-48c1-8c0f-5ef42bdc9c04"},"vehicle_type_id":"4","last_reported":1744366242,"current_range_meters":10800,"station_id":"cpo3342slgdg3j2ifvpg","pricing_plan_id":"cebpf4jnsgd1na2vs0mg"},{"bike_id":"6096d8e4-4720-4fb3-9e2d-c4f2bdfc9da1","system_id":"levelo_inurba_marseille","lat":43.29043,"lon":5.35897,"is_reserved":false,"is_disabled":false,"rental_uris":{"android":"levelo://app?vid=6096d8e4-4720-4fb3-9e2d-c4f2bdfc9da1","ios":"levelo://app?vid=6096d8e4-4720-4fb3-9e2d-c4f2bdfc9da1"},"vehicle_type_id":"4","last_reported":1744366242,"current_range_meters":10800,"station_id":"ce4bha92rcd13ifvqeg0","pricing_plan_id":"cebpf4jnsgd1na2vs0mg"},{"bike_id":"168f80ff-fdd3-4713-893e-9ecc4c0ffecf","system_id":"levelo_inurba_marseille","lat":43.22929,"lon":5.35372,"is_reserved":false,"is_disabled":false,"rental_uris":{"android":"levelo://app?vid=168f80ff-fdd3-4713-893e-9ecc4c0ffecf","ios":"levelo://app?vid=168f80ff-fdd3-4713-893e-9ecc4c0ffecf"},"vehicle_type_id":"4","last_reported":1744366242,"current_range_meters":11200,"station_id":"cpo3532slgdg3j2ikp40","pricing_plan_id":"cebpf4jnsgd1na2vs0mg"},{"bike_id":"82d3762f-dbcd-4c6c-bd48-3e7c9a4f527d","system_id":"levelo_inurba_marseille","lat":43.29259,"lon":5.37608,"is_reserved":false,"is_disabled":false,"rental_uris":{"android":"levelo://app?vid=82d3762f-dbcd-4c6c-bd48-3e7c9a4f527d","ios":"levelo://app?vid=82d3762f-dbcd-4c6c-bd48-3e7c9a4f527d"},"vehicle_type_id":"4","last_reported":1744366242,"current_range_meters":11200,"station_id":"ce4bgi12rcd13ifvqb80","pricing_plan_id":"cebpf4jnsgd1na2vs0mg"},{"bike_id":"71c1a43b-a3cd-43d8-914f-d477e4189b3a","system_id":"levelo_inurba_marseille","lat":43.290273,"lon":5.386496,"is_reserved":false,"is_disabled":false,"rental_uris":{"android":"levelo://app?vid=71c1a43b-a3cd-43d8-914f-d477e4189b3a","ios":"levelo://app?vid=71c1a43b-a3cd-43d8-914f-d477e4189b3a"},"vehicle_type_id":"4","last_reported":1744366242,"current_range_meters":10800,"station_id":"ce4bhjp2rcd13ifvqga0","pricing_plan_id":"cebpf4jnsgd1na2vs0mg"},{"bike_id":"e0fa1a9a-2a50-4e7d-bafd-7855a40efca3","system_id":"levelo_inurba_marseille","lat":43.29958,"lon":5.41312,"is_reserved":false,"is_disabled":false,"rental_uris":{"android":"levelo://app?vid=e0fa1a9a-2a50-4e7d-bafd-7855a40efca3","ios":"levelo://app?vid=e0fa1a9a-2a50-4e7d-bafd-7855a40efca3"},"vehicle_type_id":"4","last_reported":1744366242,"current_range_meters":11200,"station_id":"ce4bhp12rcd13ifvqh9g","pricing_plan_id":"cebpf4jnsgd1na2vs0mg"},{"bike_id":"0922821c-4e1d-4817-9469-860e55f8f0d1","system_id":"levelo_inurba_marseille","lat":43.225059,"lon":5.347836,"is_reserved":false,"is_disabled":false,"rental_uris":{"android":"levelo://app?vid=0922821c-4e1d-4817-9469-860e55f8f0d1","ios":"levelo://app?vid=0922821c-4e1d-4817-9469-860e55f8f0d1"},"vehicle_type_id":"4","last_reported":1744366242,"current_range_meters":11200,"station_id":"st_cvj5dfep6f1abm77gieg","pricing_plan_id":"cebpf4jnsgd1na2vs0mg"},{"bike_id":"c266cdc4-c7b8-499b-9979-d13187952b82","system_id":"levelo_inurba_marseille","lat":43.26933,"lon":5.38903,"is_reserved":false,"is_disabled":false,"rental_uris":{"android":"levelo://app?vid=c266cdc4-c7b8-499b-9979-d13187952b82","ios":"levelo://app?vid=c266cdc4-c7b8-499b-9979-d13187952b82"},"vehicle_type_id":"4","last_reported":1744366242,"current_range_meters":11600,"station_id":"ce4bhhh2rcd13ifvqfl0","pricing_plan_id":"cebpf4jnsgd1na2vs0mg"},{"bike_id":"4f3acd91-ce8e-4583-bef1-d80af5069254","system_id":"levelo_inurba_marseille","lat":43.24178,"lon":5.39728,"is_reserved":false,"is_disabled":false,"rental_uris":{"android":"levelo://app?vid=4f3acd91-ce8e-4583-bef1-d80af5069254","ios":"levelo://app?vid=4f3acd91-ce8e-4583-bef1-d80af5069254"},"vehicle_type_id":"4","last_reported":1744366242,"current_range_meters":12000,"station_id":"ce4bhn12rcd13ifvqgpg","pricing_plan_id":"cebpf4jnsgd1na2vs0mg"},{"bike_id":"6ae42d22-449e-430c-b887-6a8836aa2696","system_id":"levelo_inurba_marseille","lat":43.30534,"lon":5.36524,"is_reserved":false,"is_disabled":false,"rental_uris":{"android":"levelo://app?vid=6ae42d22-449e-430c-b887-6a8836aa2696","ios":"levelo://app?vid=6ae42d22-449e-430c-b887-6a8836aa2696"},"vehicle_type_id":"4","last_reported":1744366242,"current_range_meters":12400,"station_id":"ce4bgs12rcd13ifvqcag","pricing_plan_id":"cebpf4jnsgd1na2vs0mg"},{"bike_id":"dddc563d-feda-4110-b3a8-83e9272b10eb","system_id":"levelo_inurba_marseille","lat":43.30213,"lon":5.39467,"is_reserved":false,"is_disabled":false,"rental_uris":{"android":"levelo://app?vid=dddc563d-feda-4110-b3a8-83e9272b10eb","ios":"levelo://app?vid=dddc563d-feda-4110-b3a8-83e9272b10eb"},"vehicle_type_id":"4","last_reported":1744366242,"current_range_meters":12400,"station_id":"ce4bh0p2rcd13ifvqd70","pricing_plan_id":"cebpf4jnsgd1na2vs0mg"},{"bike_id":"94455896-0f19-4fae-bd72-9879f01fcd6e","system_id":"levelo_inurba_marseille","lat":43.29548,"lon":5.42285,"is_reserved":false,"is_disabled":true,"rental_uris":{"android":"levelo://app?vid=94455896-0f19-4fae-bd72-9879f01fcd6e","ios":"levelo://app?vid=94455896-0f19-4fae-bd72-9879f01fcd6e"},"vehicle_type_id":"4","last_reported":1744366242,"current_range_meters":12400,"station_id":"ce4bhph2rcd13ifvqhdg","pricing_plan_id":"cebpf4jnsgd1na2vs0mg"},{"bike_id":"62d8085d-f676-4479-9b3e-f68dd07ad199","system_id":"levelo_inurba_marseille","lat":43.26199,"lon":5.37934,"is_reserved":false,"is_disabled":false,"rental_uris":{"android":"levelo://app?vid=62d8085d-f676-4479-9b3e-f68dd07ad199","ios":"levelo://app?vid=62d8085d-f676-4479-9b3e-f68dd07ad199"},"vehicle_type_id":"4","last_reported":1744366242,"current_range_meters":12400,"station_id":"ce4bhjp2rcd13ifvqg90","pricing_plan_id":"cebpf4jnsgd1na2vs0mg"},{"bike_id":"feb04d1c-c2bd-4d38-91ca-a0075a753750","system_id":"levelo_inurba_marseille","lat":43.284178,"lon":5.349822,"is_reserved":false,"is_disabled":false,"rental_uris":{"android":"levelo://app?vid=feb04d1c-c2bd-4d38-91ca-a0075a753750","ios":"levelo://app?vid=feb04d1c-c2bd-4d38-91ca-a0075a753750"},"vehicle_type_id":"4","last_reported":1744366242,"current_range_meters":12800,"station_id":"ce4bhbh2rcd13ifvqepg","pricing_plan_id":"cebpf4jnsgd1na2vs0mg"},{"bike_id":"8858e694-eabd-4764-a5ca-e9e343f0919f","system_id":"levelo_inurba_marseille","lat":43.29168,"lon":5.37156,"is_reserved":false,"is_disabled":false,"rental_uris":{"android":"levelo://app?vid=8858e694-eabd-4764-a5ca-e9e343f0919f","ios":"levelo://app?vid=8858e694-eabd-4764-a5ca-e9e343f0919f"},"vehicle_type_id":"4","last_reported":1744366242,"current_range_meters":12800,"station_id":"ce4bha92rcd13ifvqeh0","pricing_plan_id":"cebpf4jnsgd1na2vs0mg"},{"bike_id":"dadc99cf-eae8-481d-842b-14944716c65f","system_id":"levelo_inurba_marseille","lat":43.33727,"lon":5.39178,"is_reserved":false,"is_disabled":false,"rental_uris":{"android":"levelo://app?vid=dadc99cf-eae8-481d-842b-14944716c65f","ios":"levelo://app?vid=dadc99cf-eae8-481d-842b-14944716c65f"},"vehicle_type_id":"4","last_reported":1744366242,"current_range_meters":12800,"station_id":"ce4bhr92rcd13ifvqhsg","pricing_plan_id":"cebpf4jnsgd1na2vs0mg"},{"bike_id":"f7470614-3a2b-47da-bcca-ae6c7fbdee01","system_id":"levelo_inurba_marseille","lat":43.29365,"lon":5.37856,"is_reserved":false,"is_disabled":false,"rental_uris":{"android":"levelo://app?vid=f7470614-3a2b-47da-bcca-ae6c7fbdee01","ios":"levelo://app?vid=f7470614-3a2b-47da-bcca-ae6c7fbdee01"},"vehicle_type_id":"4","last_reported":1744366242,"current_range_meters":12800,"station_id":"ce4bgjh2rcd13ifvqbf0","pricing_plan_id":"cebpf4jnsgd1na2vs0mg"},{"bike_id":"33551090-e6d0-4b4b-819a-3dbf58b9aa84","system_id":"levelo_inurba_marseille","lat":43.28612,"lon":5.35108,"is_reserved":false,"is_disabled":false,"rental_uris":{"android":"levelo://app?vid=33551090-e6d0-4b4b-819a-3dbf58b9aa84","ios":"levelo://app?vid=33551090-e6d0-4b4b-819a-3dbf58b9aa84"},"vehicle_type_id":"4","last_reported":1744366242,"current_range_meters":13600,"station_id":"ce4bhch2rcd13ifvqeug","pricing_plan_id":"cebpf4jnsgd1na2vs0mg"},{"bike_id":"4e47d0fb-2760-4784-8c81-8e8fb738bf29","system_id":"levelo_inurba_marseille","lat":43.2587,"lon":5.39907,"is_reserved":false,"is_disabled":false,"rental_uris":{"android":"levelo://app?vid=4e47d0fb-2760-4784-8c81-8e8fb738bf29","ios":"levelo://app?vid=4e47d0fb-2760-4784-8c81-8e8fb738bf29"},"vehicle_type_id":"4","last_reported":1744366242,"current_range_meters":12800,"station_id":"ce4bhl92rcd13ifvqghg","pricing_plan_id":"cebpf4jnsgd1na2vs0mg"},{"bike_id":"171fcd1e-9d4a-4703-a1bc-19255b5d0624","system_id":"levelo_inurba_marseille","lat":43.28101,"lon":5.37825,"is_reserved":false,"is_disabled":false,"rental_uris":{"android":"levelo://app?vid=171fcd1e-9d4a-4703-a1bc-19255b5d0624","ios":"levelo://app?vid=171fcd1e-9d4a-4703-a1bc-19255b5d0624"},"vehicle_type_id":"4","last_reported":1744366242,"current_range_meters":12800,"station_id":"ce4bha12rcd13ifvqee0","pricing_plan_id":"cebpf4jnsgd1na2vs0mg"},{"bike_id":"cdef9472-3244-4f5e-b5ff-34e75a612a07","system_id":"levelo_inurba_marseille","lat":43.28372,"lon":5.38638,"is_reserved":false,"is_disabled":false,"rental_uris":{"android":"levelo://app?vid=cdef9472-3244-4f5e-b5ff-34e75a612a07","ios":"levelo://app?vid=cdef9472-3244-4f5e-b5ff-34e75a612a07"},"vehicle_type_id":"4","last_reported":1744366242,"current_range_meters":12800,"station_id":"ce4bh492rcd13ifvqdvg","pricing_plan_id":"cebpf4jnsgd1na2vs0mg"},{"bike_id":"7f56e7a9-1924-4eb4-a85e-5bfb5e39843d","system_id":"levelo_inurba_marseille","lat":43.325473,"lon":5.41453,"is_reserved":false,"is_disabled":false,"rental_uris":{"android":"levelo://app?vid=7f56e7a9-1924-4eb4-a85e-5bfb5e39843d","ios":"levelo://app?vid=7f56e7a9-1924-4eb4-a85e-5bfb5e39843d"},"vehicle_type_id":"4","last_reported":1744366242,"current_range_meters":14000,"station_id":"ce4bhq12rcd13ifvqhhg","pricing_plan_id":"cebpf4jnsgd1na2vs0mg"},{"bike_id":"29717d4a-7dcc-41a2-b5f7-6cff034092a6","system_id":"levelo_inurba_marseille","lat":43.29162,"lon":5.37145,"is_reserved":false,"is_disabled":false,"rental_uris":{"android":"levelo://app?vid=29717d4a-7dcc-41a2-b5f7-6cff034092a6","ios":"levelo://app?vid=29717d4a-7dcc-41a2-b5f7-6cff034092a6"},"vehicle_type_id":"4","last_reported":1744366242,"current_range_meters":14000,"station_id":"ce4bha92rcd13ifvqeh0","pricing_plan_id":"cebpf4jnsgd1na2vs0mg"},{"bike_id":"463b41fd-37bb-48c0-a6e4-12f737a3d7cf","system_id":"levelo_inurba_marseille","lat":43.269362,"lon":5.402628,"is_reserved":false,"is_disabled":true,"rental_uris":{"android":"levelo://app?vid=463b41fd-37bb-48c0-a6e4-12f737a3d7cf","ios":"levelo://app?vid=463b41fd-37bb-48c0-a6e4-12f737a3d7cf"},"vehicle_type_id":"4","last_reported":1744366242,"current_range_meters":14000,"station_id":"cjm6bp8fraef2m0cb0m0","pricing_plan_id":"cebpf4jnsgd1na2vs0mg"},{"bike_id":"e9faffdf-d717-497d-a961-d710c65e3d8c","system_id":"levelo_inurba_marseille","lat":43.291888,"lon":5.393424,"is_reserved":false,"is_disabled":false,"rental_uris":{"android":"levelo://app?vid=e9faffdf-d717-497d-a961-d710c65e3d8c","ios":"levelo://app?vid=e9faffdf-d717-497d-a961-d710c65e3d8c"},"vehicle_type_id":"4","last_reported":1744366242,"current_range_meters":14000,"station_id":"ce4bh192rcd13ifvqdd0","pricing_plan_id":"cebpf4jnsgd1na2vs0mg"},{"bike_id":"f1849247-1a3b-4eef-b251-a7a4f51ab6d4","system_id":"levelo_inurba_marseille","lat":43.22928,"lon":5.35373,"is_reserved":false,"is_disabled":false,"rental_uris":{"android":"levelo://app?vid=f1849247-1a3b-4eef-b251-a7a4f51ab6d4","ios":"levelo://app?vid=f1849247-1a3b-4eef-b251-a7a4f51ab6d4"},"vehicle_type_id":"4","last_reported":1744366242,"current_range_meters":14000,"station_id":"cpo3532slgdg3j2ikp40","pricing_plan_id":"cebpf4jnsgd1na2vs0mg"},{"bike_id":"8def42d5-7601-461e-b69f-dd41878701ec","system_id":"levelo_inurba_marseille","lat":43.30477,"lon":5.37902,"is_reserved":false,"is_disabled":false,"rental_uris":{"android":"levelo://app?vid=8def42d5-7601-461e-b69f-dd41878701ec","ios":"levelo://app?vid=8def42d5-7601-461e-b69f-dd41878701ec"},"vehicle_type_id":"4","last_reported":1744366242,"current_range_meters":14000,"station_id":"ce4bgup2rcd13ifvqcn0","pricing_plan_id":"cebpf4jnsgd1na2vs0mg"},{"bike_id":"2d2e31a1-75bd-4ef3-8efc-056c6e4199ac","system_id":"levelo_inurba_marseille","lat":43.28615,"lon":5.35122,"is_reserved":false,"is_disabled":false,"rental_uris":{"android":"levelo://app?vid=2d2e31a1-75bd-4ef3-8efc-056c6e4199ac","ios":"levelo://app?vid=2d2e31a1-75bd-4ef3-8efc-056c6e4199ac"},"vehicle_type_id":"4","last_reported":1744366242,"current_range_meters":14400,"station_id":"ce4bhch2rcd13ifvqeug","pricing_plan_id":"cebpf4jnsgd1na2vs0mg"},{"bike_id":"6eb8c57a-4190-4f8d-86a1-123baf9063f7","system_id":"levelo_inurba_marseille","lat":43.30519,"lon":5.36515,"is_reserved":false,"is_disabled":false,"rental_uris":{"android":"levelo://app?vid=6eb8c57a-4190-4f8d-86a1-123baf9063f7","ios":"levelo://app?vid=6eb8c57a-4190-4f8d-86a1-123baf9063f7"},"vehicle_type_id":"4","last_reported":1744366242,"current_range_meters":14400,"station_id":"ce4bgs12rcd13ifvqcag","pricing_plan_id":"cebpf4jnsgd1na2vs0mg"},{"bike_id":"09b23838-ef8a-400d-9175-f211d64a4290","system_id":"levelo_inurba_marseille","lat":43.257129,"lon":5.411029,"is_reserved":false,"is_disabled":false,"rental_uris":{"android":"levelo://app?vid=09b23838-ef8a-400d-9175-f211d64a4290","ios":"levelo://app?vid=09b23838-ef8a-400d-9175-f211d64a4290"},"vehicle_type_id":"4","last_reported":1744366242,"current_range_meters":14400,"station_id":"ce4bhkp2rcd13ifvqgd0","pricing_plan_id":"cebpf4jnsgd1na2vs0mg"},{"bike_id":"1b28a96e-ff57-4bf5-85d0-8da089b3d3cd","system_id":"levelo_inurba_marseille","lat":43.26705,"lon":5.38293,"is_reserved":false,"is_disabled":true,"rental_uris":{"android":"levelo://app?vid=1b28a96e-ff57-4bf5-85d0-8da089b3d3cd","ios":"levelo://app?vid=1b28a96e-ff57-4bf5-85d0-8da089b3d3cd"},"vehicle_type_id":"4","last_reported":1744366242,"current_range_meters":14400,"station_id":"ce4bhg92rcd13ifvqf90","pricing_plan_id":"cebpf4jnsgd1na2vs0mg"},{"bike_id":"d98b16e9-0a1d-4124-8ce2-c7c213bf9a73","system_id":"levelo_inurba_marseille","lat":43.30301,"lon":5.39204,"is_reserved":false,"is_disabled":false,"rental_uris":{"android":"levelo://app?vid=d98b16e9-0a1d-4124-8ce2-c7c213bf9a73","ios":"levelo://app?vid=d98b16e9-0a1d-4124-8ce2-c7c213bf9a73"},"vehicle_type_id":"4","last_reported":1744366242,"current_range_meters":14800,"station_id":"ce4bgkh2rcd13ifvqbk0","pricing_plan_id":"cebpf4jnsgd1na2vs0mg"},{"bike_id":"4bcdcc82-d58d-4172-b626-a8c82408681c","system_id":"levelo_inurba_marseille","lat":43.31214,"lon":5.36862,"is_reserved":false,"is_disabled":true,"rental_uris":{"android":"levelo://app?vid=4bcdcc82-d58d-4172-b626-a8c82408681c","ios":"levelo://app?vid=4bcdcc82-d58d-4172-b626-a8c82408681c"},"vehicle_type_id":"4","last_reported":1744366242,"current_range_meters":14800,"station_id":"ce4bgl92rcd13ifvqbq0","pricing_plan_id":"cebpf4jnsgd1na2vs0mg"},{"bike_id":"3d9889c7-3d48-4aaa-b1a2-69c3a6e5e644","system_id":"levelo_inurba_marseille","lat":43.231647,"lon":5.355848,"is_reserved":false,"is_disabled":false,"rental_uris":{"android":"levelo://app?vid=3d9889c7-3d48-4aaa-b1a2-69c3a6e5e644","ios":"levelo://app?vid=3d9889c7-3d48-4aaa-b1a2-69c3a6e5e644"},"vehicle_type_id":"4","last_reported":1744366242,"current_range_meters":14400,"station_id":"ce4bhu92rcd13ifvqi70","pricing_plan_id":"cebpf4jnsgd1na2vs0mg"},{"bike_id":"af1a6563-8076-42eb-aa1c-f93db46b1e8e","system_id":"levelo_inurba_marseille","lat":43.23966,"lon":5.36627,"is_reserved":false,"is_disabled":false,"rental_uris":{"android":"levelo://app?vid=af1a6563-8076-42eb-aa1c-f93db46b1e8e","ios":"levelo://app?vid=af1a6563-8076-42eb-aa1c-f93db46b1e8e"},"vehicle_type_id":"4","last_reported":1744366242,"current_range_meters":14800,"station_id":"ce4bhi12rcd13ifvqfp0","pricing_plan_id":"cebpf4jnsgd1na2vs0mg"},{"bike_id":"7ecb8ede-57ca-44aa-8298-85b1b4a01d10","system_id":"levelo_inurba_marseille","lat":43.25101,"lon":5.40333,"is_reserved":false,"is_disabled":false,"rental_uris":{"android":"levelo://app?vid=7ecb8ede-57ca-44aa-8298-85b1b4a01d10","ios":"levelo://app?vid=7ecb8ede-57ca-44aa-8298-85b1b4a01d10"},"vehicle_type_id":"4","last_reported":1744366242,"current_range_meters":15200,"station_id":"ce4bhlh2rcd13ifvqgig","pricing_plan_id":"cebpf4jnsgd1na2vs0mg"},{"bike_id":"b3d15aa1-72a7-4586-9239-713f2a344c92","system_id":"levelo_inurba_marseille","lat":43.25,"lon":5.3892,"is_reserved":false,"is_disabled":false,"rental_uris":{"android":"levelo://app?vid=b3d15aa1-72a7-4586-9239-713f2a344c92","ios":"levelo://app?vid=b3d15aa1-72a7-4586-9239-713f2a344c92"},"vehicle_type_id":"4","last_reported":1744366242,"current_range_meters":15200,"station_id":"ce4bhgp2rcd13ifvqfd0","pricing_plan_id":"cebpf4jnsgd1na2vs0mg"},{"bike_id":"2ba24ca1-f9ca-431f-9eba-b0e65972a4cc","system_id":"levelo_inurba_marseille","lat":43.26945,"lon":5.38913,"is_reserved":false,"is_disabled":false,"rental_uris":{"android":"levelo://app?vid=2ba24ca1-f9ca-431f-9eba-b0e65972a4cc","ios":"levelo://app?vid=2ba24ca1-f9ca-431f-9eba-b0e65972a4cc"},"vehicle_type_id":"4","last_reported":1744366242,"current_range_meters":15200,"station_id":"ce4bhhh2rcd13ifvqfl0","pricing_plan_id":"cebpf4jnsgd1na2vs0mg"},{"bike_id":"549918be-d79a-4899-a870-6473907900ee","system_id":"levelo_inurba_marseille","lat":43.29822,"lon":5.36283,"is_reserved":false,"is_disabled":true,"rental_uris":{"android":"levelo://app?vid=549918be-d79a-4899-a870-6473907900ee","ios":"levelo://app?vid=549918be-d79a-4899-a870-6473907900ee"},"vehicle_type_id":"4","last_reported":1744366242,"current_range_meters":15200,"station_id":"ce4bgpp2rcd13ifvqc3g","pricing_plan_id":"cebpf4jnsgd1na2vs0mg"},{"bike_id":"0a12228f-61f9-48c1-9f2f-bd8159dce7a6","system_id":"levelo_inurba_marseille","lat":43.26209,"lon":5.3745,"is_reserved":false,"is_disabled":true,"rental_uris":{"android":"levelo://app?vid=0a12228f-61f9-48c1-9f2f-bd8159dce7a6","ios":"levelo://app?vid=0a12228f-61f9-48c1-9f2f-bd8159dce7a6"},"vehicle_type_id":"4","last_reported":1744366242,"current_range_meters":15200,"station_id":"ce4bhgp2rcd13ifvqfc0","pricing_plan_id":"cebpf4jnsgd1na2vs0mg"},{"bike_id":"c85b286c-a834-41ba-b350-5f84b9024963","system_id":"levelo_inurba_marseille","lat":43.23135,"lon":5.43722,"is_reserved":false,"is_disabled":false,"rental_uris":{"android":"levelo://app?vid=c85b286c-a834-41ba-b350-5f84b9024963","ios":"levelo://app?vid=c85b286c-a834-41ba-b350-5f84b9024963"},"vehicle_type_id":"4","last_reported":1744366242,"current_range_meters":16000,"station_id":"ce4bhmp2rcd13ifvqgog","pricing_plan_id":"cebpf4jnsgd1na2vs0mg"},{"bike_id":"5f0f8288-68fd-470e-bcb6-af4241f1a925","system_id":"levelo_inurba_marseille","lat":43.28424,"lon":5.349747,"is_reserved":false,"is_disabled":false,"rental_uris":{"android":"levelo://app?vid=5f0f8288-68fd-470e-bcb6-af4241f1a925","ios":"levelo://app?vid=5f0f8288-68fd-470e-bcb6-af4241f1a925"},"vehicle_type_id":"4","last_reported":1744366242,"current_range_meters":16000,"station_id":"ce4bhbh2rcd13ifvqepg","pricing_plan_id":"cebpf4jnsgd1na2vs0mg"},{"bike_id":"4c893399-b4ed-40ed-a49f-713da320f269","system_id":"levelo_inurba_marseille","lat":43.29861,"lon":5.37841,"is_reserved":false,"is_disabled":false,"rental_uris":{"android":"levelo://app?vid=4c893399-b4ed-40ed-a49f-713da320f269","ios":"levelo://app?vid=4c893399-b4ed-40ed-a49f-713da320f269"},"vehicle_type_id":"4","last_reported":1744366242,"current_range_meters":16000,"station_id":"","pricing_plan_id":"cebpf4jnsgd1na2vs0mg"},{"bike_id":"2bc77524-6534-4114-bc35-8f2e56b45ad0","system_id":"levelo_inurba_marseille","lat":43.21747,"lon":5.34604,"is_reserved":false,"is_disabled":true,"rental_uris":{"android":"levelo://app?vid=2bc77524-6534-4114-bc35-8f2e56b45ad0","ios":"levelo://app?vid=2bc77524-6534-4114-bc35-8f2e56b45ad0"},"vehicle_type_id":"4","last_reported":1744366242,"current_range_meters":16000,"station_id":"","pricing_plan_id":"cebpf4jnsgd1na2vs0mg"},{"bike_id":"8c58f2fa-99e1-41f8-bf90-9c1648b679b1","system_id":"levelo_inurba_marseille","lat":43.27304,"lon":5.41426,"is_reserved":false,"is_disabled":false,"rental_uris":{"android":"levelo://app?vid=8c58f2fa-99e1-41f8-bf90-9c1648b679b1","ios":"levelo://app?vid=8c58f2fa-99e1-41f8-bf90-9c1648b679b1"},"vehicle_type_id":"4","last_reported":1744366242,"current_range_meters":16000,"station_id":"","pricing_plan_id":"cebpf4jnsgd1na2vs0mg"},{"bike_id":"56830533-4ee2-44ba-a0aa-f5a935a86a02","system_id":"levelo_inurba_marseille","lat":43.21751,"lon":5.34589,"is_reserved":false,"is_disabled":false,"rental_uris":{"android":"levelo://app?vid=56830533-4ee2-44ba-a0aa-f5a935a86a02","ios":"levelo://app?vid=56830533-4ee2-44ba-a0aa-f5a935a86a02"},"vehicle_type_id":"4","last_reported":1744366242,"current_range_meters":16000,"station_id":"","pricing_plan_id":"cebpf4jnsgd1na2vs0mg"},{"bike_id":"bffed82f-cdd1-47cb-9e06-e189fcf89f81","system_id":"levelo_inurba_marseille","lat":43.260254,"lon":5.375582,"is_reserved":false,"is_disabled":false,"rental_uris":{"android":"levelo://app?vid=bffed82f-cdd1-47cb-9e06-e189fcf89f81","ios":"levelo://app?vid=bffed82f-cdd1-47cb-9e06-e189fcf89f81"},"vehicle_type_id":"4","last_reported":1744366242,"current_range_meters":16000,"station_id":"","pricing_plan_id":"cebpf4jnsgd1na2vs0mg"},{"bike_id":"0d5cf6c8-ddd3-4794-b87c-df055255b522","system_id":"levelo_inurba_marseille","lat":43.30958,"lon":5.39026,"is_reserved":false,"is_disabled":false,"rental_uris":{"android":"levelo://app?vid=0d5cf6c8-ddd3-4794-b87c-df055255b522","ios":"levelo://app?vid=0d5cf6c8-ddd3-4794-b87c-df055255b522"},"vehicle_type_id":"4","last_reported":1744366242,"current_range_meters":16000,"station_id":"ce4bgup2rcd13ifvqco0","pricing_plan_id":"cebpf4jnsgd1na2vs0mg"},{"bike_id":"ef291804-1477-432e-b153-82ea15725418","system_id":"levelo_inurba_marseille","lat":43.33742,"lon":5.37454,"is_reserved":false,"is_disabled":false,"rental_uris":{"android":"levelo://app?vid=ef291804-1477-432e-b153-82ea15725418","ios":"levelo://app?vid=ef291804-1477-432e-b153-82ea15725418"},"vehicle_type_id":"4","last_reported":1744366242,"current_range_meters":16400,"station_id":"","pricing_plan_id":"cebpf4jnsgd1na2vs0mg"},{"bike_id":"5e5d5919-e11c-45c7-98c5-dab1eab23575","system_id":"levelo_inurba_marseille","lat":43.24179,"lon":5.39726,"is_reserved":false,"is_disabled":false,"rental_uris":{"android":"levelo://app?vid=5e5d5919-e11c-45c7-98c5-dab1eab23575","ios":"levelo://app?vid=5e5d5919-e11c-45c7-98c5-dab1eab23575"},"vehicle_type_id":"4","last_reported":1744366242,"current_range_meters":16400,"station_id":"ce4bhn12rcd13ifvqgpg","pricing_plan_id":"cebpf4jnsgd1na2vs0mg"},{"bike_id":"771ee025-3c96-42cb-a0ce-7acf0129b2c3","system_id":"levelo_inurba_marseille","lat":43.26806,"lon":5.40277,"is_reserved":false,"is_disabled":false,"rental_uris":{"android":"levelo://app?vid=771ee025-3c96-42cb-a0ce-7acf0129b2c3","ios":"levelo://app?vid=771ee025-3c96-42cb-a0ce-7acf0129b2c3"},"vehicle_type_id":"4","last_reported":1744366242,"current_range_meters":16400,"station_id":"ce501612rcd8frsf0b60","pricing_plan_id":"cebpf4jnsgd1na2vs0mg"},{"bike_id":"b23c94b8-d5d3-4e0b-8152-41fe9d7297e8","system_id":"levelo_inurba_marseille","lat":43.32354,"lon":5.3675,"is_reserved":false,"is_disabled":false,"rental_uris":{"android":"levelo://app?vid=b23c94b8-d5d3-4e0b-8152-41fe9d7297e8","ios":"levelo://app?vid=b23c94b8-d5d3-4e0b-8152-41fe9d7297e8"},"vehicle_type_id":"4","last_reported":1744366242,"current_range_meters":16800,"station_id":"ce4bhsh2rcd13ifvqi2g","pricing_plan_id":"cebpf4jnsgd1na2vs0mg"},{"bike_id":"54a7d26a-c5f8-4008-b945-bcc5a036c746","system_id":"levelo_inurba_marseille","lat":43.233123,"lon":5.361576,"is_reserved":false,"is_disabled":false,"rental_uris":{"android":"levelo://app?vid=54a7d26a-c5f8-4008-b945-bcc5a036c746","ios":"levelo://app?vid=54a7d26a-c5f8-4008-b945-bcc5a036c746"},"vehicle_type_id":"4","last_reported":1744366242,"current_range_meters":16800,"station_id":"","pricing_plan_id":"cebpf4jnsgd1na2vs0mg"},{"bike_id":"b2ce936b-391b-47f6-a1f9-02af9a4ea3b0","system_id":"levelo_inurba_marseille","lat":43.31364,"lon":5.36681,"is_reserved":false,"is_disabled":false,"rental_uris":{"android":"levelo://app?vid=b2ce936b-391b-47f6-a1f9-02af9a4ea3b0","ios":"levelo://app?vid=b2ce936b-391b-47f6-a1f9-02af9a4ea3b0"},"vehicle_type_id":"4","last_reported":1744366242,"current_range_meters":16800,"station_id":"ce4bgr92rcd13ifvqc6g","pricing_plan_id":"cebpf4jnsgd1na2vs0mg"},{"bike_id":"94285f83-3b5d-462b-97b6-1d5eba6c8ae0","system_id":"levelo_inurba_marseille","lat":43.30491,"lon":5.37916,"is_reserved":false,"is_disabled":false,"rental_uris":{"android":"levelo://app?vid=94285f83-3b5d-462b-97b6-1d5eba6c8ae0","ios":"levelo://app?vid=94285f83-3b5d-462b-97b6-1d5eba6c8ae0"},"vehicle_type_id":"4","last_reported":1744366242,"current_range_meters":16800,"station_id":"ce4bgup2rcd13ifvqcn0","pricing_plan_id":"cebpf4jnsgd1na2vs0mg"},{"bike_id":"0f71ba3e-2d68-404d-bc47-de14713c241f","system_id":"levelo_inurba_marseille","lat":43.21187,"lon":5.35089,"is_reserved":false,"is_disabled":false,"rental_uris":{"android":"levelo://app?vid=0f71ba3e-2d68-404d-bc47-de14713c241f","ios":"levelo://app?vid=0f71ba3e-2d68-404d-bc47-de14713c241f"},"vehicle_type_id":"4","last_reported":1744366242,"current_range_meters":16800,"station_id":"ce4bha92rcd13ifvqeh0","pricing_plan_id":"cebpf4jnsgd1na2vs0mg"},{"bike_id":"84b31b9a-3639-4a49-ba1b-b8657db4f117","system_id":"levelo_inurba_marseille","lat":43.3092,"lon":5.36845,"is_reserved":false,"is_disabled":false,"rental_uris":{"android":"levelo://app?vid=84b31b9a-3639-4a49-ba1b-b8657db4f117","ios":"levelo://app?vid=84b31b9a-3639-4a49-ba1b-b8657db4f117"},"vehicle_type_id":"4","last_reported":1744366242,"current_range_meters":17200,"station_id":"ce4bgn92rcd13ifvqbvg","pricing_plan_id":"cebpf4jnsgd1na2vs0mg"},{"bike_id":"874610fc-3b64-4457-99ae-ce0a442087ea","system_id":"levelo_inurba_marseille","lat":43.24172,"lon":5.39724,"is_reserved":false,"is_disabled":false,"rental_uris":{"android":"levelo://app?vid=874610fc-3b64-4457-99ae-ce0a442087ea","ios":"levelo://app?vid=874610fc-3b64-4457-99ae-ce0a442087ea"},"vehicle_type_id":"4","last_reported":1744366242,"current_range_meters":17200,"station_id":"ce4bhn12rcd13ifvqgpg","pricing_plan_id":"cebpf4jnsgd1na2vs0mg"},{"bike_id":"6e57f3de-03d0-46de-822c-30606a5abdac","system_id":"levelo_inurba_marseille","lat":43.30196,"lon":5.36627,"is_reserved":false,"is_disabled":false,"rental_uris":{"android":"levelo://app?vid=6e57f3de-03d0-46de-822c-30606a5abdac","ios":"levelo://app?vid=6e57f3de-03d0-46de-822c-30606a5abdac"},"vehicle_type_id":"4","last_reported":1744366242,"current_range_meters":17200,"station_id":"ce4bgrh2rcd13ifvqc8g","pricing_plan_id":"cebpf4jnsgd1na2vs0mg"},{"bike_id":"78cf8bdc-e9e8-4e9d-8e54-1c34720ce88e","system_id":"levelo_inurba_marseille","lat":43.23179,"lon":5.43669,"is_reserved":false,"is_disabled":false,"rental_uris":{"android":"levelo://app?vid=78cf8bdc-e9e8-4e9d-8e54-1c34720ce88e","ios":"levelo://app?vid=78cf8bdc-e9e8-4e9d-8e54-1c34720ce88e"},"vehicle_type_id":"4","last_reported":1744366242,"current_range_meters":17200,"station_id":"ce4bhmp2rcd13ifvqgog","pricing_plan_id":"cebpf4jnsgd1na2vs0mg"},{"bike_id":"5b77a833-8185-45c2-9fe3-07eb40df54ca","system_id":"levelo_inurba_marseille","lat":43.33995,"lon":5.38057,"is_reserved":false,"is_disabled":false,"rental_uris":{"android":"levelo://app?vid=5b77a833-8185-45c2-9fe3-07eb40df54ca","ios":"levelo://app?vid=5b77a833-8185-45c2-9fe3-07eb40df54ca"},"vehicle_type_id":"4","last_reported":1744366242,"current_range_meters":17200,"station_id":"","pricing_plan_id":"cebpf4jnsgd1na2vs0mg"},{"bike_id":"a4f40bae-a8d1-40fd-8dd1-b76c35d57202","system_id":"levelo_inurba_marseille","lat":43.27322,"lon":5.39101,"is_reserved":false,"is_disabled":false,"rental_uris":{"android":"levelo://app?vid=a4f40bae-a8d1-40fd-8dd1-b76c35d57202","ios":"levelo://app?vid=a4f40bae-a8d1-40fd-8dd1-b76c35d57202"},"vehicle_type_id":"4","last_reported":1744366242,"current_range_meters":17600,"station_id":"ce4bhgp2rcd13ifvqfe0","pricing_plan_id":"cebpf4jnsgd1na2vs0mg"},{"bike_id":"b902634d-2e86-4bf5-b76d-2654023eb46e","system_id":"levelo_inurba_marseille","lat":43.31218,"lon":5.36857,"is_reserved":false,"is_disabled":false,"rental_uris":{"android":"levelo://app?vid=b902634d-2e86-4bf5-b76d-2654023eb46e","ios":"levelo://app?vid=b902634d-2e86-4bf5-b76d-2654023eb46e"},"vehicle_type_id":"4","last_reported":1744366242,"current_range_meters":17600,"station_id":"ce4bgl92rcd13ifvqbq0","pricing_plan_id":"cebpf4jnsgd1na2vs0mg"},{"bike_id":"2e621b99-a7bc-41ec-a591-3f54bc90d734","system_id":"levelo_inurba_marseille","lat":43.30209,"lon":5.39438,"is_reserved":false,"is_disabled":false,"rental_uris":{"android":"levelo://app?vid=2e621b99-a7bc-41ec-a591-3f54bc90d734","ios":"levelo://app?vid=2e621b99-a7bc-41ec-a591-3f54bc90d734"},"vehicle_type_id":"4","last_reported":1744366242,"current_range_meters":17600,"station_id":"ce4bh0p2rcd13ifvqd70","pricing_plan_id":"cebpf4jnsgd1na2vs0mg"},{"bike_id":"7e80eef2-186e-4bbc-bcb2-54a4850f0b9d","system_id":"levelo_inurba_marseille","lat":43.29161,"lon":5.37148,"is_reserved":false,"is_disabled":false,"rental_uris":{"android":"levelo://app?vid=7e80eef2-186e-4bbc-bcb2-54a4850f0b9d","ios":"levelo://app?vid=7e80eef2-186e-4bbc-bcb2-54a4850f0b9d"},"vehicle_type_id":"4","last_reported":1744366242,"current_range_meters":17600,"station_id":"ce4bha92rcd13ifvqeh0","pricing_plan_id":"cebpf4jnsgd1na2vs0mg"},{"bike_id":"f46a49ca-1b9d-47bc-aed6-4fa281bfffb1","system_id":"levelo_inurba_marseille","lat":43.30545,"lon":5.3653,"is_reserved":false,"is_disabled":false,"rental_uris":{"android":"levelo://app?vid=f46a49ca-1b9d-47bc-aed6-4fa281bfffb1","ios":"levelo://app?vid=f46a49ca-1b9d-47bc-aed6-4fa281bfffb1"},"vehicle_type_id":"4","last_reported":1744366242,"current_range_meters":17600,"station_id":"ce4bgs12rcd13ifvqcag","pricing_plan_id":"cebpf4jnsgd1na2vs0mg"},{"bike_id":"0e7bf4ae-5aed-4055-a1f8-96debbb9847e","system_id":"levelo_inurba_marseille","lat":43.24168,"lon":5.36394,"is_reserved":false,"is_disabled":false,"rental_uris":{"android":"levelo://app?vid=0e7bf4ae-5aed-4055-a1f8-96debbb9847e","ios":"levelo://app?vid=0e7bf4ae-5aed-4055-a1f8-96debbb9847e"},"vehicle_type_id":"4","last_reported":1744366242,"current_range_meters":17600,"station_id":"cpo36qri1sfpv3e86is0","pricing_plan_id":"cebpf4jnsgd1na2vs0mg"},{"bike_id":"80f98af0-2f31-427f-aca2-71ca911dbdea","system_id":"levelo_inurba_marseille","lat":43.27813,"lon":5.40708,"is_reserved":false,"is_disabled":false,"rental_uris":{"android":"levelo://app?vid=80f98af0-2f31-427f-aca2-71ca911dbdea","ios":"levelo://app?vid=80f98af0-2f31-427f-aca2-71ca911dbdea"},"vehicle_type_id":"4","last_reported":1744366242,"current_range_meters":18000,"station_id":"ce4bhnh2rcd13ifvqgtg","pricing_plan_id":"cebpf4jnsgd1na2vs0mg"},{"bike_id":"d1ec29d7-f0f7-463e-bf62-a85dac36cbbe","system_id":"levelo_inurba_marseille","lat":43.30161,"lon":5.38119,"is_reserved":false,"is_disabled":false,"rental_uris":{"android":"levelo://app?vid=d1ec29d7-f0f7-463e-bf62-a85dac36cbbe","ios":"levelo://app?vid=d1ec29d7-f0f7-463e-bf62-a85dac36cbbe"},"vehicle_type_id":"4","last_reported":1744366242,"current_range_meters":18000,"station_id":"ce4bgjp2rcd13ifvqbh0","pricing_plan_id":"cebpf4jnsgd1na2vs0mg"},{"bike_id":"7a5c9c76-4e30-46ad-a0c8-64088d059970","system_id":"levelo_inurba_marseille","lat":43.24074,"lon":5.37746,"is_reserved":false,"is_disabled":false,"rental_uris":{"android":"levelo://app?vid=7a5c9c76-4e30-46ad-a0c8-64088d059970","ios":"levelo://app?vid=7a5c9c76-4e30-46ad-a0c8-64088d059970"},"vehicle_type_id":"4","last_reported":1744366242,"current_range_meters":18000,"station_id":"ce4bhnp2rcd13ifvqgvg","pricing_plan_id":"cebpf4jnsgd1na2vs0mg"},{"bike_id":"ed0cdb3e-f71c-47b1-a56c-8c93e161b605","system_id":"levelo_inurba_marseille","lat":43.23965,"lon":5.36627,"is_reserved":false,"is_disabled":false,"rental_uris":{"android":"levelo://app?vid=ed0cdb3e-f71c-47b1-a56c-8c93e161b605","ios":"levelo://app?vid=ed0cdb3e-f71c-47b1-a56c-8c93e161b605"},"vehicle_type_id":"4","last_reported":1744366242,"current_range_meters":18000,"station_id":"ce4bhi12rcd13ifvqfp0","pricing_plan_id":"cebpf4jnsgd1na2vs0mg"},{"bike_id":"9e51d317-42da-45eb-b7bf-3cc75d71f609","system_id":"levelo_inurba_marseille","lat":43.3092,"lon":5.36861,"is_reserved":false,"is_disabled":false,"rental_uris":{"android":"levelo://app?vid=9e51d317-42da-45eb-b7bf-3cc75d71f609","ios":"levelo://app?vid=9e51d317-42da-45eb-b7bf-3cc75d71f609"},"vehicle_type_id":"4","last_reported":1744366242,"current_range_meters":18000,"station_id":"ce4bgn92rcd13ifvqbvg","pricing_plan_id":"cebpf4jnsgd1na2vs0mg"},{"bike_id":"5ef0f3c8-fcaf-48f3-8251-4bf6517e2db6","system_id":"levelo_inurba_marseille","lat":43.280142,"lon":5.399931,"is_reserved":false,"is_disabled":false,"rental_uris":{"android":"levelo://app?vid=5ef0f3c8-fcaf-48f3-8251-4bf6517e2db6","ios":"levelo://app?vid=5ef0f3c8-fcaf-48f3-8251-4bf6517e2db6"},"vehicle_type_id":"4","last_reported":1744366242,"current_range_meters":18000,"station_id":"ce4bho92rcd13ifvqh4g","pricing_plan_id":"cebpf4jnsgd1na2vs0mg"},{"bike_id":"5ba68d68-988d-4e0d-82b5-6e5c047bd70c","system_id":"levelo_inurba_marseille","lat":43.22929,"lon":5.35373,"is_reserved":false,"is_disabled":false,"rental_uris":{"android":"levelo://app?vid=5ba68d68-988d-4e0d-82b5-6e5c047bd70c","ios":"levelo://app?vid=5ba68d68-988d-4e0d-82b5-6e5c047bd70c"},"vehicle_type_id":"4","last_reported":1744366242,"current_range_meters":18800,"station_id":"cpo3532slgdg3j2ikp40","pricing_plan_id":"cebpf4jnsgd1na2vs0mg"},{"bike_id":"661ab804-761a-4bba-a3e6-5e164d61970e","system_id":"levelo_inurba_marseille","lat":43.289874,"lon":5.356448,"is_reserved":false,"is_disabled":false,"rental_uris":{"android":"levelo://app?vid=661ab804-761a-4bba-a3e6-5e164d61970e","ios":"levelo://app?vid=661ab804-761a-4bba-a3e6-5e164d61970e"},"vehicle_type_id":"4","last_reported":1744366242,"current_range_meters":18000,"station_id":"ce4bhb92rcd13ifvqen0","pricing_plan_id":"cebpf4jnsgd1na2vs0mg"},{"bike_id":"6b083f57-58d9-4716-b846-5204a224390a","system_id":"levelo_inurba_marseille","lat":43.305449,"lon":5.36539,"is_reserved":false,"is_disabled":false,"rental_uris":{"android":"levelo://app?vid=6b083f57-58d9-4716-b846-5204a224390a","ios":"levelo://app?vid=6b083f57-58d9-4716-b846-5204a224390a"},"vehicle_type_id":"4","last_reported":1744366242,"current_range_meters":18800,"station_id":"ce4bgs12rcd13ifvqcag","pricing_plan_id":"cebpf4jnsgd1na2vs0mg"},{"bike_id":"b26e4fd2-18dd-4fe3-b8a9-9d791a30ce75","system_id":"levelo_inurba_marseille","lat":43.302576,"lon":5.400686,"is_reserved":false,"is_disabled":false,"rental_uris":{"android":"levelo://app?vid=b26e4fd2-18dd-4fe3-b8a9-9d791a30ce75","ios":"levelo://app?vid=b26e4fd2-18dd-4fe3-b8a9-9d791a30ce75"},"vehicle_type_id":"4","last_reported":1744366242,"current_range_meters":18800,"station_id":"ce4bgr92rcd13ifvqc7g","pricing_plan_id":"cebpf4jnsgd1na2vs0mg"},{"bike_id":"7c4545c3-c1b1-465e-91cc-14a8c8097af0","system_id":"levelo_inurba_marseille","lat":43.30605,"lon":5.3936,"is_reserved":false,"is_disabled":true,"rental_uris":{"android":"levelo://app?vid=7c4545c3-c1b1-465e-91cc-14a8c8097af0","ios":"levelo://app?vid=7c4545c3-c1b1-465e-91cc-14a8c8097af0"},"vehicle_type_id":"4","last_reported":1744366242,"current_range_meters":18800,"station_id":"ce4bh0p2rcd13ifvqd80","pricing_plan_id":"cebpf4jnsgd1na2vs0mg"},{"bike_id":"f798cfef-4e73-4888-8449-ee40225394d3","system_id":"levelo_inurba_marseille","lat":43.28272,"lon":5.35065,"is_reserved":false,"is_disabled":false,"rental_uris":{"android":"levelo://app?vid=f798cfef-4e73-4888-8449-ee40225394d3","ios":"levelo://app?vid=f798cfef-4e73-4888-8449-ee40225394d3"},"vehicle_type_id":"4","last_reported":1744366242,"current_range_meters":18800,"station_id":"ce4bhbp2rcd13ifvqerg","pricing_plan_id":"cebpf4jnsgd1na2vs0mg"},{"bike_id":"f8ee2bbf-9694-402e-b5f4-b70a6b47734e","system_id":"levelo_inurba_marseille","lat":43.304183,"lon":5.412843,"is_reserved":false,"is_disabled":false,"rental_uris":{"android":"levelo://app?vid=f8ee2bbf-9694-402e-b5f4-b70a6b47734e","ios":"levelo://app?vid=f8ee2bbf-9694-402e-b5f4-b70a6b47734e"},"vehicle_type_id":"4","last_reported":1744366242,"current_range_meters":18000,"station_id":"ce4bhop2rcd13ifvqh8g","pricing_plan_id":"cebpf4jnsgd1na2vs0mg"},{"bike_id":"ea747d2a-66d8-4c91-9ba9-e534c94b4922","system_id":"levelo_inurba_marseille","lat":43.229317,"lon":5.35373,"is_reserved":false,"is_disabled":false,"rental_uris":{"android":"levelo://app?vid=ea747d2a-66d8-4c91-9ba9-e534c94b4922","ios":"levelo://app?vid=ea747d2a-66d8-4c91-9ba9-e534c94b4922"},"vehicle_type_id":"4","last_reported":1744366242,"current_range_meters":18800,"station_id":"cpo3532slgdg3j2ikp40","pricing_plan_id":"cebpf4jnsgd1na2vs0mg"},{"bike_id":"fa7b550d-7ad4-413f-a658-1b9aa7fcd5cc","system_id":"levelo_inurba_marseille","lat":43.291878,"lon":5.384163,"is_reserved":false,"is_disabled":false,"rental_uris":{"android":"levelo://app?vid=fa7b550d-7ad4-413f-a658-1b9aa7fcd5cc","ios":"levelo://app?vid=fa7b550d-7ad4-413f-a658-1b9aa7fcd5cc"},"vehicle_type_id":"4","last_reported":1744366242,"current_range_meters":18800,"station_id":"ce4bhb12rcd13ifvqel0","pricing_plan_id":"cebpf4jnsgd1na2vs0mg"},{"bike_id":"df0a460a-78fd-4a92-ab04-d304b04ee04f","system_id":"levelo_inurba_marseille","lat":43.27315,"lon":5.39073,"is_reserved":false,"is_disabled":false,"rental_uris":{"android":"levelo://app?vid=df0a460a-78fd-4a92-ab04-d304b04ee04f","ios":"levelo://app?vid=df0a460a-78fd-4a92-ab04-d304b04ee04f"},"vehicle_type_id":"4","last_reported":1744366242,"current_range_meters":18800,"station_id":"ce4bhgp2rcd13ifvqfe0","pricing_plan_id":"cebpf4jnsgd1na2vs0mg"},{"bike_id":"90cddebc-2506-42ee-9df1-36a6154dff75","system_id":"levelo_inurba_marseille","lat":43.24162,"lon":5.36372,"is_reserved":false,"is_disabled":false,"rental_uris":{"android":"levelo://app?vid=90cddebc-2506-42ee-9df1-36a6154dff75","ios":"levelo://app?vid=90cddebc-2506-42ee-9df1-36a6154dff75"},"vehicle_type_id":"4","last_reported":1744366242,"current_range_meters":18800,"station_id":"cpo36qri1sfpv3e86is0","pricing_plan_id":"cebpf4jnsgd1na2vs0mg"},{"bike_id":"87bfd88d-8857-4e08-8e8b-a0024dae323d","system_id":"levelo_inurba_marseille","lat":43.28261,"lon":5.35061,"is_reserved":false,"is_disabled":false,"rental_uris":{"android":"levelo://app?vid=87bfd88d-8857-4e08-8e8b-a0024dae323d","ios":"levelo://app?vid=87bfd88d-8857-4e08-8e8b-a0024dae323d"},"vehicle_type_id":"4","last_reported":1744366242,"current_range_meters":19200,"station_id":"ce4bhbp2rcd13ifvqerg","pricing_plan_id":"cebpf4jnsgd1na2vs0mg"},{"bike_id":"33d599a8-a8ea-4320-a50d-9f52787254d9","system_id":"levelo_inurba_marseille","lat":43.28266,"lon":5.35062,"is_reserved":false,"is_disabled":false,"rental_uris":{"android":"levelo://app?vid=33d599a8-a8ea-4320-a50d-9f52787254d9","ios":"levelo://app?vid=33d599a8-a8ea-4320-a50d-9f52787254d9"},"vehicle_type_id":"4","last_reported":1744366242,"current_range_meters":19200,"station_id":"ce4bhbp2rcd13ifvqerg","pricing_plan_id":"cebpf4jnsgd1na2vs0mg"},{"bike_id":"6da7ed18-5a5f-467e-8b00-c46a534110a8","system_id":"levelo_inurba_marseille","lat":43.298996,"lon":5.436628,"is_reserved":false,"is_disabled":false,"rental_uris":{"android":"levelo://app?vid=6da7ed18-5a5f-467e-8b00-c46a534110a8","ios":"levelo://app?vid=6da7ed18-5a5f-467e-8b00-c46a534110a8"},"vehicle_type_id":"4","last_reported":1744366242,"current_range_meters":19200,"station_id":"ce4bhpp2rcd13ifvqhfg","pricing_plan_id":"cebpf4jnsgd1na2vs0mg"},{"bike_id":"8b129049-eb63-4e96-92b2-bdc30a9d490d","system_id":"levelo_inurba_marseille","lat":43.30206,"lon":5.39465,"is_reserved":false,"is_disabled":false,"rental_uris":{"android":"levelo://app?vid=8b129049-eb63-4e96-92b2-bdc30a9d490d","ios":"levelo://app?vid=8b129049-eb63-4e96-92b2-bdc30a9d490d"},"vehicle_type_id":"4","last_reported":1744366242,"current_range_meters":19200,"station_id":"ce4bh0p2rcd13ifvqd70","pricing_plan_id":"cebpf4jnsgd1na2vs0mg"},{"bike_id":"54da1cc9-cfd8-4409-b7c5-dca93e1b8636","system_id":"levelo_inurba_marseille","lat":43.26681,"lon":5.38263,"is_reserved":false,"is_disabled":false,"rental_uris":{"android":"levelo://app?vid=54da1cc9-cfd8-4409-b7c5-dca93e1b8636","ios":"levelo://app?vid=54da1cc9-cfd8-4409-b7c5-dca93e1b8636"},"vehicle_type_id":"4","last_reported":1744366242,"current_range_meters":19200,"station_id":"ce4bhg92rcd13ifvqf90","pricing_plan_id":"cebpf4jnsgd1na2vs0mg"},{"bike_id":"9fe75848-494b-43f4-bc45-b1107ac82fe8","system_id":"levelo_inurba_marseille","lat":43.24185,"lon":5.39729,"is_reserved":false,"is_disabled":false,"rental_uris":{"android":"levelo://app?vid=9fe75848-494b-43f4-bc45-b1107ac82fe8","ios":"levelo://app?vid=9fe75848-494b-43f4-bc45-b1107ac82fe8"},"vehicle_type_id":"4","last_reported":1744366242,"current_range_meters":19200,"station_id":"ce4bhn12rcd13ifvqgpg","pricing_plan_id":"cebpf4jnsgd1na2vs0mg"},{"bike_id":"248c892e-7cff-4783-87e8-02356602b685","system_id":"levelo_inurba_marseille","lat":43.30153,"lon":5.38069,"is_reserved":false,"is_disabled":false,"rental_uris":{"android":"levelo://app?vid=248c892e-7cff-4783-87e8-02356602b685","ios":"levelo://app?vid=248c892e-7cff-4783-87e8-02356602b685"},"vehicle_type_id":"4","last_reported":1744366242,"current_range_meters":19600,"station_id":"ce4bgjp2rcd13ifvqbh0","pricing_plan_id":"cebpf4jnsgd1na2vs0mg"},{"bike_id":"15caa18c-ff16-46cf-9983-05ecc1cb9672","system_id":"levelo_inurba_marseille","lat":43.24636,"lon":5.38895,"is_reserved":false,"is_disabled":false,"rental_uris":{"android":"levelo://app?vid=15caa18c-ff16-46cf-9983-05ecc1cb9672","ios":"levelo://app?vid=15caa18c-ff16-46cf-9983-05ecc1cb9672"},"vehicle_type_id":"4","last_reported":1744366242,"current_range_meters":19600,"station_id":"ce4bho12rcd13ifvqh1g","pricing_plan_id":"cebpf4jnsgd1na2vs0mg"},{"bike_id":"3db9ae01-5f64-432f-bcbb-7262bec65eb3","system_id":"levelo_inurba_marseille","lat":43.2953,"lon":5.37497,"is_reserved":false,"is_disabled":false,"rental_uris":{"android":"levelo://app?vid=3db9ae01-5f64-432f-bcbb-7262bec65eb3","ios":"levelo://app?vid=3db9ae01-5f64-432f-bcbb-7262bec65eb3"},"vehicle_type_id":"4","last_reported":1744366242,"current_range_meters":19600,"station_id":"ce4bgkp2rcd13ifvqbmg","pricing_plan_id":"cebpf4jnsgd1na2vs0mg"},{"bike_id":"663b2732-4e40-469c-b29d-1168df3c33a7","system_id":"levelo_inurba_marseille","lat":43.30912,"lon":5.36856,"is_reserved":false,"is_disabled":false,"rental_uris":{"android":"levelo://app?vid=663b2732-4e40-469c-b29d-1168df3c33a7","ios":"levelo://app?vid=663b2732-4e40-469c-b29d-1168df3c33a7"},"vehicle_type_id":"4","last_reported":1744366242,"current_range_meters":19600,"station_id":"ce4bgn92rcd13ifvqbvg","pricing_plan_id":"cebpf4jnsgd1na2vs0mg"},{"bike_id":"701ed645-9a94-4703-825f-e3283ca9b591","system_id":"levelo_inurba_marseille","lat":43.28261,"lon":5.3506,"is_reserved":false,"is_disabled":false,"rental_uris":{"android":"levelo://app?vid=701ed645-9a94-4703-825f-e3283ca9b591","ios":"levelo://app?vid=701ed645-9a94-4703-825f-e3283ca9b591"},"vehicle_type_id":"4","last_reported":1744366242,"current_range_meters":19600,"station_id":"ce4bhbp2rcd13ifvqerg","pricing_plan_id":"cebpf4jnsgd1na2vs0mg"},{"bike_id":"35731db3-6912-402e-a623-b72e3ccb4de5","system_id":"levelo_inurba_marseille","lat":43.231502,"lon":5.437173,"is_reserved":false,"is_disabled":false,"rental_uris":{"android":"levelo://app?vid=35731db3-6912-402e-a623-b72e3ccb4de5","ios":"levelo://app?vid=35731db3-6912-402e-a623-b72e3ccb4de5"},"vehicle_type_id":"4","last_reported":1744366242,"current_range_meters":19600,"station_id":"ce4bhmp2rcd13ifvqgog","pricing_plan_id":"cebpf4jnsgd1na2vs0mg"},{"bike_id":"44ea3182-88eb-4a7d-bbc8-aa868967f1bc","system_id":"levelo_inurba_marseille","lat":43.31261,"lon":5.36846,"is_reserved":false,"is_disabled":true,"rental_uris":{"android":"levelo://app?vid=44ea3182-88eb-4a7d-bbc8-aa868967f1bc","ios":"levelo://app?vid=44ea3182-88eb-4a7d-bbc8-aa868967f1bc"},"vehicle_type_id":"4","last_reported":1744366242,"current_range_meters":19600,"station_id":"ce4bgl92rcd13ifvqbq0","pricing_plan_id":"cebpf4jnsgd1na2vs0mg"},{"bike_id":"d447dcab-53dc-4f57-8bb2-4145811365b2","system_id":"levelo_inurba_marseille","lat":43.23121,"lon":5.43709,"is_reserved":false,"is_disabled":false,"rental_uris":{"android":"levelo://app?vid=d447dcab-53dc-4f57-8bb2-4145811365b2","ios":"levelo://app?vid=d447dcab-53dc-4f57-8bb2-4145811365b2"},"vehicle_type_id":"4","last_reported":1744366242,"current_range_meters":20000,"station_id":"ce4bhmp2rcd13ifvqgog","pricing_plan_id":"cebpf4jnsgd1na2vs0mg"},{"bike_id":"e7d64116-368f-421d-902b-041b68f32a12","system_id":"levelo_inurba_marseille","lat":43.3054,"lon":5.36518,"is_reserved":false,"is_disabled":false,"rental_uris":{"android":"levelo://app?vid=e7d64116-368f-421d-902b-041b68f32a12","ios":"levelo://app?vid=e7d64116-368f-421d-902b-041b68f32a12"},"vehicle_type_id":"4","last_reported":1744366242,"current_range_meters":20000,"station_id":"ce4bgs12rcd13ifvqcag","pricing_plan_id":"cebpf4jnsgd1na2vs0mg"},{"bike_id":"eb489c2e-1675-434f-bbfa-6a9ed74fea49","system_id":"levelo_inurba_marseille","lat":43.21193,"lon":5.35078,"is_reserved":false,"is_disabled":false,"rental_uris":{"android":"levelo://app?vid=eb489c2e-1675-434f-bbfa-6a9ed74fea49","ios":"levelo://app?vid=eb489c2e-1675-434f-bbfa-6a9ed74fea49"},"vehicle_type_id":"4","last_reported":1744366242,"current_range_meters":20000,"station_id":"st_cvj6sg6p6f1abm77japg","pricing_plan_id":"cebpf4jnsgd1na2vs0mg"},{"bike_id":"7f12d860-29e3-4420-8c79-cb851628b038","system_id":"levelo_inurba_marseille","lat":43.2558,"lon":5.38225,"is_reserved":false,"is_disabled":false,"rental_uris":{"android":"levelo://app?vid=7f12d860-29e3-4420-8c79-cb851628b038","ios":"levelo://app?vid=7f12d860-29e3-4420-8c79-cb851628b038"},"vehicle_type_id":"4","last_reported":1744366242,"current_range_meters":20000,"station_id":"ce4bhih2rcd13ifvqfs0","pricing_plan_id":"cebpf4jnsgd1na2vs0mg"},{"bike_id":"1db8d3a2-856b-481f-a177-d6f278343be5","system_id":"levelo_inurba_marseille","lat":43.26557,"lon":5.37281,"is_reserved":false,"is_disabled":false,"rental_uris":{"android":"levelo://app?vid=1db8d3a2-856b-481f-a177-d6f278343be5","ios":"levelo://app?vid=1db8d3a2-856b-481f-a177-d6f278343be5"},"vehicle_type_id":"4","last_reported":1744366242,"current_range_meters":20000,"station_id":"ce4bhg12rcd13ifvqf70","pricing_plan_id":"cebpf4jnsgd1na2vs0mg"},{"bike_id":"6f90147a-05eb-4785-8545-02e55f200e52","system_id":"levelo_inurba_marseille","lat":43.29896,"lon":5.43667,"is_reserved":false,"is_disabled":false,"rental_uris":{"android":"levelo://app?vid=6f90147a-05eb-4785-8545-02e55f200e52","ios":"levelo://app?vid=6f90147a-05eb-4785-8545-02e55f200e52"},"vehicle_type_id":"4","last_reported":1744366242,"current_range_meters":19600,"station_id":"ce4bhpp2rcd13ifvqhfg","pricing_plan_id":"cebpf4jnsgd1na2vs0mg"},{"bike_id":"4f7007a3-7cc9-4291-a8da-728e951c1759","system_id":"levelo_inurba_marseille","lat":43.28733,"lon":5.379299,"is_reserved":false,"is_disabled":false,"rental_uris":{"android":"levelo://app?vid=4f7007a3-7cc9-4291-a8da-728e951c1759","ios":"levelo://app?vid=4f7007a3-7cc9-4291-a8da-728e951c1759"},"vehicle_type_id":"4","last_reported":1744366242,"current_range_meters":20400,"station_id":"ce4bh9p2rcd13ifvqec0","pricing_plan_id":"cebpf4jnsgd1na2vs0mg"},{"bike_id":"f84d37d2-52e0-4244-84d2-e716c155fcbd","system_id":"levelo_inurba_marseille","lat":43.239633,"lon":5.366309,"is_reserved":false,"is_disabled":false,"rental_uris":{"android":"levelo://app?vid=f84d37d2-52e0-4244-84d2-e716c155fcbd","ios":"levelo://app?vid=f84d37d2-52e0-4244-84d2-e716c155fcbd"},"vehicle_type_id":"4","last_reported":1744366242,"current_range_meters":20400,"station_id":"ce4bhi12rcd13ifvqfp0","pricing_plan_id":"cebpf4jnsgd1na2vs0mg"},{"bike_id":"4548da5e-0c7d-4f7e-a15a-bc037d8de47c","system_id":"levelo_inurba_marseille","lat":43.29584,"lon":5.36748,"is_reserved":false,"is_disabled":false,"rental_uris":{"android":"levelo://app?vid=4548da5e-0c7d-4f7e-a15a-bc037d8de47c","ios":"levelo://app?vid=4548da5e-0c7d-4f7e-a15a-bc037d8de47c"},"vehicle_type_id":"4","last_reported":1744366242,"current_range_meters":20400,"station_id":"ce4bgph2rcd13ifvqc2g","pricing_plan_id":"cebpf4jnsgd1na2vs0mg"},{"bike_id":"a536733b-94f8-4ff6-a6bd-1c6328a5c2ea","system_id":"levelo_inurba_marseille","lat":43.28941,"lon":5.36633,"is_reserved":false,"is_disabled":false,"rental_uris":{"android":"levelo://app?vid=a536733b-94f8-4ff6-a6bd-1c6328a5c2ea","ios":"levelo://app?vid=a536733b-94f8-4ff6-a6bd-1c6328a5c2ea"},"vehicle_type_id":"4","last_reported":1744366242,"current_range_meters":20400,"station_id":"ce4bhap2rcd13ifvqek0","pricing_plan_id":"cebpf4jnsgd1na2vs0mg"},{"bike_id":"e354046b-c23a-418f-a403-273b31b0334d","system_id":"levelo_inurba_marseille","lat":43.2963,"lon":5.406032,"is_reserved":false,"is_disabled":false,"rental_uris":{"android":"levelo://app?vid=e354046b-c23a-418f-a403-273b31b0334d","ios":"levelo://app?vid=e354046b-c23a-418f-a403-273b31b0334d"},"vehicle_type_id":"4","last_reported":1744366242,"current_range_meters":20000,"station_id":"ce4bh0h2rcd13ifvqd60","pricing_plan_id":"cebpf4jnsgd1na2vs0mg"},{"bike_id":"9bf2ee99-ebe5-4048-bf97-fcfd156a20fc","system_id":"levelo_inurba_marseille","lat":43.29713,"lon":5.377,"is_reserved":false,"is_disabled":false,"rental_uris":{"android":"levelo://app?vid=9bf2ee99-ebe5-4048-bf97-fcfd156a20fc","ios":"levelo://app?vid=9bf2ee99-ebe5-4048-bf97-fcfd156a20fc"},"vehicle_type_id":"4","last_reported":1744366242,"current_range_meters":20000,"station_id":"ce4bgkh2rcd13ifvqbl0","pricing_plan_id":"cebpf4jnsgd1na2vs0mg"},{"bike_id":"3f26e005-060f-42b8-a27f-19e80eb76b6d","system_id":"levelo_inurba_marseille","lat":43.2929,"lon":5.37447,"is_reserved":false,"is_disabled":false,"rental_uris":{"android":"levelo://app?vid=3f26e005-060f-42b8-a27f-19e80eb76b6d","ios":"levelo://app?vid=3f26e005-060f-42b8-a27f-19e80eb76b6d"},"vehicle_type_id":"4","last_reported":1744366242,"current_range_meters":20400,"station_id":"ce4bgi12rcd13ifvqb70","pricing_plan_id":"cebpf4jnsgd1na2vs0mg"},{"bike_id":"873a345f-ac07-415b-8aab-c6473351c455","system_id":"levelo_inurba_marseille","lat":43.30473,"lon":5.37903,"is_reserved":false,"is_disabled":false,"rental_uris":{"android":"levelo://app?vid=873a345f-ac07-415b-8aab-c6473351c455","ios":"levelo://app?vid=873a345f-ac07-415b-8aab-c6473351c455"},"vehicle_type_id":"4","last_reported":1744366242,"current_range_meters":20800,"station_id":"ce4bgup2rcd13ifvqcn0","pricing_plan_id":"cebpf4jnsgd1na2vs0mg"},{"bike_id":"223c83cf-d64d-436b-aac5-0441fdc52c5b","system_id":"levelo_inurba_marseille","lat":43.30473,"lon":5.37902,"is_reserved":false,"is_disabled":false,"rental_uris":{"android":"levelo://app?vid=223c83cf-d64d-436b-aac5-0441fdc52c5b","ios":"levelo://app?vid=223c83cf-d64d-436b-aac5-0441fdc52c5b"},"vehicle_type_id":"4","last_reported":1744366242,"current_range_meters":20800,"station_id":"ce4bgup2rcd13ifvqcn0","pricing_plan_id":"cebpf4jnsgd1na2vs0mg"},{"bike_id":"8beb61d0-8cbc-480b-9bb8-72dc2cf5ff61","system_id":"levelo_inurba_marseille","lat":43.306487,"lon":5.400956,"is_reserved":false,"is_disabled":false,"rental_uris":{"android":"levelo://app?vid=8beb61d0-8cbc-480b-9bb8-72dc2cf5ff61","ios":"levelo://app?vid=8beb61d0-8cbc-480b-9bb8-72dc2cf5ff61"},"vehicle_type_id":"4","last_reported":1744366242,"current_range_meters":20800,"station_id":"ce4bho92rcd13ifvqh3g","pricing_plan_id":"cebpf4jnsgd1na2vs0mg"},{"bike_id":"a61ae11b-5783-41e3-9ce6-221e6fdb8590","system_id":"levelo_inurba_marseille","lat":43.276764,"lon":5.388677,"is_reserved":false,"is_disabled":false,"rental_uris":{"android":"levelo://app?vid=a61ae11b-5783-41e3-9ce6-221e6fdb8590","ios":"levelo://app?vid=a61ae11b-5783-41e3-9ce6-221e6fdb8590"},"vehicle_type_id":"4","last_reported":1744366242,"current_range_meters":20800,"station_id":"ce4bhi12rcd13ifvqfo0","pricing_plan_id":"cebpf4jnsgd1na2vs0mg"},{"bike_id":"a945cbf3-38e6-4aa3-9aa1-d414d6c834b5","system_id":"levelo_inurba_marseille","lat":43.31889,"lon":5.40731,"is_reserved":false,"is_disabled":true,"rental_uris":{"android":"levelo://app?vid=a945cbf3-38e6-4aa3-9aa1-d414d6c834b5","ios":"levelo://app?vid=a945cbf3-38e6-4aa3-9aa1-d414d6c834b5"},"vehicle_type_id":"4","last_reported":1744366242,"current_range_meters":20800,"station_id":"ce4bhq12rcd13ifvqhig","pricing_plan_id":"cebpf4jnsgd1na2vs0mg"},{"bike_id":"1dcc1b04-2f68-4d02-80f6-de189d9ebfc2","system_id":"levelo_inurba_marseille","lat":43.211869,"lon":5.350776,"is_reserved":false,"is_disabled":false,"rental_uris":{"android":"levelo://app?vid=1dcc1b04-2f68-4d02-80f6-de189d9ebfc2","ios":"levelo://app?vid=1dcc1b04-2f68-4d02-80f6-de189d9ebfc2"},"vehicle_type_id":"4","last_reported":1744366242,"current_range_meters":20800,"station_id":"ce4bha92rcd13ifvqeh0","pricing_plan_id":"cebpf4jnsgd1na2vs0mg"},{"bike_id":"f44296ab-c79e-4473-bcc1-d5602d657233","system_id":"levelo_inurba_marseille","lat":43.262089,"lon":5.3744,"is_reserved":false,"is_disabled":false,"rental_uris":{"android":"levelo://app?vid=f44296ab-c79e-4473-bcc1-d5602d657233","ios":"levelo://app?vid=f44296ab-c79e-4473-bcc1-d5602d657233"},"vehicle_type_id":"4","last_reported":1744366242,"current_range_meters":20800,"station_id":"ce4bh0h2rcd13ifvqd50","pricing_plan_id":"cebpf4jnsgd1na2vs0mg"},{"bike_id":"a7c58a60-a5c5-4a4e-b362-dc7feaea63d7","system_id":"levelo_inurba_marseille","lat":43.31987,"lon":5.38151,"is_reserved":false,"is_disabled":true,"rental_uris":{"android":"levelo://app?vid=a7c58a60-a5c5-4a4e-b362-dc7feaea63d7","ios":"levelo://app?vid=a7c58a60-a5c5-4a4e-b362-dc7feaea63d7"},"vehicle_type_id":"4","last_reported":1744366242,"current_range_meters":20800,"station_id":"ce4bhr12rcd13ifvqhpg","pricing_plan_id":"cebpf4jnsgd1na2vs0mg"},{"bike_id":"a6fb9ac6-0321-4123-b718-f7bd24b8337c","system_id":"levelo_inurba_marseille","lat":43.24176,"lon":5.39727,"is_reserved":false,"is_disabled":false,"rental_uris":{"android":"levelo://app?vid=a6fb9ac6-0321-4123-b718-f7bd24b8337c","ios":"levelo://app?vid=a6fb9ac6-0321-4123-b718-f7bd24b8337c"},"vehicle_type_id":"4","last_reported":1744366242,"current_range_meters":21600,"station_id":"ce4bhn12rcd13ifvqgpg","pricing_plan_id":"cebpf4jnsgd1na2vs0mg"},{"bike_id":"585f2064-7dad-4bdc-aeb2-f686f211db83","system_id":"levelo_inurba_marseille","lat":43.30458,"lon":5.37903,"is_reserved":false,"is_disabled":false,"rental_uris":{"android":"levelo://app?vid=585f2064-7dad-4bdc-aeb2-f686f211db83","ios":"levelo://app?vid=585f2064-7dad-4bdc-aeb2-f686f211db83"},"vehicle_type_id":"4","last_reported":1744366242,"current_range_meters":21600,"station_id":"ce4bgup2rcd13ifvqcn0","pricing_plan_id":"cebpf4jnsgd1na2vs0mg"},{"bike_id":"d73f238f-8c28-4757-80d0-0569dc2c153f","system_id":"levelo_inurba_marseille","lat":43.33722,"lon":5.39171,"is_reserved":false,"is_disabled":false,"rental_uris":{"android":"levelo://app?vid=d73f238f-8c28-4757-80d0-0569dc2c153f","ios":"levelo://app?vid=d73f238f-8c28-4757-80d0-0569dc2c153f"},"vehicle_type_id":"4","last_reported":1744366242,"current_range_meters":20800,"station_id":"ce4bhr92rcd13ifvqhsg","pricing_plan_id":"cebpf4jnsgd1na2vs0mg"},{"bike_id":"020e9999-d552-48d0-ae5f-b725af0dbea2","system_id":"levelo_inurba_marseille","lat":43.2991,"lon":5.43742,"is_reserved":false,"is_disabled":false,"rental_uris":{"android":"levelo://app?vid=020e9999-d552-48d0-ae5f-b725af0dbea2","ios":"levelo://app?vid=020e9999-d552-48d0-ae5f-b725af0dbea2"},"vehicle_type_id":"4","last_reported":1744366242,"current_range_meters":21600,"station_id":"","pricing_plan_id":"cebpf4jnsgd1na2vs0mg"},{"bike_id":"dd4f30ec-655f-42a0-9740-dc393c7cd628","system_id":"levelo_inurba_marseille","lat":43.31358,"lon":5.36705,"is_reserved":false,"is_disabled":false,"rental_uris":{"android":"levelo://app?vid=dd4f30ec-655f-42a0-9740-dc393c7cd628","ios":"levelo://app?vid=dd4f30ec-655f-42a0-9740-dc393c7cd628"},"vehicle_type_id":"4","last_reported":1744366242,"current_range_meters":21600,"station_id":"ce4bgr92rcd13ifvqc6g","pricing_plan_id":"cebpf4jnsgd1na2vs0mg"},{"bike_id":"ad1e157c-b785-42e2-b003-13862b3c166e","system_id":"levelo_inurba_marseille","lat":43.30312,"lon":5.36888,"is_reserved":false,"is_disabled":false,"rental_uris":{"android":"levelo://app?vid=ad1e157c-b785-42e2-b003-13862b3c166e","ios":"levelo://app?vid=ad1e157c-b785-42e2-b003-13862b3c166e"},"vehicle_type_id":"4","last_reported":1744366242,"current_range_meters":21600,"station_id":"ce4bgqh2rcd13ifvqc5g","pricing_plan_id":"cebpf4jnsgd1na2vs0mg"},{"bike_id":"1d55dd05-ff1a-4a72-baa0-d81e5fc0e4f6","system_id":"levelo_inurba_marseille","lat":43.26637,"lon":5.39652,"is_reserved":false,"is_disabled":false,"rental_uris":{"android":"levelo://app?vid=1d55dd05-ff1a-4a72-baa0-d81e5fc0e4f6","ios":"levelo://app?vid=1d55dd05-ff1a-4a72-baa0-d81e5fc0e4f6"},"vehicle_type_id":"4","last_reported":1744366242,"current_range_meters":21600,"station_id":"","pricing_plan_id":"cebpf4jnsgd1na2vs0mg"},{"bike_id":"af788835-bf44-4a08-af32-3c0327e31191","system_id":"levelo_inurba_marseille","lat":43.313474,"lon":5.367151,"is_reserved":false,"is_disabled":false,"rental_uris":{"android":"levelo://app?vid=af788835-bf44-4a08-af32-3c0327e31191","ios":"levelo://app?vid=af788835-bf44-4a08-af32-3c0327e31191"},"vehicle_type_id":"4","last_reported":1744366242,"current_range_meters":21600,"station_id":"ce4bgr92rcd13ifvqc6g","pricing_plan_id":"cebpf4jnsgd1na2vs0mg"},{"bike_id":"fa746782-5535-498f-ae3f-209aed1e4cda","system_id":"levelo_inurba_marseille","lat":43.30208,"lon":5.39458,"is_reserved":false,"is_disabled":false,"rental_uris":{"android":"levelo://app?vid=fa746782-5535-498f-ae3f-209aed1e4cda","ios":"levelo://app?vid=fa746782-5535-498f-ae3f-209aed1e4cda"},"vehicle_type_id":"4","last_reported":1744366242,"current_range_meters":22000,"station_id":"ce4bh0p2rcd13ifvqd70","pricing_plan_id":"cebpf4jnsgd1na2vs0mg"},{"bike_id":"81bfe55e-9d00-4a62-949e-83d2408322a5","system_id":"levelo_inurba_marseille","lat":43.32661,"lon":5.40989,"is_reserved":false,"is_disabled":false,"rental_uris":{"android":"levelo://app?vid=81bfe55e-9d00-4a62-949e-83d2408322a5","ios":"levelo://app?vid=81bfe55e-9d00-4a62-949e-83d2408322a5"},"vehicle_type_id":"4","last_reported":1744366242,"current_range_meters":22000,"station_id":"ce4bhpp2rcd13ifvqhgg","pricing_plan_id":"cebpf4jnsgd1na2vs0mg"},{"bike_id":"8341f1ba-452d-4c36-a986-d62753da4d41","system_id":"levelo_inurba_marseille","lat":43.28102,"lon":5.37825,"is_reserved":false,"is_disabled":false,"rental_uris":{"android":"levelo://app?vid=8341f1ba-452d-4c36-a986-d62753da4d41","ios":"levelo://app?vid=8341f1ba-452d-4c36-a986-d62753da4d41"},"vehicle_type_id":"4","last_reported":1744366242,"current_range_meters":21600,"station_id":"ce4bha12rcd13ifvqee0","pricing_plan_id":"cebpf4jnsgd1na2vs0mg"},{"bike_id":"a9f41225-afc1-4664-b1d2-fc661ba5d6c9","system_id":"levelo_inurba_marseille","lat":43.23141,"lon":5.43719,"is_reserved":false,"is_disabled":false,"rental_uris":{"android":"levelo://app?vid=a9f41225-afc1-4664-b1d2-fc661ba5d6c9","ios":"levelo://app?vid=a9f41225-afc1-4664-b1d2-fc661ba5d6c9"},"vehicle_type_id":"4","last_reported":1744366242,"current_range_meters":22000,"station_id":"ce4bhmp2rcd13ifvqgog","pricing_plan_id":"cebpf4jnsgd1na2vs0mg"},{"bike_id":"f59b59e1-0b84-400d-adb7-0621d9177a6d","system_id":"levelo_inurba_marseille","lat":43.30312,"lon":5.36911,"is_reserved":false,"is_disabled":true,"rental_uris":{"android":"levelo://app?vid=f59b59e1-0b84-400d-adb7-0621d9177a6d","ios":"levelo://app?vid=f59b59e1-0b84-400d-adb7-0621d9177a6d"},"vehicle_type_id":"4","last_reported":1744366242,"current_range_meters":22000,"station_id":"ce4bgqh2rcd13ifvqc5g","pricing_plan_id":"cebpf4jnsgd1na2vs0mg"},{"bike_id":"ed9fcd3f-ed4b-47df-9abc-6088750d314c","system_id":"levelo_inurba_marseille","lat":43.24171,"lon":5.39734,"is_reserved":false,"is_disabled":false,"rental_uris":{"android":"levelo://app?vid=ed9fcd3f-ed4b-47df-9abc-6088750d314c","ios":"levelo://app?vid=ed9fcd3f-ed4b-47df-9abc-6088750d314c"},"vehicle_type_id":"4","last_reported":1744366242,"current_range_meters":22000,"station_id":"ce4bhn12rcd13ifvqgpg","pricing_plan_id":"cebpf4jnsgd1na2vs0mg"},{"bike_id":"c23be456-d4f4-470e-af72-0900c437eac7","system_id":"levelo_inurba_marseille","lat":43.29848,"lon":5.36282,"is_reserved":false,"is_disabled":false,"rental_uris":{"android":"levelo://app?vid=c23be456-d4f4-470e-af72-0900c437eac7","ios":"levelo://app?vid=c23be456-d4f4-470e-af72-0900c437eac7"},"vehicle_type_id":"4","last_reported":1744366242,"current_range_meters":21600,"station_id":"ce4bgpp2rcd13ifvqc3g","pricing_plan_id":"cebpf4jnsgd1na2vs0mg"},{"bike_id":"3236a17b-87bc-4827-b557-be034a694ecb","system_id":"levelo_inurba_marseille","lat":43.30585,"lon":5.36557,"is_reserved":false,"is_disabled":false,"rental_uris":{"android":"levelo://app?vid=3236a17b-87bc-4827-b557-be034a694ecb","ios":"levelo://app?vid=3236a17b-87bc-4827-b557-be034a694ecb"},"vehicle_type_id":"4","last_reported":1744366242,"current_range_meters":22000,"station_id":"ce4bgs12rcd13ifvqcag","pricing_plan_id":"cebpf4jnsgd1na2vs0mg"},{"bike_id":"8211214a-b963-488d-a068-3964ae76e5a1","system_id":"levelo_inurba_marseille","lat":43.2842,"lon":5.34999,"is_reserved":false,"is_disabled":false,"rental_uris":{"android":"levelo://app?vid=8211214a-b963-488d-a068-3964ae76e5a1","ios":"levelo://app?vid=8211214a-b963-488d-a068-3964ae76e5a1"},"vehicle_type_id":"4","last_reported":1744366242,"current_range_meters":22000,"station_id":"ce4bhbh2rcd13ifvqepg","pricing_plan_id":"cebpf4jnsgd1na2vs0mg"},{"bike_id":"1c19acc6-06c8-405c-a0d7-db769e0083a6","system_id":"levelo_inurba_marseille","lat":43.23148,"lon":5.43717,"is_reserved":false,"is_disabled":false,"rental_uris":{"android":"levelo://app?vid=1c19acc6-06c8-405c-a0d7-db769e0083a6","ios":"levelo://app?vid=1c19acc6-06c8-405c-a0d7-db769e0083a6"},"vehicle_type_id":"4","last_reported":1744366242,"current_range_meters":22000,"station_id":"ce4bhmp2rcd13ifvqgog","pricing_plan_id":"cebpf4jnsgd1na2vs0mg"},{"bike_id":"64048e4a-ad96-4bc6-927c-a054e8ead51f","system_id":"levelo_inurba_marseille","lat":43.312242,"lon":5.368707,"is_reserved":false,"is_disabled":false,"rental_uris":{"android":"levelo://app?vid=64048e4a-ad96-4bc6-927c-a054e8ead51f","ios":"levelo://app?vid=64048e4a-ad96-4bc6-927c-a054e8ead51f"},"vehicle_type_id":"4","last_reported":1744366242,"current_range_meters":22400,"station_id":"ce4bgl92rcd13ifvqbq0","pricing_plan_id":"cebpf4jnsgd1na2vs0mg"},{"bike_id":"15ebbf82-ed56-443d-aedf-4130f4dc5b9a","system_id":"levelo_inurba_marseille","lat":43.290425,"lon":5.399857,"is_reserved":false,"is_disabled":true,"rental_uris":{"android":"levelo://app?vid=15ebbf82-ed56-443d-aedf-4130f4dc5b9a","ios":"levelo://app?vid=15ebbf82-ed56-443d-aedf-4130f4dc5b9a"},"vehicle_type_id":"4","last_reported":1744366242,"current_range_meters":22400,"station_id":"ce4bh392rcd13ifvqdm0","pricing_plan_id":"cebpf4jnsgd1na2vs0mg"},{"bike_id":"77b50a44-49a9-4d4a-b78d-61fd5ef9df4c","system_id":"levelo_inurba_marseille","lat":43.26795,"lon":5.40262,"is_reserved":false,"is_disabled":false,"rental_uris":{"android":"levelo://app?vid=77b50a44-49a9-4d4a-b78d-61fd5ef9df4c","ios":"levelo://app?vid=77b50a44-49a9-4d4a-b78d-61fd5ef9df4c"},"vehicle_type_id":"4","last_reported":1744366242,"current_range_meters":22800,"station_id":"ce501612rcd8frsf0b60","pricing_plan_id":"cebpf4jnsgd1na2vs0mg"},{"bike_id":"bf66c301-d926-43bd-9e88-39153a42b273","system_id":"levelo_inurba_marseille","lat":43.23962,"lon":5.36624,"is_reserved":false,"is_disabled":false,"rental_uris":{"android":"levelo://app?vid=bf66c301-d926-43bd-9e88-39153a42b273","ios":"levelo://app?vid=bf66c301-d926-43bd-9e88-39153a42b273"},"vehicle_type_id":"4","last_reported":1744366242,"current_range_meters":22800,"station_id":"ce4bhi12rcd13ifvqfp0","pricing_plan_id":"cebpf4jnsgd1na2vs0mg"},{"bike_id":"013e0d1c-d8cc-4b35-9f0b-45eb8777dbdd","system_id":"levelo_inurba_marseille","lat":43.25122,"lon":5.40318,"is_reserved":false,"is_disabled":false,"rental_uris":{"android":"levelo://app?vid=013e0d1c-d8cc-4b35-9f0b-45eb8777dbdd","ios":"levelo://app?vid=013e0d1c-d8cc-4b35-9f0b-45eb8777dbdd"},"vehicle_type_id":"4","last_reported":1744366242,"current_range_meters":22800,"station_id":"ce4bhlh2rcd13ifvqgig","pricing_plan_id":"cebpf4jnsgd1na2vs0mg"},{"bike_id":"6ee9f4f4-2b89-4c8a-bb41-24b111547b04","system_id":"levelo_inurba_marseille","lat":43.31232,"lon":5.36906,"is_reserved":false,"is_disabled":false,"rental_uris":{"android":"levelo://app?vid=6ee9f4f4-2b89-4c8a-bb41-24b111547b04","ios":"levelo://app?vid=6ee9f4f4-2b89-4c8a-bb41-24b111547b04"},"vehicle_type_id":"4","last_reported":1744366242,"current_range_meters":22800,"station_id":"ce4bgl92rcd13ifvqbq0","pricing_plan_id":"cebpf4jnsgd1na2vs0mg"},{"bike_id":"d8b9884b-4022-4710-9f87-50e0dbfd421d","system_id":"levelo_inurba_marseille","lat":43.24162,"lon":5.36388,"is_reserved":false,"is_disabled":false,"rental_uris":{"android":"levelo://app?vid=d8b9884b-4022-4710-9f87-50e0dbfd421d","ios":"levelo://app?vid=d8b9884b-4022-4710-9f87-50e0dbfd421d"},"vehicle_type_id":"4","last_reported":1744366242,"current_range_meters":22800,"station_id":"cpo36qri1sfpv3e86is0","pricing_plan_id":"cebpf4jnsgd1na2vs0mg"},{"bike_id":"1e65913c-c0aa-4313-be38-c98f3e75cbbb","system_id":"levelo_inurba_marseille","lat":43.303253,"lon":5.404348,"is_reserved":false,"is_disabled":false,"rental_uris":{"android":"levelo://app?vid=1e65913c-c0aa-4313-be38-c98f3e75cbbb","ios":"levelo://app?vid=1e65913c-c0aa-4313-be38-c98f3e75cbbb"},"vehicle_type_id":"4","last_reported":1744366242,"current_range_meters":22800,"station_id":"ce4bh012rcd13ifvqd10","pricing_plan_id":"cebpf4jnsgd1na2vs0mg"},{"bike_id":"486b616b-8404-401a-aa60-5aa907a200e2","system_id":"levelo_inurba_marseille","lat":43.31113,"lon":5.37777,"is_reserved":false,"is_disabled":false,"rental_uris":{"android":"levelo://app?vid=486b616b-8404-401a-aa60-5aa907a200e2","ios":"levelo://app?vid=486b616b-8404-401a-aa60-5aa907a200e2"},"vehicle_type_id":"4","last_reported":1744366242,"current_range_meters":22800,"station_id":"ce4bgt92rcd13ifvqcg0","pricing_plan_id":"cebpf4jnsgd1na2vs0mg"},{"bike_id":"cf2209f6-3bf8-453c-80ee-bfb5593ad1a9","system_id":"levelo_inurba_marseille","lat":43.30585,"lon":5.37206,"is_reserved":false,"is_disabled":false,"rental_uris":{"android":"levelo://app?vid=cf2209f6-3bf8-453c-80ee-bfb5593ad1a9","ios":"levelo://app?vid=cf2209f6-3bf8-453c-80ee-bfb5593ad1a9"},"vehicle_type_id":"4","last_reported":1744366242,"current_range_meters":22800,"station_id":"ce4bgqh2rcd13ifvqc4g","pricing_plan_id":"cebpf4jnsgd1na2vs0mg"},{"bike_id":"8330d58b-21d7-4082-bfc2-5da7ed65fc38","system_id":"levelo_inurba_marseille","lat":43.22937,"lon":5.35375,"is_reserved":false,"is_disabled":false,"rental_uris":{"android":"levelo://app?vid=8330d58b-21d7-4082-bfc2-5da7ed65fc38","ios":"levelo://app?vid=8330d58b-21d7-4082-bfc2-5da7ed65fc38"},"vehicle_type_id":"4","last_reported":1744366242,"current_range_meters":23200,"station_id":"cpo3532slgdg3j2ikp40","pricing_plan_id":"cebpf4jnsgd1na2vs0mg"},{"bike_id":"e77c9bd6-940a-4a7e-ad4d-c4cb5d83f1e2","system_id":"levelo_inurba_marseille","lat":43.29793,"lon":5.38102,"is_reserved":false,"is_disabled":false,"rental_uris":{"android":"levelo://app?vid=e77c9bd6-940a-4a7e-ad4d-c4cb5d83f1e2","ios":"levelo://app?vid=e77c9bd6-940a-4a7e-ad4d-c4cb5d83f1e2"},"vehicle_type_id":"4","last_reported":1744366242,"current_range_meters":21600,"station_id":"ce4bgip2rcd13ifvqbb0","pricing_plan_id":"cebpf4jnsgd1na2vs0mg"},{"bike_id":"1e57af46-6a48-41a5-87b7-613d14bc626b","system_id":"levelo_inurba_marseille","lat":43.24807,"lon":5.37453,"is_reserved":false,"is_disabled":false,"rental_uris":{"android":"levelo://app?vid=1e57af46-6a48-41a5-87b7-613d14bc626b","ios":"levelo://app?vid=1e57af46-6a48-41a5-87b7-613d14bc626b"},"vehicle_type_id":"4","last_reported":1744366242,"current_range_meters":23200,"station_id":"ce4bhgh2rcd13ifvqfb0","pricing_plan_id":"cebpf4jnsgd1na2vs0mg"},{"bike_id":"5591936e-ca63-41c7-89f3-9c9493c86f89","system_id":"levelo_inurba_marseille","lat":43.24165,"lon":5.36396,"is_reserved":false,"is_disabled":false,"rental_uris":{"android":"levelo://app?vid=5591936e-ca63-41c7-89f3-9c9493c86f89","ios":"levelo://app?vid=5591936e-ca63-41c7-89f3-9c9493c86f89"},"vehicle_type_id":"4","last_reported":1744366242,"current_range_meters":23200,"station_id":"cpo36qri1sfpv3e86is0","pricing_plan_id":"cebpf4jnsgd1na2vs0mg"},{"bike_id":"4fc39082-371e-4148-9a3d-2f435cb9931c","system_id":"levelo_inurba_marseille","lat":43.29046,"lon":5.37566,"is_reserved":false,"is_disabled":false,"rental_uris":{"android":"levelo://app?vid=4fc39082-371e-4148-9a3d-2f435cb9931c","ios":"levelo://app?vid=4fc39082-371e-4148-9a3d-2f435cb9931c"},"vehicle_type_id":"4","last_reported":1744366242,"current_range_meters":24000,"station_id":"ce4bh692rcd13ifvqe90","pricing_plan_id":"cebpf4jnsgd1na2vs0mg"},{"bike_id":"0cb9933a-d606-4316-9348-77da3d5f840b","system_id":"levelo_inurba_marseille","lat":43.21188,"lon":5.35074,"is_reserved":false,"is_disabled":false,"rental_uris":{"android":"levelo://app?vid=0cb9933a-d606-4316-9348-77da3d5f840b","ios":"levelo://app?vid=0cb9933a-d606-4316-9348-77da3d5f840b"},"vehicle_type_id":"4","last_reported":1744366242,"current_range_meters":24000,"station_id":"st_cvj6sg6p6f1abm77japg","pricing_plan_id":"cebpf4jnsgd1na2vs0mg"},{"bike_id":"77de363e-9ff8-41b2-a2cb-703913a732ed","system_id":"levelo_inurba_marseille","lat":43.29528,"lon":5.37511,"is_reserved":false,"is_disabled":false,"rental_uris":{"android":"levelo://app?vid=77de363e-9ff8-41b2-a2cb-703913a732ed","ios":"levelo://app?vid=77de363e-9ff8-41b2-a2cb-703913a732ed"},"vehicle_type_id":"4","last_reported":1744366242,"current_range_meters":23200,"station_id":"ce4bgkp2rcd13ifvqbmg","pricing_plan_id":"cebpf4jnsgd1na2vs0mg"},{"bike_id":"a706e90c-93f1-49ff-ad57-809bb14ad2b4","system_id":"levelo_inurba_marseille","lat":43.28613,"lon":5.35106,"is_reserved":false,"is_disabled":false,"rental_uris":{"android":"levelo://app?vid=a706e90c-93f1-49ff-ad57-809bb14ad2b4","ios":"levelo://app?vid=a706e90c-93f1-49ff-ad57-809bb14ad2b4"},"vehicle_type_id":"4","last_reported":1744366242,"current_range_meters":24000,"station_id":"ce4bhch2rcd13ifvqeug","pricing_plan_id":"cebpf4jnsgd1na2vs0mg"},{"bike_id":"cedc111c-f4f2-47f7-9cda-e657fee7bd01","system_id":"levelo_inurba_marseille","lat":43.24159,"lon":5.36397,"is_reserved":false,"is_disabled":false,"rental_uris":{"android":"levelo://app?vid=cedc111c-f4f2-47f7-9cda-e657fee7bd01","ios":"levelo://app?vid=cedc111c-f4f2-47f7-9cda-e657fee7bd01"},"vehicle_type_id":"4","last_reported":1744366242,"current_range_meters":24000,"station_id":"cpo36qri1sfpv3e86is0","pricing_plan_id":"cebpf4jnsgd1na2vs0mg"},{"bike_id":"ebc87748-5efc-4ef2-9623-8e44d80dc9d3","system_id":"levelo_inurba_marseille","lat":43.30191,"lon":5.36622,"is_reserved":false,"is_disabled":false,"rental_uris":{"android":"levelo://app?vid=ebc87748-5efc-4ef2-9623-8e44d80dc9d3","ios":"levelo://app?vid=ebc87748-5efc-4ef2-9623-8e44d80dc9d3"},"vehicle_type_id":"4","last_reported":1744366242,"current_range_meters":24000,"station_id":"ce4bgrh2rcd13ifvqc8g","pricing_plan_id":"cebpf4jnsgd1na2vs0mg"},{"bike_id":"db697a4e-bf01-4ed6-be3f-a8fe18a68ec4","system_id":"levelo_inurba_marseille","lat":43.27936,"lon":5.41034,"is_reserved":false,"is_disabled":false,"rental_uris":{"android":"levelo://app?vid=db697a4e-bf01-4ed6-be3f-a8fe18a68ec4","ios":"levelo://app?vid=db697a4e-bf01-4ed6-be3f-a8fe18a68ec4"},"vehicle_type_id":"4","last_reported":1744366242,"current_range_meters":24000,"station_id":"ce4bhnp2rcd13ifvqh0g","pricing_plan_id":"cebpf4jnsgd1na2vs0mg"},{"bike_id":"c6b58dfa-aae6-4b84-b256-ffb77d100d41","system_id":"levelo_inurba_marseille","lat":43.24168,"lon":5.39743,"is_reserved":false,"is_disabled":false,"rental_uris":{"android":"levelo://app?vid=c6b58dfa-aae6-4b84-b256-ffb77d100d41","ios":"levelo://app?vid=c6b58dfa-aae6-4b84-b256-ffb77d100d41"},"vehicle_type_id":"4","last_reported":1744366242,"current_range_meters":24000,"station_id":"ce4bhn12rcd13ifvqgpg","pricing_plan_id":"cebpf4jnsgd1na2vs0mg"},{"bike_id":"5cb9cea2-84f3-4694-bbb5-e038256ed69b","system_id":"levelo_inurba_marseille","lat":43.2826,"lon":5.35058,"is_reserved":false,"is_disabled":false,"rental_uris":{"android":"levelo://app?vid=5cb9cea2-84f3-4694-bbb5-e038256ed69b","ios":"levelo://app?vid=5cb9cea2-84f3-4694-bbb5-e038256ed69b"},"vehicle_type_id":"4","last_reported":1744366242,"current_range_meters":24400,"station_id":"ce4bhbp2rcd13ifvqerg","pricing_plan_id":"cebpf4jnsgd1na2vs0mg"},{"bike_id":"e9db9fb1-6d03-44e3-84ae-b2192c3b1899","system_id":"levelo_inurba_marseille","lat":43.24172,"lon":5.39731,"is_reserved":false,"is_disabled":false,"rental_uris":{"android":"levelo://app?vid=e9db9fb1-6d03-44e3-84ae-b2192c3b1899","ios":"levelo://app?vid=e9db9fb1-6d03-44e3-84ae-b2192c3b1899"},"vehicle_type_id":"4","last_reported":1744366242,"current_range_meters":24400,"station_id":"ce4bhn12rcd13ifvqgpg","pricing_plan_id":"cebpf4jnsgd1na2vs0mg"},{"bike_id":"b9ddc55a-afff-4b07-86b1-818918dc6f1f","system_id":"levelo_inurba_marseille","lat":43.31357,"lon":5.38487,"is_reserved":false,"is_disabled":true,"rental_uris":{"android":"levelo://app?vid=b9ddc55a-afff-4b07-86b1-818918dc6f1f","ios":"levelo://app?vid=b9ddc55a-afff-4b07-86b1-818918dc6f1f"},"vehicle_type_id":"4","last_reported":1744366242,"current_range_meters":24400,"station_id":"ce4bgt92rcd13ifvqcf0","pricing_plan_id":"cebpf4jnsgd1na2vs0mg"},{"bike_id":"e4cca1cb-9af9-4e3a-8098-ca1ea7aa4b1f","system_id":"levelo_inurba_marseille","lat":43.313545,"lon":5.367146,"is_reserved":false,"is_disabled":false,"rental_uris":{"android":"levelo://app?vid=e4cca1cb-9af9-4e3a-8098-ca1ea7aa4b1f","ios":"levelo://app?vid=e4cca1cb-9af9-4e3a-8098-ca1ea7aa4b1f"},"vehicle_type_id":"4","last_reported":1744366242,"current_range_meters":24400,"station_id":"ce4bgr92rcd13ifvqc6g","pricing_plan_id":"cebpf4jnsgd1na2vs0mg"},{"bike_id":"e33b3338-c3fb-4a12-bb23-f3bc7c5b7be6","system_id":"levelo_inurba_marseille","lat":43.26681,"lon":5.38265,"is_reserved":false,"is_disabled":false,"rental_uris":{"android":"levelo://app?vid=e33b3338-c3fb-4a12-bb23-f3bc7c5b7be6","ios":"levelo://app?vid=e33b3338-c3fb-4a12-bb23-f3bc7c5b7be6"},"vehicle_type_id":"4","last_reported":1744366242,"current_range_meters":24400,"station_id":"ce4bhg92rcd13ifvqf90","pricing_plan_id":"cebpf4jnsgd1na2vs0mg"},{"bike_id":"998c02cc-4ff7-41ae-9eda-0bddda92b794","system_id":"levelo_inurba_marseille","lat":43.28417,"lon":5.34973,"is_reserved":false,"is_disabled":false,"rental_uris":{"android":"levelo://app?vid=998c02cc-4ff7-41ae-9eda-0bddda92b794","ios":"levelo://app?vid=998c02cc-4ff7-41ae-9eda-0bddda92b794"},"vehicle_type_id":"4","last_reported":1744366242,"current_range_meters":24400,"station_id":"ce4bhbh2rcd13ifvqepg","pricing_plan_id":"cebpf4jnsgd1na2vs0mg"},{"bike_id":"f006f022-ee1e-4990-b58d-f5812e0677b9","system_id":"levelo_inurba_marseille","lat":43.294141,"lon":5.386254,"is_reserved":false,"is_disabled":false,"rental_uris":{"android":"levelo://app?vid=f006f022-ee1e-4990-b58d-f5812e0677b9","ios":"levelo://app?vid=f006f022-ee1e-4990-b58d-f5812e0677b9"},"vehicle_type_id":"4","last_reported":1744366242,"current_range_meters":24400,"station_id":"","pricing_plan_id":"cebpf4jnsgd1na2vs0mg"},{"bike_id":"4060c619-b01a-494d-871c-d728ad893cb2","system_id":"levelo_inurba_marseille","lat":43.21754,"lon":5.34608,"is_reserved":false,"is_disabled":false,"rental_uris":{"android":"levelo://app?vid=4060c619-b01a-494d-871c-d728ad893cb2","ios":"levelo://app?vid=4060c619-b01a-494d-871c-d728ad893cb2"},"vehicle_type_id":"4","last_reported":1744366242,"current_range_meters":24400,"station_id":"","pricing_plan_id":"cebpf4jnsgd1na2vs0mg"},{"bike_id":"5995f075-b253-4f47-a13c-4144938f3a2c","system_id":"levelo_inurba_marseille","lat":43.30311,"lon":5.39198,"is_reserved":false,"is_disabled":true,"rental_uris":{"android":"levelo://app?vid=5995f075-b253-4f47-a13c-4144938f3a2c","ios":"levelo://app?vid=5995f075-b253-4f47-a13c-4144938f3a2c"},"vehicle_type_id":"4","last_reported":1744366242,"current_range_meters":24400,"station_id":"ce4bgkh2rcd13ifvqbk0","pricing_plan_id":"cebpf4jnsgd1na2vs0mg"},{"bike_id":"5ab1ae08-3ca5-454a-b9e0-9bb0613f400d","system_id":"levelo_inurba_marseille","lat":43.29972,"lon":5.37187,"is_reserved":false,"is_disabled":false,"rental_uris":{"android":"levelo://app?vid=5ab1ae08-3ca5-454a-b9e0-9bb0613f400d","ios":"levelo://app?vid=5ab1ae08-3ca5-454a-b9e0-9bb0613f400d"},"vehicle_type_id":"4","last_reported":1744366242,"current_range_meters":24000,"station_id":"ce4bgr92rcd13ifvqc7g","pricing_plan_id":"cebpf4jnsgd1na2vs0mg"},{"bike_id":"9aeb8499-830d-4464-b7e0-b1b32abf84bc","system_id":"levelo_inurba_marseille","lat":43.25111,"lon":5.40314,"is_reserved":false,"is_disabled":false,"rental_uris":{"android":"levelo://app?vid=9aeb8499-830d-4464-b7e0-b1b32abf84bc","ios":"levelo://app?vid=9aeb8499-830d-4464-b7e0-b1b32abf84bc"},"vehicle_type_id":"4","last_reported":1744366242,"current_range_meters":24800,"station_id":"ce4bhlh2rcd13ifvqgig","pricing_plan_id":"cebpf4jnsgd1na2vs0mg"},{"bike_id":"94aec515-d609-400a-a4e8-36163d3f6f5d","system_id":"levelo_inurba_marseille","lat":43.30554,"lon":5.36547,"is_reserved":false,"is_disabled":false,"rental_uris":{"android":"levelo://app?vid=94aec515-d609-400a-a4e8-36163d3f6f5d","ios":"levelo://app?vid=94aec515-d609-400a-a4e8-36163d3f6f5d"},"vehicle_type_id":"4","last_reported":1744366242,"current_range_meters":24800,"station_id":"ce4bgs12rcd13ifvqcag","pricing_plan_id":"cebpf4jnsgd1na2vs0mg"},{"bike_id":"24ab773d-5e60-4cf3-9561-a1bd3d6dfad8","system_id":"levelo_inurba_marseille","lat":43.29706,"lon":5.36598,"is_reserved":false,"is_disabled":false,"rental_uris":{"android":"levelo://app?vid=24ab773d-5e60-4cf3-9561-a1bd3d6dfad8","ios":"levelo://app?vid=24ab773d-5e60-4cf3-9561-a1bd3d6dfad8"},"vehicle_type_id":"4","last_reported":1744366242,"current_range_meters":25200,"station_id":"ce4bgn12rcd13ifvqbt0","pricing_plan_id":"cebpf4jnsgd1na2vs0mg"},{"bike_id":"f31b61b9-c7e4-4aad-80ed-dc37d57d482d","system_id":"levelo_inurba_marseille","lat":43.292193,"lon":5.36056,"is_reserved":false,"is_disabled":true,"rental_uris":{"android":"levelo://app?vid=f31b61b9-c7e4-4aad-80ed-dc37d57d482d","ios":"levelo://app?vid=f31b61b9-c7e4-4aad-80ed-dc37d57d482d"},"vehicle_type_id":"4","last_reported":1744366242,"current_range_meters":24800,"station_id":"ce4bhbh2rcd13ifvqeqg","pricing_plan_id":"cebpf4jnsgd1na2vs0mg"},{"bike_id":"b83b3a47-5a74-4d6a-8dfc-1934b54d28cd","system_id":"levelo_inurba_marseille","lat":43.24182,"lon":5.39735,"is_reserved":false,"is_disabled":false,"rental_uris":{"android":"levelo://app?vid=b83b3a47-5a74-4d6a-8dfc-1934b54d28cd","ios":"levelo://app?vid=b83b3a47-5a74-4d6a-8dfc-1934b54d28cd"},"vehicle_type_id":"4","last_reported":1744366242,"current_range_meters":24800,"station_id":"ce4bhn12rcd13ifvqgpg","pricing_plan_id":"cebpf4jnsgd1na2vs0mg"},{"bike_id":"d6a93c9a-bc60-412c-be87-c692fd6bb868","system_id":"levelo_inurba_marseille","lat":43.3077,"lon":5.37651,"is_reserved":false,"is_disabled":true,"rental_uris":{"android":"levelo://app?vid=d6a93c9a-bc60-412c-be87-c692fd6bb868","ios":"levelo://app?vid=d6a93c9a-bc60-412c-be87-c692fd6bb868"},"vehicle_type_id":"4","last_reported":1744366242,"current_range_meters":24800,"station_id":"","pricing_plan_id":"cebpf4jnsgd1na2vs0mg"},{"bike_id":"7cd8db6d-71a8-4730-a5da-207cf4a48eec","system_id":"levelo_inurba_marseille","lat":43.29594,"lon":5.38099,"is_reserved":false,"is_disabled":false,"rental_uris":{"android":"levelo://app?vid=7cd8db6d-71a8-4730-a5da-207cf4a48eec","ios":"levelo://app?vid=7cd8db6d-71a8-4730-a5da-207cf4a48eec"},"vehicle_type_id":"4","last_reported":1744366242,"current_range_meters":25200,"station_id":"ce4bgl12rcd13ifvqbo0","pricing_plan_id":"cebpf4jnsgd1na2vs0mg"},{"bike_id":"4c9aa16d-d019-4a72-a03b-42bc7bf7896e","system_id":"levelo_inurba_marseille","lat":43.301422,"lon":5.374246,"is_reserved":false,"is_disabled":false,"rental_uris":{"android":"levelo://app?vid=4c9aa16d-d019-4a72-a03b-42bc7bf7896e","ios":"levelo://app?vid=4c9aa16d-d019-4a72-a03b-42bc7bf7896e"},"vehicle_type_id":"4","last_reported":1744366242,"current_range_meters":24800,"station_id":"ce4bgs92rcd13ifvqcc0","pricing_plan_id":"cebpf4jnsgd1na2vs0mg"},