{"last_updated":1729696144,"ttl":60,"version":"2.2","data":{"bikes":[{"bike_id":"1ba4fac4-2099-4987-b572-7bda99a09ac0","system_id":"levelo_inurba_marseille","lat":43.27619,"lon":5.3612,"is_reserved":false,"is_disabled":false,"rental_uris":{"android":"levelo://app?vid=1ba4fac4-2099-4987-b572-7bda99a09ac0","ios":"levelo://app?vid=1ba4fac4-2099-4987-b572-7bda99a09ac0"},"vehicle_type_id":"4","last_reported":1729696145,"current_range_meters":8400,"station_id":"ce4bgj92rcd13ifvqbe0","pricing_plan_id":"cebpf4jnsgd1na2vs0mg"},{"bike_id":"9c841582-1b4a-4f92-b1d8-04977f5b940a","system_id":"levelo_inurba_marseille","lat":43.31323,"lon":5.3969,"is_reserved":false,"is_disabled":false,"rental_uris":{"android":"levelo://app?vid=9c841582-1b4a-4f92-b1d8-04977f5b940a","ios":"levelo://app?vid=9c841582-1b4a-4f92-b1d8-04977f5b940a"},"vehicle_type_id":"4","last_reported":1729696145,"current_range_meters":38400,"station_id":"ce4bgvp2rcd13ifvqcu0","pricing_plan_id":"cebpf4jnsgd1na2vs0mg"},{"bike_id":"94505a83-b206-4db0-aff0-8f5678e8c521","system_id":"levelo_inurba_marseille","lat":43.24074,"lon":5.37754,"is_reserved":false,"is_disabled":false,"rental_uris":{"android":"levelo://app?vid=94505a83-b206-4db0-aff0-8f5678e8c521","ios":"levelo://app?vid=94505a83-b206-4db0-aff0-8f5678e8c521"},"vehicle_type_id":"4","last_reported":1729696145,"current_range_meters":16800,"station_id":"ce4bhnp2rcd13ifvqgvg","pricing_plan_id":"cebpf4jnsgd1na2vs0mg"},{"bike_id":"38b7faae-447a-4204-aeb0-d1c93c85d264","system_id":"levelo_inurba_marseille","lat":43.26941,"lon":5.38916,"is_reserved":false,"is_disabled":false,"rental_uris":{"android":"levelo://app?vid=38b7faae-447a-4204-aeb0-d1c93c85d264","ios":"levelo://app?vid=38b7faae-447a-4204-aeb0-d1c93c85d264"},"vehicle_type_id":"4","last_reported":1729696145,"current_range_meters":38000,"station_id":"ce4bhhh2rcd13ifvqfl0","pricing_plan_id":"cebpf4jnsgd1na2vs0mg"},{"bike_id":"064c4cf1-968c-4c8f-a2ac-547b8078fd03","system_id":"levelo_inurba_marseille","lat":43.29972,"lon":5.385,"is_reserved":false,"is_disabled":false,"rental_uris":{"android":"levelo://app?vid=064c4cf1-968c-4c8f-a2ac-547b8078fd03","ios":"levelo://app?vid=064c4cf1-968c-4c8f-a2ac-547b8078fd03"},"vehicle_type_id":"4","last_reported":1729696145,"current_range_meters":38800,"station_id":"ce4bgj92rcd13ifvqbd0","pricing_plan_id":"cebpf4jnsgd1na2vs0mg"},{"bike_id":"da2545c0-1aa1-4252-83b4-6c3657ee2a36","system_id":"levelo_inurba_marseille","lat":43.29552,"lon":5.42286,"is_reserved":false,"is_disabled":false,"rental_uris":{"android":"levelo://app?vid=da2545c0-1aa1-4252-83b4-6c3657ee2a36","ios":"levelo://app?vid=da2545c0-1aa1-4252-83b4-6c3657ee2a36"},"vehicle_type_id":"4","last_reported":1729696145,"current_range_meters":28400,"station_id":"ce4bhph2rcd13ifvqhdg","pricing_plan_id":"cebpf4jnsgd1na2vs0mg"},{"bike_id":"3b447f32-f133-490c-816b-dbc660610ee3","system_id":"levelo_inurba_marseille","lat":43.31072,"lon":5.38354,"is_reserved":false,"is_disabled":false,"rental_uris":{"android":"levelo://app?vid=3b447f32-f133-490c-816b-dbc660610ee3","ios":"levelo://app?vid=3b447f32-f133-490c-816b-dbc660610ee3"},"vehicle_type_id":"4","last_reported":1729696145,"current_range_meters":3200,"station_id":"ce4bgv92rcd13ifvqcr0","pricing_plan_id":"cebpf4jnsgd1na2vs0mg"},{"bike_id":"23d361dc-21f2-4ffe-b5f7-14fac8ceb6b0","system_id":"levelo_inurba_marseille","lat":43.28698,"lon":5.37394,"is_reserved":false,"is_disabled":false,"rental_uris":{"android":"levelo://app?vid=23d361dc-21f2-4ffe-b5f7-14fac8ceb6b0","ios":"levelo://app?vid=23d361dc-21f2-4ffe-b5f7-14fac8ceb6b0"},"vehicle_type_id":"4","last_reported":1729696145,"current_range_meters":30400,"station_id":"ce4bh3p2rcd13ifvqdq0","pricing_plan_id":"cebpf4jnsgd1na2vs0mg"},{"bike_id":"9413d072-e380-41d2-8dd9-7098a859ea7d","system_id":"levelo_inurba_marseille","lat":43.29201,"lon":5.39331,"is_reserved":false,"is_disabled":false,"rental_uris":{"android":"levelo://app?vid=9413d072-e380-41d2-8dd9-7098a859ea7d","ios":"levelo://app?vid=9413d072-e380-41d2-8dd9-7098a859ea7d"},"vehicle_type_id":"4","last_reported":1729696145,"current_range_meters":38000,"station_id":"ce4bh192rcd13ifvqdd0","pricing_plan_id":"cebpf4jnsgd1na2vs0mg"},{"bike_id":"83b74f14-9daa-43e6-8a9c-e46e75a4cf2a","system_id":"levelo_inurba_marseille","lat":43.30174,"lon":5.39159,"is_reserved":false,"is_disabled":false,"rental_uris":{"android":"levelo://app?vid=83b74f14-9daa-43e6-8a9c-e46e75a4cf2a","ios":"levelo://app?vid=83b74f14-9daa-43e6-8a9c-e46e75a4cf2a"},"vehicle_type_id":"4","last_reported":1729696145,"current_range_meters":30000,"station_id":"ce4bh0p2rcd13ifvqd70","pricing_plan_id":"cebpf4jnsgd1na2vs0mg"},{"bike_id":"bc5570b0-116e-480f-9df3-7a8dff091c99","system_id":"levelo_inurba_marseille","lat":43.24077,"lon":5.37752,"is_reserved":false,"is_disabled":false,"rental_uris":{"android":"levelo://app?vid=bc5570b0-116e-480f-9df3-7a8dff091c99","ios":"levelo://app?vid=bc5570b0-116e-480f-9df3-7a8dff091c99"},"vehicle_type_id":"4","last_reported":1729696145,"current_range_meters":38800,"station_id":"ce4bhnp2rcd13ifvqgvg","pricing_plan_id":"cebpf4jnsgd1na2vs0mg"},{"bike_id":"2925cf35-2269-457a-bd7e-bb2a5692cad3","system_id":"levelo_inurba_marseille","lat":43.29922,"lon":5.37493,"is_reserved":false,"is_disabled":false,"rental_uris":{"android":"levelo://app?vid=2925cf35-2269-457a-bd7e-bb2a5692cad3","ios":"levelo://app?vid=2925cf35-2269-457a-bd7e-bb2a5692cad3"},"vehicle_type_id":"4","last_reported":1729696145,"current_range_meters":11600,"station_id":"ce4bgjh2rcd13ifvqbg0","pricing_plan_id":"cebpf4jnsgd1na2vs0mg"},{"bike_id":"209dfcd0-bbf0-47f4-bec8-d5965ae6fff4","system_id":"levelo_inurba_marseille","lat":43.29797,"lon":5.38092,"is_reserved":false,"is_disabled":false,"rental_uris":{"android":"levelo://app?vid=209dfcd0-bbf0-47f4-bec8-d5965ae6fff4","ios":"levelo://app?vid=209dfcd0-bbf0-47f4-bec8-d5965ae6fff4"},"vehicle_type_id":"4","last_reported":1729696145,"current_range_meters":30800,"station_id":"ce4bgip2rcd13ifvqbb0","pricing_plan_id":"cebpf4jnsgd1na2vs0mg"},{"bike_id":"bb75f61d-fe91-431b-b267-ee6b1721a60c","system_id":"levelo_inurba_marseille","lat":43.30309,"lon":5.39223,"is_reserved":false,"is_disabled":false,"rental_uris":{"android":"levelo://app?vid=bb75f61d-fe91-431b-b267-ee6b1721a60c","ios":"levelo://app?vid=bb75f61d-fe91-431b-b267-ee6b1721a60c"},"vehicle_type_id":"4","last_reported":1729696145,"current_range_meters":27600,"station_id":"ce4bgkh2rcd13ifvqbk0","pricing_plan_id":"cebpf4jnsgd1na2vs0mg"},{"bike_id":"2b984dd6-9a68-4a69-b5dd-0999bcb18b2c","system_id":"levelo_inurba_marseille","lat":43.292572,"lon":5.408865,"is_reserved":false,"is_disabled":false,"rental_uris":{"android":"levelo://app?vid=2b984dd6-9a68-4a69-b5dd-0999bcb18b2c","ios":"levelo://app?vid=2b984dd6-9a68-4a69-b5dd-0999bcb18b2c"},"vehicle_type_id":"4","last_reported":1729696145,"current_range_meters":23200,"station_id":"ce4bh192rcd13ifvqdc0","pricing_plan_id":"cebpf4jnsgd1na2vs0mg"},{"bike_id":"361637d6-8e3a-447f-9c56-ec481d037196","system_id":"levelo_inurba_marseille","lat":43.26958,"lon":5.38626,"is_reserved":false,"is_disabled":false,"rental_uris":{"android":"levelo://app?vid=361637d6-8e3a-447f-9c56-ec481d037196","ios":"levelo://app?vid=361637d6-8e3a-447f-9c56-ec481d037196"},"vehicle_type_id":"4","last_reported":1729696145,"current_range_meters":38800,"station_id":"ce4bhh92rcd13ifvqfh0","pricing_plan_id":"cebpf4jnsgd1na2vs0mg"},{"bike_id":"dac3dedb-d450-41af-aade-4baf181fe677","system_id":"levelo_inurba_marseille","lat":43.27812,"lon":5.40711,"is_reserved":false,"is_disabled":false,"rental_uris":{"android":"levelo://app?vid=dac3dedb-d450-41af-aade-4baf181fe677","ios":"levelo://app?vid=dac3dedb-d450-41af-aade-4baf181fe677"},"vehicle_type_id":"4","last_reported":1729696145,"current_range_meters":28400,"station_id":"ce4bhnh2rcd13ifvqgtg","pricing_plan_id":"cebpf4jnsgd1na2vs0mg"},{"bike_id":"69bfec52-838f-439d-a124-9f89f6d8a323","system_id":"levelo_inurba_marseille","lat":43.29196,"lon":5.39321,"is_reserved":false,"is_disabled":false,"rental_uris":{"android":"levelo://app?vid=69bfec52-838f-439d-a124-9f89f6d8a323","ios":"levelo://app?vid=69bfec52-838f-439d-a124-9f89f6d8a323"},"vehicle_type_id":"4","last_reported":1729696145,"current_range_meters":31200,"station_id":"ce4bh192rcd13ifvqdd0","pricing_plan_id":"cebpf4jnsgd1na2vs0mg"},{"bike_id":"277c6240-4b00-4913-bd18-561260d0febe","system_id":"levelo_inurba_marseille","lat":43.29203,"lon":5.39336,"is_reserved":false,"is_disabled":false,"rental_uris":{"android":"levelo://app?vid=277c6240-4b00-4913-bd18-561260d0febe","ios":"levelo://app?vid=277c6240-4b00-4913-bd18-561260d0febe"},"vehicle_type_id":"4","last_reported":1729696145,"current_range_meters":14800,"station_id":"ce4bh192rcd13ifvqdd0","pricing_plan_id":"cebpf4jnsgd1na2vs0mg"},{"bike_id":"5c449356-4ac4-4d08-a405-c433fbe21a80","system_id":"levelo_inurba_marseille","lat":43.33737,"lon":5.37458,"is_reserved":false,"is_disabled":false,"rental_uris":{"android":"levelo://app?vid=5c449356-4ac4-4d08-a405-c433fbe21a80","ios":"levelo://app?vid=5c449356-4ac4-4d08-a405-c433fbe21a80"},"vehicle_type_id":"4","last_reported":1729696145,"current_range_meters":28800,"station_id":"","pricing_plan_id":"cebpf4jnsgd1na2vs0mg"},{"bike_id":"ebb969b2-cb5b-4791-a5d7-18ce4e1594b1","system_id":"levelo_inurba_marseille","lat":43.2511,"lon":5.40321,"is_reserved":false,"is_disabled":false,"rental_uris":{"android":"levelo://app?vid=ebb969b2-cb5b-4791-a5d7-18ce4e1594b1","ios":"levelo://app?vid=ebb969b2-cb5b-4791-a5d7-18ce4e1594b1"},"vehicle_type_id":"4","last_reported":1729696145,"current_range_meters":27200,"station_id":"ce4bhlh2rcd13ifvqgig","pricing_plan_id":"cebpf4jnsgd1na2vs0mg"},{"bike_id":"5beee760-8f13-406a-8087-0f037c588a4e","system_id":"levelo_inurba_marseille","lat":43.30095,"lon":5.39077,"is_reserved":false,"is_disabled":false,"rental_uris":{"android":"levelo://app?vid=5beee760-8f13-406a-8087-0f037c588a4e","ios":"levelo://app?vid=5beee760-8f13-406a-8087-0f037c588a4e"},"vehicle_type_id":"4","last_reported":1729696145,"current_range_meters":30000,"station_id":"ce4bh192rcd13ifvqdb0","pricing_plan_id":"cebpf4jnsgd1na2vs0mg"},{"bike_id":"530f3de5-0666-4848-a0bc-b2ca8214ca41","system_id":"levelo_inurba_marseille","lat":43.30891,"lon":5.37195,"is_reserved":false,"is_disabled":false,"rental_uris":{"android":"levelo://app?vid=530f3de5-0666-4848-a0bc-b2ca8214ca41","ios":"levelo://app?vid=530f3de5-0666-4848-a0bc-b2ca8214ca41"},"vehicle_type_id":"4","last_reported":1729696145,"current_range_meters":3600,"station_id":"ce4bguh2rcd13ifvqckg","pricing_plan_id":"cebpf4jnsgd1na2vs0mg"},{"bike_id":"0c6b11eb-50a7-4dc0-bff2-d8026011ec1d","system_id":"levelo_inurba_marseille","lat":43.24389,"lon":5.37057,"is_reserved":false,"is_disabled":false,"rental_uris":{"android":"levelo://app?vid=0c6b11eb-50a7-4dc0-bff2-d8026011ec1d","ios":"levelo://app?vid=0c6b11eb-50a7-4dc0-bff2-d8026011ec1d"},"vehicle_type_id":"4","last_reported":1729696145,"current_range_meters":39200,"station_id":"ce4bhhh2rcd13ifvqfk0","pricing_plan_id":"cebpf4jnsgd1na2vs0mg"},{"bike_id":"92043b13-f909-4aa6-a0d6-81c880783f37","system_id":"levelo_inurba_marseille","lat":43.24166,"lon":5.36397,"is_reserved":false,"is_disabled":false,"rental_uris":{"android":"levelo://app?vid=92043b13-f909-4aa6-a0d6-81c880783f37","ios":"levelo://app?vid=92043b13-f909-4aa6-a0d6-81c880783f37"},"vehicle_type_id":"4","last_reported":1729696145,"current_range_meters":19200,"station_id":"cpo36qri1sfpv3e86is0","pricing_plan_id":"cebpf4jnsgd1na2vs0mg"},{"bike_id":"c769be1b-4262-45e1-ae17-91133a0a1d6c","system_id":"levelo_inurba_marseille","lat":43.3053,"lon":5.36659,"is_reserved":false,"is_disabled":false,"rental_uris":{"android":"levelo://app?vid=c769be1b-4262-45e1-ae17-91133a0a1d6c","ios":"levelo://app?vid=c769be1b-4262-45e1-ae17-91133a0a1d6c"},"vehicle_type_id":"4","last_reported":1729696145,"current_range_meters":11200,"station_id":"","pricing_plan_id":"cebpf4jnsgd1na2vs0mg"},{"bike_id":"4882a116-5452-4f97-bdbd-13df4cccb9d6","system_id":"levelo_inurba_marseille","lat":43.30604,"lon":5.37244,"is_reserved":false,"is_disabled":false,"rental_uris":{"android":"levelo://app?vid=4882a116-5452-4f97-bdbd-13df4cccb9d6","ios":"levelo://app?vid=4882a116-5452-4f97-bdbd-13df4cccb9d6"},"vehicle_type_id":"4","last_reported":1729696145,"current_range_meters":28800,"station_id":"ce4bgqh2rcd13ifvqc4g","pricing_plan_id":"cebpf4jnsgd1na2vs0mg"},{"bike_id":"14faa0d7-0d75-4feb-b3a9-2fc09e338b27","system_id":"levelo_inurba_marseille","lat":43.30542,"lon":5.36706,"is_reserved":false,"is_disabled":false,"rental_uris":{"android":"levelo://app?vid=14faa0d7-0d75-4feb-b3a9-2fc09e338b27","ios":"levelo://app?vid=14faa0d7-0d75-4feb-b3a9-2fc09e338b27"},"vehicle_type_id":"4","last_reported":1729696145,"current_range_meters":24400,"station_id":"ce4bgrp2rcd13ifvqc9g","pricing_plan_id":"cebpf4jnsgd1na2vs0mg"},{"bike_id":"23bab4d6-78d3-4d58-b9ba-f315bdd64cfa","system_id":"levelo_inurba_marseille","lat":43.287254,"lon":5.379402,"is_reserved":false,"is_disabled":false,"rental_uris":{"android":"levelo://app?vid=23bab4d6-78d3-4d58-b9ba-f315bdd64cfa","ios":"levelo://app?vid=23bab4d6-78d3-4d58-b9ba-f315bdd64cfa"},"vehicle_type_id":"4","last_reported":1729696145,"current_range_meters":39200,"station_id":"ce4bh9p2rcd13ifvqec0","pricing_plan_id":"cebpf4jnsgd1na2vs0mg"},{"bike_id":"c027cf3e-e8d8-4793-8ad6-4d6274e278ba","system_id":"levelo_inurba_marseille","lat":43.23194,"lon":5.39988,"is_reserved":false,"is_disabled":false,"rental_uris":{"android":"levelo://app?vid=c027cf3e-e8d8-4793-8ad6-4d6274e278ba","ios":"levelo://app?vid=c027cf3e-e8d8-4793-8ad6-4d6274e278ba"},"vehicle_type_id":"4","last_reported":1729696145,"current_range_meters":38800,"station_id":"ce4bhn12rcd13ifvqgqg","pricing_plan_id":"cebpf4jnsgd1na2vs0mg"},{"bike_id":"71ea797b-da06-4327-92dc-47c13ec265e2","system_id":"levelo_inurba_marseille","lat":43.30538,"lon":5.36529,"is_reserved":false,"is_disabled":false,"rental_uris":{"android":"levelo://app?vid=71ea797b-da06-4327-92dc-47c13ec265e2","ios":"levelo://app?vid=71ea797b-da06-4327-92dc-47c13ec265e2"},"vehicle_type_id":"4","last_reported":1729696145,"current_range_meters":37600,"station_id":"ce4bgs12rcd13ifvqcag","pricing_plan_id":"cebpf4jnsgd1na2vs0mg"},{"bike_id":"93f636f8-56f7-41de-b313-6a0046392223","system_id":"levelo_inurba_marseille","lat":43.28374,"lon":5.38638,"is_reserved":false,"is_disabled":false,"rental_uris":{"android":"levelo://app?vid=93f636f8-56f7-41de-b313-6a0046392223","ios":"levelo://app?vid=93f636f8-56f7-41de-b313-6a0046392223"},"vehicle_type_id":"4","last_reported":1729696145,"current_range_meters":38800,"station_id":"ce4bh492rcd13ifvqdvg","pricing_plan_id":"cebpf4jnsgd1na2vs0mg"},{"bike_id":"4fdcbfb6-fc87-4bf8-a9d3-328c755a8191","system_id":"levelo_inurba_marseille","lat":43.29424,"lon":5.38631,"is_reserved":false,"is_disabled":false,"rental_uris":{"android":"levelo://app?vid=4fdcbfb6-fc87-4bf8-a9d3-328c755a8191","ios":"levelo://app?vid=4fdcbfb6-fc87-4bf8-a9d3-328c755a8191"},"vehicle_type_id":"4","last_reported":1729696145,"current_range_meters":23200,"station_id":"ce4bh2h2rcd13ifvqdh0","pricing_plan_id":"cebpf4jnsgd1na2vs0mg"},{"bike_id":"4d3d3675-63e1-4ca9-bb45-8405dabcd757","system_id":"levelo_inurba_marseille","lat":43.29162,"lon":5.37158,"is_reserved":false,"is_disabled":false,"rental_uris":{"android":"levelo://app?vid=4d3d3675-63e1-4ca9-bb45-8405dabcd757","ios":"levelo://app?vid=4d3d3675-63e1-4ca9-bb45-8405dabcd757"},"vehicle_type_id":"4","last_reported":1729696145,"current_range_meters":6800,"station_id":"ce4bha92rcd13ifvqeh0","pricing_plan_id":"cebpf4jnsgd1na2vs0mg"},{"bike_id":"44354070-3524-4525-8b97-4bde360111a4","system_id":"levelo_inurba_marseille","lat":43.29686,"lon":5.37293,"is_reserved":false,"is_disabled":false,"rental_uris":{"android":"levelo://app?vid=44354070-3524-4525-8b97-4bde360111a4","ios":"levelo://app?vid=44354070-3524-4525-8b97-4bde360111a4"},"vehicle_type_id":"4","last_reported":1729696145,"current_range_meters":14400,"station_id":"ce4bgk12rcd13ifvqbj0","pricing_plan_id":"cebpf4jnsgd1na2vs0mg"},{"bike_id":"1cf32a5c-2f66-46c1-9ee4-97867b3feeac","system_id":"levelo_inurba_marseille","lat":43.26205,"lon":5.37926,"is_reserved":false,"is_disabled":false,"rental_uris":{"android":"levelo://app?vid=1cf32a5c-2f66-46c1-9ee4-97867b3feeac","ios":"levelo://app?vid=1cf32a5c-2f66-46c1-9ee4-97867b3feeac"},"vehicle_type_id":"4","last_reported":1729696145,"current_range_meters":37600,"station_id":"ce4bhjp2rcd13ifvqg90","pricing_plan_id":"cebpf4jnsgd1na2vs0mg"},{"bike_id":"196b7830-d643-43f3-ae6b-5e84394dde95","system_id":"levelo_inurba_marseille","lat":43.295734,"lon":5.400028,"is_reserved":false,"is_disabled":false,"rental_uris":{"android":"levelo://app?vid=196b7830-d643-43f3-ae6b-5e84394dde95","ios":"levelo://app?vid=196b7830-d643-43f3-ae6b-5e84394dde95"},"vehicle_type_id":"4","last_reported":1729696145,"current_range_meters":38400,"station_id":"ce4bh312rcd13ifvqdj0","pricing_plan_id":"cebpf4jnsgd1na2vs0mg"},{"bike_id":"3f07f4a5-23e7-4fc7-8459-4744adf122a1","system_id":"levelo_inurba_marseille","lat":43.30931,"lon":5.40145,"is_reserved":false,"is_disabled":false,"rental_uris":{"android":"levelo://app?vid=3f07f4a5-23e7-4fc7-8459-4744adf122a1","ios":"levelo://app?vid=3f07f4a5-23e7-4fc7-8459-4744adf122a1"},"vehicle_type_id":"4","last_reported":1729696145,"current_range_meters":25200,"station_id":"ce4bgvp2rcd13ifvqct0","pricing_plan_id":"cebpf4jnsgd1na2vs0mg"},{"bike_id":"98809efd-d966-43b2-afb4-49ed10965dcc","system_id":"levelo_inurba_marseille","lat":43.29933,"lon":5.36543,"is_reserved":false,"is_disabled":false,"rental_uris":{"android":"levelo://app?vid=98809efd-d966-43b2-afb4-49ed10965dcc","ios":"levelo://app?vid=98809efd-d966-43b2-afb4-49ed10965dcc"},"vehicle_type_id":"4","last_reported":1729696145,"current_range_meters":38800,"station_id":"ce4bgm92rcd13ifvqbr0","pricing_plan_id":"cebpf4jnsgd1na2vs0mg"},{"bike_id":"f0216897-a3d6-4346-8831-83124e6345e7","system_id":"levelo_inurba_marseille","lat":43.24648,"lon":5.38892,"is_reserved":false,"is_disabled":false,"rental_uris":{"android":"levelo://app?vid=f0216897-a3d6-4346-8831-83124e6345e7","ios":"levelo://app?vid=f0216897-a3d6-4346-8831-83124e6345e7"},"vehicle_type_id":"4","last_reported":1729696145,"current_range_meters":22800,"station_id":"ce4bhg12rcd13ifvqf60","pricing_plan_id":"cebpf4jnsgd1na2vs0mg"},{"bike_id":"95fee7e6-545f-489f-9112-f7df4d5c732c","system_id":"levelo_inurba_marseille","lat":43.31119,"lon":5.37766,"is_reserved":false,"is_disabled":false,"rental_uris":{"android":"levelo://app?vid=95fee7e6-545f-489f-9112-f7df4d5c732c","ios":"levelo://app?vid=95fee7e6-545f-489f-9112-f7df4d5c732c"},"vehicle_type_id":"4","last_reported":1729696145,"current_range_meters":38800,"station_id":"ce4bgt92rcd13ifvqcg0","pricing_plan_id":"cebpf4jnsgd1na2vs0mg"},{"bike_id":"8487a3e6-8a12-4a47-8277-0d4988a4cd52","system_id":"levelo_inurba_marseille","lat":43.27053,"lon":5.40263,"is_reserved":false,"is_disabled":false,"rental_uris":{"android":"levelo://app?vid=8487a3e6-8a12-4a47-8277-0d4988a4cd52","ios":"levelo://app?vid=8487a3e6-8a12-4a47-8277-0d4988a4cd52"},"vehicle_type_id":"4","last_reported":1729696145,"current_range_meters":13600,"station_id":"ce4bhk92rcd13ifvqgc0","pricing_plan_id":"cebpf4jnsgd1na2vs0mg"},{"bike_id":"4298a86d-7cb2-4288-83c2-9d2d53b5fa29","system_id":"levelo_inurba_marseille","lat":43.27073,"lon":5.4228,"is_reserved":false,"is_disabled":false,"rental_uris":{"android":"levelo://app?vid=4298a86d-7cb2-4288-83c2-9d2d53b5fa29","ios":"levelo://app?vid=4298a86d-7cb2-4288-83c2-9d2d53b5fa29"},"vehicle_type_id":"4","last_reported":1729696145,"current_range_meters":29600,"station_id":"ce4bhk92rcd13ifvqgb0","pricing_plan_id":"cebpf4jnsgd1na2vs0mg"},{"bike_id":"3e41417e-0b0c-4908-8670-c6d49ee292be","system_id":"levelo_inurba_marseille","lat":43.33758,"lon":5.37429,"is_reserved":false,"is_disabled":false,"rental_uris":{"android":"levelo://app?vid=3e41417e-0b0c-4908-8670-c6d49ee292be","ios":"levelo://app?vid=3e41417e-0b0c-4908-8670-c6d49ee292be"},"vehicle_type_id":"4","last_reported":1729696145,"current_range_meters":36000,"station_id":"","pricing_plan_id":"cebpf4jnsgd1na2vs0mg"},{"bike_id":"c0577493-6fdf-4288-93e2-1efb6212ffea","system_id":"levelo_inurba_marseille","lat":43.33021,"lon":5.39041,"is_reserved":false,"is_disabled":false,"rental_uris":{"android":"levelo://app?vid=c0577493-6fdf-4288-93e2-1efb6212ffea","ios":"levelo://app?vid=c0577493-6fdf-4288-93e2-1efb6212ffea"},"vehicle_type_id":"4","last_reported":1729696145,"current_range_meters":39200,"station_id":"ce4bhr92rcd13ifvqhrg","pricing_plan_id":"cebpf4jnsgd1na2vs0mg"},{"bike_id":"94e6196d-026c-464b-bdde-4653130724fc","system_id":"levelo_inurba_marseille","lat":43.27683,"lon":5.3887,"is_reserved":false,"is_disabled":false,"rental_uris":{"android":"levelo://app?vid=94e6196d-026c-464b-bdde-4653130724fc","ios":"levelo://app?vid=94e6196d-026c-464b-bdde-4653130724fc"},"vehicle_type_id":"4","last_reported":1729696145,"current_range_meters":27600,"station_id":"ce4bhi12rcd13ifvqfo0","pricing_plan_id":"cebpf4jnsgd1na2vs0mg"},{"bike_id":"8333273b-466c-4f2e-975d-cb801bd21820","system_id":"levelo_inurba_marseille","lat":43.29978,"lon":5.385,"is_reserved":false,"is_disabled":false,"rental_uris":{"android":"levelo://app?vid=8333273b-466c-4f2e-975d-cb801bd21820","ios":"levelo://app?vid=8333273b-466c-4f2e-975d-cb801bd21820"},"vehicle_type_id":"4","last_reported":1729696145,"current_range_meters":30800,"station_id":"ce4bgj92rcd13ifvqbd0","pricing_plan_id":"cebpf4jnsgd1na2vs0mg"},{"bike_id":"073863b4-0a14-40d3-adba-f29fea27f4c3","system_id":"levelo_inurba_marseille","lat":43.30362,"lon":5.41883,"is_reserved":false,"is_disabled":false,"rental_uris":{"android":"levelo://app?vid=073863b4-0a14-40d3-adba-f29fea27f4c3","ios":"levelo://app?vid=073863b4-0a14-40d3-adba-f29fea27f4c3"},"vehicle_type_id":"4","last_reported":1729696145,"current_range_meters":10800,"station_id":"ce4bhop2rcd13ifvqh7g","pricing_plan_id":"cebpf4jnsgd1na2vs0mg"},{"bike_id":"5163a10a-ab0d-4290-a728-048330f69281","system_id":"levelo_inurba_marseille","lat":43.313312,"lon":5.396895,"is_reserved":false,"is_disabled":false,"rental_uris":{"android":"levelo://app?vid=5163a10a-ab0d-4290-a728-048330f69281","ios":"levelo://app?vid=5163a10a-ab0d-4290-a728-048330f69281"},"vehicle_type_id":"4","last_reported":1729696145,"current_range_meters":35600,"station_id":"ce4bgvp2rcd13ifvqcu0","pricing_plan_id":"cebpf4jnsgd1na2vs0mg"},{"bike_id":"aecdb3de-c6d8-4f20-a9c0-15655d5ba9af","system_id":"levelo_inurba_marseille","lat":43.25587,"lon":5.38233,"is_reserved":false,"is_disabled":false,"rental_uris":{"android":"levelo://app?vid=aecdb3de-c6d8-4f20-a9c0-15655d5ba9af","ios":"levelo://app?vid=aecdb3de-c6d8-4f20-a9c0-15655d5ba9af"},"vehicle_type_id":"4","last_reported":1729696145,"current_range_meters":25200,"station_id":"ce4bhih2rcd13ifvqfs0","pricing_plan_id":"cebpf4jnsgd1na2vs0mg"},{"bike_id":"cbe10c03-fb85-436f-9ae4-c9a8a717f05b","system_id":"levelo_inurba_marseille","lat":43.3124,"lon":5.36874,"is_reserved":false,"is_disabled":false,"rental_uris":{"android":"levelo://app?vid=cbe10c03-fb85-436f-9ae4-c9a8a717f05b","ios":"levelo://app?vid=cbe10c03-fb85-436f-9ae4-c9a8a717f05b"},"vehicle_type_id":"4","last_reported":1729696145,"current_range_meters":39200,"station_id":"ce4bgl92rcd13ifvqbq0","pricing_plan_id":"cebpf4jnsgd1na2vs0mg"},{"bike_id":"8c21a646-e407-4d61-9538-182ced2a93a9","system_id":"levelo_inurba_marseille","lat":43.26808,"lon":5.40261,"is_reserved":false,"is_disabled":false,"rental_uris":{"android":"levelo://app?vid=8c21a646-e407-4d61-9538-182ced2a93a9","ios":"levelo://app?vid=8c21a646-e407-4d61-9538-182ced2a93a9"},"vehicle_type_id":"4","last_reported":1729696145,"current_range_meters":24000,"station_id":"ce501612rcd8frsf0b60","pricing_plan_id":"cebpf4jnsgd1na2vs0mg"},{"bike_id":"e4c01e63-57c9-42fd-abc8-1eaf29405462","system_id":"levelo_inurba_marseille","lat":43.28704,"lon":5.37394,"is_reserved":false,"is_disabled":false,"rental_uris":{"android":"levelo://app?vid=e4c01e63-57c9-42fd-abc8-1eaf29405462","ios":"levelo://app?vid=e4c01e63-57c9-42fd-abc8-1eaf29405462"},"vehicle_type_id":"4","last_reported":1729696145,"current_range_meters":28400,"station_id":"ce4bh3p2rcd13ifvqdq0","pricing_plan_id":"cebpf4jnsgd1na2vs0mg"},{"bike_id":"f909380b-42c8-426c-bc58-38b8ee3d4113","system_id":"levelo_inurba_marseille","lat":43.30142,"lon":5.38787,"is_reserved":false,"is_disabled":false,"rental_uris":{"android":"levelo://app?vid=f909380b-42c8-426c-bc58-38b8ee3d4113","ios":"levelo://app?vid=f909380b-42c8-426c-bc58-38b8ee3d4113"},"vehicle_type_id":"4","last_reported":1729696145,"current_range_meters":24000,"station_id":"ce4bghh2rcd13ifvqb60","pricing_plan_id":"cebpf4jnsgd1na2vs0mg"},{"bike_id":"a7637756-0453-43be-b9f3-226ada5aa45e","system_id":"levelo_inurba_marseille","lat":43.33609,"lon":5.41036,"is_reserved":false,"is_disabled":false,"rental_uris":{"android":"levelo://app?vid=a7637756-0453-43be-b9f3-226ada5aa45e","ios":"levelo://app?vid=a7637756-0453-43be-b9f3-226ada5aa45e"},"vehicle_type_id":"4","last_reported":1729696145,"current_range_meters":29600,"station_id":"ce4bhqh2rcd13ifvqhmg","pricing_plan_id":"cebpf4jnsgd1na2vs0mg"},{"bike_id":"a52155ec-0b03-4964-a8a0-d14d868c0ac1","system_id":"levelo_inurba_marseille","lat":43.33106,"lon":5.43171,"is_reserved":false,"is_disabled":false,"rental_uris":{"android":"levelo://app?vid=a52155ec-0b03-4964-a8a0-d14d868c0ac1","ios":"levelo://app?vid=a52155ec-0b03-4964-a8a0-d14d868c0ac1"},"vehicle_type_id":"4","last_reported":1729696145,"current_range_meters":28800,"station_id":"","pricing_plan_id":"cebpf4jnsgd1na2vs0mg"},{"bike_id":"62624ed0-079d-4dc7-b991-df8db2b29490","system_id":"levelo_inurba_marseille","lat":43.30795,"lon":5.38162,"is_reserved":false,"is_disabled":false,"rental_uris":{"android":"levelo://app?vid=62624ed0-079d-4dc7-b991-df8db2b29490","ios":"levelo://app?vid=62624ed0-079d-4dc7-b991-df8db2b29490"},"vehicle_type_id":"4","last_reported":1729696145,"current_range_meters":33200,"station_id":"ce4bgt12rcd13ifvqce0","pricing_plan_id":"cebpf4jnsgd1na2vs0mg"},{"bike_id":"2df57d9c-b025-4fc9-a0c0-a69158eb59f3","system_id":"levelo_inurba_marseille","lat":43.32113,"lon":5.36765,"is_reserved":false,"is_disabled":false,"rental_uris":{"android":"levelo://app?vid=2df57d9c-b025-4fc9-a0c0-a69158eb59f3","ios":"levelo://app?vid=2df57d9c-b025-4fc9-a0c0-a69158eb59f3"},"vehicle_type_id":"4","last_reported":1729696145,"current_range_meters":18000,"station_id":"ce4bhrh2rcd13ifvqhug","pricing_plan_id":"cebpf4jnsgd1na2vs0mg"},{"bike_id":"53d78d43-790e-42e4-9da9-6899a6ba8441","system_id":"levelo_inurba_marseille","lat":43.32113,"lon":5.36778,"is_reserved":false,"is_disabled":false,"rental_uris":{"android":"levelo://app?vid=53d78d43-790e-42e4-9da9-6899a6ba8441","ios":"levelo://app?vid=53d78d43-790e-42e4-9da9-6899a6ba8441"},"vehicle_type_id":"4","last_reported":1729696145,"current_range_meters":24400,"station_id":"ce4bhrh2rcd13ifvqhug","pricing_plan_id":"cebpf4jnsgd1na2vs0mg"},{"bike_id":"06dd2ee9-7252-4e6e-a9d1-15a17d7a2cf0","system_id":"levelo_inurba_marseille","lat":43.30538,"lon":5.36546,"is_reserved":false,"is_disabled":false,"rental_uris":{"android":"levelo://app?vid=06dd2ee9-7252-4e6e-a9d1-15a17d7a2cf0","ios":"levelo://app?vid=06dd2ee9-7252-4e6e-a9d1-15a17d7a2cf0"},"vehicle_type_id":"4","last_reported":1729696145,"current_range_meters":14400,"station_id":"ce4bgs12rcd13ifvqcag","pricing_plan_id":"cebpf4jnsgd1na2vs0mg"},{"bike_id":"00736555-2b28-4c37-9ab9-343f8bb6c201","system_id":"levelo_inurba_marseille","lat":43.28609,"lon":5.37067,"is_reserved":false,"is_disabled":false,"rental_uris":{"android":"levelo://app?vid=00736555-2b28-4c37-9ab9-343f8bb6c201","ios":"levelo://app?vid=00736555-2b28-4c37-9ab9-343f8bb6c201"},"vehicle_type_id":"4","last_reported":1729696145,"current_range_meters":9200,"station_id":"ce4bht12rcd13ifvqi60","pricing_plan_id":"cebpf4jnsgd1na2vs0mg"},{"bike_id":"d11144d8-7dc9-4cd6-a909-199a15988c11","system_id":"levelo_inurba_marseille","lat":43.27323,"lon":5.39093,"is_reserved":false,"is_disabled":false,"rental_uris":{"android":"levelo://app?vid=d11144d8-7dc9-4cd6-a909-199a15988c11","ios":"levelo://app?vid=d11144d8-7dc9-4cd6-a909-199a15988c11"},"vehicle_type_id":"4","last_reported":1729696145,"current_range_meters":16400,"station_id":"ce4bhgp2rcd13ifvqfe0","pricing_plan_id":"cebpf4jnsgd1na2vs0mg"},{"bike_id":"be9773f2-0210-449f-bdb9-515efac7263f","system_id":"levelo_inurba_marseille","lat":43.31326,"lon":5.39695,"is_reserved":false,"is_disabled":false,"rental_uris":{"android":"levelo://app?vid=be9773f2-0210-449f-bdb9-515efac7263f","ios":"levelo://app?vid=be9773f2-0210-449f-bdb9-515efac7263f"},"vehicle_type_id":"4","last_reported":1729696145,"current_range_meters":39200,"station_id":"ce4bgvp2rcd13ifvqcu0","pricing_plan_id":"cebpf4jnsgd1na2vs0mg"},{"bike_id":"52b9f897-4657-4477-ae6c-12dcfb65a4b7","system_id":"levelo_inurba_marseille","lat":43.240814,"lon":5.377549,"is_reserved":false,"is_disabled":false,"rental_uris":{"android":"levelo://app?vid=52b9f897-4657-4477-ae6c-12dcfb65a4b7","ios":"levelo://app?vid=52b9f897-4657-4477-ae6c-12dcfb65a4b7"},"vehicle_type_id":"4","last_reported":1729696145,"current_range_meters":20000,"station_id":"ce4bhgh2rcd13ifvqfa0","pricing_plan_id":"cebpf4jnsgd1na2vs0mg"},{"bike_id":"9639bebd-201e-4b55-9187-2633b106e19c","system_id":"levelo_inurba_marseille","lat":43.3302,"lon":5.39034,"is_reserved":false,"is_disabled":false,"rental_uris":{"android":"levelo://app?vid=9639bebd-201e-4b55-9187-2633b106e19c","ios":"levelo://app?vid=9639bebd-201e-4b55-9187-2633b106e19c"},"vehicle_type_id":"4","last_reported":1729696145,"current_range_meters":39200,"station_id":"ce4bhr92rcd13ifvqhrg","pricing_plan_id":"cebpf4jnsgd1na2vs0mg"},{"bike_id":"ca397957-c33b-44bd-a071-f0711feee1a3","system_id":"levelo_inurba_marseille","lat":43.28262,"lon":5.35074,"is_reserved":false,"is_disabled":false,"rental_uris":{"android":"levelo://app?vid=ca397957-c33b-44bd-a071-f0711feee1a3","ios":"levelo://app?vid=ca397957-c33b-44bd-a071-f0711feee1a3"},"vehicle_type_id":"4","last_reported":1729696145,"current_range_meters":30000,"station_id":"ce4bhbp2rcd13ifvqerg","pricing_plan_id":"cebpf4jnsgd1na2vs0mg"},{"bike_id":"238a4743-8ee1-4653-a486-66808851fdc5","system_id":"levelo_inurba_marseille","lat":43.2894,"lon":5.36642,"is_reserved":false,"is_disabled":false,"rental_uris":{"android":"levelo://app?vid=238a4743-8ee1-4653-a486-66808851fdc5","ios":"levelo://app?vid=238a4743-8ee1-4653-a486-66808851fdc5"},"vehicle_type_id":"4","last_reported":1729696145,"current_range_meters":8400,"station_id":"ce4bhap2rcd13ifvqek0","pricing_plan_id":"cebpf4jnsgd1na2vs0mg"},{"bike_id":"18838cb4-8403-47c3-a296-5ce5399c6ba1","system_id":"levelo_inurba_marseille","lat":43.28614,"lon":5.37057,"is_reserved":false,"is_disabled":false,"rental_uris":{"android":"levelo://app?vid=18838cb4-8403-47c3-a296-5ce5399c6ba1","ios":"levelo://app?vid=18838cb4-8403-47c3-a296-5ce5399c6ba1"},"vehicle_type_id":"4","last_reported":1729696145,"current_range_meters":16000,"station_id":"ce4bht12rcd13ifvqi60","pricing_plan_id":"cebpf4jnsgd1na2vs0mg"},{"bike_id":"ae2ce2d4-fc19-4d51-989f-983c86c83842","system_id":"levelo_inurba_marseille","lat":43.3302,"lon":5.39041,"is_reserved":false,"is_disabled":false,"rental_uris":{"android":"levelo://app?vid=ae2ce2d4-fc19-4d51-989f-983c86c83842","ios":"levelo://app?vid=ae2ce2d4-fc19-4d51-989f-983c86c83842"},"vehicle_type_id":"4","last_reported":1729696145,"current_range_meters":38800,"station_id":"ce4bhr92rcd13ifvqhrg","pricing_plan_id":"cebpf4jnsgd1na2vs0mg"},{"bike_id":"26544c47-13ba-40a0-affa-6c9daa374698","system_id":"levelo_inurba_marseille","lat":43.31457,"lon":5.37377,"is_reserved":false,"is_disabled":false,"rental_uris":{"android":"levelo://app?vid=26544c47-13ba-40a0-affa-6c9daa374698","ios":"levelo://app?vid=26544c47-13ba-40a0-affa-6c9daa374698"},"vehicle_type_id":"4","last_reported":1729696145,"current_range_meters":38000,"station_id":"","pricing_plan_id":"cebpf4jnsgd1na2vs0mg"},{"bike_id":"c2ce141d-6e76-44dc-931b-253d09157587","system_id":"levelo_inurba_marseille","lat":43.25006,"lon":5.38941,"is_reserved":false,"is_disabled":false,"rental_uris":{"android":"levelo://app?vid=c2ce141d-6e76-44dc-931b-253d09157587","ios":"levelo://app?vid=c2ce141d-6e76-44dc-931b-253d09157587"},"vehicle_type_id":"4","last_reported":1729696145,"current_range_meters":37600,"station_id":"ce4bhgp2rcd13ifvqfd0","pricing_plan_id":"cebpf4jnsgd1na2vs0mg"},{"bike_id":"de3874c6-d4ee-42b7-aad9-5d291e0f3525","system_id":"levelo_inurba_marseille","lat":43.289445,"lon":5.363951,"is_reserved":false,"is_disabled":false,"rental_uris":{"android":"levelo://app?vid=de3874c6-d4ee-42b7-aad9-5d291e0f3525","ios":"levelo://app?vid=de3874c6-d4ee-42b7-aad9-5d291e0f3525"},"vehicle_type_id":"4","last_reported":1729696145,"current_range_meters":36000,"station_id":"ce4bhc92rcd13ifvqetg","pricing_plan_id":"cebpf4jnsgd1na2vs0mg"},{"bike_id":"fcaca456-3b1b-47e9-a4c6-4d0227fff4cb","system_id":"levelo_inurba_marseille","lat":43.29258,"lon":5.40922,"is_reserved":false,"is_disabled":false,"rental_uris":{"android":"levelo://app?vid=fcaca456-3b1b-47e9-a4c6-4d0227fff4cb","ios":"levelo://app?vid=fcaca456-3b1b-47e9-a4c6-4d0227fff4cb"},"vehicle_type_id":"4","last_reported":1729696145,"current_range_meters":22800,"station_id":"ce4bh192rcd13ifvqdc0","pricing_plan_id":"cebpf4jnsgd1na2vs0mg"},{"bike_id":"005222e6-3f57-462e-980c-0c87063d00fa","system_id":"levelo_inurba_marseille","lat":43.31092,"lon":5.38368,"is_reserved":false,"is_disabled":false,"rental_uris":{"android":"levelo://app?vid=005222e6-3f57-462e-980c-0c87063d00fa","ios":"levelo://app?vid=005222e6-3f57-462e-980c-0c87063d00fa"},"vehicle_type_id":"4","last_reported":1729696145,"current_range_meters":17200,"station_id":"ce4bgv92rcd13ifvqcr0","pricing_plan_id":"cebpf4jnsgd1na2vs0mg"},{"bike_id":"f5ede32b-5e29-4acd-8154-16151d063f45","system_id":"levelo_inurba_marseille","lat":43.29897,"lon":5.38156,"is_reserved":false,"is_disabled":false,"rental_uris":{"android":"levelo://app?vid=f5ede32b-5e29-4acd-8154-16151d063f45","ios":"levelo://app?vid=f5ede32b-5e29-4acd-8154-16151d063f45"},"vehicle_type_id":"4","last_reported":1729696145,"current_range_meters":36800,"station_id":"ce4bgj12rcd13ifvqbc0","pricing_plan_id":"cebpf4jnsgd1na2vs0mg"},{"bike_id":"082f0729-8e16-409c-8848-7fe448ff6000","system_id":"levelo_inurba_marseille","lat":43.29981,"lon":5.37179,"is_reserved":false,"is_disabled":false,"rental_uris":{"android":"levelo://app?vid=082f0729-8e16-409c-8848-7fe448ff6000","ios":"levelo://app?vid=082f0729-8e16-409c-8848-7fe448ff6000"},"vehicle_type_id":"4","last_reported":1729696145,"current_range_meters":26000,"station_id":"ce4bgr92rcd13ifvqc7g","pricing_plan_id":"cebpf4jnsgd1na2vs0mg"},{"bike_id":"7a942e2e-3f89-41b6-aa6e-24f40537faa3","system_id":"levelo_inurba_marseille","lat":43.25828,"lon":5.39429,"is_reserved":false,"is_disabled":false,"rental_uris":{"android":"levelo://app?vid=7a942e2e-3f89-41b6-aa6e-24f40537faa3","ios":"levelo://app?vid=7a942e2e-3f89-41b6-aa6e-24f40537faa3"},"vehicle_type_id":"4","last_reported":1729696145,"current_range_meters":6000,"station_id":"ce4bhip2rcd13ifvqft0","pricing_plan_id":"cebpf4jnsgd1na2vs0mg"},{"bike_id":"98fe8c8a-3938-4232-93c6-2f71b021ed86","system_id":"levelo_inurba_marseille","lat":43.30549,"lon":5.3654,"is_reserved":false,"is_disabled":false,"rental_uris":{"android":"levelo://app?vid=98fe8c8a-3938-4232-93c6-2f71b021ed86","ios":"levelo://app?vid=98fe8c8a-3938-4232-93c6-2f71b021ed86"},"vehicle_type_id":"4","last_reported":1729696145,"current_range_meters":28400,"station_id":"ce4bgs12rcd13ifvqcag","pricing_plan_id":"cebpf4jnsgd1na2vs0mg"},{"bike_id":"1dfff9ab-5c94-4626-8370-9c35c9f93410","system_id":"levelo_inurba_marseille","lat":43.28618,"lon":5.35102,"is_reserved":false,"is_disabled":false,"rental_uris":{"android":"levelo://app?vid=1dfff9ab-5c94-4626-8370-9c35c9f93410","ios":"levelo://app?vid=1dfff9ab-5c94-4626-8370-9c35c9f93410"},"vehicle_type_id":"4","last_reported":1729696145,"current_range_meters":38400,"station_id":"ce4bhch2rcd13ifvqeug","pricing_plan_id":"cebpf4jnsgd1na2vs0mg"},{"bike_id":"f483f593-b27a-45bc-a949-0596e90322bd","system_id":"levelo_inurba_marseille","lat":43.30551,"lon":5.36528,"is_reserved":false,"is_disabled":false,"rental_uris":{"android":"levelo://app?vid=f483f593-b27a-45bc-a949-0596e90322bd","ios":"levelo://app?vid=f483f593-b27a-45bc-a949-0596e90322bd"},"vehicle_type_id":"4","last_reported":1729696145,"current_range_meters":4800,"station_id":"ce4bgs12rcd13ifvqcag","pricing_plan_id":"cebpf4jnsgd1na2vs0mg"},{"bike_id":"927a9ca0-9f48-493a-8d09-f98c0f0c1f2a","system_id":"levelo_inurba_marseille","lat":43.26807,"lon":5.40262,"is_reserved":false,"is_disabled":false,"rental_uris":{"android":"levelo://app?vid=927a9ca0-9f48-493a-8d09-f98c0f0c1f2a","ios":"levelo://app?vid=927a9ca0-9f48-493a-8d09-f98c0f0c1f2a"},"vehicle_type_id":"4","last_reported":1729696145,"current_range_meters":39200,"station_id":"ce501612rcd8frsf0b60","pricing_plan_id":"cebpf4jnsgd1na2vs0mg"},{"bike_id":"945ad10d-c951-4d28-b5ae-c14a3ffa3ffe","system_id":"levelo_inurba_marseille","lat":43.30536,"lon":5.36701,"is_reserved":false,"is_disabled":false,"rental_uris":{"android":"levelo://app?vid=945ad10d-c951-4d28-b5ae-c14a3ffa3ffe","ios":"levelo://app?vid=945ad10d-c951-4d28-b5ae-c14a3ffa3ffe"},"vehicle_type_id":"4","last_reported":1729696145,"current_range_meters":39200,"station_id":"ce4bgrp2rcd13ifvqc9g","pricing_plan_id":"cebpf4jnsgd1na2vs0mg"},{"bike_id":"e8a88410-dafc-44fc-9302-8a9ea29a82fa","system_id":"levelo_inurba_marseille","lat":43.24078,"lon":5.3776,"is_reserved":false,"is_disabled":false,"rental_uris":{"android":"levelo://app?vid=e8a88410-dafc-44fc-9302-8a9ea29a82fa","ios":"levelo://app?vid=e8a88410-dafc-44fc-9302-8a9ea29a82fa"},"vehicle_type_id":"4","last_reported":1729696145,"current_range_meters":7200,"station_id":"ce4bhnp2rcd13ifvqgvg","pricing_plan_id":"cebpf4jnsgd1na2vs0mg"},{"bike_id":"184b0eb9-d9a4-42d2-bdec-6087e7423df5","system_id":"levelo_inurba_marseille","lat":43.29263,"lon":5.4092,"is_reserved":false,"is_disabled":false,"rental_uris":{"android":"levelo://app?vid=184b0eb9-d9a4-42d2-bdec-6087e7423df5","ios":"levelo://app?vid=184b0eb9-d9a4-42d2-bdec-6087e7423df5"},"vehicle_type_id":"4","last_reported":1729696145,"current_range_meters":38800,"station_id":"ce4bh192rcd13ifvqdc0","pricing_plan_id":"cebpf4jnsgd1na2vs0mg"},{"bike_id":"51fbbbb4-a315-4750-9d29-39cc871841a7","system_id":"levelo_inurba_marseille","lat":43.290527,"lon":5.399514,"is_reserved":false,"is_disabled":false,"rental_uris":{"android":"levelo://app?vid=51fbbbb4-a315-4750-9d29-39cc871841a7","ios":"levelo://app?vid=51fbbbb4-a315-4750-9d29-39cc871841a7"},"vehicle_type_id":"4","last_reported":1729696145,"current_range_meters":22800,"station_id":"ce4bh392rcd13ifvqdm0","pricing_plan_id":"cebpf4jnsgd1na2vs0mg"},{"bike_id":"0878f0be-ee74-4e14-b961-a99e2658adc0","system_id":"levelo_inurba_marseille","lat":43.27074,"lon":5.4228,"is_reserved":false,"is_disabled":false,"rental_uris":{"android":"levelo://app?vid=0878f0be-ee74-4e14-b961-a99e2658adc0","ios":"levelo://app?vid=0878f0be-ee74-4e14-b961-a99e2658adc0"},"vehicle_type_id":"4","last_reported":1729696145,"current_range_meters":31200,"station_id":"ce4bhk92rcd13ifvqgb0","pricing_plan_id":"cebpf4jnsgd1na2vs0mg"},{"bike_id":"7d9bae66-75c0-414c-b6e5-1dae4af5c1cb","system_id":"levelo_inurba_marseille","lat":43.22929,"lon":5.35377,"is_reserved":false,"is_disabled":false,"rental_uris":{"android":"levelo://app?vid=7d9bae66-75c0-414c-b6e5-1dae4af5c1cb","ios":"levelo://app?vid=7d9bae66-75c0-414c-b6e5-1dae4af5c1cb"},"vehicle_type_id":"4","last_reported":1729696145,"current_range_meters":36800,"station_id":"cpo3532slgdg3j2ikp40","pricing_plan_id":"cebpf4jnsgd1na2vs0mg"},{"bike_id":"4e276d42-566f-4f66-b5ef-13abb1b4295a","system_id":"levelo_inurba_marseille","lat":43.30142,"lon":5.38783,"is_reserved":false,"is_disabled":false,"rental_uris":{"android":"levelo://app?vid=4e276d42-566f-4f66-b5ef-13abb1b4295a","ios":"levelo://app?vid=4e276d42-566f-4f66-b5ef-13abb1b4295a"},"vehicle_type_id":"4","last_reported":1729696145,"current_range_meters":7200,"station_id":"ce4bghh2rcd13ifvqb60","pricing_plan_id":"cebpf4jnsgd1na2vs0mg"},{"bike_id":"580ba027-ede8-4ff8-833c-4b7ab776138c","system_id":"levelo_inurba_marseille","lat":43.3107,"lon":5.38361,"is_reserved":false,"is_disabled":false,"rental_uris":{"android":"levelo://app?vid=580ba027-ede8-4ff8-833c-4b7ab776138c","ios":"levelo://app?vid=580ba027-ede8-4ff8-833c-4b7ab776138c"},"vehicle_type_id":"4","last_reported":1729696145,"current_range_meters":25600,"station_id":"ce4bgv92rcd13ifvqcr0","pricing_plan_id":"cebpf4jnsgd1na2vs0mg"},{"bike_id":"927e91b0-95e6-4b72-8f68-fa39bc0b4f1c","system_id":"levelo_inurba_marseille","lat":43.29315,"lon":5.37186,"is_reserved":false,"is_disabled":false,"rental_uris":{"android":"levelo://app?vid=927e91b0-95e6-4b72-8f68-fa39bc0b4f1c","ios":"levelo://app?vid=927e91b0-95e6-4b72-8f68-fa39bc0b4f1c"},"vehicle_type_id":"4","last_reported":1729696145,"current_range_meters":25600,"station_id":"ce4bgh92rcd13ifvqb40","pricing_plan_id":"cebpf4jnsgd1na2vs0mg"},{"bike_id":"c803187e-448f-4d8d-ad3a-ff36110a20d0","system_id":"levelo_inurba_marseille","lat":43.3135,"lon":5.36705,"is_reserved":false,"is_disabled":false,"rental_uris":{"android":"levelo://app?vid=c803187e-448f-4d8d-ad3a-ff36110a20d0","ios":"levelo://app?vid=c803187e-448f-4d8d-ad3a-ff36110a20d0"},"vehicle_type_id":"4","last_reported":1729696145,"current_range_meters":38800,"station_id":"ce4bgr92rcd13ifvqc6g","pricing_plan_id":"cebpf4jnsgd1na2vs0mg"},{"bike_id":"048b7b40-ec4f-4afb-bbef-2863a364ff07","system_id":"levelo_inurba_marseille","lat":43.28611,"lon":5.37058,"is_reserved":false,"is_disabled":false,"rental_uris":{"android":"levelo://app?vid=048b7b40-ec4f-4afb-bbef-2863a364ff07","ios":"levelo://app?vid=048b7b40-ec4f-4afb-bbef-2863a364ff07"},"vehicle_type_id":"4","last_reported":1729696145,"current_range_meters":7200,"station_id":"ce4bht12rcd13ifvqi60","pricing_plan_id":"cebpf4jnsgd1na2vs0mg"},{"bike_id":"8a2dd17a-483c-452c-ab34-1ed74942d8d5","system_id":"levelo_inurba_marseille","lat":43.28155,"lon":5.42651,"is_reserved":false,"is_disabled":false,"rental_uris":{"android":"levelo://app?vid=8a2dd17a-483c-452c-ab34-1ed74942d8d5","ios":"levelo://app?vid=8a2dd17a-483c-452c-ab34-1ed74942d8d5"},"vehicle_type_id":"4","last_reported":1729696145,"current_range_meters":38800,"station_id":"ce4bhnh2rcd13ifvqgug","pricing_plan_id":"cebpf4jnsgd1na2vs0mg"},{"bike_id":"b48f8c2d-a05e-4cee-bf57-4525735200ad","system_id":"levelo_inurba_marseille","lat":43.2668,"lon":5.38263,"is_reserved":false,"is_disabled":false,"rental_uris":{"android":"levelo://app?vid=b48f8c2d-a05e-4cee-bf57-4525735200ad","ios":"levelo://app?vid=b48f8c2d-a05e-4cee-bf57-4525735200ad"},"vehicle_type_id":"4","last_reported":1729696145,"current_range_meters":38800,"station_id":"ce4bhg92rcd13ifvqf90","pricing_plan_id":"cebpf4jnsgd1na2vs0mg"},{"bike_id":"e637874e-66d3-486d-8483-c432b93967e0","system_id":"levelo_inurba_marseille","lat":43.29694,"lon":5.37295,"is_reserved":false,"is_disabled":false,"rental_uris":{"android":"levelo://app?vid=e637874e-66d3-486d-8483-c432b93967e0","ios":"levelo://app?vid=e637874e-66d3-486d-8483-c432b93967e0"},"vehicle_type_id":"4","last_reported":1729696145,"current_range_meters":38800,"station_id":"ce4bgk12rcd13ifvqbj0","pricing_plan_id":"cebpf4jnsgd1na2vs0mg"},{"bike_id":"c8ddd79b-886c-46e4-ae75-30d616cfec90","system_id":"levelo_inurba_marseille","lat":43.23191,"lon":5.39978,"is_reserved":false,"is_disabled":false,"rental_uris":{"android":"levelo://app?vid=c8ddd79b-886c-46e4-ae75-30d616cfec90","ios":"levelo://app?vid=c8ddd79b-886c-46e4-ae75-30d616cfec90"},"vehicle_type_id":"4","last_reported":1729696145,"current_range_meters":9200,"station_id":"ce4bhn12rcd13ifvqgqg","pricing_plan_id":"cebpf4jnsgd1na2vs0mg"},{"bike_id":"4cc31e6b-44f7-4f7a-bad5-d77b1b4983b3","system_id":"levelo_inurba_marseille","lat":43.22933,"lon":5.35377,"is_reserved":false,"is_disabled":false,"rental_uris":{"android":"levelo://app?vid=4cc31e6b-44f7-4f7a-bad5-d77b1b4983b3","ios":"levelo://app?vid=4cc31e6b-44f7-4f7a-bad5-d77b1b4983b3"},"vehicle_type_id":"4","last_reported":1729696145,"current_range_meters":17200,"station_id":"cpo3532slgdg3j2ikp40","pricing_plan_id":"cebpf4jnsgd1na2vs0mg"},{"bike_id":"9d8e5c51-58e3-4421-aadc-16760ae2bbad","system_id":"levelo_inurba_marseille","lat":43.26567,"lon":5.39008,"is_reserved":false,"is_disabled":false,"rental_uris":{"android":"levelo://app?vid=9d8e5c51-58e3-4421-aadc-16760ae2bbad","ios":"levelo://app?vid=9d8e5c51-58e3-4421-aadc-16760ae2bbad"},"vehicle_type_id":"4","last_reported":1729696145,"current_range_meters":8000,"station_id":"ce4bhe12rcd13ifvqf30","pricing_plan_id":"cebpf4jnsgd1na2vs0mg"},{"bike_id":"45fa129b-8985-492e-9fdd-c2fb75057698","system_id":"levelo_inurba_marseille","lat":43.26213,"lon":5.37442,"is_reserved":false,"is_disabled":false,"rental_uris":{"android":"levelo://app?vid=45fa129b-8985-492e-9fdd-c2fb75057698","ios":"levelo://app?vid=45fa129b-8985-492e-9fdd-c2fb75057698"},"vehicle_type_id":"4","last_reported":1729696145,"current_range_meters":4400,"station_id":"ce4bhgp2rcd13ifvqfc0","pricing_plan_id":"cebpf4jnsgd1na2vs0mg"},{"bike_id":"6e41ec93-13de-4e71-aa48-e0e498d15433","system_id":"levelo_inurba_marseille","lat":43.29909,"lon":5.38138,"is_reserved":false,"is_disabled":false,"rental_uris":{"android":"levelo://app?vid=6e41ec93-13de-4e71-aa48-e0e498d15433","ios":"levelo://app?vid=6e41ec93-13de-4e71-aa48-e0e498d15433"},"vehicle_type_id":"4","last_reported":1729696145,"current_range_meters":37600,"station_id":"ce4bgj12rcd13ifvqbc0","pricing_plan_id":"cebpf4jnsgd1na2vs0mg"},{"bike_id":"bdb5f1e3-126d-499e-a835-1843a92a834a","system_id":"levelo_inurba_marseille","lat":43.27372,"lon":5.36261,"is_reserved":false,"is_disabled":false,"rental_uris":{"android":"levelo://app?vid=bdb5f1e3-126d-499e-a835-1843a92a834a","ios":"levelo://app?vid=bdb5f1e3-126d-499e-a835-1843a92a834a"},"vehicle_type_id":"4","last_reported":1729696145,"current_range_meters":18800,"station_id":"ce4bhbh2rcd13ifvqeo0","pricing_plan_id":"cebpf4jnsgd1na2vs0mg"},{"bike_id":"dd408a1b-ebf8-4821-97ae-2380768db906","system_id":"levelo_inurba_marseille","lat":43.29532,"lon":5.38545,"is_reserved":false,"is_disabled":false,"rental_uris":{"android":"levelo://app?vid=dd408a1b-ebf8-4821-97ae-2380768db906","ios":"levelo://app?vid=dd408a1b-ebf8-4821-97ae-2380768db906"},"vehicle_type_id":"4","last_reported":1729696145,"current_range_meters":29600,"station_id":"ce4bgih2rcd13ifvqba0","pricing_plan_id":"cebpf4jnsgd1na2vs0mg"},{"bike_id":"b7b2d48e-a908-46cb-97c0-140e43370354","system_id":"levelo_inurba_marseille","lat":43.29204,"lon":5.39328,"is_reserved":false,"is_disabled":false,"rental_uris":{"android":"levelo://app?vid=b7b2d48e-a908-46cb-97c0-140e43370354","ios":"levelo://app?vid=b7b2d48e-a908-46cb-97c0-140e43370354"},"vehicle_type_id":"4","last_reported":1729696145,"current_range_meters":15200,"station_id":"ce4bh192rcd13ifvqdd0","pricing_plan_id":"cebpf4jnsgd1na2vs0mg"},{"bike_id":"1799daef-05f3-419e-bbe3-51a6b4575a5c","system_id":"levelo_inurba_marseille","lat":43.28297,"lon":5.40849,"is_reserved":false,"is_disabled":false,"rental_uris":{"android":"levelo://app?vid=1799daef-05f3-419e-bbe3-51a6b4575a5c","ios":"levelo://app?vid=1799daef-05f3-419e-bbe3-51a6b4575a5c"},"vehicle_type_id":"4","last_reported":1729696145,"current_range_meters":12000,"station_id":"","pricing_plan_id":"cebpf4jnsgd1na2vs0mg"},{"bike_id":"958e1bfb-9f82-4431-8f89-1aea9645e31e","system_id":"levelo_inurba_marseille","lat":43.2963,"lon":5.3713,"is_reserved":false,"is_disabled":false,"rental_uris":{"android":"levelo://app?vid=958e1bfb-9f82-4431-8f89-1aea9645e31e","ios":"levelo://app?vid=958e1bfb-9f82-4431-8f89-1aea9645e31e"},"vehicle_type_id":"4","last_reported":1729696145,"current_range_meters":37600,"station_id":"ce4bgnh2rcd13ifvqc0g","pricing_plan_id":"cebpf4jnsgd1na2vs0mg"},{"bike_id":"2565f549-1514-4594-91dc-a253fb81a619","system_id":"levelo_inurba_marseille","lat":43.26955,"lon":5.38626,"is_reserved":false,"is_disabled":false,"rental_uris":{"android":"levelo://app?vid=2565f549-1514-4594-91dc-a253fb81a619","ios":"levelo://app?vid=2565f549-1514-4594-91dc-a253fb81a619"},"vehicle_type_id":"4","last_reported":1729696145,"current_range_meters":34800,"station_id":"ce4bhh92rcd13ifvqfh0","pricing_plan_id":"cebpf4jnsgd1na2vs0mg"},{"bike_id":"0dc5fd65-6c08-45fc-b9d0-c856107da224","system_id":"levelo_inurba_marseille","lat":43.29579,"lon":5.36742,"is_reserved":false,"is_disabled":false,"rental_uris":{"android":"levelo://app?vid=0dc5fd65-6c08-45fc-b9d0-c856107da224","ios":"levelo://app?vid=0dc5fd65-6c08-45fc-b9d0-c856107da224"},"vehicle_type_id":"4","last_reported":1729696145,"current_range_meters":39200,"station_id":"ce4bgph2rcd13ifvqc2g","pricing_plan_id":"cebpf4jnsgd1na2vs0mg"},{"bike_id":"6eb3a0bb-d2a3-49b8-a9bc-f12220a22dd0","system_id":"levelo_inurba_marseille","lat":43.29531,"lon":5.38538,"is_reserved":false,"is_disabled":false,"rental_uris":{"android":"levelo://app?vid=6eb3a0bb-d2a3-49b8-a9bc-f12220a22dd0","ios":"levelo://app?vid=6eb3a0bb-d2a3-49b8-a9bc-f12220a22dd0"},"vehicle_type_id":"4","last_reported":1729696145,"current_range_meters":38800,"station_id":"ce4bgih2rcd13ifvqba0","pricing_plan_id":"cebpf4jnsgd1na2vs0mg"},{"bike_id":"c3969c76-c484-480f-b0d7-5ac7166aeb01","system_id":"levelo_inurba_marseille","lat":43.2953,"lon":5.3855,"is_reserved":false,"is_disabled":false,"rental_uris":{"android":"levelo://app?vid=c3969c76-c484-480f-b0d7-5ac7166aeb01","ios":"levelo://app?vid=c3969c76-c484-480f-b0d7-5ac7166aeb01"},"vehicle_type_id":"4","last_reported":1729696145,"current_range_meters":26800,"station_id":"ce4bgih2rcd13ifvqba0","pricing_plan_id":"cebpf4jnsgd1na2vs0mg"},{"bike_id":"f54ec824-4a1a-4907-9eb9-6f7e89a75319","system_id":"levelo_inurba_marseille","lat":43.29531,"lon":5.3855,"is_reserved":false,"is_disabled":false,"rental_uris":{"android":"levelo://app?vid=f54ec824-4a1a-4907-9eb9-6f7e89a75319","ios":"levelo://app?vid=f54ec824-4a1a-4907-9eb9-6f7e89a75319"},"vehicle_type_id":"4","last_reported":1729696145,"current_range_meters":22800,"station_id":"ce4bgih2rcd13ifvqba0","pricing_plan_id":"cebpf4jnsgd1na2vs0mg"},{"bike_id":"1b8d756a-6cfa-44c8-a092-11e1f2fbde22","system_id":"levelo_inurba_marseille","lat":43.29105,"lon":5.3814,"is_reserved":false,"is_disabled":false,"rental_uris":{"android":"levelo://app?vid=1b8d756a-6cfa-44c8-a092-11e1f2fbde22","ios":"levelo://app?vid=1b8d756a-6cfa-44c8-a092-11e1f2fbde22"},"vehicle_type_id":"4","last_reported":1729696145,"current_range_meters":36000,"station_id":"ce4bh512rcd13ifvqe2g","pricing_plan_id":"cebpf4jnsgd1na2vs0mg"},{"bike_id":"70c0db28-8045-42ba-a534-2532b86d3455","system_id":"levelo_inurba_marseille","lat":43.22932,"lon":5.35376,"is_reserved":false,"is_disabled":false,"rental_uris":{"android":"levelo://app?vid=70c0db28-8045-42ba-a534-2532b86d3455","ios":"levelo://app?vid=70c0db28-8045-42ba-a534-2532b86d3455"},"vehicle_type_id":"4","last_reported":1729696145,"current_range_meters":16800,"station_id":"cpo3532slgdg3j2ikp40","pricing_plan_id":"cebpf4jnsgd1na2vs0mg"},{"bike_id":"e11684d1-5f33-4219-9b79-a5275e19657f","system_id":"levelo_inurba_marseille","lat":43.29032,"lon":5.38648,"is_reserved":false,"is_disabled":false,"rental_uris":{"android":"levelo://app?vid=e11684d1-5f33-4219-9b79-a5275e19657f","ios":"levelo://app?vid=e11684d1-5f33-4219-9b79-a5275e19657f"},"vehicle_type_id":"4","last_reported":1729696145,"current_range_meters":12000,"station_id":"","pricing_plan_id":"cebpf4jnsgd1na2vs0mg"},{"bike_id":"aaef2d09-85f1-4711-93ea-ffc9a1eddbab","system_id":"levelo_inurba_marseille","lat":43.27992,"lon":5.40006,"is_reserved":false,"is_disabled":false,"rental_uris":{"android":"levelo://app?vid=aaef2d09-85f1-4711-93ea-ffc9a1eddbab","ios":"levelo://app?vid=aaef2d09-85f1-4711-93ea-ffc9a1eddbab"},"vehicle_type_id":"4","last_reported":1729696145,"current_range_meters":5600,"station_id":"ce4bho92rcd13ifvqh4g","pricing_plan_id":"cebpf4jnsgd1na2vs0mg"},{"bike_id":"93b0aa10-b859-4529-816f-92d4c4950fba","system_id":"levelo_inurba_marseille","lat":43.28474,"lon":5.38426,"is_reserved":false,"is_disabled":false,"rental_uris":{"android":"levelo://app?vid=93b0aa10-b859-4529-816f-92d4c4950fba","ios":"levelo://app?vid=93b0aa10-b859-4529-816f-92d4c4950fba"},"vehicle_type_id":"4","last_reported":1729696145,"current_range_meters":38800,"station_id":"ce4bh512rcd13ifvqe3g","pricing_plan_id":"cebpf4jnsgd1na2vs0mg"},{"bike_id":"18cc0279-1b69-4e24-bc4c-607d565a1650","system_id":"levelo_inurba_marseille","lat":43.33723,"lon":5.39184,"is_reserved":false,"is_disabled":false,"rental_uris":{"android":"levelo://app?vid=18cc0279-1b69-4e24-bc4c-607d565a1650","ios":"levelo://app?vid=18cc0279-1b69-4e24-bc4c-607d565a1650"},"vehicle_type_id":"4","last_reported":1729696145,"current_range_meters":37600,"station_id":"ce4bhr92rcd13ifvqhsg","pricing_plan_id":"cebpf4jnsgd1na2vs0mg"},{"bike_id":"a958dd6f-1a6f-40c9-8eaf-bfef55877b0e","system_id":"levelo_inurba_marseille","lat":43.26685,"lon":5.38276,"is_reserved":false,"is_disabled":false,"rental_uris":{"android":"levelo://app?vid=a958dd6f-1a6f-40c9-8eaf-bfef55877b0e","ios":"levelo://app?vid=a958dd6f-1a6f-40c9-8eaf-bfef55877b0e"},"vehicle_type_id":"4","last_reported":1729696145,"current_range_meters":22400,"station_id":"ce4bhg92rcd13ifvqf90","pricing_plan_id":"cebpf4jnsgd1na2vs0mg"},{"bike_id":"6ce9344b-2a35-4b68-83a1-33981f2e1634","system_id":"levelo_inurba_marseille","lat":43.28491,"lon":5.38431,"is_reserved":false,"is_disabled":false,"rental_uris":{"android":"levelo://app?vid=6ce9344b-2a35-4b68-83a1-33981f2e1634","ios":"levelo://app?vid=6ce9344b-2a35-4b68-83a1-33981f2e1634"},"vehicle_type_id":"4","last_reported":1729696145,"current_range_meters":30400,"station_id":"ce4bh512rcd13ifvqe3g","pricing_plan_id":"cebpf4jnsgd1na2vs0mg"},{"bike_id":"e61f83e6-7b6c-46cd-a3ed-4571e1937882","system_id":"levelo_inurba_marseille","lat":43.30559,"lon":5.36542,"is_reserved":false,"is_disabled":false,"rental_uris":{"android":"levelo://app?vid=e61f83e6-7b6c-46cd-a3ed-4571e1937882","ios":"levelo://app?vid=e61f83e6-7b6c-46cd-a3ed-4571e1937882"},"vehicle_type_id":"4","last_reported":1729696145,"current_range_meters":39200,"station_id":"ce4bgs12rcd13ifvqcag","pricing_plan_id":"cebpf4jnsgd1na2vs0mg"},{"bike_id":"48c189de-efde-4f10-a571-92eb2b19abbf","system_id":"levelo_inurba_marseille","lat":43.23191,"lon":5.39986,"is_reserved":false,"is_disabled":false,"rental_uris":{"android":"levelo://app?vid=48c189de-efde-4f10-a571-92eb2b19abbf","ios":"levelo://app?vid=48c189de-efde-4f10-a571-92eb2b19abbf"},"vehicle_type_id":"4","last_reported":1729696145,"current_range_meters":20000,"station_id":"ce4bhn12rcd13ifvqgqg","pricing_plan_id":"cebpf4jnsgd1na2vs0mg"},{"bike_id":"f4434517-c231-4c54-a77d-768f553b2620","system_id":"levelo_inurba_marseille","lat":43.325317,"lon":5.414285,"is_reserved":false,"is_disabled":false,"rental_uris":{"android":"levelo://app?vid=f4434517-c231-4c54-a77d-768f553b2620","ios":"levelo://app?vid=f4434517-c231-4c54-a77d-768f553b2620"},"vehicle_type_id":"4","last_reported":1729696145,"current_range_meters":0,"station_id":"ce4bhnh2rcd13ifvqgug","pricing_plan_id":"cebpf4jnsgd1na2vs0mg"},{"bike_id":"84f4862a-6d05-4353-979f-b9ba8f862862","system_id":"levelo_inurba_marseille","lat":43.30933,"lon":5.40144,"is_reserved":false,"is_disabled":false,"rental_uris":{"android":"levelo://app?vid=84f4862a-6d05-4353-979f-b9ba8f862862","ios":"levelo://app?vid=84f4862a-6d05-4353-979f-b9ba8f862862"},"vehicle_type_id":"4","last_reported":1729696145,"current_range_meters":6800,"station_id":"ce4bgvp2rcd13ifvqct0","pricing_plan_id":"cebpf4jnsgd1na2vs0mg"},{"bike_id":"c4c55d71-c8b4-4492-a7cd-2be5724c8305","system_id":"levelo_inurba_marseille","lat":43.29974,"lon":5.38499,"is_reserved":false,"is_disabled":false,"rental_uris":{"android":"levelo://app?vid=c4c55d71-c8b4-4492-a7cd-2be5724c8305","ios":"levelo://app?vid=c4c55d71-c8b4-4492-a7cd-2be5724c8305"},"vehicle_type_id":"4","last_reported":1729696145,"current_range_meters":36800,"station_id":"ce4bgj92rcd13ifvqbd0","pricing_plan_id":"cebpf4jnsgd1na2vs0mg"},{"bike_id":"8997742d-eb6a-4d89-9396-3e334b559071","system_id":"levelo_inurba_marseille","lat":43.3089,"lon":5.37192,"is_reserved":false,"is_disabled":false,"rental_uris":{"android":"levelo://app?vid=8997742d-eb6a-4d89-9396-3e334b559071","ios":"levelo://app?vid=8997742d-eb6a-4d89-9396-3e334b559071"},"vehicle_type_id":"4","last_reported":1729696145,"current_range_meters":16000,"station_id":"ce4bguh2rcd13ifvqckg","pricing_plan_id":"cebpf4jnsgd1na2vs0mg"},{"bike_id":"e49ef59c-c6f6-4695-96ae-01a40266ab7a","system_id":"levelo_inurba_marseille","lat":43.25586,"lon":5.38232,"is_reserved":false,"is_disabled":false,"rental_uris":{"android":"levelo://app?vid=e49ef59c-c6f6-4695-96ae-01a40266ab7a","ios":"levelo://app?vid=e49ef59c-c6f6-4695-96ae-01a40266ab7a"},"vehicle_type_id":"4","last_reported":1729696145,"current_range_meters":14800,"station_id":"ce4bhih2rcd13ifvqfs0","pricing_plan_id":"cebpf4jnsgd1na2vs0mg"},{"bike_id":"fb1cdef2-7c1d-431c-8138-3cdce5d548df","system_id":"levelo_inurba_marseille","lat":43.23962,"lon":5.3663,"is_reserved":false,"is_disabled":false,"rental_uris":{"android":"levelo://app?vid=fb1cdef2-7c1d-431c-8138-3cdce5d548df","ios":"levelo://app?vid=fb1cdef2-7c1d-431c-8138-3cdce5d548df"},"vehicle_type_id":"4","last_reported":1729696145,"current_range_meters":6000,"station_id":"ce4bhi12rcd13ifvqfp0","pricing_plan_id":"cebpf4jnsgd1na2vs0mg"},{"bike_id":"26ebd71f-7bc7-4bad-bbb2-6d15881ecc4c","system_id":"levelo_inurba_marseille","lat":43.30664,"lon":5.39482,"is_reserved":false,"is_disabled":false,"rental_uris":{"android":"levelo://app?vid=26ebd71f-7bc7-4bad-bbb2-6d15881ecc4c","ios":"levelo://app?vid=26ebd71f-7bc7-4bad-bbb2-6d15881ecc4c"},"vehicle_type_id":"4","last_reported":1729696145,"current_range_meters":26000,"station_id":"","pricing_plan_id":"cebpf4jnsgd1na2vs0mg"},{"bike_id":"f6840760-14d5-4ae0-a55b-cbfe11eba9fa","system_id":"levelo_inurba_marseille","lat":43.2991,"lon":5.37479,"is_reserved":false,"is_disabled":false,"rental_uris":{"android":"levelo://app?vid=f6840760-14d5-4ae0-a55b-cbfe11eba9fa","ios":"levelo://app?vid=f6840760-14d5-4ae0-a55b-cbfe11eba9fa"},"vehicle_type_id":"4","last_reported":1729696145,"current_range_meters":38800,"station_id":"ce4bgjh2rcd13ifvqbg0","pricing_plan_id":"cebpf4jnsgd1na2vs0mg"},{"bike_id":"c0a53215-f99d-4c86-b8da-85dea09b544a","system_id":"levelo_inurba_marseille","lat":43.30543,"lon":5.36534,"is_reserved":false,"is_disabled":false,"rental_uris":{"android":"levelo://app?vid=c0a53215-f99d-4c86-b8da-85dea09b544a","ios":"levelo://app?vid=c0a53215-f99d-4c86-b8da-85dea09b544a"},"vehicle_type_id":"4","last_reported":1729696145,"current_range_meters":31200,"station_id":"ce4bgs12rcd13ifvqcag","pricing_plan_id":"cebpf4jnsgd1na2vs0mg"},{"bike_id":"5384de3c-5e3e-43ba-998f-6f3adae8cb13","system_id":"levelo_inurba_marseille","lat":43.27987,"lon":5.40033,"is_reserved":false,"is_disabled":false,"rental_uris":{"android":"levelo://app?vid=5384de3c-5e3e-43ba-998f-6f3adae8cb13","ios":"levelo://app?vid=5384de3c-5e3e-43ba-998f-6f3adae8cb13"},"vehicle_type_id":"4","last_reported":1729696145,"current_range_meters":27600,"station_id":"ce4bho92rcd13ifvqh4g","pricing_plan_id":"cebpf4jnsgd1na2vs0mg"},{"bike_id":"c3945b60-e38d-4106-8f18-92c7f436cc4f","system_id":"levelo_inurba_marseille","lat":43.33759,"lon":5.37455,"is_reserved":false,"is_disabled":false,"rental_uris":{"android":"levelo://app?vid=c3945b60-e38d-4106-8f18-92c7f436cc4f","ios":"levelo://app?vid=c3945b60-e38d-4106-8f18-92c7f436cc4f"},"vehicle_type_id":"4","last_reported":1729696145,"current_range_meters":26800,"station_id":"","pricing_plan_id":"cebpf4jnsgd1na2vs0mg"},{"bike_id":"2c36932d-2745-4c68-80c0-3ec18d892679","system_id":"levelo_inurba_marseille","lat":43.31337,"lon":5.39691,"is_reserved":false,"is_disabled":false,"rental_uris":{"android":"levelo://app?vid=2c36932d-2745-4c68-80c0-3ec18d892679","ios":"levelo://app?vid=2c36932d-2745-4c68-80c0-3ec18d892679"},"vehicle_type_id":"4","last_reported":1729696145,"current_range_meters":20400,"station_id":"ce4bgvp2rcd13ifvqcu0","pricing_plan_id":"cebpf4jnsgd1na2vs0mg"},{"bike_id":"82c13688-db63-40b7-83eb-5901c2e24bb4","system_id":"levelo_inurba_marseille","lat":43.29038,"lon":5.37571,"is_reserved":false,"is_disabled":false,"rental_uris":{"android":"levelo://app?vid=82c13688-db63-40b7-83eb-5901c2e24bb4","ios":"levelo://app?vid=82c13688-db63-40b7-83eb-5901c2e24bb4"},"vehicle_type_id":"4","last_reported":1729696145,"current_range_meters":24000,"station_id":"ce4bh692rcd13ifvqe90","pricing_plan_id":"cebpf4jnsgd1na2vs0mg"},{"bike_id":"713cd3ed-a75a-48b9-a621-dc494f5fd614","system_id":"levelo_inurba_marseille","lat":43.28735,"lon":5.36093,"is_reserved":false,"is_disabled":false,"rental_uris":{"android":"levelo://app?vid=713cd3ed-a75a-48b9-a621-dc494f5fd614","ios":"levelo://app?vid=713cd3ed-a75a-48b9-a621-dc494f5fd614"},"vehicle_type_id":"4","last_reported":1729696145,"current_range_meters":35200,"station_id":"cki0cbj6b192h4jlfktg","pricing_plan_id":"cebpf4jnsgd1na2vs0mg"},{"bike_id":"22de1d97-98d6-41f3-bf16-ab9c4b64aae1","system_id":"levelo_inurba_marseille","lat":43.2903,"lon":5.3814,"is_reserved":false,"is_disabled":false,"rental_uris":{"android":"levelo://app?vid=22de1d97-98d6-41f3-bf16-ab9c4b64aae1","ios":"levelo://app?vid=22de1d97-98d6-41f3-bf16-ab9c4b64aae1"},"vehicle_type_id":"4","last_reported":1729696145,"current_range_meters":15200,"station_id":"ce4bh4p2rcd13ifvqe1g","pricing_plan_id":"cebpf4jnsgd1na2vs0mg"},{"bike_id":"78018770-86ea-4404-8452-ce018255cd17","system_id":"levelo_inurba_marseille","lat":43.22936,"lon":5.3538,"is_reserved":false,"is_disabled":false,"rental_uris":{"android":"levelo://app?vid=78018770-86ea-4404-8452-ce018255cd17","ios":"levelo://app?vid=78018770-86ea-4404-8452-ce018255cd17"},"vehicle_type_id":"4","last_reported":1729696145,"current_range_meters":22000,"station_id":"cpo3532slgdg3j2ikp40","pricing_plan_id":"cebpf4jnsgd1na2vs0mg"},{"bike_id":"46a05292-202e-4e11-aff2-86d9f9ea8a69","system_id":"levelo_inurba_marseille","lat":43.30533,"lon":5.36536,"is_reserved":false,"is_disabled":false,"rental_uris":{"android":"levelo://app?vid=46a05292-202e-4e11-aff2-86d9f9ea8a69","ios":"levelo://app?vid=46a05292-202e-4e11-aff2-86d9f9ea8a69"},"vehicle_type_id":"4","last_reported":1729696145,"current_range_meters":30800,"station_id":"ce4bgs12rcd13ifvqcag","pricing_plan_id":"cebpf4jnsgd1na2vs0mg"},{"bike_id":"70e32645-7c3a-4545-be31-2a2239992438","system_id":"levelo_inurba_marseille","lat":43.31228,"lon":5.36868,"is_reserved":false,"is_disabled":false,"rental_uris":{"android":"levelo://app?vid=70e32645-7c3a-4545-be31-2a2239992438","ios":"levelo://app?vid=70e32645-7c3a-4545-be31-2a2239992438"},"vehicle_type_id":"4","last_reported":1729696145,"current_range_meters":3600,"station_id":"ce4bgl92rcd13ifvqbq0","pricing_plan_id":"cebpf4jnsgd1na2vs0mg"},{"bike_id":"03d97649-dbbe-45d3-b9fd-744fb133a448","system_id":"levelo_inurba_marseille","lat":43.313265,"lon":5.396862,"is_reserved":false,"is_disabled":false,"rental_uris":{"android":"levelo://app?vid=03d97649-dbbe-45d3-b9fd-744fb133a448","ios":"levelo://app?vid=03d97649-dbbe-45d3-b9fd-744fb133a448"},"vehicle_type_id":"4","last_reported":1729696145,"current_range_meters":36800,"station_id":"ce4bgvp2rcd13ifvqcu0","pricing_plan_id":"cebpf4jnsgd1na2vs0mg"},{"bike_id":"4521280b-fbba-4e3b-8187-b74b0b6a77de","system_id":"levelo_inurba_marseille","lat":43.30778,"lon":5.37662,"is_reserved":false,"is_disabled":false,"rental_uris":{"android":"levelo://app?vid=4521280b-fbba-4e3b-8187-b74b0b6a77de","ios":"levelo://app?vid=4521280b-fbba-4e3b-8187-b74b0b6a77de"},"vehicle_type_id":"4","last_reported":1729696145,"current_range_meters":22000,"station_id":"ce4bgv92rcd13ifvqcq0","pricing_plan_id":"cebpf4jnsgd1na2vs0mg"},{"bike_id":"247c1539-097b-46dd-8c24-05380c7705d5","system_id":"levelo_inurba_marseille","lat":43.29588,"lon":5.36749,"is_reserved":false,"is_disabled":false,"rental_uris":{"android":"levelo://app?vid=247c1539-097b-46dd-8c24-05380c7705d5","ios":"levelo://app?vid=247c1539-097b-46dd-8c24-05380c7705d5"},"vehicle_type_id":"4","last_reported":1729696145,"current_range_meters":40000,"station_id":"ce4bgph2rcd13ifvqc2g","pricing_plan_id":"cebpf4jnsgd1na2vs0mg"},{"bike_id":"e0f591a5-4a49-47dc-9aa6-eb75178c5760","system_id":"levelo_inurba_marseille","lat":43.22937,"lon":5.35381,"is_reserved":false,"is_disabled":false,"rental_uris":{"android":"levelo://app?vid=e0f591a5-4a49-47dc-9aa6-eb75178c5760","ios":"levelo://app?vid=e0f591a5-4a49-47dc-9aa6-eb75178c5760"},"vehicle_type_id":"4","last_reported":1729696145,"current_range_meters":36400,"station_id":"cpo3532slgdg3j2ikp40","pricing_plan_id":"cebpf4jnsgd1na2vs0mg"},{"bike_id":"3758e8e1-6774-4a6d-8d44-4f39d30cb7cf","system_id":"levelo_inurba_marseille","lat":43.22926,"lon":5.35382,"is_reserved":false,"is_disabled":false,"rental_uris":{"android":"levelo://app?vid=3758e8e1-6774-4a6d-8d44-4f39d30cb7cf","ios":"levelo://app?vid=3758e8e1-6774-4a6d-8d44-4f39d30cb7cf"},"vehicle_type_id":"4","last_reported":1729696145,"current_range_meters":36400,"station_id":"cpo3532slgdg3j2ikp40","pricing_plan_id":"cebpf4jnsgd1na2vs0mg"},{"bike_id":"dfd8c432-d6ea-40d4-b489-0c03121c6d6f","system_id":"levelo_inurba_marseille","lat":43.28041,"lon":5.36943,"is_reserved":false,"is_disabled":false,"rental_uris":{"android":"levelo://app?vid=dfd8c432-d6ea-40d4-b489-0c03121c6d6f","ios":"levelo://app?vid=dfd8c432-d6ea-40d4-b489-0c03121c6d6f"},"vehicle_type_id":"4","last_reported":1729696145,"current_range_meters":28000,"station_id":"ce4bha12rcd13ifvqef0","pricing_plan_id":"cebpf4jnsgd1na2vs0mg"},{"bike_id":"123e738b-a61d-4953-a0dc-d67bf15962b1","system_id":"levelo_inurba_marseille","lat":43.29415,"lon":5.38626,"is_reserved":false,"is_disabled":false,"rental_uris":{"android":"levelo://app?vid=123e738b-a61d-4953-a0dc-d67bf15962b1","ios":"levelo://app?vid=123e738b-a61d-4953-a0dc-d67bf15962b1"},"vehicle_type_id":"4","last_reported":1729696145,"current_range_meters":5600,"station_id":"ce4bh2h2rcd13ifvqdh0","pricing_plan_id":"cebpf4jnsgd1na2vs0mg"},{"bike_id":"1163c2ce-becf-41aa-b931-c0b03f4fe8d1","system_id":"levelo_inurba_marseille","lat":43.28662,"lon":5.36358,"is_reserved":false,"is_disabled":false,"rental_uris":{"android":"levelo://app?vid=1163c2ce-becf-41aa-b931-c0b03f4fe8d1","ios":"levelo://app?vid=1163c2ce-becf-41aa-b931-c0b03f4fe8d1"},"vehicle_type_id":"4","last_reported":1729696145,"current_range_meters":14400,"station_id":"ce4bhah2rcd13ifvqej0","pricing_plan_id":"cebpf4jnsgd1na2vs0mg"},{"bike_id":"30874172-f8b0-47de-b0d4-6ebffa113c84","system_id":"levelo_inurba_marseille","lat":43.23201,"lon":5.35547,"is_reserved":false,"is_disabled":false,"rental_uris":{"android":"levelo://app?vid=30874172-f8b0-47de-b0d4-6ebffa113c84","ios":"levelo://app?vid=30874172-f8b0-47de-b0d4-6ebffa113c84"},"vehicle_type_id":"4","last_reported":1729696145,"current_range_meters":36400,"station_id":"ce4bhu92rcd13ifvqi70","pricing_plan_id":"cebpf4jnsgd1na2vs0mg"},{"bike_id":"336cf461-c5c5-411c-9cfc-65722f7632be","system_id":"levelo_inurba_marseille","lat":43.30538,"lon":5.36703,"is_reserved":false,"is_disabled":false,"rental_uris":{"android":"levelo://app?vid=336cf461-c5c5-411c-9cfc-65722f7632be","ios":"levelo://app?vid=336cf461-c5c5-411c-9cfc-65722f7632be"},"vehicle_type_id":"4","last_reported":1729696145,"current_range_meters":26000,"station_id":"ce4bgrp2rcd13ifvqc9g","pricing_plan_id":"cebpf4jnsgd1na2vs0mg"},{"bike_id":"b55ea397-7284-4350-9e1c-6726519c5849","system_id":"levelo_inurba_marseille","lat":43.26758,"lon":5.3929,"is_reserved":false,"is_disabled":false,"rental_uris":{"android":"levelo://app?vid=b55ea397-7284-4350-9e1c-6726519c5849","ios":"levelo://app?vid=b55ea397-7284-4350-9e1c-6726519c5849"},"vehicle_type_id":"4","last_reported":1729696145,"current_range_meters":6800,"station_id":"","pricing_plan_id":"cebpf4jnsgd1na2vs0mg"},{"bike_id":"625479c5-90dc-4585-acf4-a9bb2c75fffa","system_id":"levelo_inurba_marseille","lat":43.31321,"lon":5.39692,"is_reserved":false,"is_disabled":false,"rental_uris":{"android":"levelo://app?vid=625479c5-90dc-4585-acf4-a9bb2c75fffa","ios":"levelo://app?vid=625479c5-90dc-4585-acf4-a9bb2c75fffa"},"vehicle_type_id":"4","last_reported":1729696145,"current_range_meters":32000,"station_id":"ce4bgvp2rcd13ifvqcu0","pricing_plan_id":"cebpf4jnsgd1na2vs0mg"},{"bike_id":"484db4be-af89-4ce4-b8ca-a131e75b9c7e","system_id":"levelo_inurba_marseille","lat":43.30535,"lon":5.36702,"is_reserved":false,"is_disabled":false,"rental_uris":{"android":"levelo://app?vid=484db4be-af89-4ce4-b8ca-a131e75b9c7e","ios":"levelo://app?vid=484db4be-af89-4ce4-b8ca-a131e75b9c7e"},"vehicle_type_id":"4","last_reported":1729696145,"current_range_meters":39200,"station_id":"ce4bgrp2rcd13ifvqc9g","pricing_plan_id":"cebpf4jnsgd1na2vs0mg"},{"bike_id":"0dde08c2-327e-4c04-afb0-27f16e8979fb","system_id":"levelo_inurba_marseille","lat":43.30363,"lon":5.3766,"is_reserved":false,"is_disabled":false,"rental_uris":{"android":"levelo://app?vid=0dde08c2-327e-4c04-afb0-27f16e8979fb","ios":"levelo://app?vid=0dde08c2-327e-4c04-afb0-27f16e8979fb"},"vehicle_type_id":"4","last_reported":1729696145,"current_range_meters":34800,"station_id":"","pricing_plan_id":"cebpf4jnsgd1na2vs0mg"},{"bike_id":"a9959f25-b536-4caf-b967-9fa6dadb574d","system_id":"levelo_inurba_marseille","lat":43.30025,"lon":5.37986,"is_reserved":false,"is_disabled":false,"rental_uris":{"android":"levelo://app?vid=a9959f25-b536-4caf-b967-9fa6dadb574d","ios":"levelo://app?vid=a9959f25-b536-4caf-b967-9fa6dadb574d"},"vehicle_type_id":"4","last_reported":1729696145,"current_range_meters":18800,"station_id":"","pricing_plan_id":"cebpf4jnsgd1na2vs0mg"},{"bike_id":"70e82507-cae7-43cc-90e4-a6aef293f0e0","system_id":"levelo_inurba_marseille","lat":43.26562,"lon":5.39009,"is_reserved":false,"is_disabled":false,"rental_uris":{"android":"levelo://app?vid=70e82507-cae7-43cc-90e4-a6aef293f0e0","ios":"levelo://app?vid=70e82507-cae7-43cc-90e4-a6aef293f0e0"},"vehicle_type_id":"4","last_reported":1729696145,"current_range_meters":19600,"station_id":"ce4bhe12rcd13ifvqf30","pricing_plan_id":"cebpf4jnsgd1na2vs0mg"},{"bike_id":"fed29e3d-ded9-4536-b5e9-762e6c2a1343","system_id":"levelo_inurba_marseille","lat":43.29968,"lon":5.39188,"is_reserved":false,"is_disabled":false,"rental_uris":{"android":"levelo://app?vid=fed29e3d-ded9-4536-b5e9-762e6c2a1343","ios":"levelo://app?vid=fed29e3d-ded9-4536-b5e9-762e6c2a1343"},"vehicle_type_id":"4","last_reported":1729696145,"current_range_meters":11600,"station_id":"ce4bghh2rcd13ifvqb60","pricing_plan_id":"cebpf4jnsgd1na2vs0mg"},{"bike_id":"084bf74f-47a6-4227-b59f-95dcb9e1fe83","system_id":"levelo_inurba_marseille","lat":43.30426,"lon":5.39744,"is_reserved":false,"is_disabled":false,"rental_uris":{"android":"levelo://app?vid=084bf74f-47a6-4227-b59f-95dcb9e1fe83","ios":"levelo://app?vid=084bf74f-47a6-4227-b59f-95dcb9e1fe83"},"vehicle_type_id":"4","last_reported":1729696145,"current_range_meters":20800,"station_id":"ce4bh092rcd13ifvqd20","pricing_plan_id":"cebpf4jnsgd1na2vs0mg"},{"bike_id":"4d934c20-af0a-4134-af24-ca947af692a7","system_id":"levelo_inurba_marseille","lat":43.31077,"lon":5.38345,"is_reserved":false,"is_disabled":false,"rental_uris":{"android":"levelo://app?vid=4d934c20-af0a-4134-af24-ca947af692a7","ios":"levelo://app?vid=4d934c20-af0a-4134-af24-ca947af692a7"},"vehicle_type_id":"4","last_reported":1729696145,"current_range_meters":30000,"station_id":"ce4bgv92rcd13ifvqcr0","pricing_plan_id":"cebpf4jnsgd1na2vs0mg"},{"bike_id":"409c7d05-8bd8-48e6-a031-312baafe8037","system_id":"levelo_inurba_marseille","lat":43.2293,"lon":5.35377,"is_reserved":false,"is_disabled":false,"rental_uris":{"android":"levelo://app?vid=409c7d05-8bd8-48e6-a031-312baafe8037","ios":"levelo://app?vid=409c7d05-8bd8-48e6-a031-312baafe8037"},"vehicle_type_id":"4","last_reported":1729696145,"current_range_meters":8000,"station_id":"cpo3532slgdg3j2ikp40","pricing_plan_id":"cebpf4jnsgd1na2vs0mg"},{"bike_id":"75785403-c74a-4e7f-93be-ce09638be4c9","system_id":"levelo_inurba_marseille","lat":43.29261,"lon":5.40919,"is_reserved":false,"is_disabled":false,"rental_uris":{"android":"levelo://app?vid=75785403-c74a-4e7f-93be-ce09638be4c9","ios":"levelo://app?vid=75785403-c74a-4e7f-93be-ce09638be4c9"},"vehicle_type_id":"4","last_reported":1729696145,"current_range_meters":39200,"station_id":"ce4bh192rcd13ifvqdc0","pricing_plan_id":"cebpf4jnsgd1na2vs0mg"},{"bike_id":"61808643-9571-4471-8f8a-eac48365dceb","system_id":"levelo_inurba_marseille","lat":43.23966,"lon":5.36633,"is_reserved":false,"is_disabled":false,"rental_uris":{"android":"levelo://app?vid=61808643-9571-4471-8f8a-eac48365dceb","ios":"levelo://app?vid=61808643-9571-4471-8f8a-eac48365dceb"},"vehicle_type_id":"4","last_reported":1729696145,"current_range_meters":4400,"station_id":"ce4bhi12rcd13ifvqfp0","pricing_plan_id":"cebpf4jnsgd1na2vs0mg"},{"bike_id":"9e3f7850-9b1d-4039-b483-899751401240","system_id":"levelo_inurba_marseille","lat":43.30309,"lon":5.39218,"is_reserved":false,"is_disabled":false,"rental_uris":{"android":"levelo://app?vid=9e3f7850-9b1d-4039-b483-899751401240","ios":"levelo://app?vid=9e3f7850-9b1d-4039-b483-899751401240"},"vehicle_type_id":"4","last_reported":1729696145,"current_range_meters":20400,"station_id":"ce4bgkh2rcd13ifvqbk0","pricing_plan_id":"cebpf4jnsgd1na2vs0mg"},{"bike_id":"c55304c6-2525-40f2-a3a8-bafb98a92289","system_id":"levelo_inurba_marseille","lat":43.29002,"lon":5.35611,"is_reserved":false,"is_disabled":false,"rental_uris":{"android":"levelo://app?vid=c55304c6-2525-40f2-a3a8-bafb98a92289","ios":"levelo://app?vid=c55304c6-2525-40f2-a3a8-bafb98a92289"},"vehicle_type_id":"4","last_reported":1729696145,"current_range_meters":39200,"station_id":"ce4bhb92rcd13ifvqen0","pricing_plan_id":"cebpf4jnsgd1na2vs0mg"},{"bike_id":"b220fe0c-2b01-42c7-8435-b7b259cfdc56","system_id":"levelo_inurba_marseille","lat":43.27539,"lon":5.396,"is_reserved":false,"is_disabled":false,"rental_uris":{"android":"levelo://app?vid=b220fe0c-2b01-42c7-8435-b7b259cfdc56","ios":"levelo://app?vid=b220fe0c-2b01-42c7-8435-b7b259cfdc56"},"vehicle_type_id":"4","last_reported":1729696145,"current_range_meters":20000,"station_id":"","pricing_plan_id":"cebpf4jnsgd1na2vs0mg"},{"bike_id":"815dd284-1bd2-4bb9-992a-b2116e2485bc","system_id":"levelo_inurba_marseille","lat":43.32667,"lon":5.36095,"is_reserved":false,"is_disabled":false,"rental_uris":{"android":"levelo://app?vid=815dd284-1bd2-4bb9-992a-b2116e2485bc","ios":"levelo://app?vid=815dd284-1bd2-4bb9-992a-b2116e2485bc"},"vehicle_type_id":"4","last_reported":1729696145,"current_range_meters":28800,"station_id":"","pricing_plan_id":"cebpf4jnsgd1na2vs0mg"},{"bike_id":"c6275880-d301-4fd6-86dc-0e1544c4345e","system_id":"levelo_inurba_marseille","lat":43.29578,"lon":5.36737,"is_reserved":false,"is_disabled":false,"rental_uris":{"android":"levelo://app?vid=c6275880-d301-4fd6-86dc-0e1544c4345e","ios":"levelo://app?vid=c6275880-d301-4fd6-86dc-0e1544c4345e"},"vehicle_type_id":"4","last_reported":1729696145,"current_range_meters":38800,"station_id":"ce4bgph2rcd13ifvqc2g","pricing_plan_id":"cebpf4jnsgd1na2vs0mg"},{"bike_id":"1aa2918d-b3b4-4d9e-a24c-eb2a73421de0","system_id":"levelo_inurba_marseille","lat":43.25176,"lon":5.37488,"is_reserved":false,"is_disabled":false,"rental_uris":{"android":"levelo://app?vid=1aa2918d-b3b4-4d9e-a24c-eb2a73421de0","ios":"levelo://app?vid=1aa2918d-b3b4-4d9e-a24c-eb2a73421de0"},"vehicle_type_id":"4","last_reported":1729696145,"current_range_meters":38800,"station_id":"","pricing_plan_id":"cebpf4jnsgd1na2vs0mg"},{"bike_id":"d55cb384-a40c-47ef-8484-d482606c2483","system_id":"levelo_inurba_marseille","lat":43.2953,"lon":5.38545,"is_reserved":false,"is_disabled":false,"rental_uris":{"android":"levelo://app?vid=d55cb384-a40c-47ef-8484-d482606c2483","ios":"levelo://app?vid=d55cb384-a40c-47ef-8484-d482606c2483"},"vehicle_type_id":"4","last_reported":1729696145,"current_range_meters":8000,"station_id":"ce4bgih2rcd13ifvqba0","pricing_plan_id":"cebpf4jnsgd1na2vs0mg"},{"bike_id":"c9d5c53b-4b2e-4f07-9b45-4ac77c8a86f7","system_id":"levelo_inurba_marseille","lat":43.30917,"lon":5.36847,"is_reserved":false,"is_disabled":false,"rental_uris":{"android":"levelo://app?vid=c9d5c53b-4b2e-4f07-9b45-4ac77c8a86f7","ios":"levelo://app?vid=c9d5c53b-4b2e-4f07-9b45-4ac77c8a86f7"},"vehicle_type_id":"4","last_reported":1729696145,"current_range_meters":17200,"station_id":"ce4bgn92rcd13ifvqbvg","pricing_plan_id":"cebpf4jnsgd1na2vs0mg"},{"bike_id":"f764948a-423b-4346-ba8b-c06aabe8ee1a","system_id":"levelo_inurba_marseille","lat":43.29915,"lon":5.37485,"is_reserved":false,"is_disabled":false,"rental_uris":{"android":"levelo://app?vid=f764948a-423b-4346-ba8b-c06aabe8ee1a","ios":"levelo://app?vid=f764948a-423b-4346-ba8b-c06aabe8ee1a"},"vehicle_type_id":"4","last_reported":1729696145,"current_range_meters":32000,"station_id":"ce4bgjh2rcd13ifvqbg0","pricing_plan_id":"cebpf4jnsgd1na2vs0mg"},{"bike_id":"dd6acc0e-bd79-4f8d-bfeb-3beb9044870f","system_id":"levelo_inurba_marseille","lat":43.29809,"lon":5.3809,"is_reserved":false,"is_disabled":false,"rental_uris":{"android":"levelo://app?vid=dd6acc0e-bd79-4f8d-bfeb-3beb9044870f","ios":"levelo://app?vid=dd6acc0e-bd79-4f8d-bfeb-3beb9044870f"},"vehicle_type_id":"4","last_reported":1729696145,"current_range_meters":38800,"station_id":"ce4bgip2rcd13ifvqbb0","pricing_plan_id":"cebpf4jnsgd1na2vs0mg"},{"bike_id":"995dedfc-6623-4e07-92b7-58785cc57a73","system_id":"levelo_inurba_marseille","lat":43.286652,"lon":5.363421,"is_reserved":false,"is_disabled":false,"rental_uris":{"android":"levelo://app?vid=995dedfc-6623-4e07-92b7-58785cc57a73","ios":"levelo://app?vid=995dedfc-6623-4e07-92b7-58785cc57a73"},"vehicle_type_id":"4","last_reported":1729696145,"current_range_meters":31200,"station_id":"ce4bhah2rcd13ifvqej0","pricing_plan_id":"cebpf4jnsgd1na2vs0mg"},{"bike_id":"0a6b598d-01d6-41d4-b3f4-8b786b1436dd","system_id":"levelo_inurba_marseille","lat":43.30542,"lon":5.36699,"is_reserved":false,"is_disabled":false,"rental_uris":{"android":"levelo://app?vid=0a6b598d-01d6-41d4-b3f4-8b786b1436dd","ios":"levelo://app?vid=0a6b598d-01d6-41d4-b3f4-8b786b1436dd"},"vehicle_type_id":"4","last_reported":1729696145,"current_range_meters":39200,"station_id":"ce4bgrp2rcd13ifvqc9g","pricing_plan_id":"cebpf4jnsgd1na2vs0mg"},{"bike_id":"07c2576b-607e-4887-b80e-36889f16876e","system_id":"levelo_inurba_marseille","lat":43.32487,"lon":5.36559,"is_reserved":false,"is_disabled":false,"rental_uris":{"android":"levelo://app?vid=07c2576b-607e-4887-b80e-36889f16876e","ios":"levelo://app?vid=07c2576b-607e-4887-b80e-36889f16876e"},"vehicle_type_id":"4","last_reported":1729696145,"current_range_meters":29600,"station_id":"ce4bhs12rcd13ifvqhvg","pricing_plan_id":"cebpf4jnsgd1na2vs0mg"},{"bike_id":"777a6b46-54f6-4127-a3ed-ab51fdc9c6bb","system_id":"levelo_inurba_marseille","lat":43.245367,"lon":5.395157,"is_reserved":false,"is_disabled":false,"rental_uris":{"android":"levelo://app?vid=777a6b46-54f6-4127-a3ed-ab51fdc9c6bb","ios":"levelo://app?vid=777a6b46-54f6-4127-a3ed-ab51fdc9c6bb"},"vehicle_type_id":"4","last_reported":1729696145,"current_range_meters":8400,"station_id":"ce4bhlp2rcd13ifvqgjg","pricing_plan_id":"cebpf4jnsgd1na2vs0mg"},{"bike_id":"9c74f38b-402e-4d9b-a815-089053c95f99","system_id":"levelo_inurba_marseille","lat":43.32337,"lon":5.40624,"is_reserved":false,"is_disabled":false,"rental_uris":{"android":"levelo://app?vid=9c74f38b-402e-4d9b-a815-089053c95f99","ios":"levelo://app?vid=9c74f38b-402e-4d9b-a815-089053c95f99"},"vehicle_type_id":"4","last_reported":1729696145,"current_range_meters":28800,"station_id":"ce4bhq92rcd13ifvqhjg","pricing_plan_id":"cebpf4jnsgd1na2vs0mg"},{"bike_id":"c5fc17b9-71be-4397-9e7a-2b70c63c9eab","system_id":"levelo_inurba_marseille","lat":43.28611,"lon":5.37058,"is_reserved":false,"is_disabled":false,"rental_uris":{"android":"levelo://app?vid=c5fc17b9-71be-4397-9e7a-2b70c63c9eab","ios":"levelo://app?vid=c5fc17b9-71be-4397-9e7a-2b70c63c9eab"},"vehicle_type_id":"4","last_reported":1729696145,"current_range_meters":36800,"station_id":"ce4bht12rcd13ifvqi60","pricing_plan_id":"cebpf4jnsgd1na2vs0mg"},{"bike_id":"0ed1cd0c-195f-4f4c-a2d7-2b662b9b3173","system_id":"levelo_inurba_marseille","lat":43.30891,"lon":5.39645,"is_reserved":false,"is_disabled":false,"rental_uris":{"android":"levelo://app?vid=0ed1cd0c-195f-4f4c-a2d7-2b662b9b3173","ios":"levelo://app?vid=0ed1cd0c-195f-4f4c-a2d7-2b662b9b3173"},"vehicle_type_id":"4","last_reported":1729696145,"current_range_meters":38800,"station_id":"ce4bh012rcd13ifvqcv0","pricing_plan_id":"cebpf4jnsgd1na2vs0mg"},{"bike_id":"e4d1d764-d0e0-44c1-9c9d-825a5b8f9482","system_id":"levelo_inurba_marseille","lat":43.266418,"lon":5.402036,"is_reserved":false,"is_disabled":false,"rental_uris":{"android":"levelo://app?vid=e4d1d764-d0e0-44c1-9c9d-825a5b8f9482","ios":"levelo://app?vid=e4d1d764-d0e0-44c1-9c9d-825a5b8f9482"},"vehicle_type_id":"4","last_reported":1729696145,"current_range_meters":8800,"station_id":"ce501612rcd8frsf0b60","pricing_plan_id":"cebpf4jnsgd1na2vs0mg"},{"bike_id":"09b99a85-9e27-4ec7-b9aa-54449b17bbe8","system_id":"levelo_inurba_marseille","lat":43.26195,"lon":5.3745,"is_reserved":false,"is_disabled":false,"rental_uris":{"android":"levelo://app?vid=09b99a85-9e27-4ec7-b9aa-54449b17bbe8","ios":"levelo://app?vid=09b99a85-9e27-4ec7-b9aa-54449b17bbe8"},"vehicle_type_id":"4","last_reported":1729696145,"current_range_meters":38800,"station_id":"ce4bhgp2rcd13ifvqfc0","pricing_plan_id":"cebpf4jnsgd1na2vs0mg"},{"bike_id":"1cf94153-0634-4822-b9df-c5392fc7b9bc","system_id":"levelo_inurba_marseille","lat":43.2981,"lon":5.38099,"is_reserved":false,"is_disabled":false,"rental_uris":{"android":"levelo://app?vid=1cf94153-0634-4822-b9df-c5392fc7b9bc","ios":"levelo://app?vid=1cf94153-0634-4822-b9df-c5392fc7b9bc"},"vehicle_type_id":"4","last_reported":1729696145,"current_range_meters":38000,"station_id":"ce4bgip2rcd13ifvqbb0","pricing_plan_id":"cebpf4jnsgd1na2vs0mg"},{"bike_id":"e0616f23-ce3e-413f-902e-efb2b0f00a3a","system_id":"levelo_inurba_marseille","lat":43.337444,"lon":5.374475,"is_reserved":false,"is_disabled":false,"rental_uris":{"android":"levelo://app?vid=e0616f23-ce3e-413f-902e-efb2b0f00a3a","ios":"levelo://app?vid=e0616f23-ce3e-413f-902e-efb2b0f00a3a"},"vehicle_type_id":"4","last_reported":1729696145,"current_range_meters":17200,"station_id":"","pricing_plan_id":"cebpf4jnsgd1na2vs0mg"},{"bike_id":"14e8a1f0-2071-44e0-9b31-4380a284594f","system_id":"levelo_inurba_marseille","lat":43.26203,"lon":5.3792,"is_reserved":false,"is_disabled":false,"rental_uris":{"android":"levelo://app?vid=14e8a1f0-2071-44e0-9b31-4380a284594f","ios":"levelo://app?vid=14e8a1f0-2071-44e0-9b31-4380a284594f"},"vehicle_type_id":"4","last_reported":1729696145,"current_range_meters":6000,"station_id":"ce4bhjp2rcd13ifvqg90","pricing_plan_id":"cebpf4jnsgd1na2vs0mg"},{"bike_id":"b49d8321-6542-4d03-89b1-13f741313bda","system_id":"levelo_inurba_marseille","lat":43.28944,"lon":5.36643,"is_reserved":false,"is_disabled":false,"rental_uris":{"android":"levelo://app?vid=b49d8321-6542-4d03-89b1-13f741313bda","ios":"levelo://app?vid=b49d8321-6542-4d03-89b1-13f741313bda"},"vehicle_type_id":"4","last_reported":1729696145,"current_range_meters":31200,"station_id":"ce4bhap2rcd13ifvqek0","pricing_plan_id":"cebpf4jnsgd1na2vs0mg"},{"bike_id":"f649cb5e-d073-45a9-addc-f783e844fb25","system_id":"levelo_inurba_marseille","lat":43.269414,"lon":5.402531,"is_reserved":false,"is_disabled":false,"rental_uris":{"android":"levelo://app?vid=f649cb5e-d073-45a9-addc-f783e844fb25","ios":"levelo://app?vid=f649cb5e-d073-45a9-addc-f783e844fb25"},"vehicle_type_id":"4","last_reported":1729696145,"current_range_meters":35200,"station_id":"cjm6bp8fraef2m0cb0m0","pricing_plan_id":"cebpf4jnsgd1na2vs0mg"},{"bike_id":"a0374b60-68e0-4f7c-b821-2cbdb02f123f","system_id":"levelo_inurba_marseille","lat":43.26063,"lon":5.39394,"is_reserved":false,"is_disabled":false,"rental_uris":{"android":"levelo://app?vid=a0374b60-68e0-4f7c-b821-2cbdb02f123f","ios":"levelo://app?vid=a0374b60-68e0-4f7c-b821-2cbdb02f123f"},"vehicle_type_id":"4","last_reported":1729696145,"current_range_meters":32800,"station_id":"ce4bhh92rcd13ifvqfj0","pricing_plan_id":"cebpf4jnsgd1na2vs0mg"},{"bike_id":"23297b42-b3b2-4bb6-a14e-b8f2d393137a","system_id":"levelo_inurba_marseille","lat":43.30782,"lon":5.37657,"is_reserved":false,"is_disabled":false,"rental_uris":{"android":"levelo://app?vid=23297b42-b3b2-4bb6-a14e-b8f2d393137a","ios":"levelo://app?vid=23297b42-b3b2-4bb6-a14e-b8f2d393137a"},"vehicle_type_id":"4","last_reported":1729696145,"current_range_meters":32000,"station_id":"ce4bgv92rcd13ifvqcq0","pricing_plan_id":"cebpf4jnsgd1na2vs0mg"},{"bike_id":"212e368a-8e5d-4700-9115-ac756ba88aa4","system_id":"levelo_inurba_marseille","lat":43.29809,"lon":5.38081,"is_reserved":false,"is_disabled":false,"rental_uris":{"android":"levelo://app?vid=212e368a-8e5d-4700-9115-ac756ba88aa4","ios":"levelo://app?vid=212e368a-8e5d-4700-9115-ac756ba88aa4"},"vehicle_type_id":"4","last_reported":1729696145,"current_range_meters":38800,"station_id":"ce4bgip2rcd13ifvqbb0","pricing_plan_id":"cebpf4jnsgd1na2vs0mg"},{"bike_id":"d92c4ee6-1f1b-4213-a8d7-e1229e9b1b68","system_id":"levelo_inurba_marseille","lat":43.29861,"lon":5.44156,"is_reserved":false,"is_disabled":false,"rental_uris":{"android":"levelo://app?vid=d92c4ee6-1f1b-4213-a8d7-e1229e9b1b68","ios":"levelo://app?vid=d92c4ee6-1f1b-4213-a8d7-e1229e9b1b68"},"vehicle_type_id":"4","last_reported":1729696145,"current_range_meters":4800,"station_id":"","pricing_plan_id":"cebpf4jnsgd1na2vs0mg"},{"bike_id":"be7d3faa-4981-47f5-b348-414813e8655d","system_id":"levelo_inurba_marseille","lat":43.29902,"lon":5.38146,"is_reserved":false,"is_disabled":false,"rental_uris":{"android":"levelo://app?vid=be7d3faa-4981-47f5-b348-414813e8655d","ios":"levelo://app?vid=be7d3faa-4981-47f5-b348-414813e8655d"},"vehicle_type_id":"4","last_reported":1729696145,"current_range_meters":8400,"station_id":"ce4bgj12rcd13ifvqbc0","pricing_plan_id":"cebpf4jnsgd1na2vs0mg"},{"bike_id":"5d1743f1-ff9a-4f26-83de-f346428801ed","system_id":"levelo_inurba_marseille","lat":43.30532,"lon":5.38433,"is_reserved":false,"is_disabled":false,"rental_uris":{"android":"levelo://app?vid=5d1743f1-ff9a-4f26-83de-f346428801ed","ios":"levelo://app?vid=5d1743f1-ff9a-4f26-83de-f346428801ed"},"vehicle_type_id":"4","last_reported":1729696145,"current_range_meters":20400,"station_id":"ce4bgg92rcd13ifvqb30","pricing_plan_id":"cebpf4jnsgd1na2vs0mg"},{"bike_id":"c9aaa140-4cb3-444a-80ce-93944fd36d74","system_id":"levelo_inurba_marseille","lat":43.25004,"lon":5.38928,"is_reserved":false,"is_disabled":false,"rental_uris":{"android":"levelo://app?vid=c9aaa140-4cb3-444a-80ce-93944fd36d74","ios":"levelo://app?vid=c9aaa140-4cb3-444a-80ce-93944fd36d74"},"vehicle_type_id":"4","last_reported":1729696145,"current_range_meters":37600,"station_id":"ce4bhgp2rcd13ifvqfd0","pricing_plan_id":"cebpf4jnsgd1na2vs0mg"},{"bike_id":"c26b7724-29b5-4546-aeec-3ee179135caf","system_id":"levelo_inurba_marseille","lat":43.28725,"lon":5.36085,"is_reserved":false,"is_disabled":false,"rental_uris":{"android":"levelo://app?vid=c26b7724-29b5-4546-aeec-3ee179135caf","ios":"levelo://app?vid=c26b7724-29b5-4546-aeec-3ee179135caf"},"vehicle_type_id":"4","last_reported":1729696145,"current_range_meters":38800,"station_id":"cki0cbj6b192h4jlfktg","pricing_plan_id":"cebpf4jnsgd1na2vs0mg"},{"bike_id":"6f6a90b8-8f1a-4a65-be2d-a9fbaa0ccd97","system_id":"levelo_inurba_marseille","lat":43.26808,"lon":5.40262,"is_reserved":false,"is_disabled":false,"rental_uris":{"android":"levelo://app?vid=6f6a90b8-8f1a-4a65-be2d-a9fbaa0ccd97","ios":"levelo://app?vid=6f6a90b8-8f1a-4a65-be2d-a9fbaa0ccd97"},"vehicle_type_id":"4","last_reported":1729696145,"current_range_meters":34000,"station_id":"ce501612rcd8frsf0b60","pricing_plan_id":"cebpf4jnsgd1na2vs0mg"},{"bike_id":"7d2fe239-8ed8-4b81-b12c-dc34c4445f33","system_id":"levelo_inurba_marseille","lat":43.29844,"lon":5.36274,"is_reserved":false,"is_disabled":false,"rental_uris":{"android":"levelo://app?vid=7d2fe239-8ed8-4b81-b12c-dc34c4445f33","ios":"levelo://app?vid=7d2fe239-8ed8-4b81-b12c-dc34c4445f33"},"vehicle_type_id":"4","last_reported":1729696145,"current_range_meters":25600,"station_id":"ce4bgpp2rcd13ifvqc3g","pricing_plan_id":"cebpf4jnsgd1na2vs0mg"},{"bike_id":"5e8f458a-a61b-4190-ba91-d36811f858e7","system_id":"levelo_inurba_marseille","lat":43.30543,"lon":5.36711,"is_reserved":false,"is_disabled":false,"rental_uris":{"android":"levelo://app?vid=5e8f458a-a61b-4190-ba91-d36811f858e7","ios":"levelo://app?vid=5e8f458a-a61b-4190-ba91-d36811f858e7"},"vehicle_type_id":"4","last_reported":1729696145,"current_range_meters":28800,"station_id":"ce4bgrp2rcd13ifvqc9g","pricing_plan_id":"cebpf4jnsgd1na2vs0mg"},{"bike_id":"59452cb4-d6c0-4a05-88cf-550cb646d8a2","system_id":"levelo_inurba_marseille","lat":43.30885,"lon":5.39642,"is_reserved":false,"is_disabled":false,"rental_uris":{"android":"levelo://app?vid=59452cb4-d6c0-4a05-88cf-550cb646d8a2","ios":"levelo://app?vid=59452cb4-d6c0-4a05-88cf-550cb646d8a2"},"vehicle_type_id":"4","last_reported":1729696145,"current_range_meters":35200,"station_id":"ce4bh012rcd13ifvqcv0","pricing_plan_id":"cebpf4jnsgd1na2vs0mg"},{"bike_id":"a90d435a-f920-4ecd-a2f1-1900446a3610","system_id":"levelo_inurba_marseille","lat":43.29555,"lon":5.42285,"is_reserved":false,"is_disabled":false,"rental_uris":{"android":"levelo://app?vid=a90d435a-f920-4ecd-a2f1-1900446a3610","ios":"levelo://app?vid=a90d435a-f920-4ecd-a2f1-1900446a3610"},"vehicle_type_id":"4","last_reported":1729696145,"current_range_meters":39200,"station_id":"ce4bhph2rcd13ifvqhdg","pricing_plan_id":"cebpf4jnsgd1na2vs0mg"},{"bike_id":"37756e87-889e-4e58-a95e-3bddaee4640a","system_id":"levelo_inurba_marseille","lat":43.28708,"lon":5.37389,"is_reserved":false,"is_disabled":false,"rental_uris":{"android":"levelo://app?vid=37756e87-889e-4e58-a95e-3bddaee4640a","ios":"levelo://app?vid=37756e87-889e-4e58-a95e-3bddaee4640a"},"vehicle_type_id":"4","last_reported":1729696145,"current_range_meters":31200,"station_id":"ce4bh3p2rcd13ifvqdq0","pricing_plan_id":"cebpf4jnsgd1na2vs0mg"},{"bike_id":"a6abc163-ead0-4db5-ad14-7a81ba1fc062","system_id":"levelo_inurba_marseille","lat":43.2958,"lon":5.36744,"is_reserved":false,"is_disabled":false,"rental_uris":{"android":"levelo://app?vid=a6abc163-ead0-4db5-ad14-7a81ba1fc062","ios":"levelo://app?vid=a6abc163-ead0-4db5-ad14-7a81ba1fc062"},"vehicle_type_id":"4","last_reported":1729696145,"current_range_meters":32800,"station_id":"ce4bgph2rcd13ifvqc2g","pricing_plan_id":"cebpf4jnsgd1na2vs0mg"},{"bike_id":"dfe7b766-2fbf-4fb6-9732-c9980ca58c95","system_id":"levelo_inurba_marseille","lat":43.30555,"lon":5.36535,"is_reserved":false,"is_disabled":false,"rental_uris":{"android":"levelo://app?vid=dfe7b766-2fbf-4fb6-9732-c9980ca58c95","ios":"levelo://app?vid=dfe7b766-2fbf-4fb6-9732-c9980ca58c95"},"vehicle_type_id":"4","last_reported":1729696145,"current_range_meters":22400,"station_id":"ce4bgs12rcd13ifvqcag","pricing_plan_id":"cebpf4jnsgd1na2vs0mg"},{"bike_id":"1f9de242-0bec-4b6a-b137-5c2694b9aa52","system_id":"levelo_inurba_marseille","lat":43.28616,"lon":5.35102,"is_reserved":false,"is_disabled":false,"rental_uris":{"android":"levelo://app?vid=1f9de242-0bec-4b6a-b137-5c2694b9aa52","ios":"levelo://app?vid=1f9de242-0bec-4b6a-b137-5c2694b9aa52"},"vehicle_type_id":"4","last_reported":1729696145,"current_range_meters":30400,"station_id":"ce4bhch2rcd13ifvqeug","pricing_plan_id":"cebpf4jnsgd1na2vs0mg"},{"bike_id":"b07fad1a-1967-4a4f-b877-00570bf6d938","system_id":"levelo_inurba_marseille","lat":43.29197,"lon":5.39327,"is_reserved":false,"is_disabled":false,"rental_uris":{"android":"levelo://app?vid=b07fad1a-1967-4a4f-b877-00570bf6d938","ios":"levelo://app?vid=b07fad1a-1967-4a4f-b877-00570bf6d938"},"vehicle_type_id":"4","last_reported":1729696145,"current_range_meters":39200,"station_id":"ce4bh192rcd13ifvqdd0","pricing_plan_id":"cebpf4jnsgd1na2vs0mg"},{"bike_id":"01d08235-a4e4-434f-8493-03de70774cab","system_id":"levelo_inurba_marseille","lat":43.3211,"lon":5.36772,"is_reserved":false,"is_disabled":false,"rental_uris":{"android":"levelo://app?vid=01d08235-a4e4-434f-8493-03de70774cab","ios":"levelo://app?vid=01d08235-a4e4-434f-8493-03de70774cab"},"vehicle_type_id":"4","last_reported":1729696145,"current_range_meters":37600,"station_id":"ce4bhrh2rcd13ifvqhug","pricing_plan_id":"cebpf4jnsgd1na2vs0mg"},{"bike_id":"3b3dc248-ead1-4e29-9f2d-1b309d908471","system_id":"levelo_inurba_marseille","lat":43.30791,"lon":5.37651,"is_reserved":false,"is_disabled":false,"rental_uris":{"android":"levelo://app?vid=3b3dc248-ead1-4e29-9f2d-1b309d908471","ios":"levelo://app?vid=3b3dc248-ead1-4e29-9f2d-1b309d908471"},"vehicle_type_id":"4","last_reported":1729696145,"current_range_meters":30400,"station_id":"ce4bgv92rcd13ifvqcq0","pricing_plan_id":"cebpf4jnsgd1na2vs0mg"},{"bike_id":"4ef72ef5-61a4-4c4f-9595-d6f29ddb5a65","system_id":"levelo_inurba_marseille","lat":43.29792,"lon":5.37103,"is_reserved":false,"is_disabled":false,"rental_uris":{"android":"levelo://app?vid=4ef72ef5-61a4-4c4f-9595-d6f29ddb5a65","ios":"levelo://app?vid=4ef72ef5-61a4-4c4f-9595-d6f29ddb5a65"},"vehicle_type_id":"4","last_reported":1729696145,"current_range_meters":38800,"station_id":"ce4bgop2rcd13ifvqc1g","pricing_plan_id":"cebpf4jnsgd1na2vs0mg"},{"bike_id":"9ee92945-fc74-4382-9645-537465c75a5f","system_id":"levelo_inurba_marseille","lat":43.31233,"lon":5.36884,"is_reserved":false,"is_disabled":false,"rental_uris":{"android":"levelo://app?vid=9ee92945-fc74-4382-9645-537465c75a5f","ios":"levelo://app?vid=9ee92945-fc74-4382-9645-537465c75a5f"},"vehicle_type_id":"4","last_reported":1729696145,"current_range_meters":12400,"station_id":"ce4bgl92rcd13ifvqbq0","pricing_plan_id":"cebpf4jnsgd1na2vs0mg"},{"bike_id":"0ba002b8-e108-4a2b-b69b-9d62a94756b7","system_id":"levelo_inurba_marseille","lat":43.25001,"lon":5.38926,"is_reserved":false,"is_disabled":false,"rental_uris":{"android":"levelo://app?vid=0ba002b8-e108-4a2b-b69b-9d62a94756b7","ios":"levelo://app?vid=0ba002b8-e108-4a2b-b69b-9d62a94756b7"},"vehicle_type_id":"4","last_reported":1729696145,"current_range_meters":36800,"station_id":"ce4bhgp2rcd13ifvqfd0","pricing_plan_id":"cebpf4jnsgd1na2vs0mg"},{"bike_id":"ec13bc1b-ea3b-4a4a-b806-f7356a98eae5","system_id":"levelo_inurba_marseille","lat":43.29021,"lon":5.38133,"is_reserved":false,"is_disabled":false,"rental_uris":{"android":"levelo://app?vid=ec13bc1b-ea3b-4a4a-b806-f7356a98eae5","ios":"levelo://app?vid=ec13bc1b-ea3b-4a4a-b806-f7356a98eae5"},"vehicle_type_id":"4","last_reported":1729696145,"current_range_meters":9600,"station_id":"ce4bh4p2rcd13ifvqe1g","pricing_plan_id":"cebpf4jnsgd1na2vs0mg"},{"bike_id":"c2af7ffa-0a94-428d-a2ba-5db312591a75","system_id":"levelo_inurba_marseille","lat":43.27426,"lon":5.39419,"is_reserved":false,"is_disabled":false,"rental_uris":{"android":"levelo://app?vid=c2af7ffa-0a94-428d-a2ba-5db312591a75","ios":"levelo://app?vid=c2af7ffa-0a94-428d-a2ba-5db312591a75"},"vehicle_type_id":"4","last_reported":1729696145,"current_range_meters":4800,"station_id":"ce4bhdp2rcd13ifvqf20","pricing_plan_id":"cebpf4jnsgd1na2vs0mg"},{"bike_id":"4195b80a-7df3-4780-bd88-b9df09dc20de","system_id":"levelo_inurba_marseille","lat":43.30149,"lon":5.38085,"is_reserved":false,"is_disabled":false,"rental_uris":{"android":"levelo://app?vid=4195b80a-7df3-4780-bd88-b9df09dc20de","ios":"levelo://app?vid=4195b80a-7df3-4780-bd88-b9df09dc20de"},"vehicle_type_id":"4","last_reported":1729696145,"current_range_meters":30800,"station_id":"ce4bgjp2rcd13ifvqbh0","pricing_plan_id":"cebpf4jnsgd1na2vs0mg"},{"bike_id":"b5ea669b-1e6c-457e-9390-82fc51ed9656","system_id":"levelo_inurba_marseille","lat":43.28105,"lon":5.37833,"is_reserved":false,"is_disabled":false,"rental_uris":{"android":"levelo://app?vid=b5ea669b-1e6c-457e-9390-82fc51ed9656","ios":"levelo://app?vid=b5ea669b-1e6c-457e-9390-82fc51ed9656"},"vehicle_type_id":"4","last_reported":1729696145,"current_range_meters":39200,"station_id":"ce4bha12rcd13ifvqee0","pricing_plan_id":"cebpf4jnsgd1na2vs0mg"},{"bike_id":"916b4fbd-ebc6-4fae-b990-a2e2a60d1e55","system_id":"levelo_inurba_marseille","lat":43.26946,"lon":5.38635,"is_reserved":false,"is_disabled":false,"rental_uris":{"android":"levelo://app?vid=916b4fbd-ebc6-4fae-b990-a2e2a60d1e55","ios":"levelo://app?vid=916b4fbd-ebc6-4fae-b990-a2e2a60d1e55"},"vehicle_type_id":"4","last_reported":1729696145,"current_range_meters":38800,"station_id":"ce4bhh92rcd13ifvqfh0","pricing_plan_id":"cebpf4jnsgd1na2vs0mg"},{"bike_id":"517ecd69-925a-40c6-a887-d6451e845ef8","system_id":"levelo_inurba_marseille","lat":43.28152,"lon":5.42634,"is_reserved":false,"is_disabled":false,"rental_uris":{"android":"levelo://app?vid=517ecd69-925a-40c6-a887-d6451e845ef8","ios":"levelo://app?vid=517ecd69-925a-40c6-a887-d6451e845ef8"},"vehicle_type_id":"4","last_reported":1729696145,"current_range_meters":37600,"station_id":"ce4bhnh2rcd13ifvqgug","pricing_plan_id":"cebpf4jnsgd1na2vs0mg"},{"bike_id":"1dd94282-4ba0-44df-8748-def18ae5894f","system_id":"levelo_inurba_marseille","lat":43.29169,"lon":5.3716,"is_reserved":false,"is_disabled":false,"rental_uris":{"android":"levelo://app?vid=1dd94282-4ba0-44df-8748-def18ae5894f","ios":"levelo://app?vid=1dd94282-4ba0-44df-8748-def18ae5894f"},"vehicle_type_id":"4","last_reported":1729696145,"current_range_meters":38800,"station_id":"ce4bha92rcd13ifvqeh0","pricing_plan_id":"cebpf4jnsgd1na2vs0mg"},{"bike_id":"bf35d56f-bfe1-40d3-a772-53d38a84de04","system_id":"levelo_inurba_marseille","lat":43.24067,"lon":5.3776,"is_reserved":false,"is_disabled":false,"rental_uris":{"android":"levelo://app?vid=bf35d56f-bfe1-40d3-a772-53d38a84de04","ios":"levelo://app?vid=bf35d56f-bfe1-40d3-a772-53d38a84de04"},"vehicle_type_id":"4","last_reported":1729696145,"current_range_meters":16800,"station_id":"ce4bhnp2rcd13ifvqgvg","pricing_plan_id":"cebpf4jnsgd1na2vs0mg"},{"bike_id":"d8e4d476-ade5-4dd7-ad1e-5e9c7dd066a4","system_id":"levelo_inurba_marseille","lat":43.284851,"lon":5.385549,"is_reserved":false,"is_disabled":false,"rental_uris":{"android":"levelo://app?vid=d8e4d476-ade5-4dd7-ad1e-5e9c7dd066a4","ios":"levelo://app?vid=d8e4d476-ade5-4dd7-ad1e-5e9c7dd066a4"},"vehicle_type_id":"4","last_reported":1729696145,"current_range_meters":26000,"station_id":"ce4bh8p2rcd13ifvqeb0","pricing_plan_id":"cebpf4jnsgd1na2vs0mg"},{"bike_id":"ad255a26-6d60-4229-89be-14f38d6549d3","system_id":"levelo_inurba_marseille","lat":43.28477,"lon":5.38414,"is_reserved":false,"is_disabled":false,"rental_uris":{"android":"levelo://app?vid=ad255a26-6d60-4229-89be-14f38d6549d3","ios":"levelo://app?vid=ad255a26-6d60-4229-89be-14f38d6549d3"},"vehicle_type_id":"4","last_reported":1729696145,"current_range_meters":38800,"station_id":"ce4bh512rcd13ifvqe3g","pricing_plan_id":"cebpf4jnsgd1na2vs0mg"},{"bike_id":"52712485-335e-496f-8993-243ef7c55ddf","system_id":"levelo_inurba_marseille","lat":43.28043,"lon":5.36955,"is_reserved":false,"is_disabled":false,"rental_uris":{"android":"levelo://app?vid=52712485-335e-496f-8993-243ef7c55ddf","ios":"levelo://app?vid=52712485-335e-496f-8993-243ef7c55ddf"},"vehicle_type_id":"4","last_reported":1729696145,"current_range_meters":39200,"station_id":"ce4bha12rcd13ifvqef0","pricing_plan_id":"cebpf4jnsgd1na2vs0mg"},{"bike_id":"67da05d5-0870-4ef8-91ad-6fc6fc08ef65","system_id":"levelo_inurba_marseille","lat":43.30538,"lon":5.36531,"is_reserved":false,"is_disabled":false,"rental_uris":{"android":"levelo://app?vid=67da05d5-0870-4ef8-91ad-6fc6fc08ef65","ios":"levelo://app?vid=67da05d5-0870-4ef8-91ad-6fc6fc08ef65"},"vehicle_type_id":"4","last_reported":1729696145,"current_range_meters":39200,"station_id":"ce4bgs12rcd13ifvqcag","pricing_plan_id":"cebpf4jnsgd1na2vs0mg"},