{"last_updated":1727161709,"ttl":60,"version":"2.2","data":{"bikes":[{"bike_id":"cbb37679-15db-4e79-8489-a62305d2cd5d","system_id":"levelo_inurba_marseille","lat":43.269315,"lon":5.38924,"is_reserved":false,"is_disabled":false,"rental_uris":{"android":"levelo://app?vid=cbb37679-15db-4e79-8489-a62305d2cd5d","ios":"levelo://app?vid=cbb37679-15db-4e79-8489-a62305d2cd5d"},"vehicle_type_id":"4","last_reported":1727161709,"current_range_meters":37600,"station_id":"ce4bhhh2rcd13ifvqfl0","pricing_plan_id":"cebpf4jnsgd1na2vs0mg"},{"bike_id":"94974735-9e09-4ce4-8c77-f4714a151daf","system_id":"levelo_inurba_marseille","lat":43.22928,"lon":5.35376,"is_reserved":false,"is_disabled":false,"rental_uris":{"android":"levelo://app?vid=94974735-9e09-4ce4-8c77-f4714a151daf","ios":"levelo://app?vid=94974735-9e09-4ce4-8c77-f4714a151daf"},"vehicle_type_id":"4","last_reported":1727161709,"current_range_meters":38000,"station_id":"cpo3532slgdg3j2ikp40","pricing_plan_id":"cebpf4jnsgd1na2vs0mg"},{"bike_id":"2200d9de-eab9-4f82-a98f-84d47f405602","system_id":"levelo_inurba_marseille","lat":43.30471,"lon":5.37914,"is_reserved":false,"is_disabled":false,"rental_uris":{"android":"levelo://app?vid=2200d9de-eab9-4f82-a98f-84d47f405602","ios":"levelo://app?vid=2200d9de-eab9-4f82-a98f-84d47f405602"},"vehicle_type_id":"4","last_reported":1727161709,"current_range_meters":3200,"station_id":"ce4bgup2rcd13ifvqcn0","pricing_plan_id":"cebpf4jnsgd1na2vs0mg"},{"bike_id":"fa8d4f50-b9e3-4c63-ad5d-ebb3725043c5","system_id":"levelo_inurba_marseille","lat":43.3136,"lon":5.36714,"is_reserved":false,"is_disabled":false,"rental_uris":{"android":"levelo://app?vid=fa8d4f50-b9e3-4c63-ad5d-ebb3725043c5","ios":"levelo://app?vid=fa8d4f50-b9e3-4c63-ad5d-ebb3725043c5"},"vehicle_type_id":"4","last_reported":1727161709,"current_range_meters":9200,"station_id":"ce4bgr92rcd13ifvqc6g","pricing_plan_id":"cebpf4jnsgd1na2vs0mg"},{"bike_id":"5d3d257f-bb51-4bce-a465-c8d6a178e971","system_id":"levelo_inurba_marseille","lat":43.326626,"lon":5.409771,"is_reserved":false,"is_disabled":false,"rental_uris":{"android":"levelo://app?vid=5d3d257f-bb51-4bce-a465-c8d6a178e971","ios":"levelo://app?vid=5d3d257f-bb51-4bce-a465-c8d6a178e971"},"vehicle_type_id":"4","last_reported":1727161709,"current_range_meters":37600,"station_id":"ce4bhpp2rcd13ifvqhgg","pricing_plan_id":"cebpf4jnsgd1na2vs0mg"},{"bike_id":"d6aba790-dec1-40a9-8805-3c4dcf6b7583","system_id":"levelo_inurba_marseille","lat":43.298996,"lon":5.436625,"is_reserved":false,"is_disabled":false,"rental_uris":{"android":"levelo://app?vid=d6aba790-dec1-40a9-8805-3c4dcf6b7583","ios":"levelo://app?vid=d6aba790-dec1-40a9-8805-3c4dcf6b7583"},"vehicle_type_id":"4","last_reported":1727161709,"current_range_meters":37600,"station_id":"ce4bhpp2rcd13ifvqhfg","pricing_plan_id":"cebpf4jnsgd1na2vs0mg"},{"bike_id":"7631faee-2cdf-4853-8a16-ca2ec974097d","system_id":"levelo_inurba_marseille","lat":43.30654,"lon":5.40095,"is_reserved":false,"is_disabled":false,"rental_uris":{"android":"levelo://app?vid=7631faee-2cdf-4853-8a16-ca2ec974097d","ios":"levelo://app?vid=7631faee-2cdf-4853-8a16-ca2ec974097d"},"vehicle_type_id":"4","last_reported":1727161709,"current_range_meters":33600,"station_id":"ce4bh112rcd13ifvqda0","pricing_plan_id":"cebpf4jnsgd1na2vs0mg"},{"bike_id":"65c7b2f2-564e-4c49-b7d7-6ad19fabad29","system_id":"levelo_inurba_marseille","lat":43.30276,"lon":5.37699,"is_reserved":false,"is_disabled":false,"rental_uris":{"android":"levelo://app?vid=65c7b2f2-564e-4c49-b7d7-6ad19fabad29","ios":"levelo://app?vid=65c7b2f2-564e-4c49-b7d7-6ad19fabad29"},"vehicle_type_id":"4","last_reported":1727161709,"current_range_meters":38400,"station_id":"ce4bguh2rcd13ifvqcj0","pricing_plan_id":"cebpf4jnsgd1na2vs0mg"},{"bike_id":"0d42b10a-3b15-482b-bbe9-82d3ea517263","system_id":"levelo_inurba_marseille","lat":43.263817,"lon":5.405807,"is_reserved":false,"is_disabled":false,"rental_uris":{"android":"levelo://app?vid=0d42b10a-3b15-482b-bbe9-82d3ea517263","ios":"levelo://app?vid=0d42b10a-3b15-482b-bbe9-82d3ea517263"},"vehicle_type_id":"4","last_reported":1727161709,"current_range_meters":29600,"station_id":"ce4bhm92rcd13ifvqglg","pricing_plan_id":"cebpf4jnsgd1na2vs0mg"},{"bike_id":"bdc9328e-17f4-4c52-8ae6-dc82c8545869","system_id":"levelo_inurba_marseille","lat":43.23965,"lon":5.36631,"is_reserved":false,"is_disabled":false,"rental_uris":{"android":"levelo://app?vid=bdc9328e-17f4-4c52-8ae6-dc82c8545869","ios":"levelo://app?vid=bdc9328e-17f4-4c52-8ae6-dc82c8545869"},"vehicle_type_id":"4","last_reported":1727161709,"current_range_meters":24800,"station_id":"ce4bhi12rcd13ifvqfp0","pricing_plan_id":"cebpf4jnsgd1na2vs0mg"},{"bike_id":"7737b815-6daf-41f0-8354-4b28ba75917f","system_id":"levelo_inurba_marseille","lat":43.302,"lon":5.39827,"is_reserved":false,"is_disabled":false,"rental_uris":{"android":"levelo://app?vid=7737b815-6daf-41f0-8354-4b28ba75917f","ios":"levelo://app?vid=7737b815-6daf-41f0-8354-4b28ba75917f"},"vehicle_type_id":"4","last_reported":1727161709,"current_range_meters":24400,"station_id":"ce4bgvp2rcd13ifvqct0","pricing_plan_id":"cebpf4jnsgd1na2vs0mg"},{"bike_id":"6af05b22-7037-4454-861c-3b90a9d37c6e","system_id":"levelo_inurba_marseille","lat":43.23155,"lon":5.43705,"is_reserved":false,"is_disabled":false,"rental_uris":{"android":"levelo://app?vid=6af05b22-7037-4454-861c-3b90a9d37c6e","ios":"levelo://app?vid=6af05b22-7037-4454-861c-3b90a9d37c6e"},"vehicle_type_id":"4","last_reported":1727161709,"current_range_meters":21600,"station_id":"ce4bhmp2rcd13ifvqgog","pricing_plan_id":"cebpf4jnsgd1na2vs0mg"},{"bike_id":"f3bf5fdd-dd32-4c3c-a883-9d7f4cfe2e34","system_id":"levelo_inurba_marseille","lat":43.25936,"lon":5.40899,"is_reserved":false,"is_disabled":false,"rental_uris":{"android":"levelo://app?vid=f3bf5fdd-dd32-4c3c-a883-9d7f4cfe2e34","ios":"levelo://app?vid=f3bf5fdd-dd32-4c3c-a883-9d7f4cfe2e34"},"vehicle_type_id":"4","last_reported":1727161709,"current_range_meters":4400,"station_id":"ce4bhm92rcd13ifvqglg","pricing_plan_id":"cebpf4jnsgd1na2vs0mg"},{"bike_id":"c7135bc2-57e6-40e7-86d9-bb25e1a33b9d","system_id":"levelo_inurba_marseille","lat":43.337444,"lon":5.374475,"is_reserved":false,"is_disabled":false,"rental_uris":{"android":"levelo://app?vid=c7135bc2-57e6-40e7-86d9-bb25e1a33b9d","ios":"levelo://app?vid=c7135bc2-57e6-40e7-86d9-bb25e1a33b9d"},"vehicle_type_id":"4","last_reported":1727161709,"current_range_meters":33200,"station_id":"","pricing_plan_id":"cebpf4jnsgd1na2vs0mg"},{"bike_id":"a0d707e1-1962-44ea-871d-1343e49e7758","system_id":"levelo_inurba_marseille","lat":43.275,"lon":5.42459,"is_reserved":false,"is_disabled":false,"rental_uris":{"android":"levelo://app?vid=a0d707e1-1962-44ea-871d-1343e49e7758","ios":"levelo://app?vid=a0d707e1-1962-44ea-871d-1343e49e7758"},"vehicle_type_id":"4","last_reported":1727161709,"current_range_meters":36400,"station_id":"ce4bhn92rcd13ifvqgrg","pricing_plan_id":"cebpf4jnsgd1na2vs0mg"},{"bike_id":"d4af3188-051f-4a7d-a203-31b3728fca1e","system_id":"levelo_inurba_marseille","lat":43.270706,"lon":5.422801,"is_reserved":false,"is_disabled":false,"rental_uris":{"android":"levelo://app?vid=d4af3188-051f-4a7d-a203-31b3728fca1e","ios":"levelo://app?vid=d4af3188-051f-4a7d-a203-31b3728fca1e"},"vehicle_type_id":"4","last_reported":1727161709,"current_range_meters":37600,"station_id":"ce4bhk92rcd13ifvqgb0","pricing_plan_id":"cebpf4jnsgd1na2vs0mg"},{"bike_id":"4d1e16ef-409e-4ace-911c-2f2d30f176ed","system_id":"levelo_inurba_marseille","lat":43.31492,"lon":5.37314,"is_reserved":false,"is_disabled":false,"rental_uris":{"android":"levelo://app?vid=4d1e16ef-409e-4ace-911c-2f2d30f176ed","ios":"levelo://app?vid=4d1e16ef-409e-4ace-911c-2f2d30f176ed"},"vehicle_type_id":"4","last_reported":1727161709,"current_range_meters":20400,"station_id":"ce4bgt12rcd13ifvqcd0","pricing_plan_id":"cebpf4jnsgd1na2vs0mg"},{"bike_id":"18f2c934-7a91-4893-af21-04349f1f5c0a","system_id":"levelo_inurba_marseille","lat":43.25574,"lon":5.38237,"is_reserved":false,"is_disabled":false,"rental_uris":{"android":"levelo://app?vid=18f2c934-7a91-4893-af21-04349f1f5c0a","ios":"levelo://app?vid=18f2c934-7a91-4893-af21-04349f1f5c0a"},"vehicle_type_id":"4","last_reported":1727161709,"current_range_meters":38000,"station_id":"ce4bhih2rcd13ifvqfs0","pricing_plan_id":"cebpf4jnsgd1na2vs0mg"},{"bike_id":"10d0dd91-eb88-4aed-b979-361c847af7cd","system_id":"levelo_inurba_marseille","lat":43.23196,"lon":5.39984,"is_reserved":false,"is_disabled":false,"rental_uris":{"android":"levelo://app?vid=10d0dd91-eb88-4aed-b979-361c847af7cd","ios":"levelo://app?vid=10d0dd91-eb88-4aed-b979-361c847af7cd"},"vehicle_type_id":"4","last_reported":1727161709,"current_range_meters":38400,"station_id":"ce4bhn12rcd13ifvqgqg","pricing_plan_id":"cebpf4jnsgd1na2vs0mg"},{"bike_id":"5453ff63-c479-4c4f-90a6-2244bf56c8f3","system_id":"levelo_inurba_marseille","lat":43.2707,"lon":5.42278,"is_reserved":false,"is_disabled":false,"rental_uris":{"android":"levelo://app?vid=5453ff63-c479-4c4f-90a6-2244bf56c8f3","ios":"levelo://app?vid=5453ff63-c479-4c4f-90a6-2244bf56c8f3"},"vehicle_type_id":"4","last_reported":1727161709,"current_range_meters":39200,"station_id":"ce4bhk92rcd13ifvqgb0","pricing_plan_id":"cebpf4jnsgd1na2vs0mg"},{"bike_id":"4b6cc228-d3e6-44a3-bee8-b0056aed30bf","system_id":"levelo_inurba_marseille","lat":43.23157,"lon":5.43701,"is_reserved":false,"is_disabled":false,"rental_uris":{"android":"levelo://app?vid=4b6cc228-d3e6-44a3-bee8-b0056aed30bf","ios":"levelo://app?vid=4b6cc228-d3e6-44a3-bee8-b0056aed30bf"},"vehicle_type_id":"4","last_reported":1727161709,"current_range_meters":33200,"station_id":"ce4bhmp2rcd13ifvqgog","pricing_plan_id":"cebpf4jnsgd1na2vs0mg"},{"bike_id":"11bdd8f9-8291-4b1b-b58e-0532d905f0cb","system_id":"levelo_inurba_marseille","lat":43.31223,"lon":5.36864,"is_reserved":false,"is_disabled":false,"rental_uris":{"android":"levelo://app?vid=11bdd8f9-8291-4b1b-b58e-0532d905f0cb","ios":"levelo://app?vid=11bdd8f9-8291-4b1b-b58e-0532d905f0cb"},"vehicle_type_id":"4","last_reported":1727161709,"current_range_meters":38000,"station_id":"ce4bgl92rcd13ifvqbq0","pricing_plan_id":"cebpf4jnsgd1na2vs0mg"},{"bike_id":"ad216239-a1f3-4a37-b5aa-fa2a18ccaa61","system_id":"levelo_inurba_marseille","lat":43.25936,"lon":5.40908,"is_reserved":false,"is_disabled":false,"rental_uris":{"android":"levelo://app?vid=ad216239-a1f3-4a37-b5aa-fa2a18ccaa61","ios":"levelo://app?vid=ad216239-a1f3-4a37-b5aa-fa2a18ccaa61"},"vehicle_type_id":"4","last_reported":1727161709,"current_range_meters":26800,"station_id":"ce4bhm92rcd13ifvqglg","pricing_plan_id":"cebpf4jnsgd1na2vs0mg"},{"bike_id":"54d2e0ef-9edf-43cb-bbbf-85ed53e21a88","system_id":"levelo_inurba_marseille","lat":43.2594,"lon":5.40905,"is_reserved":false,"is_disabled":false,"rental_uris":{"android":"levelo://app?vid=54d2e0ef-9edf-43cb-bbbf-85ed53e21a88","ios":"levelo://app?vid=54d2e0ef-9edf-43cb-bbbf-85ed53e21a88"},"vehicle_type_id":"4","last_reported":1727161709,"current_range_meters":36800,"station_id":"ce4bhm92rcd13ifvqglg","pricing_plan_id":"cebpf4jnsgd1na2vs0mg"},{"bike_id":"7a8458d5-44ac-4f2e-abef-3f01eb31f7ca","system_id":"levelo_inurba_marseille","lat":43.337444,"lon":5.374475,"is_reserved":false,"is_disabled":false,"rental_uris":{"android":"levelo://app?vid=7a8458d5-44ac-4f2e-abef-3f01eb31f7ca","ios":"levelo://app?vid=7a8458d5-44ac-4f2e-abef-3f01eb31f7ca"},"vehicle_type_id":"4","last_reported":1727161709,"current_range_meters":22800,"station_id":"","pricing_plan_id":"cebpf4jnsgd1na2vs0mg"},{"bike_id":"44956eb9-ed26-423f-bf8f-af8c21f3017f","system_id":"levelo_inurba_marseille","lat":43.30552,"lon":5.36698,"is_reserved":false,"is_disabled":false,"rental_uris":{"android":"levelo://app?vid=44956eb9-ed26-423f-bf8f-af8c21f3017f","ios":"levelo://app?vid=44956eb9-ed26-423f-bf8f-af8c21f3017f"},"vehicle_type_id":"4","last_reported":1727161709,"current_range_meters":35200,"station_id":"ce4bgrp2rcd13ifvqc9g","pricing_plan_id":"cebpf4jnsgd1na2vs0mg"},{"bike_id":"c50cc1a6-0822-4cc1-a64e-633bb0e3ec12","system_id":"levelo_inurba_marseille","lat":43.29299,"lon":5.37459,"is_reserved":false,"is_disabled":false,"rental_uris":{"android":"levelo://app?vid=c50cc1a6-0822-4cc1-a64e-633bb0e3ec12","ios":"levelo://app?vid=c50cc1a6-0822-4cc1-a64e-633bb0e3ec12"},"vehicle_type_id":"4","last_reported":1727161709,"current_range_meters":38400,"station_id":"ce4bgi12rcd13ifvqb70","pricing_plan_id":"cebpf4jnsgd1na2vs0mg"},{"bike_id":"ebf5c734-b1fe-4fcc-88dc-f9132da6918b","system_id":"levelo_inurba_marseille","lat":43.30468,"lon":5.37902,"is_reserved":false,"is_disabled":false,"rental_uris":{"android":"levelo://app?vid=ebf5c734-b1fe-4fcc-88dc-f9132da6918b","ios":"levelo://app?vid=ebf5c734-b1fe-4fcc-88dc-f9132da6918b"},"vehicle_type_id":"4","last_reported":1727161709,"current_range_meters":37600,"station_id":"ce4bgup2rcd13ifvqcn0","pricing_plan_id":"cebpf4jnsgd1na2vs0mg"},{"bike_id":"4ab87cbf-5b12-4878-b3d2-791248eccb2d","system_id":"levelo_inurba_marseille","lat":43.32661,"lon":5.40989,"is_reserved":false,"is_disabled":false,"rental_uris":{"android":"levelo://app?vid=4ab87cbf-5b12-4878-b3d2-791248eccb2d","ios":"levelo://app?vid=4ab87cbf-5b12-4878-b3d2-791248eccb2d"},"vehicle_type_id":"4","last_reported":1727161709,"current_range_meters":37600,"station_id":"ce4bhpp2rcd13ifvqhgg","pricing_plan_id":"cebpf4jnsgd1na2vs0mg"},{"bike_id":"88b52477-5c07-4236-9fac-1654173d5b16","system_id":"levelo_inurba_marseille","lat":43.30315,"lon":5.36902,"is_reserved":false,"is_disabled":false,"rental_uris":{"android":"levelo://app?vid=88b52477-5c07-4236-9fac-1654173d5b16","ios":"levelo://app?vid=88b52477-5c07-4236-9fac-1654173d5b16"},"vehicle_type_id":"4","last_reported":1727161709,"current_range_meters":32400,"station_id":"ce4bgqh2rcd13ifvqc5g","pricing_plan_id":"cebpf4jnsgd1na2vs0mg"},{"bike_id":"fc32088d-4a36-4fc6-ab97-42bfca324827","system_id":"levelo_inurba_marseille","lat":43.31276,"lon":5.40171,"is_reserved":false,"is_disabled":false,"rental_uris":{"android":"levelo://app?vid=fc32088d-4a36-4fc6-ab97-42bfca324827","ios":"levelo://app?vid=fc32088d-4a36-4fc6-ab97-42bfca324827"},"vehicle_type_id":"4","last_reported":1727161709,"current_range_meters":26800,"station_id":"ce4bh092rcd13ifvqd30","pricing_plan_id":"cebpf4jnsgd1na2vs0mg"},{"bike_id":"c8243bdf-7063-48e0-83f5-bba459ffe98b","system_id":"levelo_inurba_marseille","lat":43.24077,"lon":5.37754,"is_reserved":false,"is_disabled":false,"rental_uris":{"android":"levelo://app?vid=c8243bdf-7063-48e0-83f5-bba459ffe98b","ios":"levelo://app?vid=c8243bdf-7063-48e0-83f5-bba459ffe98b"},"vehicle_type_id":"4","last_reported":1727161709,"current_range_meters":37600,"station_id":"ce4bhnp2rcd13ifvqgvg","pricing_plan_id":"cebpf4jnsgd1na2vs0mg"},{"bike_id":"03409d1a-a416-4d64-af15-2f1fc04e5663","system_id":"levelo_inurba_marseille","lat":43.23153,"lon":5.43718,"is_reserved":false,"is_disabled":false,"rental_uris":{"android":"levelo://app?vid=03409d1a-a416-4d64-af15-2f1fc04e5663","ios":"levelo://app?vid=03409d1a-a416-4d64-af15-2f1fc04e5663"},"vehicle_type_id":"4","last_reported":1727161709,"current_range_meters":26800,"station_id":"ce4bhmp2rcd13ifvqgog","pricing_plan_id":"cebpf4jnsgd1na2vs0mg"},{"bike_id":"64169133-ffbb-40e0-b71d-cd03a6217f6e","system_id":"levelo_inurba_marseille","lat":43.309479,"lon":5.390326,"is_reserved":false,"is_disabled":false,"rental_uris":{"android":"levelo://app?vid=64169133-ffbb-40e0-b71d-cd03a6217f6e","ios":"levelo://app?vid=64169133-ffbb-40e0-b71d-cd03a6217f6e"},"vehicle_type_id":"4","last_reported":1727161709,"current_range_meters":35200,"station_id":"ce4bgup2rcd13ifvqco0","pricing_plan_id":"cebpf4jnsgd1na2vs0mg"},{"bike_id":"9fadec36-32c2-40ce-86e3-222ef791ca3d","system_id":"levelo_inurba_marseille","lat":43.2984,"lon":5.36266,"is_reserved":false,"is_disabled":false,"rental_uris":{"android":"levelo://app?vid=9fadec36-32c2-40ce-86e3-222ef791ca3d","ios":"levelo://app?vid=9fadec36-32c2-40ce-86e3-222ef791ca3d"},"vehicle_type_id":"4","last_reported":1727161709,"current_range_meters":25200,"station_id":"ce4bgpp2rcd13ifvqc3g","pricing_plan_id":"cebpf4jnsgd1na2vs0mg"},{"bike_id":"c29db812-a2ba-4b10-8014-dfbcc2e5e72c","system_id":"levelo_inurba_marseille","lat":43.26019,"lon":5.37586,"is_reserved":false,"is_disabled":false,"rental_uris":{"android":"levelo://app?vid=c29db812-a2ba-4b10-8014-dfbcc2e5e72c","ios":"levelo://app?vid=c29db812-a2ba-4b10-8014-dfbcc2e5e72c"},"vehicle_type_id":"4","last_reported":1727161709,"current_range_meters":4000,"station_id":"ce4bhgh2rcd13ifvqfa0","pricing_plan_id":"cebpf4jnsgd1na2vs0mg"},{"bike_id":"6acc6fab-b5ef-443e-99ba-b8bbb33f88f6","system_id":"levelo_inurba_marseille","lat":43.27497,"lon":5.42446,"is_reserved":false,"is_disabled":false,"rental_uris":{"android":"levelo://app?vid=6acc6fab-b5ef-443e-99ba-b8bbb33f88f6","ios":"levelo://app?vid=6acc6fab-b5ef-443e-99ba-b8bbb33f88f6"},"vehicle_type_id":"4","last_reported":1727161709,"current_range_meters":26800,"station_id":"ce4bhn92rcd13ifvqgrg","pricing_plan_id":"cebpf4jnsgd1na2vs0mg"},{"bike_id":"3cbccf5e-927a-4192-a6a7-d056c365b8c1","system_id":"levelo_inurba_marseille","lat":43.3054,"lon":5.36558,"is_reserved":false,"is_disabled":false,"rental_uris":{"android":"levelo://app?vid=3cbccf5e-927a-4192-a6a7-d056c365b8c1","ios":"levelo://app?vid=3cbccf5e-927a-4192-a6a7-d056c365b8c1"},"vehicle_type_id":"4","last_reported":1727161709,"current_range_meters":38800,"station_id":"ce4bgs12rcd13ifvqcag","pricing_plan_id":"cebpf4jnsgd1na2vs0mg"},{"bike_id":"44a8a61c-997b-400e-8a2b-961413edaa1d","system_id":"levelo_inurba_marseille","lat":43.29844,"lon":5.36269,"is_reserved":false,"is_disabled":false,"rental_uris":{"android":"levelo://app?vid=44a8a61c-997b-400e-8a2b-961413edaa1d","ios":"levelo://app?vid=44a8a61c-997b-400e-8a2b-961413edaa1d"},"vehicle_type_id":"4","last_reported":1727161709,"current_range_meters":26800,"station_id":"ce4bgpp2rcd13ifvqc3g","pricing_plan_id":"cebpf4jnsgd1na2vs0mg"},{"bike_id":"71f82c33-2a2c-45d4-a008-86ddaa99ab2b","system_id":"levelo_inurba_marseille","lat":43.26557,"lon":5.3728,"is_reserved":false,"is_disabled":false,"rental_uris":{"android":"levelo://app?vid=71f82c33-2a2c-45d4-a008-86ddaa99ab2b","ios":"levelo://app?vid=71f82c33-2a2c-45d4-a008-86ddaa99ab2b"},"vehicle_type_id":"4","last_reported":1727161709,"current_range_meters":38000,"station_id":"ce4bhg12rcd13ifvqf70","pricing_plan_id":"cebpf4jnsgd1na2vs0mg"},{"bike_id":"87da5202-59d4-4e9d-a627-50c812ca8ee2","system_id":"levelo_inurba_marseille","lat":43.25933,"lon":5.4091,"is_reserved":false,"is_disabled":false,"rental_uris":{"android":"levelo://app?vid=87da5202-59d4-4e9d-a627-50c812ca8ee2","ios":"levelo://app?vid=87da5202-59d4-4e9d-a627-50c812ca8ee2"},"vehicle_type_id":"4","last_reported":1727161709,"current_range_meters":30000,"station_id":"ce4bhm92rcd13ifvqglg","pricing_plan_id":"cebpf4jnsgd1na2vs0mg"},{"bike_id":"2be37c1f-d2a7-45fe-974c-ae6eff379baa","system_id":"levelo_inurba_marseille","lat":43.28275,"lon":5.3506,"is_reserved":false,"is_disabled":false,"rental_uris":{"android":"levelo://app?vid=2be37c1f-d2a7-45fe-974c-ae6eff379baa","ios":"levelo://app?vid=2be37c1f-d2a7-45fe-974c-ae6eff379baa"},"vehicle_type_id":"4","last_reported":1727161709,"current_range_meters":37600,"station_id":"ce4bhbp2rcd13ifvqerg","pricing_plan_id":"cebpf4jnsgd1na2vs0mg"},{"bike_id":"bb747a87-2085-4f66-afb1-a9ac0dca5d25","system_id":"levelo_inurba_marseille","lat":43.33025,"lon":5.39042,"is_reserved":false,"is_disabled":false,"rental_uris":{"android":"levelo://app?vid=bb747a87-2085-4f66-afb1-a9ac0dca5d25","ios":"levelo://app?vid=bb747a87-2085-4f66-afb1-a9ac0dca5d25"},"vehicle_type_id":"4","last_reported":1727161709,"current_range_meters":19200,"station_id":"ce4bhr92rcd13ifvqhrg","pricing_plan_id":"cebpf4jnsgd1na2vs0mg"},{"bike_id":"7fb501d7-e930-44c8-8fc0-cd8ad46478bf","system_id":"levelo_inurba_marseille","lat":43.2418,"lon":5.39725,"is_reserved":false,"is_disabled":false,"rental_uris":{"android":"levelo://app?vid=7fb501d7-e930-44c8-8fc0-cd8ad46478bf","ios":"levelo://app?vid=7fb501d7-e930-44c8-8fc0-cd8ad46478bf"},"vehicle_type_id":"4","last_reported":1727161709,"current_range_meters":28400,"station_id":"ce4bhn12rcd13ifvqgpg","pricing_plan_id":"cebpf4jnsgd1na2vs0mg"},{"bike_id":"554a77a2-7789-41b2-b6bb-625fcd5a5fff","system_id":"levelo_inurba_marseille","lat":43.29039,"lon":5.39985,"is_reserved":false,"is_disabled":false,"rental_uris":{"android":"levelo://app?vid=554a77a2-7789-41b2-b6bb-625fcd5a5fff","ios":"levelo://app?vid=554a77a2-7789-41b2-b6bb-625fcd5a5fff"},"vehicle_type_id":"4","last_reported":1727161709,"current_range_meters":35200,"station_id":"ce4bh392rcd13ifvqdm0","pricing_plan_id":"cebpf4jnsgd1na2vs0mg"},{"bike_id":"a578be38-e360-4614-972e-bddd8629f052","system_id":"levelo_inurba_marseille","lat":43.337444,"lon":5.374475,"is_reserved":false,"is_disabled":false,"rental_uris":{"android":"levelo://app?vid=a578be38-e360-4614-972e-bddd8629f052","ios":"levelo://app?vid=a578be38-e360-4614-972e-bddd8629f052"},"vehicle_type_id":"4","last_reported":1727161709,"current_range_meters":20000,"station_id":"","pricing_plan_id":"cebpf4jnsgd1na2vs0mg"},{"bike_id":"58da2eb5-b9c0-403e-8a66-0a99e6a0a28e","system_id":"levelo_inurba_marseille","lat":43.31223,"lon":5.36847,"is_reserved":false,"is_disabled":false,"rental_uris":{"android":"levelo://app?vid=58da2eb5-b9c0-403e-8a66-0a99e6a0a28e","ios":"levelo://app?vid=58da2eb5-b9c0-403e-8a66-0a99e6a0a28e"},"vehicle_type_id":"4","last_reported":1727161709,"current_range_meters":30800,"station_id":"ce4bgl92rcd13ifvqbq0","pricing_plan_id":"cebpf4jnsgd1na2vs0mg"},{"bike_id":"1cf9c6ad-a18e-4581-966a-e4580ac983e8","system_id":"levelo_inurba_marseille","lat":43.3015,"lon":5.38078,"is_reserved":false,"is_disabled":false,"rental_uris":{"android":"levelo://app?vid=1cf9c6ad-a18e-4581-966a-e4580ac983e8","ios":"levelo://app?vid=1cf9c6ad-a18e-4581-966a-e4580ac983e8"},"vehicle_type_id":"4","last_reported":1727161709,"current_range_meters":37600,"station_id":"ce4bgjp2rcd13ifvqbh0","pricing_plan_id":"cebpf4jnsgd1na2vs0mg"},{"bike_id":"2949db4c-f00a-4d16-8682-8390a0fc974e","system_id":"levelo_inurba_marseille","lat":43.30556,"lon":5.36564,"is_reserved":false,"is_disabled":false,"rental_uris":{"android":"levelo://app?vid=2949db4c-f00a-4d16-8682-8390a0fc974e","ios":"levelo://app?vid=2949db4c-f00a-4d16-8682-8390a0fc974e"},"vehicle_type_id":"4","last_reported":1727161709,"current_range_meters":6800,"station_id":"ce4bgs12rcd13ifvqcag","pricing_plan_id":"cebpf4jnsgd1na2vs0mg"},{"bike_id":"25bd7405-be80-4a77-a761-8a1efed52652","system_id":"levelo_inurba_marseille","lat":43.29898,"lon":5.4366,"is_reserved":false,"is_disabled":false,"rental_uris":{"android":"levelo://app?vid=25bd7405-be80-4a77-a761-8a1efed52652","ios":"levelo://app?vid=25bd7405-be80-4a77-a761-8a1efed52652"},"vehicle_type_id":"4","last_reported":1727161709,"current_range_meters":6400,"station_id":"ce4bhpp2rcd13ifvqhfg","pricing_plan_id":"cebpf4jnsgd1na2vs0mg"},{"bike_id":"23e670ee-166c-4a60-9e22-5e7c1c281979","system_id":"levelo_inurba_marseille","lat":43.304725,"lon":5.379125,"is_reserved":false,"is_disabled":false,"rental_uris":{"android":"levelo://app?vid=23e670ee-166c-4a60-9e22-5e7c1c281979","ios":"levelo://app?vid=23e670ee-166c-4a60-9e22-5e7c1c281979"},"vehicle_type_id":"4","last_reported":1727161709,"current_range_meters":11200,"station_id":"ce4bgup2rcd13ifvqcn0","pricing_plan_id":"cebpf4jnsgd1na2vs0mg"},{"bike_id":"c9d6b1a5-d961-4b81-a8bf-58ac05ab5665","system_id":"levelo_inurba_marseille","lat":43.28151,"lon":5.42641,"is_reserved":false,"is_disabled":false,"rental_uris":{"android":"levelo://app?vid=c9d6b1a5-d961-4b81-a8bf-58ac05ab5665","ios":"levelo://app?vid=c9d6b1a5-d961-4b81-a8bf-58ac05ab5665"},"vehicle_type_id":"4","last_reported":1727161709,"current_range_meters":6400,"station_id":"ce4bhnh2rcd13ifvqgug","pricing_plan_id":"cebpf4jnsgd1na2vs0mg"},{"bike_id":"633f2106-a60c-40e6-8cfb-64f986a9b453","system_id":"levelo_inurba_marseille","lat":43.30909,"lon":5.36843,"is_reserved":false,"is_disabled":false,"rental_uris":{"android":"levelo://app?vid=633f2106-a60c-40e6-8cfb-64f986a9b453","ios":"levelo://app?vid=633f2106-a60c-40e6-8cfb-64f986a9b453"},"vehicle_type_id":"4","last_reported":1727161709,"current_range_meters":36800,"station_id":"ce4bgn92rcd13ifvqbvg","pricing_plan_id":"cebpf4jnsgd1na2vs0mg"},{"bike_id":"6c70bfc0-7dcf-4862-b6e9-628ce3ae38c4","system_id":"levelo_inurba_marseille","lat":43.3046,"lon":5.37907,"is_reserved":false,"is_disabled":false,"rental_uris":{"android":"levelo://app?vid=6c70bfc0-7dcf-4862-b6e9-628ce3ae38c4","ios":"levelo://app?vid=6c70bfc0-7dcf-4862-b6e9-628ce3ae38c4"},"vehicle_type_id":"4","last_reported":1727161709,"current_range_meters":32000,"station_id":"ce4bgup2rcd13ifvqcn0","pricing_plan_id":"cebpf4jnsgd1na2vs0mg"},{"bike_id":"a0853dfb-4882-4f23-941e-e30f4d930b80","system_id":"levelo_inurba_marseille","lat":43.25942,"lon":5.409,"is_reserved":false,"is_disabled":false,"rental_uris":{"android":"levelo://app?vid=a0853dfb-4882-4f23-941e-e30f4d930b80","ios":"levelo://app?vid=a0853dfb-4882-4f23-941e-e30f4d930b80"},"vehicle_type_id":"4","last_reported":1727161709,"current_range_meters":19200,"station_id":"ce4bhm92rcd13ifvqglg","pricing_plan_id":"cebpf4jnsgd1na2vs0mg"},{"bike_id":"2822e6ac-d469-461d-9073-f0d027826cf6","system_id":"levelo_inurba_marseille","lat":43.29959,"lon":5.41317,"is_reserved":false,"is_disabled":false,"rental_uris":{"android":"levelo://app?vid=2822e6ac-d469-461d-9073-f0d027826cf6","ios":"levelo://app?vid=2822e6ac-d469-461d-9073-f0d027826cf6"},"vehicle_type_id":"4","last_reported":1727161709,"current_range_meters":39200,"station_id":"ce4bhp12rcd13ifvqh9g","pricing_plan_id":"cebpf4jnsgd1na2vs0mg"},{"bike_id":"1da69dba-953c-4d21-af9a-699bd6b421bd","system_id":"levelo_inurba_marseille","lat":43.31355,"lon":5.36724,"is_reserved":false,"is_disabled":false,"rental_uris":{"android":"levelo://app?vid=1da69dba-953c-4d21-af9a-699bd6b421bd","ios":"levelo://app?vid=1da69dba-953c-4d21-af9a-699bd6b421bd"},"vehicle_type_id":"4","last_reported":1727161709,"current_range_meters":27200,"station_id":"ce4bgr92rcd13ifvqc6g","pricing_plan_id":"cebpf4jnsgd1na2vs0mg"},{"bike_id":"f5d95463-6c1b-40f4-8bc3-99197167d4ed","system_id":"levelo_inurba_marseille","lat":43.24179,"lon":5.39731,"is_reserved":false,"is_disabled":false,"rental_uris":{"android":"levelo://app?vid=f5d95463-6c1b-40f4-8bc3-99197167d4ed","ios":"levelo://app?vid=f5d95463-6c1b-40f4-8bc3-99197167d4ed"},"vehicle_type_id":"4","last_reported":1727161709,"current_range_meters":16000,"station_id":"ce4bhn12rcd13ifvqgpg","pricing_plan_id":"cebpf4jnsgd1na2vs0mg"},{"bike_id":"11792274-c4e1-4dcb-b2a1-424fa6a64f5a","system_id":"levelo_inurba_marseille","lat":43.25939,"lon":5.40907,"is_reserved":false,"is_disabled":false,"rental_uris":{"android":"levelo://app?vid=11792274-c4e1-4dcb-b2a1-424fa6a64f5a","ios":"levelo://app?vid=11792274-c4e1-4dcb-b2a1-424fa6a64f5a"},"vehicle_type_id":"4","last_reported":1727161709,"current_range_meters":16000,"station_id":"ce4bhm92rcd13ifvqglg","pricing_plan_id":"cebpf4jnsgd1na2vs0mg"},{"bike_id":"e18843fb-099b-44bc-9b51-164320611449","system_id":"levelo_inurba_marseille","lat":43.23961,"lon":5.36636,"is_reserved":false,"is_disabled":false,"rental_uris":{"android":"levelo://app?vid=e18843fb-099b-44bc-9b51-164320611449","ios":"levelo://app?vid=e18843fb-099b-44bc-9b51-164320611449"},"vehicle_type_id":"4","last_reported":1727161709,"current_range_meters":37600,"station_id":"ce4bhi12rcd13ifvqfp0","pricing_plan_id":"cebpf4jnsgd1na2vs0mg"},{"bike_id":"811e5948-8947-49a9-8202-7a6b14e8b348","system_id":"levelo_inurba_marseille","lat":43.30154,"lon":5.38085,"is_reserved":false,"is_disabled":false,"rental_uris":{"android":"levelo://app?vid=811e5948-8947-49a9-8202-7a6b14e8b348","ios":"levelo://app?vid=811e5948-8947-49a9-8202-7a6b14e8b348"},"vehicle_type_id":"4","last_reported":1727161709,"current_range_meters":37600,"station_id":"ce4bgjp2rcd13ifvqbh0","pricing_plan_id":"cebpf4jnsgd1na2vs0mg"},{"bike_id":"0894e60f-f998-4303-bb38-d241b79db852","system_id":"levelo_inurba_marseille","lat":43.3361,"lon":5.41032,"is_reserved":false,"is_disabled":false,"rental_uris":{"android":"levelo://app?vid=0894e60f-f998-4303-bb38-d241b79db852","ios":"levelo://app?vid=0894e60f-f998-4303-bb38-d241b79db852"},"vehicle_type_id":"4","last_reported":1727161709,"current_range_meters":8800,"station_id":"ce4bhqh2rcd13ifvqhmg","pricing_plan_id":"cebpf4jnsgd1na2vs0mg"},{"bike_id":"01328d1a-46e2-4abc-b12b-32bf41357606","system_id":"levelo_inurba_marseille","lat":43.305457,"lon":5.366997,"is_reserved":false,"is_disabled":false,"rental_uris":{"android":"levelo://app?vid=01328d1a-46e2-4abc-b12b-32bf41357606","ios":"levelo://app?vid=01328d1a-46e2-4abc-b12b-32bf41357606"},"vehicle_type_id":"4","last_reported":1727161709,"current_range_meters":28400,"station_id":"ce4bgrp2rcd13ifvqc9g","pricing_plan_id":"cebpf4jnsgd1na2vs0mg"},{"bike_id":"495c8f04-baa0-4d04-b6e9-fa5581cfae30","system_id":"levelo_inurba_marseille","lat":43.30149,"lon":5.38079,"is_reserved":false,"is_disabled":false,"rental_uris":{"android":"levelo://app?vid=495c8f04-baa0-4d04-b6e9-fa5581cfae30","ios":"levelo://app?vid=495c8f04-baa0-4d04-b6e9-fa5581cfae30"},"vehicle_type_id":"4","last_reported":1727161709,"current_range_meters":3600,"station_id":"ce4bgjp2rcd13ifvqbh0","pricing_plan_id":"cebpf4jnsgd1na2vs0mg"},{"bike_id":"37aa31e2-23a7-4d4d-aa1e-19037c5f0a74","system_id":"levelo_inurba_marseille","lat":43.281561,"lon":5.426514,"is_reserved":false,"is_disabled":false,"rental_uris":{"android":"levelo://app?vid=37aa31e2-23a7-4d4d-aa1e-19037c5f0a74","ios":"levelo://app?vid=37aa31e2-23a7-4d4d-aa1e-19037c5f0a74"},"vehicle_type_id":"4","last_reported":1727161709,"current_range_meters":38800,"station_id":"ce4bhnh2rcd13ifvqgug","pricing_plan_id":"cebpf4jnsgd1na2vs0mg"},{"bike_id":"12c200ed-d35a-43ce-8d6e-751cae72363b","system_id":"levelo_inurba_marseille","lat":43.3254,"lon":5.41441,"is_reserved":false,"is_disabled":false,"rental_uris":{"android":"levelo://app?vid=12c200ed-d35a-43ce-8d6e-751cae72363b","ios":"levelo://app?vid=12c200ed-d35a-43ce-8d6e-751cae72363b"},"vehicle_type_id":"4","last_reported":1727161709,"current_range_meters":20000,"station_id":"ce4bhq12rcd13ifvqhhg","pricing_plan_id":"cebpf4jnsgd1na2vs0mg"},{"bike_id":"ebb7c5ad-05b9-41f0-aaae-a6f130ec014e","system_id":"levelo_inurba_marseille","lat":43.27495,"lon":5.4245,"is_reserved":false,"is_disabled":false,"rental_uris":{"android":"levelo://app?vid=ebb7c5ad-05b9-41f0-aaae-a6f130ec014e","ios":"levelo://app?vid=ebb7c5ad-05b9-41f0-aaae-a6f130ec014e"},"vehicle_type_id":"4","last_reported":1727161709,"current_range_meters":30000,"station_id":"ce4bhn92rcd13ifvqgrg","pricing_plan_id":"cebpf4jnsgd1na2vs0mg"},{"bike_id":"6de7ff3f-024e-4571-ae56-6a277b6ebe49","system_id":"levelo_inurba_marseille","lat":43.2408,"lon":5.37749,"is_reserved":false,"is_disabled":false,"rental_uris":{"android":"levelo://app?vid=6de7ff3f-024e-4571-ae56-6a277b6ebe49","ios":"levelo://app?vid=6de7ff3f-024e-4571-ae56-6a277b6ebe49"},"vehicle_type_id":"4","last_reported":1727161709,"current_range_meters":31200,"station_id":"ce4bhnp2rcd13ifvqgvg","pricing_plan_id":"cebpf4jnsgd1na2vs0mg"},{"bike_id":"48edda07-714f-4eaf-aadc-3b74a7d59e7e","system_id":"levelo_inurba_marseille","lat":43.30149,"lon":5.38071,"is_reserved":false,"is_disabled":false,"rental_uris":{"android":"levelo://app?vid=48edda07-714f-4eaf-aadc-3b74a7d59e7e","ios":"levelo://app?vid=48edda07-714f-4eaf-aadc-3b74a7d59e7e"},"vehicle_type_id":"4","last_reported":1727161709,"current_range_meters":30400,"station_id":"ce4bgjp2rcd13ifvqbh0","pricing_plan_id":"cebpf4jnsgd1na2vs0mg"},{"bike_id":"664c1492-4c06-4350-b400-91571a357f51","system_id":"levelo_inurba_marseille","lat":43.29839,"lon":5.36261,"is_reserved":false,"is_disabled":false,"rental_uris":{"android":"levelo://app?vid=664c1492-4c06-4350-b400-91571a357f51","ios":"levelo://app?vid=664c1492-4c06-4350-b400-91571a357f51"},"vehicle_type_id":"4","last_reported":1727161709,"current_range_meters":38800,"station_id":"ce4bgpp2rcd13ifvqc3g","pricing_plan_id":"cebpf4jnsgd1na2vs0mg"},{"bike_id":"8f1485f7-5349-49d0-be63-dcd69e8c2a35","system_id":"levelo_inurba_marseille","lat":43.28011,"lon":5.40007,"is_reserved":false,"is_disabled":false,"rental_uris":{"android":"levelo://app?vid=8f1485f7-5349-49d0-be63-dcd69e8c2a35","ios":"levelo://app?vid=8f1485f7-5349-49d0-be63-dcd69e8c2a35"},"vehicle_type_id":"4","last_reported":1727161709,"current_range_meters":11200,"station_id":"ce4bho92rcd13ifvqh4g","pricing_plan_id":"cebpf4jnsgd1na2vs0mg"},{"bike_id":"8db77e1f-618a-4975-9251-dd06a340034e","system_id":"levelo_inurba_marseille","lat":43.22926,"lon":5.35379,"is_reserved":false,"is_disabled":false,"rental_uris":{"android":"levelo://app?vid=8db77e1f-618a-4975-9251-dd06a340034e","ios":"levelo://app?vid=8db77e1f-618a-4975-9251-dd06a340034e"},"vehicle_type_id":"4","last_reported":1727161709,"current_range_meters":38800,"station_id":"cpo3532slgdg3j2ikp40","pricing_plan_id":"cebpf4jnsgd1na2vs0mg"},{"bike_id":"2bf8e532-bd7d-4d47-b211-a8ddb3761dcc","system_id":"levelo_inurba_marseille","lat":43.32545,"lon":5.41439,"is_reserved":false,"is_disabled":false,"rental_uris":{"android":"levelo://app?vid=2bf8e532-bd7d-4d47-b211-a8ddb3761dcc","ios":"levelo://app?vid=2bf8e532-bd7d-4d47-b211-a8ddb3761dcc"},"vehicle_type_id":"4","last_reported":1727161709,"current_range_meters":26800,"station_id":"ce4bhq12rcd13ifvqhhg","pricing_plan_id":"cebpf4jnsgd1na2vs0mg"},{"bike_id":"afb02983-e40b-4580-a41a-3cef8966de07","system_id":"levelo_inurba_marseille","lat":43.31157,"lon":5.38725,"is_reserved":false,"is_disabled":false,"rental_uris":{"android":"levelo://app?vid=afb02983-e40b-4580-a41a-3cef8966de07","ios":"levelo://app?vid=afb02983-e40b-4580-a41a-3cef8966de07"},"vehicle_type_id":"4","last_reported":1727161709,"current_range_meters":3200,"station_id":"ce4bgv12rcd13ifvqcp0","pricing_plan_id":"cebpf4jnsgd1na2vs0mg"},{"bike_id":"637c2580-d23a-4625-9588-79436166a4c8","system_id":"levelo_inurba_marseille","lat":43.30474,"lon":5.37911,"is_reserved":false,"is_disabled":false,"rental_uris":{"android":"levelo://app?vid=637c2580-d23a-4625-9588-79436166a4c8","ios":"levelo://app?vid=637c2580-d23a-4625-9588-79436166a4c8"},"vehicle_type_id":"4","last_reported":1727161709,"current_range_meters":30000,"station_id":"ce4bgup2rcd13ifvqcn0","pricing_plan_id":"cebpf4jnsgd1na2vs0mg"},{"bike_id":"7fd0dda8-1cda-49fe-8f22-143af3ca4b76","system_id":"levelo_inurba_marseille","lat":43.27495,"lon":5.42452,"is_reserved":false,"is_disabled":false,"rental_uris":{"android":"levelo://app?vid=7fd0dda8-1cda-49fe-8f22-143af3ca4b76","ios":"levelo://app?vid=7fd0dda8-1cda-49fe-8f22-143af3ca4b76"},"vehicle_type_id":"4","last_reported":1727161709,"current_range_meters":25600,"station_id":"ce4bhn92rcd13ifvqgrg","pricing_plan_id":"cebpf4jnsgd1na2vs0mg"},{"bike_id":"445ab112-1d78-470c-83c0-bb9f52ccf0ad","system_id":"levelo_inurba_marseille","lat":43.24073,"lon":5.37764,"is_reserved":false,"is_disabled":false,"rental_uris":{"android":"levelo://app?vid=445ab112-1d78-470c-83c0-bb9f52ccf0ad","ios":"levelo://app?vid=445ab112-1d78-470c-83c0-bb9f52ccf0ad"},"vehicle_type_id":"4","last_reported":1727161709,"current_range_meters":4400,"station_id":"ce4bhnp2rcd13ifvqgvg","pricing_plan_id":"cebpf4jnsgd1na2vs0mg"},{"bike_id":"b8306c75-5036-4b49-8c60-88758b8aad18","system_id":"levelo_inurba_marseille","lat":43.29552,"lon":5.42276,"is_reserved":false,"is_disabled":false,"rental_uris":{"android":"levelo://app?vid=b8306c75-5036-4b49-8c60-88758b8aad18","ios":"levelo://app?vid=b8306c75-5036-4b49-8c60-88758b8aad18"},"vehicle_type_id":"4","last_reported":1727161709,"current_range_meters":24000,"station_id":"ce4bhph2rcd13ifvqhdg","pricing_plan_id":"cebpf4jnsgd1na2vs0mg"},{"bike_id":"41b36bf6-daa6-4689-8a43-b8fd104e8b65","system_id":"levelo_inurba_marseille","lat":43.32539,"lon":5.41426,"is_reserved":false,"is_disabled":false,"rental_uris":{"android":"levelo://app?vid=41b36bf6-daa6-4689-8a43-b8fd104e8b65","ios":"levelo://app?vid=41b36bf6-daa6-4689-8a43-b8fd104e8b65"},"vehicle_type_id":"4","last_reported":1727161709,"current_range_meters":33600,"station_id":"ce4bhq12rcd13ifvqhhg","pricing_plan_id":"cebpf4jnsgd1na2vs0mg"},{"bike_id":"aba66e9c-0967-4175-a8e1-2d17c031de2d","system_id":"levelo_inurba_marseille","lat":43.27494,"lon":5.42457,"is_reserved":false,"is_disabled":false,"rental_uris":{"android":"levelo://app?vid=aba66e9c-0967-4175-a8e1-2d17c031de2d","ios":"levelo://app?vid=aba66e9c-0967-4175-a8e1-2d17c031de2d"},"vehicle_type_id":"4","last_reported":1727161709,"current_range_meters":30400,"station_id":"ce4bhn92rcd13ifvqgrg","pricing_plan_id":"cebpf4jnsgd1na2vs0mg"},{"bike_id":"dfad1a85-65f2-4785-8c03-033d2d1b91ec","system_id":"levelo_inurba_marseille","lat":43.24076,"lon":5.37751,"is_reserved":false,"is_disabled":false,"rental_uris":{"android":"levelo://app?vid=dfad1a85-65f2-4785-8c03-033d2d1b91ec","ios":"levelo://app?vid=dfad1a85-65f2-4785-8c03-033d2d1b91ec"},"vehicle_type_id":"4","last_reported":1727161709,"current_range_meters":8000,"station_id":"ce4bhnp2rcd13ifvqgvg","pricing_plan_id":"cebpf4jnsgd1na2vs0mg"},{"bike_id":"629d79b3-a190-4325-947b-810e3c3ab6b7","system_id":"levelo_inurba_marseille","lat":43.33611,"lon":5.4103,"is_reserved":false,"is_disabled":false,"rental_uris":{"android":"levelo://app?vid=629d79b3-a190-4325-947b-810e3c3ab6b7","ios":"levelo://app?vid=629d79b3-a190-4325-947b-810e3c3ab6b7"},"vehicle_type_id":"4","last_reported":1727161709,"current_range_meters":38800,"station_id":"ce4bhqh2rcd13ifvqhmg","pricing_plan_id":"cebpf4jnsgd1na2vs0mg"},{"bike_id":"3bf0aa5b-4150-47e6-9452-7386d2666a08","system_id":"levelo_inurba_marseille","lat":43.3414,"lon":5.40911,"is_reserved":false,"is_disabled":false,"rental_uris":{"android":"levelo://app?vid=3bf0aa5b-4150-47e6-9452-7386d2666a08","ios":"levelo://app?vid=3bf0aa5b-4150-47e6-9452-7386d2666a08"},"vehicle_type_id":"4","last_reported":1727161709,"current_range_meters":30400,"station_id":"ce4bhqh2rcd13ifvqhlg","pricing_plan_id":"cebpf4jnsgd1na2vs0mg"},{"bike_id":"83bc0566-453a-4515-a85c-87740a2c4c4d","system_id":"levelo_inurba_marseille","lat":43.30193,"lon":5.36623,"is_reserved":false,"is_disabled":false,"rental_uris":{"android":"levelo://app?vid=83bc0566-453a-4515-a85c-87740a2c4c4d","ios":"levelo://app?vid=83bc0566-453a-4515-a85c-87740a2c4c4d"},"vehicle_type_id":"4","last_reported":1727161709,"current_range_meters":14000,"station_id":"ce4bgrh2rcd13ifvqc8g","pricing_plan_id":"cebpf4jnsgd1na2vs0mg"},{"bike_id":"ee8d00e1-e139-4433-9d15-cf6c0efd7d69","system_id":"levelo_inurba_marseille","lat":43.31358,"lon":5.36719,"is_reserved":false,"is_disabled":false,"rental_uris":{"android":"levelo://app?vid=ee8d00e1-e139-4433-9d15-cf6c0efd7d69","ios":"levelo://app?vid=ee8d00e1-e139-4433-9d15-cf6c0efd7d69"},"vehicle_type_id":"4","last_reported":1727161709,"current_range_meters":35200,"station_id":"ce4bgr92rcd13ifvqc6g","pricing_plan_id":"cebpf4jnsgd1na2vs0mg"},{"bike_id":"a382253a-3eb5-43b1-93f2-bf143536027b","system_id":"levelo_inurba_marseille","lat":43.31345,"lon":5.3671,"is_reserved":false,"is_disabled":false,"rental_uris":{"android":"levelo://app?vid=a382253a-3eb5-43b1-93f2-bf143536027b","ios":"levelo://app?vid=a382253a-3eb5-43b1-93f2-bf143536027b"},"vehicle_type_id":"4","last_reported":1727161709,"current_range_meters":25600,"station_id":"ce4bgr92rcd13ifvqc6g","pricing_plan_id":"cebpf4jnsgd1na2vs0mg"},{"bike_id":"f803a271-824d-45e7-9066-e11e22aff573","system_id":"levelo_inurba_marseille","lat":43.32539,"lon":5.41442,"is_reserved":false,"is_disabled":false,"rental_uris":{"android":"levelo://app?vid=f803a271-824d-45e7-9066-e11e22aff573","ios":"levelo://app?vid=f803a271-824d-45e7-9066-e11e22aff573"},"vehicle_type_id":"4","last_reported":1727161709,"current_range_meters":34800,"station_id":"ce4bhq12rcd13ifvqhhg","pricing_plan_id":"cebpf4jnsgd1na2vs0mg"},{"bike_id":"311cb921-6388-4f0d-aede-0da844c4033e","system_id":"levelo_inurba_marseille","lat":43.239693,"lon":5.366357,"is_reserved":false,"is_disabled":false,"rental_uris":{"android":"levelo://app?vid=311cb921-6388-4f0d-aede-0da844c4033e","ios":"levelo://app?vid=311cb921-6388-4f0d-aede-0da844c4033e"},"vehicle_type_id":"4","last_reported":1727161709,"current_range_meters":38800,"station_id":"ce4bhi12rcd13ifvqfp0","pricing_plan_id":"cebpf4jnsgd1na2vs0mg"},{"bike_id":"b55de1ac-65ee-4022-871b-cb27256e2ad1","system_id":"levelo_inurba_marseille","lat":43.29563,"lon":5.42286,"is_reserved":false,"is_disabled":false,"rental_uris":{"android":"levelo://app?vid=b55de1ac-65ee-4022-871b-cb27256e2ad1","ios":"levelo://app?vid=b55de1ac-65ee-4022-871b-cb27256e2ad1"},"vehicle_type_id":"4","last_reported":1727161709,"current_range_meters":25600,"station_id":"ce4bhph2rcd13ifvqhdg","pricing_plan_id":"cebpf4jnsgd1na2vs0mg"},{"bike_id":"0b7d2a8d-fbd1-4fbf-a5a6-6c4d36322adf","system_id":"levelo_inurba_marseille","lat":43.3047,"lon":5.37908,"is_reserved":false,"is_disabled":false,"rental_uris":{"android":"levelo://app?vid=0b7d2a8d-fbd1-4fbf-a5a6-6c4d36322adf","ios":"levelo://app?vid=0b7d2a8d-fbd1-4fbf-a5a6-6c4d36322adf"},"vehicle_type_id":"4","last_reported":1727161709,"current_range_meters":2000,"station_id":"ce4bgup2rcd13ifvqcn0","pricing_plan_id":"cebpf4jnsgd1na2vs0mg"},{"bike_id":"afa33294-09c0-4a09-beb2-53853c7531c4","system_id":"levelo_inurba_marseille","lat":43.26564,"lon":5.39007,"is_reserved":false,"is_disabled":false,"rental_uris":{"android":"levelo://app?vid=afa33294-09c0-4a09-beb2-53853c7531c4","ios":"levelo://app?vid=afa33294-09c0-4a09-beb2-53853c7531c4"},"vehicle_type_id":"4","last_reported":1727161709,"current_range_meters":37600,"station_id":"ce4bhe12rcd13ifvqf30","pricing_plan_id":"cebpf4jnsgd1na2vs0mg"},{"bike_id":"9f92bf8f-7756-4ffd-ac07-bf9236417f30","system_id":"levelo_inurba_marseille","lat":43.30913,"lon":5.36849,"is_reserved":false,"is_disabled":false,"rental_uris":{"android":"levelo://app?vid=9f92bf8f-7756-4ffd-ac07-bf9236417f30","ios":"levelo://app?vid=9f92bf8f-7756-4ffd-ac07-bf9236417f30"},"vehicle_type_id":"4","last_reported":1727161709,"current_range_meters":6000,"station_id":"ce4bgn92rcd13ifvqbvg","pricing_plan_id":"cebpf4jnsgd1na2vs0mg"},{"bike_id":"29961055-e839-43b7-8bc1-3b7619b822e1","system_id":"levelo_inurba_marseille","lat":43.29718,"lon":5.380983,"is_reserved":false,"is_disabled":false,"rental_uris":{"android":"levelo://app?vid=29961055-e839-43b7-8bc1-3b7619b822e1","ios":"levelo://app?vid=29961055-e839-43b7-8bc1-3b7619b822e1"},"vehicle_type_id":"4","last_reported":1727161709,"current_range_meters":16800,"station_id":"ce4bh0p2rcd13ifvqd80","pricing_plan_id":"cebpf4jnsgd1na2vs0mg"},{"bike_id":"8b24a43d-f6db-4725-a99f-fcf936b951b6","system_id":"levelo_inurba_marseille","lat":43.26507,"lon":5.39537,"is_reserved":false,"is_disabled":false,"rental_uris":{"android":"levelo://app?vid=8b24a43d-f6db-4725-a99f-fcf936b951b6","ios":"levelo://app?vid=8b24a43d-f6db-4725-a99f-fcf936b951b6"},"vehicle_type_id":"4","last_reported":1727161709,"current_range_meters":30000,"station_id":"ce4bhi12rcd13ifvqfq0","pricing_plan_id":"cebpf4jnsgd1na2vs0mg"},{"bike_id":"ebec7cd5-5fed-46ce-abdb-3cd659f607ac","system_id":"levelo_inurba_marseille","lat":43.2955,"lon":5.42283,"is_reserved":false,"is_disabled":false,"rental_uris":{"android":"levelo://app?vid=ebec7cd5-5fed-46ce-abdb-3cd659f607ac","ios":"levelo://app?vid=ebec7cd5-5fed-46ce-abdb-3cd659f607ac"},"vehicle_type_id":"4","last_reported":1727161709,"current_range_meters":38400,"station_id":"ce4bhph2rcd13ifvqhdg","pricing_plan_id":"cebpf4jnsgd1na2vs0mg"},{"bike_id":"754925a9-e883-4b3a-b46e-6ec08b9be704","system_id":"levelo_inurba_marseille","lat":43.2408,"lon":5.37759,"is_reserved":false,"is_disabled":false,"rental_uris":{"android":"levelo://app?vid=754925a9-e883-4b3a-b46e-6ec08b9be704","ios":"levelo://app?vid=754925a9-e883-4b3a-b46e-6ec08b9be704"},"vehicle_type_id":"4","last_reported":1727161709,"current_range_meters":38400,"station_id":"ce4bhnp2rcd13ifvqgvg","pricing_plan_id":"cebpf4jnsgd1na2vs0mg"},{"bike_id":"34bc586d-9136-40e1-b2ca-cb9b1b720a73","system_id":"levelo_inurba_marseille","lat":43.31343,"lon":5.3674,"is_reserved":false,"is_disabled":false,"rental_uris":{"android":"levelo://app?vid=34bc586d-9136-40e1-b2ca-cb9b1b720a73","ios":"levelo://app?vid=34bc586d-9136-40e1-b2ca-cb9b1b720a73"},"vehicle_type_id":"4","last_reported":1727161709,"current_range_meters":34800,"station_id":"ce4bgr92rcd13ifvqc6g","pricing_plan_id":"cebpf4jnsgd1na2vs0mg"},{"bike_id":"6d6065cc-15d1-48a2-aa33-8bac2101b02a","system_id":"levelo_inurba_marseille","lat":43.22929,"lon":5.35374,"is_reserved":false,"is_disabled":false,"rental_uris":{"android":"levelo://app?vid=6d6065cc-15d1-48a2-aa33-8bac2101b02a","ios":"levelo://app?vid=6d6065cc-15d1-48a2-aa33-8bac2101b02a"},"vehicle_type_id":"4","last_reported":1727161709,"current_range_meters":32400,"station_id":"cpo3532slgdg3j2ikp40","pricing_plan_id":"cebpf4jnsgd1na2vs0mg"},{"bike_id":"62a333db-8cc2-45a5-993a-c61c7d1b5aff","system_id":"levelo_inurba_marseille","lat":43.29904,"lon":5.38146,"is_reserved":false,"is_disabled":false,"rental_uris":{"android":"levelo://app?vid=62a333db-8cc2-45a5-993a-c61c7d1b5aff","ios":"levelo://app?vid=62a333db-8cc2-45a5-993a-c61c7d1b5aff"},"vehicle_type_id":"4","last_reported":1727161709,"current_range_meters":35600,"station_id":"ce4bgj12rcd13ifvqbc0","pricing_plan_id":"cebpf4jnsgd1na2vs0mg"},{"bike_id":"df5b38d2-64cb-4df0-856f-ea9bd22c082c","system_id":"levelo_inurba_marseille","lat":43.23191,"lon":5.35552,"is_reserved":false,"is_disabled":false,"rental_uris":{"android":"levelo://app?vid=df5b38d2-64cb-4df0-856f-ea9bd22c082c","ios":"levelo://app?vid=df5b38d2-64cb-4df0-856f-ea9bd22c082c"},"vehicle_type_id":"4","last_reported":1727161709,"current_range_meters":13600,"station_id":"ce4bhu92rcd13ifvqi70","pricing_plan_id":"cebpf4jnsgd1na2vs0mg"},{"bike_id":"f09bc159-0021-4221-87b9-f49c764bf3b1","system_id":"levelo_inurba_marseille","lat":43.31497,"lon":5.37315,"is_reserved":false,"is_disabled":false,"rental_uris":{"android":"levelo://app?vid=f09bc159-0021-4221-87b9-f49c764bf3b1","ios":"levelo://app?vid=f09bc159-0021-4221-87b9-f49c764bf3b1"},"vehicle_type_id":"4","last_reported":1727161709,"current_range_meters":38000,"station_id":"ce4bgt12rcd13ifvqcd0","pricing_plan_id":"cebpf4jnsgd1na2vs0mg"},{"bike_id":"17b1cd1a-7803-4ca9-91f3-73c4fa44f09e","system_id":"levelo_inurba_marseille","lat":43.29556,"lon":5.42287,"is_reserved":false,"is_disabled":false,"rental_uris":{"android":"levelo://app?vid=17b1cd1a-7803-4ca9-91f3-73c4fa44f09e","ios":"levelo://app?vid=17b1cd1a-7803-4ca9-91f3-73c4fa44f09e"},"vehicle_type_id":"4","last_reported":1727161709,"current_range_meters":9200,"station_id":"ce4bhph2rcd13ifvqhdg","pricing_plan_id":"cebpf4jnsgd1na2vs0mg"},{"bike_id":"1d6eac1b-39c8-4d1a-a442-e972c007bc3b","system_id":"levelo_inurba_marseille","lat":43.30909,"lon":5.36842,"is_reserved":false,"is_disabled":false,"rental_uris":{"android":"levelo://app?vid=1d6eac1b-39c8-4d1a-a442-e972c007bc3b","ios":"levelo://app?vid=1d6eac1b-39c8-4d1a-a442-e972c007bc3b"},"vehicle_type_id":"4","last_reported":1727161709,"current_range_meters":36000,"station_id":"ce4bgn92rcd13ifvqbvg","pricing_plan_id":"cebpf4jnsgd1na2vs0mg"},{"bike_id":"da90f922-8def-4049-9a08-7c8629c4447c","system_id":"levelo_inurba_marseille","lat":43.30472,"lon":5.37906,"is_reserved":false,"is_disabled":false,"rental_uris":{"android":"levelo://app?vid=da90f922-8def-4049-9a08-7c8629c4447c","ios":"levelo://app?vid=da90f922-8def-4049-9a08-7c8629c4447c"},"vehicle_type_id":"4","last_reported":1727161709,"current_range_meters":31200,"station_id":"ce4bgup2rcd13ifvqcn0","pricing_plan_id":"cebpf4jnsgd1na2vs0mg"},{"bike_id":"b6eee498-fb15-4e3b-9eef-2538446e40a3","system_id":"levelo_inurba_marseille","lat":43.30545,"lon":5.36704,"is_reserved":false,"is_disabled":false,"rental_uris":{"android":"levelo://app?vid=b6eee498-fb15-4e3b-9eef-2538446e40a3","ios":"levelo://app?vid=b6eee498-fb15-4e3b-9eef-2538446e40a3"},"vehicle_type_id":"4","last_reported":1727161709,"current_range_meters":22800,"station_id":"ce4bgrp2rcd13ifvqc9g","pricing_plan_id":"cebpf4jnsgd1na2vs0mg"},{"bike_id":"1e87ddc1-9a31-4166-8e8e-aaed60939391","system_id":"levelo_inurba_marseille","lat":43.25939,"lon":5.40905,"is_reserved":false,"is_disabled":false,"rental_uris":{"android":"levelo://app?vid=1e87ddc1-9a31-4166-8e8e-aaed60939391","ios":"levelo://app?vid=1e87ddc1-9a31-4166-8e8e-aaed60939391"},"vehicle_type_id":"4","last_reported":1727161709,"current_range_meters":23200,"station_id":"ce4bhm92rcd13ifvqglg","pricing_plan_id":"cebpf4jnsgd1na2vs0mg"},{"bike_id":"dfff631e-ab7c-48ad-bde2-b2e42266e7d6","system_id":"levelo_inurba_marseille","lat":43.24082,"lon":5.37754,"is_reserved":false,"is_disabled":false,"rental_uris":{"android":"levelo://app?vid=dfff631e-ab7c-48ad-bde2-b2e42266e7d6","ios":"levelo://app?vid=dfff631e-ab7c-48ad-bde2-b2e42266e7d6"},"vehicle_type_id":"4","last_reported":1727161709,"current_range_meters":3200,"station_id":"ce4bhnp2rcd13ifvqgvg","pricing_plan_id":"cebpf4jnsgd1na2vs0mg"},{"bike_id":"0939306b-394d-40d9-a453-39f8fcd6b7d8","system_id":"levelo_inurba_marseille","lat":43.29561,"lon":5.42294,"is_reserved":false,"is_disabled":false,"rental_uris":{"android":"levelo://app?vid=0939306b-394d-40d9-a453-39f8fcd6b7d8","ios":"levelo://app?vid=0939306b-394d-40d9-a453-39f8fcd6b7d8"},"vehicle_type_id":"4","last_reported":1727161709,"current_range_meters":38400,"station_id":"ce4bhph2rcd13ifvqhdg","pricing_plan_id":"cebpf4jnsgd1na2vs0mg"},{"bike_id":"3073410f-7845-4cda-8ebb-ea5392e49bcf","system_id":"levelo_inurba_marseille","lat":43.29844,"lon":5.36267,"is_reserved":false,"is_disabled":false,"rental_uris":{"android":"levelo://app?vid=3073410f-7845-4cda-8ebb-ea5392e49bcf","ios":"levelo://app?vid=3073410f-7845-4cda-8ebb-ea5392e49bcf"},"vehicle_type_id":"4","last_reported":1727161709,"current_range_meters":30800,"station_id":"ce4bgpp2rcd13ifvqc3g","pricing_plan_id":"cebpf4jnsgd1na2vs0mg"},{"bike_id":"67ac33bb-77bb-493b-83be-16d5482e6eea","system_id":"levelo_inurba_marseille","lat":43.30471,"lon":5.37921,"is_reserved":false,"is_disabled":false,"rental_uris":{"android":"levelo://app?vid=67ac33bb-77bb-493b-83be-16d5482e6eea","ios":"levelo://app?vid=67ac33bb-77bb-493b-83be-16d5482e6eea"},"vehicle_type_id":"4","last_reported":1727161709,"current_range_meters":9200,"station_id":"ce4bgup2rcd13ifvqcn0","pricing_plan_id":"cebpf4jnsgd1na2vs0mg"},{"bike_id":"2bfa6d16-d573-4790-891f-85eef05a38c3","system_id":"levelo_inurba_marseille","lat":43.31274,"lon":5.4017,"is_reserved":false,"is_disabled":false,"rental_uris":{"android":"levelo://app?vid=2bfa6d16-d573-4790-891f-85eef05a38c3","ios":"levelo://app?vid=2bfa6d16-d573-4790-891f-85eef05a38c3"},"vehicle_type_id":"4","last_reported":1727161709,"current_range_meters":32400,"station_id":"ce4bh092rcd13ifvqd30","pricing_plan_id":"cebpf4jnsgd1na2vs0mg"},{"bike_id":"6b6f20f8-bb94-4774-8a42-1309ab09f53a","system_id":"levelo_inurba_marseille","lat":43.27495,"lon":5.4245,"is_reserved":false,"is_disabled":false,"rental_uris":{"android":"levelo://app?vid=6b6f20f8-bb94-4774-8a42-1309ab09f53a","ios":"levelo://app?vid=6b6f20f8-bb94-4774-8a42-1309ab09f53a"},"vehicle_type_id":"4","last_reported":1727161709,"current_range_meters":26000,"station_id":"ce4bhn92rcd13ifvqgrg","pricing_plan_id":"cebpf4jnsgd1na2vs0mg"},{"bike_id":"70dcefbd-4b07-404e-b4c6-04f06b54c398","system_id":"levelo_inurba_marseille","lat":43.30145,"lon":5.37424,"is_reserved":false,"is_disabled":false,"rental_uris":{"android":"levelo://app?vid=70dcefbd-4b07-404e-b4c6-04f06b54c398","ios":"levelo://app?vid=70dcefbd-4b07-404e-b4c6-04f06b54c398"},"vehicle_type_id":"4","last_reported":1727161709,"current_range_meters":39200,"station_id":"ce4bgs92rcd13ifvqcc0","pricing_plan_id":"cebpf4jnsgd1na2vs0mg"},{"bike_id":"37b52417-87d4-47b4-8910-65bdfc8cdc76","system_id":"levelo_inurba_marseille","lat":43.33602,"lon":5.41032,"is_reserved":false,"is_disabled":false,"rental_uris":{"android":"levelo://app?vid=37b52417-87d4-47b4-8910-65bdfc8cdc76","ios":"levelo://app?vid=37b52417-87d4-47b4-8910-65bdfc8cdc76"},"vehicle_type_id":"4","last_reported":1727161709,"current_range_meters":34000,"station_id":"ce4bhqh2rcd13ifvqhmg","pricing_plan_id":"cebpf4jnsgd1na2vs0mg"},{"bike_id":"8a98e2ce-aee1-4d77-8b6d-16aec9fb6e85","system_id":"levelo_inurba_marseille","lat":43.30605,"lon":5.37236,"is_reserved":false,"is_disabled":false,"rental_uris":{"android":"levelo://app?vid=8a98e2ce-aee1-4d77-8b6d-16aec9fb6e85","ios":"levelo://app?vid=8a98e2ce-aee1-4d77-8b6d-16aec9fb6e85"},"vehicle_type_id":"4","last_reported":1727161709,"current_range_meters":24800,"station_id":"ce4bgqh2rcd13ifvqc4g","pricing_plan_id":"cebpf4jnsgd1na2vs0mg"},{"bike_id":"17ed1235-ea5f-4ea9-af44-9284ba4653c7","system_id":"levelo_inurba_marseille","lat":43.30796,"lon":5.38169,"is_reserved":false,"is_disabled":false,"rental_uris":{"android":"levelo://app?vid=17ed1235-ea5f-4ea9-af44-9284ba4653c7","ios":"levelo://app?vid=17ed1235-ea5f-4ea9-af44-9284ba4653c7"},"vehicle_type_id":"4","last_reported":1727161709,"current_range_meters":35600,"station_id":"ce4bgt12rcd13ifvqce0","pricing_plan_id":"cebpf4jnsgd1na2vs0mg"},{"bike_id":"afa093e5-7bb5-44f0-9e79-efa67d676153","system_id":"levelo_inurba_marseille","lat":43.29567,"lon":5.37526,"is_reserved":false,"is_disabled":false,"rental_uris":{"android":"levelo://app?vid=afa093e5-7bb5-44f0-9e79-efa67d676153","ios":"levelo://app?vid=afa093e5-7bb5-44f0-9e79-efa67d676153"},"vehicle_type_id":"4","last_reported":1727161709,"current_range_meters":22400,"station_id":"ce4bgh92rcd13ifvqb50","pricing_plan_id":"cebpf4jnsgd1na2vs0mg"},{"bike_id":"4b770073-7726-4e78-b34f-a257261dc7d3","system_id":"levelo_inurba_marseille","lat":43.29555,"lon":5.42283,"is_reserved":false,"is_disabled":false,"rental_uris":{"android":"levelo://app?vid=4b770073-7726-4e78-b34f-a257261dc7d3","ios":"levelo://app?vid=4b770073-7726-4e78-b34f-a257261dc7d3"},"vehicle_type_id":"4","last_reported":1727161709,"current_range_meters":29600,"station_id":"ce4bhph2rcd13ifvqhdg","pricing_plan_id":"cebpf4jnsgd1na2vs0mg"},{"bike_id":"d8652924-2187-42bf-848a-1f35c66a4826","system_id":"levelo_inurba_marseille","lat":43.24071,"lon":5.37764,"is_reserved":false,"is_disabled":false,"rental_uris":{"android":"levelo://app?vid=d8652924-2187-42bf-848a-1f35c66a4826","ios":"levelo://app?vid=d8652924-2187-42bf-848a-1f35c66a4826"},"vehicle_type_id":"4","last_reported":1727161709,"current_range_meters":16400,"station_id":"ce4bhnp2rcd13ifvqgvg","pricing_plan_id":"cebpf4jnsgd1na2vs0mg"},{"bike_id":"c03f7e69-3662-4d8b-a2f2-4c8f803c1ea8","system_id":"levelo_inurba_marseille","lat":43.3254,"lon":5.41428,"is_reserved":false,"is_disabled":false,"rental_uris":{"android":"levelo://app?vid=c03f7e69-3662-4d8b-a2f2-4c8f803c1ea8","ios":"levelo://app?vid=c03f7e69-3662-4d8b-a2f2-4c8f803c1ea8"},"vehicle_type_id":"4","last_reported":1727161709,"current_range_meters":20000,"station_id":"ce4bhq12rcd13ifvqhhg","pricing_plan_id":"cebpf4jnsgd1na2vs0mg"},{"bike_id":"efcab10f-f8b5-4015-93f2-6e1654482c73","system_id":"levelo_inurba_marseille","lat":43.24073,"lon":5.37758,"is_reserved":false,"is_disabled":false,"rental_uris":{"android":"levelo://app?vid=efcab10f-f8b5-4015-93f2-6e1654482c73","ios":"levelo://app?vid=efcab10f-f8b5-4015-93f2-6e1654482c73"},"vehicle_type_id":"4","last_reported":1727161709,"current_range_meters":34000,"station_id":"ce4bhnp2rcd13ifvqgvg","pricing_plan_id":"cebpf4jnsgd1na2vs0mg"},{"bike_id":"49d80325-faab-4d79-8ece-643304efb99e","system_id":"levelo_inurba_marseille","lat":43.26687,"lon":5.38276,"is_reserved":false,"is_disabled":false,"rental_uris":{"android":"levelo://app?vid=49d80325-faab-4d79-8ece-643304efb99e","ios":"levelo://app?vid=49d80325-faab-4d79-8ece-643304efb99e"},"vehicle_type_id":"4","last_reported":1727161709,"current_range_meters":33200,"station_id":"ce4bhg92rcd13ifvqf90","pricing_plan_id":"cebpf4jnsgd1na2vs0mg"},{"bike_id":"308d8b7b-f07c-443f-b3fd-be7d50edd592","system_id":"levelo_inurba_marseille","lat":43.30953,"lon":5.40233,"is_reserved":false,"is_disabled":false,"rental_uris":{"android":"levelo://app?vid=308d8b7b-f07c-443f-b3fd-be7d50edd592","ios":"levelo://app?vid=308d8b7b-f07c-443f-b3fd-be7d50edd592"},"vehicle_type_id":"4","last_reported":1727161709,"current_range_meters":33200,"station_id":"ce4bgvp2rcd13ifvqct0","pricing_plan_id":"cebpf4jnsgd1na2vs0mg"},{"bike_id":"e59b0fcb-9ec1-4e05-a6bd-12eb54ed61ec","system_id":"levelo_inurba_marseille","lat":43.2668,"lon":5.38263,"is_reserved":false,"is_disabled":false,"rental_uris":{"android":"levelo://app?vid=e59b0fcb-9ec1-4e05-a6bd-12eb54ed61ec","ios":"levelo://app?vid=e59b0fcb-9ec1-4e05-a6bd-12eb54ed61ec"},"vehicle_type_id":"4","last_reported":1727161709,"current_range_meters":36000,"station_id":"ce4bhg92rcd13ifvqf90","pricing_plan_id":"cebpf4jnsgd1na2vs0mg"},{"bike_id":"2c567e6d-9516-43a8-a805-6a796053112e","system_id":"levelo_inurba_marseille","lat":43.3248,"lon":5.36564,"is_reserved":false,"is_disabled":false,"rental_uris":{"android":"levelo://app?vid=2c567e6d-9516-43a8-a805-6a796053112e","ios":"levelo://app?vid=2c567e6d-9516-43a8-a805-6a796053112e"},"vehicle_type_id":"4","last_reported":1727161709,"current_range_meters":40000,"station_id":"ce4bhs12rcd13ifvqhvg","pricing_plan_id":"cebpf4jnsgd1na2vs0mg"},{"bike_id":"5fbd97b7-1bc4-4991-ac98-14f5a89f3421","system_id":"levelo_inurba_marseille","lat":43.30897,"lon":5.372,"is_reserved":false,"is_disabled":false,"rental_uris":{"android":"levelo://app?vid=5fbd97b7-1bc4-4991-ac98-14f5a89f3421","ios":"levelo://app?vid=5fbd97b7-1bc4-4991-ac98-14f5a89f3421"},"vehicle_type_id":"4","last_reported":1727161709,"current_range_meters":35600,"station_id":"ce4bguh2rcd13ifvqckg","pricing_plan_id":"cebpf4jnsgd1na2vs0mg"},{"bike_id":"cb037699-9180-4cca-9257-9699aba3381e","system_id":"levelo_inurba_marseille","lat":43.25005,"lon":5.38921,"is_reserved":false,"is_disabled":false,"rental_uris":{"android":"levelo://app?vid=cb037699-9180-4cca-9257-9699aba3381e","ios":"levelo://app?vid=cb037699-9180-4cca-9257-9699aba3381e"},"vehicle_type_id":"4","last_reported":1727161709,"current_range_meters":36800,"station_id":"ce4bhgp2rcd13ifvqfd0","pricing_plan_id":"cebpf4jnsgd1na2vs0mg"},{"bike_id":"17701005-77c3-4e4f-a0b4-b2ece630517d","system_id":"levelo_inurba_marseille","lat":43.23961,"lon":5.36636,"is_reserved":false,"is_disabled":false,"rental_uris":{"android":"levelo://app?vid=17701005-77c3-4e4f-a0b4-b2ece630517d","ios":"levelo://app?vid=17701005-77c3-4e4f-a0b4-b2ece630517d"},"vehicle_type_id":"4","last_reported":1727161709,"current_range_meters":38800,"station_id":"ce4bhi12rcd13ifvqfp0","pricing_plan_id":"cebpf4jnsgd1na2vs0mg"},{"bike_id":"4a2e68ce-b028-4c8e-ad64-68d616dd3843","system_id":"levelo_inurba_marseille","lat":43.29832,"lon":5.38296,"is_reserved":false,"is_disabled":false,"rental_uris":{"android":"levelo://app?vid=4a2e68ce-b028-4c8e-ad64-68d616dd3843","ios":"levelo://app?vid=4a2e68ce-b028-4c8e-ad64-68d616dd3843"},"vehicle_type_id":"4","last_reported":1727161709,"current_range_meters":16400,"station_id":"ce4bgg92rcd13ifvqb30","pricing_plan_id":"cebpf4jnsgd1na2vs0mg"},{"bike_id":"e5ecb953-43b6-40e6-9f73-99c952f50042","system_id":"levelo_inurba_marseille","lat":43.23154,"lon":5.43714,"is_reserved":false,"is_disabled":false,"rental_uris":{"android":"levelo://app?vid=e5ecb953-43b6-40e6-9f73-99c952f50042","ios":"levelo://app?vid=e5ecb953-43b6-40e6-9f73-99c952f50042"},"vehicle_type_id":"4","last_reported":1727161709,"current_range_meters":22400,"station_id":"ce4bhmp2rcd13ifvqgog","pricing_plan_id":"cebpf4jnsgd1na2vs0mg"},{"bike_id":"fe57e638-2e32-4de9-a694-726eae663078","system_id":"levelo_inurba_marseille","lat":43.30545,"lon":5.36544,"is_reserved":false,"is_disabled":false,"rental_uris":{"android":"levelo://app?vid=fe57e638-2e32-4de9-a694-726eae663078","ios":"levelo://app?vid=fe57e638-2e32-4de9-a694-726eae663078"},"vehicle_type_id":"4","last_reported":1727161709,"current_range_meters":30400,"station_id":"ce4bgs12rcd13ifvqcag","pricing_plan_id":"cebpf4jnsgd1na2vs0mg"},{"bike_id":"c2be4fcf-de09-4f5f-8484-c155124befaf","system_id":"levelo_inurba_marseille","lat":43.2762,"lon":5.36114,"is_reserved":false,"is_disabled":false,"rental_uris":{"android":"levelo://app?vid=c2be4fcf-de09-4f5f-8484-c155124befaf","ios":"levelo://app?vid=c2be4fcf-de09-4f5f-8484-c155124befaf"},"vehicle_type_id":"4","last_reported":1727161709,"current_range_meters":8400,"station_id":"ce4bgj92rcd13ifvqbe0","pricing_plan_id":"cebpf4jnsgd1na2vs0mg"},{"bike_id":"4467e1df-1fcc-4a31-b002-2126025738da","system_id":"levelo_inurba_marseille","lat":43.25934,"lon":5.40914,"is_reserved":false,"is_disabled":false,"rental_uris":{"android":"levelo://app?vid=4467e1df-1fcc-4a31-b002-2126025738da","ios":"levelo://app?vid=4467e1df-1fcc-4a31-b002-2126025738da"},"vehicle_type_id":"4","last_reported":1727161709,"current_range_meters":20000,"station_id":"ce4bhm92rcd13ifvqglg","pricing_plan_id":"cebpf4jnsgd1na2vs0mg"},{"bike_id":"61f82b97-2893-4ad3-b6e8-391b630dd747","system_id":"levelo_inurba_marseille","lat":43.29378,"lon":5.37863,"is_reserved":false,"is_disabled":false,"rental_uris":{"android":"levelo://app?vid=61f82b97-2893-4ad3-b6e8-391b630dd747","ios":"levelo://app?vid=61f82b97-2893-4ad3-b6e8-391b630dd747"},"vehicle_type_id":"4","last_reported":1727161709,"current_range_meters":30000,"station_id":"ce4bgjh2rcd13ifvqbf0","pricing_plan_id":"cebpf4jnsgd1na2vs0mg"},{"bike_id":"cdb389dd-3664-4477-91da-d69d97c2a4b8","system_id":"levelo_inurba_marseille","lat":43.27497,"lon":5.42448,"is_reserved":false,"is_disabled":false,"rental_uris":{"android":"levelo://app?vid=cdb389dd-3664-4477-91da-d69d97c2a4b8","ios":"levelo://app?vid=cdb389dd-3664-4477-91da-d69d97c2a4b8"},"vehicle_type_id":"4","last_reported":1727161709,"current_range_meters":28400,"station_id":"ce4bhn92rcd13ifvqgrg","pricing_plan_id":"cebpf4jnsgd1na2vs0mg"},{"bike_id":"85fbf408-d892-4128-965d-a571ff316796","system_id":"levelo_inurba_marseille","lat":43.25003,"lon":5.38926,"is_reserved":false,"is_disabled":false,"rental_uris":{"android":"levelo://app?vid=85fbf408-d892-4128-965d-a571ff316796","ios":"levelo://app?vid=85fbf408-d892-4128-965d-a571ff316796"},"vehicle_type_id":"4","last_reported":1727161709,"current_range_meters":12400,"station_id":"ce4bhgp2rcd13ifvqfd0","pricing_plan_id":"cebpf4jnsgd1na2vs0mg"},{"bike_id":"01e3177f-2980-42c0-bc79-421123d82f75","system_id":"levelo_inurba_marseille","lat":43.25941,"lon":5.40899,"is_reserved":false,"is_disabled":false,"rental_uris":{"android":"levelo://app?vid=01e3177f-2980-42c0-bc79-421123d82f75","ios":"levelo://app?vid=01e3177f-2980-42c0-bc79-421123d82f75"},"vehicle_type_id":"4","last_reported":1727161709,"current_range_meters":9600,"station_id":"ce4bhm92rcd13ifvqglg","pricing_plan_id":"cebpf4jnsgd1na2vs0mg"},{"bike_id":"ef462b40-5abb-456e-ae03-2b347f34b8dc","system_id":"levelo_inurba_marseille","lat":43.30472,"lon":5.37913,"is_reserved":false,"is_disabled":false,"rental_uris":{"android":"levelo://app?vid=ef462b40-5abb-456e-ae03-2b347f34b8dc","ios":"levelo://app?vid=ef462b40-5abb-456e-ae03-2b347f34b8dc"},"vehicle_type_id":"4","last_reported":1727161709,"current_range_meters":24400,"station_id":"ce4bgup2rcd13ifvqcn0","pricing_plan_id":"cebpf4jnsgd1na2vs0mg"},{"bike_id":"0b6fcc1c-ebca-44a9-8cf8-259cbd6d4c98","system_id":"levelo_inurba_marseille","lat":43.24071,"lon":5.37765,"is_reserved":false,"is_disabled":false,"rental_uris":{"android":"levelo://app?vid=0b6fcc1c-ebca-44a9-8cf8-259cbd6d4c98","ios":"levelo://app?vid=0b6fcc1c-ebca-44a9-8cf8-259cbd6d4c98"},"vehicle_type_id":"4","last_reported":1727161709,"current_range_meters":26000,"station_id":"ce4bhnp2rcd13ifvqgvg","pricing_plan_id":"cebpf4jnsgd1na2vs0mg"},{"bike_id":"6597309b-71f3-492c-b6aa-3c3d9e6b4e51","system_id":"levelo_inurba_marseille","lat":43.29293,"lon":5.37458,"is_reserved":false,"is_disabled":false,"rental_uris":{"android":"levelo://app?vid=6597309b-71f3-492c-b6aa-3c3d9e6b4e51","ios":"levelo://app?vid=6597309b-71f3-492c-b6aa-3c3d9e6b4e51"},"vehicle_type_id":"4","last_reported":1727161709,"current_range_meters":32400,"station_id":"ce4bgi12rcd13ifvqb70","pricing_plan_id":"cebpf4jnsgd1na2vs0mg"},{"bike_id":"45fc3b17-5894-408f-b9ae-5de147801182","system_id":"levelo_inurba_marseille","lat":43.22934,"lon":5.35379,"is_reserved":false,"is_disabled":false,"rental_uris":{"android":"levelo://app?vid=45fc3b17-5894-408f-b9ae-5de147801182","ios":"levelo://app?vid=45fc3b17-5894-408f-b9ae-5de147801182"},"vehicle_type_id":"4","last_reported":1727161709,"current_range_meters":38000,"station_id":"cpo3532slgdg3j2ikp40","pricing_plan_id":"cebpf4jnsgd1na2vs0mg"},{"bike_id":"02744000-a556-4362-871e-ecf991d5ac1b","system_id":"levelo_inurba_marseille","lat":43.31332,"lon":5.39692,"is_reserved":false,"is_disabled":false,"rental_uris":{"android":"levelo://app?vid=02744000-a556-4362-871e-ecf991d5ac1b","ios":"levelo://app?vid=02744000-a556-4362-871e-ecf991d5ac1b"},"vehicle_type_id":"4","last_reported":1727161709,"current_range_meters":38400,"station_id":"ce4bgvp2rcd13ifvqcu0","pricing_plan_id":"cebpf4jnsgd1na2vs0mg"},{"bike_id":"7ad22588-4081-4428-be25-4573ea5926e3","system_id":"levelo_inurba_marseille","lat":43.30909,"lon":5.3684,"is_reserved":false,"is_disabled":false,"rental_uris":{"android":"levelo://app?vid=7ad22588-4081-4428-be25-4573ea5926e3","ios":"levelo://app?vid=7ad22588-4081-4428-be25-4573ea5926e3"},"vehicle_type_id":"4","last_reported":1727161709,"current_range_meters":24800,"station_id":"ce4bgn92rcd13ifvqbvg","pricing_plan_id":"cebpf4jnsgd1na2vs0mg"},{"bike_id":"10dd822d-3a7d-470c-9253-f34bed505400","system_id":"levelo_inurba_marseille","lat":43.337531,"lon":5.374568,"is_reserved":false,"is_disabled":false,"rental_uris":{"android":"levelo://app?vid=10dd822d-3a7d-470c-9253-f34bed505400","ios":"levelo://app?vid=10dd822d-3a7d-470c-9253-f34bed505400"},"vehicle_type_id":"4","last_reported":1727161709,"current_range_meters":18000,"station_id":"","pricing_plan_id":"cebpf4jnsgd1na2vs0mg"},{"bike_id":"a0c97515-3c94-4a97-8379-f7b7767cc614","system_id":"levelo_inurba_marseille","lat":43.24078,"lon":5.37757,"is_reserved":false,"is_disabled":false,"rental_uris":{"android":"levelo://app?vid=a0c97515-3c94-4a97-8379-f7b7767cc614","ios":"levelo://app?vid=a0c97515-3c94-4a97-8379-f7b7767cc614"},"vehicle_type_id":"4","last_reported":1727161709,"current_range_meters":26000,"station_id":"ce4bhnp2rcd13ifvqgvg","pricing_plan_id":"cebpf4jnsgd1na2vs0mg"},{"bike_id":"bd917693-7794-477a-bbac-4e8ac6e75145","system_id":"levelo_inurba_marseille","lat":43.30284,"lon":5.37724,"is_reserved":false,"is_disabled":false,"rental_uris":{"android":"levelo://app?vid=bd917693-7794-477a-bbac-4e8ac6e75145","ios":"levelo://app?vid=bd917693-7794-477a-bbac-4e8ac6e75145"},"vehicle_type_id":"4","last_reported":1727161709,"current_range_meters":32400,"station_id":"ce4bguh2rcd13ifvqcj0","pricing_plan_id":"cebpf4jnsgd1na2vs0mg"},{"bike_id":"674055bd-c5e5-45c3-9df3-9ac9937bb517","system_id":"levelo_inurba_marseille","lat":43.264955,"lon":5.395418,"is_reserved":false,"is_disabled":false,"rental_uris":{"android":"levelo://app?vid=674055bd-c5e5-45c3-9df3-9ac9937bb517","ios":"levelo://app?vid=674055bd-c5e5-45c3-9df3-9ac9937bb517"},"vehicle_type_id":"4","last_reported":1727161709,"current_range_meters":21600,"station_id":"ce4bhi12rcd13ifvqfq0","pricing_plan_id":"cebpf4jnsgd1na2vs0mg"},{"bike_id":"e7ca2d74-2002-4831-9c10-0c202543c0d4","system_id":"levelo_inurba_marseille","lat":43.27498,"lon":5.42451,"is_reserved":false,"is_disabled":false,"rental_uris":{"android":"levelo://app?vid=e7ca2d74-2002-4831-9c10-0c202543c0d4","ios":"levelo://app?vid=e7ca2d74-2002-4831-9c10-0c202543c0d4"},"vehicle_type_id":"4","last_reported":1727161709,"current_range_meters":28000,"station_id":"ce4bhn92rcd13ifvqgrg","pricing_plan_id":"cebpf4jnsgd1na2vs0mg"},{"bike_id":"fce4c3c1-622f-4010-980f-7950b369c25e","system_id":"levelo_inurba_marseille","lat":43.304667,"lon":5.379123,"is_reserved":false,"is_disabled":false,"rental_uris":{"android":"levelo://app?vid=fce4c3c1-622f-4010-980f-7950b369c25e","ios":"levelo://app?vid=fce4c3c1-622f-4010-980f-7950b369c25e"},"vehicle_type_id":"4","last_reported":1727161709,"current_range_meters":37600,"station_id":"ce4bgup2rcd13ifvqcn0","pricing_plan_id":"cebpf4jnsgd1na2vs0mg"},{"bike_id":"dde37c46-a508-466b-8733-5293af20f3c3","system_id":"levelo_inurba_marseille","lat":43.33728,"lon":5.39175,"is_reserved":false,"is_disabled":false,"rental_uris":{"android":"levelo://app?vid=dde37c46-a508-466b-8733-5293af20f3c3","ios":"levelo://app?vid=dde37c46-a508-466b-8733-5293af20f3c3"},"vehicle_type_id":"4","last_reported":1727161709,"current_range_meters":27200,"station_id":"ce4bhr92rcd13ifvqhsg","pricing_plan_id":"cebpf4jnsgd1na2vs0mg"},{"bike_id":"4d248d67-7876-4d4b-a4d0-58c880f6e169","system_id":"levelo_inurba_marseille","lat":43.30146,"lon":5.37421,"is_reserved":false,"is_disabled":false,"rental_uris":{"android":"levelo://app?vid=4d248d67-7876-4d4b-a4d0-58c880f6e169","ios":"levelo://app?vid=4d248d67-7876-4d4b-a4d0-58c880f6e169"},"vehicle_type_id":"4","last_reported":1727161709,"current_range_meters":38000,"station_id":"ce4bgs92rcd13ifvqcc0","pricing_plan_id":"cebpf4jnsgd1na2vs0mg"},{"bike_id":"bb0fcbbf-9208-4d81-a26c-d9b369e31748","system_id":"levelo_inurba_marseille","lat":43.27496,"lon":5.42462,"is_reserved":false,"is_disabled":false,"rental_uris":{"android":"levelo://app?vid=bb0fcbbf-9208-4d81-a26c-d9b369e31748","ios":"levelo://app?vid=bb0fcbbf-9208-4d81-a26c-d9b369e31748"},"vehicle_type_id":"4","last_reported":1727161709,"current_range_meters":4400,"station_id":"ce4bhn92rcd13ifvqgrg","pricing_plan_id":"cebpf4jnsgd1na2vs0mg"},{"bike_id":"313886ea-d7e6-4f46-88c2-d20fced15e63","system_id":"levelo_inurba_marseille","lat":43.27492,"lon":5.42453,"is_reserved":false,"is_disabled":false,"rental_uris":{"android":"levelo://app?vid=313886ea-d7e6-4f46-88c2-d20fced15e63","ios":"levelo://app?vid=313886ea-d7e6-4f46-88c2-d20fced15e63"},"vehicle_type_id":"4","last_reported":1727161709,"current_range_meters":8400,"station_id":"ce4bhn92rcd13ifvqgrg","pricing_plan_id":"cebpf4jnsgd1na2vs0mg"},{"bike_id":"73c4f31b-dba9-47c6-b6da-a90c0d55c754","system_id":"levelo_inurba_marseille","lat":43.28139,"lon":5.39211,"is_reserved":false,"is_disabled":false,"rental_uris":{"android":"levelo://app?vid=73c4f31b-dba9-47c6-b6da-a90c0d55c754","ios":"levelo://app?vid=73c4f31b-dba9-47c6-b6da-a90c0d55c754"},"vehicle_type_id":"4","last_reported":1727161709,"current_range_meters":38400,"station_id":"ce4bhc92rcd13ifvqetg","pricing_plan_id":"cebpf4jnsgd1na2vs0mg"},{"bike_id":"4a4bfd88-bdfc-4802-b3a8-e798e4274727","system_id":"levelo_inurba_marseille","lat":43.322906,"lon":5.382645,"is_reserved":false,"is_disabled":false,"rental_uris":{"android":"levelo://app?vid=4a4bfd88-bdfc-4802-b3a8-e798e4274727","ios":"levelo://app?vid=4a4bfd88-bdfc-4802-b3a8-e798e4274727"},"vehicle_type_id":"4","last_reported":1727161709,"current_range_meters":34800,"station_id":"ce4bhr12rcd13ifvqhqg","pricing_plan_id":"cebpf4jnsgd1na2vs0mg"},{"bike_id":"fe9291c0-c1e0-47d3-902d-7bd90e99bf30","system_id":"levelo_inurba_marseille","lat":43.25935,"lon":5.40912,"is_reserved":false,"is_disabled":false,"rental_uris":{"android":"levelo://app?vid=fe9291c0-c1e0-47d3-902d-7bd90e99bf30","ios":"levelo://app?vid=fe9291c0-c1e0-47d3-902d-7bd90e99bf30"},"vehicle_type_id":"4","last_reported":1727161709,"current_range_meters":36400,"station_id":"ce4bhm92rcd13ifvqglg","pricing_plan_id":"cebpf4jnsgd1na2vs0mg"},{"bike_id":"16025190-b6fd-4952-9fe4-e261a790747d","system_id":"levelo_inurba_marseille","lat":43.2655,"lon":5.37288,"is_reserved":false,"is_disabled":false,"rental_uris":{"android":"levelo://app?vid=16025190-b6fd-4952-9fe4-e261a790747d","ios":"levelo://app?vid=16025190-b6fd-4952-9fe4-e261a790747d"},"vehicle_type_id":"4","last_reported":1727161709,"current_range_meters":38400,"station_id":"ce4bhg12rcd13ifvqf70","pricing_plan_id":"cebpf4jnsgd1na2vs0mg"},{"bike_id":"e883bbc8-dc82-4b98-9264-d1429d2000f5","system_id":"levelo_inurba_marseille","lat":43.30472,"lon":5.37914,"is_reserved":false,"is_disabled":false,"rental_uris":{"android":"levelo://app?vid=e883bbc8-dc82-4b98-9264-d1429d2000f5","ios":"levelo://app?vid=e883bbc8-dc82-4b98-9264-d1429d2000f5"},"vehicle_type_id":"4","last_reported":1727161709,"current_range_meters":38800,"station_id":"ce4bgup2rcd13ifvqcn0","pricing_plan_id":"cebpf4jnsgd1na2vs0mg"},{"bike_id":"f91dff9d-29b8-40d6-88ad-12908eb228fc","system_id":"levelo_inurba_marseille","lat":43.24078,"lon":5.37762,"is_reserved":false,"is_disabled":false,"rental_uris":{"android":"levelo://app?vid=f91dff9d-29b8-40d6-88ad-12908eb228fc","ios":"levelo://app?vid=f91dff9d-29b8-40d6-88ad-12908eb228fc"},"vehicle_type_id":"4","last_reported":1727161709,"current_range_meters":30800,"station_id":"ce4bhnp2rcd13ifvqgvg","pricing_plan_id":"cebpf4jnsgd1na2vs0mg"},{"bike_id":"6961525f-f931-4ed5-b742-9a9fed8b746e","system_id":"levelo_inurba_marseille","lat":43.25947,"lon":5.40899,"is_reserved":false,"is_disabled":false,"rental_uris":{"android":"levelo://app?vid=6961525f-f931-4ed5-b742-9a9fed8b746e","ios":"levelo://app?vid=6961525f-f931-4ed5-b742-9a9fed8b746e"},"vehicle_type_id":"4","last_reported":1727161709,"current_range_meters":31200,"station_id":"ce4bhm92rcd13ifvqglg","pricing_plan_id":"cebpf4jnsgd1na2vs0mg"},{"bike_id":"1c7e4786-9ca9-4f60-a6d4-ec885e073639","system_id":"levelo_inurba_marseille","lat":43.27498,"lon":5.42444,"is_reserved":false,"is_disabled":false,"rental_uris":{"android":"levelo://app?vid=1c7e4786-9ca9-4f60-a6d4-ec885e073639","ios":"levelo://app?vid=1c7e4786-9ca9-4f60-a6d4-ec885e073639"},"vehicle_type_id":"4","last_reported":1727161709,"current_range_meters":39200,"station_id":"ce4bhn92rcd13ifvqgrg","pricing_plan_id":"cebpf4jnsgd1na2vs0mg"},{"bike_id":"df45ed88-3ca8-42bc-8bb1-bc39d99a6f42","system_id":"levelo_inurba_marseille","lat":43.306,"lon":5.39341,"is_reserved":false,"is_disabled":false,"rental_uris":{"android":"levelo://app?vid=df45ed88-3ca8-42bc-8bb1-bc39d99a6f42","ios":"levelo://app?vid=df45ed88-3ca8-42bc-8bb1-bc39d99a6f42"},"vehicle_type_id":"4","last_reported":1727161709,"current_range_meters":27600,"station_id":"ce4bh0p2rcd13ifvqd80","pricing_plan_id":"cebpf4jnsgd1na2vs0mg"},{"bike_id":"dbd33b64-19e1-4449-9362-cfdfec5c7d6b","system_id":"levelo_inurba_marseille","lat":43.309109,"lon":5.368518,"is_reserved":false,"is_disabled":false,"rental_uris":{"android":"levelo://app?vid=dbd33b64-19e1-4449-9362-cfdfec5c7d6b","ios":"levelo://app?vid=dbd33b64-19e1-4449-9362-cfdfec5c7d6b"},"vehicle_type_id":"4","last_reported":1727161709,"current_range_meters":32800,"station_id":"ce4bgl92rcd13ifvqbq0","pricing_plan_id":"cebpf4jnsgd1na2vs0mg"},{"bike_id":"7a5e54d3-cb96-476c-8b83-730cce3955d0","system_id":"levelo_inurba_marseille","lat":43.31352,"lon":5.36712,"is_reserved":false,"is_disabled":false,"rental_uris":{"android":"levelo://app?vid=7a5e54d3-cb96-476c-8b83-730cce3955d0","ios":"levelo://app?vid=7a5e54d3-cb96-476c-8b83-730cce3955d0"},"vehicle_type_id":"4","last_reported":1727161709,"current_range_meters":25600,"station_id":"ce4bgr92rcd13ifvqc6g","pricing_plan_id":"cebpf4jnsgd1na2vs0mg"},{"bike_id":"0a63d8a5-7266-48af-833c-64516b763cd6","system_id":"levelo_inurba_marseille","lat":43.24084,"lon":5.37749,"is_reserved":false,"is_disabled":false,"rental_uris":{"android":"levelo://app?vid=0a63d8a5-7266-48af-833c-64516b763cd6","ios":"levelo://app?vid=0a63d8a5-7266-48af-833c-64516b763cd6"},"vehicle_type_id":"4","last_reported":1727161709,"current_range_meters":32000,"station_id":"ce4bhnp2rcd13ifvqgvg","pricing_plan_id":"cebpf4jnsgd1na2vs0mg"},{"bike_id":"e8033bc9-7f8c-43a9-94d0-446a78b4cf1d","system_id":"levelo_inurba_marseille","lat":43.30463,"lon":5.37915,"is_reserved":false,"is_disabled":false,"rental_uris":{"android":"levelo://app?vid=e8033bc9-7f8c-43a9-94d0-446a78b4cf1d","ios":"levelo://app?vid=e8033bc9-7f8c-43a9-94d0-446a78b4cf1d"},"vehicle_type_id":"4","last_reported":1727161709,"current_range_meters":35200,"station_id":"ce4bgup2rcd13ifvqcn0","pricing_plan_id":"cebpf4jnsgd1na2vs0mg"},{"bike_id":"527f8512-3393-48f9-8f7c-a7d320ece1f5","system_id":"levelo_inurba_marseille","lat":43.3361,"lon":5.41023,"is_reserved":false,"is_disabled":false,"rental_uris":{"android":"levelo://app?vid=527f8512-3393-48f9-8f7c-a7d320ece1f5","ios":"levelo://app?vid=527f8512-3393-48f9-8f7c-a7d320ece1f5"},"vehicle_type_id":"4","last_reported":1727161709,"current_range_meters":37600,"station_id":"ce4bhqh2rcd13ifvqhmg","pricing_plan_id":"cebpf4jnsgd1na2vs0mg"},{"bike_id":"ede37da0-431f-462e-af97-45c71435ab2a","system_id":"levelo_inurba_marseille","lat":43.24176,"lon":5.39703,"is_reserved":false,"is_disabled":false,"rental_uris":{"android":"levelo://app?vid=ede37da0-431f-462e-af97-45c71435ab2a","ios":"levelo://app?vid=ede37da0-431f-462e-af97-45c71435ab2a"},"vehicle_type_id":"4","last_reported":1727161709,"current_range_meters":27600,"station_id":"ce4bhn12rcd13ifvqgpg","pricing_plan_id":"cebpf4jnsgd1na2vs0mg"},{"bike_id":"3c5abc47-ec0e-4fb1-9d63-a70ffbf47084","system_id":"levelo_inurba_marseille","lat":43.26684,"lon":5.38264,"is_reserved":false,"is_disabled":false,"rental_uris":{"android":"levelo://app?vid=3c5abc47-ec0e-4fb1-9d63-a70ffbf47084","ios":"levelo://app?vid=3c5abc47-ec0e-4fb1-9d63-a70ffbf47084"},"vehicle_type_id":"4","last_reported":1727161709,"current_range_meters":11600,"station_id":"ce4bhg92rcd13ifvqf90","pricing_plan_id":"cebpf4jnsgd1na2vs0mg"},{"bike_id":"74ae7fe3-fda5-4c0f-a670-8a62314004d4","system_id":"levelo_inurba_marseille","lat":43.34148,"lon":5.40905,"is_reserved":false,"is_disabled":false,"rental_uris":{"android":"levelo://app?vid=74ae7fe3-fda5-4c0f-a670-8a62314004d4","ios":"levelo://app?vid=74ae7fe3-fda5-4c0f-a670-8a62314004d4"},"vehicle_type_id":"4","last_reported":1727161709,"current_range_meters":36800,"station_id":"ce4bhqh2rcd13ifvqhlg","pricing_plan_id":"cebpf4jnsgd1na2vs0mg"},{"bike_id":"9fb3478f-69a7-4609-baa9-16096091213c","system_id":"levelo_inurba_marseille","lat":43.33756,"lon":5.37471,"is_reserved":false,"is_disabled":false,"rental_uris":{"android":"levelo://app?vid=9fb3478f-69a7-4609-baa9-16096091213c","ios":"levelo://app?vid=9fb3478f-69a7-4609-baa9-16096091213c"},"vehicle_type_id":"4","last_reported":1727161709,"current_range_meters":38000,"station_id":"","pricing_plan_id":"cebpf4jnsgd1na2vs0mg"},{"bike_id":"71fe9dd5-6eed-434e-abc0-108f9ba18246","system_id":"levelo_inurba_marseille","lat":43.32545,"lon":5.4145,"is_reserved":false,"is_disabled":false,"rental_uris":{"android":"levelo://app?vid=71fe9dd5-6eed-434e-abc0-108f9ba18246","ios":"levelo://app?vid=71fe9dd5-6eed-434e-abc0-108f9ba18246"},"vehicle_type_id":"4","last_reported":1727161709,"current_range_meters":40000,"station_id":"ce4bhq12rcd13ifvqhhg","pricing_plan_id":"cebpf4jnsgd1na2vs0mg"},{"bike_id":"d260216d-6d15-40b1-aec5-d1ea91efd176","system_id":"levelo_inurba_marseille","lat":43.281114,"lon":5.406414,"is_reserved":false,"is_disabled":false,"rental_uris":{"android":"levelo://app?vid=d260216d-6d15-40b1-aec5-d1ea91efd176","ios":"levelo://app?vid=d260216d-6d15-40b1-aec5-d1ea91efd176"},"vehicle_type_id":"4","last_reported":1727161709,"current_range_meters":6400,"station_id":"","pricing_plan_id":"cebpf4jnsgd1na2vs0mg"},{"bike_id":"b8eba63a-4f6e-4e2c-9d99-7a2bae37c715","system_id":"levelo_inurba_marseille","lat":43.33762,"lon":5.37443,"is_reserved":false,"is_disabled":false,"rental_uris":{"android":"levelo://app?vid=b8eba63a-4f6e-4e2c-9d99-7a2bae37c715","ios":"levelo://app?vid=b8eba63a-4f6e-4e2c-9d99-7a2bae37c715"},"vehicle_type_id":"4","last_reported":1727161709,"current_range_meters":38000,"station_id":"","pricing_plan_id":"cebpf4jnsgd1na2vs0mg"},{"bike_id":"15399a13-1088-4565-a231-33affe3ba5f9","system_id":"levelo_inurba_marseille","lat":43.2893,"lon":5.36379,"is_reserved":false,"is_disabled":false,"rental_uris":{"android":"levelo://app?vid=15399a13-1088-4565-a231-33affe3ba5f9","ios":"levelo://app?vid=15399a13-1088-4565-a231-33affe3ba5f9"},"vehicle_type_id":"4","last_reported":1727161709,"current_range_meters":25200,"station_id":"ce4bhc92rcd13ifvqetg","pricing_plan_id":"cebpf4jnsgd1na2vs0mg"},{"bike_id":"a4aea417-8045-4b9b-b954-a14e99bfd841","system_id":"levelo_inurba_marseille","lat":43.251068,"lon":5.40333,"is_reserved":false,"is_disabled":false,"rental_uris":{"android":"levelo://app?vid=a4aea417-8045-4b9b-b954-a14e99bfd841","ios":"levelo://app?vid=a4aea417-8045-4b9b-b954-a14e99bfd841"},"vehicle_type_id":"4","last_reported":1727161709,"current_range_meters":28000,"station_id":"ce4bhlh2rcd13ifvqgig","pricing_plan_id":"cebpf4jnsgd1na2vs0mg"},{"bike_id":"f19a187b-a827-4347-aa0a-56faf5fe56f4","system_id":"levelo_inurba_marseille","lat":43.27207,"lon":5.391861,"is_reserved":false,"is_disabled":false,"rental_uris":{"android":"levelo://app?vid=f19a187b-a827-4347-aa0a-56faf5fe56f4","ios":"levelo://app?vid=f19a187b-a827-4347-aa0a-56faf5fe56f4"},"vehicle_type_id":"4","last_reported":1727161709,"current_range_meters":24800,"station_id":"ce4bhhp2rcd13ifvqfm0","pricing_plan_id":"cebpf4jnsgd1na2vs0mg"},{"bike_id":"36a0fd46-93b1-40f5-88cc-a93c28e81a11","system_id":"levelo_inurba_marseille","lat":43.29556,"lon":5.42294,"is_reserved":false,"is_disabled":false,"rental_uris":{"android":"levelo://app?vid=36a0fd46-93b1-40f5-88cc-a93c28e81a11","ios":"levelo://app?vid=36a0fd46-93b1-40f5-88cc-a93c28e81a11"},"vehicle_type_id":"4","last_reported":1727161709,"current_range_meters":38400,"station_id":"ce4bhph2rcd13ifvqhdg","pricing_plan_id":"cebpf4jnsgd1na2vs0mg"},{"bike_id":"88b28f0c-ddeb-4b73-9c0f-b6283b5c4794","system_id":"levelo_inurba_marseille","lat":43.29102,"lon":5.38124,"is_reserved":false,"is_disabled":false,"rental_uris":{"android":"levelo://app?vid=88b28f0c-ddeb-4b73-9c0f-b6283b5c4794","ios":"levelo://app?vid=88b28f0c-ddeb-4b73-9c0f-b6283b5c4794"},"vehicle_type_id":"4","last_reported":1727161709,"current_range_meters":6000,"station_id":"ce4bh512rcd13ifvqe2g","pricing_plan_id":"cebpf4jnsgd1na2vs0mg"},{"bike_id":"210e2637-edd5-42fc-bbfa-c16d347bd177","system_id":"levelo_inurba_marseille","lat":43.3027,"lon":5.36925,"is_reserved":false,"is_disabled":false,"rental_uris":{"android":"levelo://app?vid=210e2637-edd5-42fc-bbfa-c16d347bd177","ios":"levelo://app?vid=210e2637-edd5-42fc-bbfa-c16d347bd177"},"vehicle_type_id":"4","last_reported":1727161709,"current_range_meters":8400,"station_id":"ce4bgqh2rcd13ifvqc5g","pricing_plan_id":"cebpf4jnsgd1na2vs0mg"},{"bike_id":"4d48d42a-04a8-48fd-b6b5-a41934e0147b","system_id":"levelo_inurba_marseille","lat":43.33603,"lon":5.41027,"is_reserved":false,"is_disabled":false,"rental_uris":{"android":"levelo://app?vid=4d48d42a-04a8-48fd-b6b5-a41934e0147b","ios":"levelo://app?vid=4d48d42a-04a8-48fd-b6b5-a41934e0147b"},"vehicle_type_id":"4","last_reported":1727161709,"current_range_meters":21600,"station_id":"ce4bhqh2rcd13ifvqhmg","pricing_plan_id":"cebpf4jnsgd1na2vs0mg"},{"bike_id":"9891a164-a133-4325-b42b-db1c3f9ad654","system_id":"levelo_inurba_marseille","lat":43.23968,"lon":5.36636,"is_reserved":false,"is_disabled":false,"rental_uris":{"android":"levelo://app?vid=9891a164-a133-4325-b42b-db1c3f9ad654","ios":"levelo://app?vid=9891a164-a133-4325-b42b-db1c3f9ad654"},"vehicle_type_id":"4","last_reported":1727161709,"current_range_meters":38000,"station_id":"ce4bhi12rcd13ifvqfp0","pricing_plan_id":"cebpf4jnsgd1na2vs0mg"},{"bike_id":"773ab278-8fe8-4ef2-9130-a31f1a8853aa","system_id":"levelo_inurba_marseille","lat":43.23147,"lon":5.43712,"is_reserved":false,"is_disabled":false,"rental_uris":{"android":"levelo://app?vid=773ab278-8fe8-4ef2-9130-a31f1a8853aa","ios":"levelo://app?vid=773ab278-8fe8-4ef2-9130-a31f1a8853aa"},"vehicle_type_id":"4","last_reported":1727161709,"current_range_meters":22800,"station_id":"ce4bhmp2rcd13ifvqgog","pricing_plan_id":"cebpf4jnsgd1na2vs0mg"},{"bike_id":"35be4688-6680-4c6e-8986-6b48e8be9ac6","system_id":"levelo_inurba_marseille","lat":43.27495,"lon":5.42454,"is_reserved":false,"is_disabled":false,"rental_uris":{"android":"levelo://app?vid=35be4688-6680-4c6e-8986-6b48e8be9ac6","ios":"levelo://app?vid=35be4688-6680-4c6e-8986-6b48e8be9ac6"},"vehicle_type_id":"4","last_reported":1727161709,"current_range_meters":25600,"station_id":"ce4bhn92rcd13ifvqgrg","pricing_plan_id":"cebpf4jnsgd1na2vs0mg"},{"bike_id":"5f8cfaeb-78bd-45be-81a1-4e06ff46f61f","system_id":"levelo_inurba_marseille","lat":43.30143,"lon":5.37407,"is_reserved":false,"is_disabled":false,"rental_uris":{"android":"levelo://app?vid=5f8cfaeb-78bd-45be-81a1-4e06ff46f61f","ios":"levelo://app?vid=5f8cfaeb-78bd-45be-81a1-4e06ff46f61f"},"vehicle_type_id":"4","last_reported":1727161709,"current_range_meters":18800,"station_id":"ce4bgs92rcd13ifvqcc0","pricing_plan_id":"cebpf4jnsgd1na2vs0mg"},{"bike_id":"4e13cf06-e690-4ea5-a3d1-37dec1c56528","system_id":"levelo_inurba_marseille","lat":43.23188,"lon":5.39992,"is_reserved":false,"is_disabled":false,"rental_uris":{"android":"levelo://app?vid=4e13cf06-e690-4ea5-a3d1-37dec1c56528","ios":"levelo://app?vid=4e13cf06-e690-4ea5-a3d1-37dec1c56528"},"vehicle_type_id":"4","last_reported":1727161709,"current_range_meters":38000,"station_id":"ce4bhn12rcd13ifvqgqg","pricing_plan_id":"cebpf4jnsgd1na2vs0mg"},{"bike_id":"412f8e99-07a1-4858-bf58-4ffd871bcd0c","system_id":"levelo_inurba_marseille","lat":43.32545,"lon":5.41438,"is_reserved":false,"is_disabled":false,"rental_uris":{"android":"levelo://app?vid=412f8e99-07a1-4858-bf58-4ffd871bcd0c","ios":"levelo://app?vid=412f8e99-07a1-4858-bf58-4ffd871bcd0c"},"vehicle_type_id":"4","last_reported":1727161709,"current_range_meters":14400,"station_id":"ce4bhq12rcd13ifvqhhg","pricing_plan_id":"cebpf4jnsgd1na2vs0mg"},{"bike_id":"6272f357-bf59-4afa-b954-b18451a5aa65","system_id":"levelo_inurba_marseille","lat":43.3095,"lon":5.39028,"is_reserved":false,"is_disabled":false,"rental_uris":{"android":"levelo://app?vid=6272f357-bf59-4afa-b954-b18451a5aa65","ios":"levelo://app?vid=6272f357-bf59-4afa-b954-b18451a5aa65"},"vehicle_type_id":"4","last_reported":1727161709,"current_range_meters":33600,"station_id":"ce4bgup2rcd13ifvqco0","pricing_plan_id":"cebpf4jnsgd1na2vs0mg"},{"bike_id":"28f85a09-d048-4378-a0de-d11e2aba0e1f","system_id":"levelo_inurba_marseille","lat":43.30467,"lon":5.379044,"is_reserved":false,"is_disabled":false,"rental_uris":{"android":"levelo://app?vid=28f85a09-d048-4378-a0de-d11e2aba0e1f","ios":"levelo://app?vid=28f85a09-d048-4378-a0de-d11e2aba0e1f"},"vehicle_type_id":"4","last_reported":1727161709,"current_range_meters":32400,"station_id":"ce4bgup2rcd13ifvqcn0","pricing_plan_id":"cebpf4jnsgd1na2vs0mg"},{"bike_id":"b12a0fd3-55e5-41e4-af81-217bc1839eb2","system_id":"levelo_inurba_marseille","lat":43.31339,"lon":5.36734,"is_reserved":false,"is_disabled":false,"rental_uris":{"android":"levelo://app?vid=b12a0fd3-55e5-41e4-af81-217bc1839eb2","ios":"levelo://app?vid=b12a0fd3-55e5-41e4-af81-217bc1839eb2"},"vehicle_type_id":"4","last_reported":1727161709,"current_range_meters":34000,"station_id":"ce4bgr92rcd13ifvqc6g","pricing_plan_id":"cebpf4jnsgd1na2vs0mg"},{"bike_id":"b9de7a58-5570-4899-9bf0-e6aaac917e1b","system_id":"levelo_inurba_marseille","lat":43.24184,"lon":5.39722,"is_reserved":false,"is_disabled":false,"rental_uris":{"android":"levelo://app?vid=b9de7a58-5570-4899-9bf0-e6aaac917e1b","ios":"levelo://app?vid=b9de7a58-5570-4899-9bf0-e6aaac917e1b"},"vehicle_type_id":"4","last_reported":1727161709,"current_range_meters":2800,"station_id":"ce4bhn12rcd13ifvqgpg","pricing_plan_id":"cebpf4jnsgd1na2vs0mg"},{"bike_id":"38c04688-83a6-408b-a36b-57f1f4a3dca3","system_id":"levelo_inurba_marseille","lat":43.25503,"lon":5.3765,"is_reserved":false,"is_disabled":false,"rental_uris":{"android":"levelo://app?vid=38c04688-83a6-408b-a36b-57f1f4a3dca3","ios":"levelo://app?vid=38c04688-83a6-408b-a36b-57f1f4a3dca3"},"vehicle_type_id":"4","last_reported":1727161709,"current_range_meters":38000,"station_id":"ce4bhh12rcd13ifvqff0","pricing_plan_id":"cebpf4jnsgd1na2vs0mg"},{"bike_id":"4615b991-3d01-4397-873e-5e3f16b6f7a2","system_id":"levelo_inurba_marseille","lat":43.30144,"lon":5.37409,"is_reserved":false,"is_disabled":false,"rental_uris":{"android":"levelo://app?vid=4615b991-3d01-4397-873e-5e3f16b6f7a2","ios":"levelo://app?vid=4615b991-3d01-4397-873e-5e3f16b6f7a2"},"vehicle_type_id":"4","last_reported":1727161709,"current_range_meters":38000,"station_id":"ce4bgs92rcd13ifvqcc0","pricing_plan_id":"cebpf4jnsgd1na2vs0mg"},{"bike_id":"43587889-6267-4cb9-8cee-6a158817994a","system_id":"levelo_inurba_marseille","lat":43.28941,"lon":5.36374,"is_reserved":false,"is_disabled":false,"rental_uris":{"android":"levelo://app?vid=43587889-6267-4cb9-8cee-6a158817994a","ios":"levelo://app?vid=43587889-6267-4cb9-8cee-6a158817994a"},"vehicle_type_id":"4","last_reported":1727161709,"current_range_meters":19200,"station_id":"ce4bhc92rcd13ifvqetg","pricing_plan_id":"cebpf4jnsgd1na2vs0mg"},{"bike_id":"5551ac13-7f3a-49b7-b065-e48bf4ad0975","system_id":"levelo_inurba_marseille","lat":43.33608,"lon":5.41031,"is_reserved":false,"is_disabled":false,"rental_uris":{"android":"levelo://app?vid=5551ac13-7f3a-49b7-b065-e48bf4ad0975","ios":"levelo://app?vid=5551ac13-7f3a-49b7-b065-e48bf4ad0975"},"vehicle_type_id":"4","last_reported":1727161709,"current_range_meters":32400,"station_id":"ce4bhqh2rcd13ifvqhmg","pricing_plan_id":"cebpf4jnsgd1na2vs0mg"},{"bike_id":"b593686f-2405-44f4-b50f-2e470d049645","system_id":"levelo_inurba_marseille","lat":43.29034,"lon":5.39968,"is_reserved":false,"is_disabled":false,"rental_uris":{"android":"levelo://app?vid=b593686f-2405-44f4-b50f-2e470d049645","ios":"levelo://app?vid=b593686f-2405-44f4-b50f-2e470d049645"},"vehicle_type_id":"4","last_reported":1727161709,"current_range_meters":32000,"station_id":"ce4bh392rcd13ifvqdm0","pricing_plan_id":"cebpf4jnsgd1na2vs0mg"},{"bike_id":"c812068d-3ac5-480e-97e2-f84e7fe418f0","system_id":"levelo_inurba_marseille","lat":43.30474,"lon":5.37914,"is_reserved":false,"is_disabled":false,"rental_uris":{"android":"levelo://app?vid=c812068d-3ac5-480e-97e2-f84e7fe418f0","ios":"levelo://app?vid=c812068d-3ac5-480e-97e2-f84e7fe418f0"},"vehicle_type_id":"4","last_reported":1727161709,"current_range_meters":33200,"station_id":"ce4bgup2rcd13ifvqcn0","pricing_plan_id":"cebpf4jnsgd1na2vs0mg"},{"bike_id":"59bc73c6-13cb-400d-96a8-c5a0bd0e433a","system_id":"levelo_inurba_marseille","lat":43.29073,"lon":5.37174,"is_reserved":false,"is_disabled":false,"rental_uris":{"android":"levelo://app?vid=59bc73c6-13cb-400d-96a8-c5a0bd0e433a","ios":"levelo://app?vid=59bc73c6-13cb-400d-96a8-c5a0bd0e433a"},"vehicle_type_id":"4","last_reported":1727161709,"current_range_meters":39200,"station_id":"ce4bh5p2rcd13ifvqe4g","pricing_plan_id":"cebpf4jnsgd1na2vs0mg"},{"bike_id":"a0a998b7-2873-4964-9f71-ffb3fcb85933","system_id":"levelo_inurba_marseille","lat":43.31086,"lon":5.42428,"is_reserved":false,"is_disabled":false,"rental_uris":{"android":"levelo://app?vid=a0a998b7-2873-4964-9f71-ffb3fcb85933","ios":"levelo://app?vid=a0a998b7-2873-4964-9f71-ffb3fcb85933"},"vehicle_type_id":"4","last_reported":1727161709,"current_range_meters":30800,"station_id":"ce4bhp92rcd13ifvqhag","pricing_plan_id":"cebpf4jnsgd1na2vs0mg"},{"bike_id":"a4531c9c-0dd8-49b1-b635-dd7a68db825f","system_id":"levelo_inurba_marseille","lat":43.22929,"lon":5.35379,"is_reserved":false,"is_disabled":false,"rental_uris":{"android":"levelo://app?vid=a4531c9c-0dd8-49b1-b635-dd7a68db825f","ios":"levelo://app?vid=a4531c9c-0dd8-49b1-b635-dd7a68db825f"},"vehicle_type_id":"4","last_reported":1727161709,"current_range_meters":38400,"station_id":"cpo3532slgdg3j2ikp40","pricing_plan_id":"cebpf4jnsgd1na2vs0mg"},{"bike_id":"f20ec017-ac0f-433b-8697-6f9f747e8305","system_id":"levelo_inurba_marseille","lat":43.304667,"lon":5.37906,"is_reserved":false,"is_disabled":false,"rental_uris":{"android":"levelo://app?vid=f20ec017-ac0f-433b-8697-6f9f747e8305","ios":"levelo://app?vid=f20ec017-ac0f-433b-8697-6f9f747e8305"},"vehicle_type_id":"4","last_reported":1727161709,"current_range_meters":7200,"station_id":"ce4bgup2rcd13ifvqcn0","pricing_plan_id":"cebpf4jnsgd1na2vs0mg"},{"bike_id":"1619d2d2-7956-4507-a582-5e30a2a866c9","system_id":"levelo_inurba_marseille","lat":43.24075,"lon":5.37759,"is_reserved":false,"is_disabled":false,"rental_uris":{"android":"levelo://app?vid=1619d2d2-7956-4507-a582-5e30a2a866c9","ios":"levelo://app?vid=1619d2d2-7956-4507-a582-5e30a2a866c9"},"vehicle_type_id":"4","last_reported":1727161709,"current_range_meters":18000,"station_id":"ce4bhnp2rcd13ifvqgvg","pricing_plan_id":"cebpf4jnsgd1na2vs0mg"},{"bike_id":"474278e4-fdc9-4dbc-8391-6c8131287588","system_id":"levelo_inurba_marseille","lat":43.30151,"lon":5.3809,"is_reserved":false,"is_disabled":false,"rental_uris":{"android":"levelo://app?vid=474278e4-fdc9-4dbc-8391-6c8131287588","ios":"levelo://app?vid=474278e4-fdc9-4dbc-8391-6c8131287588"},"vehicle_type_id":"4","last_reported":1727161709,"current_range_meters":34000,"station_id":"ce4bgjp2rcd13ifvqbh0","pricing_plan_id":"cebpf4jnsgd1na2vs0mg"},{"bike_id":"a68beb90-0490-4a03-819e-c0befb26d281","system_id":"levelo_inurba_marseille","lat":43.26794,"lon":5.39412,"is_reserved":false,"is_disabled":false,"rental_uris":{"android":"levelo://app?vid=a68beb90-0490-4a03-819e-c0befb26d281","ios":"levelo://app?vid=a68beb90-0490-4a03-819e-c0befb26d281"},"vehicle_type_id":"4","last_reported":1727161709,"current_range_meters":12400,"station_id":"ce4bhh12rcd13ifvqfg0","pricing_plan_id":"cebpf4jnsgd1na2vs0mg"},{"bike_id":"4e817c6c-8f49-4902-8f76-f393e8479bc0","system_id":"levelo_inurba_marseille","lat":43.24082,"lon":5.37748,"is_reserved":false,"is_disabled":false,"rental_uris":{"android":"levelo://app?vid=4e817c6c-8f49-4902-8f76-f393e8479bc0","ios":"levelo://app?vid=4e817c6c-8f49-4902-8f76-f393e8479bc0"},"vehicle_type_id":"4","last_reported":1727161709,"current_range_meters":30000,"station_id":"ce4bhnp2rcd13ifvqgvg","pricing_plan_id":"cebpf4jnsgd1na2vs0mg"},{"bike_id":"08661cd8-de9f-4674-bcf7-171ce1fa6341","system_id":"levelo_inurba_marseille","lat":43.2669,"lon":5.38277,"is_reserved":false,"is_disabled":false,"rental_uris":{"android":"levelo://app?vid=08661cd8-de9f-4674-bcf7-171ce1fa6341","ios":"levelo://app?vid=08661cd8-de9f-4674-bcf7-171ce1fa6341"},"vehicle_type_id":"4","last_reported":1727161709,"current_range_meters":24800,"station_id":"ce4bhg92rcd13ifvqf90","pricing_plan_id":"cebpf4jnsgd1na2vs0mg"},{"bike_id":"38bd7b6c-deed-4226-88b7-e5f166cffbb0","system_id":"levelo_inurba_marseille","lat":43.27073,"lon":5.42282,"is_reserved":false,"is_disabled":false,"rental_uris":{"android":"levelo://app?vid=38bd7b6c-deed-4226-88b7-e5f166cffbb0","ios":"levelo://app?vid=38bd7b6c-deed-4226-88b7-e5f166cffbb0"},"vehicle_type_id":"4","last_reported":1727161709,"current_range_meters":28400,"station_id":"ce4bhk92rcd13ifvqgb0","pricing_plan_id":"cebpf4jnsgd1na2vs0mg"},{"bike_id":"76444aa2-19b1-44dd-8652-85ef47b3a931","system_id":"levelo_inurba_marseille","lat":43.30551,"lon":5.38439,"is_reserved":false,"is_disabled":false,"rental_uris":{"android":"levelo://app?vid=76444aa2-19b1-44dd-8652-85ef47b3a931","ios":"levelo://app?vid=76444aa2-19b1-44dd-8652-85ef47b3a931"},"vehicle_type_id":"4","last_reported":1727161709,"current_range_meters":35200,"station_id":"ce4bgg92rcd13ifvqb30","pricing_plan_id":"cebpf4jnsgd1na2vs0mg"},{"bike_id":"5b1655ff-6400-4636-a7ee-70f90da36781","system_id":"levelo_inurba_marseille","lat":43.26192,"lon":5.37453,"is_reserved":false,"is_disabled":false,"rental_uris":{"android":"levelo://app?vid=5b1655ff-6400-4636-a7ee-70f90da36781","ios":"levelo://app?vid=5b1655ff-6400-4636-a7ee-70f90da36781"},"vehicle_type_id":"4","last_reported":1727161709,"current_range_meters":38000,"station_id":"ce4bhgp2rcd13ifvqfc0","pricing_plan_id":"cebpf4jnsgd1na2vs0mg"},{"bike_id":"12291da4-558d-4edf-9d32-e59b21a3d649","system_id":"levelo_inurba_marseille","lat":43.29571,"lon":5.39964,"is_reserved":false,"is_disabled":false,"rental_uris":{"android":"levelo://app?vid=12291da4-558d-4edf-9d32-e59b21a3d649","ios":"levelo://app?vid=12291da4-558d-4edf-9d32-e59b21a3d649"},"vehicle_type_id":"4","last_reported":1727161709,"current_range_meters":38000,"station_id":"ce4bh312rcd13ifvqdj0","pricing_plan_id":"cebpf4jnsgd1na2vs0mg"},{"bike_id":"80e7ba47-93a0-4ea1-baa0-398d96327b89","system_id":"levelo_inurba_marseille","lat":43.30164,"lon":5.3808,"is_reserved":false,"is_disabled":false,"rental_uris":{"android":"levelo://app?vid=80e7ba47-93a0-4ea1-baa0-398d96327b89","ios":"levelo://app?vid=80e7ba47-93a0-4ea1-baa0-398d96327b89"},"vehicle_type_id":"4","last_reported":1727161709,"current_range_meters":35200,"station_id":"ce4bgjp2rcd13ifvqbh0","pricing_plan_id":"cebpf4jnsgd1na2vs0mg"},{"bike_id":"59e47a29-2499-41f0-83b9-ec7f7c20e37a","system_id":"levelo_inurba_marseille","lat":43.2767,"lon":5.38916,"is_reserved":false,"is_disabled":false,"rental_uris":{"android":"levelo://app?vid=59e47a29-2499-41f0-83b9-ec7f7c20e37a","ios":"levelo://app?vid=59e47a29-2499-41f0-83b9-ec7f7c20e37a"},"vehicle_type_id":"4","last_reported":1727161709,"current_range_meters":27200,"station_id":"ce4bhi12rcd13ifvqfo0","pricing_plan_id":"cebpf4jnsgd1na2vs0mg"},{"bike_id":"d3097c88-eabb-41e7-868b-70b9b14f7695","system_id":"levelo_inurba_marseille","lat":43.28155,"lon":5.42653,"is_reserved":false,"is_disabled":false,"rental_uris":{"android":"levelo://app?vid=d3097c88-eabb-41e7-868b-70b9b14f7695","ios":"levelo://app?vid=d3097c88-eabb-41e7-868b-70b9b14f7695"},"vehicle_type_id":"4","last_reported":1727161709,"current_range_meters":38000,"station_id":"ce4bhnh2rcd13ifvqgug","pricing_plan_id":"cebpf4jnsgd1na2vs0mg"},{"bike_id":"a94820ed-d372-4f62-be96-05f52b4160a1","system_id":"levelo_inurba_marseille","lat":43.24082,"lon":5.37755,"is_reserved":false,"is_disabled":false,"rental_uris":{"android":"levelo://app?vid=a94820ed-d372-4f62-be96-05f52b4160a1","ios":"levelo://app?vid=a94820ed-d372-4f62-be96-05f52b4160a1"},"vehicle_type_id":"4","last_reported":1727161709,"current_range_meters":28400,"station_id":"ce4bhnp2rcd13ifvqgvg","pricing_plan_id":"cebpf4jnsgd1na2vs0mg"},{"bike_id":"db483363-6c41-44d1-bf9c-7bfc6acfbb37","system_id":"levelo_inurba_marseille","lat":43.2408,"lon":5.37753,"is_reserved":false,"is_disabled":false,"rental_uris":{"android":"levelo://app?vid=db483363-6c41-44d1-bf9c-7bfc6acfbb37","ios":"levelo://app?vid=db483363-6c41-44d1-bf9c-7bfc6acfbb37"},"vehicle_type_id":"4","last_reported":1727161709,"current_range_meters":27200,"station_id":"ce4bhnp2rcd13ifvqgvg","pricing_plan_id":"cebpf4jnsgd1na2vs0mg"},{"bike_id":"64acd3e3-07b6-4f47-b67f-f8441758cf59","system_id":"levelo_inurba_marseille","lat":43.33615,"lon":5.41024,"is_reserved":false,"is_disabled":false,"rental_uris":{"android":"levelo://app?vid=64acd3e3-07b6-4f47-b67f-f8441758cf59","ios":"levelo://app?vid=64acd3e3-07b6-4f47-b67f-f8441758cf59"},"vehicle_type_id":"4","last_reported":1727161709,"current_range_meters":30400,"station_id":"ce4bhqh2rcd13ifvqhmg","pricing_plan_id":"cebpf4jnsgd1na2vs0mg"},{"bike_id":"1619083c-19a1-4aa4-a908-a829cf92a487","system_id":"levelo_inurba_marseille","lat":43.2407,"lon":5.37765,"is_reserved":false,"is_disabled":false,"rental_uris":{"android":"levelo://app?vid=1619083c-19a1-4aa4-a908-a829cf92a487","ios":"levelo://app?vid=1619083c-19a1-4aa4-a908-a829cf92a487"},"vehicle_type_id":"4","last_reported":1727161709,"current_range_meters":16800,"station_id":"ce4bhnp2rcd13ifvqgvg","pricing_plan_id":"cebpf4jnsgd1na2vs0mg"},{"bike_id":"c4fc413e-904e-4dde-8d05-7d110cdd66fc","system_id":"levelo_inurba_marseille","lat":43.30476,"lon":5.37901,"is_reserved":false,"is_disabled":false,"rental_uris":{"android":"levelo://app?vid=c4fc413e-904e-4dde-8d05-7d110cdd66fc","ios":"levelo://app?vid=c4fc413e-904e-4dde-8d05-7d110cdd66fc"},"vehicle_type_id":"4","last_reported":1727161709,"current_range_meters":24800,"station_id":"ce4bgup2rcd13ifvqcn0","pricing_plan_id":"cebpf4jnsgd1na2vs0mg"},{"bike_id":"341595ea-82bd-4130-a7ea-9507bfd09cb5","system_id":"levelo_inurba_marseille","lat":43.29075,"lon":5.37191,"is_reserved":false,"is_disabled":false,"rental_uris":{"android":"levelo://app?vid=341595ea-82bd-4130-a7ea-9507bfd09cb5","ios":"levelo://app?vid=341595ea-82bd-4130-a7ea-9507bfd09cb5"},"vehicle_type_id":"4","last_reported":1727161709,"current_range_meters":39200,"station_id":"ce4bh5p2rcd13ifvqe4g","pricing_plan_id":"cebpf4jnsgd1na2vs0mg"},