{"last_updated":1760198998,"ttl":60,"version":"2.2","data":{"bikes":[{"bike_id":"5516e87b-8441-4871-bd1c-dcd0126e113d","system_id":"levelo_inurba_marseille","lat":43.337444,"lon":5.374475,"is_reserved":false,"is_disabled":true,"rental_uris":{"android":"levelo://app?vid=5516e87b-8441-4871-bd1c-dcd0126e113d","ios":"levelo://app?vid=5516e87b-8441-4871-bd1c-dcd0126e113d"},"vehicle_type_id":"4","last_reported":1760198998,"current_range_meters":0,"station_id":"","pricing_plan_id":"cebpf4jnsgd1na2vs0mg"},{"bike_id":"f9ef6a8c-cc82-49e4-96c2-f46e0950a0fc","system_id":"levelo_inurba_marseille","lat":43.33771,"lon":5.37424,"is_reserved":false,"is_disabled":true,"rental_uris":{"android":"levelo://app?vid=f9ef6a8c-cc82-49e4-96c2-f46e0950a0fc","ios":"levelo://app?vid=f9ef6a8c-cc82-49e4-96c2-f46e0950a0fc"},"vehicle_type_id":"4","last_reported":1760198998,"current_range_meters":0,"station_id":"","pricing_plan_id":"cebpf4jnsgd1na2vs0mg"},{"bike_id":"f92995dc-d2e7-4f2e-bcaf-27995c98a1de","system_id":"levelo_inurba_marseille","lat":43.33751,"lon":5.37456,"is_reserved":false,"is_disabled":true,"rental_uris":{"android":"levelo://app?vid=f92995dc-d2e7-4f2e-bcaf-27995c98a1de","ios":"levelo://app?vid=f92995dc-d2e7-4f2e-bcaf-27995c98a1de"},"vehicle_type_id":"4","last_reported":1760198998,"current_range_meters":0,"station_id":"","pricing_plan_id":"cebpf4jnsgd1na2vs0mg"},{"bike_id":"092183e8-1e36-4ece-a29a-68743a5820f6","system_id":"levelo_inurba_marseille","lat":43.33747,"lon":5.37463,"is_reserved":false,"is_disabled":true,"rental_uris":{"android":"levelo://app?vid=092183e8-1e36-4ece-a29a-68743a5820f6","ios":"levelo://app?vid=092183e8-1e36-4ece-a29a-68743a5820f6"},"vehicle_type_id":"1","last_reported":1760198998,"current_range_meters":0,"station_id":"","pricing_plan_id":"cebpf4jnsgd1na2vs0mg"},{"bike_id":"268f0f13-c790-4518-9f6a-1fe45b445342","system_id":"levelo_inurba_marseille","lat":43.33737,"lon":5.37465,"is_reserved":false,"is_disabled":true,"rental_uris":{"android":"levelo://app?vid=268f0f13-c790-4518-9f6a-1fe45b445342","ios":"levelo://app?vid=268f0f13-c790-4518-9f6a-1fe45b445342"},"vehicle_type_id":"4","last_reported":1760198998,"current_range_meters":0,"station_id":"","pricing_plan_id":"cebpf4jnsgd1na2vs0mg"},{"bike_id":"844de8fa-b1ed-4b48-bbb0-8ea30f04e6fa","system_id":"levelo_inurba_marseille","lat":43.33755,"lon":5.37468,"is_reserved":false,"is_disabled":false,"rental_uris":{"android":"levelo://app?vid=844de8fa-b1ed-4b48-bbb0-8ea30f04e6fa","ios":"levelo://app?vid=844de8fa-b1ed-4b48-bbb0-8ea30f04e6fa"},"vehicle_type_id":"4","last_reported":1760198998,"current_range_meters":4400,"station_id":"","pricing_plan_id":"cebpf4jnsgd1na2vs0mg"},{"bike_id":"affea08d-2e61-49ad-9018-2db734fe38fb","system_id":"levelo_inurba_marseille","lat":43.337444,"lon":5.374475,"is_reserved":false,"is_disabled":true,"rental_uris":{"android":"levelo://app?vid=affea08d-2e61-49ad-9018-2db734fe38fb","ios":"levelo://app?vid=affea08d-2e61-49ad-9018-2db734fe38fb"},"vehicle_type_id":"4","last_reported":1760198998,"current_range_meters":0,"station_id":"","pricing_plan_id":"cebpf4jnsgd1na2vs0mg"},{"bike_id":"c80be3e3-26c1-4fd2-ab94-730bb8638bdc","system_id":"levelo_inurba_marseille","lat":43.337444,"lon":5.374475,"is_reserved":false,"is_disabled":true,"rental_uris":{"android":"levelo://app?vid=c80be3e3-26c1-4fd2-ab94-730bb8638bdc","ios":"levelo://app?vid=c80be3e3-26c1-4fd2-ab94-730bb8638bdc"},"vehicle_type_id":"4","last_reported":1760198998,"current_range_meters":0,"station_id":"","pricing_plan_id":"cebpf4jnsgd1na2vs0mg"},{"bike_id":"61fed68e-1a42-4b25-9f0c-ba4d50384443","system_id":"levelo_inurba_marseille","lat":43.2941,"lon":5.35822,"is_reserved":false,"is_disabled":true,"rental_uris":{"android":"levelo://app?vid=61fed68e-1a42-4b25-9f0c-ba4d50384443","ios":"levelo://app?vid=61fed68e-1a42-4b25-9f0c-ba4d50384443"},"vehicle_type_id":"4","last_reported":1760198998,"current_range_meters":0,"station_id":"","pricing_plan_id":"cebpf4jnsgd1na2vs0mg"},{"bike_id":"f8726700-64d6-4ff8-acc0-9adfce94dbe9","system_id":"levelo_inurba_marseille","lat":43.27848,"lon":5.38298,"is_reserved":false,"is_disabled":true,"rental_uris":{"android":"levelo://app?vid=f8726700-64d6-4ff8-acc0-9adfce94dbe9","ios":"levelo://app?vid=f8726700-64d6-4ff8-acc0-9adfce94dbe9"},"vehicle_type_id":"4","last_reported":1760198998,"current_range_meters":0,"station_id":"","pricing_plan_id":"cebpf4jnsgd1na2vs0mg"},{"bike_id":"b4e7ef10-af79-4cf8-a207-60ed0a922607","system_id":"levelo_inurba_marseille","lat":43.337444,"lon":5.374475,"is_reserved":false,"is_disabled":true,"rental_uris":{"android":"levelo://app?vid=b4e7ef10-af79-4cf8-a207-60ed0a922607","ios":"levelo://app?vid=b4e7ef10-af79-4cf8-a207-60ed0a922607"},"vehicle_type_id":"4","last_reported":1760198998,"current_range_meters":0,"station_id":"","pricing_plan_id":"cebpf4jnsgd1na2vs0mg"},{"bike_id":"4ccf7a59-029f-457f-b839-dc6f11286326","system_id":"levelo_inurba_marseille","lat":43.3176,"lon":5.4224,"is_reserved":false,"is_disabled":true,"rental_uris":{"android":"levelo://app?vid=4ccf7a59-029f-457f-b839-dc6f11286326","ios":"levelo://app?vid=4ccf7a59-029f-457f-b839-dc6f11286326"},"vehicle_type_id":"4","last_reported":1760198998,"current_range_meters":0,"station_id":"","pricing_plan_id":"cebpf4jnsgd1na2vs0mg"},{"bike_id":"8f2a7ab2-aca6-46d7-b646-8b76230702af","system_id":"levelo_inurba_marseille","lat":43.292801,"lon":5.368444,"is_reserved":false,"is_disabled":true,"rental_uris":{"android":"levelo://app?vid=8f2a7ab2-aca6-46d7-b646-8b76230702af","ios":"levelo://app?vid=8f2a7ab2-aca6-46d7-b646-8b76230702af"},"vehicle_type_id":"4","last_reported":1760198998,"current_range_meters":0,"station_id":"","pricing_plan_id":"cebpf4jnsgd1na2vs0mg"},{"bike_id":"bf0cd1f5-4a2b-4aae-9f11-cde060414574","system_id":"levelo_inurba_marseille","lat":43.2254,"lon":5.34825,"is_reserved":false,"is_disabled":true,"rental_uris":{"android":"levelo://app?vid=bf0cd1f5-4a2b-4aae-9f11-cde060414574","ios":"levelo://app?vid=bf0cd1f5-4a2b-4aae-9f11-cde060414574"},"vehicle_type_id":"4","last_reported":1760198998,"current_range_meters":0,"station_id":"","pricing_plan_id":"cebpf4jnsgd1na2vs0mg"},{"bike_id":"faf21e59-73fe-43ba-965b-23c7230d33c8","system_id":"levelo_inurba_marseille","lat":43.270557,"lon":5.392632,"is_reserved":false,"is_disabled":true,"rental_uris":{"android":"levelo://app?vid=faf21e59-73fe-43ba-965b-23c7230d33c8","ios":"levelo://app?vid=faf21e59-73fe-43ba-965b-23c7230d33c8"},"vehicle_type_id":"4","last_reported":1760198998,"current_range_meters":0,"station_id":"","pricing_plan_id":"cebpf4jnsgd1na2vs0mg"},{"bike_id":"be732d2f-d76a-4973-bdaf-900572cf375a","system_id":"levelo_inurba_marseille","lat":43.29537,"lon":5.38536,"is_reserved":false,"is_disabled":true,"rental_uris":{"android":"levelo://app?vid=be732d2f-d76a-4973-bdaf-900572cf375a","ios":"levelo://app?vid=be732d2f-d76a-4973-bdaf-900572cf375a"},"vehicle_type_id":"4","last_reported":1760198998,"current_range_meters":0,"station_id":"ce4bgih2rcd13ifvqba0","pricing_plan_id":"cebpf4jnsgd1na2vs0mg"},{"bike_id":"12d26edc-fcfe-48b1-889f-285489eef617","system_id":"levelo_inurba_marseille","lat":43.29791,"lon":5.38108,"is_reserved":false,"is_disabled":true,"rental_uris":{"android":"levelo://app?vid=12d26edc-fcfe-48b1-889f-285489eef617","ios":"levelo://app?vid=12d26edc-fcfe-48b1-889f-285489eef617"},"vehicle_type_id":"4","last_reported":1760198998,"current_range_meters":0,"station_id":"ce4bgip2rcd13ifvqbb0","pricing_plan_id":"cebpf4jnsgd1na2vs0mg"},{"bike_id":"3884177c-9882-4092-8480-2669a74074f0","system_id":"levelo_inurba_marseille","lat":43.29912,"lon":5.38139,"is_reserved":false,"is_disabled":true,"rental_uris":{"android":"levelo://app?vid=3884177c-9882-4092-8480-2669a74074f0","ios":"levelo://app?vid=3884177c-9882-4092-8480-2669a74074f0"},"vehicle_type_id":"4","last_reported":1760198998,"current_range_meters":0,"station_id":"ce4bgj12rcd13ifvqbc0","pricing_plan_id":"cebpf4jnsgd1na2vs0mg"},{"bike_id":"52a7fc00-8b9a-4440-9680-536949d78bb9","system_id":"levelo_inurba_marseille","lat":43.301511,"lon":5.380891,"is_reserved":false,"is_disabled":true,"rental_uris":{"android":"levelo://app?vid=52a7fc00-8b9a-4440-9680-536949d78bb9","ios":"levelo://app?vid=52a7fc00-8b9a-4440-9680-536949d78bb9"},"vehicle_type_id":"4","last_reported":1760198998,"current_range_meters":0,"station_id":"ce4bgjp2rcd13ifvqbh0","pricing_plan_id":"cebpf4jnsgd1na2vs0mg"},{"bike_id":"ec39affe-5e48-4259-a225-7a0d248d923e","system_id":"levelo_inurba_marseille","lat":43.29623,"lon":5.38106,"is_reserved":false,"is_disabled":true,"rental_uris":{"android":"levelo://app?vid=ec39affe-5e48-4259-a225-7a0d248d923e","ios":"levelo://app?vid=ec39affe-5e48-4259-a225-7a0d248d923e"},"vehicle_type_id":"4","last_reported":1760198998,"current_range_meters":0,"station_id":"ce4bgl12rcd13ifvqbo0","pricing_plan_id":"cebpf4jnsgd1na2vs0mg"},{"bike_id":"cccf236a-9273-4051-a573-8761e556ca18","system_id":"levelo_inurba_marseille","lat":43.30928,"lon":5.40167,"is_reserved":false,"is_disabled":true,"rental_uris":{"android":"levelo://app?vid=cccf236a-9273-4051-a573-8761e556ca18","ios":"levelo://app?vid=cccf236a-9273-4051-a573-8761e556ca18"},"vehicle_type_id":"4","last_reported":1760198998,"current_range_meters":0,"station_id":"ce4bgvp2rcd13ifvqct0","pricing_plan_id":"cebpf4jnsgd1na2vs0mg"},{"bike_id":"90bee144-32cd-4cdf-922d-2257ff3b894f","system_id":"levelo_inurba_marseille","lat":43.31331,"lon":5.39724,"is_reserved":false,"is_disabled":true,"rental_uris":{"android":"levelo://app?vid=90bee144-32cd-4cdf-922d-2257ff3b894f","ios":"levelo://app?vid=90bee144-32cd-4cdf-922d-2257ff3b894f"},"vehicle_type_id":"4","last_reported":1760198998,"current_range_meters":0,"station_id":"ce4bgvp2rcd13ifvqcu0","pricing_plan_id":"cebpf4jnsgd1na2vs0mg"},{"bike_id":"d88879f7-1d7f-47a2-b8ee-f7951e3889e3","system_id":"levelo_inurba_marseille","lat":43.28939,"lon":5.39639,"is_reserved":false,"is_disabled":true,"rental_uris":{"android":"levelo://app?vid=d88879f7-1d7f-47a2-b8ee-f7951e3889e3","ios":"levelo://app?vid=d88879f7-1d7f-47a2-b8ee-f7951e3889e3"},"vehicle_type_id":"4","last_reported":1760198998,"current_range_meters":0,"station_id":"ce4bh3h2rcd13ifvqdn0","pricing_plan_id":"cebpf4jnsgd1na2vs0mg"},{"bike_id":"1e217379-81fc-498c-ab5f-050b06faee8c","system_id":"levelo_inurba_marseille","lat":43.28027,"lon":5.3696,"is_reserved":false,"is_disabled":true,"rental_uris":{"android":"levelo://app?vid=1e217379-81fc-498c-ab5f-050b06faee8c","ios":"levelo://app?vid=1e217379-81fc-498c-ab5f-050b06faee8c"},"vehicle_type_id":"4","last_reported":1760198998,"current_range_meters":0,"station_id":"ce4bha12rcd13ifvqef0","pricing_plan_id":"cebpf4jnsgd1na2vs0mg"},{"bike_id":"0dfcf700-17da-4a70-8715-aa2e3ca1e1c8","system_id":"levelo_inurba_marseille","lat":43.284637,"lon":5.358864,"is_reserved":false,"is_disabled":true,"rental_uris":{"android":"levelo://app?vid=0dfcf700-17da-4a70-8715-aa2e3ca1e1c8","ios":"levelo://app?vid=0dfcf700-17da-4a70-8715-aa2e3ca1e1c8"},"vehicle_type_id":"4","last_reported":1760198998,"current_range_meters":0,"station_id":"ce4bhah2rcd13ifvqei0","pricing_plan_id":"cebpf4jnsgd1na2vs0mg"},{"bike_id":"69b8a834-8546-4809-a315-70b734ae1612","system_id":"levelo_inurba_marseille","lat":43.284698,"lon":5.358827,"is_reserved":false,"is_disabled":true,"rental_uris":{"android":"levelo://app?vid=69b8a834-8546-4809-a315-70b734ae1612","ios":"levelo://app?vid=69b8a834-8546-4809-a315-70b734ae1612"},"vehicle_type_id":"4","last_reported":1760198998,"current_range_meters":0,"station_id":"ce4bhah2rcd13ifvqei0","pricing_plan_id":"cebpf4jnsgd1na2vs0mg"},{"bike_id":"a052d914-f94f-42e1-aeab-c9e1d732cc01","system_id":"levelo_inurba_marseille","lat":43.28268,"lon":5.3508,"is_reserved":false,"is_disabled":true,"rental_uris":{"android":"levelo://app?vid=a052d914-f94f-42e1-aeab-c9e1d732cc01","ios":"levelo://app?vid=a052d914-f94f-42e1-aeab-c9e1d732cc01"},"vehicle_type_id":"4","last_reported":1760198998,"current_range_meters":0,"station_id":"ce4bhbp2rcd13ifvqerg","pricing_plan_id":"cebpf4jnsgd1na2vs0mg"},{"bike_id":"5a81c61c-083d-4ece-8193-16da48d952dd","system_id":"levelo_inurba_marseille","lat":43.28265,"lon":5.35069,"is_reserved":false,"is_disabled":true,"rental_uris":{"android":"levelo://app?vid=5a81c61c-083d-4ece-8193-16da48d952dd","ios":"levelo://app?vid=5a81c61c-083d-4ece-8193-16da48d952dd"},"vehicle_type_id":"4","last_reported":1760198998,"current_range_meters":0,"station_id":"ce4bhbp2rcd13ifvqerg","pricing_plan_id":"cebpf4jnsgd1na2vs0mg"},{"bike_id":"f510aa3d-6220-4664-aa34-b9b20e2e5958","system_id":"levelo_inurba_marseille","lat":43.272105,"lon":5.391813,"is_reserved":false,"is_disabled":true,"rental_uris":{"android":"levelo://app?vid=f510aa3d-6220-4664-aa34-b9b20e2e5958","ios":"levelo://app?vid=f510aa3d-6220-4664-aa34-b9b20e2e5958"},"vehicle_type_id":"4","last_reported":1760198998,"current_range_meters":0,"station_id":"ce4bhhp2rcd13ifvqfm0","pricing_plan_id":"cebpf4jnsgd1na2vs0mg"},{"bike_id":"3dae5307-963e-4a82-8023-bba60dcf2f82","system_id":"levelo_inurba_marseille","lat":43.2558,"lon":5.38238,"is_reserved":false,"is_disabled":true,"rental_uris":{"android":"levelo://app?vid=3dae5307-963e-4a82-8023-bba60dcf2f82","ios":"levelo://app?vid=3dae5307-963e-4a82-8023-bba60dcf2f82"},"vehicle_type_id":"4","last_reported":1760198998,"current_range_meters":0,"station_id":"ce4bhih2rcd13ifvqfs0","pricing_plan_id":"cebpf4jnsgd1na2vs0mg"},{"bike_id":"16f3f5f7-46a0-4fc2-a961-f87b7fa1bd9f","system_id":"levelo_inurba_marseille","lat":43.25942,"lon":5.409,"is_reserved":false,"is_disabled":true,"rental_uris":{"android":"levelo://app?vid=16f3f5f7-46a0-4fc2-a961-f87b7fa1bd9f","ios":"levelo://app?vid=16f3f5f7-46a0-4fc2-a961-f87b7fa1bd9f"},"vehicle_type_id":"4","last_reported":1760198998,"current_range_meters":0,"station_id":"ce4bhm92rcd13ifvqglg","pricing_plan_id":"cebpf4jnsgd1na2vs0mg"},{"bike_id":"9a4429d1-232c-4519-8ed9-312533b588c9","system_id":"levelo_inurba_marseille","lat":43.26227,"lon":5.40475,"is_reserved":false,"is_disabled":true,"rental_uris":{"android":"levelo://app?vid=9a4429d1-232c-4519-8ed9-312533b588c9","ios":"levelo://app?vid=9a4429d1-232c-4519-8ed9-312533b588c9"},"vehicle_type_id":"4","last_reported":1760198998,"current_range_meters":0,"station_id":"ce4bhmh2rcd13ifvqgmg","pricing_plan_id":"cebpf4jnsgd1na2vs0mg"},{"bike_id":"0a138a69-804e-4a3a-ae0d-3fe3da1fb32d","system_id":"levelo_inurba_marseille","lat":43.23143,"lon":5.43714,"is_reserved":false,"is_disabled":true,"rental_uris":{"android":"levelo://app?vid=0a138a69-804e-4a3a-ae0d-3fe3da1fb32d","ios":"levelo://app?vid=0a138a69-804e-4a3a-ae0d-3fe3da1fb32d"},"vehicle_type_id":"4","last_reported":1760198998,"current_range_meters":0,"station_id":"ce4bhmp2rcd13ifvqgog","pricing_plan_id":"cebpf4jnsgd1na2vs0mg"},{"bike_id":"f9c19ee0-e263-4899-8e1d-67ae5a7da266","system_id":"levelo_inurba_marseille","lat":43.310835,"lon":5.424292,"is_reserved":false,"is_disabled":true,"rental_uris":{"android":"levelo://app?vid=f9c19ee0-e263-4899-8e1d-67ae5a7da266","ios":"levelo://app?vid=f9c19ee0-e263-4899-8e1d-67ae5a7da266"},"vehicle_type_id":"4","last_reported":1760198998,"current_range_meters":0,"station_id":"ce4bhp92rcd13ifvqhag","pricing_plan_id":"cebpf4jnsgd1na2vs0mg"},{"bike_id":"b2e2b38d-36f4-4e15-986e-723132819a60","system_id":"levelo_inurba_marseille","lat":43.30809,"lon":5.43541,"is_reserved":false,"is_disabled":true,"rental_uris":{"android":"levelo://app?vid=b2e2b38d-36f4-4e15-986e-723132819a60","ios":"levelo://app?vid=b2e2b38d-36f4-4e15-986e-723132819a60"},"vehicle_type_id":"4","last_reported":1760198998,"current_range_meters":0,"station_id":"ce4bhph2rcd13ifvqheg","pricing_plan_id":"cebpf4jnsgd1na2vs0mg"},{"bike_id":"515272b3-1e2f-48e9-964e-f406cec6f817","system_id":"levelo_inurba_marseille","lat":43.23194,"lon":5.35559,"is_reserved":false,"is_disabled":true,"rental_uris":{"android":"levelo://app?vid=515272b3-1e2f-48e9-964e-f406cec6f817","ios":"levelo://app?vid=515272b3-1e2f-48e9-964e-f406cec6f817"},"vehicle_type_id":"4","last_reported":1760198998,"current_range_meters":0,"station_id":"ce4bhu92rcd13ifvqi70","pricing_plan_id":"cebpf4jnsgd1na2vs0mg"},{"bike_id":"2f45cf62-53a5-4067-9257-d865b378f07f","system_id":"levelo_inurba_marseille","lat":43.229295,"lon":5.353803,"is_reserved":false,"is_disabled":true,"rental_uris":{"android":"levelo://app?vid=2f45cf62-53a5-4067-9257-d865b378f07f","ios":"levelo://app?vid=2f45cf62-53a5-4067-9257-d865b378f07f"},"vehicle_type_id":"4","last_reported":1760198998,"current_range_meters":0,"station_id":"cpo3532slgdg3j2ikp40","pricing_plan_id":"cebpf4jnsgd1na2vs0mg"},{"bike_id":"0ff28379-d69e-46fd-a711-ef84b1b06a74","system_id":"levelo_inurba_marseille","lat":43.21745,"lon":5.34602,"is_reserved":false,"is_disabled":true,"rental_uris":{"android":"levelo://app?vid=0ff28379-d69e-46fd-a711-ef84b1b06a74","ios":"levelo://app?vid=0ff28379-d69e-46fd-a711-ef84b1b06a74"},"vehicle_type_id":"4","last_reported":1760198998,"current_range_meters":0,"station_id":"st_cvj6r9ubvosntc0bgbag","pricing_plan_id":"cebpf4jnsgd1na2vs0mg"},{"bike_id":"bc508d92-e055-4123-8e72-1c0771f1f4a0","system_id":"levelo_inurba_marseille","lat":43.21742,"lon":5.34614,"is_reserved":false,"is_disabled":true,"rental_uris":{"android":"levelo://app?vid=bc508d92-e055-4123-8e72-1c0771f1f4a0","ios":"levelo://app?vid=bc508d92-e055-4123-8e72-1c0771f1f4a0"},"vehicle_type_id":"4","last_reported":1760198998,"current_range_meters":0,"station_id":"st_cvj6r9ubvosntc0bgbag","pricing_plan_id":"cebpf4jnsgd1na2vs0mg"},{"bike_id":"86eca012-edfb-4c20-9aef-d37ce3cadbda","system_id":"levelo_inurba_marseille","lat":43.211902,"lon":5.350787,"is_reserved":false,"is_disabled":true,"rental_uris":{"android":"levelo://app?vid=86eca012-edfb-4c20-9aef-d37ce3cadbda","ios":"levelo://app?vid=86eca012-edfb-4c20-9aef-d37ce3cadbda"},"vehicle_type_id":"4","last_reported":1760198998,"current_range_meters":0,"station_id":"st_cvj6sg6p6f1abm77japg","pricing_plan_id":"cebpf4jnsgd1na2vs0mg"},{"bike_id":"5206f34d-5c08-42bd-b24d-21b13734d2e6","system_id":"levelo_inurba_marseille","lat":43.21195,"lon":5.35073,"is_reserved":false,"is_disabled":true,"rental_uris":{"android":"levelo://app?vid=5206f34d-5c08-42bd-b24d-21b13734d2e6","ios":"levelo://app?vid=5206f34d-5c08-42bd-b24d-21b13734d2e6"},"vehicle_type_id":"4","last_reported":1760198998,"current_range_meters":0,"station_id":"st_cvj6sg6p6f1abm77japg","pricing_plan_id":"cebpf4jnsgd1na2vs0mg"},{"bike_id":"5a1f50b1-f1f9-4f02-a3c5-363250f2c45b","system_id":"levelo_inurba_marseille","lat":43.21185,"lon":5.35073,"is_reserved":false,"is_disabled":true,"rental_uris":{"android":"levelo://app?vid=5a1f50b1-f1f9-4f02-a3c5-363250f2c45b","ios":"levelo://app?vid=5a1f50b1-f1f9-4f02-a3c5-363250f2c45b"},"vehicle_type_id":"4","last_reported":1760198998,"current_range_meters":0,"station_id":"st_cvj6sg6p6f1abm77japg","pricing_plan_id":"cebpf4jnsgd1na2vs0mg"},{"bike_id":"c31f5b0e-d798-4f12-be52-283c24a28126","system_id":"levelo_inurba_marseille","lat":43.2118,"lon":5.35069,"is_reserved":false,"is_disabled":true,"rental_uris":{"android":"levelo://app?vid=c31f5b0e-d798-4f12-be52-283c24a28126","ios":"levelo://app?vid=c31f5b0e-d798-4f12-be52-283c24a28126"},"vehicle_type_id":"4","last_reported":1760198998,"current_range_meters":0,"station_id":"st_cvj6sg6p6f1abm77japg","pricing_plan_id":"cebpf4jnsgd1na2vs0mg"},{"bike_id":"48a0041b-83a8-40b4-8366-8550bbaec9ea","system_id":"levelo_inurba_marseille","lat":43.21171,"lon":5.35083,"is_reserved":false,"is_disabled":true,"rental_uris":{"android":"levelo://app?vid=48a0041b-83a8-40b4-8366-8550bbaec9ea","ios":"levelo://app?vid=48a0041b-83a8-40b4-8366-8550bbaec9ea"},"vehicle_type_id":"4","last_reported":1760198998,"current_range_meters":0,"station_id":"st_cvj6sg6p6f1abm77japg","pricing_plan_id":"cebpf4jnsgd1na2vs0mg"},{"bike_id":"c248e8fe-baaa-4f12-923e-02c09c046a9b","system_id":"levelo_inurba_marseille","lat":43.25334,"lon":5.4216,"is_reserved":false,"is_disabled":true,"rental_uris":{"android":"levelo://app?vid=c248e8fe-baaa-4f12-923e-02c09c046a9b","ios":"levelo://app?vid=c248e8fe-baaa-4f12-923e-02c09c046a9b"},"vehicle_type_id":"4","last_reported":1760198998,"current_range_meters":0,"station_id":"st_d2m65c5bi1j21697t3ng","pricing_plan_id":"cebpf4jnsgd1na2vs0mg"},{"bike_id":"6789b0b1-4cdb-4364-8db0-2230f3507239","system_id":"levelo_inurba_marseille","lat":43.29482,"lon":5.43317,"is_reserved":false,"is_disabled":true,"rental_uris":{"android":"levelo://app?vid=6789b0b1-4cdb-4364-8db0-2230f3507239","ios":"levelo://app?vid=6789b0b1-4cdb-4364-8db0-2230f3507239"},"vehicle_type_id":"4","last_reported":1760198998,"current_range_meters":0,"station_id":"st_d3j5ugp08ojc73fj9d10","pricing_plan_id":"cebpf4jnsgd1na2vs0mg"},{"bike_id":"1d6245e4-562b-49a1-9e17-90a195bca958","system_id":"levelo_inurba_marseille","lat":43.22528,"lon":5.34835,"is_reserved":false,"is_disabled":true,"rental_uris":{"android":"levelo://app?vid=1d6245e4-562b-49a1-9e17-90a195bca958","ios":"levelo://app?vid=1d6245e4-562b-49a1-9e17-90a195bca958"},"vehicle_type_id":"4","last_reported":1760198998,"current_range_meters":400,"station_id":"","pricing_plan_id":"cebpf4jnsgd1na2vs0mg"},{"bike_id":"0a82be11-a94f-4fe5-8f10-42e337ff6c14","system_id":"levelo_inurba_marseille","lat":43.26553,"lon":5.37287,"is_reserved":false,"is_disabled":true,"rental_uris":{"android":"levelo://app?vid=0a82be11-a94f-4fe5-8f10-42e337ff6c14","ios":"levelo://app?vid=0a82be11-a94f-4fe5-8f10-42e337ff6c14"},"vehicle_type_id":"4","last_reported":1760198998,"current_range_meters":400,"station_id":"ce4bhg12rcd13ifvqf70","pricing_plan_id":"cebpf4jnsgd1na2vs0mg"},{"bike_id":"b36270ac-a864-4d64-be84-5caa029ed088","system_id":"levelo_inurba_marseille","lat":43.275654,"lon":5.384187,"is_reserved":false,"is_disabled":true,"rental_uris":{"android":"levelo://app?vid=b36270ac-a864-4d64-be84-5caa029ed088","ios":"levelo://app?vid=b36270ac-a864-4d64-be84-5caa029ed088"},"vehicle_type_id":"4","last_reported":1760198998,"current_range_meters":400,"station_id":"ce4bhh92rcd13ifvqfi0","pricing_plan_id":"cebpf4jnsgd1na2vs0mg"},{"bike_id":"fe6d7ab4-d664-4aa9-a55a-f374a3be29a0","system_id":"levelo_inurba_marseille","lat":43.29372,"lon":5.37859,"is_reserved":false,"is_disabled":true,"rental_uris":{"android":"levelo://app?vid=fe6d7ab4-d664-4aa9-a55a-f374a3be29a0","ios":"levelo://app?vid=fe6d7ab4-d664-4aa9-a55a-f374a3be29a0"},"vehicle_type_id":"4","last_reported":1760198998,"current_range_meters":800,"station_id":"ce4bgjh2rcd13ifvqbf0","pricing_plan_id":"cebpf4jnsgd1na2vs0mg"},{"bike_id":"2b5d5b57-0bec-4afb-a2b0-ef392a151d50","system_id":"levelo_inurba_marseille","lat":43.3112,"lon":5.37762,"is_reserved":false,"is_disabled":true,"rental_uris":{"android":"levelo://app?vid=2b5d5b57-0bec-4afb-a2b0-ef392a151d50","ios":"levelo://app?vid=2b5d5b57-0bec-4afb-a2b0-ef392a151d50"},"vehicle_type_id":"4","last_reported":1760198998,"current_range_meters":800,"station_id":"ce4bgt92rcd13ifvqcg0","pricing_plan_id":"cebpf4jnsgd1na2vs0mg"},{"bike_id":"7e8dc06b-6ea7-45f3-9f88-ee3b7421139f","system_id":"levelo_inurba_marseille","lat":43.31329,"lon":5.3969,"is_reserved":false,"is_disabled":true,"rental_uris":{"android":"levelo://app?vid=7e8dc06b-6ea7-45f3-9f88-ee3b7421139f","ios":"levelo://app?vid=7e8dc06b-6ea7-45f3-9f88-ee3b7421139f"},"vehicle_type_id":"4","last_reported":1760198998,"current_range_meters":800,"station_id":"ce4bgvp2rcd13ifvqcu0","pricing_plan_id":"cebpf4jnsgd1na2vs0mg"},{"bike_id":"805db910-6f3a-4813-8927-fc0bf8bbfa28","system_id":"levelo_inurba_marseille","lat":43.282633,"lon":5.350755,"is_reserved":false,"is_disabled":true,"rental_uris":{"android":"levelo://app?vid=805db910-6f3a-4813-8927-fc0bf8bbfa28","ios":"levelo://app?vid=805db910-6f3a-4813-8927-fc0bf8bbfa28"},"vehicle_type_id":"4","last_reported":1760198998,"current_range_meters":800,"station_id":"ce4bhbp2rcd13ifvqerg","pricing_plan_id":"cebpf4jnsgd1na2vs0mg"},{"bike_id":"11e7b4b6-ab1d-44ca-b2ea-37e8fe791f58","system_id":"levelo_inurba_marseille","lat":43.2619,"lon":5.37455,"is_reserved":false,"is_disabled":true,"rental_uris":{"android":"levelo://app?vid=11e7b4b6-ab1d-44ca-b2ea-37e8fe791f58","ios":"levelo://app?vid=11e7b4b6-ab1d-44ca-b2ea-37e8fe791f58"},"vehicle_type_id":"4","last_reported":1760198998,"current_range_meters":800,"station_id":"ce4bhgp2rcd13ifvqfc0","pricing_plan_id":"cebpf4jnsgd1na2vs0mg"},{"bike_id":"7966d293-cebb-4f8e-aad8-8abffd061527","system_id":"levelo_inurba_marseille","lat":43.29708,"lon":5.3662,"is_reserved":false,"is_disabled":true,"rental_uris":{"android":"levelo://app?vid=7966d293-cebb-4f8e-aad8-8abffd061527","ios":"levelo://app?vid=7966d293-cebb-4f8e-aad8-8abffd061527"},"vehicle_type_id":"4","last_reported":1760198998,"current_range_meters":1200,"station_id":"ce4bgn12rcd13ifvqbt0","pricing_plan_id":"cebpf4jnsgd1na2vs0mg"},{"bike_id":"4de9bb2c-153d-477b-bb89-ff8edd4891d6","system_id":"levelo_inurba_marseille","lat":43.3137,"lon":5.38492,"is_reserved":false,"is_disabled":true,"rental_uris":{"android":"levelo://app?vid=4de9bb2c-153d-477b-bb89-ff8edd4891d6","ios":"levelo://app?vid=4de9bb2c-153d-477b-bb89-ff8edd4891d6"},"vehicle_type_id":"4","last_reported":1760198998,"current_range_meters":1200,"station_id":"ce4bgt92rcd13ifvqcf0","pricing_plan_id":"cebpf4jnsgd1na2vs0mg"},{"bike_id":"92000d44-524e-499d-b2f2-9180086115d4","system_id":"levelo_inurba_marseille","lat":43.30949,"lon":5.39032,"is_reserved":false,"is_disabled":true,"rental_uris":{"android":"levelo://app?vid=92000d44-524e-499d-b2f2-9180086115d4","ios":"levelo://app?vid=92000d44-524e-499d-b2f2-9180086115d4"},"vehicle_type_id":"4","last_reported":1760198998,"current_range_meters":1200,"station_id":"ce4bgup2rcd13ifvqco0","pricing_plan_id":"cebpf4jnsgd1na2vs0mg"},{"bike_id":"8a065b5e-869e-47cf-b4e4-970514105f39","system_id":"levelo_inurba_marseille","lat":43.28471,"lon":5.38441,"is_reserved":false,"is_disabled":true,"rental_uris":{"android":"levelo://app?vid=8a065b5e-869e-47cf-b4e4-970514105f39","ios":"levelo://app?vid=8a065b5e-869e-47cf-b4e4-970514105f39"},"vehicle_type_id":"4","last_reported":1760198998,"current_range_meters":1200,"station_id":"ce4bh512rcd13ifvqe3g","pricing_plan_id":"cebpf4jnsgd1na2vs0mg"},{"bike_id":"1fdae43f-41ba-4516-96f2-e5b9b0f4171a","system_id":"levelo_inurba_marseille","lat":43.29265,"lon":5.36855,"is_reserved":false,"is_disabled":true,"rental_uris":{"android":"levelo://app?vid=1fdae43f-41ba-4516-96f2-e5b9b0f4171a","ios":"levelo://app?vid=1fdae43f-41ba-4516-96f2-e5b9b0f4171a"},"vehicle_type_id":"4","last_reported":1760198998,"current_range_meters":1200,"station_id":"ce4bhbp2rcd13ifvqesg","pricing_plan_id":"cebpf4jnsgd1na2vs0mg"},{"bike_id":"a4b8bcd4-9607-47ce-83a1-43695b9c8bfe","system_id":"levelo_inurba_marseille","lat":43.28615,"lon":5.35109,"is_reserved":false,"is_disabled":true,"rental_uris":{"android":"levelo://app?vid=a4b8bcd4-9607-47ce-83a1-43695b9c8bfe","ios":"levelo://app?vid=a4b8bcd4-9607-47ce-83a1-43695b9c8bfe"},"vehicle_type_id":"4","last_reported":1760198998,"current_range_meters":1200,"station_id":"ce4bhch2rcd13ifvqeug","pricing_plan_id":"cebpf4jnsgd1na2vs0mg"},{"bike_id":"b56d652d-2719-46d5-8076-6682eb08c15d","system_id":"levelo_inurba_marseille","lat":43.25823,"lon":5.39443,"is_reserved":false,"is_disabled":true,"rental_uris":{"android":"levelo://app?vid=b56d652d-2719-46d5-8076-6682eb08c15d","ios":"levelo://app?vid=b56d652d-2719-46d5-8076-6682eb08c15d"},"vehicle_type_id":"4","last_reported":1760198998,"current_range_meters":1200,"station_id":"ce4bhip2rcd13ifvqft0","pricing_plan_id":"cebpf4jnsgd1na2vs0mg"},{"bike_id":"f9393001-3c65-48bd-ae4e-67982ba4ca22","system_id":"levelo_inurba_marseille","lat":43.21761,"lon":5.34601,"is_reserved":false,"is_disabled":true,"rental_uris":{"android":"levelo://app?vid=f9393001-3c65-48bd-ae4e-67982ba4ca22","ios":"levelo://app?vid=f9393001-3c65-48bd-ae4e-67982ba4ca22"},"vehicle_type_id":"4","last_reported":1760198998,"current_range_meters":1200,"station_id":"st_cvj6r9ubvosntc0bgbag","pricing_plan_id":"cebpf4jnsgd1na2vs0mg"},{"bike_id":"cf1f5b36-e546-40a1-9eae-40b1d47bbe02","system_id":"levelo_inurba_marseille","lat":43.217465,"lon":5.346076,"is_reserved":false,"is_disabled":true,"rental_uris":{"android":"levelo://app?vid=cf1f5b36-e546-40a1-9eae-40b1d47bbe02","ios":"levelo://app?vid=cf1f5b36-e546-40a1-9eae-40b1d47bbe02"},"vehicle_type_id":"4","last_reported":1760198998,"current_range_meters":1200,"station_id":"st_cvj6r9ubvosntc0bgbag","pricing_plan_id":"cebpf4jnsgd1na2vs0mg"},{"bike_id":"915ef3bd-aadd-4a10-84b4-32368ee6801a","system_id":"levelo_inurba_marseille","lat":43.30131,"lon":5.39853,"is_reserved":false,"is_disabled":true,"rental_uris":{"android":"levelo://app?vid=915ef3bd-aadd-4a10-84b4-32368ee6801a","ios":"levelo://app?vid=915ef3bd-aadd-4a10-84b4-32368ee6801a"},"vehicle_type_id":"4","last_reported":1760198998,"current_range_meters":1600,"station_id":"ce4bh0h2rcd13ifvqd40","pricing_plan_id":"cebpf4jnsgd1na2vs0mg"},{"bike_id":"a1454a8b-0119-45e8-a050-fb0658341e54","system_id":"levelo_inurba_marseille","lat":43.295717,"lon":5.399755,"is_reserved":false,"is_disabled":true,"rental_uris":{"android":"levelo://app?vid=a1454a8b-0119-45e8-a050-fb0658341e54","ios":"levelo://app?vid=a1454a8b-0119-45e8-a050-fb0658341e54"},"vehicle_type_id":"4","last_reported":1760198998,"current_range_meters":1600,"station_id":"ce4bh312rcd13ifvqdj0","pricing_plan_id":"cebpf4jnsgd1na2vs0mg"},{"bike_id":"87e7545a-c679-432f-bdbf-e65e5bdff5a4","system_id":"levelo_inurba_marseille","lat":43.2827,"lon":5.35067,"is_reserved":false,"is_disabled":true,"rental_uris":{"android":"levelo://app?vid=87e7545a-c679-432f-bdbf-e65e5bdff5a4","ios":"levelo://app?vid=87e7545a-c679-432f-bdbf-e65e5bdff5a4"},"vehicle_type_id":"4","last_reported":1760198998,"current_range_meters":1600,"station_id":"ce4bhbp2rcd13ifvqerg","pricing_plan_id":"cebpf4jnsgd1na2vs0mg"},{"bike_id":"42293560-fb2f-4b50-a276-962498dd46e4","system_id":"levelo_inurba_marseille","lat":43.296356,"lon":5.37715,"is_reserved":false,"is_disabled":false,"rental_uris":{"android":"levelo://app?vid=42293560-fb2f-4b50-a276-962498dd46e4","ios":"levelo://app?vid=42293560-fb2f-4b50-a276-962498dd46e4"},"vehicle_type_id":"4","last_reported":1760198998,"current_range_meters":2000,"station_id":"ce4bgkp2rcd13ifvqbmg","pricing_plan_id":"cebpf4jnsgd1na2vs0mg"},{"bike_id":"d2c6da92-fccb-4e54-85db-91c32773f04f","system_id":"levelo_inurba_marseille","lat":43.239655,"lon":5.366381,"is_reserved":false,"is_disabled":true,"rental_uris":{"android":"levelo://app?vid=d2c6da92-fccb-4e54-85db-91c32773f04f","ios":"levelo://app?vid=d2c6da92-fccb-4e54-85db-91c32773f04f"},"vehicle_type_id":"4","last_reported":1760198998,"current_range_meters":2000,"station_id":"ce4bhi12rcd13ifvqfp0","pricing_plan_id":"cebpf4jnsgd1na2vs0mg"},{"bike_id":"d1d4026a-1755-468a-a128-32adb62747c2","system_id":"levelo_inurba_marseille","lat":43.32327,"lon":5.4064,"is_reserved":false,"is_disabled":true,"rental_uris":{"android":"levelo://app?vid=d1d4026a-1755-468a-a128-32adb62747c2","ios":"levelo://app?vid=d1d4026a-1755-468a-a128-32adb62747c2"},"vehicle_type_id":"4","last_reported":1760198998,"current_range_meters":2000,"station_id":"ce4bhq92rcd13ifvqhjg","pricing_plan_id":"cebpf4jnsgd1na2vs0mg"},{"bike_id":"d0e6a5cd-2cd3-4774-a8af-a699865f2f41","system_id":"levelo_inurba_marseille","lat":43.26558,"lon":5.37287,"is_reserved":false,"is_disabled":false,"rental_uris":{"android":"levelo://app?vid=d0e6a5cd-2cd3-4774-a8af-a699865f2f41","ios":"levelo://app?vid=d0e6a5cd-2cd3-4774-a8af-a699865f2f41"},"vehicle_type_id":"4","last_reported":1760198998,"current_range_meters":2800,"station_id":"ce4bhg12rcd13ifvqf70","pricing_plan_id":"cebpf4jnsgd1na2vs0mg"},{"bike_id":"d7725c17-e592-49af-94b1-b7035adf9d0e","system_id":"levelo_inurba_marseille","lat":43.28698,"lon":5.39996,"is_reserved":false,"is_disabled":false,"rental_uris":{"android":"levelo://app?vid=d7725c17-e592-49af-94b1-b7035adf9d0e","ios":"levelo://app?vid=d7725c17-e592-49af-94b1-b7035adf9d0e"},"vehicle_type_id":"4","last_reported":1760198998,"current_range_meters":2800,"station_id":"ce4bho92rcd13ifvqh3g","pricing_plan_id":"cebpf4jnsgd1na2vs0mg"},{"bike_id":"1508e37c-ddee-4fca-a836-8777a02263a4","system_id":"levelo_inurba_marseille","lat":43.297229,"lon":5.380115,"is_reserved":false,"is_disabled":false,"rental_uris":{"android":"levelo://app?vid=1508e37c-ddee-4fca-a836-8777a02263a4","ios":"levelo://app?vid=1508e37c-ddee-4fca-a836-8777a02263a4"},"vehicle_type_id":"4","last_reported":1760198998,"current_range_meters":3600,"station_id":"","pricing_plan_id":"cebpf4jnsgd1na2vs0mg"},{"bike_id":"8df01c40-6fec-48bd-b05c-6901354cbdf9","system_id":"levelo_inurba_marseille","lat":43.296295,"lon":5.377054,"is_reserved":false,"is_disabled":false,"rental_uris":{"android":"levelo://app?vid=8df01c40-6fec-48bd-b05c-6901354cbdf9","ios":"levelo://app?vid=8df01c40-6fec-48bd-b05c-6901354cbdf9"},"vehicle_type_id":"4","last_reported":1760198998,"current_range_meters":3600,"station_id":"ce4bgi92rcd13ifvqb90","pricing_plan_id":"cebpf4jnsgd1na2vs0mg"},{"bike_id":"7711489a-d0e1-4be4-b948-6b2f8e9214af","system_id":"levelo_inurba_marseille","lat":43.29838,"lon":5.36307,"is_reserved":false,"is_disabled":false,"rental_uris":{"android":"levelo://app?vid=7711489a-d0e1-4be4-b948-6b2f8e9214af","ios":"levelo://app?vid=7711489a-d0e1-4be4-b948-6b2f8e9214af"},"vehicle_type_id":"4","last_reported":1760198998,"current_range_meters":3600,"station_id":"ce4bgpp2rcd13ifvqc3g","pricing_plan_id":"cebpf4jnsgd1na2vs0mg"},{"bike_id":"aa161b29-4eaa-41a0-bd3b-f5f92e7a594c","system_id":"levelo_inurba_marseille","lat":43.292744,"lon":5.36842,"is_reserved":false,"is_disabled":false,"rental_uris":{"android":"levelo://app?vid=aa161b29-4eaa-41a0-bd3b-f5f92e7a594c","ios":"levelo://app?vid=aa161b29-4eaa-41a0-bd3b-f5f92e7a594c"},"vehicle_type_id":"4","last_reported":1760198998,"current_range_meters":3600,"station_id":"ce4bhbp2rcd13ifvqesg","pricing_plan_id":"cebpf4jnsgd1na2vs0mg"},{"bike_id":"ffa9b1b7-2aed-4f78-81e9-fc09b9092ad6","system_id":"levelo_inurba_marseille","lat":43.28218,"lon":5.39071,"is_reserved":false,"is_disabled":false,"rental_uris":{"android":"levelo://app?vid=ffa9b1b7-2aed-4f78-81e9-fc09b9092ad6","ios":"levelo://app?vid=ffa9b1b7-2aed-4f78-81e9-fc09b9092ad6"},"vehicle_type_id":"4","last_reported":1760198998,"current_range_meters":3600,"station_id":"ce4bhn92rcd13ifvqgsg","pricing_plan_id":"cebpf4jnsgd1na2vs0mg"},{"bike_id":"aad10df0-af29-42b7-98b4-3872588302a5","system_id":"levelo_inurba_marseille","lat":43.29538,"lon":5.385296,"is_reserved":false,"is_disabled":false,"rental_uris":{"android":"levelo://app?vid=aad10df0-af29-42b7-98b4-3872588302a5","ios":"levelo://app?vid=aad10df0-af29-42b7-98b4-3872588302a5"},"vehicle_type_id":"4","last_reported":1760198998,"current_range_meters":4000,"station_id":"ce4bgih2rcd13ifvqba0","pricing_plan_id":"cebpf4jnsgd1na2vs0mg"},{"bike_id":"7d0e87a1-aa86-489f-b0ec-5876a708809a","system_id":"levelo_inurba_marseille","lat":43.29259,"lon":5.40899,"is_reserved":false,"is_disabled":false,"rental_uris":{"android":"levelo://app?vid=7d0e87a1-aa86-489f-b0ec-5876a708809a","ios":"levelo://app?vid=7d0e87a1-aa86-489f-b0ec-5876a708809a"},"vehicle_type_id":"4","last_reported":1760198998,"current_range_meters":4000,"station_id":"ce4bh192rcd13ifvqdc0","pricing_plan_id":"cebpf4jnsgd1na2vs0mg"},{"bike_id":"68831a7a-9320-42f5-b00e-cafed0ba51eb","system_id":"levelo_inurba_marseille","lat":43.27374,"lon":5.36257,"is_reserved":false,"is_disabled":false,"rental_uris":{"android":"levelo://app?vid=68831a7a-9320-42f5-b00e-cafed0ba51eb","ios":"levelo://app?vid=68831a7a-9320-42f5-b00e-cafed0ba51eb"},"vehicle_type_id":"4","last_reported":1760198998,"current_range_meters":4000,"station_id":"ce4bhbh2rcd13ifvqeo0","pricing_plan_id":"cebpf4jnsgd1na2vs0mg"},{"bike_id":"17893aaa-061a-4fe8-b3a8-1e086ca234ad","system_id":"levelo_inurba_marseille","lat":43.26199,"lon":5.37932,"is_reserved":false,"is_disabled":false,"rental_uris":{"android":"levelo://app?vid=17893aaa-061a-4fe8-b3a8-1e086ca234ad","ios":"levelo://app?vid=17893aaa-061a-4fe8-b3a8-1e086ca234ad"},"vehicle_type_id":"4","last_reported":1760198998,"current_range_meters":4000,"station_id":"ce4bhjp2rcd13ifvqg90","pricing_plan_id":"cebpf4jnsgd1na2vs0mg"},{"bike_id":"87c95fa9-6484-4eea-b3ac-882bc11b4ed1","system_id":"levelo_inurba_marseille","lat":43.32281,"lon":5.38277,"is_reserved":false,"is_disabled":false,"rental_uris":{"android":"levelo://app?vid=87c95fa9-6484-4eea-b3ac-882bc11b4ed1","ios":"levelo://app?vid=87c95fa9-6484-4eea-b3ac-882bc11b4ed1"},"vehicle_type_id":"4","last_reported":1760198998,"current_range_meters":4000,"station_id":"ce4bhr12rcd13ifvqhqg","pricing_plan_id":"cebpf4jnsgd1na2vs0mg"},{"bike_id":"a765da6d-96f2-4cf7-ab6c-d3aa5dd64e80","system_id":"levelo_inurba_marseille","lat":43.24949,"lon":5.40489,"is_reserved":false,"is_disabled":false,"rental_uris":{"android":"levelo://app?vid=a765da6d-96f2-4cf7-ab6c-d3aa5dd64e80","ios":"levelo://app?vid=a765da6d-96f2-4cf7-ab6c-d3aa5dd64e80"},"vehicle_type_id":"4","last_reported":1760198998,"current_range_meters":4000,"station_id":"st_d2ngiaodas8pm72gd1h0","pricing_plan_id":"cebpf4jnsgd1na2vs0mg"},{"bike_id":"f837f1d3-2641-403e-bf90-2324e47a7390","system_id":"levelo_inurba_marseille","lat":43.29753,"lon":5.42784,"is_reserved":false,"is_disabled":false,"rental_uris":{"android":"levelo://app?vid=f837f1d3-2641-403e-bf90-2324e47a7390","ios":"levelo://app?vid=f837f1d3-2641-403e-bf90-2324e47a7390"},"vehicle_type_id":"4","last_reported":1760198998,"current_range_meters":4400,"station_id":"","pricing_plan_id":"cebpf4jnsgd1na2vs0mg"},{"bike_id":"77ae6b0f-b99c-41ef-9907-bf3cb6782dbd","system_id":"levelo_inurba_marseille","lat":43.30911,"lon":5.36855,"is_reserved":false,"is_disabled":false,"rental_uris":{"android":"levelo://app?vid=77ae6b0f-b99c-41ef-9907-bf3cb6782dbd","ios":"levelo://app?vid=77ae6b0f-b99c-41ef-9907-bf3cb6782dbd"},"vehicle_type_id":"4","last_reported":1760198998,"current_range_meters":4400,"station_id":"ce4bgn92rcd13ifvqbvg","pricing_plan_id":"cebpf4jnsgd1na2vs0mg"},{"bike_id":"35dd835f-9089-4129-b8c9-c8d13ca1bbbf","system_id":"levelo_inurba_marseille","lat":43.28719,"lon":5.37938,"is_reserved":false,"is_disabled":false,"rental_uris":{"android":"levelo://app?vid=35dd835f-9089-4129-b8c9-c8d13ca1bbbf","ios":"levelo://app?vid=35dd835f-9089-4129-b8c9-c8d13ca1bbbf"},"vehicle_type_id":"4","last_reported":1760198998,"current_range_meters":4400,"station_id":"ce4bh9p2rcd13ifvqec0","pricing_plan_id":"cebpf4jnsgd1na2vs0mg"},{"bike_id":"69a98787-9b4e-42b5-851b-328e1a000b96","system_id":"levelo_inurba_marseille","lat":43.27371,"lon":5.36256,"is_reserved":false,"is_disabled":false,"rental_uris":{"android":"levelo://app?vid=69a98787-9b4e-42b5-851b-328e1a000b96","ios":"levelo://app?vid=69a98787-9b4e-42b5-851b-328e1a000b96"},"vehicle_type_id":"4","last_reported":1760198998,"current_range_meters":4400,"station_id":"ce4bhbh2rcd13ifvqeo0","pricing_plan_id":"cebpf4jnsgd1na2vs0mg"},{"bike_id":"2f93f329-8ae5-44f4-965c-4e4b0098eaae","system_id":"levelo_inurba_marseille","lat":43.30134,"lon":5.39842,"is_reserved":false,"is_disabled":false,"rental_uris":{"android":"levelo://app?vid=2f93f329-8ae5-44f4-965c-4e4b0098eaae","ios":"levelo://app?vid=2f93f329-8ae5-44f4-965c-4e4b0098eaae"},"vehicle_type_id":"4","last_reported":1760198998,"current_range_meters":4800,"station_id":"ce4bh0h2rcd13ifvqd40","pricing_plan_id":"cebpf4jnsgd1na2vs0mg"},{"bike_id":"9f2f1e55-6acb-469e-afa9-53e76abed4b2","system_id":"levelo_inurba_marseille","lat":43.27214,"lon":5.39174,"is_reserved":false,"is_disabled":false,"rental_uris":{"android":"levelo://app?vid=9f2f1e55-6acb-469e-afa9-53e76abed4b2","ios":"levelo://app?vid=9f2f1e55-6acb-469e-afa9-53e76abed4b2"},"vehicle_type_id":"4","last_reported":1760198998,"current_range_meters":4800,"station_id":"ce4bhhp2rcd13ifvqfm0","pricing_plan_id":"cebpf4jnsgd1na2vs0mg"},{"bike_id":"c24f89a0-bfc4-405b-b5dd-46e9858cf003","system_id":"levelo_inurba_marseille","lat":43.29928,"lon":5.36552,"is_reserved":false,"is_disabled":false,"rental_uris":{"android":"levelo://app?vid=c24f89a0-bfc4-405b-b5dd-46e9858cf003","ios":"levelo://app?vid=c24f89a0-bfc4-405b-b5dd-46e9858cf003"},"vehicle_type_id":"4","last_reported":1760198998,"current_range_meters":5600,"station_id":"ce4bgm92rcd13ifvqbr0","pricing_plan_id":"cebpf4jnsgd1na2vs0mg"},{"bike_id":"a4d4dbdf-5392-4bb7-ae54-13021bf1f109","system_id":"levelo_inurba_marseille","lat":43.29838,"lon":5.3627,"is_reserved":false,"is_disabled":false,"rental_uris":{"android":"levelo://app?vid=a4d4dbdf-5392-4bb7-ae54-13021bf1f109","ios":"levelo://app?vid=a4d4dbdf-5392-4bb7-ae54-13021bf1f109"},"vehicle_type_id":"4","last_reported":1760198998,"current_range_meters":5600,"station_id":"ce4bgpp2rcd13ifvqc3g","pricing_plan_id":"cebpf4jnsgd1na2vs0mg"},{"bike_id":"dbf10fc4-cee0-4312-be38-783016daaad4","system_id":"levelo_inurba_marseille","lat":43.30095,"lon":5.39072,"is_reserved":false,"is_disabled":false,"rental_uris":{"android":"levelo://app?vid=dbf10fc4-cee0-4312-be38-783016daaad4","ios":"levelo://app?vid=dbf10fc4-cee0-4312-be38-783016daaad4"},"vehicle_type_id":"4","last_reported":1760198998,"current_range_meters":5600,"station_id":"ce4bh192rcd13ifvqdb0","pricing_plan_id":"cebpf4jnsgd1na2vs0mg"},{"bike_id":"90d13272-3f92-4654-a2a4-74d9869a254e","system_id":"levelo_inurba_marseille","lat":43.29278,"lon":5.36844,"is_reserved":false,"is_disabled":false,"rental_uris":{"android":"levelo://app?vid=90d13272-3f92-4654-a2a4-74d9869a254e","ios":"levelo://app?vid=90d13272-3f92-4654-a2a4-74d9869a254e"},"vehicle_type_id":"4","last_reported":1760198998,"current_range_meters":5600,"station_id":"ce4bhbp2rcd13ifvqesg","pricing_plan_id":"cebpf4jnsgd1na2vs0mg"},{"bike_id":"e5c82ab4-49d9-4029-a7ed-5a190cb62cbe","system_id":"levelo_inurba_marseille","lat":43.25497,"lon":5.37653,"is_reserved":false,"is_disabled":false,"rental_uris":{"android":"levelo://app?vid=e5c82ab4-49d9-4029-a7ed-5a190cb62cbe","ios":"levelo://app?vid=e5c82ab4-49d9-4029-a7ed-5a190cb62cbe"},"vehicle_type_id":"4","last_reported":1760198998,"current_range_meters":5600,"station_id":"ce4bhh12rcd13ifvqff0","pricing_plan_id":"cebpf4jnsgd1na2vs0mg"},{"bike_id":"1fc1483b-1a29-4a44-93b7-37520ab77cd0","system_id":"levelo_inurba_marseille","lat":43.3009,"lon":5.39078,"is_reserved":false,"is_disabled":false,"rental_uris":{"android":"levelo://app?vid=1fc1483b-1a29-4a44-93b7-37520ab77cd0","ios":"levelo://app?vid=1fc1483b-1a29-4a44-93b7-37520ab77cd0"},"vehicle_type_id":"4","last_reported":1760198998,"current_range_meters":6000,"station_id":"ce4bh192rcd13ifvqdb0","pricing_plan_id":"cebpf4jnsgd1na2vs0mg"},{"bike_id":"1b1f0097-8022-4c6e-bb47-67c37f0cc894","system_id":"levelo_inurba_marseille","lat":43.28459,"lon":5.3589,"is_reserved":false,"is_disabled":false,"rental_uris":{"android":"levelo://app?vid=1b1f0097-8022-4c6e-bb47-67c37f0cc894","ios":"levelo://app?vid=1b1f0097-8022-4c6e-bb47-67c37f0cc894"},"vehicle_type_id":"4","last_reported":1760198998,"current_range_meters":6000,"station_id":"ce4bhah2rcd13ifvqei0","pricing_plan_id":"cebpf4jnsgd1na2vs0mg"},{"bike_id":"57938aa4-ba35-44a5-b71b-e15492dada3a","system_id":"levelo_inurba_marseille","lat":43.27682,"lon":5.38874,"is_reserved":false,"is_disabled":false,"rental_uris":{"android":"levelo://app?vid=57938aa4-ba35-44a5-b71b-e15492dada3a","ios":"levelo://app?vid=57938aa4-ba35-44a5-b71b-e15492dada3a"},"vehicle_type_id":"4","last_reported":1760198998,"current_range_meters":6000,"station_id":"ce4bhi12rcd13ifvqfo0","pricing_plan_id":"cebpf4jnsgd1na2vs0mg"},{"bike_id":"bc56a970-ea69-40e6-ac3b-c04e17993f96","system_id":"levelo_inurba_marseille","lat":43.27677,"lon":5.38877,"is_reserved":false,"is_disabled":false,"rental_uris":{"android":"levelo://app?vid=bc56a970-ea69-40e6-ac3b-c04e17993f96","ios":"levelo://app?vid=bc56a970-ea69-40e6-ac3b-c04e17993f96"},"vehicle_type_id":"4","last_reported":1760198998,"current_range_meters":6000,"station_id":"ce4bhi12rcd13ifvqfo0","pricing_plan_id":"cebpf4jnsgd1na2vs0mg"},{"bike_id":"053a84b0-b74f-496e-bcf5-7ffe1f43b0ef","system_id":"levelo_inurba_marseille","lat":43.241777,"lon":5.397328,"is_reserved":false,"is_disabled":false,"rental_uris":{"android":"levelo://app?vid=053a84b0-b74f-496e-bcf5-7ffe1f43b0ef","ios":"levelo://app?vid=053a84b0-b74f-496e-bcf5-7ffe1f43b0ef"},"vehicle_type_id":"4","last_reported":1760198998,"current_range_meters":6000,"station_id":"ce4bhn12rcd13ifvqgpg","pricing_plan_id":"cebpf4jnsgd1na2vs0mg"},{"bike_id":"71e8bf8d-38c7-47a7-b7a9-7cb8ffbb8f37","system_id":"levelo_inurba_marseille","lat":43.30591,"lon":5.3724,"is_reserved":false,"is_disabled":false,"rental_uris":{"android":"levelo://app?vid=71e8bf8d-38c7-47a7-b7a9-7cb8ffbb8f37","ios":"levelo://app?vid=71e8bf8d-38c7-47a7-b7a9-7cb8ffbb8f37"},"vehicle_type_id":"4","last_reported":1760198998,"current_range_meters":6400,"station_id":"ce4bgqh2rcd13ifvqc4g","pricing_plan_id":"cebpf4jnsgd1na2vs0mg"},{"bike_id":"a503a925-0d13-49c6-b08f-e6e8a9339774","system_id":"levelo_inurba_marseille","lat":43.28427,"lon":5.3749,"is_reserved":false,"is_disabled":false,"rental_uris":{"android":"levelo://app?vid=a503a925-0d13-49c6-b08f-e6e8a9339774","ios":"levelo://app?vid=a503a925-0d13-49c6-b08f-e6e8a9339774"},"vehicle_type_id":"4","last_reported":1760198998,"current_range_meters":6400,"station_id":"ce4bh412rcd13ifvqds0","pricing_plan_id":"cebpf4jnsgd1na2vs0mg"},{"bike_id":"46cdea5e-cc39-4509-a9cc-88ce97aefcc7","system_id":"levelo_inurba_marseille","lat":43.241828,"lon":5.397315,"is_reserved":false,"is_disabled":false,"rental_uris":{"android":"levelo://app?vid=46cdea5e-cc39-4509-a9cc-88ce97aefcc7","ios":"levelo://app?vid=46cdea5e-cc39-4509-a9cc-88ce97aefcc7"},"vehicle_type_id":"4","last_reported":1760198998,"current_range_meters":6400,"station_id":"ce4bhn12rcd13ifvqgpg","pricing_plan_id":"cebpf4jnsgd1na2vs0mg"},{"bike_id":"2bc038b1-519b-42b1-9bd4-7d2b97044996","system_id":"levelo_inurba_marseille","lat":43.2924,"lon":5.41112,"is_reserved":false,"is_disabled":false,"rental_uris":{"android":"levelo://app?vid=2bc038b1-519b-42b1-9bd4-7d2b97044996","ios":"levelo://app?vid=2bc038b1-519b-42b1-9bd4-7d2b97044996"},"vehicle_type_id":"4","last_reported":1760198998,"current_range_meters":6800,"station_id":"","pricing_plan_id":"cebpf4jnsgd1na2vs0mg"},{"bike_id":"e9e42d2d-7e53-4efc-b575-031b106766c7","system_id":"levelo_inurba_marseille","lat":43.297386,"lon":5.36875,"is_reserved":false,"is_disabled":false,"rental_uris":{"android":"levelo://app?vid=e9e42d2d-7e53-4efc-b575-031b106766c7","ios":"levelo://app?vid=e9e42d2d-7e53-4efc-b575-031b106766c7"},"vehicle_type_id":"4","last_reported":1760198998,"current_range_meters":6800,"station_id":"","pricing_plan_id":"cebpf4jnsgd1na2vs0mg"},{"bike_id":"39308eb8-f98d-4735-b834-9ed871dfd236","system_id":"levelo_inurba_marseille","lat":43.29303,"lon":5.37173,"is_reserved":false,"is_disabled":false,"rental_uris":{"android":"levelo://app?vid=39308eb8-f98d-4735-b834-9ed871dfd236","ios":"levelo://app?vid=39308eb8-f98d-4735-b834-9ed871dfd236"},"vehicle_type_id":"4","last_reported":1760198998,"current_range_meters":6800,"station_id":"ce4bgh92rcd13ifvqb40","pricing_plan_id":"cebpf4jnsgd1na2vs0mg"},{"bike_id":"a2da6ce9-1f5b-4de5-8593-706cfce50367","system_id":"levelo_inurba_marseille","lat":43.29964,"lon":5.37176,"is_reserved":false,"is_disabled":false,"rental_uris":{"android":"levelo://app?vid=a2da6ce9-1f5b-4de5-8593-706cfce50367","ios":"levelo://app?vid=a2da6ce9-1f5b-4de5-8593-706cfce50367"},"vehicle_type_id":"4","last_reported":1760198998,"current_range_meters":6800,"station_id":"ce4bgr92rcd13ifvqc7g","pricing_plan_id":"cebpf4jnsgd1na2vs0mg"},{"bike_id":"6f7f6e90-ba94-4f8f-b19e-a6dbe16a9d1b","system_id":"levelo_inurba_marseille","lat":43.290815,"lon":5.371617,"is_reserved":false,"is_disabled":false,"rental_uris":{"android":"levelo://app?vid=6f7f6e90-ba94-4f8f-b19e-a6dbe16a9d1b","ios":"levelo://app?vid=6f7f6e90-ba94-4f8f-b19e-a6dbe16a9d1b"},"vehicle_type_id":"4","last_reported":1760198998,"current_range_meters":6800,"station_id":"ce4bh5p2rcd13ifvqe4g","pricing_plan_id":"cebpf4jnsgd1na2vs0mg"},{"bike_id":"7c1a4890-b9ac-4fe5-a571-cd86038dad29","system_id":"levelo_inurba_marseille","lat":43.26724,"lon":5.40175,"is_reserved":false,"is_disabled":false,"rental_uris":{"android":"levelo://app?vid=7c1a4890-b9ac-4fe5-a571-cd86038dad29","ios":"levelo://app?vid=7c1a4890-b9ac-4fe5-a571-cd86038dad29"},"vehicle_type_id":"4","last_reported":1760198998,"current_range_meters":7200,"station_id":"","pricing_plan_id":"cebpf4jnsgd1na2vs0mg"},{"bike_id":"ec4b8b92-9e12-4c46-ad50-2ffd6d6d5780","system_id":"levelo_inurba_marseille","lat":43.25595,"lon":5.38223,"is_reserved":false,"is_disabled":false,"rental_uris":{"android":"levelo://app?vid=ec4b8b92-9e12-4c46-ad50-2ffd6d6d5780","ios":"levelo://app?vid=ec4b8b92-9e12-4c46-ad50-2ffd6d6d5780"},"vehicle_type_id":"4","last_reported":1760198998,"current_range_meters":7200,"station_id":"ce4bhih2rcd13ifvqfs0","pricing_plan_id":"cebpf4jnsgd1na2vs0mg"},{"bike_id":"874b8e6c-5e9f-435f-b7e4-4955a112fe54","system_id":"levelo_inurba_marseille","lat":43.25862,"lon":5.39901,"is_reserved":false,"is_disabled":false,"rental_uris":{"android":"levelo://app?vid=874b8e6c-5e9f-435f-b7e4-4955a112fe54","ios":"levelo://app?vid=874b8e6c-5e9f-435f-b7e4-4955a112fe54"},"vehicle_type_id":"4","last_reported":1760198998,"current_range_meters":7200,"station_id":"ce4bhl92rcd13ifvqghg","pricing_plan_id":"cebpf4jnsgd1na2vs0mg"},{"bike_id":"b7844ae4-20d5-4d81-8f4d-cd146b6f58ee","system_id":"levelo_inurba_marseille","lat":43.31801,"lon":5.37652,"is_reserved":false,"is_disabled":false,"rental_uris":{"android":"levelo://app?vid=b7844ae4-20d5-4d81-8f4d-cd146b6f58ee","ios":"levelo://app?vid=b7844ae4-20d5-4d81-8f4d-cd146b6f58ee"},"vehicle_type_id":"4","last_reported":1760198998,"current_range_meters":8000,"station_id":"","pricing_plan_id":"cebpf4jnsgd1na2vs0mg"},{"bike_id":"4599a59a-886f-4329-9b66-41e54a8ca0dd","system_id":"levelo_inurba_marseille","lat":43.2992,"lon":5.37479,"is_reserved":false,"is_disabled":false,"rental_uris":{"android":"levelo://app?vid=4599a59a-886f-4329-9b66-41e54a8ca0dd","ios":"levelo://app?vid=4599a59a-886f-4329-9b66-41e54a8ca0dd"},"vehicle_type_id":"4","last_reported":1760198998,"current_range_meters":8000,"station_id":"ce4bgjh2rcd13ifvqbg0","pricing_plan_id":"cebpf4jnsgd1na2vs0mg"},{"bike_id":"68712bd8-87c4-490e-939e-c163fe45722f","system_id":"levelo_inurba_marseille","lat":43.28647,"lon":5.35079,"is_reserved":false,"is_disabled":false,"rental_uris":{"android":"levelo://app?vid=68712bd8-87c4-490e-939e-c163fe45722f","ios":"levelo://app?vid=68712bd8-87c4-490e-939e-c163fe45722f"},"vehicle_type_id":"4","last_reported":1760198998,"current_range_meters":8000,"station_id":"ce4bhch2rcd13ifvqeug","pricing_plan_id":"cebpf4jnsgd1na2vs0mg"},{"bike_id":"b4c4fda1-fb43-4b7f-a7a8-fed7f85312d3","system_id":"levelo_inurba_marseille","lat":43.24948,"lon":5.40484,"is_reserved":false,"is_disabled":false,"rental_uris":{"android":"levelo://app?vid=b4c4fda1-fb43-4b7f-a7a8-fed7f85312d3","ios":"levelo://app?vid=b4c4fda1-fb43-4b7f-a7a8-fed7f85312d3"},"vehicle_type_id":"4","last_reported":1760198998,"current_range_meters":8000,"station_id":"st_d2ngiaodas8pm72gd1h0","pricing_plan_id":"cebpf4jnsgd1na2vs0mg"},{"bike_id":"7ecce9b3-6d8a-4b46-9e3e-06d9c28c905f","system_id":"levelo_inurba_marseille","lat":43.28896,"lon":5.39073,"is_reserved":false,"is_disabled":false,"rental_uris":{"android":"levelo://app?vid=7ecce9b3-6d8a-4b46-9e3e-06d9c28c905f","ios":"levelo://app?vid=7ecce9b3-6d8a-4b46-9e3e-06d9c28c905f"},"vehicle_type_id":"4","last_reported":1760198998,"current_range_meters":8400,"station_id":"","pricing_plan_id":"cebpf4jnsgd1na2vs0mg"},{"bike_id":"369d2504-65a5-4ebe-8b7b-5437adc610de","system_id":"levelo_inurba_marseille","lat":43.2825,"lon":5.39157,"is_reserved":false,"is_disabled":false,"rental_uris":{"android":"levelo://app?vid=369d2504-65a5-4ebe-8b7b-5437adc610de","ios":"levelo://app?vid=369d2504-65a5-4ebe-8b7b-5437adc610de"},"vehicle_type_id":"4","last_reported":1760198998,"current_range_meters":8400,"station_id":"","pricing_plan_id":"cebpf4jnsgd1na2vs0mg"},{"bike_id":"840f5367-4a8b-4bf8-aed3-ddf295d75be0","system_id":"levelo_inurba_marseille","lat":43.30428,"lon":5.371896,"is_reserved":false,"is_disabled":false,"rental_uris":{"android":"levelo://app?vid=840f5367-4a8b-4bf8-aed3-ddf295d75be0","ios":"levelo://app?vid=840f5367-4a8b-4bf8-aed3-ddf295d75be0"},"vehicle_type_id":"4","last_reported":1760198998,"current_range_meters":8400,"station_id":"","pricing_plan_id":"cebpf4jnsgd1na2vs0mg"},{"bike_id":"f333c7fc-b0d9-4e55-98b8-26e25ef0ec0e","system_id":"levelo_inurba_marseille","lat":43.299358,"lon":5.365631,"is_reserved":false,"is_disabled":false,"rental_uris":{"android":"levelo://app?vid=f333c7fc-b0d9-4e55-98b8-26e25ef0ec0e","ios":"levelo://app?vid=f333c7fc-b0d9-4e55-98b8-26e25ef0ec0e"},"vehicle_type_id":"4","last_reported":1760198998,"current_range_meters":8400,"station_id":"ce4bgm92rcd13ifvqbr0","pricing_plan_id":"cebpf4jnsgd1na2vs0mg"},{"bike_id":"45e03619-cd36-44e5-aadf-7270afa8fd94","system_id":"levelo_inurba_marseille","lat":43.29187,"lon":5.39335,"is_reserved":false,"is_disabled":false,"rental_uris":{"android":"levelo://app?vid=45e03619-cd36-44e5-aadf-7270afa8fd94","ios":"levelo://app?vid=45e03619-cd36-44e5-aadf-7270afa8fd94"},"vehicle_type_id":"4","last_reported":1760198998,"current_range_meters":8400,"station_id":"ce4bh192rcd13ifvqdd0","pricing_plan_id":"cebpf4jnsgd1na2vs0mg"},{"bike_id":"7884f651-6454-41aa-87d5-d775259070cd","system_id":"levelo_inurba_marseille","lat":43.28715,"lon":5.3794,"is_reserved":false,"is_disabled":false,"rental_uris":{"android":"levelo://app?vid=7884f651-6454-41aa-87d5-d775259070cd","ios":"levelo://app?vid=7884f651-6454-41aa-87d5-d775259070cd"},"vehicle_type_id":"4","last_reported":1760198998,"current_range_meters":8400,"station_id":"ce4bh9p2rcd13ifvqec0","pricing_plan_id":"cebpf4jnsgd1na2vs0mg"},{"bike_id":"1adf8f0b-a6bd-41ba-a750-c99d6953ae52","system_id":"levelo_inurba_marseille","lat":43.27204,"lon":5.39192,"is_reserved":false,"is_disabled":false,"rental_uris":{"android":"levelo://app?vid=1adf8f0b-a6bd-41ba-a750-c99d6953ae52","ios":"levelo://app?vid=1adf8f0b-a6bd-41ba-a750-c99d6953ae52"},"vehicle_type_id":"4","last_reported":1760198998,"current_range_meters":8400,"station_id":"ce4bhhp2rcd13ifvqfm0","pricing_plan_id":"cebpf4jnsgd1na2vs0mg"},{"bike_id":"a013b609-4f2c-4ea1-be26-55d97c96ce6d","system_id":"levelo_inurba_marseille","lat":43.279408,"lon":5.410479,"is_reserved":false,"is_disabled":false,"rental_uris":{"android":"levelo://app?vid=a013b609-4f2c-4ea1-be26-55d97c96ce6d","ios":"levelo://app?vid=a013b609-4f2c-4ea1-be26-55d97c96ce6d"},"vehicle_type_id":"4","last_reported":1760198998,"current_range_meters":8400,"station_id":"ce4bhnp2rcd13ifvqh0g","pricing_plan_id":"cebpf4jnsgd1na2vs0mg"},{"bike_id":"0458f03b-1910-440f-9167-c00670fba699","system_id":"levelo_inurba_marseille","lat":43.337444,"lon":5.374475,"is_reserved":false,"is_disabled":false,"rental_uris":{"android":"levelo://app?vid=0458f03b-1910-440f-9167-c00670fba699","ios":"levelo://app?vid=0458f03b-1910-440f-9167-c00670fba699"},"vehicle_type_id":"4","last_reported":1760198998,"current_range_meters":8800,"station_id":"","pricing_plan_id":"cebpf4jnsgd1na2vs0mg"},{"bike_id":"e56dbe05-900a-4b7a-bdb7-21b725247ce4","system_id":"levelo_inurba_marseille","lat":43.28714,"lon":5.37946,"is_reserved":false,"is_disabled":false,"rental_uris":{"android":"levelo://app?vid=e56dbe05-900a-4b7a-bdb7-21b725247ce4","ios":"levelo://app?vid=e56dbe05-900a-4b7a-bdb7-21b725247ce4"},"vehicle_type_id":"4","last_reported":1760198998,"current_range_meters":8800,"station_id":"ce4bh9p2rcd13ifvqec0","pricing_plan_id":"cebpf4jnsgd1na2vs0mg"},{"bike_id":"107fa74b-02c1-4cca-909a-02c3648eda7c","system_id":"levelo_inurba_marseille","lat":43.28038,"lon":5.3695,"is_reserved":false,"is_disabled":false,"rental_uris":{"android":"levelo://app?vid=107fa74b-02c1-4cca-909a-02c3648eda7c","ios":"levelo://app?vid=107fa74b-02c1-4cca-909a-02c3648eda7c"},"vehicle_type_id":"4","last_reported":1760198998,"current_range_meters":8800,"station_id":"ce4bha12rcd13ifvqef0","pricing_plan_id":"cebpf4jnsgd1na2vs0mg"},{"bike_id":"dbd9c613-4c7e-4a25-8006-d0111b69678a","system_id":"levelo_inurba_marseille","lat":43.24807,"lon":5.37456,"is_reserved":false,"is_disabled":false,"rental_uris":{"android":"levelo://app?vid=dbd9c613-4c7e-4a25-8006-d0111b69678a","ios":"levelo://app?vid=dbd9c613-4c7e-4a25-8006-d0111b69678a"},"vehicle_type_id":"4","last_reported":1760198998,"current_range_meters":8800,"station_id":"ce4bhgh2rcd13ifvqfb0","pricing_plan_id":"cebpf4jnsgd1na2vs0mg"},{"bike_id":"ea966803-0a28-4bc2-b5c7-152d06bd04ea","system_id":"levelo_inurba_marseille","lat":43.27949,"lon":5.410412,"is_reserved":false,"is_disabled":false,"rental_uris":{"android":"levelo://app?vid=ea966803-0a28-4bc2-b5c7-152d06bd04ea","ios":"levelo://app?vid=ea966803-0a28-4bc2-b5c7-152d06bd04ea"},"vehicle_type_id":"4","last_reported":1760198998,"current_range_meters":8800,"station_id":"ce4bhnp2rcd13ifvqh0g","pricing_plan_id":"cebpf4jnsgd1na2vs0mg"},{"bike_id":"8ed6566a-bcc6-4096-9c83-c9aa8818fc6b","system_id":"levelo_inurba_marseille","lat":43.24946,"lon":5.40501,"is_reserved":false,"is_disabled":false,"rental_uris":{"android":"levelo://app?vid=8ed6566a-bcc6-4096-9c83-c9aa8818fc6b","ios":"levelo://app?vid=8ed6566a-bcc6-4096-9c83-c9aa8818fc6b"},"vehicle_type_id":"4","last_reported":1760198998,"current_range_meters":8800,"station_id":"st_d2ngiaodas8pm72gd1h0","pricing_plan_id":"cebpf4jnsgd1na2vs0mg"},{"bike_id":"1b575218-d855-40d1-8e77-8efc40ca8804","system_id":"levelo_inurba_marseille","lat":43.24805,"lon":5.37459,"is_reserved":false,"is_disabled":false,"rental_uris":{"android":"levelo://app?vid=1b575218-d855-40d1-8e77-8efc40ca8804","ios":"levelo://app?vid=1b575218-d855-40d1-8e77-8efc40ca8804"},"vehicle_type_id":"4","last_reported":1760198998,"current_range_meters":9200,"station_id":"ce4bhgh2rcd13ifvqfb0","pricing_plan_id":"cebpf4jnsgd1na2vs0mg"},{"bike_id":"a091fa2a-de07-4635-870e-3375376348fb","system_id":"levelo_inurba_marseille","lat":43.3007,"lon":5.38615,"is_reserved":false,"is_disabled":false,"rental_uris":{"android":"levelo://app?vid=a091fa2a-de07-4635-870e-3375376348fb","ios":"levelo://app?vid=a091fa2a-de07-4635-870e-3375376348fb"},"vehicle_type_id":"4","last_reported":1760198998,"current_range_meters":9600,"station_id":"","pricing_plan_id":"cebpf4jnsgd1na2vs0mg"},{"bike_id":"f84db39b-1588-467c-a7d6-3417c55d68b1","system_id":"levelo_inurba_marseille","lat":43.2939,"lon":5.37497,"is_reserved":false,"is_disabled":false,"rental_uris":{"android":"levelo://app?vid=f84db39b-1588-467c-a7d6-3417c55d68b1","ios":"levelo://app?vid=f84db39b-1588-467c-a7d6-3417c55d68b1"},"vehicle_type_id":"4","last_reported":1760198998,"current_range_meters":9600,"station_id":"","pricing_plan_id":"cebpf4jnsgd1na2vs0mg"},{"bike_id":"431c2e70-433d-4af0-acf4-957ec8670f40","system_id":"levelo_inurba_marseille","lat":43.2954,"lon":5.383068,"is_reserved":false,"is_disabled":false,"rental_uris":{"android":"levelo://app?vid=431c2e70-433d-4af0-acf4-957ec8670f40","ios":"levelo://app?vid=431c2e70-433d-4af0-acf4-957ec8670f40"},"vehicle_type_id":"4","last_reported":1760198998,"current_range_meters":9600,"station_id":"","pricing_plan_id":"cebpf4jnsgd1na2vs0mg"},{"bike_id":"24118587-d06f-45c2-8b07-0528376599c5","system_id":"levelo_inurba_marseille","lat":43.28452,"lon":5.35893,"is_reserved":false,"is_disabled":false,"rental_uris":{"android":"levelo://app?vid=24118587-d06f-45c2-8b07-0528376599c5","ios":"levelo://app?vid=24118587-d06f-45c2-8b07-0528376599c5"},"vehicle_type_id":"4","last_reported":1760198998,"current_range_meters":9600,"station_id":"ce4bhah2rcd13ifvqei0","pricing_plan_id":"cebpf4jnsgd1na2vs0mg"},{"bike_id":"9f9edaa2-34b7-4837-8925-898705819e49","system_id":"levelo_inurba_marseille","lat":43.32364,"lon":5.36762,"is_reserved":false,"is_disabled":false,"rental_uris":{"android":"levelo://app?vid=9f9edaa2-34b7-4837-8925-898705819e49","ios":"levelo://app?vid=9f9edaa2-34b7-4837-8925-898705819e49"},"vehicle_type_id":"4","last_reported":1760198998,"current_range_meters":9600,"station_id":"ce4bhsh2rcd13ifvqi2g","pricing_plan_id":"cebpf4jnsgd1na2vs0mg"},{"bike_id":"6bf81fc2-7e01-4c1e-8181-a46a34c19c0b","system_id":"levelo_inurba_marseille","lat":43.30732,"lon":5.42447,"is_reserved":false,"is_disabled":false,"rental_uris":{"android":"levelo://app?vid=6bf81fc2-7e01-4c1e-8181-a46a34c19c0b","ios":"levelo://app?vid=6bf81fc2-7e01-4c1e-8181-a46a34c19c0b"},"vehicle_type_id":"4","last_reported":1760198998,"current_range_meters":9600,"station_id":"st_cvj6ca6bvosntc0bfgr0","pricing_plan_id":"cebpf4jnsgd1na2vs0mg"},{"bike_id":"d0541185-1ae0-4b7a-85f0-f156ffc178f8","system_id":"levelo_inurba_marseille","lat":43.3201,"lon":5.416,"is_reserved":false,"is_disabled":false,"rental_uris":{"android":"levelo://app?vid=d0541185-1ae0-4b7a-85f0-f156ffc178f8","ios":"levelo://app?vid=d0541185-1ae0-4b7a-85f0-f156ffc178f8"},"vehicle_type_id":"4","last_reported":1760198998,"current_range_meters":10000,"station_id":"","pricing_plan_id":"cebpf4jnsgd1na2vs0mg"},{"bike_id":"ef3f0333-1b59-469a-801a-03572b35a729","system_id":"levelo_inurba_marseille","lat":43.31709,"lon":5.37772,"is_reserved":false,"is_disabled":false,"rental_uris":{"android":"levelo://app?vid=ef3f0333-1b59-469a-801a-03572b35a729","ios":"levelo://app?vid=ef3f0333-1b59-469a-801a-03572b35a729"},"vehicle_type_id":"4","last_reported":1760198998,"current_range_meters":10000,"station_id":"ce4bgth2rcd13ifvqch0","pricing_plan_id":"cebpf4jnsgd1na2vs0mg"},{"bike_id":"019ebf89-ec80-4cbf-af45-6b81fb4d59dc","system_id":"levelo_inurba_marseille","lat":43.30773,"lon":5.37658,"is_reserved":false,"is_disabled":false,"rental_uris":{"android":"levelo://app?vid=019ebf89-ec80-4cbf-af45-6b81fb4d59dc","ios":"levelo://app?vid=019ebf89-ec80-4cbf-af45-6b81fb4d59dc"},"vehicle_type_id":"4","last_reported":1760198998,"current_range_meters":10000,"station_id":"ce4bgv92rcd13ifvqcq0","pricing_plan_id":"cebpf4jnsgd1na2vs0mg"},{"bike_id":"85a1a05a-ffd9-408c-914e-131a9166c4c4","system_id":"levelo_inurba_marseille","lat":43.26056,"lon":5.39406,"is_reserved":false,"is_disabled":false,"rental_uris":{"android":"levelo://app?vid=85a1a05a-ffd9-408c-914e-131a9166c4c4","ios":"levelo://app?vid=85a1a05a-ffd9-408c-914e-131a9166c4c4"},"vehicle_type_id":"4","last_reported":1760198998,"current_range_meters":10000,"station_id":"ce4bhh92rcd13ifvqfj0","pricing_plan_id":"cebpf4jnsgd1na2vs0mg"},{"bike_id":"4fa7ae6a-f742-4f85-867e-e3ade3b5ba0c","system_id":"levelo_inurba_marseille","lat":43.32288,"lon":5.38272,"is_reserved":false,"is_disabled":false,"rental_uris":{"android":"levelo://app?vid=4fa7ae6a-f742-4f85-867e-e3ade3b5ba0c","ios":"levelo://app?vid=4fa7ae6a-f742-4f85-867e-e3ade3b5ba0c"},"vehicle_type_id":"4","last_reported":1760198998,"current_range_meters":10000,"station_id":"ce4bhr12rcd13ifvqhqg","pricing_plan_id":"cebpf4jnsgd1na2vs0mg"},{"bike_id":"919c2f81-1e80-47cf-8ba9-85a3ee0d0032","system_id":"levelo_inurba_marseille","lat":43.23194,"lon":5.3556,"is_reserved":false,"is_disabled":false,"rental_uris":{"android":"levelo://app?vid=919c2f81-1e80-47cf-8ba9-85a3ee0d0032","ios":"levelo://app?vid=919c2f81-1e80-47cf-8ba9-85a3ee0d0032"},"vehicle_type_id":"4","last_reported":1760198998,"current_range_meters":10000,"station_id":"ce4bhu92rcd13ifvqi70","pricing_plan_id":"cebpf4jnsgd1na2vs0mg"},{"bike_id":"6ddde598-1b8e-40d5-ad75-a50c1055bd81","system_id":"levelo_inurba_marseille","lat":43.24953,"lon":5.40511,"is_reserved":false,"is_disabled":false,"rental_uris":{"android":"levelo://app?vid=6ddde598-1b8e-40d5-ad75-a50c1055bd81","ios":"levelo://app?vid=6ddde598-1b8e-40d5-ad75-a50c1055bd81"},"vehicle_type_id":"4","last_reported":1760198998,"current_range_meters":10000,"station_id":"st_d2ngiaodas8pm72gd1h0","pricing_plan_id":"cebpf4jnsgd1na2vs0mg"},{"bike_id":"0c203ca4-10ac-4b5b-a72a-dba2cab9c056","system_id":"levelo_inurba_marseille","lat":43.30871,"lon":5.3965,"is_reserved":false,"is_disabled":false,"rental_uris":{"android":"levelo://app?vid=0c203ca4-10ac-4b5b-a72a-dba2cab9c056","ios":"levelo://app?vid=0c203ca4-10ac-4b5b-a72a-dba2cab9c056"},"vehicle_type_id":"4","last_reported":1760198998,"current_range_meters":10800,"station_id":"ce4bh012rcd13ifvqcv0","pricing_plan_id":"cebpf4jnsgd1na2vs0mg"},{"bike_id":"f59b4303-7825-4fcf-bdfa-6cdae3969b14","system_id":"levelo_inurba_marseille","lat":43.296156,"lon":5.405802,"is_reserved":false,"is_disabled":false,"rental_uris":{"android":"levelo://app?vid=f59b4303-7825-4fcf-bdfa-6cdae3969b14","ios":"levelo://app?vid=f59b4303-7825-4fcf-bdfa-6cdae3969b14"},"vehicle_type_id":"4","last_reported":1760198998,"current_range_meters":10800,"station_id":"ce4bh0h2rcd13ifvqd60","pricing_plan_id":"cebpf4jnsgd1na2vs0mg"},{"bike_id":"f921f3fc-bfda-4056-bb7d-a1fc29b974ea","system_id":"levelo_inurba_marseille","lat":43.24385,"lon":5.370607,"is_reserved":false,"is_disabled":false,"rental_uris":{"android":"levelo://app?vid=f921f3fc-bfda-4056-bb7d-a1fc29b974ea","ios":"levelo://app?vid=f921f3fc-bfda-4056-bb7d-a1fc29b974ea"},"vehicle_type_id":"4","last_reported":1760198998,"current_range_meters":10800,"station_id":"ce4bhh92rcd13ifvqfi0","pricing_plan_id":"cebpf4jnsgd1na2vs0mg"},{"bike_id":"c0eb2028-9108-4db9-a1ff-35b3a66092dc","system_id":"levelo_inurba_marseille","lat":43.31692,"lon":5.43716,"is_reserved":false,"is_disabled":false,"rental_uris":{"android":"levelo://app?vid=c0eb2028-9108-4db9-a1ff-35b3a66092dc","ios":"levelo://app?vid=c0eb2028-9108-4db9-a1ff-35b3a66092dc"},"vehicle_type_id":"4","last_reported":1760198998,"current_range_meters":10800,"station_id":"ce4bhp92rcd13ifvqhcg","pricing_plan_id":"cebpf4jnsgd1na2vs0mg"},{"bike_id":"a7aeb2ea-c6e8-4c27-a182-6b304c1c2496","system_id":"levelo_inurba_marseille","lat":43.24168,"lon":5.36395,"is_reserved":false,"is_disabled":false,"rental_uris":{"android":"levelo://app?vid=a7aeb2ea-c6e8-4c27-a182-6b304c1c2496","ios":"levelo://app?vid=a7aeb2ea-c6e8-4c27-a182-6b304c1c2496"},"vehicle_type_id":"4","last_reported":1760198998,"current_range_meters":10800,"station_id":"cpo36qri1sfpv3e86is0","pricing_plan_id":"cebpf4jnsgd1na2vs0mg"},{"bike_id":"80b5fdd6-8044-4280-9733-7a4992e6b8f6","system_id":"levelo_inurba_marseille","lat":43.292676,"lon":5.376168,"is_reserved":false,"is_disabled":false,"rental_uris":{"android":"levelo://app?vid=80b5fdd6-8044-4280-9733-7a4992e6b8f6","ios":"levelo://app?vid=80b5fdd6-8044-4280-9733-7a4992e6b8f6"},"vehicle_type_id":"4","last_reported":1760198998,"current_range_meters":11200,"station_id":"","pricing_plan_id":"cebpf4jnsgd1na2vs0mg"},{"bike_id":"bb1d729e-3087-4f9e-80f0-473db676dc66","system_id":"levelo_inurba_marseille","lat":43.28458,"lon":5.35887,"is_reserved":false,"is_disabled":false,"rental_uris":{"android":"levelo://app?vid=bb1d729e-3087-4f9e-80f0-473db676dc66","ios":"levelo://app?vid=bb1d729e-3087-4f9e-80f0-473db676dc66"},"vehicle_type_id":"4","last_reported":1760198998,"current_range_meters":11200,"station_id":"ce4bhah2rcd13ifvqei0","pricing_plan_id":"cebpf4jnsgd1na2vs0mg"},{"bike_id":"c39df3bb-01b0-4775-a701-339d4b4fe32d","system_id":"levelo_inurba_marseille","lat":43.23191,"lon":5.35571,"is_reserved":false,"is_disabled":false,"rental_uris":{"android":"levelo://app?vid=c39df3bb-01b0-4775-a701-339d4b4fe32d","ios":"levelo://app?vid=c39df3bb-01b0-4775-a701-339d4b4fe32d"},"vehicle_type_id":"4","last_reported":1760198998,"current_range_meters":11200,"station_id":"ce4bhu92rcd13ifvqi70","pricing_plan_id":"cebpf4jnsgd1na2vs0mg"},{"bike_id":"9bddf96b-9a7f-4c48-a8ca-cf59939e8782","system_id":"levelo_inurba_marseille","lat":43.29963,"lon":5.38503,"is_reserved":false,"is_disabled":false,"rental_uris":{"android":"levelo://app?vid=9bddf96b-9a7f-4c48-a8ca-cf59939e8782","ios":"levelo://app?vid=9bddf96b-9a7f-4c48-a8ca-cf59939e8782"},"vehicle_type_id":"4","last_reported":1760198998,"current_range_meters":11600,"station_id":"ce4bgj92rcd13ifvqbd0","pricing_plan_id":"cebpf4jnsgd1na2vs0mg"},{"bike_id":"abe06b6b-71dc-4daf-b07b-f8285113962a","system_id":"levelo_inurba_marseille","lat":43.28539,"lon":5.44105,"is_reserved":false,"is_disabled":false,"rental_uris":{"android":"levelo://app?vid=abe06b6b-71dc-4daf-b07b-f8285113962a","ios":"levelo://app?vid=abe06b6b-71dc-4daf-b07b-f8285113962a"},"vehicle_type_id":"4","last_reported":1760198998,"current_range_meters":11600,"station_id":"st_d3j3df2ikq2c7380ej80","pricing_plan_id":"cebpf4jnsgd1na2vs0mg"},{"bike_id":"6ac9fbb8-697d-47f3-826b-72f597926ff0","system_id":"levelo_inurba_marseille","lat":43.25501,"lon":5.37654,"is_reserved":false,"is_disabled":false,"rental_uris":{"android":"levelo://app?vid=6ac9fbb8-697d-47f3-826b-72f597926ff0","ios":"levelo://app?vid=6ac9fbb8-697d-47f3-826b-72f597926ff0"},"vehicle_type_id":"4","last_reported":1760198998,"current_range_meters":12000,"station_id":"ce4bhh12rcd13ifvqff0","pricing_plan_id":"cebpf4jnsgd1na2vs0mg"},{"bike_id":"44e07fde-58a0-4916-94b7-6562b94419bd","system_id":"levelo_inurba_marseille","lat":43.26057,"lon":5.39403,"is_reserved":false,"is_disabled":false,"rental_uris":{"android":"levelo://app?vid=44e07fde-58a0-4916-94b7-6562b94419bd","ios":"levelo://app?vid=44e07fde-58a0-4916-94b7-6562b94419bd"},"vehicle_type_id":"4","last_reported":1760198998,"current_range_meters":12000,"station_id":"ce4bhh92rcd13ifvqfj0","pricing_plan_id":"cebpf4jnsgd1na2vs0mg"},{"bike_id":"403c7a33-19ad-4644-8bd6-2acdd6acc7eb","system_id":"levelo_inurba_marseille","lat":43.31714,"lon":5.3775,"is_reserved":false,"is_disabled":false,"rental_uris":{"android":"levelo://app?vid=403c7a33-19ad-4644-8bd6-2acdd6acc7eb","ios":"levelo://app?vid=403c7a33-19ad-4644-8bd6-2acdd6acc7eb"},"vehicle_type_id":"4","last_reported":1760198998,"current_range_meters":12400,"station_id":"ce4bgth2rcd13ifvqch0","pricing_plan_id":"cebpf4jnsgd1na2vs0mg"},{"bike_id":"1d03b311-7550-4a67-8256-2a4e14878c17","system_id":"levelo_inurba_marseille","lat":43.3095,"lon":5.39055,"is_reserved":false,"is_disabled":false,"rental_uris":{"android":"levelo://app?vid=1d03b311-7550-4a67-8256-2a4e14878c17","ios":"levelo://app?vid=1d03b311-7550-4a67-8256-2a4e14878c17"},"vehicle_type_id":"4","last_reported":1760198998,"current_range_meters":12400,"station_id":"ce4bgup2rcd13ifvqco0","pricing_plan_id":"cebpf4jnsgd1na2vs0mg"},{"bike_id":"d70464e3-00a5-4968-a2aa-26b6f205c123","system_id":"levelo_inurba_marseille","lat":43.28858,"lon":5.35847,"is_reserved":false,"is_disabled":false,"rental_uris":{"android":"levelo://app?vid=d70464e3-00a5-4968-a2aa-26b6f205c123","ios":"levelo://app?vid=d70464e3-00a5-4968-a2aa-26b6f205c123"},"vehicle_type_id":"4","last_reported":1760198998,"current_range_meters":12400,"station_id":"ce4bhb12rcd13ifvqem0","pricing_plan_id":"cebpf4jnsgd1na2vs0mg"},{"bike_id":"4c2ea989-f363-4d09-a5d9-340a713e1403","system_id":"levelo_inurba_marseille","lat":43.28398,"lon":5.34994,"is_reserved":false,"is_disabled":false,"rental_uris":{"android":"levelo://app?vid=4c2ea989-f363-4d09-a5d9-340a713e1403","ios":"levelo://app?vid=4c2ea989-f363-4d09-a5d9-340a713e1403"},"vehicle_type_id":"4","last_reported":1760198998,"current_range_meters":12400,"station_id":"ce4bhbh2rcd13ifvqepg","pricing_plan_id":"cebpf4jnsgd1na2vs0mg"},{"bike_id":"652f50b8-f64d-4bea-94aa-f2ab5ccf2b05","system_id":"levelo_inurba_marseille","lat":43.27211,"lon":5.39186,"is_reserved":false,"is_disabled":false,"rental_uris":{"android":"levelo://app?vid=652f50b8-f64d-4bea-94aa-f2ab5ccf2b05","ios":"levelo://app?vid=652f50b8-f64d-4bea-94aa-f2ab5ccf2b05"},"vehicle_type_id":"4","last_reported":1760198998,"current_range_meters":12400,"station_id":"ce4bhhp2rcd13ifvqfm0","pricing_plan_id":"cebpf4jnsgd1na2vs0mg"},{"bike_id":"592ff116-1c39-4712-8a02-62c1a90ce181","system_id":"levelo_inurba_marseille","lat":43.32276,"lon":5.38286,"is_reserved":false,"is_disabled":false,"rental_uris":{"android":"levelo://app?vid=592ff116-1c39-4712-8a02-62c1a90ce181","ios":"levelo://app?vid=592ff116-1c39-4712-8a02-62c1a90ce181"},"vehicle_type_id":"4","last_reported":1760198998,"current_range_meters":12400,"station_id":"ce4bhr12rcd13ifvqhqg","pricing_plan_id":"cebpf4jnsgd1na2vs0mg"},{"bike_id":"96189567-9f56-4467-99e1-85c33efa20b5","system_id":"levelo_inurba_marseille","lat":43.22567,"lon":5.41621,"is_reserved":false,"is_disabled":false,"rental_uris":{"android":"levelo://app?vid=96189567-9f56-4467-99e1-85c33efa20b5","ios":"levelo://app?vid=96189567-9f56-4467-99e1-85c33efa20b5"},"vehicle_type_id":"4","last_reported":1760198998,"current_range_meters":12400,"station_id":"st_d2o4gvlbi1j2169b742g","pricing_plan_id":"cebpf4jnsgd1na2vs0mg"},{"bike_id":"3da9ca40-7ac8-4c6c-9ebb-87100bad4bb0","system_id":"levelo_inurba_marseille","lat":43.292755,"lon":5.384343,"is_reserved":false,"is_disabled":false,"rental_uris":{"android":"levelo://app?vid=3da9ca40-7ac8-4c6c-9ebb-87100bad4bb0","ios":"levelo://app?vid=3da9ca40-7ac8-4c6c-9ebb-87100bad4bb0"},"vehicle_type_id":"4","last_reported":1760198998,"current_range_meters":12800,"station_id":"","pricing_plan_id":"cebpf4jnsgd1na2vs0mg"},{"bike_id":"08fcdb32-2bb9-48aa-82a9-a8f703dd0269","system_id":"levelo_inurba_marseille","lat":43.25396,"lon":5.41918,"is_reserved":false,"is_disabled":false,"rental_uris":{"android":"levelo://app?vid=08fcdb32-2bb9-48aa-82a9-a8f703dd0269","ios":"levelo://app?vid=08fcdb32-2bb9-48aa-82a9-a8f703dd0269"},"vehicle_type_id":"4","last_reported":1760198998,"current_range_meters":12800,"station_id":"","pricing_plan_id":"cebpf4jnsgd1na2vs0mg"},{"bike_id":"905ba5bd-fae0-424f-b8bb-fca3cec8690b","system_id":"levelo_inurba_marseille","lat":43.2971,"lon":5.36596,"is_reserved":false,"is_disabled":false,"rental_uris":{"android":"levelo://app?vid=905ba5bd-fae0-424f-b8bb-fca3cec8690b","ios":"levelo://app?vid=905ba5bd-fae0-424f-b8bb-fca3cec8690b"},"vehicle_type_id":"4","last_reported":1760198998,"current_range_meters":12800,"station_id":"ce4bgn12rcd13ifvqbt0","pricing_plan_id":"cebpf4jnsgd1na2vs0mg"},{"bike_id":"49c9fbb2-d0ee-4ce9-b8e0-8ad08dcfbaf8","system_id":"levelo_inurba_marseille","lat":43.30543,"lon":5.36557,"is_reserved":false,"is_disabled":false,"rental_uris":{"android":"levelo://app?vid=49c9fbb2-d0ee-4ce9-b8e0-8ad08dcfbaf8","ios":"levelo://app?vid=49c9fbb2-d0ee-4ce9-b8e0-8ad08dcfbaf8"},"vehicle_type_id":"4","last_reported":1760198998,"current_range_meters":12800,"station_id":"ce4bgs12rcd13ifvqcag","pricing_plan_id":"cebpf4jnsgd1na2vs0mg"},{"bike_id":"fed46ba2-4de1-4635-ab3f-c10b806859a5","system_id":"levelo_inurba_marseille","lat":43.28411,"lon":5.34994,"is_reserved":false,"is_disabled":false,"rental_uris":{"android":"levelo://app?vid=fed46ba2-4de1-4635-ab3f-c10b806859a5","ios":"levelo://app?vid=fed46ba2-4de1-4635-ab3f-c10b806859a5"},"vehicle_type_id":"4","last_reported":1760198998,"current_range_meters":12800,"station_id":"ce4bhbh2rcd13ifvqepg","pricing_plan_id":"cebpf4jnsgd1na2vs0mg"},{"bike_id":"53cfbcd8-0deb-4c79-bdee-5054b0787e15","system_id":"levelo_inurba_marseille","lat":43.2582,"lon":5.3944,"is_reserved":false,"is_disabled":false,"rental_uris":{"android":"levelo://app?vid=53cfbcd8-0deb-4c79-bdee-5054b0787e15","ios":"levelo://app?vid=53cfbcd8-0deb-4c79-bdee-5054b0787e15"},"vehicle_type_id":"4","last_reported":1760198998,"current_range_meters":12800,"station_id":"ce4bhip2rcd13ifvqft0","pricing_plan_id":"cebpf4jnsgd1na2vs0mg"},{"bike_id":"f7c545d0-f9aa-4416-9316-7b01ee5c6fb3","system_id":"levelo_inurba_marseille","lat":43.29285,"lon":5.40126,"is_reserved":false,"is_disabled":false,"rental_uris":{"android":"levelo://app?vid=f7c545d0-f9aa-4416-9316-7b01ee5c6fb3","ios":"levelo://app?vid=f7c545d0-f9aa-4416-9316-7b01ee5c6fb3"},"vehicle_type_id":"4","last_reported":1760198998,"current_range_meters":13600,"station_id":"ce4bh312rcd13ifvqdk0","pricing_plan_id":"cebpf4jnsgd1na2vs0mg"},{"bike_id":"2ae4cfd0-0768-4d60-8458-4374fb6274e5","system_id":"levelo_inurba_marseille","lat":43.289301,"lon":5.383915,"is_reserved":false,"is_disabled":false,"rental_uris":{"android":"levelo://app?vid=2ae4cfd0-0768-4d60-8458-4374fb6274e5","ios":"levelo://app?vid=2ae4cfd0-0768-4d60-8458-4374fb6274e5"},"vehicle_type_id":"4","last_reported":1760198998,"current_range_meters":13600,"station_id":"ce4bh612rcd13ifvqe6g","pricing_plan_id":"cebpf4jnsgd1na2vs0mg"},{"bike_id":"85a1ee1d-dda2-4de7-81f8-a5546f79bc76","system_id":"levelo_inurba_marseille","lat":43.23952,"lon":5.36646,"is_reserved":false,"is_disabled":false,"rental_uris":{"android":"levelo://app?vid=85a1ee1d-dda2-4de7-81f8-a5546f79bc76","ios":"levelo://app?vid=85a1ee1d-dda2-4de7-81f8-a5546f79bc76"},"vehicle_type_id":"4","last_reported":1760198998,"current_range_meters":13600,"station_id":"ce4bhi12rcd13ifvqfp0","pricing_plan_id":"cebpf4jnsgd1na2vs0mg"},{"bike_id":"18bebf99-94fa-4b19-86bd-5bd4ea380651","system_id":"levelo_inurba_marseille","lat":43.23186,"lon":5.39985,"is_reserved":false,"is_disabled":false,"rental_uris":{"android":"levelo://app?vid=18bebf99-94fa-4b19-86bd-5bd4ea380651","ios":"levelo://app?vid=18bebf99-94fa-4b19-86bd-5bd4ea380651"},"vehicle_type_id":"4","last_reported":1760198998,"current_range_meters":13600,"station_id":"ce4bhn12rcd13ifvqgqg","pricing_plan_id":"cebpf4jnsgd1na2vs0mg"},{"bike_id":"ed2dff8b-73b9-439d-ad69-7d34534b4cbe","system_id":"levelo_inurba_marseille","lat":43.27812,"lon":5.40728,"is_reserved":false,"is_disabled":false,"rental_uris":{"android":"levelo://app?vid=ed2dff8b-73b9-439d-ad69-7d34534b4cbe","ios":"levelo://app?vid=ed2dff8b-73b9-439d-ad69-7d34534b4cbe"},"vehicle_type_id":"4","last_reported":1760198998,"current_range_meters":13600,"station_id":"ce4bhnh2rcd13ifvqgtg","pricing_plan_id":"cebpf4jnsgd1na2vs0mg"},{"bike_id":"9a3f78ca-b0c6-4f72-8a79-592b18fbedf7","system_id":"levelo_inurba_marseille","lat":43.24061,"lon":5.37788,"is_reserved":false,"is_disabled":false,"rental_uris":{"android":"levelo://app?vid=9a3f78ca-b0c6-4f72-8a79-592b18fbedf7","ios":"levelo://app?vid=9a3f78ca-b0c6-4f72-8a79-592b18fbedf7"},"vehicle_type_id":"4","last_reported":1760198998,"current_range_meters":13600,"station_id":"ce4bhnp2rcd13ifvqgvg","pricing_plan_id":"cebpf4jnsgd1na2vs0mg"},{"bike_id":"cca7eee1-4a9a-4445-bdab-a670ba27a6dd","system_id":"levelo_inurba_marseille","lat":43.289917,"lon":5.356146,"is_reserved":false,"is_disabled":false,"rental_uris":{"android":"levelo://app?vid=cca7eee1-4a9a-4445-bdab-a670ba27a6dd","ios":"levelo://app?vid=cca7eee1-4a9a-4445-bdab-a670ba27a6dd"},"vehicle_type_id":"4","last_reported":1760198998,"current_range_meters":14000,"station_id":"","pricing_plan_id":"cebpf4jnsgd1na2vs0mg"},{"bike_id":"ef773f12-69e2-4715-8b90-fbbb03ee6072","system_id":"levelo_inurba_marseille","lat":43.30906,"lon":5.36863,"is_reserved":false,"is_disabled":false,"rental_uris":{"android":"levelo://app?vid=ef773f12-69e2-4715-8b90-fbbb03ee6072","ios":"levelo://app?vid=ef773f12-69e2-4715-8b90-fbbb03ee6072"},"vehicle_type_id":"4","last_reported":1760198998,"current_range_meters":14000,"station_id":"ce4bgn92rcd13ifvqbvg","pricing_plan_id":"cebpf4jnsgd1na2vs0mg"},{"bike_id":"dc5e77d1-104c-482e-a46d-169cdfc61e8c","system_id":"levelo_inurba_marseille","lat":43.3094,"lon":5.39057,"is_reserved":false,"is_disabled":false,"rental_uris":{"android":"levelo://app?vid=dc5e77d1-104c-482e-a46d-169cdfc61e8c","ios":"levelo://app?vid=dc5e77d1-104c-482e-a46d-169cdfc61e8c"},"vehicle_type_id":"4","last_reported":1760198998,"current_range_meters":14000,"station_id":"ce4bgup2rcd13ifvqco0","pricing_plan_id":"cebpf4jnsgd1na2vs0mg"},{"bike_id":"0bd73336-e2ac-41ab-8783-ae1f09d06f60","system_id":"levelo_inurba_marseille","lat":43.28408,"lon":5.37514,"is_reserved":false,"is_disabled":false,"rental_uris":{"android":"levelo://app?vid=0bd73336-e2ac-41ab-8783-ae1f09d06f60","ios":"levelo://app?vid=0bd73336-e2ac-41ab-8783-ae1f09d06f60"},"vehicle_type_id":"4","last_reported":1760198998,"current_range_meters":14000,"station_id":"ce4bh412rcd13ifvqds0","pricing_plan_id":"cebpf4jnsgd1na2vs0mg"},{"bike_id":"c3d3225e-cbf1-47a2-8039-d52292b7e488","system_id":"levelo_inurba_marseille","lat":43.28357,"lon":5.38639,"is_reserved":false,"is_disabled":false,"rental_uris":{"android":"levelo://app?vid=c3d3225e-cbf1-47a2-8039-d52292b7e488","ios":"levelo://app?vid=c3d3225e-cbf1-47a2-8039-d52292b7e488"},"vehicle_type_id":"4","last_reported":1760198998,"current_range_meters":14000,"station_id":"ce4bh492rcd13ifvqdvg","pricing_plan_id":"cebpf4jnsgd1na2vs0mg"},{"bike_id":"4ffe4034-af79-4bc4-ad76-946e294bce27","system_id":"levelo_inurba_marseille","lat":43.243913,"lon":5.370705,"is_reserved":false,"is_disabled":false,"rental_uris":{"android":"levelo://app?vid=4ffe4034-af79-4bc4-ad76-946e294bce27","ios":"levelo://app?vid=4ffe4034-af79-4bc4-ad76-946e294bce27"},"vehicle_type_id":"4","last_reported":1760198998,"current_range_meters":14000,"station_id":"ce4bhhh2rcd13ifvqfk0","pricing_plan_id":"cebpf4jnsgd1na2vs0mg"},{"bike_id":"232fa756-d177-479e-a50c-346cdba7e277","system_id":"levelo_inurba_marseille","lat":43.23178,"lon":5.39991,"is_reserved":false,"is_disabled":false,"rental_uris":{"android":"levelo://app?vid=232fa756-d177-479e-a50c-346cdba7e277","ios":"levelo://app?vid=232fa756-d177-479e-a50c-346cdba7e277"},"vehicle_type_id":"4","last_reported":1760198998,"current_range_meters":14000,"station_id":"ce4bhn12rcd13ifvqgqg","pricing_plan_id":"cebpf4jnsgd1na2vs0mg"},{"bike_id":"9eec1a65-67bd-488e-bfd6-3773aa5c5cc6","system_id":"levelo_inurba_marseille","lat":43.24063,"lon":5.37773,"is_reserved":false,"is_disabled":false,"rental_uris":{"android":"levelo://app?vid=9eec1a65-67bd-488e-bfd6-3773aa5c5cc6","ios":"levelo://app?vid=9eec1a65-67bd-488e-bfd6-3773aa5c5cc6"},"vehicle_type_id":"4","last_reported":1760198998,"current_range_meters":14000,"station_id":"ce4bhnp2rcd13ifvqgvg","pricing_plan_id":"cebpf4jnsgd1na2vs0mg"},{"bike_id":"996f9f46-e0ea-4e4d-bf22-c899d0b79667","system_id":"levelo_inurba_marseille","lat":43.22929,"lon":5.35396,"is_reserved":false,"is_disabled":false,"rental_uris":{"android":"levelo://app?vid=996f9f46-e0ea-4e4d-bf22-c899d0b79667","ios":"levelo://app?vid=996f9f46-e0ea-4e4d-bf22-c899d0b79667"},"vehicle_type_id":"4","last_reported":1760198998,"current_range_meters":14000,"station_id":"cpo3532slgdg3j2ikp40","pricing_plan_id":"cebpf4jnsgd1na2vs0mg"},{"bike_id":"daca0046-00af-4c3d-97a3-9a04d8ad7588","system_id":"levelo_inurba_marseille","lat":43.22557,"lon":5.4164,"is_reserved":false,"is_disabled":false,"rental_uris":{"android":"levelo://app?vid=daca0046-00af-4c3d-97a3-9a04d8ad7588","ios":"levelo://app?vid=daca0046-00af-4c3d-97a3-9a04d8ad7588"},"vehicle_type_id":"4","last_reported":1760198998,"current_range_meters":14000,"station_id":"st_d2o4gvlbi1j2169b742g","pricing_plan_id":"cebpf4jnsgd1na2vs0mg"},{"bike_id":"a88b7eec-46af-47d7-a0bf-d5854d080a7b","system_id":"levelo_inurba_marseille","lat":43.284642,"lon":5.358866,"is_reserved":false,"is_disabled":false,"rental_uris":{"android":"levelo://app?vid=a88b7eec-46af-47d7-a0bf-d5854d080a7b","ios":"levelo://app?vid=a88b7eec-46af-47d7-a0bf-d5854d080a7b"},"vehicle_type_id":"4","last_reported":1760198998,"current_range_meters":14400,"station_id":"","pricing_plan_id":"cebpf4jnsgd1na2vs0mg"},{"bike_id":"36852a13-f383-442f-9a01-f153febeeef2","system_id":"levelo_inurba_marseille","lat":43.30188,"lon":5.36907,"is_reserved":false,"is_disabled":false,"rental_uris":{"android":"levelo://app?vid=36852a13-f383-442f-9a01-f153febeeef2","ios":"levelo://app?vid=36852a13-f383-442f-9a01-f153febeeef2"},"vehicle_type_id":"4","last_reported":1760198998,"current_range_meters":14400,"station_id":"","pricing_plan_id":"cebpf4jnsgd1na2vs0mg"},{"bike_id":"7f35e7c5-dad6-41d2-8791-647d3df5a278","system_id":"levelo_inurba_marseille","lat":43.2937,"lon":5.3786,"is_reserved":false,"is_disabled":false,"rental_uris":{"android":"levelo://app?vid=7f35e7c5-dad6-41d2-8791-647d3df5a278","ios":"levelo://app?vid=7f35e7c5-dad6-41d2-8791-647d3df5a278"},"vehicle_type_id":"4","last_reported":1760198998,"current_range_meters":14400,"station_id":"ce4bgjh2rcd13ifvqbf0","pricing_plan_id":"cebpf4jnsgd1na2vs0mg"},{"bike_id":"15451fa0-fcd8-4d45-8db6-456dca15837d","system_id":"levelo_inurba_marseille","lat":43.28396,"lon":5.35029,"is_reserved":false,"is_disabled":false,"rental_uris":{"android":"levelo://app?vid=15451fa0-fcd8-4d45-8db6-456dca15837d","ios":"levelo://app?vid=15451fa0-fcd8-4d45-8db6-456dca15837d"},"vehicle_type_id":"4","last_reported":1760198998,"current_range_meters":14800,"station_id":"","pricing_plan_id":"cebpf4jnsgd1na2vs0mg"},{"bike_id":"187cf0d8-0607-43fc-8eaa-6af12fda0dee","system_id":"levelo_inurba_marseille","lat":43.22428,"lon":5.34657,"is_reserved":false,"is_disabled":false,"rental_uris":{"android":"levelo://app?vid=187cf0d8-0607-43fc-8eaa-6af12fda0dee","ios":"levelo://app?vid=187cf0d8-0607-43fc-8eaa-6af12fda0dee"},"vehicle_type_id":"4","last_reported":1760198998,"current_range_meters":14800,"station_id":"","pricing_plan_id":"cebpf4jnsgd1na2vs0mg"},{"bike_id":"f643732a-737c-4023-9ce1-91073dd626a3","system_id":"levelo_inurba_marseille","lat":43.31598,"lon":5.38135,"is_reserved":false,"is_disabled":false,"rental_uris":{"android":"levelo://app?vid=f643732a-737c-4023-9ce1-91073dd626a3","ios":"levelo://app?vid=f643732a-737c-4023-9ce1-91073dd626a3"},"vehicle_type_id":"4","last_reported":1760198998,"current_range_meters":14800,"station_id":"","pricing_plan_id":"cebpf4jnsgd1na2vs0mg"},{"bike_id":"b97ae111-34c5-40a3-bc58-02103404c0ba","system_id":"levelo_inurba_marseille","lat":43.305516,"lon":5.367039,"is_reserved":false,"is_disabled":false,"rental_uris":{"android":"levelo://app?vid=b97ae111-34c5-40a3-bc58-02103404c0ba","ios":"levelo://app?vid=b97ae111-34c5-40a3-bc58-02103404c0ba"},"vehicle_type_id":"4","last_reported":1760198998,"current_range_meters":14800,"station_id":"ce4bgrp2rcd13ifvqc9g","pricing_plan_id":"cebpf4jnsgd1na2vs0mg"},{"bike_id":"cd98422e-295c-47f6-b215-8fe8d3468980","system_id":"levelo_inurba_marseille","lat":43.28416,"lon":5.37507,"is_reserved":false,"is_disabled":false,"rental_uris":{"android":"levelo://app?vid=cd98422e-295c-47f6-b215-8fe8d3468980","ios":"levelo://app?vid=cd98422e-295c-47f6-b215-8fe8d3468980"},"vehicle_type_id":"4","last_reported":1760198998,"current_range_meters":14800,"station_id":"ce4bh412rcd13ifvqds0","pricing_plan_id":"cebpf4jnsgd1na2vs0mg"},{"bike_id":"7be0f6bf-6c6b-4bc2-8340-976d6be916ea","system_id":"levelo_inurba_marseille","lat":43.22926,"lon":5.35383,"is_reserved":false,"is_disabled":false,"rental_uris":{"android":"levelo://app?vid=7be0f6bf-6c6b-4bc2-8340-976d6be916ea","ios":"levelo://app?vid=7be0f6bf-6c6b-4bc2-8340-976d6be916ea"},"vehicle_type_id":"4","last_reported":1760198998,"current_range_meters":14800,"station_id":"cpo3532slgdg3j2ikp40","pricing_plan_id":"cebpf4jnsgd1na2vs0mg"},{"bike_id":"bf3e6031-a4b5-4d11-9089-ea468e967475","system_id":"levelo_inurba_marseille","lat":43.24175,"lon":5.36386,"is_reserved":false,"is_disabled":false,"rental_uris":{"android":"levelo://app?vid=bf3e6031-a4b5-4d11-9089-ea468e967475","ios":"levelo://app?vid=bf3e6031-a4b5-4d11-9089-ea468e967475"},"vehicle_type_id":"4","last_reported":1760198998,"current_range_meters":14800,"station_id":"cpo36qri1sfpv3e86is0","pricing_plan_id":"cebpf4jnsgd1na2vs0mg"},{"bike_id":"b78fc6de-8c66-40b1-bc7e-1794eacc6804","system_id":"levelo_inurba_marseille","lat":43.28165,"lon":5.34983,"is_reserved":false,"is_disabled":false,"rental_uris":{"android":"levelo://app?vid=b78fc6de-8c66-40b1-bc7e-1794eacc6804","ios":"levelo://app?vid=b78fc6de-8c66-40b1-bc7e-1794eacc6804"},"vehicle_type_id":"4","last_reported":1760198998,"current_range_meters":15200,"station_id":"","pricing_plan_id":"cebpf4jnsgd1na2vs0mg"},{"bike_id":"df2fdcfd-9b2f-4cf0-8a37-826706a7eda8","system_id":"levelo_inurba_marseille","lat":43.27134,"lon":5.3917,"is_reserved":false,"is_disabled":false,"rental_uris":{"android":"levelo://app?vid=df2fdcfd-9b2f-4cf0-8a37-826706a7eda8","ios":"levelo://app?vid=df2fdcfd-9b2f-4cf0-8a37-826706a7eda8"},"vehicle_type_id":"4","last_reported":1760198998,"current_range_meters":15200,"station_id":"ce4bhhp2rcd13ifvqfm0","pricing_plan_id":"cebpf4jnsgd1na2vs0mg"},{"bike_id":"d450faec-bf95-41b5-bd5a-258b856397d3","system_id":"levelo_inurba_marseille","lat":43.337444,"lon":5.374475,"is_reserved":false,"is_disabled":false,"rental_uris":{"android":"levelo://app?vid=d450faec-bf95-41b5-bd5a-258b856397d3","ios":"levelo://app?vid=d450faec-bf95-41b5-bd5a-258b856397d3"},"vehicle_type_id":"4","last_reported":1760198998,"current_range_meters":15200,"station_id":"ce4bhpp2rcd13ifvqhgg","pricing_plan_id":"cebpf4jnsgd1na2vs0mg"},{"bike_id":"e2b7637f-e97c-472e-a8e9-6c4626da48ab","system_id":"levelo_inurba_marseille","lat":43.28403,"lon":5.34994,"is_reserved":false,"is_disabled":false,"rental_uris":{"android":"levelo://app?vid=e2b7637f-e97c-472e-a8e9-6c4626da48ab","ios":"levelo://app?vid=e2b7637f-e97c-472e-a8e9-6c4626da48ab"},"vehicle_type_id":"4","last_reported":1760198998,"current_range_meters":16000,"station_id":"ce4bhbh2rcd13ifvqepg","pricing_plan_id":"cebpf4jnsgd1na2vs0mg"},{"bike_id":"3b9d198b-5b24-44eb-8876-2e5dbe56b968","system_id":"levelo_inurba_marseille","lat":43.28257,"lon":5.35075,"is_reserved":false,"is_disabled":false,"rental_uris":{"android":"levelo://app?vid=3b9d198b-5b24-44eb-8876-2e5dbe56b968","ios":"levelo://app?vid=3b9d198b-5b24-44eb-8876-2e5dbe56b968"},"vehicle_type_id":"4","last_reported":1760198998,"current_range_meters":16000,"station_id":"ce4bhbp2rcd13ifvqerg","pricing_plan_id":"cebpf4jnsgd1na2vs0mg"},{"bike_id":"b7beb4e8-058e-45b5-ba9a-d411cd9da5a0","system_id":"levelo_inurba_marseille","lat":43.239639,"lon":5.366295,"is_reserved":false,"is_disabled":false,"rental_uris":{"android":"levelo://app?vid=b7beb4e8-058e-45b5-ba9a-d411cd9da5a0","ios":"levelo://app?vid=b7beb4e8-058e-45b5-ba9a-d411cd9da5a0"},"vehicle_type_id":"4","last_reported":1760198998,"current_range_meters":16000,"station_id":"ce4bhi12rcd13ifvqfp0","pricing_plan_id":"cebpf4jnsgd1na2vs0mg"},{"bike_id":"befbd145-b179-49a3-abd7-163158e04bcd","system_id":"levelo_inurba_marseille","lat":43.25807,"lon":5.39432,"is_reserved":false,"is_disabled":false,"rental_uris":{"android":"levelo://app?vid=befbd145-b179-49a3-abd7-163158e04bcd","ios":"levelo://app?vid=befbd145-b179-49a3-abd7-163158e04bcd"},"vehicle_type_id":"4","last_reported":1760198998,"current_range_meters":16000,"station_id":"ce4bhip2rcd13ifvqft0","pricing_plan_id":"cebpf4jnsgd1na2vs0mg"},{"bike_id":"ff86f594-8b0d-463a-9f1f-eb13f5f55ade","system_id":"levelo_inurba_marseille","lat":43.23158,"lon":5.43715,"is_reserved":false,"is_disabled":false,"rental_uris":{"android":"levelo://app?vid=ff86f594-8b0d-463a-9f1f-eb13f5f55ade","ios":"levelo://app?vid=ff86f594-8b0d-463a-9f1f-eb13f5f55ade"},"vehicle_type_id":"4","last_reported":1760198998,"current_range_meters":16000,"station_id":"ce4bhmp2rcd13ifvqgog","pricing_plan_id":"cebpf4jnsgd1na2vs0mg"},{"bike_id":"694547b5-a972-4858-8070-97658603f337","system_id":"levelo_inurba_marseille","lat":43.23195,"lon":5.35565,"is_reserved":false,"is_disabled":false,"rental_uris":{"android":"levelo://app?vid=694547b5-a972-4858-8070-97658603f337","ios":"levelo://app?vid=694547b5-a972-4858-8070-97658603f337"},"vehicle_type_id":"4","last_reported":1760198998,"current_range_meters":16000,"station_id":"ce4bhu92rcd13ifvqi70","pricing_plan_id":"cebpf4jnsgd1na2vs0mg"},{"bike_id":"0d125caf-5238-4006-bbc8-77c21e114e38","system_id":"levelo_inurba_marseille","lat":43.24165,"lon":5.36396,"is_reserved":false,"is_disabled":false,"rental_uris":{"android":"levelo://app?vid=0d125caf-5238-4006-bbc8-77c21e114e38","ios":"levelo://app?vid=0d125caf-5238-4006-bbc8-77c21e114e38"},"vehicle_type_id":"4","last_reported":1760198998,"current_range_meters":16000,"station_id":"cpo36qri1sfpv3e86is0","pricing_plan_id":"cebpf4jnsgd1na2vs0mg"},{"bike_id":"83e214c2-0ada-4351-8a27-d8d9e569d46f","system_id":"levelo_inurba_marseille","lat":43.24164,"lon":5.36401,"is_reserved":false,"is_disabled":false,"rental_uris":{"android":"levelo://app?vid=83e214c2-0ada-4351-8a27-d8d9e569d46f","ios":"levelo://app?vid=83e214c2-0ada-4351-8a27-d8d9e569d46f"},"vehicle_type_id":"4","last_reported":1760198998,"current_range_meters":16000,"station_id":"cpo36qri1sfpv3e86is0","pricing_plan_id":"cebpf4jnsgd1na2vs0mg"},{"bike_id":"b5134376-6ef4-4aa3-9105-1c88dcabe681","system_id":"levelo_inurba_marseille","lat":43.25342,"lon":5.42175,"is_reserved":false,"is_disabled":false,"rental_uris":{"android":"levelo://app?vid=b5134376-6ef4-4aa3-9105-1c88dcabe681","ios":"levelo://app?vid=b5134376-6ef4-4aa3-9105-1c88dcabe681"},"vehicle_type_id":"4","last_reported":1760198998,"current_range_meters":16000,"station_id":"st_d2m65c5bi1j21697t3ng","pricing_plan_id":"cebpf4jnsgd1na2vs0mg"},{"bike_id":"4834a710-f242-4b0f-9ef7-9d6d9f7a4b7b","system_id":"levelo_inurba_marseille","lat":43.22548,"lon":5.41639,"is_reserved":false,"is_disabled":false,"rental_uris":{"android":"levelo://app?vid=4834a710-f242-4b0f-9ef7-9d6d9f7a4b7b","ios":"levelo://app?vid=4834a710-f242-4b0f-9ef7-9d6d9f7a4b7b"},"vehicle_type_id":"4","last_reported":1760198998,"current_range_meters":16000,"station_id":"st_d2o4gvlbi1j2169b742g","pricing_plan_id":"cebpf4jnsgd1na2vs0mg"},{"bike_id":"a1264a22-ef6f-42af-8ea0-201a0a87b153","system_id":"levelo_inurba_marseille","lat":43.29267,"lon":5.36852,"is_reserved":false,"is_disabled":false,"rental_uris":{"android":"levelo://app?vid=a1264a22-ef6f-42af-8ea0-201a0a87b153","ios":"levelo://app?vid=a1264a22-ef6f-42af-8ea0-201a0a87b153"},"vehicle_type_id":"4","last_reported":1760198998,"current_range_meters":16400,"station_id":"ce4bhbp2rcd13ifvqesg","pricing_plan_id":"cebpf4jnsgd1na2vs0mg"},{"bike_id":"41dc739f-58f4-4dc7-b927-aee021260951","system_id":"levelo_inurba_marseille","lat":43.25081,"lon":5.39518,"is_reserved":false,"is_disabled":false,"rental_uris":{"android":"levelo://app?vid=41dc739f-58f4-4dc7-b927-aee021260951","ios":"levelo://app?vid=41dc739f-58f4-4dc7-b927-aee021260951"},"vehicle_type_id":"4","last_reported":1760198998,"current_range_meters":16400,"station_id":"ce4bhm12rcd13ifvqgkg","pricing_plan_id":"cebpf4jnsgd1na2vs0mg"},{"bike_id":"a10dabe4-e9de-4ff3-9dc9-8a21e2d7ddb0","system_id":"levelo_inurba_marseille","lat":43.22923,"lon":5.35378,"is_reserved":false,"is_disabled":false,"rental_uris":{"android":"levelo://app?vid=a10dabe4-e9de-4ff3-9dc9-8a21e2d7ddb0","ios":"levelo://app?vid=a10dabe4-e9de-4ff3-9dc9-8a21e2d7ddb0"},"vehicle_type_id":"4","last_reported":1760198998,"current_range_meters":16400,"station_id":"cpo3532slgdg3j2ikp40","pricing_plan_id":"cebpf4jnsgd1na2vs0mg"},{"bike_id":"d24d197a-1bfe-482c-864f-0269fd41e835","system_id":"levelo_inurba_marseille","lat":43.30731,"lon":5.42453,"is_reserved":false,"is_disabled":false,"rental_uris":{"android":"levelo://app?vid=d24d197a-1bfe-482c-864f-0269fd41e835","ios":"levelo://app?vid=d24d197a-1bfe-482c-864f-0269fd41e835"},"vehicle_type_id":"4","last_reported":1760198998,"current_range_meters":16400,"station_id":"st_cvj6ca6bvosntc0bfgr0","pricing_plan_id":"cebpf4jnsgd1na2vs0mg"},{"bike_id":"90a7399f-67eb-4ed6-8265-2126a88abadc","system_id":"levelo_inurba_marseille","lat":43.22556,"lon":5.41648,"is_reserved":false,"is_disabled":false,"rental_uris":{"android":"levelo://app?vid=90a7399f-67eb-4ed6-8265-2126a88abadc","ios":"levelo://app?vid=90a7399f-67eb-4ed6-8265-2126a88abadc"},"vehicle_type_id":"4","last_reported":1760198998,"current_range_meters":16400,"station_id":"st_d2o4gvlbi1j2169b742g","pricing_plan_id":"cebpf4jnsgd1na2vs0mg"},{"bike_id":"3272e5cb-e544-4bac-866a-624239b9225a","system_id":"levelo_inurba_marseille","lat":43.217492,"lon":5.346061,"is_reserved":false,"is_disabled":false,"rental_uris":{"android":"levelo://app?vid=3272e5cb-e544-4bac-866a-624239b9225a","ios":"levelo://app?vid=3272e5cb-e544-4bac-866a-624239b9225a"},"vehicle_type_id":"4","last_reported":1760198998,"current_range_meters":16800,"station_id":"","pricing_plan_id":"cebpf4jnsgd1na2vs0mg"},{"bike_id":"7591e1b9-39da-4bb9-bfef-91d026a9b9cc","system_id":"levelo_inurba_marseille","lat":43.29029,"lon":5.35934,"is_reserved":false,"is_disabled":false,"rental_uris":{"android":"levelo://app?vid=7591e1b9-39da-4bb9-bfef-91d026a9b9cc","ios":"levelo://app?vid=7591e1b9-39da-4bb9-bfef-91d026a9b9cc"},"vehicle_type_id":"4","last_reported":1760198998,"current_range_meters":16800,"station_id":"ce4bha92rcd13ifvqeg0","pricing_plan_id":"cebpf4jnsgd1na2vs0mg"},{"bike_id":"40d70a86-fa16-4f1d-84ae-a1a2c7856a2a","system_id":"levelo_inurba_marseille","lat":43.28447,"lon":5.35898,"is_reserved":false,"is_disabled":false,"rental_uris":{"android":"levelo://app?vid=40d70a86-fa16-4f1d-84ae-a1a2c7856a2a","ios":"levelo://app?vid=40d70a86-fa16-4f1d-84ae-a1a2c7856a2a"},"vehicle_type_id":"4","last_reported":1760198998,"current_range_meters":16800,"station_id":"ce4bhah2rcd13ifvqei0","pricing_plan_id":"cebpf4jnsgd1na2vs0mg"},{"bike_id":"3e1027c4-0738-4190-8070-17ffebfb3f65","system_id":"levelo_inurba_marseille","lat":43.27828,"lon":5.39214,"is_reserved":false,"is_disabled":false,"rental_uris":{"android":"levelo://app?vid=3e1027c4-0738-4190-8070-17ffebfb3f65","ios":"levelo://app?vid=3e1027c4-0738-4190-8070-17ffebfb3f65"},"vehicle_type_id":"4","last_reported":1760198998,"current_range_meters":16800,"station_id":"ce4bhjp2rcd13ifvqga0","pricing_plan_id":"cebpf4jnsgd1na2vs0mg"},{"bike_id":"d3fee595-9b5c-4d0a-86f2-175eb2e56345","system_id":"levelo_inurba_marseille","lat":43.24141,"lon":5.36437,"is_reserved":false,"is_disabled":false,"rental_uris":{"android":"levelo://app?vid=d3fee595-9b5c-4d0a-86f2-175eb2e56345","ios":"levelo://app?vid=d3fee595-9b5c-4d0a-86f2-175eb2e56345"},"vehicle_type_id":"4","last_reported":1760198998,"current_range_meters":16800,"station_id":"cpo36qri1sfpv3e86is0","pricing_plan_id":"cebpf4jnsgd1na2vs0mg"},{"bike_id":"77c290c3-83a2-4f94-b3be-704d42cbad7a","system_id":"levelo_inurba_marseille","lat":43.32541,"lon":5.39038,"is_reserved":false,"is_disabled":false,"rental_uris":{"android":"levelo://app?vid=77c290c3-83a2-4f94-b3be-704d42cbad7a","ios":"levelo://app?vid=77c290c3-83a2-4f94-b3be-704d42cbad7a"},"vehicle_type_id":"4","last_reported":1760198998,"current_range_meters":17200,"station_id":"","pricing_plan_id":"cebpf4jnsgd1na2vs0mg"},{"bike_id":"174a2405-10b5-4183-8491-6ebc2a8b91b4","system_id":"levelo_inurba_marseille","lat":43.29686,"lon":5.37303,"is_reserved":false,"is_disabled":false,"rental_uris":{"android":"levelo://app?vid=174a2405-10b5-4183-8491-6ebc2a8b91b4","ios":"levelo://app?vid=174a2405-10b5-4183-8491-6ebc2a8b91b4"},"vehicle_type_id":"4","last_reported":1760198998,"current_range_meters":17200,"station_id":"ce4bgk12rcd13ifvqbj0","pricing_plan_id":"cebpf4jnsgd1na2vs0mg"},{"bike_id":"502aa0d6-40e9-4d07-9fc1-9b85ae0f20d4","system_id":"levelo_inurba_marseille","lat":43.27352,"lon":5.36254,"is_reserved":false,"is_disabled":false,"rental_uris":{"android":"levelo://app?vid=502aa0d6-40e9-4d07-9fc1-9b85ae0f20d4","ios":"levelo://app?vid=502aa0d6-40e9-4d07-9fc1-9b85ae0f20d4"},"vehicle_type_id":"4","last_reported":1760198998,"current_range_meters":17200,"station_id":"ce4bhbh2rcd13ifvqeo0","pricing_plan_id":"cebpf4jnsgd1na2vs0mg"},{"bike_id":"b4c5c968-c0a8-41ee-8871-82de7f4b944f","system_id":"levelo_inurba_marseille","lat":43.25335,"lon":5.42182,"is_reserved":false,"is_disabled":false,"rental_uris":{"android":"levelo://app?vid=b4c5c968-c0a8-41ee-8871-82de7f4b944f","ios":"levelo://app?vid=b4c5c968-c0a8-41ee-8871-82de7f4b944f"},"vehicle_type_id":"4","last_reported":1760198998,"current_range_meters":17200,"station_id":"st_d2m65c5bi1j21697t3ng","pricing_plan_id":"cebpf4jnsgd1na2vs0mg"},{"bike_id":"0d78d495-8f3a-4f1d-88a4-fd147b6f3fa8","system_id":"levelo_inurba_marseille","lat":43.298232,"lon":5.383023,"is_reserved":false,"is_disabled":false,"rental_uris":{"android":"levelo://app?vid=0d78d495-8f3a-4f1d-88a4-fd147b6f3fa8","ios":"levelo://app?vid=0d78d495-8f3a-4f1d-88a4-fd147b6f3fa8"},"vehicle_type_id":"4","last_reported":1760198998,"current_range_meters":17600,"station_id":"ce4bgj92rcd13ifvqbd0","pricing_plan_id":"cebpf4jnsgd1na2vs0mg"},{"bike_id":"b10d96bd-cfc0-4f48-ab6e-c4c72ef0cbc3","system_id":"levelo_inurba_marseille","lat":43.29747,"lon":5.37081,"is_reserved":false,"is_disabled":false,"rental_uris":{"android":"levelo://app?vid=b10d96bd-cfc0-4f48-ab6e-c4c72ef0cbc3","ios":"levelo://app?vid=b10d96bd-cfc0-4f48-ab6e-c4c72ef0cbc3"},"vehicle_type_id":"4","last_reported":1760198998,"current_range_meters":17600,"station_id":"ce4bgop2rcd13ifvqc1g","pricing_plan_id":"cebpf4jnsgd1na2vs0mg"},