{"last_updated":1739099183,"ttl":60,"version":"2.2","data":{"bikes":[{"bike_id":"2ef8dfb7-449b-4d36-b0ee-7a2f43b7224a","system_id":"levelo_inurba_marseille","lat":43.29003,"lon":5.35613,"is_reserved":false,"is_disabled":false,"rental_uris":{"android":"levelo://app?vid=2ef8dfb7-449b-4d36-b0ee-7a2f43b7224a","ios":"levelo://app?vid=2ef8dfb7-449b-4d36-b0ee-7a2f43b7224a"},"vehicle_type_id":"4","last_reported":1739099183,"current_range_meters":10000,"station_id":"ce4bhb92rcd13ifvqen0","pricing_plan_id":"cebpf4jnsgd1na2vs0mg"},{"bike_id":"8bf9c0d5-b42b-43f3-ac16-58c6303bc32c","system_id":"levelo_inurba_marseille","lat":43.27073,"lon":5.42273,"is_reserved":false,"is_disabled":false,"rental_uris":{"android":"levelo://app?vid=8bf9c0d5-b42b-43f3-ac16-58c6303bc32c","ios":"levelo://app?vid=8bf9c0d5-b42b-43f3-ac16-58c6303bc32c"},"vehicle_type_id":"4","last_reported":1739099183,"current_range_meters":16800,"station_id":"ce4bhk92rcd13ifvqgb0","pricing_plan_id":"cebpf4jnsgd1na2vs0mg"},{"bike_id":"24e6347d-30fc-429d-a054-000bdfd80c76","system_id":"levelo_inurba_marseille","lat":43.28343,"lon":5.35078,"is_reserved":false,"is_disabled":false,"rental_uris":{"android":"levelo://app?vid=24e6347d-30fc-429d-a054-000bdfd80c76","ios":"levelo://app?vid=24e6347d-30fc-429d-a054-000bdfd80c76"},"vehicle_type_id":"4","last_reported":1739099183,"current_range_meters":36000,"station_id":"ce4bhbp2rcd13ifvqerg","pricing_plan_id":"cebpf4jnsgd1na2vs0mg"},{"bike_id":"cfa7f1cc-5150-48ed-843c-f6960ddad1e1","system_id":"levelo_inurba_marseille","lat":43.26478,"lon":5.39583,"is_reserved":false,"is_disabled":true,"rental_uris":{"android":"levelo://app?vid=cfa7f1cc-5150-48ed-843c-f6960ddad1e1","ios":"levelo://app?vid=cfa7f1cc-5150-48ed-843c-f6960ddad1e1"},"vehicle_type_id":"4","last_reported":1739099183,"current_range_meters":9200,"station_id":"ce4bhi12rcd13ifvqfq0","pricing_plan_id":"cebpf4jnsgd1na2vs0mg"},{"bike_id":"fb0e234e-108f-4e2d-9520-e41bff530764","system_id":"levelo_inurba_marseille","lat":43.24661,"lon":5.38165,"is_reserved":false,"is_disabled":false,"rental_uris":{"android":"levelo://app?vid=fb0e234e-108f-4e2d-9520-e41bff530764","ios":"levelo://app?vid=fb0e234e-108f-4e2d-9520-e41bff530764"},"vehicle_type_id":"4","last_reported":1739099183,"current_range_meters":32000,"station_id":"ce4bhih2rcd13ifvqfr0","pricing_plan_id":"cebpf4jnsgd1na2vs0mg"},{"bike_id":"e06bad01-5d50-47d2-96c7-a75ef9dc120d","system_id":"levelo_inurba_marseille","lat":43.33763,"lon":5.37501,"is_reserved":false,"is_disabled":false,"rental_uris":{"android":"levelo://app?vid=e06bad01-5d50-47d2-96c7-a75ef9dc120d","ios":"levelo://app?vid=e06bad01-5d50-47d2-96c7-a75ef9dc120d"},"vehicle_type_id":"4","last_reported":1739099183,"current_range_meters":20800,"station_id":"","pricing_plan_id":"cebpf4jnsgd1na2vs0mg"},{"bike_id":"776aadf6-ee97-4be7-b948-331af9e9d054","system_id":"levelo_inurba_marseille","lat":43.25509,"lon":5.37666,"is_reserved":false,"is_disabled":false,"rental_uris":{"android":"levelo://app?vid=776aadf6-ee97-4be7-b948-331af9e9d054","ios":"levelo://app?vid=776aadf6-ee97-4be7-b948-331af9e9d054"},"vehicle_type_id":"4","last_reported":1739099183,"current_range_meters":16400,"station_id":"ce4bhh12rcd13ifvqff0","pricing_plan_id":"cebpf4jnsgd1na2vs0mg"},{"bike_id":"efa1ea89-c770-425f-828c-677d1cbffb23","system_id":"levelo_inurba_marseille","lat":43.33018,"lon":5.39046,"is_reserved":false,"is_disabled":false,"rental_uris":{"android":"levelo://app?vid=efa1ea89-c770-425f-828c-677d1cbffb23","ios":"levelo://app?vid=efa1ea89-c770-425f-828c-677d1cbffb23"},"vehicle_type_id":"4","last_reported":1739099183,"current_range_meters":38400,"station_id":"ce4bhr92rcd13ifvqhrg","pricing_plan_id":"cebpf4jnsgd1na2vs0mg"},{"bike_id":"9fea41fc-8f0f-48ab-9af0-fa75d6ad7f05","system_id":"levelo_inurba_marseille","lat":43.2958,"lon":5.3675,"is_reserved":false,"is_disabled":false,"rental_uris":{"android":"levelo://app?vid=9fea41fc-8f0f-48ab-9af0-fa75d6ad7f05","ios":"levelo://app?vid=9fea41fc-8f0f-48ab-9af0-fa75d6ad7f05"},"vehicle_type_id":"4","last_reported":1739099183,"current_range_meters":38400,"station_id":"ce4bgph2rcd13ifvqc2g","pricing_plan_id":"cebpf4jnsgd1na2vs0mg"},{"bike_id":"02885e4c-0570-440a-b28c-01f5b42e1196","system_id":"levelo_inurba_marseille","lat":43.28676,"lon":5.38671,"is_reserved":false,"is_disabled":false,"rental_uris":{"android":"levelo://app?vid=02885e4c-0570-440a-b28c-01f5b42e1196","ios":"levelo://app?vid=02885e4c-0570-440a-b28c-01f5b42e1196"},"vehicle_type_id":"4","last_reported":1739099183,"current_range_meters":29600,"station_id":"ce4bh492rcd13ifvqdug","pricing_plan_id":"cebpf4jnsgd1na2vs0mg"},{"bike_id":"952ab6ee-c71f-431a-a116-28c771dc3a24","system_id":"levelo_inurba_marseille","lat":43.27934,"lon":5.41047,"is_reserved":false,"is_disabled":true,"rental_uris":{"android":"levelo://app?vid=952ab6ee-c71f-431a-a116-28c771dc3a24","ios":"levelo://app?vid=952ab6ee-c71f-431a-a116-28c771dc3a24"},"vehicle_type_id":"4","last_reported":1739099183,"current_range_meters":0,"station_id":"ce4bhnp2rcd13ifvqh0g","pricing_plan_id":"cebpf4jnsgd1na2vs0mg"},{"bike_id":"9240ac61-cc12-4438-b9d5-ba7ba0baa7a9","system_id":"levelo_inurba_marseille","lat":43.26198,"lon":5.37456,"is_reserved":false,"is_disabled":false,"rental_uris":{"android":"levelo://app?vid=9240ac61-cc12-4438-b9d5-ba7ba0baa7a9","ios":"levelo://app?vid=9240ac61-cc12-4438-b9d5-ba7ba0baa7a9"},"vehicle_type_id":"4","last_reported":1739099183,"current_range_meters":16800,"station_id":"ce4bhgp2rcd13ifvqfc0","pricing_plan_id":"cebpf4jnsgd1na2vs0mg"},{"bike_id":"775acb38-5b67-40a7-8531-66c2f856ba4d","system_id":"levelo_inurba_marseille","lat":43.30138,"lon":5.38136,"is_reserved":false,"is_disabled":false,"rental_uris":{"android":"levelo://app?vid=775acb38-5b67-40a7-8531-66c2f856ba4d","ios":"levelo://app?vid=775acb38-5b67-40a7-8531-66c2f856ba4d"},"vehicle_type_id":"4","last_reported":1739099183,"current_range_meters":38800,"station_id":"ce4bgjp2rcd13ifvqbh0","pricing_plan_id":"cebpf4jnsgd1na2vs0mg"},{"bike_id":"1363bcc9-ac62-46aa-9a9a-4d66160c03ac","system_id":"levelo_inurba_marseille","lat":43.273227,"lon":5.391011,"is_reserved":false,"is_disabled":false,"rental_uris":{"android":"levelo://app?vid=1363bcc9-ac62-46aa-9a9a-4d66160c03ac","ios":"levelo://app?vid=1363bcc9-ac62-46aa-9a9a-4d66160c03ac"},"vehicle_type_id":"4","last_reported":1739099183,"current_range_meters":17200,"station_id":"ce4bhgp2rcd13ifvqfe0","pricing_plan_id":"cebpf4jnsgd1na2vs0mg"},{"bike_id":"c133f700-00d1-40af-bad1-d757380c5714","system_id":"levelo_inurba_marseille","lat":43.29555,"lon":5.37519,"is_reserved":false,"is_disabled":false,"rental_uris":{"android":"levelo://app?vid=c133f700-00d1-40af-bad1-d757380c5714","ios":"levelo://app?vid=c133f700-00d1-40af-bad1-d757380c5714"},"vehicle_type_id":"4","last_reported":1739099183,"current_range_meters":35600,"station_id":"ce4bgh92rcd13ifvqb50","pricing_plan_id":"cebpf4jnsgd1na2vs0mg"},{"bike_id":"36e53cc6-0052-4492-bb77-b33fe90983d1","system_id":"levelo_inurba_marseille","lat":43.28633,"lon":5.35112,"is_reserved":false,"is_disabled":false,"rental_uris":{"android":"levelo://app?vid=36e53cc6-0052-4492-bb77-b33fe90983d1","ios":"levelo://app?vid=36e53cc6-0052-4492-bb77-b33fe90983d1"},"vehicle_type_id":"4","last_reported":1739099183,"current_range_meters":30800,"station_id":"ce4bhch2rcd13ifvqeug","pricing_plan_id":"cebpf4jnsgd1na2vs0mg"},{"bike_id":"949ecb89-56e4-4c04-a100-83de2f0eaaf9","system_id":"levelo_inurba_marseille","lat":43.27827,"lon":5.40716,"is_reserved":false,"is_disabled":false,"rental_uris":{"android":"levelo://app?vid=949ecb89-56e4-4c04-a100-83de2f0eaaf9","ios":"levelo://app?vid=949ecb89-56e4-4c04-a100-83de2f0eaaf9"},"vehicle_type_id":"4","last_reported":1739099183,"current_range_meters":24800,"station_id":"ce4bhnh2rcd13ifvqgtg","pricing_plan_id":"cebpf4jnsgd1na2vs0mg"},{"bike_id":"6a3bf5dc-6406-4053-977a-019d33b4193c","system_id":"levelo_inurba_marseille","lat":43.28405,"lon":5.37519,"is_reserved":false,"is_disabled":false,"rental_uris":{"android":"levelo://app?vid=6a3bf5dc-6406-4053-977a-019d33b4193c","ios":"levelo://app?vid=6a3bf5dc-6406-4053-977a-019d33b4193c"},"vehicle_type_id":"4","last_reported":1739099183,"current_range_meters":26000,"station_id":"ce4bh412rcd13ifvqds0","pricing_plan_id":"cebpf4jnsgd1na2vs0mg"},{"bike_id":"733709f7-6f42-4b84-8112-92f567cc40da","system_id":"levelo_inurba_marseille","lat":43.24389,"lon":5.3706,"is_reserved":false,"is_disabled":false,"rental_uris":{"android":"levelo://app?vid=733709f7-6f42-4b84-8112-92f567cc40da","ios":"levelo://app?vid=733709f7-6f42-4b84-8112-92f567cc40da"},"vehicle_type_id":"4","last_reported":1739099183,"current_range_meters":38800,"station_id":"ce4bhhh2rcd13ifvqfk0","pricing_plan_id":"cebpf4jnsgd1na2vs0mg"},{"bike_id":"a92bc0c3-079a-47f0-99e6-d552134d15f5","system_id":"levelo_inurba_marseille","lat":43.27563,"lon":5.38436,"is_reserved":false,"is_disabled":false,"rental_uris":{"android":"levelo://app?vid=a92bc0c3-079a-47f0-99e6-d552134d15f5","ios":"levelo://app?vid=a92bc0c3-079a-47f0-99e6-d552134d15f5"},"vehicle_type_id":"4","last_reported":1739099183,"current_range_meters":31200,"station_id":"ce4bhh92rcd13ifvqfi0","pricing_plan_id":"cebpf4jnsgd1na2vs0mg"},{"bike_id":"0881c992-956c-45dc-964d-5f2bb6294fa8","system_id":"levelo_inurba_marseille","lat":43.29255,"lon":5.40911,"is_reserved":false,"is_disabled":false,"rental_uris":{"android":"levelo://app?vid=0881c992-956c-45dc-964d-5f2bb6294fa8","ios":"levelo://app?vid=0881c992-956c-45dc-964d-5f2bb6294fa8"},"vehicle_type_id":"4","last_reported":1739099183,"current_range_meters":26800,"station_id":"ce4bh192rcd13ifvqdc0","pricing_plan_id":"cebpf4jnsgd1na2vs0mg"},{"bike_id":"a65e3812-3af4-4c72-9d18-0396f18793b2","system_id":"levelo_inurba_marseille","lat":43.2909,"lon":5.38147,"is_reserved":false,"is_disabled":false,"rental_uris":{"android":"levelo://app?vid=a65e3812-3af4-4c72-9d18-0396f18793b2","ios":"levelo://app?vid=a65e3812-3af4-4c72-9d18-0396f18793b2"},"vehicle_type_id":"4","last_reported":1739099183,"current_range_meters":12000,"station_id":"ce4bh512rcd13ifvqe2g","pricing_plan_id":"cebpf4jnsgd1na2vs0mg"},{"bike_id":"cc5be222-f5b9-4564-8357-792e36ef3901","system_id":"levelo_inurba_marseille","lat":43.28035,"lon":5.36929,"is_reserved":false,"is_disabled":false,"rental_uris":{"android":"levelo://app?vid=cc5be222-f5b9-4564-8357-792e36ef3901","ios":"levelo://app?vid=cc5be222-f5b9-4564-8357-792e36ef3901"},"vehicle_type_id":"4","last_reported":1739099183,"current_range_meters":38800,"station_id":"ce4bha12rcd13ifvqef0","pricing_plan_id":"cebpf4jnsgd1na2vs0mg"},{"bike_id":"bf1166a6-6d02-4b59-a461-8ee8d9697ddf","system_id":"levelo_inurba_marseille","lat":43.23966,"lon":5.36634,"is_reserved":false,"is_disabled":false,"rental_uris":{"android":"levelo://app?vid=bf1166a6-6d02-4b59-a461-8ee8d9697ddf","ios":"levelo://app?vid=bf1166a6-6d02-4b59-a461-8ee8d9697ddf"},"vehicle_type_id":"4","last_reported":1739099183,"current_range_meters":8800,"station_id":"ce4bhi12rcd13ifvqfp0","pricing_plan_id":"cebpf4jnsgd1na2vs0mg"},{"bike_id":"52aabd94-16c3-4767-851e-218618077797","system_id":"levelo_inurba_marseille","lat":43.26216,"lon":5.37443,"is_reserved":false,"is_disabled":false,"rental_uris":{"android":"levelo://app?vid=52aabd94-16c3-4767-851e-218618077797","ios":"levelo://app?vid=52aabd94-16c3-4767-851e-218618077797"},"vehicle_type_id":"4","last_reported":1739099183,"current_range_meters":27200,"station_id":"ce4bhgp2rcd13ifvqfc0","pricing_plan_id":"cebpf4jnsgd1na2vs0mg"},{"bike_id":"308e7e9f-2306-4d78-bbab-1051d9656b65","system_id":"levelo_inurba_marseille","lat":43.30102,"lon":5.3907,"is_reserved":false,"is_disabled":false,"rental_uris":{"android":"levelo://app?vid=308e7e9f-2306-4d78-bbab-1051d9656b65","ios":"levelo://app?vid=308e7e9f-2306-4d78-bbab-1051d9656b65"},"vehicle_type_id":"4","last_reported":1739099183,"current_range_meters":38800,"station_id":"ce4bh192rcd13ifvqdb0","pricing_plan_id":"cebpf4jnsgd1na2vs0mg"},{"bike_id":"c7214087-f338-4aa0-87d4-4c782ee32a35","system_id":"levelo_inurba_marseille","lat":43.23971,"lon":5.36603,"is_reserved":false,"is_disabled":false,"rental_uris":{"android":"levelo://app?vid=c7214087-f338-4aa0-87d4-4c782ee32a35","ios":"levelo://app?vid=c7214087-f338-4aa0-87d4-4c782ee32a35"},"vehicle_type_id":"4","last_reported":1739099183,"current_range_meters":12400,"station_id":"ce4bhi12rcd13ifvqfp0","pricing_plan_id":"cebpf4jnsgd1na2vs0mg"},{"bike_id":"d25eec51-bb4e-43cd-9e78-510d5472253f","system_id":"levelo_inurba_marseille","lat":43.262153,"lon":5.374427,"is_reserved":false,"is_disabled":false,"rental_uris":{"android":"levelo://app?vid=d25eec51-bb4e-43cd-9e78-510d5472253f","ios":"levelo://app?vid=d25eec51-bb4e-43cd-9e78-510d5472253f"},"vehicle_type_id":"4","last_reported":1739099183,"current_range_meters":38000,"station_id":"ce4bhgp2rcd13ifvqfc0","pricing_plan_id":"cebpf4jnsgd1na2vs0mg"},{"bike_id":"f9534e4a-4130-40e0-bc85-697ecd330ef6","system_id":"levelo_inurba_marseille","lat":43.27665,"lon":5.38925,"is_reserved":false,"is_disabled":false,"rental_uris":{"android":"levelo://app?vid=f9534e4a-4130-40e0-bc85-697ecd330ef6","ios":"levelo://app?vid=f9534e4a-4130-40e0-bc85-697ecd330ef6"},"vehicle_type_id":"4","last_reported":1739099183,"current_range_meters":22000,"station_id":"ce4bhi12rcd13ifvqfo0","pricing_plan_id":"cebpf4jnsgd1na2vs0mg"},{"bike_id":"1b91739e-6bd2-4273-8c8f-c0534d5b551b","system_id":"levelo_inurba_marseille","lat":43.23954,"lon":5.36643,"is_reserved":false,"is_disabled":false,"rental_uris":{"android":"levelo://app?vid=1b91739e-6bd2-4273-8c8f-c0534d5b551b","ios":"levelo://app?vid=1b91739e-6bd2-4273-8c8f-c0534d5b551b"},"vehicle_type_id":"4","last_reported":1739099183,"current_range_meters":30000,"station_id":"ce4bhi12rcd13ifvqfp0","pricing_plan_id":"cebpf4jnsgd1na2vs0mg"},{"bike_id":"8055405a-4747-4bdd-94d4-2b5afab82475","system_id":"levelo_inurba_marseille","lat":43.28098,"lon":5.37846,"is_reserved":false,"is_disabled":false,"rental_uris":{"android":"levelo://app?vid=8055405a-4747-4bdd-94d4-2b5afab82475","ios":"levelo://app?vid=8055405a-4747-4bdd-94d4-2b5afab82475"},"vehicle_type_id":"4","last_reported":1739099183,"current_range_meters":17600,"station_id":"ce4bha12rcd13ifvqee0","pricing_plan_id":"cebpf4jnsgd1na2vs0mg"},{"bike_id":"131a231e-f87b-4a19-b215-3c107c31e242","system_id":"levelo_inurba_marseille","lat":43.27325,"lon":5.39127,"is_reserved":false,"is_disabled":false,"rental_uris":{"android":"levelo://app?vid=131a231e-f87b-4a19-b215-3c107c31e242","ios":"levelo://app?vid=131a231e-f87b-4a19-b215-3c107c31e242"},"vehicle_type_id":"4","last_reported":1739099183,"current_range_meters":27600,"station_id":"ce4bhgp2rcd13ifvqfe0","pricing_plan_id":"cebpf4jnsgd1na2vs0mg"},{"bike_id":"0597bfa8-ee9e-4242-964e-72f49e2e0cbe","system_id":"levelo_inurba_marseille","lat":43.246703,"lon":5.381677,"is_reserved":false,"is_disabled":false,"rental_uris":{"android":"levelo://app?vid=0597bfa8-ee9e-4242-964e-72f49e2e0cbe","ios":"levelo://app?vid=0597bfa8-ee9e-4242-964e-72f49e2e0cbe"},"vehicle_type_id":"4","last_reported":1739099183,"current_range_meters":23200,"station_id":"ce4bhih2rcd13ifvqfr0","pricing_plan_id":"cebpf4jnsgd1na2vs0mg"},{"bike_id":"2d6a2e4c-47bb-4bf8-8e22-1e9c987f8b16","system_id":"levelo_inurba_marseille","lat":43.23963,"lon":5.36638,"is_reserved":false,"is_disabled":false,"rental_uris":{"android":"levelo://app?vid=2d6a2e4c-47bb-4bf8-8e22-1e9c987f8b16","ios":"levelo://app?vid=2d6a2e4c-47bb-4bf8-8e22-1e9c987f8b16"},"vehicle_type_id":"4","last_reported":1739099183,"current_range_meters":8400,"station_id":"ce4bhi12rcd13ifvqfp0","pricing_plan_id":"cebpf4jnsgd1na2vs0mg"},{"bike_id":"a2983db2-57f5-45f5-a07b-73fdd37b216a","system_id":"levelo_inurba_marseille","lat":43.28947,"lon":5.39652,"is_reserved":false,"is_disabled":false,"rental_uris":{"android":"levelo://app?vid=a2983db2-57f5-45f5-a07b-73fdd37b216a","ios":"levelo://app?vid=a2983db2-57f5-45f5-a07b-73fdd37b216a"},"vehicle_type_id":"4","last_reported":1739099183,"current_range_meters":39200,"station_id":"ce4bh3h2rcd13ifvqdn0","pricing_plan_id":"cebpf4jnsgd1na2vs0mg"},{"bike_id":"d7d904c0-5527-4c72-83b3-94b2c37e9894","system_id":"levelo_inurba_marseille","lat":43.2905,"lon":5.37565,"is_reserved":false,"is_disabled":false,"rental_uris":{"android":"levelo://app?vid=d7d904c0-5527-4c72-83b3-94b2c37e9894","ios":"levelo://app?vid=d7d904c0-5527-4c72-83b3-94b2c37e9894"},"vehicle_type_id":"4","last_reported":1739099183,"current_range_meters":37600,"station_id":"ce4bh692rcd13ifvqe90","pricing_plan_id":"cebpf4jnsgd1na2vs0mg"},{"bike_id":"caf26979-fb1e-40fc-9542-2d73cd945194","system_id":"levelo_inurba_marseille","lat":43.29706,"lon":5.36608,"is_reserved":false,"is_disabled":false,"rental_uris":{"android":"levelo://app?vid=caf26979-fb1e-40fc-9542-2d73cd945194","ios":"levelo://app?vid=caf26979-fb1e-40fc-9542-2d73cd945194"},"vehicle_type_id":"4","last_reported":1739099183,"current_range_meters":10800,"station_id":"ce4bgn12rcd13ifvqbt0","pricing_plan_id":"cebpf4jnsgd1na2vs0mg"},{"bike_id":"098d220b-e449-43ea-8d6d-9fc78e0abad9","system_id":"levelo_inurba_marseille","lat":43.22939,"lon":5.35389,"is_reserved":false,"is_disabled":false,"rental_uris":{"android":"levelo://app?vid=098d220b-e449-43ea-8d6d-9fc78e0abad9","ios":"levelo://app?vid=098d220b-e449-43ea-8d6d-9fc78e0abad9"},"vehicle_type_id":"4","last_reported":1739099183,"current_range_meters":38800,"station_id":"cpo3532slgdg3j2ikp40","pricing_plan_id":"cebpf4jnsgd1na2vs0mg"},{"bike_id":"206b044f-638d-4c7a-aa69-bbee71179c84","system_id":"levelo_inurba_marseille","lat":43.293759,"lon":5.378518,"is_reserved":false,"is_disabled":false,"rental_uris":{"android":"levelo://app?vid=206b044f-638d-4c7a-aa69-bbee71179c84","ios":"levelo://app?vid=206b044f-638d-4c7a-aa69-bbee71179c84"},"vehicle_type_id":"4","last_reported":1739099183,"current_range_meters":38000,"station_id":"ce4bgjh2rcd13ifvqbf0","pricing_plan_id":"cebpf4jnsgd1na2vs0mg"},{"bike_id":"4c3a5556-2877-41e3-9d68-d0a7aefc4a25","system_id":"levelo_inurba_marseille","lat":43.28848,"lon":5.35849,"is_reserved":false,"is_disabled":false,"rental_uris":{"android":"levelo://app?vid=4c3a5556-2877-41e3-9d68-d0a7aefc4a25","ios":"levelo://app?vid=4c3a5556-2877-41e3-9d68-d0a7aefc4a25"},"vehicle_type_id":"4","last_reported":1739099183,"current_range_meters":25600,"station_id":"ce4bhb12rcd13ifvqem0","pricing_plan_id":"cebpf4jnsgd1na2vs0mg"},{"bike_id":"95bd51bd-5381-4a28-97f2-0d193431cc21","system_id":"levelo_inurba_marseille","lat":43.23198,"lon":5.35557,"is_reserved":false,"is_disabled":false,"rental_uris":{"android":"levelo://app?vid=95bd51bd-5381-4a28-97f2-0d193431cc21","ios":"levelo://app?vid=95bd51bd-5381-4a28-97f2-0d193431cc21"},"vehicle_type_id":"4","last_reported":1739099183,"current_range_meters":36400,"station_id":"ce4bhu92rcd13ifvqi70","pricing_plan_id":"cebpf4jnsgd1na2vs0mg"},{"bike_id":"dc1d5d63-0266-4839-a0aa-d76689b4b2af","system_id":"levelo_inurba_marseille","lat":43.30593,"lon":5.39335,"is_reserved":false,"is_disabled":false,"rental_uris":{"android":"levelo://app?vid=dc1d5d63-0266-4839-a0aa-d76689b4b2af","ios":"levelo://app?vid=dc1d5d63-0266-4839-a0aa-d76689b4b2af"},"vehicle_type_id":"4","last_reported":1739099183,"current_range_meters":37600,"station_id":"ce4bh0p2rcd13ifvqd80","pricing_plan_id":"cebpf4jnsgd1na2vs0mg"},{"bike_id":"109d8d07-d605-45c4-912d-3e7b38f9a9ae","system_id":"levelo_inurba_marseille","lat":43.24158,"lon":5.36427,"is_reserved":false,"is_disabled":false,"rental_uris":{"android":"levelo://app?vid=109d8d07-d605-45c4-912d-3e7b38f9a9ae","ios":"levelo://app?vid=109d8d07-d605-45c4-912d-3e7b38f9a9ae"},"vehicle_type_id":"4","last_reported":1739099183,"current_range_meters":9200,"station_id":"cpo36qri1sfpv3e86is0","pricing_plan_id":"cebpf4jnsgd1na2vs0mg"},{"bike_id":"25942210-cb49-4e7b-986a-27edd939ad3b","system_id":"levelo_inurba_marseille","lat":43.2901,"lon":5.35618,"is_reserved":false,"is_disabled":false,"rental_uris":{"android":"levelo://app?vid=25942210-cb49-4e7b-986a-27edd939ad3b","ios":"levelo://app?vid=25942210-cb49-4e7b-986a-27edd939ad3b"},"vehicle_type_id":"4","last_reported":1739099183,"current_range_meters":38800,"station_id":"ce4bhb92rcd13ifvqen0","pricing_plan_id":"cebpf4jnsgd1na2vs0mg"},{"bike_id":"5d4ac7fc-9d88-42d2-aaf3-12467577f9a3","system_id":"levelo_inurba_marseille","lat":43.30165,"lon":5.38079,"is_reserved":false,"is_disabled":false,"rental_uris":{"android":"levelo://app?vid=5d4ac7fc-9d88-42d2-aaf3-12467577f9a3","ios":"levelo://app?vid=5d4ac7fc-9d88-42d2-aaf3-12467577f9a3"},"vehicle_type_id":"4","last_reported":1739099183,"current_range_meters":30800,"station_id":"ce4bgjp2rcd13ifvqbh0","pricing_plan_id":"cebpf4jnsgd1na2vs0mg"},{"bike_id":"2ebd233c-fd15-4f13-9700-c155c053523f","system_id":"levelo_inurba_marseille","lat":43.25927,"lon":5.40908,"is_reserved":false,"is_disabled":true,"rental_uris":{"android":"levelo://app?vid=2ebd233c-fd15-4f13-9700-c155c053523f","ios":"levelo://app?vid=2ebd233c-fd15-4f13-9700-c155c053523f"},"vehicle_type_id":"4","last_reported":1739099183,"current_range_meters":18800,"station_id":"ce4bhm92rcd13ifvqglg","pricing_plan_id":"cebpf4jnsgd1na2vs0mg"},{"bike_id":"bccbcbc8-09ad-4dc6-8c95-f509f9e31fe0","system_id":"levelo_inurba_marseille","lat":43.30157,"lon":5.38085,"is_reserved":false,"is_disabled":false,"rental_uris":{"android":"levelo://app?vid=bccbcbc8-09ad-4dc6-8c95-f509f9e31fe0","ios":"levelo://app?vid=bccbcbc8-09ad-4dc6-8c95-f509f9e31fe0"},"vehicle_type_id":"4","last_reported":1739099183,"current_range_meters":30800,"station_id":"ce4bgjp2rcd13ifvqbh0","pricing_plan_id":"cebpf4jnsgd1na2vs0mg"},{"bike_id":"72f6a7d8-c0ca-44fd-a513-cd0cbc69419f","system_id":"levelo_inurba_marseille","lat":43.30145,"lon":5.38085,"is_reserved":false,"is_disabled":false,"rental_uris":{"android":"levelo://app?vid=72f6a7d8-c0ca-44fd-a513-cd0cbc69419f","ios":"levelo://app?vid=72f6a7d8-c0ca-44fd-a513-cd0cbc69419f"},"vehicle_type_id":"4","last_reported":1739099183,"current_range_meters":11600,"station_id":"ce4bgjp2rcd13ifvqbh0","pricing_plan_id":"cebpf4jnsgd1na2vs0mg"},{"bike_id":"578610f3-4953-4a37-ac19-cd0bad477923","system_id":"levelo_inurba_marseille","lat":43.3133,"lon":5.39708,"is_reserved":false,"is_disabled":false,"rental_uris":{"android":"levelo://app?vid=578610f3-4953-4a37-ac19-cd0bad477923","ios":"levelo://app?vid=578610f3-4953-4a37-ac19-cd0bad477923"},"vehicle_type_id":"4","last_reported":1739099183,"current_range_meters":26800,"station_id":"ce4bgvp2rcd13ifvqcu0","pricing_plan_id":"cebpf4jnsgd1na2vs0mg"},{"bike_id":"8fdc9d99-5dd6-46ed-933b-a92898878e61","system_id":"levelo_inurba_marseille","lat":43.28093,"lon":5.37875,"is_reserved":false,"is_disabled":false,"rental_uris":{"android":"levelo://app?vid=8fdc9d99-5dd6-46ed-933b-a92898878e61","ios":"levelo://app?vid=8fdc9d99-5dd6-46ed-933b-a92898878e61"},"vehicle_type_id":"4","last_reported":1739099183,"current_range_meters":38800,"station_id":"ce4bha12rcd13ifvqee0","pricing_plan_id":"cebpf4jnsgd1na2vs0mg"},{"bike_id":"c13ae62e-d5d6-4d3f-b979-0be4fe4644ed","system_id":"levelo_inurba_marseille","lat":43.24678,"lon":5.38252,"is_reserved":false,"is_disabled":false,"rental_uris":{"android":"levelo://app?vid=c13ae62e-d5d6-4d3f-b979-0be4fe4644ed","ios":"levelo://app?vid=c13ae62e-d5d6-4d3f-b979-0be4fe4644ed"},"vehicle_type_id":"4","last_reported":1739099183,"current_range_meters":16000,"station_id":"","pricing_plan_id":"cebpf4jnsgd1na2vs0mg"},{"bike_id":"52903de9-70f0-4e1d-962c-f2dd54b59ea4","system_id":"levelo_inurba_marseille","lat":43.28742,"lon":5.36079,"is_reserved":false,"is_disabled":false,"rental_uris":{"android":"levelo://app?vid=52903de9-70f0-4e1d-962c-f2dd54b59ea4","ios":"levelo://app?vid=52903de9-70f0-4e1d-962c-f2dd54b59ea4"},"vehicle_type_id":"4","last_reported":1739099183,"current_range_meters":28400,"station_id":"cki0cbj6b192h4jlfktg","pricing_plan_id":"cebpf4jnsgd1na2vs0mg"},{"bike_id":"ad65b870-ac22-4fa5-8029-aaf2f9eb51b4","system_id":"levelo_inurba_marseille","lat":43.31189,"lon":5.3872,"is_reserved":false,"is_disabled":false,"rental_uris":{"android":"levelo://app?vid=ad65b870-ac22-4fa5-8029-aaf2f9eb51b4","ios":"levelo://app?vid=ad65b870-ac22-4fa5-8029-aaf2f9eb51b4"},"vehicle_type_id":"4","last_reported":1739099183,"current_range_meters":24800,"station_id":"ce4bgv12rcd13ifvqcp0","pricing_plan_id":"cebpf4jnsgd1na2vs0mg"},{"bike_id":"a5a002b6-a257-47c5-aa17-011a49f423c9","system_id":"levelo_inurba_marseille","lat":43.25595,"lon":5.38246,"is_reserved":false,"is_disabled":false,"rental_uris":{"android":"levelo://app?vid=a5a002b6-a257-47c5-aa17-011a49f423c9","ios":"levelo://app?vid=a5a002b6-a257-47c5-aa17-011a49f423c9"},"vehicle_type_id":"4","last_reported":1739099183,"current_range_meters":26000,"station_id":"ce4bhih2rcd13ifvqfs0","pricing_plan_id":"cebpf4jnsgd1na2vs0mg"},{"bike_id":"1d9b9c9d-363a-40b7-904e-bb37859e7849","system_id":"levelo_inurba_marseille","lat":43.24826,"lon":5.37482,"is_reserved":false,"is_disabled":false,"rental_uris":{"android":"levelo://app?vid=1d9b9c9d-363a-40b7-904e-bb37859e7849","ios":"levelo://app?vid=1d9b9c9d-363a-40b7-904e-bb37859e7849"},"vehicle_type_id":"4","last_reported":1739099183,"current_range_meters":24400,"station_id":"ce4bhgh2rcd13ifvqfb0","pricing_plan_id":"cebpf4jnsgd1na2vs0mg"},{"bike_id":"0e21fd9b-c8ed-40f7-93de-fef88c8b1a35","system_id":"levelo_inurba_marseille","lat":43.23057,"lon":5.3549,"is_reserved":false,"is_disabled":false,"rental_uris":{"android":"levelo://app?vid=0e21fd9b-c8ed-40f7-93de-fef88c8b1a35","ios":"levelo://app?vid=0e21fd9b-c8ed-40f7-93de-fef88c8b1a35"},"vehicle_type_id":"4","last_reported":1739099183,"current_range_meters":37600,"station_id":"cpo3342slgdg3j2ifvpg","pricing_plan_id":"cebpf4jnsgd1na2vs0mg"},{"bike_id":"21d898ed-92c5-464c-963a-ac66ea2225fd","system_id":"levelo_inurba_marseille","lat":43.28627,"lon":5.35115,"is_reserved":false,"is_disabled":false,"rental_uris":{"android":"levelo://app?vid=21d898ed-92c5-464c-963a-ac66ea2225fd","ios":"levelo://app?vid=21d898ed-92c5-464c-963a-ac66ea2225fd"},"vehicle_type_id":"4","last_reported":1739099183,"current_range_meters":28400,"station_id":"ce4bhch2rcd13ifvqeug","pricing_plan_id":"cebpf4jnsgd1na2vs0mg"},{"bike_id":"652880d3-6089-44a2-b53d-3fc4c09aa90c","system_id":"levelo_inurba_marseille","lat":43.30951,"lon":5.39045,"is_reserved":false,"is_disabled":false,"rental_uris":{"android":"levelo://app?vid=652880d3-6089-44a2-b53d-3fc4c09aa90c","ios":"levelo://app?vid=652880d3-6089-44a2-b53d-3fc4c09aa90c"},"vehicle_type_id":"4","last_reported":1739099183,"current_range_meters":26800,"station_id":"ce4bgup2rcd13ifvqco0","pricing_plan_id":"cebpf4jnsgd1na2vs0mg"},{"bike_id":"89912e32-c5f0-448f-82d2-e236e4d6d653","system_id":"levelo_inurba_marseille","lat":43.282633,"lon":5.407791,"is_reserved":false,"is_disabled":true,"rental_uris":{"android":"levelo://app?vid=89912e32-c5f0-448f-82d2-e236e4d6d653","ios":"levelo://app?vid=89912e32-c5f0-448f-82d2-e236e4d6d653"},"vehicle_type_id":"4","last_reported":1739099183,"current_range_meters":0,"station_id":"","pricing_plan_id":"cebpf4jnsgd1na2vs0mg"},{"bike_id":"5ff61b63-fd14-4e6e-aa58-5308ae1d22a2","system_id":"levelo_inurba_marseille","lat":43.2408,"lon":5.37773,"is_reserved":false,"is_disabled":false,"rental_uris":{"android":"levelo://app?vid=5ff61b63-fd14-4e6e-aa58-5308ae1d22a2","ios":"levelo://app?vid=5ff61b63-fd14-4e6e-aa58-5308ae1d22a2"},"vehicle_type_id":"4","last_reported":1739099183,"current_range_meters":24800,"station_id":"ce4bhnp2rcd13ifvqgvg","pricing_plan_id":"cebpf4jnsgd1na2vs0mg"},{"bike_id":"e7e14db6-3bef-453a-aab6-06ade3cdd6b0","system_id":"levelo_inurba_marseille","lat":43.24398,"lon":5.44107,"is_reserved":false,"is_disabled":true,"rental_uris":{"android":"levelo://app?vid=e7e14db6-3bef-453a-aab6-06ade3cdd6b0","ios":"levelo://app?vid=e7e14db6-3bef-453a-aab6-06ade3cdd6b0"},"vehicle_type_id":"4","last_reported":1739099183,"current_range_meters":0,"station_id":"","pricing_plan_id":"cebpf4jnsgd1na2vs0mg"},{"bike_id":"4e9646e0-6c3b-45ca-9914-a10da368c879","system_id":"levelo_inurba_marseille","lat":43.28928,"lon":5.39638,"is_reserved":false,"is_disabled":false,"rental_uris":{"android":"levelo://app?vid=4e9646e0-6c3b-45ca-9914-a10da368c879","ios":"levelo://app?vid=4e9646e0-6c3b-45ca-9914-a10da368c879"},"vehicle_type_id":"4","last_reported":1739099183,"current_range_meters":36800,"station_id":"ce4bh3h2rcd13ifvqdn0","pricing_plan_id":"cebpf4jnsgd1na2vs0mg"},{"bike_id":"fb5a704f-a51b-458c-a6e9-f5586a789b94","system_id":"levelo_inurba_marseille","lat":43.24174,"lon":5.36393,"is_reserved":false,"is_disabled":false,"rental_uris":{"android":"levelo://app?vid=fb5a704f-a51b-458c-a6e9-f5586a789b94","ios":"levelo://app?vid=fb5a704f-a51b-458c-a6e9-f5586a789b94"},"vehicle_type_id":"4","last_reported":1739099183,"current_range_meters":34000,"station_id":"cpo36qri1sfpv3e86is0","pricing_plan_id":"cebpf4jnsgd1na2vs0mg"},{"bike_id":"ec1fc395-8ce7-4960-968b-a938a8fa5732","system_id":"levelo_inurba_marseille","lat":43.28005,"lon":5.40023,"is_reserved":false,"is_disabled":false,"rental_uris":{"android":"levelo://app?vid=ec1fc395-8ce7-4960-968b-a938a8fa5732","ios":"levelo://app?vid=ec1fc395-8ce7-4960-968b-a938a8fa5732"},"vehicle_type_id":"4","last_reported":1739099183,"current_range_meters":38400,"station_id":"ce4bho92rcd13ifvqh4g","pricing_plan_id":"cebpf4jnsgd1na2vs0mg"},{"bike_id":"f70f2ac8-da3c-437b-8f17-f32eeff7c27a","system_id":"levelo_inurba_marseille","lat":43.25114,"lon":5.40325,"is_reserved":false,"is_disabled":false,"rental_uris":{"android":"levelo://app?vid=f70f2ac8-da3c-437b-8f17-f32eeff7c27a","ios":"levelo://app?vid=f70f2ac8-da3c-437b-8f17-f32eeff7c27a"},"vehicle_type_id":"4","last_reported":1739099183,"current_range_meters":38800,"station_id":"ce4bhlh2rcd13ifvqgig","pricing_plan_id":"cebpf4jnsgd1na2vs0mg"},{"bike_id":"147722c3-0911-44c3-99c1-cde171d99e82","system_id":"levelo_inurba_marseille","lat":43.28137,"lon":5.42679,"is_reserved":false,"is_disabled":false,"rental_uris":{"android":"levelo://app?vid=147722c3-0911-44c3-99c1-cde171d99e82","ios":"levelo://app?vid=147722c3-0911-44c3-99c1-cde171d99e82"},"vehicle_type_id":"4","last_reported":1739099183,"current_range_meters":39200,"station_id":"ce4bhnh2rcd13ifvqgug","pricing_plan_id":"cebpf4jnsgd1na2vs0mg"},{"bike_id":"bdf73315-d426-483d-8b94-311a6c5dde17","system_id":"levelo_inurba_marseille","lat":43.28448,"lon":5.35892,"is_reserved":false,"is_disabled":false,"rental_uris":{"android":"levelo://app?vid=bdf73315-d426-483d-8b94-311a6c5dde17","ios":"levelo://app?vid=bdf73315-d426-483d-8b94-311a6c5dde17"},"vehicle_type_id":"4","last_reported":1739099183,"current_range_meters":28800,"station_id":"ce4bhah2rcd13ifvqei0","pricing_plan_id":"cebpf4jnsgd1na2vs0mg"},{"bike_id":"ab54e2d0-4c2c-486a-84c7-811ed9008ddc","system_id":"levelo_inurba_marseille","lat":43.27968,"lon":5.42382,"is_reserved":false,"is_disabled":true,"rental_uris":{"android":"levelo://app?vid=ab54e2d0-4c2c-486a-84c7-811ed9008ddc","ios":"levelo://app?vid=ab54e2d0-4c2c-486a-84c7-811ed9008ddc"},"vehicle_type_id":"4","last_reported":1739099183,"current_range_meters":0,"station_id":"","pricing_plan_id":"cebpf4jnsgd1na2vs0mg"},{"bike_id":"04e9976f-fc67-4b3f-9a5f-08268a5eb49c","system_id":"levelo_inurba_marseille","lat":43.29421,"lon":5.38615,"is_reserved":false,"is_disabled":true,"rental_uris":{"android":"levelo://app?vid=04e9976f-fc67-4b3f-9a5f-08268a5eb49c","ios":"levelo://app?vid=04e9976f-fc67-4b3f-9a5f-08268a5eb49c"},"vehicle_type_id":"4","last_reported":1739099183,"current_range_meters":36800,"station_id":"ce4bh2h2rcd13ifvqdh0","pricing_plan_id":"cebpf4jnsgd1na2vs0mg"},{"bike_id":"c446fe99-7ab5-4250-9743-1aee425c6247","system_id":"levelo_inurba_marseille","lat":43.255731,"lon":5.382449,"is_reserved":false,"is_disabled":false,"rental_uris":{"android":"levelo://app?vid=c446fe99-7ab5-4250-9743-1aee425c6247","ios":"levelo://app?vid=c446fe99-7ab5-4250-9743-1aee425c6247"},"vehicle_type_id":"4","last_reported":1739099183,"current_range_meters":25600,"station_id":"ce4bhih2rcd13ifvqfs0","pricing_plan_id":"cebpf4jnsgd1na2vs0mg"},{"bike_id":"c68163ed-9542-4ac1-a2e7-7b48ec52b60f","system_id":"levelo_inurba_marseille","lat":43.2905,"lon":5.39971,"is_reserved":false,"is_disabled":true,"rental_uris":{"android":"levelo://app?vid=c68163ed-9542-4ac1-a2e7-7b48ec52b60f","ios":"levelo://app?vid=c68163ed-9542-4ac1-a2e7-7b48ec52b60f"},"vehicle_type_id":"4","last_reported":1739099183,"current_range_meters":38800,"station_id":"ce4bh392rcd13ifvqdm0","pricing_plan_id":"cebpf4jnsgd1na2vs0mg"},{"bike_id":"b5135d91-2dbc-4326-bda2-20e06e74cbe2","system_id":"levelo_inurba_marseille","lat":43.29584,"lon":5.37026,"is_reserved":false,"is_disabled":false,"rental_uris":{"android":"levelo://app?vid=b5135d91-2dbc-4326-bda2-20e06e74cbe2","ios":"levelo://app?vid=b5135d91-2dbc-4326-bda2-20e06e74cbe2"},"vehicle_type_id":"4","last_reported":1739099183,"current_range_meters":16800,"station_id":"","pricing_plan_id":"cebpf4jnsgd1na2vs0mg"},{"bike_id":"6835673f-f138-4499-8bdd-83c3f3bccf33","system_id":"levelo_inurba_marseille","lat":43.27995,"lon":5.40013,"is_reserved":false,"is_disabled":false,"rental_uris":{"android":"levelo://app?vid=6835673f-f138-4499-8bdd-83c3f3bccf33","ios":"levelo://app?vid=6835673f-f138-4499-8bdd-83c3f3bccf33"},"vehicle_type_id":"4","last_reported":1739099183,"current_range_meters":30000,"station_id":"ce4bho92rcd13ifvqh4g","pricing_plan_id":"cebpf4jnsgd1na2vs0mg"},{"bike_id":"bb1bab95-412e-41ba-879a-c483b6ec0924","system_id":"levelo_inurba_marseille","lat":43.27825,"lon":5.40735,"is_reserved":false,"is_disabled":false,"rental_uris":{"android":"levelo://app?vid=bb1bab95-412e-41ba-879a-c483b6ec0924","ios":"levelo://app?vid=bb1bab95-412e-41ba-879a-c483b6ec0924"},"vehicle_type_id":"4","last_reported":1739099183,"current_range_meters":9200,"station_id":"ce4bhnh2rcd13ifvqgtg","pricing_plan_id":"cebpf4jnsgd1na2vs0mg"},{"bike_id":"6e358927-ff7d-49ba-8b74-937ec069bd4e","system_id":"levelo_inurba_marseille","lat":43.2862,"lon":5.351037,"is_reserved":false,"is_disabled":false,"rental_uris":{"android":"levelo://app?vid=6e358927-ff7d-49ba-8b74-937ec069bd4e","ios":"levelo://app?vid=6e358927-ff7d-49ba-8b74-937ec069bd4e"},"vehicle_type_id":"4","last_reported":1739099183,"current_range_meters":16800,"station_id":"ce4bhch2rcd13ifvqeug","pricing_plan_id":"cebpf4jnsgd1na2vs0mg"},{"bike_id":"6a58dd11-a579-4519-84ef-72d462a0e689","system_id":"levelo_inurba_marseille","lat":43.32639,"lon":5.42886,"is_reserved":false,"is_disabled":false,"rental_uris":{"android":"levelo://app?vid=6a58dd11-a579-4519-84ef-72d462a0e689","ios":"levelo://app?vid=6a58dd11-a579-4519-84ef-72d462a0e689"},"vehicle_type_id":"4","last_reported":1739099183,"current_range_meters":16400,"station_id":"","pricing_plan_id":"cebpf4jnsgd1na2vs0mg"},{"bike_id":"9ee17cc6-94b6-42f9-a180-22e25ec3ed8d","system_id":"levelo_inurba_marseille","lat":43.28672,"lon":5.37419,"is_reserved":false,"is_disabled":true,"rental_uris":{"android":"levelo://app?vid=9ee17cc6-94b6-42f9-a180-22e25ec3ed8d","ios":"levelo://app?vid=9ee17cc6-94b6-42f9-a180-22e25ec3ed8d"},"vehicle_type_id":"4","last_reported":1739099183,"current_range_meters":8800,"station_id":"ce4bh3p2rcd13ifvqdq0","pricing_plan_id":"cebpf4jnsgd1na2vs0mg"},{"bike_id":"a56ddd66-7610-4b94-beb2-83224404b398","system_id":"levelo_inurba_marseille","lat":43.32096,"lon":5.36779,"is_reserved":false,"is_disabled":false,"rental_uris":{"android":"levelo://app?vid=a56ddd66-7610-4b94-beb2-83224404b398","ios":"levelo://app?vid=a56ddd66-7610-4b94-beb2-83224404b398"},"vehicle_type_id":"4","last_reported":1739099183,"current_range_meters":36800,"station_id":"ce4bhrh2rcd13ifvqhug","pricing_plan_id":"cebpf4jnsgd1na2vs0mg"},{"bike_id":"e8b7cbed-fad1-419f-9c2a-669ed36174e5","system_id":"levelo_inurba_marseille","lat":43.29709,"lon":5.36605,"is_reserved":false,"is_disabled":false,"rental_uris":{"android":"levelo://app?vid=e8b7cbed-fad1-419f-9c2a-669ed36174e5","ios":"levelo://app?vid=e8b7cbed-fad1-419f-9c2a-669ed36174e5"},"vehicle_type_id":"4","last_reported":1739099183,"current_range_meters":36000,"station_id":"ce4bgn12rcd13ifvqbt0","pricing_plan_id":"cebpf4jnsgd1na2vs0mg"},{"bike_id":"6e55f6b2-de3d-41aa-9621-b9d4915806e6","system_id":"levelo_inurba_marseille","lat":43.28262,"lon":5.35085,"is_reserved":false,"is_disabled":false,"rental_uris":{"android":"levelo://app?vid=6e55f6b2-de3d-41aa-9621-b9d4915806e6","ios":"levelo://app?vid=6e55f6b2-de3d-41aa-9621-b9d4915806e6"},"vehicle_type_id":"4","last_reported":1739099183,"current_range_meters":31200,"station_id":"ce4bhbp2rcd13ifvqerg","pricing_plan_id":"cebpf4jnsgd1na2vs0mg"},{"bike_id":"8a40a25e-fc04-4da9-b673-03dd2dfe96fe","system_id":"levelo_inurba_marseille","lat":43.29597,"lon":5.37731,"is_reserved":false,"is_disabled":false,"rental_uris":{"android":"levelo://app?vid=8a40a25e-fc04-4da9-b673-03dd2dfe96fe","ios":"levelo://app?vid=8a40a25e-fc04-4da9-b673-03dd2dfe96fe"},"vehicle_type_id":"4","last_reported":1739099183,"current_range_meters":24000,"station_id":"ce4bgi92rcd13ifvqb90","pricing_plan_id":"cebpf4jnsgd1na2vs0mg"},{"bike_id":"c7e188dc-da0a-41c9-a6f2-335dbe6c5b96","system_id":"levelo_inurba_marseille","lat":43.3029,"lon":5.37707,"is_reserved":false,"is_disabled":false,"rental_uris":{"android":"levelo://app?vid=c7e188dc-da0a-41c9-a6f2-335dbe6c5b96","ios":"levelo://app?vid=c7e188dc-da0a-41c9-a6f2-335dbe6c5b96"},"vehicle_type_id":"4","last_reported":1739099183,"current_range_meters":39200,"station_id":"ce4bguh2rcd13ifvqcj0","pricing_plan_id":"cebpf4jnsgd1na2vs0mg"},{"bike_id":"3a65fc29-93a4-4cee-83b1-5cde57756a15","system_id":"levelo_inurba_marseille","lat":43.30447,"lon":5.38895,"is_reserved":false,"is_disabled":false,"rental_uris":{"android":"levelo://app?vid=3a65fc29-93a4-4cee-83b1-5cde57756a15","ios":"levelo://app?vid=3a65fc29-93a4-4cee-83b1-5cde57756a15"},"vehicle_type_id":"4","last_reported":1739099183,"current_range_meters":24000,"station_id":"ce4bgk12rcd13ifvqbi0","pricing_plan_id":"cebpf4jnsgd1na2vs0mg"},{"bike_id":"187375a2-49e4-46d1-b02c-429ac3db4d24","system_id":"levelo_inurba_marseille","lat":43.28624,"lon":5.35105,"is_reserved":false,"is_disabled":false,"rental_uris":{"android":"levelo://app?vid=187375a2-49e4-46d1-b02c-429ac3db4d24","ios":"levelo://app?vid=187375a2-49e4-46d1-b02c-429ac3db4d24"},"vehicle_type_id":"4","last_reported":1739099183,"current_range_meters":24000,"station_id":"ce4bhch2rcd13ifvqeug","pricing_plan_id":"cebpf4jnsgd1na2vs0mg"},{"bike_id":"3d54c931-f1b9-42ec-be28-13d06ff7ef2d","system_id":"levelo_inurba_marseille","lat":43.30465,"lon":5.37903,"is_reserved":false,"is_disabled":false,"rental_uris":{"android":"levelo://app?vid=3d54c931-f1b9-42ec-be28-13d06ff7ef2d","ios":"levelo://app?vid=3d54c931-f1b9-42ec-be28-13d06ff7ef2d"},"vehicle_type_id":"4","last_reported":1739099183,"current_range_meters":32000,"station_id":"ce4bgup2rcd13ifvqcn0","pricing_plan_id":"cebpf4jnsgd1na2vs0mg"},{"bike_id":"0ccae692-16fa-48e3-88e0-236b5491d838","system_id":"levelo_inurba_marseille","lat":43.33741,"lon":5.39184,"is_reserved":false,"is_disabled":false,"rental_uris":{"android":"levelo://app?vid=0ccae692-16fa-48e3-88e0-236b5491d838","ios":"levelo://app?vid=0ccae692-16fa-48e3-88e0-236b5491d838"},"vehicle_type_id":"4","last_reported":1739099183,"current_range_meters":39200,"station_id":"ce4bhr92rcd13ifvqhsg","pricing_plan_id":"cebpf4jnsgd1na2vs0mg"},{"bike_id":"03127104-dbef-4fb7-847b-45c5ae7bd92c","system_id":"levelo_inurba_marseille","lat":43.29634,"lon":5.37733,"is_reserved":false,"is_disabled":false,"rental_uris":{"android":"levelo://app?vid=03127104-dbef-4fb7-847b-45c5ae7bd92c","ios":"levelo://app?vid=03127104-dbef-4fb7-847b-45c5ae7bd92c"},"vehicle_type_id":"4","last_reported":1739099183,"current_range_meters":38800,"station_id":"ce4bgi92rcd13ifvqb90","pricing_plan_id":"cebpf4jnsgd1na2vs0mg"},{"bike_id":"c5b8b027-9bf6-441c-a68a-dc9052c14d78","system_id":"levelo_inurba_marseille","lat":43.25581,"lon":5.3824,"is_reserved":false,"is_disabled":false,"rental_uris":{"android":"levelo://app?vid=c5b8b027-9bf6-441c-a68a-dc9052c14d78","ios":"levelo://app?vid=c5b8b027-9bf6-441c-a68a-dc9052c14d78"},"vehicle_type_id":"4","last_reported":1739099183,"current_range_meters":14800,"station_id":"ce4bhih2rcd13ifvqfs0","pricing_plan_id":"cebpf4jnsgd1na2vs0mg"},{"bike_id":"fb4ff991-8c44-4e6e-9881-23d19b1c7472","system_id":"levelo_inurba_marseille","lat":43.290906,"lon":5.38162,"is_reserved":false,"is_disabled":true,"rental_uris":{"android":"levelo://app?vid=fb4ff991-8c44-4e6e-9881-23d19b1c7472","ios":"levelo://app?vid=fb4ff991-8c44-4e6e-9881-23d19b1c7472"},"vehicle_type_id":"4","last_reported":1739099183,"current_range_meters":36400,"station_id":"ce4bh512rcd13ifvqe2g","pricing_plan_id":"cebpf4jnsgd1na2vs0mg"},{"bike_id":"11462a5d-f3b5-4ed0-8ffe-90ff24433c8c","system_id":"levelo_inurba_marseille","lat":43.28424,"lon":5.34998,"is_reserved":false,"is_disabled":false,"rental_uris":{"android":"levelo://app?vid=11462a5d-f3b5-4ed0-8ffe-90ff24433c8c","ios":"levelo://app?vid=11462a5d-f3b5-4ed0-8ffe-90ff24433c8c"},"vehicle_type_id":"4","last_reported":1739099183,"current_range_meters":26000,"station_id":"ce4bhbh2rcd13ifvqepg","pricing_plan_id":"cebpf4jnsgd1na2vs0mg"},{"bike_id":"4ea65507-c4f0-4c9c-a767-be14f8eb7447","system_id":"levelo_inurba_marseille","lat":43.26564,"lon":5.39002,"is_reserved":false,"is_disabled":false,"rental_uris":{"android":"levelo://app?vid=4ea65507-c4f0-4c9c-a767-be14f8eb7447","ios":"levelo://app?vid=4ea65507-c4f0-4c9c-a767-be14f8eb7447"},"vehicle_type_id":"4","last_reported":1739099183,"current_range_meters":4800,"station_id":"ce4bhe12rcd13ifvqf30","pricing_plan_id":"cebpf4jnsgd1na2vs0mg"},{"bike_id":"5bc71d75-3593-48b6-a39c-852caefe1c85","system_id":"levelo_inurba_marseille","lat":43.26959,"lon":5.38649,"is_reserved":false,"is_disabled":false,"rental_uris":{"android":"levelo://app?vid=5bc71d75-3593-48b6-a39c-852caefe1c85","ios":"levelo://app?vid=5bc71d75-3593-48b6-a39c-852caefe1c85"},"vehicle_type_id":"4","last_reported":1739099183,"current_range_meters":24800,"station_id":"ce4bhh92rcd13ifvqfh0","pricing_plan_id":"cebpf4jnsgd1na2vs0mg"},{"bike_id":"a60e0149-b2cd-40e8-a6bd-b908b9c256f5","system_id":"levelo_inurba_marseille","lat":43.30885,"lon":5.37224,"is_reserved":false,"is_disabled":false,"rental_uris":{"android":"levelo://app?vid=a60e0149-b2cd-40e8-a6bd-b908b9c256f5","ios":"levelo://app?vid=a60e0149-b2cd-40e8-a6bd-b908b9c256f5"},"vehicle_type_id":"4","last_reported":1739099183,"current_range_meters":34000,"station_id":"ce4bguh2rcd13ifvqckg","pricing_plan_id":"cebpf4jnsgd1na2vs0mg"},{"bike_id":"0e83b365-6dc2-4bd3-a9f0-472f67dc989e","system_id":"levelo_inurba_marseille","lat":43.25012,"lon":5.38942,"is_reserved":false,"is_disabled":false,"rental_uris":{"android":"levelo://app?vid=0e83b365-6dc2-4bd3-a9f0-472f67dc989e","ios":"levelo://app?vid=0e83b365-6dc2-4bd3-a9f0-472f67dc989e"},"vehicle_type_id":"4","last_reported":1739099183,"current_range_meters":39200,"station_id":"ce4bhgp2rcd13ifvqfd0","pricing_plan_id":"cebpf4jnsgd1na2vs0mg"},{"bike_id":"63b09487-3010-48f9-b813-aca39be39b57","system_id":"levelo_inurba_marseille","lat":43.30095,"lon":5.39076,"is_reserved":false,"is_disabled":false,"rental_uris":{"android":"levelo://app?vid=63b09487-3010-48f9-b813-aca39be39b57","ios":"levelo://app?vid=63b09487-3010-48f9-b813-aca39be39b57"},"vehicle_type_id":"4","last_reported":1739099183,"current_range_meters":36800,"station_id":"ce4bh192rcd13ifvqdb0","pricing_plan_id":"cebpf4jnsgd1na2vs0mg"},{"bike_id":"115e0a04-50fe-4da0-98ee-5c0ef3c534f4","system_id":"levelo_inurba_marseille","lat":43.33017,"lon":5.39047,"is_reserved":false,"is_disabled":false,"rental_uris":{"android":"levelo://app?vid=115e0a04-50fe-4da0-98ee-5c0ef3c534f4","ios":"levelo://app?vid=115e0a04-50fe-4da0-98ee-5c0ef3c534f4"},"vehicle_type_id":"4","last_reported":1739099183,"current_range_meters":31200,"station_id":"ce4bhr92rcd13ifvqhrg","pricing_plan_id":"cebpf4jnsgd1na2vs0mg"},{"bike_id":"f67b7531-6c63-4f46-a9d4-4fdf588facb0","system_id":"levelo_inurba_marseille","lat":43.27849,"lon":5.40627,"is_reserved":false,"is_disabled":true,"rental_uris":{"android":"levelo://app?vid=f67b7531-6c63-4f46-a9d4-4fdf588facb0","ios":"levelo://app?vid=f67b7531-6c63-4f46-a9d4-4fdf588facb0"},"vehicle_type_id":"4","last_reported":1739099183,"current_range_meters":0,"station_id":"","pricing_plan_id":"cebpf4jnsgd1na2vs0mg"},{"bike_id":"d38e1351-0981-41a1-b916-8c998fcd8dc2","system_id":"levelo_inurba_marseille","lat":43.29616,"lon":5.37726,"is_reserved":false,"is_disabled":false,"rental_uris":{"android":"levelo://app?vid=d38e1351-0981-41a1-b916-8c998fcd8dc2","ios":"levelo://app?vid=d38e1351-0981-41a1-b916-8c998fcd8dc2"},"vehicle_type_id":"4","last_reported":1739099183,"current_range_meters":27600,"station_id":"ce4bgi92rcd13ifvqb90","pricing_plan_id":"cebpf4jnsgd1na2vs0mg"},{"bike_id":"d826f169-0bc7-4d7a-8732-dfdd4f78ef10","system_id":"levelo_inurba_marseille","lat":43.27312,"lon":5.39057,"is_reserved":false,"is_disabled":false,"rental_uris":{"android":"levelo://app?vid=d826f169-0bc7-4d7a-8732-dfdd4f78ef10","ios":"levelo://app?vid=d826f169-0bc7-4d7a-8732-dfdd4f78ef10"},"vehicle_type_id":"4","last_reported":1739099183,"current_range_meters":11600,"station_id":"ce4bhgp2rcd13ifvqfe0","pricing_plan_id":"cebpf4jnsgd1na2vs0mg"},{"bike_id":"38962009-02c5-40d7-9344-84c48cce0928","system_id":"levelo_inurba_marseille","lat":43.31715,"lon":5.42426,"is_reserved":false,"is_disabled":false,"rental_uris":{"android":"levelo://app?vid=38962009-02c5-40d7-9344-84c48cce0928","ios":"levelo://app?vid=38962009-02c5-40d7-9344-84c48cce0928"},"vehicle_type_id":"4","last_reported":1739099183,"current_range_meters":38000,"station_id":"ce4bhp92rcd13ifvqhbg","pricing_plan_id":"cebpf4jnsgd1na2vs0mg"},{"bike_id":"a1ff6a73-36b2-4a61-a88f-8f0cc16371c7","system_id":"levelo_inurba_marseille","lat":43.2622,"lon":5.40459,"is_reserved":false,"is_disabled":false,"rental_uris":{"android":"levelo://app?vid=a1ff6a73-36b2-4a61-a88f-8f0cc16371c7","ios":"levelo://app?vid=a1ff6a73-36b2-4a61-a88f-8f0cc16371c7"},"vehicle_type_id":"4","last_reported":1739099183,"current_range_meters":28800,"station_id":"ce4bhmh2rcd13ifvqgmg","pricing_plan_id":"cebpf4jnsgd1na2vs0mg"},{"bike_id":"74dda318-1b0b-46a6-82cc-20741b70a914","system_id":"levelo_inurba_marseille","lat":43.29318,"lon":5.37469,"is_reserved":false,"is_disabled":true,"rental_uris":{"android":"levelo://app?vid=74dda318-1b0b-46a6-82cc-20741b70a914","ios":"levelo://app?vid=74dda318-1b0b-46a6-82cc-20741b70a914"},"vehicle_type_id":"4","last_reported":1739099183,"current_range_meters":22000,"station_id":"ce4bgi12rcd13ifvqb70","pricing_plan_id":"cebpf4jnsgd1na2vs0mg"},{"bike_id":"0e75785b-82b4-4902-8f0e-4f618ec92fa0","system_id":"levelo_inurba_marseille","lat":43.29728,"lon":5.37687,"is_reserved":false,"is_disabled":false,"rental_uris":{"android":"levelo://app?vid=0e75785b-82b4-4902-8f0e-4f618ec92fa0","ios":"levelo://app?vid=0e75785b-82b4-4902-8f0e-4f618ec92fa0"},"vehicle_type_id":"4","last_reported":1739099183,"current_range_meters":30000,"station_id":"ce4bgkh2rcd13ifvqbl0","pricing_plan_id":"cebpf4jnsgd1na2vs0mg"},{"bike_id":"40b221ed-8398-44a6-9294-97ea8af9ebdc","system_id":"levelo_inurba_marseille","lat":43.280311,"lon":5.369496,"is_reserved":false,"is_disabled":false,"rental_uris":{"android":"levelo://app?vid=40b221ed-8398-44a6-9294-97ea8af9ebdc","ios":"levelo://app?vid=40b221ed-8398-44a6-9294-97ea8af9ebdc"},"vehicle_type_id":"4","last_reported":1739099183,"current_range_meters":28800,"station_id":"ce4bha12rcd13ifvqef0","pricing_plan_id":"cebpf4jnsgd1na2vs0mg"},{"bike_id":"62ed429f-bc38-4ecb-a65e-11fd982f0273","system_id":"levelo_inurba_marseille","lat":43.29083,"lon":5.40018,"is_reserved":false,"is_disabled":false,"rental_uris":{"android":"levelo://app?vid=62ed429f-bc38-4ecb-a65e-11fd982f0273","ios":"levelo://app?vid=62ed429f-bc38-4ecb-a65e-11fd982f0273"},"vehicle_type_id":"4","last_reported":1739099183,"current_range_meters":38800,"station_id":"ce4bh392rcd13ifvqdm0","pricing_plan_id":"cebpf4jnsgd1na2vs0mg"},{"bike_id":"eeb1626b-d9a7-4181-8530-ac28fa96e047","system_id":"levelo_inurba_marseille","lat":43.29031,"lon":5.35918,"is_reserved":false,"is_disabled":false,"rental_uris":{"android":"levelo://app?vid=eeb1626b-d9a7-4181-8530-ac28fa96e047","ios":"levelo://app?vid=eeb1626b-d9a7-4181-8530-ac28fa96e047"},"vehicle_type_id":"4","last_reported":1739099183,"current_range_meters":32000,"station_id":"ce4bha92rcd13ifvqeg0","pricing_plan_id":"cebpf4jnsgd1na2vs0mg"},{"bike_id":"5c7479b7-7263-4b4c-a3b1-0d7fb0f411f8","system_id":"levelo_inurba_marseille","lat":43.30308,"lon":5.40449,"is_reserved":false,"is_disabled":true,"rental_uris":{"android":"levelo://app?vid=5c7479b7-7263-4b4c-a3b1-0d7fb0f411f8","ios":"levelo://app?vid=5c7479b7-7263-4b4c-a3b1-0d7fb0f411f8"},"vehicle_type_id":"4","last_reported":1739099183,"current_range_meters":37600,"station_id":"ce4bh012rcd13ifvqd10","pricing_plan_id":"cebpf4jnsgd1na2vs0mg"},{"bike_id":"23644462-c1de-4e99-a2e9-4d0c9cf86788","system_id":"levelo_inurba_marseille","lat":43.31243,"lon":5.36881,"is_reserved":false,"is_disabled":false,"rental_uris":{"android":"levelo://app?vid=23644462-c1de-4e99-a2e9-4d0c9cf86788","ios":"levelo://app?vid=23644462-c1de-4e99-a2e9-4d0c9cf86788"},"vehicle_type_id":"4","last_reported":1739099183,"current_range_meters":30800,"station_id":"ce4bgl92rcd13ifvqbq0","pricing_plan_id":"cebpf4jnsgd1na2vs0mg"},{"bike_id":"343ebb60-bf1d-48dd-867d-86d5a3c5f765","system_id":"levelo_inurba_marseille","lat":43.23477,"lon":5.35951,"is_reserved":false,"is_disabled":false,"rental_uris":{"android":"levelo://app?vid=343ebb60-bf1d-48dd-867d-86d5a3c5f765","ios":"levelo://app?vid=343ebb60-bf1d-48dd-867d-86d5a3c5f765"},"vehicle_type_id":"4","last_reported":1739099183,"current_range_meters":9200,"station_id":"","pricing_plan_id":"cebpf4jnsgd1na2vs0mg"},{"bike_id":"0e5fc241-ef0a-4d14-ac93-bf9811280961","system_id":"levelo_inurba_marseille","lat":43.2989,"lon":5.43661,"is_reserved":false,"is_disabled":false,"rental_uris":{"android":"levelo://app?vid=0e5fc241-ef0a-4d14-ac93-bf9811280961","ios":"levelo://app?vid=0e5fc241-ef0a-4d14-ac93-bf9811280961"},"vehicle_type_id":"4","last_reported":1739099183,"current_range_meters":22400,"station_id":"ce4bhpp2rcd13ifvqhfg","pricing_plan_id":"cebpf4jnsgd1na2vs0mg"},{"bike_id":"328f0fee-14df-4fdb-9b48-360d557747e5","system_id":"levelo_inurba_marseille","lat":43.26026,"lon":5.3754,"is_reserved":false,"is_disabled":false,"rental_uris":{"android":"levelo://app?vid=328f0fee-14df-4fdb-9b48-360d557747e5","ios":"levelo://app?vid=328f0fee-14df-4fdb-9b48-360d557747e5"},"vehicle_type_id":"4","last_reported":1739099183,"current_range_meters":38800,"station_id":"ce4bhgh2rcd13ifvqfa0","pricing_plan_id":"cebpf4jnsgd1na2vs0mg"},{"bike_id":"6ba0b9c0-c8c1-471b-80f3-1b962f084541","system_id":"levelo_inurba_marseille","lat":43.27168,"lon":5.40996,"is_reserved":false,"is_disabled":false,"rental_uris":{"android":"levelo://app?vid=6ba0b9c0-c8c1-471b-80f3-1b962f084541","ios":"levelo://app?vid=6ba0b9c0-c8c1-471b-80f3-1b962f084541"},"vehicle_type_id":"4","last_reported":1739099183,"current_range_meters":38800,"station_id":"ce4bhl12rcd13ifvqgf0","pricing_plan_id":"cebpf4jnsgd1na2vs0mg"},{"bike_id":"22669ad6-c05b-49c6-864d-bb442ac14c15","system_id":"levelo_inurba_marseille","lat":43.25937,"lon":5.40904,"is_reserved":false,"is_disabled":false,"rental_uris":{"android":"levelo://app?vid=22669ad6-c05b-49c6-864d-bb442ac14c15","ios":"levelo://app?vid=22669ad6-c05b-49c6-864d-bb442ac14c15"},"vehicle_type_id":"4","last_reported":1739099183,"current_range_meters":30400,"station_id":"ce4bhm92rcd13ifvqglg","pricing_plan_id":"cebpf4jnsgd1na2vs0mg"},{"bike_id":"22219a69-ff6e-4128-9c66-6e0ba4f7f3c6","system_id":"levelo_inurba_marseille","lat":43.261933,"lon":5.379141,"is_reserved":false,"is_disabled":false,"rental_uris":{"android":"levelo://app?vid=22219a69-ff6e-4128-9c66-6e0ba4f7f3c6","ios":"levelo://app?vid=22219a69-ff6e-4128-9c66-6e0ba4f7f3c6"},"vehicle_type_id":"4","last_reported":1739099183,"current_range_meters":38400,"station_id":"ce4bhjp2rcd13ifvqg90","pricing_plan_id":"cebpf4jnsgd1na2vs0mg"},{"bike_id":"d65f63cc-0642-4df2-b1d3-b11f204a36a0","system_id":"levelo_inurba_marseille","lat":43.30168,"lon":5.38085,"is_reserved":false,"is_disabled":false,"rental_uris":{"android":"levelo://app?vid=d65f63cc-0642-4df2-b1d3-b11f204a36a0","ios":"levelo://app?vid=d65f63cc-0642-4df2-b1d3-b11f204a36a0"},"vehicle_type_id":"4","last_reported":1739099183,"current_range_meters":21600,"station_id":"ce4bgjp2rcd13ifvqbh0","pricing_plan_id":"cebpf4jnsgd1na2vs0mg"},{"bike_id":"fd755175-d7c8-48c5-bf20-9d16df1e4ce3","system_id":"levelo_inurba_marseille","lat":43.27222,"lon":5.39203,"is_reserved":false,"is_disabled":false,"rental_uris":{"android":"levelo://app?vid=fd755175-d7c8-48c5-bf20-9d16df1e4ce3","ios":"levelo://app?vid=fd755175-d7c8-48c5-bf20-9d16df1e4ce3"},"vehicle_type_id":"4","last_reported":1739099183,"current_range_meters":24800,"station_id":"ce4bhhp2rcd13ifvqfm0","pricing_plan_id":"cebpf4jnsgd1na2vs0mg"},{"bike_id":"c6fc4b4a-5347-4905-8d96-67ea4d004656","system_id":"levelo_inurba_marseille","lat":43.232071,"lon":5.355527,"is_reserved":false,"is_disabled":false,"rental_uris":{"android":"levelo://app?vid=c6fc4b4a-5347-4905-8d96-67ea4d004656","ios":"levelo://app?vid=c6fc4b4a-5347-4905-8d96-67ea4d004656"},"vehicle_type_id":"4","last_reported":1739099183,"current_range_meters":38800,"station_id":"ce4bhu92rcd13ifvqi70","pricing_plan_id":"cebpf4jnsgd1na2vs0mg"},{"bike_id":"1da8b17b-ad28-4780-a711-431647c244ed","system_id":"levelo_inurba_marseille","lat":43.23961,"lon":5.36637,"is_reserved":false,"is_disabled":false,"rental_uris":{"android":"levelo://app?vid=1da8b17b-ad28-4780-a711-431647c244ed","ios":"levelo://app?vid=1da8b17b-ad28-4780-a711-431647c244ed"},"vehicle_type_id":"4","last_reported":1739099183,"current_range_meters":20400,"station_id":"ce4bhi12rcd13ifvqfp0","pricing_plan_id":"cebpf4jnsgd1na2vs0mg"},{"bike_id":"9d005683-89ff-4caa-a8bd-42bb516c0a8a","system_id":"levelo_inurba_marseille","lat":43.291973,"lon":5.358048,"is_reserved":false,"is_disabled":false,"rental_uris":{"android":"levelo://app?vid=9d005683-89ff-4caa-a8bd-42bb516c0a8a","ios":"levelo://app?vid=9d005683-89ff-4caa-a8bd-42bb516c0a8a"},"vehicle_type_id":"4","last_reported":1739099183,"current_range_meters":38800,"station_id":"ce4bhb12rcd13ifvqel0","pricing_plan_id":"cebpf4jnsgd1na2vs0mg"},{"bike_id":"1806c99f-c085-4b23-b3e3-043c34aef6b9","system_id":"levelo_inurba_marseille","lat":43.29005,"lon":5.3561,"is_reserved":false,"is_disabled":false,"rental_uris":{"android":"levelo://app?vid=1806c99f-c085-4b23-b3e3-043c34aef6b9","ios":"levelo://app?vid=1806c99f-c085-4b23-b3e3-043c34aef6b9"},"vehicle_type_id":"4","last_reported":1739099183,"current_range_meters":2800,"station_id":"ce4bhb92rcd13ifvqen0","pricing_plan_id":"cebpf4jnsgd1na2vs0mg"},{"bike_id":"f78952aa-a1e4-42f8-b5d2-31338580d315","system_id":"levelo_inurba_marseille","lat":43.23966,"lon":5.36669,"is_reserved":false,"is_disabled":false,"rental_uris":{"android":"levelo://app?vid=f78952aa-a1e4-42f8-b5d2-31338580d315","ios":"levelo://app?vid=f78952aa-a1e4-42f8-b5d2-31338580d315"},"vehicle_type_id":"4","last_reported":1739099183,"current_range_meters":12000,"station_id":"ce4bhi12rcd13ifvqfp0","pricing_plan_id":"cebpf4jnsgd1na2vs0mg"},{"bike_id":"985ea620-1838-4cc4-9f45-6622855b2de9","system_id":"levelo_inurba_marseille","lat":43.279926,"lon":5.400145,"is_reserved":false,"is_disabled":false,"rental_uris":{"android":"levelo://app?vid=985ea620-1838-4cc4-9f45-6622855b2de9","ios":"levelo://app?vid=985ea620-1838-4cc4-9f45-6622855b2de9"},"vehicle_type_id":"4","last_reported":1739099183,"current_range_meters":38400,"station_id":"ce4bho92rcd13ifvqh4g","pricing_plan_id":"cebpf4jnsgd1na2vs0mg"},{"bike_id":"7880198b-ce4e-4bd0-84ba-222a67ce022e","system_id":"levelo_inurba_marseille","lat":43.2847,"lon":5.35898,"is_reserved":false,"is_disabled":false,"rental_uris":{"android":"levelo://app?vid=7880198b-ce4e-4bd0-84ba-222a67ce022e","ios":"levelo://app?vid=7880198b-ce4e-4bd0-84ba-222a67ce022e"},"vehicle_type_id":"4","last_reported":1739099183,"current_range_meters":35200,"station_id":"ce4bhah2rcd13ifvqei0","pricing_plan_id":"cebpf4jnsgd1na2vs0mg"},{"bike_id":"e897fb4c-c9e2-42ca-8ce0-bf3216e4eddd","system_id":"levelo_inurba_marseille","lat":43.26483,"lon":5.39558,"is_reserved":false,"is_disabled":false,"rental_uris":{"android":"levelo://app?vid=e897fb4c-c9e2-42ca-8ce0-bf3216e4eddd","ios":"levelo://app?vid=e897fb4c-c9e2-42ca-8ce0-bf3216e4eddd"},"vehicle_type_id":"4","last_reported":1739099183,"current_range_meters":26000,"station_id":"ce4bhi12rcd13ifvqfq0","pricing_plan_id":"cebpf4jnsgd1na2vs0mg"},{"bike_id":"44c009d3-c0dc-4027-abdf-110ade9a1957","system_id":"levelo_inurba_marseille","lat":43.330237,"lon":5.390487,"is_reserved":false,"is_disabled":false,"rental_uris":{"android":"levelo://app?vid=44c009d3-c0dc-4027-abdf-110ade9a1957","ios":"levelo://app?vid=44c009d3-c0dc-4027-abdf-110ade9a1957"},"vehicle_type_id":"4","last_reported":1739099183,"current_range_meters":38000,"station_id":"ce4bhr92rcd13ifvqhrg","pricing_plan_id":"cebpf4jnsgd1na2vs0mg"},{"bike_id":"28ec708f-b9d6-4f04-ab7e-a6ccbf662666","system_id":"levelo_inurba_marseille","lat":43.26501,"lon":5.39551,"is_reserved":false,"is_disabled":false,"rental_uris":{"android":"levelo://app?vid=28ec708f-b9d6-4f04-ab7e-a6ccbf662666","ios":"levelo://app?vid=28ec708f-b9d6-4f04-ab7e-a6ccbf662666"},"vehicle_type_id":"4","last_reported":1739099183,"current_range_meters":39200,"station_id":"ce4bhi12rcd13ifvqfq0","pricing_plan_id":"cebpf4jnsgd1na2vs0mg"},{"bike_id":"c8467e20-c52a-4fa4-90f2-f69c646cb59f","system_id":"levelo_inurba_marseille","lat":43.30792,"lon":5.4352,"is_reserved":false,"is_disabled":false,"rental_uris":{"android":"levelo://app?vid=c8467e20-c52a-4fa4-90f2-f69c646cb59f","ios":"levelo://app?vid=c8467e20-c52a-4fa4-90f2-f69c646cb59f"},"vehicle_type_id":"4","last_reported":1739099183,"current_range_meters":25200,"station_id":"ce4bhph2rcd13ifvqheg","pricing_plan_id":"cebpf4jnsgd1na2vs0mg"},{"bike_id":"8e23ca53-8441-437b-83d1-b66bbe688f88","system_id":"levelo_inurba_marseille","lat":43.26802,"lon":5.40259,"is_reserved":false,"is_disabled":false,"rental_uris":{"android":"levelo://app?vid=8e23ca53-8441-437b-83d1-b66bbe688f88","ios":"levelo://app?vid=8e23ca53-8441-437b-83d1-b66bbe688f88"},"vehicle_type_id":"4","last_reported":1739099183,"current_range_meters":28800,"station_id":"ce501612rcd8frsf0b60","pricing_plan_id":"cebpf4jnsgd1na2vs0mg"},{"bike_id":"2ceac124-3981-41ba-88bd-6e918853c153","system_id":"levelo_inurba_marseille","lat":43.2505,"lon":5.38937,"is_reserved":false,"is_disabled":false,"rental_uris":{"android":"levelo://app?vid=2ceac124-3981-41ba-88bd-6e918853c153","ios":"levelo://app?vid=2ceac124-3981-41ba-88bd-6e918853c153"},"vehicle_type_id":"4","last_reported":1739099183,"current_range_meters":39200,"station_id":"ce4bhgp2rcd13ifvqfd0","pricing_plan_id":"cebpf4jnsgd1na2vs0mg"},{"bike_id":"922d539c-2364-4390-af5c-92a5adedf8a7","system_id":"levelo_inurba_marseille","lat":43.29445,"lon":5.39765,"is_reserved":false,"is_disabled":false,"rental_uris":{"android":"levelo://app?vid=922d539c-2364-4390-af5c-92a5adedf8a7","ios":"levelo://app?vid=922d539c-2364-4390-af5c-92a5adedf8a7"},"vehicle_type_id":"4","last_reported":1739099183,"current_range_meters":38800,"station_id":"ce4bh3h2rcd13ifvqdo0","pricing_plan_id":"cebpf4jnsgd1na2vs0mg"},{"bike_id":"a1f64f90-e56a-49b9-83ba-17043a1b4274","system_id":"levelo_inurba_marseille","lat":43.26678,"lon":5.38268,"is_reserved":false,"is_disabled":false,"rental_uris":{"android":"levelo://app?vid=a1f64f90-e56a-49b9-83ba-17043a1b4274","ios":"levelo://app?vid=a1f64f90-e56a-49b9-83ba-17043a1b4274"},"vehicle_type_id":"4","last_reported":1739099183,"current_range_meters":38000,"station_id":"ce4bhg92rcd13ifvqf90","pricing_plan_id":"cebpf4jnsgd1na2vs0mg"},{"bike_id":"5c3e58d0-3647-4d94-8959-cff21bd78632","system_id":"levelo_inurba_marseille","lat":43.29712,"lon":5.36611,"is_reserved":false,"is_disabled":false,"rental_uris":{"android":"levelo://app?vid=5c3e58d0-3647-4d94-8959-cff21bd78632","ios":"levelo://app?vid=5c3e58d0-3647-4d94-8959-cff21bd78632"},"vehicle_type_id":"4","last_reported":1739099183,"current_range_meters":38400,"station_id":"ce4bgn12rcd13ifvqbt0","pricing_plan_id":"cebpf4jnsgd1na2vs0mg"},{"bike_id":"afd073ab-b7d7-4d06-a610-4d1b18b5fb42","system_id":"levelo_inurba_marseille","lat":43.27684,"lon":5.38935,"is_reserved":false,"is_disabled":false,"rental_uris":{"android":"levelo://app?vid=afd073ab-b7d7-4d06-a610-4d1b18b5fb42","ios":"levelo://app?vid=afd073ab-b7d7-4d06-a610-4d1b18b5fb42"},"vehicle_type_id":"4","last_reported":1739099183,"current_range_meters":38800,"station_id":"ce4bhi12rcd13ifvqfo0","pricing_plan_id":"cebpf4jnsgd1na2vs0mg"},{"bike_id":"fd7f60dd-1b52-46f9-9b6b-de4b0fe7477f","system_id":"levelo_inurba_marseille","lat":43.27072,"lon":5.42283,"is_reserved":false,"is_disabled":true,"rental_uris":{"android":"levelo://app?vid=fd7f60dd-1b52-46f9-9b6b-de4b0fe7477f","ios":"levelo://app?vid=fd7f60dd-1b52-46f9-9b6b-de4b0fe7477f"},"vehicle_type_id":"4","last_reported":1739099183,"current_range_meters":34800,"station_id":"ce4bhk92rcd13ifvqgb0","pricing_plan_id":"cebpf4jnsgd1na2vs0mg"},{"bike_id":"71af4c3a-fa26-4039-9ee7-f5d24e009142","system_id":"levelo_inurba_marseille","lat":43.24805,"lon":5.3746,"is_reserved":false,"is_disabled":false,"rental_uris":{"android":"levelo://app?vid=71af4c3a-fa26-4039-9ee7-f5d24e009142","ios":"levelo://app?vid=71af4c3a-fa26-4039-9ee7-f5d24e009142"},"vehicle_type_id":"4","last_reported":1739099183,"current_range_meters":38800,"station_id":"ce4bhgh2rcd13ifvqfb0","pricing_plan_id":"cebpf4jnsgd1na2vs0mg"},{"bike_id":"7ddeb316-b0d2-41ea-b02e-39ebdfbf48bb","system_id":"levelo_inurba_marseille","lat":43.30532,"lon":5.36562,"is_reserved":false,"is_disabled":false,"rental_uris":{"android":"levelo://app?vid=7ddeb316-b0d2-41ea-b02e-39ebdfbf48bb","ios":"levelo://app?vid=7ddeb316-b0d2-41ea-b02e-39ebdfbf48bb"},"vehicle_type_id":"4","last_reported":1739099183,"current_range_meters":12400,"station_id":"ce4bgs12rcd13ifvqcag","pricing_plan_id":"cebpf4jnsgd1na2vs0mg"},{"bike_id":"d4aed399-0d88-46d5-8778-3c2b39e20f06","system_id":"levelo_inurba_marseille","lat":43.24681,"lon":5.38161,"is_reserved":false,"is_disabled":false,"rental_uris":{"android":"levelo://app?vid=d4aed399-0d88-46d5-8778-3c2b39e20f06","ios":"levelo://app?vid=d4aed399-0d88-46d5-8778-3c2b39e20f06"},"vehicle_type_id":"4","last_reported":1739099183,"current_range_meters":38800,"station_id":"ce4bhih2rcd13ifvqfr0","pricing_plan_id":"cebpf4jnsgd1na2vs0mg"},{"bike_id":"86e7fe57-f8b6-4306-adb2-c48a1d6d6515","system_id":"levelo_inurba_marseille","lat":43.25709,"lon":5.41095,"is_reserved":false,"is_disabled":false,"rental_uris":{"android":"levelo://app?vid=86e7fe57-f8b6-4306-adb2-c48a1d6d6515","ios":"levelo://app?vid=86e7fe57-f8b6-4306-adb2-c48a1d6d6515"},"vehicle_type_id":"4","last_reported":1739099183,"current_range_meters":38800,"station_id":"ce4bhkp2rcd13ifvqgd0","pricing_plan_id":"cebpf4jnsgd1na2vs0mg"},{"bike_id":"244783fc-e553-4b13-97c4-77dee0149449","system_id":"levelo_inurba_marseille","lat":43.31313,"lon":5.39743,"is_reserved":false,"is_disabled":false,"rental_uris":{"android":"levelo://app?vid=244783fc-e553-4b13-97c4-77dee0149449","ios":"levelo://app?vid=244783fc-e553-4b13-97c4-77dee0149449"},"vehicle_type_id":"4","last_reported":1739099183,"current_range_meters":25200,"station_id":"","pricing_plan_id":"cebpf4jnsgd1na2vs0mg"},{"bike_id":"2d93e85a-65e7-4a5b-a324-00f4511865a9","system_id":"levelo_inurba_marseille","lat":43.24412,"lon":5.37051,"is_reserved":false,"is_disabled":false,"rental_uris":{"android":"levelo://app?vid=2d93e85a-65e7-4a5b-a324-00f4511865a9","ios":"levelo://app?vid=2d93e85a-65e7-4a5b-a324-00f4511865a9"},"vehicle_type_id":"4","last_reported":1739099183,"current_range_meters":38000,"station_id":"ce4bhhh2rcd13ifvqfk0","pricing_plan_id":"cebpf4jnsgd1na2vs0mg"},{"bike_id":"84596fbc-9bd8-4bdf-b2c8-65810eb15336","system_id":"levelo_inurba_marseille","lat":43.2957,"lon":5.37507,"is_reserved":false,"is_disabled":false,"rental_uris":{"android":"levelo://app?vid=84596fbc-9bd8-4bdf-b2c8-65810eb15336","ios":"levelo://app?vid=84596fbc-9bd8-4bdf-b2c8-65810eb15336"},"vehicle_type_id":"4","last_reported":1739099183,"current_range_meters":22800,"station_id":"ce4bgh92rcd13ifvqb50","pricing_plan_id":"cebpf4jnsgd1na2vs0mg"},{"bike_id":"d5fd2a14-8ff1-4b6e-a72e-8f7d6ba6ec2f","system_id":"levelo_inurba_marseille","lat":43.282798,"lon":5.350712,"is_reserved":false,"is_disabled":false,"rental_uris":{"android":"levelo://app?vid=d5fd2a14-8ff1-4b6e-a72e-8f7d6ba6ec2f","ios":"levelo://app?vid=d5fd2a14-8ff1-4b6e-a72e-8f7d6ba6ec2f"},"vehicle_type_id":"4","last_reported":1739099183,"current_range_meters":22800,"station_id":"ce4bhbp2rcd13ifvqerg","pricing_plan_id":"cebpf4jnsgd1na2vs0mg"},{"bike_id":"723aa799-1ffb-49ff-bda7-8ee9a6a4583c","system_id":"levelo_inurba_marseille","lat":43.2511,"lon":5.40323,"is_reserved":false,"is_disabled":false,"rental_uris":{"android":"levelo://app?vid=723aa799-1ffb-49ff-bda7-8ee9a6a4583c","ios":"levelo://app?vid=723aa799-1ffb-49ff-bda7-8ee9a6a4583c"},"vehicle_type_id":"4","last_reported":1739099183,"current_range_meters":39200,"station_id":"ce4bhlh2rcd13ifvqgig","pricing_plan_id":"cebpf4jnsgd1na2vs0mg"},{"bike_id":"c6f92ca4-91f7-4b27-a97d-0ada5b4e29ae","system_id":"levelo_inurba_marseille","lat":43.24666,"lon":5.38157,"is_reserved":false,"is_disabled":false,"rental_uris":{"android":"levelo://app?vid=c6f92ca4-91f7-4b27-a97d-0ada5b4e29ae","ios":"levelo://app?vid=c6f92ca4-91f7-4b27-a97d-0ada5b4e29ae"},"vehicle_type_id":"4","last_reported":1739099183,"current_range_meters":24800,"station_id":"ce4bhih2rcd13ifvqfr0","pricing_plan_id":"cebpf4jnsgd1na2vs0mg"},{"bike_id":"dc2380f1-2eb7-46a3-ae22-c9e2fe5ac43b","system_id":"levelo_inurba_marseille","lat":43.28265,"lon":5.35085,"is_reserved":false,"is_disabled":false,"rental_uris":{"android":"levelo://app?vid=dc2380f1-2eb7-46a3-ae22-c9e2fe5ac43b","ios":"levelo://app?vid=dc2380f1-2eb7-46a3-ae22-c9e2fe5ac43b"},"vehicle_type_id":"4","last_reported":1739099183,"current_range_meters":35200,"station_id":"ce4bhbp2rcd13ifvqerg","pricing_plan_id":"cebpf4jnsgd1na2vs0mg"},{"bike_id":"f335f4ea-f372-4b4d-97e9-cf4e01ad5b70","system_id":"levelo_inurba_marseille","lat":43.32233,"lon":5.38934,"is_reserved":false,"is_disabled":false,"rental_uris":{"android":"levelo://app?vid=f335f4ea-f372-4b4d-97e9-cf4e01ad5b70","ios":"levelo://app?vid=f335f4ea-f372-4b4d-97e9-cf4e01ad5b70"},"vehicle_type_id":"4","last_reported":1739099183,"current_range_meters":18000,"station_id":"","pricing_plan_id":"cebpf4jnsgd1na2vs0mg"},{"bike_id":"62fe60d0-7274-4615-8999-e844901257f9","system_id":"levelo_inurba_marseille","lat":43.23059,"lon":5.35493,"is_reserved":false,"is_disabled":false,"rental_uris":{"android":"levelo://app?vid=62fe60d0-7274-4615-8999-e844901257f9","ios":"levelo://app?vid=62fe60d0-7274-4615-8999-e844901257f9"},"vehicle_type_id":"4","last_reported":1739099183,"current_range_meters":6800,"station_id":"cpo3342slgdg3j2ifvpg","pricing_plan_id":"cebpf4jnsgd1na2vs0mg"},{"bike_id":"0364a606-7b17-4dff-8b60-9e0d4c1f2042","system_id":"levelo_inurba_marseille","lat":43.29416,"lon":5.38623,"is_reserved":false,"is_disabled":false,"rental_uris":{"android":"levelo://app?vid=0364a606-7b17-4dff-8b60-9e0d4c1f2042","ios":"levelo://app?vid=0364a606-7b17-4dff-8b60-9e0d4c1f2042"},"vehicle_type_id":"4","last_reported":1739099183,"current_range_meters":33200,"station_id":"ce4bh2h2rcd13ifvqdh0","pricing_plan_id":"cebpf4jnsgd1na2vs0mg"},{"bike_id":"c5d44a3a-c0d4-413d-abd6-5d633623f413","system_id":"levelo_inurba_marseille","lat":43.31213,"lon":5.36871,"is_reserved":false,"is_disabled":false,"rental_uris":{"android":"levelo://app?vid=c5d44a3a-c0d4-413d-abd6-5d633623f413","ios":"levelo://app?vid=c5d44a3a-c0d4-413d-abd6-5d633623f413"},"vehicle_type_id":"4","last_reported":1739099183,"current_range_meters":28400,"station_id":"ce4bgl92rcd13ifvqbq0","pricing_plan_id":"cebpf4jnsgd1na2vs0mg"},{"bike_id":"00acf672-47c1-42d5-ae81-0c2dd5fc2c7a","system_id":"levelo_inurba_marseille","lat":43.279254,"lon":5.410635,"is_reserved":false,"is_disabled":false,"rental_uris":{"android":"levelo://app?vid=00acf672-47c1-42d5-ae81-0c2dd5fc2c7a","ios":"levelo://app?vid=00acf672-47c1-42d5-ae81-0c2dd5fc2c7a"},"vehicle_type_id":"4","last_reported":1739099183,"current_range_meters":27600,"station_id":"ce4bhnp2rcd13ifvqh0g","pricing_plan_id":"cebpf4jnsgd1na2vs0mg"},{"bike_id":"c5789181-d252-4c46-b75d-908f3a6a38fe","system_id":"levelo_inurba_marseille","lat":43.3374,"lon":5.3918,"is_reserved":false,"is_disabled":false,"rental_uris":{"android":"levelo://app?vid=c5789181-d252-4c46-b75d-908f3a6a38fe","ios":"levelo://app?vid=c5789181-d252-4c46-b75d-908f3a6a38fe"},"vehicle_type_id":"4","last_reported":1739099183,"current_range_meters":38000,"station_id":"ce4bhr92rcd13ifvqhsg","pricing_plan_id":"cebpf4jnsgd1na2vs0mg"},{"bike_id":"9b4dd9e2-5542-464b-af0c-c15a8babc8b8","system_id":"levelo_inurba_marseille","lat":43.31363,"lon":5.38491,"is_reserved":false,"is_disabled":false,"rental_uris":{"android":"levelo://app?vid=9b4dd9e2-5542-464b-af0c-c15a8babc8b8","ios":"levelo://app?vid=9b4dd9e2-5542-464b-af0c-c15a8babc8b8"},"vehicle_type_id":"4","last_reported":1739099183,"current_range_meters":32400,"station_id":"ce4bgt92rcd13ifvqcf0","pricing_plan_id":"cebpf4jnsgd1na2vs0mg"},{"bike_id":"339eef05-ac39-4941-b4a2-f27bc529ea4c","system_id":"levelo_inurba_marseille","lat":43.26791,"lon":5.39415,"is_reserved":false,"is_disabled":false,"rental_uris":{"android":"levelo://app?vid=339eef05-ac39-4941-b4a2-f27bc529ea4c","ios":"levelo://app?vid=339eef05-ac39-4941-b4a2-f27bc529ea4c"},"vehicle_type_id":"4","last_reported":1739099183,"current_range_meters":39200,"station_id":"ce4bhh12rcd13ifvqfg0","pricing_plan_id":"cebpf4jnsgd1na2vs0mg"},{"bike_id":"0d3e6358-f538-48e4-97b5-cfd7ffaf7479","system_id":"levelo_inurba_marseille","lat":43.27186,"lon":5.41002,"is_reserved":false,"is_disabled":false,"rental_uris":{"android":"levelo://app?vid=0d3e6358-f538-48e4-97b5-cfd7ffaf7479","ios":"levelo://app?vid=0d3e6358-f538-48e4-97b5-cfd7ffaf7479"},"vehicle_type_id":"4","last_reported":1739099183,"current_range_meters":38800,"station_id":"ce4bhl12rcd13ifvqgf0","pricing_plan_id":"cebpf4jnsgd1na2vs0mg"},{"bike_id":"fd5eabf3-11b4-46a4-956c-8828cf8750f2","system_id":"levelo_inurba_marseille","lat":43.30096,"lon":5.3908,"is_reserved":false,"is_disabled":false,"rental_uris":{"android":"levelo://app?vid=fd5eabf3-11b4-46a4-956c-8828cf8750f2","ios":"levelo://app?vid=fd5eabf3-11b4-46a4-956c-8828cf8750f2"},"vehicle_type_id":"4","last_reported":1739099183,"current_range_meters":28400,"station_id":"ce4bh192rcd13ifvqdb0","pricing_plan_id":"cebpf4jnsgd1na2vs0mg"},{"bike_id":"4b346763-af4b-47bb-8f20-016bb4fee202","system_id":"levelo_inurba_marseille","lat":43.27815,"lon":5.40706,"is_reserved":false,"is_disabled":false,"rental_uris":{"android":"levelo://app?vid=4b346763-af4b-47bb-8f20-016bb4fee202","ios":"levelo://app?vid=4b346763-af4b-47bb-8f20-016bb4fee202"},"vehicle_type_id":"4","last_reported":1739099183,"current_range_meters":38000,"station_id":"ce4bhnh2rcd13ifvqgtg","pricing_plan_id":"cebpf4jnsgd1na2vs0mg"},{"bike_id":"a3017e08-da34-45be-bc47-d338c3dee81a","system_id":"levelo_inurba_marseille","lat":43.26633,"lon":5.39363,"is_reserved":false,"is_disabled":false,"rental_uris":{"android":"levelo://app?vid=a3017e08-da34-45be-bc47-d338c3dee81a","ios":"levelo://app?vid=a3017e08-da34-45be-bc47-d338c3dee81a"},"vehicle_type_id":"4","last_reported":1739099183,"current_range_meters":38800,"station_id":"","pricing_plan_id":"cebpf4jnsgd1na2vs0mg"},{"bike_id":"a0e4aa32-2930-4b3f-a9c9-c8d667116e7d","system_id":"levelo_inurba_marseille","lat":43.30152,"lon":5.39679,"is_reserved":false,"is_disabled":false,"rental_uris":{"android":"levelo://app?vid=a0e4aa32-2930-4b3f-a9c9-c8d667116e7d","ios":"levelo://app?vid=a0e4aa32-2930-4b3f-a9c9-c8d667116e7d"},"vehicle_type_id":"4","last_reported":1739099183,"current_range_meters":25200,"station_id":"","pricing_plan_id":"cebpf4jnsgd1na2vs0mg"},{"bike_id":"09710415-4dac-4e4c-a5b2-403eafa59e89","system_id":"levelo_inurba_marseille","lat":43.23947,"lon":5.36656,"is_reserved":false,"is_disabled":false,"rental_uris":{"android":"levelo://app?vid=09710415-4dac-4e4c-a5b2-403eafa59e89","ios":"levelo://app?vid=09710415-4dac-4e4c-a5b2-403eafa59e89"},"vehicle_type_id":"4","last_reported":1739099183,"current_range_meters":35600,"station_id":"ce4bhi12rcd13ifvqfp0","pricing_plan_id":"cebpf4jnsgd1na2vs0mg"},{"bike_id":"cda70a47-1966-4606-a6ee-e81748054c04","system_id":"levelo_inurba_marseille","lat":43.23958,"lon":5.36626,"is_reserved":false,"is_disabled":false,"rental_uris":{"android":"levelo://app?vid=cda70a47-1966-4606-a6ee-e81748054c04","ios":"levelo://app?vid=cda70a47-1966-4606-a6ee-e81748054c04"},"vehicle_type_id":"4","last_reported":1739099183,"current_range_meters":32000,"station_id":"ce4bhi12rcd13ifvqfp0","pricing_plan_id":"cebpf4jnsgd1na2vs0mg"},{"bike_id":"11fb8b8a-e2f0-4df9-8d01-2d7793fba192","system_id":"levelo_inurba_marseille","lat":43.27315,"lon":5.39115,"is_reserved":false,"is_disabled":false,"rental_uris":{"android":"levelo://app?vid=11fb8b8a-e2f0-4df9-8d01-2d7793fba192","ios":"levelo://app?vid=11fb8b8a-e2f0-4df9-8d01-2d7793fba192"},"vehicle_type_id":"4","last_reported":1739099183,"current_range_meters":38800,"station_id":"ce4bhgp2rcd13ifvqfe0","pricing_plan_id":"cebpf4jnsgd1na2vs0mg"},{"bike_id":"d127a229-8836-4c0f-a071-964ec5978504","system_id":"levelo_inurba_marseille","lat":43.27177,"lon":5.40988,"is_reserved":false,"is_disabled":false,"rental_uris":{"android":"levelo://app?vid=d127a229-8836-4c0f-a071-964ec5978504","ios":"levelo://app?vid=d127a229-8836-4c0f-a071-964ec5978504"},"vehicle_type_id":"4","last_reported":1739099183,"current_range_meters":38800,"station_id":"ce4bhl12rcd13ifvqgf0","pricing_plan_id":"cebpf4jnsgd1na2vs0mg"},{"bike_id":"118b1d9a-bc00-428d-ac60-6949e2e1ff6b","system_id":"levelo_inurba_marseille","lat":43.24821,"lon":5.3739,"is_reserved":false,"is_disabled":false,"rental_uris":{"android":"levelo://app?vid=118b1d9a-bc00-428d-ac60-6949e2e1ff6b","ios":"levelo://app?vid=118b1d9a-bc00-428d-ac60-6949e2e1ff6b"},"vehicle_type_id":"4","last_reported":1739099183,"current_range_meters":28800,"station_id":"","pricing_plan_id":"cebpf4jnsgd1na2vs0mg"},{"bike_id":"71333a2e-b0bb-44e5-b822-04c938d5fe8f","system_id":"levelo_inurba_marseille","lat":43.26533,"lon":5.39043,"is_reserved":false,"is_disabled":false,"rental_uris":{"android":"levelo://app?vid=71333a2e-b0bb-44e5-b822-04c938d5fe8f","ios":"levelo://app?vid=71333a2e-b0bb-44e5-b822-04c938d5fe8f"},"vehicle_type_id":"4","last_reported":1739099183,"current_range_meters":38800,"station_id":"ce4bhe12rcd13ifvqf30","pricing_plan_id":"cebpf4jnsgd1na2vs0mg"},{"bike_id":"656b3b3b-ebfa-4345-b7c9-9eedd9381155","system_id":"levelo_inurba_marseille","lat":43.30795,"lon":5.40003,"is_reserved":false,"is_disabled":false,"rental_uris":{"android":"levelo://app?vid=656b3b3b-ebfa-4345-b7c9-9eedd9381155","ios":"levelo://app?vid=656b3b3b-ebfa-4345-b7c9-9eedd9381155"},"vehicle_type_id":"4","last_reported":1739099183,"current_range_meters":12000,"station_id":"","pricing_plan_id":"cebpf4jnsgd1na2vs0mg"},{"bike_id":"cbb6c05a-aef2-442f-a981-99fee8841f48","system_id":"levelo_inurba_marseille","lat":43.27973,"lon":5.3874,"is_reserved":false,"is_disabled":false,"rental_uris":{"android":"levelo://app?vid=cbb6c05a-aef2-442f-a981-99fee8841f48","ios":"levelo://app?vid=cbb6c05a-aef2-442f-a981-99fee8841f48"},"vehicle_type_id":"4","last_reported":1739099183,"current_range_meters":36000,"station_id":"ce4bhg12rcd13ifvqf80","pricing_plan_id":"cebpf4jnsgd1na2vs0mg"},{"bike_id":"4629e9f4-a92f-4ed3-922c-a17bf2af3cae","system_id":"levelo_inurba_marseille","lat":43.25118,"lon":5.40322,"is_reserved":false,"is_disabled":true,"rental_uris":{"android":"levelo://app?vid=4629e9f4-a92f-4ed3-922c-a17bf2af3cae","ios":"levelo://app?vid=4629e9f4-a92f-4ed3-922c-a17bf2af3cae"},"vehicle_type_id":"4","last_reported":1739099183,"current_range_meters":0,"station_id":"ce4bhlh2rcd13ifvqgig","pricing_plan_id":"cebpf4jnsgd1na2vs0mg"},{"bike_id":"90d65e50-63d7-409f-98c1-4fbd6175037b","system_id":"levelo_inurba_marseille","lat":43.29731,"lon":5.37699,"is_reserved":false,"is_disabled":false,"rental_uris":{"android":"levelo://app?vid=90d65e50-63d7-409f-98c1-4fbd6175037b","ios":"levelo://app?vid=90d65e50-63d7-409f-98c1-4fbd6175037b"},"vehicle_type_id":"4","last_reported":1739099183,"current_range_meters":26000,"station_id":"ce4bgkh2rcd13ifvqbl0","pricing_plan_id":"cebpf4jnsgd1na2vs0mg"},{"bike_id":"b51e142c-de4a-4e92-bd38-22dc3a4cd001","system_id":"levelo_inurba_marseille","lat":43.2655,"lon":5.39026,"is_reserved":false,"is_disabled":false,"rental_uris":{"android":"levelo://app?vid=b51e142c-de4a-4e92-bd38-22dc3a4cd001","ios":"levelo://app?vid=b51e142c-de4a-4e92-bd38-22dc3a4cd001"},"vehicle_type_id":"4","last_reported":1739099183,"current_range_meters":17600,"station_id":"ce4bho92rcd13ifvqh3g","pricing_plan_id":"cebpf4jnsgd1na2vs0mg"},{"bike_id":"64e8e2e3-8984-4256-ae2a-ac9cd49207f0","system_id":"levelo_inurba_marseille","lat":43.28262,"lon":5.35078,"is_reserved":false,"is_disabled":false,"rental_uris":{"android":"levelo://app?vid=64e8e2e3-8984-4256-ae2a-ac9cd49207f0","ios":"levelo://app?vid=64e8e2e3-8984-4256-ae2a-ac9cd49207f0"},"vehicle_type_id":"4","last_reported":1739099183,"current_range_meters":38000,"station_id":"ce4bhbp2rcd13ifvqerg","pricing_plan_id":"cebpf4jnsgd1na2vs0mg"},{"bike_id":"7f2deb56-183c-436c-981c-cfbcfece13e6","system_id":"levelo_inurba_marseille","lat":43.23953,"lon":5.36635,"is_reserved":false,"is_disabled":false,"rental_uris":{"android":"levelo://app?vid=7f2deb56-183c-436c-981c-cfbcfece13e6","ios":"levelo://app?vid=7f2deb56-183c-436c-981c-cfbcfece13e6"},"vehicle_type_id":"4","last_reported":1739099183,"current_range_meters":36400,"station_id":"ce4bhi12rcd13ifvqfp0","pricing_plan_id":"cebpf4jnsgd1na2vs0mg"},{"bike_id":"aac5a4ca-b8d0-4641-93c3-6c5e80d60918","system_id":"levelo_inurba_marseille","lat":43.312241,"lon":5.368718,"is_reserved":false,"is_disabled":false,"rental_uris":{"android":"levelo://app?vid=aac5a4ca-b8d0-4641-93c3-6c5e80d60918","ios":"levelo://app?vid=aac5a4ca-b8d0-4641-93c3-6c5e80d60918"},"vehicle_type_id":"4","last_reported":1739099183,"current_range_meters":38800,"station_id":"ce4bgl92rcd13ifvqbq0","pricing_plan_id":"cebpf4jnsgd1na2vs0mg"},{"bike_id":"4247d448-c996-453e-88de-edbb3a34b124","system_id":"levelo_inurba_marseille","lat":43.30154,"lon":5.38093,"is_reserved":false,"is_disabled":false,"rental_uris":{"android":"levelo://app?vid=4247d448-c996-453e-88de-edbb3a34b124","ios":"levelo://app?vid=4247d448-c996-453e-88de-edbb3a34b124"},"vehicle_type_id":"4","last_reported":1739099183,"current_range_meters":28000,"station_id":"ce4bgjp2rcd13ifvqbh0","pricing_plan_id":"cebpf4jnsgd1na2vs0mg"},{"bike_id":"6186afb6-fd6f-42d8-8215-07291eb97707","system_id":"levelo_inurba_marseille","lat":43.241724,"lon":5.397239,"is_reserved":false,"is_disabled":false,"rental_uris":{"android":"levelo://app?vid=6186afb6-fd6f-42d8-8215-07291eb97707","ios":"levelo://app?vid=6186afb6-fd6f-42d8-8215-07291eb97707"},"vehicle_type_id":"4","last_reported":1739099183,"current_range_meters":23200,"station_id":"ce4bhn12rcd13ifvqgpg","pricing_plan_id":"cebpf4jnsgd1na2vs0mg"},{"bike_id":"5223a8ab-1759-4199-88f8-4ead011cc81e","system_id":"levelo_inurba_marseille","lat":43.27553,"lon":5.38455,"is_reserved":false,"is_disabled":false,"rental_uris":{"android":"levelo://app?vid=5223a8ab-1759-4199-88f8-4ead011cc81e","ios":"levelo://app?vid=5223a8ab-1759-4199-88f8-4ead011cc81e"},"vehicle_type_id":"4","last_reported":1739099183,"current_range_meters":39200,"station_id":"ce4bhh92rcd13ifvqfi0","pricing_plan_id":"cebpf4jnsgd1na2vs0mg"},{"bike_id":"c1994bca-8c74-4142-b569-d2f7c47c698f","system_id":"levelo_inurba_marseille","lat":43.27816,"lon":5.40746,"is_reserved":false,"is_disabled":false,"rental_uris":{"android":"levelo://app?vid=c1994bca-8c74-4142-b569-d2f7c47c698f","ios":"levelo://app?vid=c1994bca-8c74-4142-b569-d2f7c47c698f"},"vehicle_type_id":"4","last_reported":1739099183,"current_range_meters":19600,"station_id":"ce4bhnh2rcd13ifvqgtg","pricing_plan_id":"cebpf4jnsgd1na2vs0mg"},{"bike_id":"f2df57fd-48fb-42b4-9b53-5e639c9b06ad","system_id":"levelo_inurba_marseille","lat":43.32361,"lon":5.38899,"is_reserved":false,"is_disabled":false,"rental_uris":{"android":"levelo://app?vid=f2df57fd-48fb-42b4-9b53-5e639c9b06ad","ios":"levelo://app?vid=f2df57fd-48fb-42b4-9b53-5e639c9b06ad"},"vehicle_type_id":"4","last_reported":1739099183,"current_range_meters":30000,"station_id":"ce4bhqp2rcd13ifvqhog","pricing_plan_id":"cebpf4jnsgd1na2vs0mg"},{"bike_id":"f8398f49-e922-4a69-a987-9276667aa038","system_id":"levelo_inurba_marseille","lat":43.28106,"lon":5.37873,"is_reserved":false,"is_disabled":false,"rental_uris":{"android":"levelo://app?vid=f8398f49-e922-4a69-a987-9276667aa038","ios":"levelo://app?vid=f8398f49-e922-4a69-a987-9276667aa038"},"vehicle_type_id":"4","last_reported":1739099183,"current_range_meters":28000,"station_id":"ce4bha12rcd13ifvqee0","pricing_plan_id":"cebpf4jnsgd1na2vs0mg"},{"bike_id":"9f7cf945-ba46-4a30-a487-0537ff799f4a","system_id":"levelo_inurba_marseille","lat":43.27994,"lon":5.40009,"is_reserved":false,"is_disabled":false,"rental_uris":{"android":"levelo://app?vid=9f7cf945-ba46-4a30-a487-0537ff799f4a","ios":"levelo://app?vid=9f7cf945-ba46-4a30-a487-0537ff799f4a"},"vehicle_type_id":"4","last_reported":1739099183,"current_range_meters":16000,"station_id":"ce4bho92rcd13ifvqh4g","pricing_plan_id":"cebpf4jnsgd1na2vs0mg"},{"bike_id":"59db9156-837c-4bef-bdf0-6cb05d00fb23","system_id":"levelo_inurba_marseille","lat":43.24171,"lon":5.36396,"is_reserved":false,"is_disabled":false,"rental_uris":{"android":"levelo://app?vid=59db9156-837c-4bef-bdf0-6cb05d00fb23","ios":"levelo://app?vid=59db9156-837c-4bef-bdf0-6cb05d00fb23"},"vehicle_type_id":"4","last_reported":1739099183,"current_range_meters":24400,"station_id":"cpo36qri1sfpv3e86is0","pricing_plan_id":"cebpf4jnsgd1na2vs0mg"},{"bike_id":"7486797d-9c17-426c-8b8d-0ccea1b61cf7","system_id":"levelo_inurba_marseille","lat":43.24799,"lon":5.37454,"is_reserved":false,"is_disabled":false,"rental_uris":{"android":"levelo://app?vid=7486797d-9c17-426c-8b8d-0ccea1b61cf7","ios":"levelo://app?vid=7486797d-9c17-426c-8b8d-0ccea1b61cf7"},"vehicle_type_id":"4","last_reported":1739099183,"current_range_meters":38800,"station_id":"ce4bhgh2rcd13ifvqfb0","pricing_plan_id":"cebpf4jnsgd1na2vs0mg"},{"bike_id":"f1e9b514-8d63-4512-92a1-4bc9d87c157b","system_id":"levelo_inurba_marseille","lat":43.31704,"lon":5.43691,"is_reserved":false,"is_disabled":true,"rental_uris":{"android":"levelo://app?vid=f1e9b514-8d63-4512-92a1-4bc9d87c157b","ios":"levelo://app?vid=f1e9b514-8d63-4512-92a1-4bc9d87c157b"},"vehicle_type_id":"4","last_reported":1739099183,"current_range_meters":800,"station_id":"ce4bhp92rcd13ifvqhcg","pricing_plan_id":"cebpf4jnsgd1na2vs0mg"},{"bike_id":"a0074d74-cecf-48cb-88d9-dfdc2b2fa810","system_id":"levelo_inurba_marseille","lat":43.23941,"lon":5.36629,"is_reserved":false,"is_disabled":false,"rental_uris":{"android":"levelo://app?vid=a0074d74-cecf-48cb-88d9-dfdc2b2fa810","ios":"levelo://app?vid=a0074d74-cecf-48cb-88d9-dfdc2b2fa810"},"vehicle_type_id":"4","last_reported":1739099183,"current_range_meters":18000,"station_id":"ce4bhi12rcd13ifvqfp0","pricing_plan_id":"cebpf4jnsgd1na2vs0mg"},{"bike_id":"41adc636-c40b-4034-8cc3-3dcdbb0d3eaf","system_id":"levelo_inurba_marseille","lat":43.32532,"lon":5.41494,"is_reserved":false,"is_disabled":false,"rental_uris":{"android":"levelo://app?vid=41adc636-c40b-4034-8cc3-3dcdbb0d3eaf","ios":"levelo://app?vid=41adc636-c40b-4034-8cc3-3dcdbb0d3eaf"},"vehicle_type_id":"4","last_reported":1739099183,"current_range_meters":38800,"station_id":"ce4bhq12rcd13ifvqhhg","pricing_plan_id":"cebpf4jnsgd1na2vs0mg"},{"bike_id":"fc8d00e4-07c7-4fd1-8ff2-0a261feae6ed","system_id":"levelo_inurba_marseille","lat":43.28604,"lon":5.35119,"is_reserved":false,"is_disabled":false,"rental_uris":{"android":"levelo://app?vid=fc8d00e4-07c7-4fd1-8ff2-0a261feae6ed","ios":"levelo://app?vid=fc8d00e4-07c7-4fd1-8ff2-0a261feae6ed"},"vehicle_type_id":"4","last_reported":1739099183,"current_range_meters":36800,"station_id":"ce4bhch2rcd13ifvqeug","pricing_plan_id":"cebpf4jnsgd1na2vs0mg"},{"bike_id":"7e424a35-8cf7-4c71-b98f-4231461d22a0","system_id":"levelo_inurba_marseille","lat":43.275144,"lon":5.389685,"is_reserved":false,"is_disabled":false,"rental_uris":{"android":"levelo://app?vid=7e424a35-8cf7-4c71-b98f-4231461d22a0","ios":"levelo://app?vid=7e424a35-8cf7-4c71-b98f-4231461d22a0"},"vehicle_type_id":"4","last_reported":1739099183,"current_range_meters":35200,"station_id":"","pricing_plan_id":"cebpf4jnsgd1na2vs0mg"},{"bike_id":"9189e0cd-d5d1-46a9-97ed-08ec6d7d8cc9","system_id":"levelo_inurba_marseille","lat":43.299648,"lon":5.384938,"is_reserved":false,"is_disabled":true,"rental_uris":{"android":"levelo://app?vid=9189e0cd-d5d1-46a9-97ed-08ec6d7d8cc9","ios":"levelo://app?vid=9189e0cd-d5d1-46a9-97ed-08ec6d7d8cc9"},"vehicle_type_id":"4","last_reported":1739099183,"current_range_meters":38800,"station_id":"ce4bgj92rcd13ifvqbd0","pricing_plan_id":"cebpf4jnsgd1na2vs0mg"},{"bike_id":"688cb102-28ba-4c7e-885f-41414f9433e9","system_id":"levelo_inurba_marseille","lat":43.25578,"lon":5.38246,"is_reserved":false,"is_disabled":false,"rental_uris":{"android":"levelo://app?vid=688cb102-28ba-4c7e-885f-41414f9433e9","ios":"levelo://app?vid=688cb102-28ba-4c7e-885f-41414f9433e9"},"vehicle_type_id":"4","last_reported":1739099183,"current_range_meters":19200,"station_id":"ce4bhih2rcd13ifvqfs0","pricing_plan_id":"cebpf4jnsgd1na2vs0mg"},{"bike_id":"9c3ed8fb-7268-418c-ac09-3f255c9e9b5e","system_id":"levelo_inurba_marseille","lat":43.28037,"lon":5.3695,"is_reserved":false,"is_disabled":false,"rental_uris":{"android":"levelo://app?vid=9c3ed8fb-7268-418c-ac09-3f255c9e9b5e","ios":"levelo://app?vid=9c3ed8fb-7268-418c-ac09-3f255c9e9b5e"},"vehicle_type_id":"4","last_reported":1739099183,"current_range_meters":37600,"station_id":"ce4bha12rcd13ifvqef0","pricing_plan_id":"cebpf4jnsgd1na2vs0mg"},{"bike_id":"16f12e8d-10b1-49e6-a814-bca684947f57","system_id":"levelo_inurba_marseille","lat":43.30159,"lon":5.38074,"is_reserved":false,"is_disabled":false,"rental_uris":{"android":"levelo://app?vid=16f12e8d-10b1-49e6-a814-bca684947f57","ios":"levelo://app?vid=16f12e8d-10b1-49e6-a814-bca684947f57"},"vehicle_type_id":"4","last_reported":1739099183,"current_range_meters":38800,"station_id":"ce4bgjp2rcd13ifvqbh0","pricing_plan_id":"cebpf4jnsgd1na2vs0mg"},{"bike_id":"482bb069-4c30-4f2c-a988-23832f72e762","system_id":"levelo_inurba_marseille","lat":43.28946,"lon":5.396369,"is_reserved":false,"is_disabled":false,"rental_uris":{"android":"levelo://app?vid=482bb069-4c30-4f2c-a988-23832f72e762","ios":"levelo://app?vid=482bb069-4c30-4f2c-a988-23832f72e762"},"vehicle_type_id":"4","last_reported":1739099183,"current_range_meters":20800,"station_id":"ce4bh3h2rcd13ifvqdn0","pricing_plan_id":"cebpf4jnsgd1na2vs0mg"},{"bike_id":"6ff781d1-2621-44d1-b299-83b571f09432","system_id":"levelo_inurba_marseille","lat":43.34059,"lon":5.38515,"is_reserved":false,"is_disabled":true,"rental_uris":{"android":"levelo://app?vid=6ff781d1-2621-44d1-b299-83b571f09432","ios":"levelo://app?vid=6ff781d1-2621-44d1-b299-83b571f09432"},"vehicle_type_id":"4","last_reported":1739099183,"current_range_meters":0,"station_id":"","pricing_plan_id":"cebpf4jnsgd1na2vs0mg"},{"bike_id":"f2354b3b-9398-430a-991c-0c108e9a4c6a","system_id":"levelo_inurba_marseille","lat":43.30305,"lon":5.39202,"is_reserved":false,"is_disabled":true,"rental_uris":{"android":"levelo://app?vid=f2354b3b-9398-430a-991c-0c108e9a4c6a","ios":"levelo://app?vid=f2354b3b-9398-430a-991c-0c108e9a4c6a"},"vehicle_type_id":"4","last_reported":1739099183,"current_range_meters":38800,"station_id":"ce4bgkh2rcd13ifvqbk0","pricing_plan_id":"cebpf4jnsgd1na2vs0mg"},{"bike_id":"023da4ba-3275-433f-9c20-6aa1fe5c1824","system_id":"levelo_inurba_marseille","lat":43.23114,"lon":5.3658,"is_reserved":false,"is_disabled":false,"rental_uris":{"android":"levelo://app?vid=023da4ba-3275-433f-9c20-6aa1fe5c1824","ios":"levelo://app?vid=023da4ba-3275-433f-9c20-6aa1fe5c1824"},"vehicle_type_id":"4","last_reported":1739099183,"current_range_meters":35200,"station_id":"ce4bhnp2rcd13ifvqgvg","pricing_plan_id":"cebpf4jnsgd1na2vs0mg"},{"bike_id":"decbd4f4-1364-44ae-a730-21c70080594d","system_id":"levelo_inurba_marseille","lat":43.28359,"lon":5.37466,"is_reserved":false,"is_disabled":false,"rental_uris":{"android":"levelo://app?vid=decbd4f4-1364-44ae-a730-21c70080594d","ios":"levelo://app?vid=decbd4f4-1364-44ae-a730-21c70080594d"},"vehicle_type_id":"4","last_reported":1739099183,"current_range_meters":38000,"station_id":"ce4bh412rcd13ifvqds0","pricing_plan_id":"cebpf4jnsgd1na2vs0mg"},{"bike_id":"c7d36f63-3933-46ab-b9cc-b4708b43a9ab","system_id":"levelo_inurba_marseille","lat":43.30248,"lon":5.40078,"is_reserved":false,"is_disabled":false,"rental_uris":{"android":"levelo://app?vid=c7d36f63-3933-46ab-b9cc-b4708b43a9ab","ios":"levelo://app?vid=c7d36f63-3933-46ab-b9cc-b4708b43a9ab"},"vehicle_type_id":"4","last_reported":1739099183,"current_range_meters":38800,"station_id":"ce4bgvh2rcd13ifvqcs0","pricing_plan_id":"cebpf4jnsgd1na2vs0mg"},{"bike_id":"fc27cc67-0de9-4972-9ba4-f0b467e96b7c","system_id":"levelo_inurba_marseille","lat":43.24656,"lon":5.38171,"is_reserved":false,"is_disabled":false,"rental_uris":{"android":"levelo://app?vid=fc27cc67-0de9-4972-9ba4-f0b467e96b7c","ios":"levelo://app?vid=fc27cc67-0de9-4972-9ba4-f0b467e96b7c"},"vehicle_type_id":"4","last_reported":1739099183,"current_range_meters":38800,"station_id":"ce4bhih2rcd13ifvqfr0","pricing_plan_id":"cebpf4jnsgd1na2vs0mg"},{"bike_id":"12c08318-bf0a-46b4-a5c4-1d44af9f2413","system_id":"levelo_inurba_marseille","lat":43.29033,"lon":5.35903,"is_reserved":false,"is_disabled":false,"rental_uris":{"android":"levelo://app?vid=12c08318-bf0a-46b4-a5c4-1d44af9f2413","ios":"levelo://app?vid=12c08318-bf0a-46b4-a5c4-1d44af9f2413"},"vehicle_type_id":"4","last_reported":1739099183,"current_range_meters":38800,"station_id":"ce4bha92rcd13ifvqeg0","pricing_plan_id":"cebpf4jnsgd1na2vs0mg"},{"bike_id":"e7c9102f-de83-43c3-a871-1b6285552687","system_id":"levelo_inurba_marseille","lat":43.30168,"lon":5.38091,"is_reserved":false,"is_disabled":false,"rental_uris":{"android":"levelo://app?vid=e7c9102f-de83-43c3-a871-1b6285552687","ios":"levelo://app?vid=e7c9102f-de83-43c3-a871-1b6285552687"},"vehicle_type_id":"4","last_reported":1739099183,"current_range_meters":35200,"station_id":"ce4bgjp2rcd13ifvqbh0","pricing_plan_id":"cebpf4jnsgd1na2vs0mg"},{"bike_id":"939fb41d-894a-4539-ab17-96762604e29f","system_id":"levelo_inurba_marseille","lat":43.312195,"lon":5.401295,"is_reserved":false,"is_disabled":false,"rental_uris":{"android":"levelo://app?vid=939fb41d-894a-4539-ab17-96762604e29f","ios":"levelo://app?vid=939fb41d-894a-4539-ab17-96762604e29f"},"vehicle_type_id":"4","last_reported":1739099183,"current_range_meters":35200,"station_id":"ce4bh092rcd13ifvqd30","pricing_plan_id":"cebpf4jnsgd1na2vs0mg"},{"bike_id":"4eb76448-eaf5-41bb-bffe-e4bd1b60aaf0","system_id":"levelo_inurba_marseille","lat":43.26547,"lon":5.37293,"is_reserved":false,"is_disabled":true,"rental_uris":{"android":"levelo://app?vid=4eb76448-eaf5-41bb-bffe-e4bd1b60aaf0","ios":"levelo://app?vid=4eb76448-eaf5-41bb-bffe-e4bd1b60aaf0"},"vehicle_type_id":"4","last_reported":1739099183,"current_range_meters":36800,"station_id":"ce4bhg12rcd13ifvqf70","pricing_plan_id":"cebpf4jnsgd1na2vs0mg"},{"bike_id":"e2200dc8-d2f7-4f30-b1b2-4f395de74e61","system_id":"levelo_inurba_marseille","lat":43.31141,"lon":5.37785,"is_reserved":false,"is_disabled":false,"rental_uris":{"android":"levelo://app?vid=e2200dc8-d2f7-4f30-b1b2-4f395de74e61","ios":"levelo://app?vid=e2200dc8-d2f7-4f30-b1b2-4f395de74e61"},"vehicle_type_id":"4","last_reported":1739099183,"current_range_meters":26000,"station_id":"ce4bgt92rcd13ifvqcg0","pricing_plan_id":"cebpf4jnsgd1na2vs0mg"},{"bike_id":"8e3da68a-27b7-4a9e-a7a4-1edb2b2e3f4b","system_id":"levelo_inurba_marseille","lat":43.29235,"lon":5.36074,"is_reserved":false,"is_disabled":false,"rental_uris":{"android":"levelo://app?vid=8e3da68a-27b7-4a9e-a7a4-1edb2b2e3f4b","ios":"levelo://app?vid=8e3da68a-27b7-4a9e-a7a4-1edb2b2e3f4b"},"vehicle_type_id":"4","last_reported":1739099183,"current_range_meters":37600,"station_id":"ce4bhbh2rcd13ifvqeqg","pricing_plan_id":"cebpf4jnsgd1na2vs0mg"},{"bike_id":"485bd07b-4ab6-4a82-a3b3-9488eb9c4eca","system_id":"levelo_inurba_marseille","lat":43.27915,"lon":5.39577,"is_reserved":false,"is_disabled":false,"rental_uris":{"android":"levelo://app?vid=485bd07b-4ab6-4a82-a3b3-9488eb9c4eca","ios":"levelo://app?vid=485bd07b-4ab6-4a82-a3b3-9488eb9c4eca"},"vehicle_type_id":"4","last_reported":1739099183,"current_range_meters":12400,"station_id":"ce4bhf92rcd13ifvqf40","pricing_plan_id":"cebpf4jnsgd1na2vs0mg"},{"bike_id":"891e205f-edb6-4417-95d0-d323fb0f946a","system_id":"levelo_inurba_marseille","lat":43.30531,"lon":5.36698,"is_reserved":false,"is_disabled":false,"rental_uris":{"android":"levelo://app?vid=891e205f-edb6-4417-95d0-d323fb0f946a","ios":"levelo://app?vid=891e205f-edb6-4417-95d0-d323fb0f946a"},"vehicle_type_id":"4","last_reported":1739099183,"current_range_meters":37600,"station_id":"ce4bgrp2rcd13ifvqc9g","pricing_plan_id":"cebpf4jnsgd1na2vs0mg"},{"bike_id":"5548099f-3d20-4527-ac00-8c94cf8efa93","system_id":"levelo_inurba_marseille","lat":43.29621,"lon":5.37147,"is_reserved":false,"is_disabled":false,"rental_uris":{"android":"levelo://app?vid=5548099f-3d20-4527-ac00-8c94cf8efa93","ios":"levelo://app?vid=5548099f-3d20-4527-ac00-8c94cf8efa93"},"vehicle_type_id":"4","last_reported":1739099183,"current_range_meters":15200,"station_id":"ce4bgnh2rcd13ifvqc0g","pricing_plan_id":"cebpf4jnsgd1na2vs0mg"},{"bike_id":"baac1819-7acd-4d87-b2fc-1e131aab24fd","system_id":"levelo_inurba_marseille","lat":43.30408,"lon":5.39756,"is_reserved":false,"is_disabled":false,"rental_uris":{"android":"levelo://app?vid=baac1819-7acd-4d87-b2fc-1e131aab24fd","ios":"levelo://app?vid=baac1819-7acd-4d87-b2fc-1e131aab24fd"},"vehicle_type_id":"4","last_reported":1739099183,"current_range_meters":28800,"station_id":"ce4bh092rcd13ifvqd20","pricing_plan_id":"cebpf4jnsgd1na2vs0mg"},{"bike_id":"b3463cd4-ee6a-4d8d-b069-09f3e724a0c0","system_id":"levelo_inurba_marseille","lat":43.26231,"lon":5.40472,"is_reserved":false,"is_disabled":false,"rental_uris":{"android":"levelo://app?vid=b3463cd4-ee6a-4d8d-b069-09f3e724a0c0","ios":"levelo://app?vid=b3463cd4-ee6a-4d8d-b069-09f3e724a0c0"},"vehicle_type_id":"4","last_reported":1739099183,"current_range_meters":32000,"station_id":"ce4bhmh2rcd13ifvqgmg","pricing_plan_id":"cebpf4jnsgd1na2vs0mg"},{"bike_id":"231a2e38-e084-4f27-b1c6-3246416ad2e4","system_id":"levelo_inurba_marseille","lat":43.29786,"lon":5.37106,"is_reserved":false,"is_disabled":false,"rental_uris":{"android":"levelo://app?vid=231a2e38-e084-4f27-b1c6-3246416ad2e4","ios":"levelo://app?vid=231a2e38-e084-4f27-b1c6-3246416ad2e4"},"vehicle_type_id":"4","last_reported":1739099183,"current_range_meters":39200,"station_id":"ce4bgop2rcd13ifvqc1g","pricing_plan_id":"cebpf4jnsgd1na2vs0mg"},{"bike_id":"54821b8f-03ba-4360-abc1-91db00db4644","system_id":"levelo_inurba_marseille","lat":43.25515,"lon":5.37657,"is_reserved":false,"is_disabled":false,"rental_uris":{"android":"levelo://app?vid=54821b8f-03ba-4360-abc1-91db00db4644","ios":"levelo://app?vid=54821b8f-03ba-4360-abc1-91db00db4644"},"vehicle_type_id":"4","last_reported":1739099183,"current_range_meters":38800,"station_id":"ce4bhh12rcd13ifvqff0","pricing_plan_id":"cebpf4jnsgd1na2vs0mg"},{"bike_id":"48cfa1b6-cea4-46a9-9cd0-36a8c7915375","system_id":"levelo_inurba_marseille","lat":43.27067,"lon":5.40259,"is_reserved":false,"is_disabled":false,"rental_uris":{"android":"levelo://app?vid=48cfa1b6-cea4-46a9-9cd0-36a8c7915375","ios":"levelo://app?vid=48cfa1b6-cea4-46a9-9cd0-36a8c7915375"},"vehicle_type_id":"4","last_reported":1739099183,"current_range_meters":38800,"station_id":"ce4bhk92rcd13ifvqgc0","pricing_plan_id":"cebpf4jnsgd1na2vs0mg"},{"bike_id":"66a32674-0e22-4208-bc59-e57e45db52af","system_id":"levelo_inurba_marseille","lat":43.25007,"lon":5.38938,"is_reserved":false,"is_disabled":false,"rental_uris":{"android":"levelo://app?vid=66a32674-0e22-4208-bc59-e57e45db52af","ios":"levelo://app?vid=66a32674-0e22-4208-bc59-e57e45db52af"},"vehicle_type_id":"4","last_reported":1739099183,"current_range_meters":28400,"station_id":"ce4bhgp2rcd13ifvqfd0","pricing_plan_id":"cebpf4jnsgd1na2vs0mg"},{"bike_id":"bdf62395-6391-4c12-b57b-5fd218a35215","system_id":"levelo_inurba_marseille","lat":43.29722,"lon":5.37689,"is_reserved":false,"is_disabled":false,"rental_uris":{"android":"levelo://app?vid=bdf62395-6391-4c12-b57b-5fd218a35215","ios":"levelo://app?vid=bdf62395-6391-4c12-b57b-5fd218a35215"},"vehicle_type_id":"4","last_reported":1739099183,"current_range_meters":38800,"station_id":"ce4bgkh2rcd13ifvqbl0","pricing_plan_id":"cebpf4jnsgd1na2vs0mg"},{"bike_id":"811b596f-d366-4ba7-8bb7-6aab07e70a55","system_id":"levelo_inurba_marseille","lat":43.28258,"lon":5.35071,"is_reserved":false,"is_disabled":false,"rental_uris":{"android":"levelo://app?vid=811b596f-d366-4ba7-8bb7-6aab07e70a55","ios":"levelo://app?vid=811b596f-d366-4ba7-8bb7-6aab07e70a55"},"vehicle_type_id":"4","last_reported":1739099183,"current_range_meters":16000,"station_id":"ce4bhbp2rcd13ifvqerg","pricing_plan_id":"cebpf4jnsgd1na2vs0mg"},{"bike_id":"213121fc-8105-4127-83ce-0c8d78bb7544","system_id":"levelo_inurba_marseille","lat":43.31327,"lon":5.39694,"is_reserved":false,"is_disabled":false,"rental_uris":{"android":"levelo://app?vid=213121fc-8105-4127-83ce-0c8d78bb7544","ios":"levelo://app?vid=213121fc-8105-4127-83ce-0c8d78bb7544"},"vehicle_type_id":"4","last_reported":1739099183,"current_range_meters":25600,"station_id":"ce4bgvp2rcd13ifvqcu0","pricing_plan_id":"cebpf4jnsgd1na2vs0mg"},{"bike_id":"add99ff6-f54a-4f52-b2a1-c4071c3f0d53","system_id":"levelo_inurba_marseille","lat":43.26665,"lon":5.38275,"is_reserved":false,"is_disabled":false,"rental_uris":{"android":"levelo://app?vid=add99ff6-f54a-4f52-b2a1-c4071c3f0d53","ios":"levelo://app?vid=add99ff6-f54a-4f52-b2a1-c4071c3f0d53"},"vehicle_type_id":"4","last_reported":1739099183,"current_range_meters":27600,"station_id":"ce4bhg92rcd13ifvqf90","pricing_plan_id":"cebpf4jnsgd1na2vs0mg"},{"bike_id":"d8f62340-4eca-4551-9614-e0d9ad9e8911","system_id":"levelo_inurba_marseille","lat":43.26949,"lon":5.386355,"is_reserved":false,"is_disabled":false,"rental_uris":{"android":"levelo://app?vid=d8f62340-4eca-4551-9614-e0d9ad9e8911","ios":"levelo://app?vid=d8f62340-4eca-4551-9614-e0d9ad9e8911"},"vehicle_type_id":"4","last_reported":1739099183,"current_range_meters":14800,"station_id":"ce4bhh92rcd13ifvqfh0","pricing_plan_id":"cebpf4jnsgd1na2vs0mg"},{"bike_id":"25abaf33-067a-4b80-89fd-6dd825a080ab","system_id":"levelo_inurba_marseille","lat":43.30159,"lon":5.38093,"is_reserved":false,"is_disabled":false,"rental_uris":{"android":"levelo://app?vid=25abaf33-067a-4b80-89fd-6dd825a080ab","ios":"levelo://app?vid=25abaf33-067a-4b80-89fd-6dd825a080ab"},"vehicle_type_id":"4","last_reported":1739099183,"current_range_meters":38800,"station_id":"ce4bgjp2rcd13ifvqbh0","pricing_plan_id":"cebpf4jnsgd1na2vs0mg"},{"bike_id":"c54adf54-2f88-445c-8d8e-45419eb2600c","system_id":"levelo_inurba_marseille","lat":43.30638,"lon":5.37361,"is_reserved":false,"is_disabled":false,"rental_uris":{"android":"levelo://app?vid=c54adf54-2f88-445c-8d8e-45419eb2600c","ios":"levelo://app?vid=c54adf54-2f88-445c-8d8e-45419eb2600c"},"vehicle_type_id":"4","last_reported":1739099183,"current_range_meters":8400,"station_id":"","pricing_plan_id":"cebpf4jnsgd1na2vs0mg"},