{"last_updated":1750435953,"ttl":60,"version":"2.2","data":{"bikes":[{"bike_id":"3da29fb8-fc97-44c6-b9ac-31dd456b2fd4","system_id":"levelo_inurba_marseille","lat":43.33771,"lon":5.37424,"is_reserved":false,"is_disabled":true,"rental_uris":{"android":"levelo://app?vid=3da29fb8-fc97-44c6-b9ac-31dd456b2fd4","ios":"levelo://app?vid=3da29fb8-fc97-44c6-b9ac-31dd456b2fd4"},"vehicle_type_id":"4","last_reported":1750435953,"current_range_meters":0,"station_id":"","pricing_plan_id":"cebpf4jnsgd1na2vs0mg"},{"bike_id":"01861ad8-a8d7-4be6-816e-651927c87584","system_id":"levelo_inurba_marseille","lat":43.33751,"lon":5.37456,"is_reserved":false,"is_disabled":true,"rental_uris":{"android":"levelo://app?vid=01861ad8-a8d7-4be6-816e-651927c87584","ios":"levelo://app?vid=01861ad8-a8d7-4be6-816e-651927c87584"},"vehicle_type_id":"4","last_reported":1750435953,"current_range_meters":0,"station_id":"","pricing_plan_id":"cebpf4jnsgd1na2vs0mg"},{"bike_id":"d2bd57c8-6b64-48db-ad24-5398eb3fd9d6","system_id":"levelo_inurba_marseille","lat":43.337444,"lon":5.374475,"is_reserved":false,"is_disabled":true,"rental_uris":{"android":"levelo://app?vid=d2bd57c8-6b64-48db-ad24-5398eb3fd9d6","ios":"levelo://app?vid=d2bd57c8-6b64-48db-ad24-5398eb3fd9d6"},"vehicle_type_id":"4","last_reported":1750435953,"current_range_meters":0,"station_id":"","pricing_plan_id":"cebpf4jnsgd1na2vs0mg"},{"bike_id":"62a493c7-4534-4419-ad43-0582de34a72a","system_id":"levelo_inurba_marseille","lat":43.21366,"lon":5.355183,"is_reserved":false,"is_disabled":true,"rental_uris":{"android":"levelo://app?vid=62a493c7-4534-4419-ad43-0582de34a72a","ios":"levelo://app?vid=62a493c7-4534-4419-ad43-0582de34a72a"},"vehicle_type_id":"4","last_reported":1750435953,"current_range_meters":0,"station_id":"","pricing_plan_id":"cebpf4jnsgd1na2vs0mg"},{"bike_id":"d5a1ae9e-4421-4539-b5ac-98a00695a8d8","system_id":"levelo_inurba_marseille","lat":43.334273,"lon":5.40049,"is_reserved":false,"is_disabled":true,"rental_uris":{"android":"levelo://app?vid=d5a1ae9e-4421-4539-b5ac-98a00695a8d8","ios":"levelo://app?vid=d5a1ae9e-4421-4539-b5ac-98a00695a8d8"},"vehicle_type_id":"4","last_reported":1750435953,"current_range_meters":0,"station_id":"","pricing_plan_id":"cebpf4jnsgd1na2vs0mg"},{"bike_id":"d6609b4f-333b-43c1-9ebe-8726f5e76e88","system_id":"levelo_inurba_marseille","lat":43.337444,"lon":5.374475,"is_reserved":false,"is_disabled":true,"rental_uris":{"android":"levelo://app?vid=d6609b4f-333b-43c1-9ebe-8726f5e76e88","ios":"levelo://app?vid=d6609b4f-333b-43c1-9ebe-8726f5e76e88"},"vehicle_type_id":"4","last_reported":1750435953,"current_range_meters":0,"station_id":"","pricing_plan_id":"cebpf4jnsgd1na2vs0mg"},{"bike_id":"02bc6f28-15c3-4174-82d8-43d8ff6bcc3f","system_id":"levelo_inurba_marseille","lat":43.293011,"lon":5.374601,"is_reserved":false,"is_disabled":true,"rental_uris":{"android":"levelo://app?vid=02bc6f28-15c3-4174-82d8-43d8ff6bcc3f","ios":"levelo://app?vid=02bc6f28-15c3-4174-82d8-43d8ff6bcc3f"},"vehicle_type_id":"4","last_reported":1750435953,"current_range_meters":0,"station_id":"ce4bgi12rcd13ifvqb70","pricing_plan_id":"cebpf4jnsgd1na2vs0mg"},{"bike_id":"9e9b199e-140e-43bf-8f67-d035bc53b1d3","system_id":"levelo_inurba_marseille","lat":43.3015,"lon":5.3809,"is_reserved":false,"is_disabled":true,"rental_uris":{"android":"levelo://app?vid=9e9b199e-140e-43bf-8f67-d035bc53b1d3","ios":"levelo://app?vid=9e9b199e-140e-43bf-8f67-d035bc53b1d3"},"vehicle_type_id":"4","last_reported":1750435953,"current_range_meters":0,"station_id":"ce4bgjp2rcd13ifvqbh0","pricing_plan_id":"cebpf4jnsgd1na2vs0mg"},{"bike_id":"cbd70f7a-8220-4419-87c0-38674d5fcd85","system_id":"levelo_inurba_marseille","lat":43.30145,"lon":5.38071,"is_reserved":false,"is_disabled":true,"rental_uris":{"android":"levelo://app?vid=cbd70f7a-8220-4419-87c0-38674d5fcd85","ios":"levelo://app?vid=cbd70f7a-8220-4419-87c0-38674d5fcd85"},"vehicle_type_id":"4","last_reported":1750435953,"current_range_meters":0,"station_id":"ce4bgjp2rcd13ifvqbh0","pricing_plan_id":"cebpf4jnsgd1na2vs0mg"},{"bike_id":"faedb750-b8ea-4e5f-b7f1-2931a192c239","system_id":"levelo_inurba_marseille","lat":43.31323,"lon":5.36725,"is_reserved":false,"is_disabled":true,"rental_uris":{"android":"levelo://app?vid=faedb750-b8ea-4e5f-b7f1-2931a192c239","ios":"levelo://app?vid=faedb750-b8ea-4e5f-b7f1-2931a192c239"},"vehicle_type_id":"4","last_reported":1750435953,"current_range_meters":0,"station_id":"ce4bgr92rcd13ifvqc6g","pricing_plan_id":"cebpf4jnsgd1na2vs0mg"},{"bike_id":"bcd6b066-265d-4ae4-8854-a00d7276450c","system_id":"levelo_inurba_marseille","lat":43.3017,"lon":5.37411,"is_reserved":false,"is_disabled":true,"rental_uris":{"android":"levelo://app?vid=bcd6b066-265d-4ae4-8854-a00d7276450c","ios":"levelo://app?vid=bcd6b066-265d-4ae4-8854-a00d7276450c"},"vehicle_type_id":"4","last_reported":1750435953,"current_range_meters":0,"station_id":"ce4bgs92rcd13ifvqcc0","pricing_plan_id":"cebpf4jnsgd1na2vs0mg"},{"bike_id":"9b335391-2964-43e7-852d-e569defbea0b","system_id":"levelo_inurba_marseille","lat":43.310687,"lon":5.38369,"is_reserved":false,"is_disabled":true,"rental_uris":{"android":"levelo://app?vid=9b335391-2964-43e7-852d-e569defbea0b","ios":"levelo://app?vid=9b335391-2964-43e7-852d-e569defbea0b"},"vehicle_type_id":"4","last_reported":1750435953,"current_range_meters":0,"station_id":"ce4bgv92rcd13ifvqcr0","pricing_plan_id":"cebpf4jnsgd1na2vs0mg"},{"bike_id":"62601cf6-4d7a-474f-a378-dfdbba984829","system_id":"levelo_inurba_marseille","lat":43.31287,"lon":5.40161,"is_reserved":false,"is_disabled":true,"rental_uris":{"android":"levelo://app?vid=62601cf6-4d7a-474f-a378-dfdbba984829","ios":"levelo://app?vid=62601cf6-4d7a-474f-a378-dfdbba984829"},"vehicle_type_id":"4","last_reported":1750435953,"current_range_meters":0,"station_id":"ce4bh092rcd13ifvqd30","pricing_plan_id":"cebpf4jnsgd1na2vs0mg"},{"bike_id":"2ab479c7-273d-4308-a0ff-fdb5068b65a7","system_id":"levelo_inurba_marseille","lat":43.29802,"lon":5.40402,"is_reserved":false,"is_disabled":true,"rental_uris":{"android":"levelo://app?vid=2ab479c7-273d-4308-a0ff-fdb5068b65a7","ios":"levelo://app?vid=2ab479c7-273d-4308-a0ff-fdb5068b65a7"},"vehicle_type_id":"4","last_reported":1750435953,"current_range_meters":0,"station_id":"ce4bh112rcd13ifvqd90","pricing_plan_id":"cebpf4jnsgd1na2vs0mg"},{"bike_id":"82e9ca09-40f1-4e72-84ec-c198ab2bdb4b","system_id":"levelo_inurba_marseille","lat":43.30648,"lon":5.40091,"is_reserved":false,"is_disabled":true,"rental_uris":{"android":"levelo://app?vid=82e9ca09-40f1-4e72-84ec-c198ab2bdb4b","ios":"levelo://app?vid=82e9ca09-40f1-4e72-84ec-c198ab2bdb4b"},"vehicle_type_id":"4","last_reported":1750435953,"current_range_meters":0,"station_id":"ce4bh112rcd13ifvqda0","pricing_plan_id":"cebpf4jnsgd1na2vs0mg"},{"bike_id":"cd9c0eb1-db20-485b-8ec0-371123856c56","system_id":"levelo_inurba_marseille","lat":43.28421,"lon":5.34976,"is_reserved":false,"is_disabled":true,"rental_uris":{"android":"levelo://app?vid=cd9c0eb1-db20-485b-8ec0-371123856c56","ios":"levelo://app?vid=cd9c0eb1-db20-485b-8ec0-371123856c56"},"vehicle_type_id":"4","last_reported":1750435953,"current_range_meters":0,"station_id":"ce4bhbh2rcd13ifvqepg","pricing_plan_id":"cebpf4jnsgd1na2vs0mg"},{"bike_id":"cf43af4b-b220-4d65-93e0-d767a56939b3","system_id":"levelo_inurba_marseille","lat":43.27203,"lon":5.39179,"is_reserved":false,"is_disabled":true,"rental_uris":{"android":"levelo://app?vid=cf43af4b-b220-4d65-93e0-d767a56939b3","ios":"levelo://app?vid=cf43af4b-b220-4d65-93e0-d767a56939b3"},"vehicle_type_id":"4","last_reported":1750435953,"current_range_meters":0,"station_id":"ce4bhhp2rcd13ifvqfm0","pricing_plan_id":"cebpf4jnsgd1na2vs0mg"},{"bike_id":"4ca58bfc-b233-490c-8e0b-b2747edce1db","system_id":"levelo_inurba_marseille","lat":43.25564,"lon":5.38244,"is_reserved":false,"is_disabled":true,"rental_uris":{"android":"levelo://app?vid=4ca58bfc-b233-490c-8e0b-b2747edce1db","ios":"levelo://app?vid=4ca58bfc-b233-490c-8e0b-b2747edce1db"},"vehicle_type_id":"4","last_reported":1750435953,"current_range_meters":0,"station_id":"ce4bhih2rcd13ifvqfs0","pricing_plan_id":"cebpf4jnsgd1na2vs0mg"},{"bike_id":"2be082ca-4467-48fd-b65c-3c02b405800f","system_id":"levelo_inurba_marseille","lat":43.23156,"lon":5.43705,"is_reserved":false,"is_disabled":true,"rental_uris":{"android":"levelo://app?vid=2be082ca-4467-48fd-b65c-3c02b405800f","ios":"levelo://app?vid=2be082ca-4467-48fd-b65c-3c02b405800f"},"vehicle_type_id":"4","last_reported":1750435953,"current_range_meters":0,"station_id":"ce4bhmp2rcd13ifvqgog","pricing_plan_id":"cebpf4jnsgd1na2vs0mg"},{"bike_id":"0429e4a3-d3bf-40bd-b063-80c29d85ae65","system_id":"levelo_inurba_marseille","lat":43.30794,"lon":5.43513,"is_reserved":false,"is_disabled":true,"rental_uris":{"android":"levelo://app?vid=0429e4a3-d3bf-40bd-b063-80c29d85ae65","ios":"levelo://app?vid=0429e4a3-d3bf-40bd-b063-80c29d85ae65"},"vehicle_type_id":"4","last_reported":1750435953,"current_range_meters":0,"station_id":"ce4bhph2rcd13ifvqheg","pricing_plan_id":"cebpf4jnsgd1na2vs0mg"},{"bike_id":"9491b791-a5aa-472a-b475-a8adbacb70fe","system_id":"levelo_inurba_marseille","lat":43.34131,"lon":5.40915,"is_reserved":false,"is_disabled":true,"rental_uris":{"android":"levelo://app?vid=9491b791-a5aa-472a-b475-a8adbacb70fe","ios":"levelo://app?vid=9491b791-a5aa-472a-b475-a8adbacb70fe"},"vehicle_type_id":"4","last_reported":1750435953,"current_range_meters":0,"station_id":"ce4bhqh2rcd13ifvqhlg","pricing_plan_id":"cebpf4jnsgd1na2vs0mg"},{"bike_id":"0080b588-b60f-492d-957d-f4bfdfe016d1","system_id":"levelo_inurba_marseille","lat":43.33584,"lon":5.41034,"is_reserved":false,"is_disabled":true,"rental_uris":{"android":"levelo://app?vid=0080b588-b60f-492d-957d-f4bfdfe016d1","ios":"levelo://app?vid=0080b588-b60f-492d-957d-f4bfdfe016d1"},"vehicle_type_id":"4","last_reported":1750435953,"current_range_meters":0,"station_id":"ce4bhqh2rcd13ifvqhmg","pricing_plan_id":"cebpf4jnsgd1na2vs0mg"},{"bike_id":"6c4aa514-64a0-498f-ad36-d61db9fcf9a5","system_id":"levelo_inurba_marseille","lat":43.292755,"lon":5.368378,"is_reserved":false,"is_disabled":true,"rental_uris":{"android":"levelo://app?vid=6c4aa514-64a0-498f-ad36-d61db9fcf9a5","ios":"levelo://app?vid=6c4aa514-64a0-498f-ad36-d61db9fcf9a5"},"vehicle_type_id":"4","last_reported":1750435953,"current_range_meters":400,"station_id":"","pricing_plan_id":"cebpf4jnsgd1na2vs0mg"},{"bike_id":"ee272ff7-81d5-4508-9d7d-ba25e59527fd","system_id":"levelo_inurba_marseille","lat":43.31691,"lon":5.40479,"is_reserved":false,"is_disabled":true,"rental_uris":{"android":"levelo://app?vid=ee272ff7-81d5-4508-9d7d-ba25e59527fd","ios":"levelo://app?vid=ee272ff7-81d5-4508-9d7d-ba25e59527fd"},"vehicle_type_id":"4","last_reported":1750435953,"current_range_meters":400,"station_id":"ce4bh012rcd13ifvqd00","pricing_plan_id":"cebpf4jnsgd1na2vs0mg"},{"bike_id":"9cf98aa0-6c22-48be-a2b7-ff3ed4ca3d8b","system_id":"levelo_inurba_marseille","lat":43.28419,"lon":5.34983,"is_reserved":false,"is_disabled":true,"rental_uris":{"android":"levelo://app?vid=9cf98aa0-6c22-48be-a2b7-ff3ed4ca3d8b","ios":"levelo://app?vid=9cf98aa0-6c22-48be-a2b7-ff3ed4ca3d8b"},"vehicle_type_id":"4","last_reported":1750435953,"current_range_meters":400,"station_id":"ce4bhbh2rcd13ifvqepg","pricing_plan_id":"cebpf4jnsgd1na2vs0mg"},{"bike_id":"852f6003-94ad-4ff7-9a9d-cfb572f745e0","system_id":"levelo_inurba_marseille","lat":43.30782,"lon":5.37648,"is_reserved":false,"is_disabled":true,"rental_uris":{"android":"levelo://app?vid=852f6003-94ad-4ff7-9a9d-cfb572f745e0","ios":"levelo://app?vid=852f6003-94ad-4ff7-9a9d-cfb572f745e0"},"vehicle_type_id":"4","last_reported":1750435953,"current_range_meters":800,"station_id":"ce4bgv92rcd13ifvqcq0","pricing_plan_id":"cebpf4jnsgd1na2vs0mg"},{"bike_id":"d3950dea-2e46-405f-98f5-7a2dc3cba0a7","system_id":"levelo_inurba_marseille","lat":43.30257,"lon":5.40081,"is_reserved":false,"is_disabled":true,"rental_uris":{"android":"levelo://app?vid=d3950dea-2e46-405f-98f5-7a2dc3cba0a7","ios":"levelo://app?vid=d3950dea-2e46-405f-98f5-7a2dc3cba0a7"},"vehicle_type_id":"4","last_reported":1750435953,"current_range_meters":800,"station_id":"ce4bgvh2rcd13ifvqcs0","pricing_plan_id":"cebpf4jnsgd1na2vs0mg"},{"bike_id":"f4c98968-27fb-4a29-a3be-a1305f423816","system_id":"levelo_inurba_marseille","lat":43.27967,"lon":5.38709,"is_reserved":false,"is_disabled":true,"rental_uris":{"android":"levelo://app?vid=f4c98968-27fb-4a29-a3be-a1305f423816","ios":"levelo://app?vid=f4c98968-27fb-4a29-a3be-a1305f423816"},"vehicle_type_id":"4","last_reported":1750435953,"current_range_meters":800,"station_id":"ce4bhg12rcd13ifvqf80","pricing_plan_id":"cebpf4jnsgd1na2vs0mg"},{"bike_id":"ffbe9469-ea1d-4461-adff-d46f1f4f2b67","system_id":"levelo_inurba_marseille","lat":43.2707,"lon":5.4228,"is_reserved":false,"is_disabled":true,"rental_uris":{"android":"levelo://app?vid=ffbe9469-ea1d-4461-adff-d46f1f4f2b67","ios":"levelo://app?vid=ffbe9469-ea1d-4461-adff-d46f1f4f2b67"},"vehicle_type_id":"4","last_reported":1750435953,"current_range_meters":800,"station_id":"ce4bhk92rcd13ifvqgb0","pricing_plan_id":"cebpf4jnsgd1na2vs0mg"},{"bike_id":"d5a76eef-6fb6-4b13-80f4-d0fb62ed6d20","system_id":"levelo_inurba_marseille","lat":43.27179,"lon":5.40991,"is_reserved":false,"is_disabled":true,"rental_uris":{"android":"levelo://app?vid=d5a76eef-6fb6-4b13-80f4-d0fb62ed6d20","ios":"levelo://app?vid=d5a76eef-6fb6-4b13-80f4-d0fb62ed6d20"},"vehicle_type_id":"4","last_reported":1750435953,"current_range_meters":800,"station_id":"ce4bhl12rcd13ifvqgf0","pricing_plan_id":"cebpf4jnsgd1na2vs0mg"},{"bike_id":"eb16ec1f-8525-41fc-8afd-519c9ab50c18","system_id":"levelo_inurba_marseille","lat":43.293103,"lon":5.37176,"is_reserved":false,"is_disabled":true,"rental_uris":{"android":"levelo://app?vid=eb16ec1f-8525-41fc-8afd-519c9ab50c18","ios":"levelo://app?vid=eb16ec1f-8525-41fc-8afd-519c9ab50c18"},"vehicle_type_id":"4","last_reported":1750435953,"current_range_meters":1200,"station_id":"ce4bgh92rcd13ifvqb40","pricing_plan_id":"cebpf4jnsgd1na2vs0mg"},{"bike_id":"716b0123-68de-4f6c-86de-032f16201dd0","system_id":"levelo_inurba_marseille","lat":43.31088,"lon":5.37789,"is_reserved":false,"is_disabled":true,"rental_uris":{"android":"levelo://app?vid=716b0123-68de-4f6c-86de-032f16201dd0","ios":"levelo://app?vid=716b0123-68de-4f6c-86de-032f16201dd0"},"vehicle_type_id":"4","last_reported":1750435953,"current_range_meters":1200,"station_id":"ce4bgt92rcd13ifvqcg0","pricing_plan_id":"cebpf4jnsgd1na2vs0mg"},{"bike_id":"27d7241c-563c-4da9-962a-724154bef7d5","system_id":"levelo_inurba_marseille","lat":43.302481,"lon":5.400627,"is_reserved":false,"is_disabled":true,"rental_uris":{"android":"levelo://app?vid=27d7241c-563c-4da9-962a-724154bef7d5","ios":"levelo://app?vid=27d7241c-563c-4da9-962a-724154bef7d5"},"vehicle_type_id":"4","last_reported":1750435953,"current_range_meters":1200,"station_id":"ce4bgvh2rcd13ifvqcs0","pricing_plan_id":"cebpf4jnsgd1na2vs0mg"},{"bike_id":"f549d813-8773-43dd-be96-438174af2cef","system_id":"levelo_inurba_marseille","lat":43.29278,"lon":5.36843,"is_reserved":false,"is_disabled":true,"rental_uris":{"android":"levelo://app?vid=f549d813-8773-43dd-be96-438174af2cef","ios":"levelo://app?vid=f549d813-8773-43dd-be96-438174af2cef"},"vehicle_type_id":"4","last_reported":1750435953,"current_range_meters":1200,"station_id":"ce4bhbp2rcd13ifvqesg","pricing_plan_id":"cebpf4jnsgd1na2vs0mg"},{"bike_id":"2ebc0e78-4c33-4009-9b44-74a4c102a611","system_id":"levelo_inurba_marseille","lat":43.27937,"lon":5.41048,"is_reserved":false,"is_disabled":true,"rental_uris":{"android":"levelo://app?vid=2ebc0e78-4c33-4009-9b44-74a4c102a611","ios":"levelo://app?vid=2ebc0e78-4c33-4009-9b44-74a4c102a611"},"vehicle_type_id":"4","last_reported":1750435953,"current_range_meters":1200,"station_id":"ce4bhnp2rcd13ifvqh0g","pricing_plan_id":"cebpf4jnsgd1na2vs0mg"},{"bike_id":"091fcb0c-ecce-41ae-9f81-09966ac2ef4a","system_id":"levelo_inurba_marseille","lat":43.303732,"lon":5.42483,"is_reserved":false,"is_disabled":true,"rental_uris":{"android":"levelo://app?vid=091fcb0c-ecce-41ae-9f81-09966ac2ef4a","ios":"levelo://app?vid=091fcb0c-ecce-41ae-9f81-09966ac2ef4a"},"vehicle_type_id":"4","last_reported":1750435953,"current_range_meters":1200,"station_id":"ce4bhoh2rcd13ifvqh6g","pricing_plan_id":"cebpf4jnsgd1na2vs0mg"},{"bike_id":"b1ea64e5-9981-4460-a2b3-59bf05260b31","system_id":"levelo_inurba_marseille","lat":43.32383,"lon":5.38868,"is_reserved":false,"is_disabled":true,"rental_uris":{"android":"levelo://app?vid=b1ea64e5-9981-4460-a2b3-59bf05260b31","ios":"levelo://app?vid=b1ea64e5-9981-4460-a2b3-59bf05260b31"},"vehicle_type_id":"4","last_reported":1750435953,"current_range_meters":1200,"station_id":"ce4bhqp2rcd13ifvqhog","pricing_plan_id":"cebpf4jnsgd1na2vs0mg"},{"bike_id":"c6cabea0-e508-4602-9d5d-2cec5470d984","system_id":"levelo_inurba_marseille","lat":43.292314,"lon":5.36075,"is_reserved":false,"is_disabled":true,"rental_uris":{"android":"levelo://app?vid=c6cabea0-e508-4602-9d5d-2cec5470d984","ios":"levelo://app?vid=c6cabea0-e508-4602-9d5d-2cec5470d984"},"vehicle_type_id":"4","last_reported":1750435953,"current_range_meters":1600,"station_id":"ce4bhbh2rcd13ifvqeqg","pricing_plan_id":"cebpf4jnsgd1na2vs0mg"},{"bike_id":"092b3e61-6d91-45f7-af57-58a33dc97498","system_id":"levelo_inurba_marseille","lat":43.26561,"lon":5.39003,"is_reserved":false,"is_disabled":true,"rental_uris":{"android":"levelo://app?vid=092b3e61-6d91-45f7-af57-58a33dc97498","ios":"levelo://app?vid=092b3e61-6d91-45f7-af57-58a33dc97498"},"vehicle_type_id":"4","last_reported":1750435953,"current_range_meters":1600,"station_id":"ce4bhe12rcd13ifvqf30","pricing_plan_id":"cebpf4jnsgd1na2vs0mg"},{"bike_id":"47cab60f-470a-4b98-81cc-cb27b35ba55a","system_id":"levelo_inurba_marseille","lat":43.281541,"lon":5.426441,"is_reserved":false,"is_disabled":true,"rental_uris":{"android":"levelo://app?vid=47cab60f-470a-4b98-81cc-cb27b35ba55a","ios":"levelo://app?vid=47cab60f-470a-4b98-81cc-cb27b35ba55a"},"vehicle_type_id":"4","last_reported":1750435953,"current_range_meters":2000,"station_id":"ce4bhnh2rcd13ifvqgug","pricing_plan_id":"cebpf4jnsgd1na2vs0mg"},{"bike_id":"1396b7f4-6208-4566-80b2-d3335561f729","system_id":"levelo_inurba_marseille","lat":43.23195,"lon":5.35555,"is_reserved":false,"is_disabled":true,"rental_uris":{"android":"levelo://app?vid=1396b7f4-6208-4566-80b2-d3335561f729","ios":"levelo://app?vid=1396b7f4-6208-4566-80b2-d3335561f729"},"vehicle_type_id":"4","last_reported":1750435953,"current_range_meters":2000,"station_id":"ce4bhu92rcd13ifvqi70","pricing_plan_id":"cebpf4jnsgd1na2vs0mg"},{"bike_id":"32ff7054-8732-470c-859d-f7fa9cd02346","system_id":"levelo_inurba_marseille","lat":43.29936,"lon":5.36539,"is_reserved":false,"is_disabled":false,"rental_uris":{"android":"levelo://app?vid=32ff7054-8732-470c-859d-f7fa9cd02346","ios":"levelo://app?vid=32ff7054-8732-470c-859d-f7fa9cd02346"},"vehicle_type_id":"4","last_reported":1750435953,"current_range_meters":2800,"station_id":"ce4bgm92rcd13ifvqbr0","pricing_plan_id":"cebpf4jnsgd1na2vs0mg"},{"bike_id":"28097abb-b766-4f3f-bef3-1bd755bed13e","system_id":"levelo_inurba_marseille","lat":43.28417,"lon":5.34983,"is_reserved":false,"is_disabled":false,"rental_uris":{"android":"levelo://app?vid=28097abb-b766-4f3f-bef3-1bd755bed13e","ios":"levelo://app?vid=28097abb-b766-4f3f-bef3-1bd755bed13e"},"vehicle_type_id":"4","last_reported":1750435953,"current_range_meters":2800,"station_id":"ce4bhbh2rcd13ifvqepg","pricing_plan_id":"cebpf4jnsgd1na2vs0mg"},{"bike_id":"a62649fc-3a9a-4afa-90c1-6919e94370e8","system_id":"levelo_inurba_marseille","lat":43.23964,"lon":5.36628,"is_reserved":false,"is_disabled":false,"rental_uris":{"android":"levelo://app?vid=a62649fc-3a9a-4afa-90c1-6919e94370e8","ios":"levelo://app?vid=a62649fc-3a9a-4afa-90c1-6919e94370e8"},"vehicle_type_id":"4","last_reported":1750435953,"current_range_meters":2800,"station_id":"ce4bhi12rcd13ifvqfp0","pricing_plan_id":"cebpf4jnsgd1na2vs0mg"},{"bike_id":"f06f89bf-6125-4499-b773-9eec329af720","system_id":"levelo_inurba_marseille","lat":43.28153,"lon":5.42645,"is_reserved":false,"is_disabled":false,"rental_uris":{"android":"levelo://app?vid=f06f89bf-6125-4499-b773-9eec329af720","ios":"levelo://app?vid=f06f89bf-6125-4499-b773-9eec329af720"},"vehicle_type_id":"4","last_reported":1750435953,"current_range_meters":2800,"station_id":"ce4bhnh2rcd13ifvqgug","pricing_plan_id":"cebpf4jnsgd1na2vs0mg"},{"bike_id":"5f4c6113-c10e-4c0a-b5db-5469c1737b88","system_id":"levelo_inurba_marseille","lat":43.28611,"lon":5.37055,"is_reserved":false,"is_disabled":false,"rental_uris":{"android":"levelo://app?vid=5f4c6113-c10e-4c0a-b5db-5469c1737b88","ios":"levelo://app?vid=5f4c6113-c10e-4c0a-b5db-5469c1737b88"},"vehicle_type_id":"4","last_reported":1750435953,"current_range_meters":2800,"station_id":"ce4bht12rcd13ifvqi60","pricing_plan_id":"cebpf4jnsgd1na2vs0mg"},{"bike_id":"9e2935bc-40a3-489e-aa56-1f143b6755e1","system_id":"levelo_inurba_marseille","lat":43.305954,"lon":5.393449,"is_reserved":false,"is_disabled":false,"rental_uris":{"android":"levelo://app?vid=9e2935bc-40a3-489e-aa56-1f143b6755e1","ios":"levelo://app?vid=9e2935bc-40a3-489e-aa56-1f143b6755e1"},"vehicle_type_id":"4","last_reported":1750435953,"current_range_meters":3200,"station_id":"ce4bh0p2rcd13ifvqd80","pricing_plan_id":"cebpf4jnsgd1na2vs0mg"},{"bike_id":"84436a58-d0e7-49c3-bef1-9af64ca13eba","system_id":"levelo_inurba_marseille","lat":43.29776,"lon":5.3933,"is_reserved":false,"is_disabled":false,"rental_uris":{"android":"levelo://app?vid=84436a58-d0e7-49c3-bef1-9af64ca13eba","ios":"levelo://app?vid=84436a58-d0e7-49c3-bef1-9af64ca13eba"},"vehicle_type_id":"4","last_reported":1750435953,"current_range_meters":3200,"station_id":"chh1huq6cuj3fo74tm60","pricing_plan_id":"cebpf4jnsgd1na2vs0mg"},{"bike_id":"9f358cfb-0408-45d8-b2fb-b5d26f344f77","system_id":"levelo_inurba_marseille","lat":43.30887,"lon":5.39657,"is_reserved":false,"is_disabled":false,"rental_uris":{"android":"levelo://app?vid=9f358cfb-0408-45d8-b2fb-b5d26f344f77","ios":"levelo://app?vid=9f358cfb-0408-45d8-b2fb-b5d26f344f77"},"vehicle_type_id":"4","last_reported":1750435953,"current_range_meters":3600,"station_id":"ce4bh012rcd13ifvqcv0","pricing_plan_id":"cebpf4jnsgd1na2vs0mg"},{"bike_id":"2694ce9b-9ec5-47ec-939f-3462a0e9d340","system_id":"levelo_inurba_marseille","lat":43.28078,"lon":5.39663,"is_reserved":false,"is_disabled":false,"rental_uris":{"android":"levelo://app?vid=2694ce9b-9ec5-47ec-939f-3462a0e9d340","ios":"levelo://app?vid=2694ce9b-9ec5-47ec-939f-3462a0e9d340"},"vehicle_type_id":"4","last_reported":1750435953,"current_range_meters":3600,"station_id":"ce4bho12rcd13ifvqh2g","pricing_plan_id":"cebpf4jnsgd1na2vs0mg"},{"bike_id":"a6247024-8903-4227-b30a-e0a1f0604d80","system_id":"levelo_inurba_marseille","lat":43.309128,"lon":5.368546,"is_reserved":false,"is_disabled":false,"rental_uris":{"android":"levelo://app?vid=a6247024-8903-4227-b30a-e0a1f0604d80","ios":"levelo://app?vid=a6247024-8903-4227-b30a-e0a1f0604d80"},"vehicle_type_id":"4","last_reported":1750435953,"current_range_meters":4000,"station_id":"ce4bgn92rcd13ifvqbvg","pricing_plan_id":"cebpf4jnsgd1na2vs0mg"},{"bike_id":"4a4968e0-1c29-4a00-b172-4ac54332b6bd","system_id":"levelo_inurba_marseille","lat":43.27411,"lon":5.39399,"is_reserved":false,"is_disabled":false,"rental_uris":{"android":"levelo://app?vid=4a4968e0-1c29-4a00-b172-4ac54332b6bd","ios":"levelo://app?vid=4a4968e0-1c29-4a00-b172-4ac54332b6bd"},"vehicle_type_id":"4","last_reported":1750435953,"current_range_meters":4000,"station_id":"ce4bhdp2rcd13ifvqf20","pricing_plan_id":"cebpf4jnsgd1na2vs0mg"},{"bike_id":"ed0b1f17-7c0d-4716-a973-817d5c020e06","system_id":"levelo_inurba_marseille","lat":43.24549,"lon":5.39524,"is_reserved":false,"is_disabled":false,"rental_uris":{"android":"levelo://app?vid=ed0b1f17-7c0d-4716-a973-817d5c020e06","ios":"levelo://app?vid=ed0b1f17-7c0d-4716-a973-817d5c020e06"},"vehicle_type_id":"4","last_reported":1750435953,"current_range_meters":4000,"station_id":"ce4bhlp2rcd13ifvqgjg","pricing_plan_id":"cebpf4jnsgd1na2vs0mg"},{"bike_id":"92ce57c7-d593-4c6c-b8f8-b0d33af39202","system_id":"levelo_inurba_marseille","lat":43.2795,"lon":5.41048,"is_reserved":false,"is_disabled":false,"rental_uris":{"android":"levelo://app?vid=92ce57c7-d593-4c6c-b8f8-b0d33af39202","ios":"levelo://app?vid=92ce57c7-d593-4c6c-b8f8-b0d33af39202"},"vehicle_type_id":"4","last_reported":1750435953,"current_range_meters":4000,"station_id":"ce4bhnp2rcd13ifvqh0g","pricing_plan_id":"cebpf4jnsgd1na2vs0mg"},{"bike_id":"02c8328a-1e0c-43b9-b20a-72a6553a5656","system_id":"levelo_inurba_marseille","lat":43.29895,"lon":5.43654,"is_reserved":false,"is_disabled":false,"rental_uris":{"android":"levelo://app?vid=02c8328a-1e0c-43b9-b20a-72a6553a5656","ios":"levelo://app?vid=02c8328a-1e0c-43b9-b20a-72a6553a5656"},"vehicle_type_id":"4","last_reported":1750435953,"current_range_meters":4000,"station_id":"ce4bhpp2rcd13ifvqhfg","pricing_plan_id":"cebpf4jnsgd1na2vs0mg"},{"bike_id":"da1489c7-ffd3-44d0-97f3-18cee90e5143","system_id":"levelo_inurba_marseille","lat":43.32371,"lon":5.38883,"is_reserved":false,"is_disabled":false,"rental_uris":{"android":"levelo://app?vid=da1489c7-ffd3-44d0-97f3-18cee90e5143","ios":"levelo://app?vid=da1489c7-ffd3-44d0-97f3-18cee90e5143"},"vehicle_type_id":"4","last_reported":1750435953,"current_range_meters":4000,"station_id":"ce4bhqp2rcd13ifvqhog","pricing_plan_id":"cebpf4jnsgd1na2vs0mg"},{"bike_id":"162bab2b-4dc9-479a-8ee3-d7639476086f","system_id":"levelo_inurba_marseille","lat":43.28615,"lon":5.35098,"is_reserved":false,"is_disabled":false,"rental_uris":{"android":"levelo://app?vid=162bab2b-4dc9-479a-8ee3-d7639476086f","ios":"levelo://app?vid=162bab2b-4dc9-479a-8ee3-d7639476086f"},"vehicle_type_id":"4","last_reported":1750435953,"current_range_meters":4400,"station_id":"ce4bhch2rcd13ifvqeug","pricing_plan_id":"cebpf4jnsgd1na2vs0mg"},{"bike_id":"50fc98e8-2bd9-47dc-bfd5-7c4eb6cbe320","system_id":"levelo_inurba_marseille","lat":43.23151,"lon":5.43712,"is_reserved":false,"is_disabled":false,"rental_uris":{"android":"levelo://app?vid=50fc98e8-2bd9-47dc-bfd5-7c4eb6cbe320","ios":"levelo://app?vid=50fc98e8-2bd9-47dc-bfd5-7c4eb6cbe320"},"vehicle_type_id":"4","last_reported":1750435953,"current_range_meters":4400,"station_id":"ce4bhmp2rcd13ifvqgog","pricing_plan_id":"cebpf4jnsgd1na2vs0mg"},{"bike_id":"268aafb4-1331-426c-97bc-a7d6564caeb6","system_id":"levelo_inurba_marseille","lat":43.32933,"lon":5.37919,"is_reserved":false,"is_disabled":false,"rental_uris":{"android":"levelo://app?vid=268aafb4-1331-426c-97bc-a7d6564caeb6","ios":"levelo://app?vid=268aafb4-1331-426c-97bc-a7d6564caeb6"},"vehicle_type_id":"4","last_reported":1750435953,"current_range_meters":5600,"station_id":"","pricing_plan_id":"cebpf4jnsgd1na2vs0mg"},{"bike_id":"0dedb6f6-6801-483b-bfb8-9cd4533d158f","system_id":"levelo_inurba_marseille","lat":43.311406,"lon":5.381041,"is_reserved":false,"is_disabled":false,"rental_uris":{"android":"levelo://app?vid=0dedb6f6-6801-483b-bfb8-9cd4533d158f","ios":"levelo://app?vid=0dedb6f6-6801-483b-bfb8-9cd4533d158f"},"vehicle_type_id":"4","last_reported":1750435953,"current_range_meters":5600,"station_id":"","pricing_plan_id":"cebpf4jnsgd1na2vs0mg"},{"bike_id":"2277d43b-c02f-4119-8552-d474a3ef6426","system_id":"levelo_inurba_marseille","lat":43.29533,"lon":5.38543,"is_reserved":false,"is_disabled":false,"rental_uris":{"android":"levelo://app?vid=2277d43b-c02f-4119-8552-d474a3ef6426","ios":"levelo://app?vid=2277d43b-c02f-4119-8552-d474a3ef6426"},"vehicle_type_id":"4","last_reported":1750435953,"current_range_meters":5600,"station_id":"ce4bgih2rcd13ifvqba0","pricing_plan_id":"cebpf4jnsgd1na2vs0mg"},{"bike_id":"ef21d472-619b-4672-9054-97ec3bc97065","system_id":"levelo_inurba_marseille","lat":43.29902,"lon":5.43668,"is_reserved":false,"is_disabled":false,"rental_uris":{"android":"levelo://app?vid=ef21d472-619b-4672-9054-97ec3bc97065","ios":"levelo://app?vid=ef21d472-619b-4672-9054-97ec3bc97065"},"vehicle_type_id":"4","last_reported":1750435953,"current_range_meters":6000,"station_id":"ce4bhpp2rcd13ifvqhfg","pricing_plan_id":"cebpf4jnsgd1na2vs0mg"},{"bike_id":"e7ea39a0-08e1-4f09-8f3f-e30c119e669a","system_id":"levelo_inurba_marseille","lat":43.30793,"lon":5.437,"is_reserved":false,"is_disabled":false,"rental_uris":{"android":"levelo://app?vid=e7ea39a0-08e1-4f09-8f3f-e30c119e669a","ios":"levelo://app?vid=e7ea39a0-08e1-4f09-8f3f-e30c119e669a"},"vehicle_type_id":"4","last_reported":1750435953,"current_range_meters":6400,"station_id":"","pricing_plan_id":"cebpf4jnsgd1na2vs0mg"},{"bike_id":"3d43e24d-5646-47f2-9b82-f2f4aed26a14","system_id":"levelo_inurba_marseille","lat":43.304312,"lon":5.397444,"is_reserved":false,"is_disabled":false,"rental_uris":{"android":"levelo://app?vid=3d43e24d-5646-47f2-9b82-f2f4aed26a14","ios":"levelo://app?vid=3d43e24d-5646-47f2-9b82-f2f4aed26a14"},"vehicle_type_id":"4","last_reported":1750435953,"current_range_meters":6400,"station_id":"ce4bh092rcd13ifvqd20","pricing_plan_id":"cebpf4jnsgd1na2vs0mg"},{"bike_id":"58922a97-e973-4175-948c-ae2e4bed8d56","system_id":"levelo_inurba_marseille","lat":43.30213,"lon":5.39461,"is_reserved":false,"is_disabled":false,"rental_uris":{"android":"levelo://app?vid=58922a97-e973-4175-948c-ae2e4bed8d56","ios":"levelo://app?vid=58922a97-e973-4175-948c-ae2e4bed8d56"},"vehicle_type_id":"4","last_reported":1750435953,"current_range_meters":6400,"station_id":"ce4bh0p2rcd13ifvqd70","pricing_plan_id":"cebpf4jnsgd1na2vs0mg"},{"bike_id":"d873b300-6b67-4224-a43d-9e847e2b11d3","system_id":"levelo_inurba_marseille","lat":43.2894,"lon":5.36635,"is_reserved":false,"is_disabled":false,"rental_uris":{"android":"levelo://app?vid=d873b300-6b67-4224-a43d-9e847e2b11d3","ios":"levelo://app?vid=d873b300-6b67-4224-a43d-9e847e2b11d3"},"vehicle_type_id":"4","last_reported":1750435953,"current_range_meters":6400,"station_id":"ce4bhap2rcd13ifvqek0","pricing_plan_id":"cebpf4jnsgd1na2vs0mg"},{"bike_id":"edb769f6-0a18-458e-aa67-7133de70fac2","system_id":"levelo_inurba_marseille","lat":43.26212,"lon":5.37435,"is_reserved":false,"is_disabled":false,"rental_uris":{"android":"levelo://app?vid=edb769f6-0a18-458e-aa67-7133de70fac2","ios":"levelo://app?vid=edb769f6-0a18-458e-aa67-7133de70fac2"},"vehicle_type_id":"4","last_reported":1750435953,"current_range_meters":6400,"station_id":"ce4bhgp2rcd13ifvqfc0","pricing_plan_id":"cebpf4jnsgd1na2vs0mg"},{"bike_id":"9ae44dc4-f949-456b-b0dd-1ce7129e0d88","system_id":"levelo_inurba_marseille","lat":43.23196,"lon":5.35552,"is_reserved":false,"is_disabled":false,"rental_uris":{"android":"levelo://app?vid=9ae44dc4-f949-456b-b0dd-1ce7129e0d88","ios":"levelo://app?vid=9ae44dc4-f949-456b-b0dd-1ce7129e0d88"},"vehicle_type_id":"4","last_reported":1750435953,"current_range_meters":6400,"station_id":"ce4bhu92rcd13ifvqi70","pricing_plan_id":"cebpf4jnsgd1na2vs0mg"},{"bike_id":"2b386cc5-112c-4153-a756-a14af747c73a","system_id":"levelo_inurba_marseille","lat":43.23061,"lon":5.35488,"is_reserved":false,"is_disabled":false,"rental_uris":{"android":"levelo://app?vid=2b386cc5-112c-4153-a756-a14af747c73a","ios":"levelo://app?vid=2b386cc5-112c-4153-a756-a14af747c73a"},"vehicle_type_id":"4","last_reported":1750435953,"current_range_meters":6400,"station_id":"cpo3342slgdg3j2ifvpg","pricing_plan_id":"cebpf4jnsgd1na2vs0mg"},{"bike_id":"c21f55bc-dc16-418f-8633-4016b9b28ec4","system_id":"levelo_inurba_marseille","lat":43.29537,"lon":5.394,"is_reserved":false,"is_disabled":false,"rental_uris":{"android":"levelo://app?vid=c21f55bc-dc16-418f-8633-4016b9b28ec4","ios":"levelo://app?vid=c21f55bc-dc16-418f-8633-4016b9b28ec4"},"vehicle_type_id":"4","last_reported":1750435953,"current_range_meters":6800,"station_id":"ce4bh292rcd13ifvqdf0","pricing_plan_id":"cebpf4jnsgd1na2vs0mg"},{"bike_id":"6097d4f2-f52d-44f0-9255-6a3263d5628a","system_id":"levelo_inurba_marseille","lat":43.29006,"lon":5.35616,"is_reserved":false,"is_disabled":false,"rental_uris":{"android":"levelo://app?vid=6097d4f2-f52d-44f0-9255-6a3263d5628a","ios":"levelo://app?vid=6097d4f2-f52d-44f0-9255-6a3263d5628a"},"vehicle_type_id":"4","last_reported":1750435953,"current_range_meters":6800,"station_id":"ce4bhb92rcd13ifvqen0","pricing_plan_id":"cebpf4jnsgd1na2vs0mg"},{"bike_id":"664f9c96-8746-4545-94f6-e3f493270939","system_id":"levelo_inurba_marseille","lat":43.279278,"lon":5.395745,"is_reserved":false,"is_disabled":false,"rental_uris":{"android":"levelo://app?vid=664f9c96-8746-4545-94f6-e3f493270939","ios":"levelo://app?vid=664f9c96-8746-4545-94f6-e3f493270939"},"vehicle_type_id":"4","last_reported":1750435953,"current_range_meters":6800,"station_id":"ce4bhf92rcd13ifvqf40","pricing_plan_id":"cebpf4jnsgd1na2vs0mg"},{"bike_id":"d51797ec-2a97-45ff-bc26-28ed6d8b88e5","system_id":"levelo_inurba_marseille","lat":43.2901,"lon":5.356095,"is_reserved":false,"is_disabled":false,"rental_uris":{"android":"levelo://app?vid=d51797ec-2a97-45ff-bc26-28ed6d8b88e5","ios":"levelo://app?vid=d51797ec-2a97-45ff-bc26-28ed6d8b88e5"},"vehicle_type_id":"4","last_reported":1750435953,"current_range_meters":7200,"station_id":"ce4bhb92rcd13ifvqen0","pricing_plan_id":"cebpf4jnsgd1na2vs0mg"},{"bike_id":"964ba0c0-21bc-4e71-b4dc-395bae13b8fc","system_id":"levelo_inurba_marseille","lat":43.2901,"lon":5.35614,"is_reserved":false,"is_disabled":false,"rental_uris":{"android":"levelo://app?vid=964ba0c0-21bc-4e71-b4dc-395bae13b8fc","ios":"levelo://app?vid=964ba0c0-21bc-4e71-b4dc-395bae13b8fc"},"vehicle_type_id":"4","last_reported":1750435953,"current_range_meters":7200,"station_id":"ce4bhb92rcd13ifvqen0","pricing_plan_id":"cebpf4jnsgd1na2vs0mg"},{"bike_id":"a4846fe5-ee0b-49d0-a5bc-1e480660f4fb","system_id":"levelo_inurba_marseille","lat":43.26202,"lon":5.37934,"is_reserved":false,"is_disabled":false,"rental_uris":{"android":"levelo://app?vid=a4846fe5-ee0b-49d0-a5bc-1e480660f4fb","ios":"levelo://app?vid=a4846fe5-ee0b-49d0-a5bc-1e480660f4fb"},"vehicle_type_id":"4","last_reported":1750435953,"current_range_meters":7200,"station_id":"ce4bhjp2rcd13ifvqg90","pricing_plan_id":"cebpf4jnsgd1na2vs0mg"},{"bike_id":"0b9c7b21-a3dc-4f62-bd6e-7e8a66755314","system_id":"levelo_inurba_marseille","lat":43.3254,"lon":5.41431,"is_reserved":false,"is_disabled":false,"rental_uris":{"android":"levelo://app?vid=0b9c7b21-a3dc-4f62-bd6e-7e8a66755314","ios":"levelo://app?vid=0b9c7b21-a3dc-4f62-bd6e-7e8a66755314"},"vehicle_type_id":"4","last_reported":1750435953,"current_range_meters":7200,"station_id":"ce4bhq12rcd13ifvqhhg","pricing_plan_id":"cebpf4jnsgd1na2vs0mg"},{"bike_id":"f025e0b0-8595-426c-b214-cb9b74c5fcfd","system_id":"levelo_inurba_marseille","lat":43.32203,"lon":5.40566,"is_reserved":false,"is_disabled":false,"rental_uris":{"android":"levelo://app?vid=f025e0b0-8595-426c-b214-cb9b74c5fcfd","ios":"levelo://app?vid=f025e0b0-8595-426c-b214-cb9b74c5fcfd"},"vehicle_type_id":"4","last_reported":1750435953,"current_range_meters":8000,"station_id":"","pricing_plan_id":"cebpf4jnsgd1na2vs0mg"},{"bike_id":"1951a100-8920-4a86-a65a-1291dea1e8df","system_id":"levelo_inurba_marseille","lat":43.31288,"lon":5.37315,"is_reserved":false,"is_disabled":false,"rental_uris":{"android":"levelo://app?vid=1951a100-8920-4a86-a65a-1291dea1e8df","ios":"levelo://app?vid=1951a100-8920-4a86-a65a-1291dea1e8df"},"vehicle_type_id":"4","last_reported":1750435953,"current_range_meters":8000,"station_id":"","pricing_plan_id":"cebpf4jnsgd1na2vs0mg"},{"bike_id":"3328efb2-d32c-440d-878f-4269eb3671d3","system_id":"levelo_inurba_marseille","lat":43.315474,"lon":5.373058,"is_reserved":false,"is_disabled":false,"rental_uris":{"android":"levelo://app?vid=3328efb2-d32c-440d-878f-4269eb3671d3","ios":"levelo://app?vid=3328efb2-d32c-440d-878f-4269eb3671d3"},"vehicle_type_id":"4","last_reported":1750435953,"current_range_meters":8000,"station_id":"","pricing_plan_id":"cebpf4jnsgd1na2vs0mg"},{"bike_id":"a91c8c31-e0fd-4191-a315-a42a6d05980e","system_id":"levelo_inurba_marseille","lat":43.29968,"lon":5.38496,"is_reserved":false,"is_disabled":false,"rental_uris":{"android":"levelo://app?vid=a91c8c31-e0fd-4191-a315-a42a6d05980e","ios":"levelo://app?vid=a91c8c31-e0fd-4191-a315-a42a6d05980e"},"vehicle_type_id":"4","last_reported":1750435953,"current_range_meters":8000,"station_id":"ce4bgj92rcd13ifvqbd0","pricing_plan_id":"cebpf4jnsgd1na2vs0mg"},{"bike_id":"0e38079a-3d92-4ede-8a2e-bfdf8d2c640d","system_id":"levelo_inurba_marseille","lat":43.21745,"lon":5.34603,"is_reserved":false,"is_disabled":false,"rental_uris":{"android":"levelo://app?vid=0e38079a-3d92-4ede-8a2e-bfdf8d2c640d","ios":"levelo://app?vid=0e38079a-3d92-4ede-8a2e-bfdf8d2c640d"},"vehicle_type_id":"4","last_reported":1750435953,"current_range_meters":8400,"station_id":"","pricing_plan_id":"cebpf4jnsgd1na2vs0mg"},{"bike_id":"73521383-be10-4e11-87d9-5858a5a26f0a","system_id":"levelo_inurba_marseille","lat":43.337444,"lon":5.374475,"is_reserved":false,"is_disabled":false,"rental_uris":{"android":"levelo://app?vid=73521383-be10-4e11-87d9-5858a5a26f0a","ios":"levelo://app?vid=73521383-be10-4e11-87d9-5858a5a26f0a"},"vehicle_type_id":"4","last_reported":1750435953,"current_range_meters":8800,"station_id":"","pricing_plan_id":"cebpf4jnsgd1na2vs0mg"},{"bike_id":"df735c88-ae0a-4f8e-9723-d29eb27d80b9","system_id":"levelo_inurba_marseille","lat":43.2992,"lon":5.37624,"is_reserved":false,"is_disabled":false,"rental_uris":{"android":"levelo://app?vid=df735c88-ae0a-4f8e-9723-d29eb27d80b9","ios":"levelo://app?vid=df735c88-ae0a-4f8e-9723-d29eb27d80b9"},"vehicle_type_id":"4","last_reported":1750435953,"current_range_meters":8800,"station_id":"","pricing_plan_id":"cebpf4jnsgd1na2vs0mg"},{"bike_id":"9037e566-81d9-44ba-ad76-d4b18f00ecaa","system_id":"levelo_inurba_marseille","lat":43.28427,"lon":5.37498,"is_reserved":false,"is_disabled":false,"rental_uris":{"android":"levelo://app?vid=9037e566-81d9-44ba-ad76-d4b18f00ecaa","ios":"levelo://app?vid=9037e566-81d9-44ba-ad76-d4b18f00ecaa"},"vehicle_type_id":"4","last_reported":1750435953,"current_range_meters":8800,"station_id":"ce4bh412rcd13ifvqds0","pricing_plan_id":"cebpf4jnsgd1na2vs0mg"},{"bike_id":"915d2960-8481-48fb-b3c5-e9e77aaacfec","system_id":"levelo_inurba_marseille","lat":43.29004,"lon":5.35606,"is_reserved":false,"is_disabled":false,"rental_uris":{"android":"levelo://app?vid=915d2960-8481-48fb-b3c5-e9e77aaacfec","ios":"levelo://app?vid=915d2960-8481-48fb-b3c5-e9e77aaacfec"},"vehicle_type_id":"4","last_reported":1750435953,"current_range_meters":8800,"station_id":"ce4bhb92rcd13ifvqen0","pricing_plan_id":"cebpf4jnsgd1na2vs0mg"},{"bike_id":"1c28b7b6-123c-48ab-b200-278e8c45f3ed","system_id":"levelo_inurba_marseille","lat":43.2816,"lon":5.42641,"is_reserved":false,"is_disabled":false,"rental_uris":{"android":"levelo://app?vid=1c28b7b6-123c-48ab-b200-278e8c45f3ed","ios":"levelo://app?vid=1c28b7b6-123c-48ab-b200-278e8c45f3ed"},"vehicle_type_id":"4","last_reported":1750435953,"current_range_meters":8800,"station_id":"ce4bhnh2rcd13ifvqgug","pricing_plan_id":"cebpf4jnsgd1na2vs0mg"},{"bike_id":"8bccdbf2-29fe-4fe5-98fb-cb0b69309a1c","system_id":"levelo_inurba_marseille","lat":43.29786,"lon":5.39328,"is_reserved":false,"is_disabled":false,"rental_uris":{"android":"levelo://app?vid=8bccdbf2-29fe-4fe5-98fb-cb0b69309a1c","ios":"levelo://app?vid=8bccdbf2-29fe-4fe5-98fb-cb0b69309a1c"},"vehicle_type_id":"4","last_reported":1750435953,"current_range_meters":8800,"station_id":"chh1huq6cuj3fo74tm60","pricing_plan_id":"cebpf4jnsgd1na2vs0mg"},{"bike_id":"fec72ab8-d7a6-46b8-aad3-61d01b715447","system_id":"levelo_inurba_marseille","lat":43.27555,"lon":5.3773,"is_reserved":false,"is_disabled":false,"rental_uris":{"android":"levelo://app?vid=fec72ab8-d7a6-46b8-aad3-61d01b715447","ios":"levelo://app?vid=fec72ab8-d7a6-46b8-aad3-61d01b715447"},"vehicle_type_id":"4","last_reported":1750435953,"current_range_meters":9200,"station_id":"","pricing_plan_id":"cebpf4jnsgd1na2vs0mg"},{"bike_id":"dbdfd687-a263-49bc-8e2a-27525875b12d","system_id":"levelo_inurba_marseille","lat":43.292,"lon":5.39312,"is_reserved":false,"is_disabled":false,"rental_uris":{"android":"levelo://app?vid=dbdfd687-a263-49bc-8e2a-27525875b12d","ios":"levelo://app?vid=dbdfd687-a263-49bc-8e2a-27525875b12d"},"vehicle_type_id":"4","last_reported":1750435953,"current_range_meters":9200,"station_id":"ce4bh192rcd13ifvqdd0","pricing_plan_id":"cebpf4jnsgd1na2vs0mg"},{"bike_id":"72ccdd6c-91b8-4c69-b8bd-278cc2571c5f","system_id":"levelo_inurba_marseille","lat":43.28423,"lon":5.37507,"is_reserved":false,"is_disabled":false,"rental_uris":{"android":"levelo://app?vid=72ccdd6c-91b8-4c69-b8bd-278cc2571c5f","ios":"levelo://app?vid=72ccdd6c-91b8-4c69-b8bd-278cc2571c5f"},"vehicle_type_id":"4","last_reported":1750435953,"current_range_meters":9200,"station_id":"ce4bh412rcd13ifvqds0","pricing_plan_id":"cebpf4jnsgd1na2vs0mg"},{"bike_id":"31e759fd-aade-4319-bfee-7db47271e466","system_id":"levelo_inurba_marseille","lat":43.281004,"lon":5.378566,"is_reserved":false,"is_disabled":false,"rental_uris":{"android":"levelo://app?vid=31e759fd-aade-4319-bfee-7db47271e466","ios":"levelo://app?vid=31e759fd-aade-4319-bfee-7db47271e466"},"vehicle_type_id":"4","last_reported":1750435953,"current_range_meters":9200,"station_id":"ce4bha12rcd13ifvqee0","pricing_plan_id":"cebpf4jnsgd1na2vs0mg"},{"bike_id":"66888e42-3ca3-4444-93ec-206aebe820cf","system_id":"levelo_inurba_marseille","lat":43.290064,"lon":5.356213,"is_reserved":false,"is_disabled":false,"rental_uris":{"android":"levelo://app?vid=66888e42-3ca3-4444-93ec-206aebe820cf","ios":"levelo://app?vid=66888e42-3ca3-4444-93ec-206aebe820cf"},"vehicle_type_id":"4","last_reported":1750435953,"current_range_meters":9200,"station_id":"ce4bhb92rcd13ifvqen0","pricing_plan_id":"cebpf4jnsgd1na2vs0mg"},{"bike_id":"3291d3bb-8a0c-4efa-990b-16f9ceaf1635","system_id":"levelo_inurba_marseille","lat":43.33039,"lon":5.39039,"is_reserved":false,"is_disabled":false,"rental_uris":{"android":"levelo://app?vid=3291d3bb-8a0c-4efa-990b-16f9ceaf1635","ios":"levelo://app?vid=3291d3bb-8a0c-4efa-990b-16f9ceaf1635"},"vehicle_type_id":"4","last_reported":1750435953,"current_range_meters":9200,"station_id":"ce4bhr92rcd13ifvqhrg","pricing_plan_id":"cebpf4jnsgd1na2vs0mg"},{"bike_id":"13ef7d1f-42ab-45c6-8760-bd0b9207222f","system_id":"levelo_inurba_marseille","lat":43.211914,"lon":5.350688,"is_reserved":false,"is_disabled":false,"rental_uris":{"android":"levelo://app?vid=13ef7d1f-42ab-45c6-8760-bd0b9207222f","ios":"levelo://app?vid=13ef7d1f-42ab-45c6-8760-bd0b9207222f"},"vehicle_type_id":"4","last_reported":1750435953,"current_range_meters":9200,"station_id":"st_cvj6sg6p6f1abm77japg","pricing_plan_id":"cebpf4jnsgd1na2vs0mg"},{"bike_id":"943d57f3-b313-44b7-ae78-a394f179e07f","system_id":"levelo_inurba_marseille","lat":43.29822,"lon":5.41619,"is_reserved":false,"is_disabled":false,"rental_uris":{"android":"levelo://app?vid=943d57f3-b313-44b7-ae78-a394f179e07f","ios":"levelo://app?vid=943d57f3-b313-44b7-ae78-a394f179e07f"},"vehicle_type_id":"4","last_reported":1750435953,"current_range_meters":10000,"station_id":"","pricing_plan_id":"cebpf4jnsgd1na2vs0mg"},{"bike_id":"bc818d66-0121-423f-bca6-ebc01df66a0f","system_id":"levelo_inurba_marseille","lat":43.3148,"lon":5.37299,"is_reserved":false,"is_disabled":false,"rental_uris":{"android":"levelo://app?vid=bc818d66-0121-423f-bca6-ebc01df66a0f","ios":"levelo://app?vid=bc818d66-0121-423f-bca6-ebc01df66a0f"},"vehicle_type_id":"4","last_reported":1750435953,"current_range_meters":10000,"station_id":"ce4bgt12rcd13ifvqcd0","pricing_plan_id":"cebpf4jnsgd1na2vs0mg"},{"bike_id":"e8f49ac7-aca7-44e1-b60c-b4b6c0df7946","system_id":"levelo_inurba_marseille","lat":43.282611,"lon":5.350597,"is_reserved":false,"is_disabled":false,"rental_uris":{"android":"levelo://app?vid=e8f49ac7-aca7-44e1-b60c-b4b6c0df7946","ios":"levelo://app?vid=e8f49ac7-aca7-44e1-b60c-b4b6c0df7946"},"vehicle_type_id":"4","last_reported":1750435953,"current_range_meters":10000,"station_id":"ce4bhbp2rcd13ifvqerg","pricing_plan_id":"cebpf4jnsgd1na2vs0mg"},{"bike_id":"88cd82e2-403a-4c6c-8e07-978297f12ad5","system_id":"levelo_inurba_marseille","lat":43.270717,"lon":5.420842,"is_reserved":false,"is_disabled":false,"rental_uris":{"android":"levelo://app?vid=88cd82e2-403a-4c6c-8e07-978297f12ad5","ios":"levelo://app?vid=88cd82e2-403a-4c6c-8e07-978297f12ad5"},"vehicle_type_id":"4","last_reported":1750435953,"current_range_meters":10000,"station_id":"ce4bho12rcd13ifvqh1g","pricing_plan_id":"cebpf4jnsgd1na2vs0mg"},{"bike_id":"e904481c-c075-4235-ab4b-c7d3ddbe3194","system_id":"levelo_inurba_marseille","lat":43.29349,"lon":5.36308,"is_reserved":false,"is_disabled":false,"rental_uris":{"android":"levelo://app?vid=e904481c-c075-4235-ab4b-c7d3ddbe3194","ios":"levelo://app?vid=e904481c-c075-4235-ab4b-c7d3ddbe3194"},"vehicle_type_id":"4","last_reported":1750435953,"current_range_meters":10800,"station_id":"","pricing_plan_id":"cebpf4jnsgd1na2vs0mg"},{"bike_id":"4978656a-848b-4008-a670-880c9de010e6","system_id":"levelo_inurba_marseille","lat":43.28262,"lon":5.35085,"is_reserved":false,"is_disabled":false,"rental_uris":{"android":"levelo://app?vid=4978656a-848b-4008-a670-880c9de010e6","ios":"levelo://app?vid=4978656a-848b-4008-a670-880c9de010e6"},"vehicle_type_id":"4","last_reported":1750435953,"current_range_meters":10800,"station_id":"ce4bhbp2rcd13ifvqerg","pricing_plan_id":"cebpf4jnsgd1na2vs0mg"},{"bike_id":"2eb82d3c-7db0-466f-80a7-c6ed84d8119f","system_id":"levelo_inurba_marseille","lat":43.2792,"lon":5.38013,"is_reserved":false,"is_disabled":false,"rental_uris":{"android":"levelo://app?vid=2eb82d3c-7db0-466f-80a7-c6ed84d8119f","ios":"levelo://app?vid=2eb82d3c-7db0-466f-80a7-c6ed84d8119f"},"vehicle_type_id":"4","last_reported":1750435953,"current_range_meters":10800,"station_id":"ce4bhf92rcd13ifvqf50","pricing_plan_id":"cebpf4jnsgd1na2vs0mg"},{"bike_id":"f73dae56-1571-488d-b767-e6123eda149e","system_id":"levelo_inurba_marseille","lat":43.289978,"lon":5.355773,"is_reserved":false,"is_disabled":false,"rental_uris":{"android":"levelo://app?vid=f73dae56-1571-488d-b767-e6123eda149e","ios":"levelo://app?vid=f73dae56-1571-488d-b767-e6123eda149e"},"vehicle_type_id":"4","last_reported":1750435953,"current_range_meters":11200,"station_id":"ce4bhb92rcd13ifvqen0","pricing_plan_id":"cebpf4jnsgd1na2vs0mg"},{"bike_id":"b541172b-5b30-43b7-90a7-1f304b078276","system_id":"levelo_inurba_marseille","lat":43.28256,"lon":5.35082,"is_reserved":false,"is_disabled":false,"rental_uris":{"android":"levelo://app?vid=b541172b-5b30-43b7-90a7-1f304b078276","ios":"levelo://app?vid=b541172b-5b30-43b7-90a7-1f304b078276"},"vehicle_type_id":"4","last_reported":1750435953,"current_range_meters":11200,"station_id":"ce4bhbp2rcd13ifvqerg","pricing_plan_id":"cebpf4jnsgd1na2vs0mg"},{"bike_id":"1eb7f0df-29f4-4cd2-9f17-35aa84acedd6","system_id":"levelo_inurba_marseille","lat":43.275688,"lon":5.384291,"is_reserved":false,"is_disabled":false,"rental_uris":{"android":"levelo://app?vid=1eb7f0df-29f4-4cd2-9f17-35aa84acedd6","ios":"levelo://app?vid=1eb7f0df-29f4-4cd2-9f17-35aa84acedd6"},"vehicle_type_id":"4","last_reported":1750435953,"current_range_meters":11200,"station_id":"ce4bhh92rcd13ifvqfi0","pricing_plan_id":"cebpf4jnsgd1na2vs0mg"},{"bike_id":"1a4c9a7f-46cc-454b-acad-62a1452f748d","system_id":"levelo_inurba_marseille","lat":43.26554,"lon":5.37286,"is_reserved":false,"is_disabled":false,"rental_uris":{"android":"levelo://app?vid=1a4c9a7f-46cc-454b-acad-62a1452f748d","ios":"levelo://app?vid=1a4c9a7f-46cc-454b-acad-62a1452f748d"},"vehicle_type_id":"4","last_reported":1750435953,"current_range_meters":11600,"station_id":"ce4bhg12rcd13ifvqf70","pricing_plan_id":"cebpf4jnsgd1na2vs0mg"},{"bike_id":"a5c18b14-2360-436f-aa3f-db76c1f1afdc","system_id":"levelo_inurba_marseille","lat":43.24993,"lon":5.38934,"is_reserved":false,"is_disabled":false,"rental_uris":{"android":"levelo://app?vid=a5c18b14-2360-436f-aa3f-db76c1f1afdc","ios":"levelo://app?vid=a5c18b14-2360-436f-aa3f-db76c1f1afdc"},"vehicle_type_id":"4","last_reported":1750435953,"current_range_meters":11600,"station_id":"ce4bhgp2rcd13ifvqfd0","pricing_plan_id":"cebpf4jnsgd1na2vs0mg"},{"bike_id":"1e11989f-e475-4397-9a45-bd9147224a5e","system_id":"levelo_inurba_marseille","lat":43.24401,"lon":5.37107,"is_reserved":false,"is_disabled":false,"rental_uris":{"android":"levelo://app?vid=1e11989f-e475-4397-9a45-bd9147224a5e","ios":"levelo://app?vid=1e11989f-e475-4397-9a45-bd9147224a5e"},"vehicle_type_id":"4","last_reported":1750435953,"current_range_meters":11600,"station_id":"ce4bhhh2rcd13ifvqfk0","pricing_plan_id":"cebpf4jnsgd1na2vs0mg"},{"bike_id":"4f729ed9-73ac-4161-91b8-dcd9b95ac4e6","system_id":"levelo_inurba_marseille","lat":43.29312,"lon":5.40956,"is_reserved":false,"is_disabled":false,"rental_uris":{"android":"levelo://app?vid=4f729ed9-73ac-4161-91b8-dcd9b95ac4e6","ios":"levelo://app?vid=4f729ed9-73ac-4161-91b8-dcd9b95ac4e6"},"vehicle_type_id":"4","last_reported":1750435953,"current_range_meters":12000,"station_id":"","pricing_plan_id":"cebpf4jnsgd1na2vs0mg"},{"bike_id":"0bca9a6f-f277-45f3-8794-b6271f3fa9cc","system_id":"levelo_inurba_marseille","lat":43.23961,"lon":5.36632,"is_reserved":false,"is_disabled":false,"rental_uris":{"android":"levelo://app?vid=0bca9a6f-f277-45f3-8794-b6271f3fa9cc","ios":"levelo://app?vid=0bca9a6f-f277-45f3-8794-b6271f3fa9cc"},"vehicle_type_id":"4","last_reported":1750435953,"current_range_meters":12000,"station_id":"ce4bhi12rcd13ifvqfp0","pricing_plan_id":"cebpf4jnsgd1na2vs0mg"},{"bike_id":"f30123e7-96d3-442d-9d01-6c98dc61e7c8","system_id":"levelo_inurba_marseille","lat":43.29805,"lon":5.3685,"is_reserved":false,"is_disabled":false,"rental_uris":{"android":"levelo://app?vid=f30123e7-96d3-442d-9d01-6c98dc61e7c8","ios":"levelo://app?vid=f30123e7-96d3-442d-9d01-6c98dc61e7c8"},"vehicle_type_id":"4","last_reported":1750435953,"current_range_meters":12400,"station_id":"","pricing_plan_id":"cebpf4jnsgd1na2vs0mg"},{"bike_id":"199c2831-e081-4bc0-9b94-19503817091d","system_id":"levelo_inurba_marseille","lat":43.24917,"lon":5.40652,"is_reserved":false,"is_disabled":false,"rental_uris":{"android":"levelo://app?vid=199c2831-e081-4bc0-9b94-19503817091d","ios":"levelo://app?vid=199c2831-e081-4bc0-9b94-19503817091d"},"vehicle_type_id":"4","last_reported":1750435953,"current_range_meters":12400,"station_id":"","pricing_plan_id":"cebpf4jnsgd1na2vs0mg"},{"bike_id":"9a6c3152-b3ed-4a86-9010-9ad4050ba10b","system_id":"levelo_inurba_marseille","lat":43.31325,"lon":5.39702,"is_reserved":false,"is_disabled":false,"rental_uris":{"android":"levelo://app?vid=9a6c3152-b3ed-4a86-9010-9ad4050ba10b","ios":"levelo://app?vid=9a6c3152-b3ed-4a86-9010-9ad4050ba10b"},"vehicle_type_id":"4","last_reported":1750435953,"current_range_meters":12400,"station_id":"ce4bgvp2rcd13ifvqcu0","pricing_plan_id":"cebpf4jnsgd1na2vs0mg"},{"bike_id":"b38caec9-b7c5-49ab-adb0-dfbdcad60991","system_id":"levelo_inurba_marseille","lat":43.29571,"lon":5.39971,"is_reserved":false,"is_disabled":false,"rental_uris":{"android":"levelo://app?vid=b38caec9-b7c5-49ab-adb0-dfbdcad60991","ios":"levelo://app?vid=b38caec9-b7c5-49ab-adb0-dfbdcad60991"},"vehicle_type_id":"4","last_reported":1750435953,"current_range_meters":12400,"station_id":"ce4bh312rcd13ifvqdj0","pricing_plan_id":"cebpf4jnsgd1na2vs0mg"},{"bike_id":"6d2359d9-9573-4d91-aee9-ae84e81ff9ea","system_id":"levelo_inurba_marseille","lat":43.2902,"lon":5.38619,"is_reserved":false,"is_disabled":false,"rental_uris":{"android":"levelo://app?vid=6d2359d9-9573-4d91-aee9-ae84e81ff9ea","ios":"levelo://app?vid=6d2359d9-9573-4d91-aee9-ae84e81ff9ea"},"vehicle_type_id":"4","last_reported":1750435953,"current_range_meters":12400,"station_id":"ce4bh4p2rcd13ifvqe0g","pricing_plan_id":"cebpf4jnsgd1na2vs0mg"},{"bike_id":"496f3967-646c-4b11-b018-4b2db8cbc554","system_id":"levelo_inurba_marseille","lat":43.282729,"lon":5.350811,"is_reserved":false,"is_disabled":false,"rental_uris":{"android":"levelo://app?vid=496f3967-646c-4b11-b018-4b2db8cbc554","ios":"levelo://app?vid=496f3967-646c-4b11-b018-4b2db8cbc554"},"vehicle_type_id":"4","last_reported":1750435953,"current_range_meters":12400,"station_id":"ce4bhbp2rcd13ifvqerg","pricing_plan_id":"cebpf4jnsgd1na2vs0mg"},{"bike_id":"ac1fb96d-ce22-4a06-8ad6-a3ec2a807891","system_id":"levelo_inurba_marseille","lat":43.27817,"lon":5.4071,"is_reserved":false,"is_disabled":false,"rental_uris":{"android":"levelo://app?vid=ac1fb96d-ce22-4a06-8ad6-a3ec2a807891","ios":"levelo://app?vid=ac1fb96d-ce22-4a06-8ad6-a3ec2a807891"},"vehicle_type_id":"4","last_reported":1750435953,"current_range_meters":12400,"station_id":"ce4bhnh2rcd13ifvqgtg","pricing_plan_id":"cebpf4jnsgd1na2vs0mg"},{"bike_id":"8fd94bfe-b0a3-4509-a3c9-0f6e3f8eed78","system_id":"levelo_inurba_marseille","lat":43.24182,"lon":5.36387,"is_reserved":false,"is_disabled":false,"rental_uris":{"android":"levelo://app?vid=8fd94bfe-b0a3-4509-a3c9-0f6e3f8eed78","ios":"levelo://app?vid=8fd94bfe-b0a3-4509-a3c9-0f6e3f8eed78"},"vehicle_type_id":"4","last_reported":1750435953,"current_range_meters":12400,"station_id":"cpo36qri1sfpv3e86is0","pricing_plan_id":"cebpf4jnsgd1na2vs0mg"},{"bike_id":"8300812b-c3f4-4460-a462-0c10590e5460","system_id":"levelo_inurba_marseille","lat":43.32917,"lon":5.40561,"is_reserved":false,"is_disabled":false,"rental_uris":{"android":"levelo://app?vid=8300812b-c3f4-4460-a462-0c10590e5460","ios":"levelo://app?vid=8300812b-c3f4-4460-a462-0c10590e5460"},"vehicle_type_id":"4","last_reported":1750435953,"current_range_meters":12800,"station_id":"","pricing_plan_id":"cebpf4jnsgd1na2vs0mg"},{"bike_id":"9049a79c-fc92-4646-9bd7-c26ae2ef82ad","system_id":"levelo_inurba_marseille","lat":43.273738,"lon":5.36259,"is_reserved":false,"is_disabled":false,"rental_uris":{"android":"levelo://app?vid=9049a79c-fc92-4646-9bd7-c26ae2ef82ad","ios":"levelo://app?vid=9049a79c-fc92-4646-9bd7-c26ae2ef82ad"},"vehicle_type_id":"4","last_reported":1750435953,"current_range_meters":12800,"station_id":"ce4bhbh2rcd13ifvqeo0","pricing_plan_id":"cebpf4jnsgd1na2vs0mg"},{"bike_id":"4f9b40b6-1892-43a4-8e16-5f9019749522","system_id":"levelo_inurba_marseille","lat":43.26552,"lon":5.37282,"is_reserved":false,"is_disabled":false,"rental_uris":{"android":"levelo://app?vid=4f9b40b6-1892-43a4-8e16-5f9019749522","ios":"levelo://app?vid=4f9b40b6-1892-43a4-8e16-5f9019749522"},"vehicle_type_id":"4","last_reported":1750435953,"current_range_meters":12800,"station_id":"ce4bhg12rcd13ifvqf70","pricing_plan_id":"cebpf4jnsgd1na2vs0mg"},{"bike_id":"510b1add-e212-408d-95f0-109a5e2ca67a","system_id":"levelo_inurba_marseille","lat":43.284134,"lon":5.349851,"is_reserved":false,"is_disabled":false,"rental_uris":{"android":"levelo://app?vid=510b1add-e212-408d-95f0-109a5e2ca67a","ios":"levelo://app?vid=510b1add-e212-408d-95f0-109a5e2ca67a"},"vehicle_type_id":"4","last_reported":1750435953,"current_range_meters":13600,"station_id":"ce4bhbh2rcd13ifvqepg","pricing_plan_id":"cebpf4jnsgd1na2vs0mg"},{"bike_id":"7c4c8bb3-9d97-433b-8343-02bd2644813d","system_id":"levelo_inurba_marseille","lat":43.282654,"lon":5.350591,"is_reserved":false,"is_disabled":false,"rental_uris":{"android":"levelo://app?vid=7c4c8bb3-9d97-433b-8343-02bd2644813d","ios":"levelo://app?vid=7c4c8bb3-9d97-433b-8343-02bd2644813d"},"vehicle_type_id":"4","last_reported":1750435953,"current_range_meters":13600,"station_id":"ce4bhbp2rcd13ifvqerg","pricing_plan_id":"cebpf4jnsgd1na2vs0mg"},{"bike_id":"917d04c4-b510-4df5-98a0-805eaf59a6d9","system_id":"levelo_inurba_marseille","lat":43.29933,"lon":5.36555,"is_reserved":false,"is_disabled":false,"rental_uris":{"android":"levelo://app?vid=917d04c4-b510-4df5-98a0-805eaf59a6d9","ios":"levelo://app?vid=917d04c4-b510-4df5-98a0-805eaf59a6d9"},"vehicle_type_id":"4","last_reported":1750435953,"current_range_meters":14400,"station_id":"ce4bgm92rcd13ifvqbr0","pricing_plan_id":"cebpf4jnsgd1na2vs0mg"},{"bike_id":"9ef10bba-e490-4b05-b9cb-e68dc1297d04","system_id":"levelo_inurba_marseille","lat":43.2867,"lon":5.36348,"is_reserved":false,"is_disabled":false,"rental_uris":{"android":"levelo://app?vid=9ef10bba-e490-4b05-b9cb-e68dc1297d04","ios":"levelo://app?vid=9ef10bba-e490-4b05-b9cb-e68dc1297d04"},"vehicle_type_id":"4","last_reported":1750435953,"current_range_meters":14400,"station_id":"ce4bhah2rcd13ifvqej0","pricing_plan_id":"cebpf4jnsgd1na2vs0mg"},{"bike_id":"56735059-a511-4f75-9fa1-1f0e9a363234","system_id":"levelo_inurba_marseille","lat":43.231951,"lon":5.355508,"is_reserved":false,"is_disabled":false,"rental_uris":{"android":"levelo://app?vid=56735059-a511-4f75-9fa1-1f0e9a363234","ios":"levelo://app?vid=56735059-a511-4f75-9fa1-1f0e9a363234"},"vehicle_type_id":"4","last_reported":1750435953,"current_range_meters":14400,"station_id":"ce4bhu92rcd13ifvqi70","pricing_plan_id":"cebpf4jnsgd1na2vs0mg"},{"bike_id":"dd45b830-666c-4c76-b06e-9938bffa2cad","system_id":"levelo_inurba_marseille","lat":43.289103,"lon":5.3594,"is_reserved":false,"is_disabled":false,"rental_uris":{"android":"levelo://app?vid=dd45b830-666c-4c76-b06e-9938bffa2cad","ios":"levelo://app?vid=dd45b830-666c-4c76-b06e-9938bffa2cad"},"vehicle_type_id":"4","last_reported":1750435953,"current_range_meters":14800,"station_id":"","pricing_plan_id":"cebpf4jnsgd1na2vs0mg"},{"bike_id":"f65505f7-bdc9-40cf-a641-25b38f2e8d77","system_id":"levelo_inurba_marseille","lat":43.27377,"lon":5.36248,"is_reserved":false,"is_disabled":false,"rental_uris":{"android":"levelo://app?vid=f65505f7-bdc9-40cf-a641-25b38f2e8d77","ios":"levelo://app?vid=f65505f7-bdc9-40cf-a641-25b38f2e8d77"},"vehicle_type_id":"4","last_reported":1750435953,"current_range_meters":14800,"station_id":"ce4bhbh2rcd13ifvqeo0","pricing_plan_id":"cebpf4jnsgd1na2vs0mg"},{"bike_id":"c3507ecf-350a-4f40-a3ec-c054291d999e","system_id":"levelo_inurba_marseille","lat":43.28278,"lon":5.35077,"is_reserved":false,"is_disabled":false,"rental_uris":{"android":"levelo://app?vid=c3507ecf-350a-4f40-a3ec-c054291d999e","ios":"levelo://app?vid=c3507ecf-350a-4f40-a3ec-c054291d999e"},"vehicle_type_id":"4","last_reported":1750435953,"current_range_meters":14800,"station_id":"ce4bhbp2rcd13ifvqerg","pricing_plan_id":"cebpf4jnsgd1na2vs0mg"},{"bike_id":"32b33686-79a4-4215-98ad-2c73dfa0a2ab","system_id":"levelo_inurba_marseille","lat":43.28625,"lon":5.35101,"is_reserved":false,"is_disabled":false,"rental_uris":{"android":"levelo://app?vid=32b33686-79a4-4215-98ad-2c73dfa0a2ab","ios":"levelo://app?vid=32b33686-79a4-4215-98ad-2c73dfa0a2ab"},"vehicle_type_id":"4","last_reported":1750435953,"current_range_meters":14800,"station_id":"ce4bhch2rcd13ifvqeug","pricing_plan_id":"cebpf4jnsgd1na2vs0mg"},{"bike_id":"a0c6052c-ec1c-4c6b-baf2-74ae3a20362a","system_id":"levelo_inurba_marseille","lat":43.27376,"lon":5.36269,"is_reserved":false,"is_disabled":false,"rental_uris":{"android":"levelo://app?vid=a0c6052c-ec1c-4c6b-baf2-74ae3a20362a","ios":"levelo://app?vid=a0c6052c-ec1c-4c6b-baf2-74ae3a20362a"},"vehicle_type_id":"4","last_reported":1750435953,"current_range_meters":15200,"station_id":"ce4bhbh2rcd13ifvqeo0","pricing_plan_id":"cebpf4jnsgd1na2vs0mg"},{"bike_id":"8e92feac-7d18-4ddd-8b47-3e77cf9b9c34","system_id":"levelo_inurba_marseille","lat":43.231904,"lon":5.355777,"is_reserved":false,"is_disabled":false,"rental_uris":{"android":"levelo://app?vid=8e92feac-7d18-4ddd-8b47-3e77cf9b9c34","ios":"levelo://app?vid=8e92feac-7d18-4ddd-8b47-3e77cf9b9c34"},"vehicle_type_id":"4","last_reported":1750435953,"current_range_meters":15200,"station_id":"ce4bhu92rcd13ifvqi70","pricing_plan_id":"cebpf4jnsgd1na2vs0mg"},{"bike_id":"dc540ba2-fb63-45eb-b83a-1826fb3d30b7","system_id":"levelo_inurba_marseille","lat":43.246093,"lon":5.392615,"is_reserved":false,"is_disabled":false,"rental_uris":{"android":"levelo://app?vid=dc540ba2-fb63-45eb-b83a-1826fb3d30b7","ios":"levelo://app?vid=dc540ba2-fb63-45eb-b83a-1826fb3d30b7"},"vehicle_type_id":"4","last_reported":1750435953,"current_range_meters":16000,"station_id":"","pricing_plan_id":"cebpf4jnsgd1na2vs0mg"},{"bike_id":"89569a2e-7b80-432d-923c-e183a26f599c","system_id":"levelo_inurba_marseille","lat":43.28312,"lon":5.35095,"is_reserved":false,"is_disabled":false,"rental_uris":{"android":"levelo://app?vid=89569a2e-7b80-432d-923c-e183a26f599c","ios":"levelo://app?vid=89569a2e-7b80-432d-923c-e183a26f599c"},"vehicle_type_id":"4","last_reported":1750435953,"current_range_meters":16000,"station_id":"","pricing_plan_id":"cebpf4jnsgd1na2vs0mg"},{"bike_id":"bd27fe72-6fbc-453f-8b77-bee10ab3b13c","system_id":"levelo_inurba_marseille","lat":43.29533,"lon":5.4237,"is_reserved":false,"is_disabled":false,"rental_uris":{"android":"levelo://app?vid=bd27fe72-6fbc-453f-8b77-bee10ab3b13c","ios":"levelo://app?vid=bd27fe72-6fbc-453f-8b77-bee10ab3b13c"},"vehicle_type_id":"4","last_reported":1750435953,"current_range_meters":16000,"station_id":"","pricing_plan_id":"cebpf4jnsgd1na2vs0mg"},{"bike_id":"8ef11a45-504d-45b0-a2b5-97fef9594218","system_id":"levelo_inurba_marseille","lat":43.295571,"lon":5.381503,"is_reserved":false,"is_disabled":false,"rental_uris":{"android":"levelo://app?vid=8ef11a45-504d-45b0-a2b5-97fef9594218","ios":"levelo://app?vid=8ef11a45-504d-45b0-a2b5-97fef9594218"},"vehicle_type_id":"4","last_reported":1750435953,"current_range_meters":16000,"station_id":"","pricing_plan_id":"cebpf4jnsgd1na2vs0mg"},{"bike_id":"325efe9e-c5f4-47ef-8356-dace0f06ed0f","system_id":"levelo_inurba_marseille","lat":43.30928,"lon":5.37215,"is_reserved":false,"is_disabled":false,"rental_uris":{"android":"levelo://app?vid=325efe9e-c5f4-47ef-8356-dace0f06ed0f","ios":"levelo://app?vid=325efe9e-c5f4-47ef-8356-dace0f06ed0f"},"vehicle_type_id":"4","last_reported":1750435953,"current_range_meters":16000,"station_id":"ce4bguh2rcd13ifvqckg","pricing_plan_id":"cebpf4jnsgd1na2vs0mg"},{"bike_id":"6f625ae1-f155-4474-94c6-e7bc2d28b9d2","system_id":"levelo_inurba_marseille","lat":43.28115,"lon":5.3786,"is_reserved":false,"is_disabled":false,"rental_uris":{"android":"levelo://app?vid=6f625ae1-f155-4474-94c6-e7bc2d28b9d2","ios":"levelo://app?vid=6f625ae1-f155-4474-94c6-e7bc2d28b9d2"},"vehicle_type_id":"4","last_reported":1750435953,"current_range_meters":16000,"station_id":"ce4bha12rcd13ifvqee0","pricing_plan_id":"cebpf4jnsgd1na2vs0mg"},{"bike_id":"8f063f00-f9a0-444b-a2a3-5de8850d4b96","system_id":"levelo_inurba_marseille","lat":43.2828,"lon":5.35054,"is_reserved":false,"is_disabled":false,"rental_uris":{"android":"levelo://app?vid=8f063f00-f9a0-444b-a2a3-5de8850d4b96","ios":"levelo://app?vid=8f063f00-f9a0-444b-a2a3-5de8850d4b96"},"vehicle_type_id":"4","last_reported":1750435953,"current_range_meters":16000,"station_id":"ce4bhbp2rcd13ifvqerg","pricing_plan_id":"cebpf4jnsgd1na2vs0mg"},{"bike_id":"dcce8261-10fb-448c-bb8e-3459da92ceca","system_id":"levelo_inurba_marseille","lat":43.24166,"lon":5.36397,"is_reserved":false,"is_disabled":false,"rental_uris":{"android":"levelo://app?vid=dcce8261-10fb-448c-bb8e-3459da92ceca","ios":"levelo://app?vid=dcce8261-10fb-448c-bb8e-3459da92ceca"},"vehicle_type_id":"4","last_reported":1750435953,"current_range_meters":16000,"station_id":"cpo36qri1sfpv3e86is0","pricing_plan_id":"cebpf4jnsgd1na2vs0mg"},{"bike_id":"d40af265-11b5-43a6-9bb6-f910f57901ba","system_id":"levelo_inurba_marseille","lat":43.32929,"lon":5.38058,"is_reserved":false,"is_disabled":false,"rental_uris":{"android":"levelo://app?vid=d40af265-11b5-43a6-9bb6-f910f57901ba","ios":"levelo://app?vid=d40af265-11b5-43a6-9bb6-f910f57901ba"},"vehicle_type_id":"4","last_reported":1750435953,"current_range_meters":16400,"station_id":"","pricing_plan_id":"cebpf4jnsgd1na2vs0mg"},{"bike_id":"c68659a7-1770-4cc4-933d-ba54855b04f7","system_id":"levelo_inurba_marseille","lat":43.27616,"lon":5.36122,"is_reserved":false,"is_disabled":false,"rental_uris":{"android":"levelo://app?vid=c68659a7-1770-4cc4-933d-ba54855b04f7","ios":"levelo://app?vid=c68659a7-1770-4cc4-933d-ba54855b04f7"},"vehicle_type_id":"4","last_reported":1750435953,"current_range_meters":16400,"station_id":"ce4bgj92rcd13ifvqbe0","pricing_plan_id":"cebpf4jnsgd1na2vs0mg"},{"bike_id":"bd6a17b0-f21c-48c1-be21-0b44347a6022","system_id":"levelo_inurba_marseille","lat":43.26037,"lon":5.37548,"is_reserved":false,"is_disabled":false,"rental_uris":{"android":"levelo://app?vid=bd6a17b0-f21c-48c1-be21-0b44347a6022","ios":"levelo://app?vid=bd6a17b0-f21c-48c1-be21-0b44347a6022"},"vehicle_type_id":"4","last_reported":1750435953,"current_range_meters":16400,"station_id":"ce4bhgh2rcd13ifvqfa0","pricing_plan_id":"cebpf4jnsgd1na2vs0mg"},{"bike_id":"ebebd28a-3be9-4817-9820-b3c17d9854b0","system_id":"levelo_inurba_marseille","lat":43.246573,"lon":5.381604,"is_reserved":false,"is_disabled":false,"rental_uris":{"android":"levelo://app?vid=ebebd28a-3be9-4817-9820-b3c17d9854b0","ios":"levelo://app?vid=ebebd28a-3be9-4817-9820-b3c17d9854b0"},"vehicle_type_id":"4","last_reported":1750435953,"current_range_meters":16400,"station_id":"ce4bhih2rcd13ifvqfr0","pricing_plan_id":"cebpf4jnsgd1na2vs0mg"},{"bike_id":"a22aa312-0025-4f42-88e2-b1e95e79340f","system_id":"levelo_inurba_marseille","lat":43.317015,"lon":5.383865,"is_reserved":false,"is_disabled":false,"rental_uris":{"android":"levelo://app?vid=a22aa312-0025-4f42-88e2-b1e95e79340f","ios":"levelo://app?vid=a22aa312-0025-4f42-88e2-b1e95e79340f"},"vehicle_type_id":"4","last_reported":1750435953,"current_range_meters":16800,"station_id":"","pricing_plan_id":"cebpf4jnsgd1na2vs0mg"},{"bike_id":"ddeee110-8318-4422-8280-886a88c60842","system_id":"levelo_inurba_marseille","lat":43.2905,"lon":5.35915,"is_reserved":false,"is_disabled":false,"rental_uris":{"android":"levelo://app?vid=ddeee110-8318-4422-8280-886a88c60842","ios":"levelo://app?vid=ddeee110-8318-4422-8280-886a88c60842"},"vehicle_type_id":"4","last_reported":1750435953,"current_range_meters":16800,"station_id":"ce4bha92rcd13ifvqeg0","pricing_plan_id":"cebpf4jnsgd1na2vs0mg"},{"bike_id":"0fedb2ad-3ade-4089-9d83-3cd5afb9e01c","system_id":"levelo_inurba_marseille","lat":43.2846,"lon":5.35893,"is_reserved":false,"is_disabled":false,"rental_uris":{"android":"levelo://app?vid=0fedb2ad-3ade-4089-9d83-3cd5afb9e01c","ios":"levelo://app?vid=0fedb2ad-3ade-4089-9d83-3cd5afb9e01c"},"vehicle_type_id":"4","last_reported":1750435953,"current_range_meters":16800,"station_id":"ce4bhah2rcd13ifvqei0","pricing_plan_id":"cebpf4jnsgd1na2vs0mg"},{"bike_id":"922b7be9-a27a-4396-b6cb-2cafd8080649","system_id":"levelo_inurba_marseille","lat":43.284553,"lon":5.358887,"is_reserved":false,"is_disabled":false,"rental_uris":{"android":"levelo://app?vid=922b7be9-a27a-4396-b6cb-2cafd8080649","ios":"levelo://app?vid=922b7be9-a27a-4396-b6cb-2cafd8080649"},"vehicle_type_id":"4","last_reported":1750435953,"current_range_meters":16800,"station_id":"ce4bhah2rcd13ifvqei0","pricing_plan_id":"cebpf4jnsgd1na2vs0mg"},{"bike_id":"8789fae4-719a-4491-ab04-6ab3fa071721","system_id":"levelo_inurba_marseille","lat":43.282707,"lon":5.350661,"is_reserved":false,"is_disabled":false,"rental_uris":{"android":"levelo://app?vid=8789fae4-719a-4491-ab04-6ab3fa071721","ios":"levelo://app?vid=8789fae4-719a-4491-ab04-6ab3fa071721"},"vehicle_type_id":"4","last_reported":1750435953,"current_range_meters":16800,"station_id":"ce4bhbp2rcd13ifvqerg","pricing_plan_id":"cebpf4jnsgd1na2vs0mg"},{"bike_id":"846f67a2-4f19-4ade-93d1-40787a6bbac7","system_id":"levelo_inurba_marseille","lat":43.26577,"lon":5.39005,"is_reserved":false,"is_disabled":false,"rental_uris":{"android":"levelo://app?vid=846f67a2-4f19-4ade-93d1-40787a6bbac7","ios":"levelo://app?vid=846f67a2-4f19-4ade-93d1-40787a6bbac7"},"vehicle_type_id":"4","last_reported":1750435953,"current_range_meters":16800,"station_id":"ce4bhe12rcd13ifvqf30","pricing_plan_id":"cebpf4jnsgd1na2vs0mg"},{"bike_id":"ccf4ab64-4a82-42e6-a3c9-8579eb4adb05","system_id":"levelo_inurba_marseille","lat":43.26218,"lon":5.3744,"is_reserved":false,"is_disabled":false,"rental_uris":{"android":"levelo://app?vid=ccf4ab64-4a82-42e6-a3c9-8579eb4adb05","ios":"levelo://app?vid=ccf4ab64-4a82-42e6-a3c9-8579eb4adb05"},"vehicle_type_id":"4","last_reported":1750435953,"current_range_meters":16800,"station_id":"ce4bhgp2rcd13ifvqfc0","pricing_plan_id":"cebpf4jnsgd1na2vs0mg"},{"bike_id":"904d9165-8a4c-4d2c-8705-df7457f3b83b","system_id":"levelo_inurba_marseille","lat":43.29892,"lon":5.43673,"is_reserved":false,"is_disabled":false,"rental_uris":{"android":"levelo://app?vid=904d9165-8a4c-4d2c-8705-df7457f3b83b","ios":"levelo://app?vid=904d9165-8a4c-4d2c-8705-df7457f3b83b"},"vehicle_type_id":"4","last_reported":1750435953,"current_range_meters":16800,"station_id":"ce4bhpp2rcd13ifvqhfg","pricing_plan_id":"cebpf4jnsgd1na2vs0mg"},{"bike_id":"a9f7e5b6-c3b9-477a-9dd1-4ff223f734c0","system_id":"levelo_inurba_marseille","lat":43.29906,"lon":5.43659,"is_reserved":false,"is_disabled":false,"rental_uris":{"android":"levelo://app?vid=a9f7e5b6-c3b9-477a-9dd1-4ff223f734c0","ios":"levelo://app?vid=a9f7e5b6-c3b9-477a-9dd1-4ff223f734c0"},"vehicle_type_id":"4","last_reported":1750435953,"current_range_meters":16800,"station_id":"ce4bhpp2rcd13ifvqhfg","pricing_plan_id":"cebpf4jnsgd1na2vs0mg"},{"bike_id":"4643bc90-1bac-4c4b-98b1-e2d500830573","system_id":"levelo_inurba_marseille","lat":43.31378,"lon":5.37704,"is_reserved":false,"is_disabled":false,"rental_uris":{"android":"levelo://app?vid=4643bc90-1bac-4c4b-98b1-e2d500830573","ios":"levelo://app?vid=4643bc90-1bac-4c4b-98b1-e2d500830573"},"vehicle_type_id":"4","last_reported":1750435953,"current_range_meters":17200,"station_id":"","pricing_plan_id":"cebpf4jnsgd1na2vs0mg"},{"bike_id":"a27dfe13-84f1-4a5a-95b6-055954b50ba0","system_id":"levelo_inurba_marseille","lat":43.2737,"lon":5.36269,"is_reserved":false,"is_disabled":false,"rental_uris":{"android":"levelo://app?vid=a27dfe13-84f1-4a5a-95b6-055954b50ba0","ios":"levelo://app?vid=a27dfe13-84f1-4a5a-95b6-055954b50ba0"},"vehicle_type_id":"4","last_reported":1750435953,"current_range_meters":17200,"station_id":"ce4bhbh2rcd13ifvqeo0","pricing_plan_id":"cebpf4jnsgd1na2vs0mg"},{"bike_id":"990596bf-f7ed-4931-b239-10b588f9c7ed","system_id":"levelo_inurba_marseille","lat":43.28429,"lon":5.34998,"is_reserved":false,"is_disabled":false,"rental_uris":{"android":"levelo://app?vid=990596bf-f7ed-4931-b239-10b588f9c7ed","ios":"levelo://app?vid=990596bf-f7ed-4931-b239-10b588f9c7ed"},"vehicle_type_id":"4","last_reported":1750435953,"current_range_meters":17200,"station_id":"ce4bhbh2rcd13ifvqepg","pricing_plan_id":"cebpf4jnsgd1na2vs0mg"},{"bike_id":"6e327c66-a5e4-4686-81e3-5c6920a4a0d4","system_id":"levelo_inurba_marseille","lat":43.28416,"lon":5.34994,"is_reserved":false,"is_disabled":false,"rental_uris":{"android":"levelo://app?vid=6e327c66-a5e4-4686-81e3-5c6920a4a0d4","ios":"levelo://app?vid=6e327c66-a5e4-4686-81e3-5c6920a4a0d4"},"vehicle_type_id":"4","last_reported":1750435953,"current_range_meters":17200,"station_id":"ce4bhbh2rcd13ifvqepg","pricing_plan_id":"cebpf4jnsgd1na2vs0mg"},{"bike_id":"eee77d17-53bc-4ba5-b76e-054a4d3dcceb","system_id":"levelo_inurba_marseille","lat":43.28423,"lon":5.34996,"is_reserved":false,"is_disabled":false,"rental_uris":{"android":"levelo://app?vid=eee77d17-53bc-4ba5-b76e-054a4d3dcceb","ios":"levelo://app?vid=eee77d17-53bc-4ba5-b76e-054a4d3dcceb"},"vehicle_type_id":"4","last_reported":1750435953,"current_range_meters":17200,"station_id":"ce4bhbh2rcd13ifvqepg","pricing_plan_id":"cebpf4jnsgd1na2vs0mg"},{"bike_id":"7292142d-a01f-49a7-8bbe-828e8933a3de","system_id":"levelo_inurba_marseille","lat":43.26558,"lon":5.37326,"is_reserved":false,"is_disabled":false,"rental_uris":{"android":"levelo://app?vid=7292142d-a01f-49a7-8bbe-828e8933a3de","ios":"levelo://app?vid=7292142d-a01f-49a7-8bbe-828e8933a3de"},"vehicle_type_id":"4","last_reported":1750435953,"current_range_meters":17200,"station_id":"ce4bhg12rcd13ifvqf70","pricing_plan_id":"cebpf4jnsgd1na2vs0mg"},{"bike_id":"204afd8f-d13a-468d-a59c-e2db9671fff1","system_id":"levelo_inurba_marseille","lat":43.24395,"lon":5.37117,"is_reserved":false,"is_disabled":false,"rental_uris":{"android":"levelo://app?vid=204afd8f-d13a-468d-a59c-e2db9671fff1","ios":"levelo://app?vid=204afd8f-d13a-468d-a59c-e2db9671fff1"},"vehicle_type_id":"4","last_reported":1750435953,"current_range_meters":17200,"station_id":"ce4bhhh2rcd13ifvqfk0","pricing_plan_id":"cebpf4jnsgd1na2vs0mg"},{"bike_id":"3dc1a2f8-8b98-4a65-980d-b42a647d0080","system_id":"levelo_inurba_marseille","lat":43.23991,"lon":5.36607,"is_reserved":false,"is_disabled":false,"rental_uris":{"android":"levelo://app?vid=3dc1a2f8-8b98-4a65-980d-b42a647d0080","ios":"levelo://app?vid=3dc1a2f8-8b98-4a65-980d-b42a647d0080"},"vehicle_type_id":"4","last_reported":1750435953,"current_range_meters":17200,"station_id":"ce4bhi12rcd13ifvqfp0","pricing_plan_id":"cebpf4jnsgd1na2vs0mg"},{"bike_id":"11e46e52-a014-4cbb-a20d-c40e4dcf74a5","system_id":"levelo_inurba_marseille","lat":43.24076,"lon":5.37763,"is_reserved":false,"is_disabled":false,"rental_uris":{"android":"levelo://app?vid=11e46e52-a014-4cbb-a20d-c40e4dcf74a5","ios":"levelo://app?vid=11e46e52-a014-4cbb-a20d-c40e4dcf74a5"},"vehicle_type_id":"4","last_reported":1750435953,"current_range_meters":17200,"station_id":"ce4bhnp2rcd13ifvqgvg","pricing_plan_id":"cebpf4jnsgd1na2vs0mg"},{"bike_id":"e9b72e0a-22b6-43d3-b8dd-d3e494e7b121","system_id":"levelo_inurba_marseille","lat":43.28618,"lon":5.35108,"is_reserved":false,"is_disabled":false,"rental_uris":{"android":"levelo://app?vid=e9b72e0a-22b6-43d3-b8dd-d3e494e7b121","ios":"levelo://app?vid=e9b72e0a-22b6-43d3-b8dd-d3e494e7b121"},"vehicle_type_id":"4","last_reported":1750435953,"current_range_meters":17600,"station_id":"","pricing_plan_id":"cebpf4jnsgd1na2vs0mg"},{"bike_id":"90c109b5-5cee-495e-8f11-f318c0f086b6","system_id":"levelo_inurba_marseille","lat":43.32486,"lon":5.43494,"is_reserved":false,"is_disabled":false,"rental_uris":{"android":"levelo://app?vid=90c109b5-5cee-495e-8f11-f318c0f086b6","ios":"levelo://app?vid=90c109b5-5cee-495e-8f11-f318c0f086b6"},"vehicle_type_id":"4","last_reported":1750435953,"current_range_meters":17600,"station_id":"","pricing_plan_id":"cebpf4jnsgd1na2vs0mg"},{"bike_id":"f6069a5d-a2bc-44cc-bc6f-f26f79591d92","system_id":"levelo_inurba_marseille","lat":43.30783,"lon":5.37351,"is_reserved":false,"is_disabled":false,"rental_uris":{"android":"levelo://app?vid=f6069a5d-a2bc-44cc-bc6f-f26f79591d92","ios":"levelo://app?vid=f6069a5d-a2bc-44cc-bc6f-f26f79591d92"},"vehicle_type_id":"4","last_reported":1750435953,"current_range_meters":17600,"station_id":"","pricing_plan_id":"cebpf4jnsgd1na2vs0mg"},{"bike_id":"78cab3bd-1102-4bc7-a24b-346fd0b9d038","system_id":"levelo_inurba_marseille","lat":43.29252,"lon":5.38451,"is_reserved":false,"is_disabled":false,"rental_uris":{"android":"levelo://app?vid=78cab3bd-1102-4bc7-a24b-346fd0b9d038","ios":"levelo://app?vid=78cab3bd-1102-4bc7-a24b-346fd0b9d038"},"vehicle_type_id":"4","last_reported":1750435953,"current_range_meters":17600,"station_id":"ce4bh692rcd13ifvqea0","pricing_plan_id":"cebpf4jnsgd1na2vs0mg"},{"bike_id":"e9d617f3-53da-460e-810f-5b099bcdfcef","system_id":"levelo_inurba_marseille","lat":43.29007,"lon":5.35608,"is_reserved":false,"is_disabled":false,"rental_uris":{"android":"levelo://app?vid=e9d617f3-53da-460e-810f-5b099bcdfcef","ios":"levelo://app?vid=e9d617f3-53da-460e-810f-5b099bcdfcef"},"vehicle_type_id":"4","last_reported":1750435953,"current_range_meters":17600,"station_id":"ce4bhb92rcd13ifvqen0","pricing_plan_id":"cebpf4jnsgd1na2vs0mg"},{"bike_id":"6735d3e3-1f43-4ab7-bd53-99c1228396f6","system_id":"levelo_inurba_marseille","lat":43.27377,"lon":5.36264,"is_reserved":false,"is_disabled":false,"rental_uris":{"android":"levelo://app?vid=6735d3e3-1f43-4ab7-bd53-99c1228396f6","ios":"levelo://app?vid=6735d3e3-1f43-4ab7-bd53-99c1228396f6"},"vehicle_type_id":"4","last_reported":1750435953,"current_range_meters":17600,"station_id":"ce4bhbh2rcd13ifvqeo0","pricing_plan_id":"cebpf4jnsgd1na2vs0mg"},{"bike_id":"6e37c715-ddd1-4f05-ba0b-28a60fbb9bb1","system_id":"levelo_inurba_marseille","lat":43.28619,"lon":5.35098,"is_reserved":false,"is_disabled":false,"rental_uris":{"android":"levelo://app?vid=6e37c715-ddd1-4f05-ba0b-28a60fbb9bb1","ios":"levelo://app?vid=6e37c715-ddd1-4f05-ba0b-28a60fbb9bb1"},"vehicle_type_id":"4","last_reported":1750435953,"current_range_meters":17600,"station_id":"ce4bhch2rcd13ifvqeug","pricing_plan_id":"cebpf4jnsgd1na2vs0mg"},{"bike_id":"7e2e4b82-c3da-4ad0-ae28-87b63853112c","system_id":"levelo_inurba_marseille","lat":43.262095,"lon":5.37436,"is_reserved":false,"is_disabled":false,"rental_uris":{"android":"levelo://app?vid=7e2e4b82-c3da-4ad0-ae28-87b63853112c","ios":"levelo://app?vid=7e2e4b82-c3da-4ad0-ae28-87b63853112c"},"vehicle_type_id":"4","last_reported":1750435953,"current_range_meters":17600,"station_id":"ce4bhgp2rcd13ifvqfc0","pricing_plan_id":"cebpf4jnsgd1na2vs0mg"},{"bike_id":"0f088056-ab50-4d1d-ae25-ac7689758c01","system_id":"levelo_inurba_marseille","lat":43.26952,"lon":5.38628,"is_reserved":false,"is_disabled":false,"rental_uris":{"android":"levelo://app?vid=0f088056-ab50-4d1d-ae25-ac7689758c01","ios":"levelo://app?vid=0f088056-ab50-4d1d-ae25-ac7689758c01"},"vehicle_type_id":"4","last_reported":1750435953,"current_range_meters":17600,"station_id":"ce4bhh92rcd13ifvqfh0","pricing_plan_id":"cebpf4jnsgd1na2vs0mg"},{"bike_id":"a7b66d8a-4a7c-45b1-8b3b-30bc84a80819","system_id":"levelo_inurba_marseille","lat":43.28154,"lon":5.4265,"is_reserved":false,"is_disabled":false,"rental_uris":{"android":"levelo://app?vid=a7b66d8a-4a7c-45b1-8b3b-30bc84a80819","ios":"levelo://app?vid=a7b66d8a-4a7c-45b1-8b3b-30bc84a80819"},"vehicle_type_id":"4","last_reported":1750435953,"current_range_meters":17600,"station_id":"ce4bhnh2rcd13ifvqgug","pricing_plan_id":"cebpf4jnsgd1na2vs0mg"},{"bike_id":"9da4925b-7d68-4169-bdf7-d8498f34a069","system_id":"levelo_inurba_marseille","lat":43.28081,"lon":5.39667,"is_reserved":false,"is_disabled":false,"rental_uris":{"android":"levelo://app?vid=9da4925b-7d68-4169-bdf7-d8498f34a069","ios":"levelo://app?vid=9da4925b-7d68-4169-bdf7-d8498f34a069"},"vehicle_type_id":"4","last_reported":1750435953,"current_range_meters":17600,"station_id":"ce4bho12rcd13ifvqh2g","pricing_plan_id":"cebpf4jnsgd1na2vs0mg"},{"bike_id":"505828d7-78d2-466e-a7c3-292c5dd885e4","system_id":"levelo_inurba_marseille","lat":43.33129,"lon":5.38573,"is_reserved":false,"is_disabled":false,"rental_uris":{"android":"levelo://app?vid=505828d7-78d2-466e-a7c3-292c5dd885e4","ios":"levelo://app?vid=505828d7-78d2-466e-a7c3-292c5dd885e4"},"vehicle_type_id":"4","last_reported":1750435953,"current_range_meters":18000,"station_id":"","pricing_plan_id":"cebpf4jnsgd1na2vs0mg"},{"bike_id":"01c0ac0f-b40f-4f7c-a9fe-4fc3ed3169fe","system_id":"levelo_inurba_marseille","lat":43.25957,"lon":5.37556,"is_reserved":false,"is_disabled":false,"rental_uris":{"android":"levelo://app?vid=01c0ac0f-b40f-4f7c-a9fe-4fc3ed3169fe","ios":"levelo://app?vid=01c0ac0f-b40f-4f7c-a9fe-4fc3ed3169fe"},"vehicle_type_id":"4","last_reported":1750435953,"current_range_meters":18000,"station_id":"","pricing_plan_id":"cebpf4jnsgd1na2vs0mg"},{"bike_id":"ffbb0c22-3f4e-4cdb-a0e5-79e3b9f3e1a2","system_id":"levelo_inurba_marseille","lat":43.33816,"lon":5.37406,"is_reserved":false,"is_disabled":false,"rental_uris":{"android":"levelo://app?vid=ffbb0c22-3f4e-4cdb-a0e5-79e3b9f3e1a2","ios":"levelo://app?vid=ffbb0c22-3f4e-4cdb-a0e5-79e3b9f3e1a2"},"vehicle_type_id":"4","last_reported":1750435953,"current_range_meters":18000,"station_id":"","pricing_plan_id":"cebpf4jnsgd1na2vs0mg"},{"bike_id":"4f566e17-ff24-4089-9aa8-a8bb8822a902","system_id":"levelo_inurba_marseille","lat":43.28296,"lon":5.35083,"is_reserved":false,"is_disabled":false,"rental_uris":{"android":"levelo://app?vid=4f566e17-ff24-4089-9aa8-a8bb8822a902","ios":"levelo://app?vid=4f566e17-ff24-4089-9aa8-a8bb8822a902"},"vehicle_type_id":"4","last_reported":1750435953,"current_range_meters":18000,"station_id":"ce4bhbp2rcd13ifvqerg","pricing_plan_id":"cebpf4jnsgd1na2vs0mg"},{"bike_id":"308f52b2-f293-4d16-91e5-ed21034c7800","system_id":"levelo_inurba_marseille","lat":43.28257,"lon":5.35064,"is_reserved":false,"is_disabled":false,"rental_uris":{"android":"levelo://app?vid=308f52b2-f293-4d16-91e5-ed21034c7800","ios":"levelo://app?vid=308f52b2-f293-4d16-91e5-ed21034c7800"},"vehicle_type_id":"4","last_reported":1750435953,"current_range_meters":18000,"station_id":"ce4bhbp2rcd13ifvqerg","pricing_plan_id":"cebpf4jnsgd1na2vs0mg"},{"bike_id":"a9fe177d-6cf7-41a6-b924-383cb8edf7ce","system_id":"levelo_inurba_marseille","lat":43.28624,"lon":5.35098,"is_reserved":false,"is_disabled":false,"rental_uris":{"android":"levelo://app?vid=a9fe177d-6cf7-41a6-b924-383cb8edf7ce","ios":"levelo://app?vid=a9fe177d-6cf7-41a6-b924-383cb8edf7ce"},"vehicle_type_id":"4","last_reported":1750435953,"current_range_meters":18000,"station_id":"ce4bhch2rcd13ifvqeug","pricing_plan_id":"cebpf4jnsgd1na2vs0mg"},{"bike_id":"19906a7b-dc02-47dd-b6a6-137f7af01174","system_id":"levelo_inurba_marseille","lat":43.27059,"lon":5.40257,"is_reserved":false,"is_disabled":false,"rental_uris":{"android":"levelo://app?vid=19906a7b-dc02-47dd-b6a6-137f7af01174","ios":"levelo://app?vid=19906a7b-dc02-47dd-b6a6-137f7af01174"},"vehicle_type_id":"4","last_reported":1750435953,"current_range_meters":18000,"station_id":"ce4bhk92rcd13ifvqgc0","pricing_plan_id":"cebpf4jnsgd1na2vs0mg"},{"bike_id":"338b3c56-9416-44ba-a5f3-ed647789147a","system_id":"levelo_inurba_marseille","lat":43.282565,"lon":5.350592,"is_reserved":false,"is_disabled":false,"rental_uris":{"android":"levelo://app?vid=338b3c56-9416-44ba-a5f3-ed647789147a","ios":"levelo://app?vid=338b3c56-9416-44ba-a5f3-ed647789147a"},"vehicle_type_id":"4","last_reported":1750435953,"current_range_meters":18800,"station_id":"ce4bgkp2rcd13ifvqbmg","pricing_plan_id":"cebpf4jnsgd1na2vs0mg"},{"bike_id":"e12ad1d9-5818-4fa0-8e93-1f3bcd225226","system_id":"levelo_inurba_marseille","lat":43.27375,"lon":5.36253,"is_reserved":false,"is_disabled":false,"rental_uris":{"android":"levelo://app?vid=e12ad1d9-5818-4fa0-8e93-1f3bcd225226","ios":"levelo://app?vid=e12ad1d9-5818-4fa0-8e93-1f3bcd225226"},"vehicle_type_id":"4","last_reported":1750435953,"current_range_meters":18800,"station_id":"ce4bhbh2rcd13ifvqeo0","pricing_plan_id":"cebpf4jnsgd1na2vs0mg"},{"bike_id":"6c9d582e-4218-47ba-9602-2e2b1485731a","system_id":"levelo_inurba_marseille","lat":43.27872,"lon":5.38003,"is_reserved":false,"is_disabled":false,"rental_uris":{"android":"levelo://app?vid=6c9d582e-4218-47ba-9602-2e2b1485731a","ios":"levelo://app?vid=6c9d582e-4218-47ba-9602-2e2b1485731a"},"vehicle_type_id":"4","last_reported":1750435953,"current_range_meters":18800,"station_id":"ce4bhf92rcd13ifvqf50","pricing_plan_id":"cebpf4jnsgd1na2vs0mg"},{"bike_id":"8ae7acab-948c-44c6-b731-13770f12b6bf","system_id":"levelo_inurba_marseille","lat":43.266553,"lon":5.383041,"is_reserved":false,"is_disabled":false,"rental_uris":{"android":"levelo://app?vid=8ae7acab-948c-44c6-b731-13770f12b6bf","ios":"levelo://app?vid=8ae7acab-948c-44c6-b731-13770f12b6bf"},"vehicle_type_id":"4","last_reported":1750435953,"current_range_meters":18800,"station_id":"ce4bhg92rcd13ifvqf90","pricing_plan_id":"cebpf4jnsgd1na2vs0mg"},{"bike_id":"73a224ff-f6a3-4c18-9279-d392a3f86d72","system_id":"levelo_inurba_marseille","lat":43.21755,"lon":5.34599,"is_reserved":false,"is_disabled":false,"rental_uris":{"android":"levelo://app?vid=73a224ff-f6a3-4c18-9279-d392a3f86d72","ios":"levelo://app?vid=73a224ff-f6a3-4c18-9279-d392a3f86d72"},"vehicle_type_id":"4","last_reported":1750435953,"current_range_meters":18800,"station_id":"st_cvj6r9ubvosntc0bgbag","pricing_plan_id":"cebpf4jnsgd1na2vs0mg"},{"bike_id":"64198631-29f4-47e4-896a-e3675e77b2a1","system_id":"levelo_inurba_marseille","lat":43.21192,"lon":5.3507,"is_reserved":false,"is_disabled":false,"rental_uris":{"android":"levelo://app?vid=64198631-29f4-47e4-896a-e3675e77b2a1","ios":"levelo://app?vid=64198631-29f4-47e4-896a-e3675e77b2a1"},"vehicle_type_id":"4","last_reported":1750435953,"current_range_meters":18800,"station_id":"st_cvj6sg6p6f1abm77japg","pricing_plan_id":"cebpf4jnsgd1na2vs0mg"},{"bike_id":"5ff66039-7fa6-4cc1-9650-85a86ac0e72a","system_id":"levelo_inurba_marseille","lat":43.3203,"lon":5.40817,"is_reserved":false,"is_disabled":false,"rental_uris":{"android":"levelo://app?vid=5ff66039-7fa6-4cc1-9650-85a86ac0e72a","ios":"levelo://app?vid=5ff66039-7fa6-4cc1-9650-85a86ac0e72a"},"vehicle_type_id":"4","last_reported":1750435953,"current_range_meters":19200,"station_id":"","pricing_plan_id":"cebpf4jnsgd1na2vs0mg"},{"bike_id":"c476b2f9-2d50-402f-a0bf-dbfd62e43970","system_id":"levelo_inurba_marseille","lat":43.29574,"lon":5.39978,"is_reserved":false,"is_disabled":false,"rental_uris":{"android":"levelo://app?vid=c476b2f9-2d50-402f-a0bf-dbfd62e43970","ios":"levelo://app?vid=c476b2f9-2d50-402f-a0bf-dbfd62e43970"},"vehicle_type_id":"4","last_reported":1750435953,"current_range_meters":19200,"station_id":"ce4bh312rcd13ifvqdj0","pricing_plan_id":"cebpf4jnsgd1na2vs0mg"},{"bike_id":"c7b5c95f-8bbc-4862-afd3-052c6de8a4e2","system_id":"levelo_inurba_marseille","lat":43.289316,"lon":5.366398,"is_reserved":false,"is_disabled":false,"rental_uris":{"android":"levelo://app?vid=c7b5c95f-8bbc-4862-afd3-052c6de8a4e2","ios":"levelo://app?vid=c7b5c95f-8bbc-4862-afd3-052c6de8a4e2"},"vehicle_type_id":"4","last_reported":1750435953,"current_range_meters":19200,"station_id":"ce4bhap2rcd13ifvqek0","pricing_plan_id":"cebpf4jnsgd1na2vs0mg"},{"bike_id":"e631847c-453c-4b61-8697-eacfe67a8a5f","system_id":"levelo_inurba_marseille","lat":43.28399,"lon":5.3499,"is_reserved":false,"is_disabled":false,"rental_uris":{"android":"levelo://app?vid=e631847c-453c-4b61-8697-eacfe67a8a5f","ios":"levelo://app?vid=e631847c-453c-4b61-8697-eacfe67a8a5f"},"vehicle_type_id":"4","last_reported":1750435953,"current_range_meters":19200,"station_id":"ce4bhbh2rcd13ifvqepg","pricing_plan_id":"cebpf4jnsgd1na2vs0mg"},{"bike_id":"0e194cea-8d4b-41ab-8239-e46158d650f7","system_id":"levelo_inurba_marseille","lat":43.28259,"lon":5.35061,"is_reserved":false,"is_disabled":false,"rental_uris":{"android":"levelo://app?vid=0e194cea-8d4b-41ab-8239-e46158d650f7","ios":"levelo://app?vid=0e194cea-8d4b-41ab-8239-e46158d650f7"},"vehicle_type_id":"4","last_reported":1750435953,"current_range_meters":19200,"station_id":"ce4bhbp2rcd13ifvqerg","pricing_plan_id":"cebpf4jnsgd1na2vs0mg"},{"bike_id":"a0fc4a05-ccc8-4219-b5c9-7aa489a5af71","system_id":"levelo_inurba_marseille","lat":43.28613,"lon":5.35117,"is_reserved":false,"is_disabled":false,"rental_uris":{"android":"levelo://app?vid=a0fc4a05-ccc8-4219-b5c9-7aa489a5af71","ios":"levelo://app?vid=a0fc4a05-ccc8-4219-b5c9-7aa489a5af71"},"vehicle_type_id":"4","last_reported":1750435953,"current_range_meters":19200,"station_id":"ce4bhch2rcd13ifvqeug","pricing_plan_id":"cebpf4jnsgd1na2vs0mg"},{"bike_id":"dc0a10ea-2a76-4481-968b-df47ae3a1332","system_id":"levelo_inurba_marseille","lat":43.25077,"lon":5.39515,"is_reserved":false,"is_disabled":false,"rental_uris":{"android":"levelo://app?vid=dc0a10ea-2a76-4481-968b-df47ae3a1332","ios":"levelo://app?vid=dc0a10ea-2a76-4481-968b-df47ae3a1332"},"vehicle_type_id":"4","last_reported":1750435953,"current_range_meters":19200,"station_id":"ce4bhm12rcd13ifvqgkg","pricing_plan_id":"cebpf4jnsgd1na2vs0mg"},{"bike_id":"65490dbb-fb26-48b3-b1b6-17abf527e385","system_id":"levelo_inurba_marseille","lat":43.24167,"lon":5.36404,"is_reserved":false,"is_disabled":false,"rental_uris":{"android":"levelo://app?vid=65490dbb-fb26-48b3-b1b6-17abf527e385","ios":"levelo://app?vid=65490dbb-fb26-48b3-b1b6-17abf527e385"},"vehicle_type_id":"4","last_reported":1750435953,"current_range_meters":19200,"station_id":"cpo36qri1sfpv3e86is0","pricing_plan_id":"cebpf4jnsgd1na2vs0mg"},{"bike_id":"f40b14e2-3a68-45fd-9433-444c784b4081","system_id":"levelo_inurba_marseille","lat":43.21767,"lon":5.34589,"is_reserved":false,"is_disabled":false,"rental_uris":{"android":"levelo://app?vid=f40b14e2-3a68-45fd-9433-444c784b4081","ios":"levelo://app?vid=f40b14e2-3a68-45fd-9433-444c784b4081"},"vehicle_type_id":"4","last_reported":1750435953,"current_range_meters":19200,"station_id":"st_cvj6r9ubvosntc0bgbag","pricing_plan_id":"cebpf4jnsgd1na2vs0mg"},{"bike_id":"5187990f-0e38-4183-960c-3c6c679fb2e8","system_id":"levelo_inurba_marseille","lat":43.21218,"lon":5.3507,"is_reserved":false,"is_disabled":false,"rental_uris":{"android":"levelo://app?vid=5187990f-0e38-4183-960c-3c6c679fb2e8","ios":"levelo://app?vid=5187990f-0e38-4183-960c-3c6c679fb2e8"},"vehicle_type_id":"4","last_reported":1750435953,"current_range_meters":19200,"station_id":"st_cvj6sg6p6f1abm77japg","pricing_plan_id":"cebpf4jnsgd1na2vs0mg"},{"bike_id":"8059a22c-5067-4fa5-86f7-7ccef752acc3","system_id":"levelo_inurba_marseille","lat":43.244357,"lon":5.370282,"is_reserved":false,"is_disabled":false,"rental_uris":{"android":"levelo://app?vid=8059a22c-5067-4fa5-86f7-7ccef752acc3","ios":"levelo://app?vid=8059a22c-5067-4fa5-86f7-7ccef752acc3"},"vehicle_type_id":"4","last_reported":1750435953,"current_range_meters":19600,"station_id":"","pricing_plan_id":"cebpf4jnsgd1na2vs0mg"},{"bike_id":"973db25f-144a-495b-98c4-15b4ae2dacd8","system_id":"levelo_inurba_marseille","lat":43.313337,"lon":5.374933,"is_reserved":false,"is_disabled":false,"rental_uris":{"android":"levelo://app?vid=973db25f-144a-495b-98c4-15b4ae2dacd8","ios":"levelo://app?vid=973db25f-144a-495b-98c4-15b4ae2dacd8"},"vehicle_type_id":"4","last_reported":1750435953,"current_range_meters":19600,"station_id":"","pricing_plan_id":"cebpf4jnsgd1na2vs0mg"},{"bike_id":"a03a949d-876f-42db-9564-0aeae678fff4","system_id":"levelo_inurba_marseille","lat":43.29443,"lon":5.44504,"is_reserved":false,"is_disabled":false,"rental_uris":{"android":"levelo://app?vid=a03a949d-876f-42db-9564-0aeae678fff4","ios":"levelo://app?vid=a03a949d-876f-42db-9564-0aeae678fff4"},"vehicle_type_id":"4","last_reported":1750435953,"current_range_meters":19600,"station_id":"","pricing_plan_id":"cebpf4jnsgd1na2vs0mg"},{"bike_id":"8a2e9ad7-1347-408e-acd1-7722644f40f7","system_id":"levelo_inurba_marseille","lat":43.29508,"lon":5.39403,"is_reserved":false,"is_disabled":false,"rental_uris":{"android":"levelo://app?vid=8a2e9ad7-1347-408e-acd1-7722644f40f7","ios":"levelo://app?vid=8a2e9ad7-1347-408e-acd1-7722644f40f7"},"vehicle_type_id":"4","last_reported":1750435953,"current_range_meters":19600,"station_id":"ce4bh292rcd13ifvqdf0","pricing_plan_id":"cebpf4jnsgd1na2vs0mg"},{"bike_id":"5629e82a-2f6a-4d62-9f06-579b108e78e2","system_id":"levelo_inurba_marseille","lat":43.290266,"lon":5.356049,"is_reserved":false,"is_disabled":false,"rental_uris":{"android":"levelo://app?vid=5629e82a-2f6a-4d62-9f06-579b108e78e2","ios":"levelo://app?vid=5629e82a-2f6a-4d62-9f06-579b108e78e2"},"vehicle_type_id":"4","last_reported":1750435953,"current_range_meters":19600,"station_id":"ce4bhb92rcd13ifvqen0","pricing_plan_id":"cebpf4jnsgd1na2vs0mg"},{"bike_id":"e67093e8-e02e-4231-9cbf-5f261dc9c272","system_id":"levelo_inurba_marseille","lat":43.27367,"lon":5.3626,"is_reserved":false,"is_disabled":false,"rental_uris":{"android":"levelo://app?vid=e67093e8-e02e-4231-9cbf-5f261dc9c272","ios":"levelo://app?vid=e67093e8-e02e-4231-9cbf-5f261dc9c272"},"vehicle_type_id":"4","last_reported":1750435953,"current_range_meters":19600,"station_id":"ce4bhbh2rcd13ifvqeo0","pricing_plan_id":"cebpf4jnsgd1na2vs0mg"},{"bike_id":"b7a04b9f-b579-448f-8183-22169ab1145d","system_id":"levelo_inurba_marseille","lat":43.27379,"lon":5.36261,"is_reserved":false,"is_disabled":false,"rental_uris":{"android":"levelo://app?vid=b7a04b9f-b579-448f-8183-22169ab1145d","ios":"levelo://app?vid=b7a04b9f-b579-448f-8183-22169ab1145d"},"vehicle_type_id":"4","last_reported":1750435953,"current_range_meters":19600,"station_id":"ce4bhbh2rcd13ifvqeo0","pricing_plan_id":"cebpf4jnsgd1na2vs0mg"},{"bike_id":"367922b5-42cb-42f4-aad2-93d24b9cba6f","system_id":"levelo_inurba_marseille","lat":43.28431,"lon":5.34986,"is_reserved":false,"is_disabled":false,"rental_uris":{"android":"levelo://app?vid=367922b5-42cb-42f4-aad2-93d24b9cba6f","ios":"levelo://app?vid=367922b5-42cb-42f4-aad2-93d24b9cba6f"},"vehicle_type_id":"4","last_reported":1750435953,"current_range_meters":19600,"station_id":"ce4bhbh2rcd13ifvqepg","pricing_plan_id":"cebpf4jnsgd1na2vs0mg"},{"bike_id":"db3cfb48-2c9f-48c2-ab2b-251678788cba","system_id":"levelo_inurba_marseille","lat":43.30808,"lon":5.43526,"is_reserved":false,"is_disabled":false,"rental_uris":{"android":"levelo://app?vid=db3cfb48-2c9f-48c2-ab2b-251678788cba","ios":"levelo://app?vid=db3cfb48-2c9f-48c2-ab2b-251678788cba"},"vehicle_type_id":"4","last_reported":1750435953,"current_range_meters":19600,"station_id":"ce4bhph2rcd13ifvqheg","pricing_plan_id":"cebpf4jnsgd1na2vs0mg"},{"bike_id":"9b995edd-993c-474b-a9aa-c58e51bdf5cb","system_id":"levelo_inurba_marseille","lat":43.3303,"lon":5.39047,"is_reserved":false,"is_disabled":false,"rental_uris":{"android":"levelo://app?vid=9b995edd-993c-474b-a9aa-c58e51bdf5cb","ios":"levelo://app?vid=9b995edd-993c-474b-a9aa-c58e51bdf5cb"},"vehicle_type_id":"4","last_reported":1750435953,"current_range_meters":19600,"station_id":"ce4bhr92rcd13ifvqhrg","pricing_plan_id":"cebpf4jnsgd1na2vs0mg"},{"bike_id":"90c5a1b6-730c-413e-bcee-b223ffbd4504","system_id":"levelo_inurba_marseille","lat":43.241732,"lon":5.363937,"is_reserved":false,"is_disabled":false,"rental_uris":{"android":"levelo://app?vid=90c5a1b6-730c-413e-bcee-b223ffbd4504","ios":"levelo://app?vid=90c5a1b6-730c-413e-bcee-b223ffbd4504"},"vehicle_type_id":"4","last_reported":1750435953,"current_range_meters":19600,"station_id":"cpo36qri1sfpv3e86is0","pricing_plan_id":"cebpf4jnsgd1na2vs0mg"},{"bike_id":"c47c2ea7-3ccc-46b7-b518-7d76a97808fe","system_id":"levelo_inurba_marseille","lat":43.27359,"lon":5.36197,"is_reserved":false,"is_disabled":false,"rental_uris":{"android":"levelo://app?vid=c47c2ea7-3ccc-46b7-b518-7d76a97808fe","ios":"levelo://app?vid=c47c2ea7-3ccc-46b7-b518-7d76a97808fe"},"vehicle_type_id":"4","last_reported":1750435953,"current_range_meters":20000,"station_id":"","pricing_plan_id":"cebpf4jnsgd1na2vs0mg"},{"bike_id":"b32c0344-9dc5-4e1d-beac-e06156a8c37a","system_id":"levelo_inurba_marseille","lat":43.28267,"lon":5.35074,"is_reserved":false,"is_disabled":false,"rental_uris":{"android":"levelo://app?vid=b32c0344-9dc5-4e1d-beac-e06156a8c37a","ios":"levelo://app?vid=b32c0344-9dc5-4e1d-beac-e06156a8c37a"},"vehicle_type_id":"4","last_reported":1750435953,"current_range_meters":20000,"station_id":"ce4bhbp2rcd13ifvqerg","pricing_plan_id":"cebpf4jnsgd1na2vs0mg"},{"bike_id":"205342d1-39d1-4dc9-92db-0c81bacc6635","system_id":"levelo_inurba_marseille","lat":43.28153,"lon":5.42642,"is_reserved":false,"is_disabled":false,"rental_uris":{"android":"levelo://app?vid=205342d1-39d1-4dc9-92db-0c81bacc6635","ios":"levelo://app?vid=205342d1-39d1-4dc9-92db-0c81bacc6635"},"vehicle_type_id":"4","last_reported":1750435953,"current_range_meters":20000,"station_id":"ce4bhnh2rcd13ifvqgug","pricing_plan_id":"cebpf4jnsgd1na2vs0mg"},{"bike_id":"02e4e90b-04f3-4a62-8918-70a017721e1f","system_id":"levelo_inurba_marseille","lat":43.32106,"lon":5.36772,"is_reserved":false,"is_disabled":false,"rental_uris":{"android":"levelo://app?vid=02e4e90b-04f3-4a62-8918-70a017721e1f","ios":"levelo://app?vid=02e4e90b-04f3-4a62-8918-70a017721e1f"},"vehicle_type_id":"4","last_reported":1750435953,"current_range_meters":20000,"station_id":"ce4bhrh2rcd13ifvqhug","pricing_plan_id":"cebpf4jnsgd1na2vs0mg"},{"bike_id":"a9262345-195f-48e6-98ef-2cfccbcf3aaf","system_id":"levelo_inurba_marseille","lat":43.217623,"lon":5.345954,"is_reserved":false,"is_disabled":false,"rental_uris":{"android":"levelo://app?vid=a9262345-195f-48e6-98ef-2cfccbcf3aaf","ios":"levelo://app?vid=a9262345-195f-48e6-98ef-2cfccbcf3aaf"},"vehicle_type_id":"4","last_reported":1750435953,"current_range_meters":20000,"station_id":"st_cvj6r9ubvosntc0bgbag","pricing_plan_id":"cebpf4jnsgd1na2vs0mg"},{"bike_id":"4eed0cb8-06b4-4f4e-bb41-584ec31d623a","system_id":"levelo_inurba_marseille","lat":43.25576,"lon":5.3824,"is_reserved":false,"is_disabled":false,"rental_uris":{"android":"levelo://app?vid=4eed0cb8-06b4-4f4e-bb41-584ec31d623a","ios":"levelo://app?vid=4eed0cb8-06b4-4f4e-bb41-584ec31d623a"},"vehicle_type_id":"4","last_reported":1750435953,"current_range_meters":20400,"station_id":"ce4bhih2rcd13ifvqfs0","pricing_plan_id":"cebpf4jnsgd1na2vs0mg"},{"bike_id":"3fa2ba3d-686d-45f8-85d5-5ac39db4219c","system_id":"levelo_inurba_marseille","lat":43.21168,"lon":5.35066,"is_reserved":false,"is_disabled":false,"rental_uris":{"android":"levelo://app?vid=3fa2ba3d-686d-45f8-85d5-5ac39db4219c","ios":"levelo://app?vid=3fa2ba3d-686d-45f8-85d5-5ac39db4219c"},"vehicle_type_id":"4","last_reported":1750435953,"current_range_meters":20400,"station_id":"st_cvj6sg6p6f1abm77japg","pricing_plan_id":"cebpf4jnsgd1na2vs0mg"},{"bike_id":"97b9fc6d-1f41-4128-8553-e5ce26e05d42","system_id":"levelo_inurba_marseille","lat":43.31435,"lon":5.37352,"is_reserved":false,"is_disabled":false,"rental_uris":{"android":"levelo://app?vid=97b9fc6d-1f41-4128-8553-e5ce26e05d42","ios":"levelo://app?vid=97b9fc6d-1f41-4128-8553-e5ce26e05d42"},"vehicle_type_id":"4","last_reported":1750435953,"current_range_meters":20800,"station_id":"","pricing_plan_id":"cebpf4jnsgd1na2vs0mg"},{"bike_id":"ae9e9dd1-2365-4966-b673-c831a757eb88","system_id":"levelo_inurba_marseille","lat":43.291927,"lon":5.35808,"is_reserved":false,"is_disabled":false,"rental_uris":{"android":"levelo://app?vid=ae9e9dd1-2365-4966-b673-c831a757eb88","ios":"levelo://app?vid=ae9e9dd1-2365-4966-b673-c831a757eb88"},"vehicle_type_id":"4","last_reported":1750435953,"current_range_meters":20800,"station_id":"ce4bhb12rcd13ifvqel0","pricing_plan_id":"cebpf4jnsgd1na2vs0mg"},{"bike_id":"39468869-ea26-4b11-bb98-99f6ac54cf5d","system_id":"levelo_inurba_marseille","lat":43.28275,"lon":5.35056,"is_reserved":false,"is_disabled":false,"rental_uris":{"android":"levelo://app?vid=39468869-ea26-4b11-bb98-99f6ac54cf5d","ios":"levelo://app?vid=39468869-ea26-4b11-bb98-99f6ac54cf5d"},"vehicle_type_id":"4","last_reported":1750435953,"current_range_meters":20800,"station_id":"ce4bhbp2rcd13ifvqerg","pricing_plan_id":"cebpf4jnsgd1na2vs0mg"},{"bike_id":"a124c9c4-2f19-4fc2-8c73-c00ac97ba647","system_id":"levelo_inurba_marseille","lat":43.28622,"lon":5.35098,"is_reserved":false,"is_disabled":false,"rental_uris":{"android":"levelo://app?vid=a124c9c4-2f19-4fc2-8c73-c00ac97ba647","ios":"levelo://app?vid=a124c9c4-2f19-4fc2-8c73-c00ac97ba647"},"vehicle_type_id":"4","last_reported":1750435953,"current_range_meters":20800,"station_id":"ce4bhch2rcd13ifvqeug","pricing_plan_id":"cebpf4jnsgd1na2vs0mg"},{"bike_id":"59a35416-40a0-473c-92d5-61ea53810c91","system_id":"levelo_inurba_marseille","lat":43.23967,"lon":5.36624,"is_reserved":false,"is_disabled":false,"rental_uris":{"android":"levelo://app?vid=59a35416-40a0-473c-92d5-61ea53810c91","ios":"levelo://app?vid=59a35416-40a0-473c-92d5-61ea53810c91"},"vehicle_type_id":"4","last_reported":1750435953,"current_range_meters":20800,"station_id":"ce4bhi12rcd13ifvqfp0","pricing_plan_id":"cebpf4jnsgd1na2vs0mg"},{"bike_id":"713aa1b0-729e-4392-9e3d-390de508fe4e","system_id":"levelo_inurba_marseille","lat":43.32119,"lon":5.36781,"is_reserved":false,"is_disabled":false,"rental_uris":{"android":"levelo://app?vid=713aa1b0-729e-4392-9e3d-390de508fe4e","ios":"levelo://app?vid=713aa1b0-729e-4392-9e3d-390de508fe4e"},"vehicle_type_id":"4","last_reported":1750435953,"current_range_meters":20800,"station_id":"ce4bhrh2rcd13ifvqhug","pricing_plan_id":"cebpf4jnsgd1na2vs0mg"},{"bike_id":"5372f3b6-6ea3-4de9-8ebf-676c62eef8e2","system_id":"levelo_inurba_marseille","lat":43.21189,"lon":5.35085,"is_reserved":false,"is_disabled":false,"rental_uris":{"android":"levelo://app?vid=5372f3b6-6ea3-4de9-8ebf-676c62eef8e2","ios":"levelo://app?vid=5372f3b6-6ea3-4de9-8ebf-676c62eef8e2"},"vehicle_type_id":"4","last_reported":1750435953,"current_range_meters":20800,"station_id":"st_cvj6sg6p6f1abm77japg","pricing_plan_id":"cebpf4jnsgd1na2vs0mg"},{"bike_id":"2ca1ad55-2114-4aae-9783-119952cda2be","system_id":"levelo_inurba_marseille","lat":43.30937,"lon":5.40146,"is_reserved":false,"is_disabled":false,"rental_uris":{"android":"levelo://app?vid=2ca1ad55-2114-4aae-9783-119952cda2be","ios":"levelo://app?vid=2ca1ad55-2114-4aae-9783-119952cda2be"},