{"last_updated":1758992856,"ttl":60,"version":"2.2","data":{"bikes":[{"bike_id":"d9d81f13-0466-4061-9641-63d9967c204f","system_id":"levelo_inurba_marseille","lat":43.29095,"lon":5.38129,"is_reserved":false,"is_disabled":false,"rental_uris":{"android":"levelo://app?vid=d9d81f13-0466-4061-9641-63d9967c204f","ios":"levelo://app?vid=d9d81f13-0466-4061-9641-63d9967c204f"},"vehicle_type_id":"4","last_reported":1758992856,"current_range_meters":2800,"station_id":"ce4bh512rcd13ifvqe2g","pricing_plan_id":"cebpf4jnsgd1na2vs0mg"},{"bike_id":"0f54c0e9-effe-4fd6-970f-158ab79949ff","system_id":"levelo_inurba_marseille","lat":43.30874,"lon":5.39668,"is_reserved":false,"is_disabled":false,"rental_uris":{"android":"levelo://app?vid=0f54c0e9-effe-4fd6-970f-158ab79949ff","ios":"levelo://app?vid=0f54c0e9-effe-4fd6-970f-158ab79949ff"},"vehicle_type_id":"4","last_reported":1758992856,"current_range_meters":2800,"station_id":"ce4bh012rcd13ifvqcv0","pricing_plan_id":"cebpf4jnsgd1na2vs0mg"},{"bike_id":"9a0dc5f9-3be5-4cb6-8359-34212218f4a7","system_id":"levelo_inurba_marseille","lat":43.248096,"lon":5.374622,"is_reserved":false,"is_disabled":false,"rental_uris":{"android":"levelo://app?vid=9a0dc5f9-3be5-4cb6-8359-34212218f4a7","ios":"levelo://app?vid=9a0dc5f9-3be5-4cb6-8359-34212218f4a7"},"vehicle_type_id":"4","last_reported":1758992856,"current_range_meters":2800,"station_id":"","pricing_plan_id":"cebpf4jnsgd1na2vs0mg"},{"bike_id":"4638670c-2a40-426e-a4b6-fdef3111f126","system_id":"levelo_inurba_marseille","lat":43.323373,"lon":5.406393,"is_reserved":false,"is_disabled":false,"rental_uris":{"android":"levelo://app?vid=4638670c-2a40-426e-a4b6-fdef3111f126","ios":"levelo://app?vid=4638670c-2a40-426e-a4b6-fdef3111f126"},"vehicle_type_id":"4","last_reported":1758992856,"current_range_meters":2800,"station_id":"ce4bhq92rcd13ifvqhjg","pricing_plan_id":"cebpf4jnsgd1na2vs0mg"},{"bike_id":"c6928f31-2b3d-46ef-ac4d-50fdd46e3f18","system_id":"levelo_inurba_marseille","lat":43.28095,"lon":5.37832,"is_reserved":false,"is_disabled":false,"rental_uris":{"android":"levelo://app?vid=c6928f31-2b3d-46ef-ac4d-50fdd46e3f18","ios":"levelo://app?vid=c6928f31-2b3d-46ef-ac4d-50fdd46e3f18"},"vehicle_type_id":"4","last_reported":1758992856,"current_range_meters":2800,"station_id":"ce4bha12rcd13ifvqee0","pricing_plan_id":"cebpf4jnsgd1na2vs0mg"},{"bike_id":"a581bdea-2b1e-4888-bbaf-27e08cddff08","system_id":"levelo_inurba_marseille","lat":43.31087,"lon":5.42436,"is_reserved":false,"is_disabled":false,"rental_uris":{"android":"levelo://app?vid=a581bdea-2b1e-4888-bbaf-27e08cddff08","ios":"levelo://app?vid=a581bdea-2b1e-4888-bbaf-27e08cddff08"},"vehicle_type_id":"4","last_reported":1758992856,"current_range_meters":2800,"station_id":"ce4bhp92rcd13ifvqhag","pricing_plan_id":"cebpf4jnsgd1na2vs0mg"},{"bike_id":"678fd8ad-da17-42b1-b953-0c41078fa799","system_id":"levelo_inurba_marseille","lat":43.29514,"lon":5.39077,"is_reserved":false,"is_disabled":false,"rental_uris":{"android":"levelo://app?vid=678fd8ad-da17-42b1-b953-0c41078fa799","ios":"levelo://app?vid=678fd8ad-da17-42b1-b953-0c41078fa799"},"vehicle_type_id":"4","last_reported":1758992856,"current_range_meters":2800,"station_id":"ce4bh3p2rcd13ifvqdp0","pricing_plan_id":"cebpf4jnsgd1na2vs0mg"},{"bike_id":"67d2ed49-d732-4558-9cd3-afd1be2f814a","system_id":"levelo_inurba_marseille","lat":43.284217,"lon":5.374997,"is_reserved":false,"is_disabled":false,"rental_uris":{"android":"levelo://app?vid=67d2ed49-d732-4558-9cd3-afd1be2f814a","ios":"levelo://app?vid=67d2ed49-d732-4558-9cd3-afd1be2f814a"},"vehicle_type_id":"4","last_reported":1758992856,"current_range_meters":2800,"station_id":"ce4bh412rcd13ifvqds0","pricing_plan_id":"cebpf4jnsgd1na2vs0mg"},{"bike_id":"92be679f-e7ba-419c-987b-f50b780c3cc4","system_id":"levelo_inurba_marseille","lat":43.28194,"lon":5.37316,"is_reserved":false,"is_disabled":false,"rental_uris":{"android":"levelo://app?vid=92be679f-e7ba-419c-987b-f50b780c3cc4","ios":"levelo://app?vid=92be679f-e7ba-419c-987b-f50b780c3cc4"},"vehicle_type_id":"4","last_reported":1758992856,"current_range_meters":2800,"station_id":"","pricing_plan_id":"cebpf4jnsgd1na2vs0mg"},{"bike_id":"5d98ba2d-837a-4b27-8004-25b51d047548","system_id":"levelo_inurba_marseille","lat":43.28408,"lon":5.37505,"is_reserved":false,"is_disabled":false,"rental_uris":{"android":"levelo://app?vid=5d98ba2d-837a-4b27-8004-25b51d047548","ios":"levelo://app?vid=5d98ba2d-837a-4b27-8004-25b51d047548"},"vehicle_type_id":"4","last_reported":1758992856,"current_range_meters":2800,"station_id":"ce4bh412rcd13ifvqds0","pricing_plan_id":"cebpf4jnsgd1na2vs0mg"},{"bike_id":"30869797-a316-4afd-9b5a-15ce350adb94","system_id":"levelo_inurba_marseille","lat":43.28354,"lon":5.38104,"is_reserved":false,"is_disabled":false,"rental_uris":{"android":"levelo://app?vid=30869797-a316-4afd-9b5a-15ce350adb94","ios":"levelo://app?vid=30869797-a316-4afd-9b5a-15ce350adb94"},"vehicle_type_id":"4","last_reported":1758992856,"current_range_meters":6000,"station_id":"ce4bh412rcd13ifvqdr0","pricing_plan_id":"cebpf4jnsgd1na2vs0mg"},{"bike_id":"003515e8-8117-44bb-979d-5f47e8d50fda","system_id":"levelo_inurba_marseille","lat":43.30632,"lon":5.37554,"is_reserved":false,"is_disabled":false,"rental_uris":{"android":"levelo://app?vid=003515e8-8117-44bb-979d-5f47e8d50fda","ios":"levelo://app?vid=003515e8-8117-44bb-979d-5f47e8d50fda"},"vehicle_type_id":"4","last_reported":1758992856,"current_range_meters":3200,"station_id":"","pricing_plan_id":"cebpf4jnsgd1na2vs0mg"},{"bike_id":"9bba2970-4c7d-4862-8b95-7fd9349febba","system_id":"levelo_inurba_marseille","lat":43.29911,"lon":5.43654,"is_reserved":false,"is_disabled":false,"rental_uris":{"android":"levelo://app?vid=9bba2970-4c7d-4862-8b95-7fd9349febba","ios":"levelo://app?vid=9bba2970-4c7d-4862-8b95-7fd9349febba"},"vehicle_type_id":"4","last_reported":1758992856,"current_range_meters":3200,"station_id":"ce4bhpp2rcd13ifvqhfg","pricing_plan_id":"cebpf4jnsgd1na2vs0mg"},{"bike_id":"5e9f57e7-4b24-4133-a91f-2a95134765c6","system_id":"levelo_inurba_marseille","lat":43.2655,"lon":5.37291,"is_reserved":false,"is_disabled":true,"rental_uris":{"android":"levelo://app?vid=5e9f57e7-4b24-4133-a91f-2a95134765c6","ios":"levelo://app?vid=5e9f57e7-4b24-4133-a91f-2a95134765c6"},"vehicle_type_id":"4","last_reported":1758992856,"current_range_meters":3200,"station_id":"ce4bhg12rcd13ifvqf70","pricing_plan_id":"cebpf4jnsgd1na2vs0mg"},{"bike_id":"ebd4d810-f943-47ad-9eec-3a6d63e833c3","system_id":"levelo_inurba_marseille","lat":43.22923,"lon":5.35382,"is_reserved":false,"is_disabled":false,"rental_uris":{"android":"levelo://app?vid=ebd4d810-f943-47ad-9eec-3a6d63e833c3","ios":"levelo://app?vid=ebd4d810-f943-47ad-9eec-3a6d63e833c3"},"vehicle_type_id":"4","last_reported":1758992856,"current_range_meters":3200,"station_id":"cpo3532slgdg3j2ikp40","pricing_plan_id":"cebpf4jnsgd1na2vs0mg"},{"bike_id":"521c56ad-a8bb-43c2-99bd-213b4f55847f","system_id":"levelo_inurba_marseille","lat":43.27997,"lon":5.40024,"is_reserved":false,"is_disabled":false,"rental_uris":{"android":"levelo://app?vid=521c56ad-a8bb-43c2-99bd-213b4f55847f","ios":"levelo://app?vid=521c56ad-a8bb-43c2-99bd-213b4f55847f"},"vehicle_type_id":"4","last_reported":1758992856,"current_range_meters":2800,"station_id":"ce4bho92rcd13ifvqh4g","pricing_plan_id":"cebpf4jnsgd1na2vs0mg"},{"bike_id":"964bedd1-406d-495d-bdb5-37f29101b699","system_id":"levelo_inurba_marseille","lat":43.31332,"lon":5.39687,"is_reserved":false,"is_disabled":false,"rental_uris":{"android":"levelo://app?vid=964bedd1-406d-495d-bdb5-37f29101b699","ios":"levelo://app?vid=964bedd1-406d-495d-bdb5-37f29101b699"},"vehicle_type_id":"4","last_reported":1758992856,"current_range_meters":3200,"station_id":"ce4bgvp2rcd13ifvqcu0","pricing_plan_id":"cebpf4jnsgd1na2vs0mg"},{"bike_id":"2d3b2202-0b8a-483b-9d3b-f0f1b51d2831","system_id":"levelo_inurba_marseille","lat":43.26575,"lon":5.39017,"is_reserved":false,"is_disabled":false,"rental_uris":{"android":"levelo://app?vid=2d3b2202-0b8a-483b-9d3b-f0f1b51d2831","ios":"levelo://app?vid=2d3b2202-0b8a-483b-9d3b-f0f1b51d2831"},"vehicle_type_id":"4","last_reported":1758992856,"current_range_meters":3600,"station_id":"ce4bhe12rcd13ifvqf30","pricing_plan_id":"cebpf4jnsgd1na2vs0mg"},{"bike_id":"f897d300-643c-4c7a-951b-f56d70ef23ca","system_id":"levelo_inurba_marseille","lat":43.30334,"lon":5.39086,"is_reserved":false,"is_disabled":false,"rental_uris":{"android":"levelo://app?vid=f897d300-643c-4c7a-951b-f56d70ef23ca","ios":"levelo://app?vid=f897d300-643c-4c7a-951b-f56d70ef23ca"},"vehicle_type_id":"4","last_reported":1758992856,"current_range_meters":3600,"station_id":"","pricing_plan_id":"cebpf4jnsgd1na2vs0mg"},{"bike_id":"05dc30cd-f193-4b4e-99de-b306263479c3","system_id":"levelo_inurba_marseille","lat":43.29785,"lon":5.371,"is_reserved":false,"is_disabled":false,"rental_uris":{"android":"levelo://app?vid=05dc30cd-f193-4b4e-99de-b306263479c3","ios":"levelo://app?vid=05dc30cd-f193-4b4e-99de-b306263479c3"},"vehicle_type_id":"4","last_reported":1758992856,"current_range_meters":3600,"station_id":"ce4bgop2rcd13ifvqc1g","pricing_plan_id":"cebpf4jnsgd1na2vs0mg"},{"bike_id":"ea790bae-a1aa-49c0-b1b7-5933575175f4","system_id":"levelo_inurba_marseille","lat":43.291,"lon":5.38139,"is_reserved":false,"is_disabled":false,"rental_uris":{"android":"levelo://app?vid=ea790bae-a1aa-49c0-b1b7-5933575175f4","ios":"levelo://app?vid=ea790bae-a1aa-49c0-b1b7-5933575175f4"},"vehicle_type_id":"4","last_reported":1758992856,"current_range_meters":3200,"station_id":"ce4bh512rcd13ifvqe2g","pricing_plan_id":"cebpf4jnsgd1na2vs0mg"},{"bike_id":"98f8e7af-7213-4d0c-b4b0-df58c6a07d24","system_id":"levelo_inurba_marseille","lat":43.29936,"lon":5.36555,"is_reserved":false,"is_disabled":false,"rental_uris":{"android":"levelo://app?vid=98f8e7af-7213-4d0c-b4b0-df58c6a07d24","ios":"levelo://app?vid=98f8e7af-7213-4d0c-b4b0-df58c6a07d24"},"vehicle_type_id":"4","last_reported":1758992856,"current_range_meters":3600,"station_id":"ce4bgm92rcd13ifvqbr0","pricing_plan_id":"cebpf4jnsgd1na2vs0mg"},{"bike_id":"a0b45e31-054c-4b27-819d-dd6ddf99569b","system_id":"levelo_inurba_marseille","lat":43.3132,"lon":5.39712,"is_reserved":false,"is_disabled":false,"rental_uris":{"android":"levelo://app?vid=a0b45e31-054c-4b27-819d-dd6ddf99569b","ios":"levelo://app?vid=a0b45e31-054c-4b27-819d-dd6ddf99569b"},"vehicle_type_id":"4","last_reported":1758992856,"current_range_meters":4000,"station_id":"ce4bgvp2rcd13ifvqcu0","pricing_plan_id":"cebpf4jnsgd1na2vs0mg"},{"bike_id":"6233866d-3c9b-4797-a2ec-d3095879a2fd","system_id":"levelo_inurba_marseille","lat":43.23965,"lon":5.36628,"is_reserved":false,"is_disabled":false,"rental_uris":{"android":"levelo://app?vid=6233866d-3c9b-4797-a2ec-d3095879a2fd","ios":"levelo://app?vid=6233866d-3c9b-4797-a2ec-d3095879a2fd"},"vehicle_type_id":"4","last_reported":1758992856,"current_range_meters":4000,"station_id":"ce4bhi12rcd13ifvqfp0","pricing_plan_id":"cebpf4jnsgd1na2vs0mg"},{"bike_id":"6c5dcae8-d4bd-4bd4-8d57-8db43b676f42","system_id":"levelo_inurba_marseille","lat":43.29028,"lon":5.38639,"is_reserved":false,"is_disabled":false,"rental_uris":{"android":"levelo://app?vid=6c5dcae8-d4bd-4bd4-8d57-8db43b676f42","ios":"levelo://app?vid=6c5dcae8-d4bd-4bd4-8d57-8db43b676f42"},"vehicle_type_id":"4","last_reported":1758992856,"current_range_meters":400,"station_id":"ce4bh4p2rcd13ifvqe0g","pricing_plan_id":"cebpf4jnsgd1na2vs0mg"},{"bike_id":"9a819dc8-447d-4df7-8b5f-0b18332a26a7","system_id":"levelo_inurba_marseille","lat":43.33048,"lon":5.37481,"is_reserved":false,"is_disabled":false,"rental_uris":{"android":"levelo://app?vid=9a819dc8-447d-4df7-8b5f-0b18332a26a7","ios":"levelo://app?vid=9a819dc8-447d-4df7-8b5f-0b18332a26a7"},"vehicle_type_id":"4","last_reported":1758992856,"current_range_meters":4000,"station_id":"","pricing_plan_id":"cebpf4jnsgd1na2vs0mg"},{"bike_id":"3a4255c7-3c93-4792-97ed-e8b7edc38c19","system_id":"levelo_inurba_marseille","lat":43.29516,"lon":5.39425,"is_reserved":false,"is_disabled":false,"rental_uris":{"android":"levelo://app?vid=3a4255c7-3c93-4792-97ed-e8b7edc38c19","ios":"levelo://app?vid=3a4255c7-3c93-4792-97ed-e8b7edc38c19"},"vehicle_type_id":"4","last_reported":1758992856,"current_range_meters":4400,"station_id":"ce4bh292rcd13ifvqdf0","pricing_plan_id":"cebpf4jnsgd1na2vs0mg"},{"bike_id":"df4e3796-d55f-4003-a664-2b52b17b85f0","system_id":"levelo_inurba_marseille","lat":43.29524,"lon":5.39046,"is_reserved":false,"is_disabled":false,"rental_uris":{"android":"levelo://app?vid=df4e3796-d55f-4003-a664-2b52b17b85f0","ios":"levelo://app?vid=df4e3796-d55f-4003-a664-2b52b17b85f0"},"vehicle_type_id":"4","last_reported":1758992856,"current_range_meters":4400,"station_id":"ce4bh3p2rcd13ifvqdp0","pricing_plan_id":"cebpf4jnsgd1na2vs0mg"},{"bike_id":"7fabb362-2166-4df3-b3dd-260035347e19","system_id":"levelo_inurba_marseille","lat":43.30301,"lon":5.39214,"is_reserved":false,"is_disabled":false,"rental_uris":{"android":"levelo://app?vid=7fabb362-2166-4df3-b3dd-260035347e19","ios":"levelo://app?vid=7fabb362-2166-4df3-b3dd-260035347e19"},"vehicle_type_id":"4","last_reported":1758992856,"current_range_meters":4400,"station_id":"ce4bgkh2rcd13ifvqbk0","pricing_plan_id":"cebpf4jnsgd1na2vs0mg"},{"bike_id":"cba29a70-dd5d-4724-8a37-bec0d5176ffe","system_id":"levelo_inurba_marseille","lat":43.24547,"lon":5.3952,"is_reserved":false,"is_disabled":false,"rental_uris":{"android":"levelo://app?vid=cba29a70-dd5d-4724-8a37-bec0d5176ffe","ios":"levelo://app?vid=cba29a70-dd5d-4724-8a37-bec0d5176ffe"},"vehicle_type_id":"4","last_reported":1758992856,"current_range_meters":10800,"station_id":"ce4bhlp2rcd13ifvqgjg","pricing_plan_id":"cebpf4jnsgd1na2vs0mg"},{"bike_id":"c7f6a08b-c655-4213-b2ba-7d02e7f382fe","system_id":"levelo_inurba_marseille","lat":43.27988,"lon":5.39483,"is_reserved":false,"is_disabled":false,"rental_uris":{"android":"levelo://app?vid=c7f6a08b-c655-4213-b2ba-7d02e7f382fe","ios":"levelo://app?vid=c7f6a08b-c655-4213-b2ba-7d02e7f382fe"},"vehicle_type_id":"4","last_reported":1758992856,"current_range_meters":4800,"station_id":"","pricing_plan_id":"cebpf4jnsgd1na2vs0mg"},{"bike_id":"3c4c931f-65c0-4c11-b0c5-9bc7f3a00e14","system_id":"levelo_inurba_marseille","lat":43.29866,"lon":5.38907,"is_reserved":false,"is_disabled":false,"rental_uris":{"android":"levelo://app?vid=3c4c931f-65c0-4c11-b0c5-9bc7f3a00e14","ios":"levelo://app?vid=3c4c931f-65c0-4c11-b0c5-9bc7f3a00e14"},"vehicle_type_id":"4","last_reported":1758992856,"current_range_meters":4800,"station_id":"ce4bh392rcd13ifvqdl0","pricing_plan_id":"cebpf4jnsgd1na2vs0mg"},{"bike_id":"264d7467-769b-4eab-b1dc-474276263943","system_id":"levelo_inurba_marseille","lat":43.30213,"lon":5.38694,"is_reserved":false,"is_disabled":false,"rental_uris":{"android":"levelo://app?vid=264d7467-769b-4eab-b1dc-474276263943","ios":"levelo://app?vid=264d7467-769b-4eab-b1dc-474276263943"},"vehicle_type_id":"4","last_reported":1758992856,"current_range_meters":4800,"station_id":"","pricing_plan_id":"cebpf4jnsgd1na2vs0mg"},{"bike_id":"bfdb2a38-d7be-4735-b93e-e836c74b426a","system_id":"levelo_inurba_marseille","lat":43.29524,"lon":5.3903,"is_reserved":false,"is_disabled":false,"rental_uris":{"android":"levelo://app?vid=bfdb2a38-d7be-4735-b93e-e836c74b426a","ios":"levelo://app?vid=bfdb2a38-d7be-4735-b93e-e836c74b426a"},"vehicle_type_id":"4","last_reported":1758992856,"current_range_meters":4800,"station_id":"ce4bh3p2rcd13ifvqdp0","pricing_plan_id":"cebpf4jnsgd1na2vs0mg"},{"bike_id":"1762b5a5-ea3a-4aba-9e31-d6bd26aad97f","system_id":"levelo_inurba_marseille","lat":43.29096,"lon":5.38155,"is_reserved":false,"is_disabled":false,"rental_uris":{"android":"levelo://app?vid=1762b5a5-ea3a-4aba-9e31-d6bd26aad97f","ios":"levelo://app?vid=1762b5a5-ea3a-4aba-9e31-d6bd26aad97f"},"vehicle_type_id":"4","last_reported":1758992856,"current_range_meters":5600,"station_id":"ce4bh512rcd13ifvqe2g","pricing_plan_id":"cebpf4jnsgd1na2vs0mg"},{"bike_id":"4945eaf4-4964-43d2-8a1a-f52f79a0bbb4","system_id":"levelo_inurba_marseille","lat":43.29301,"lon":5.37181,"is_reserved":false,"is_disabled":false,"rental_uris":{"android":"levelo://app?vid=4945eaf4-4964-43d2-8a1a-f52f79a0bbb4","ios":"levelo://app?vid=4945eaf4-4964-43d2-8a1a-f52f79a0bbb4"},"vehicle_type_id":"4","last_reported":1758992856,"current_range_meters":5600,"station_id":"ce4bgh92rcd13ifvqb40","pricing_plan_id":"cebpf4jnsgd1na2vs0mg"},{"bike_id":"1028cd2b-b4fc-4d5c-9515-2844e29f4322","system_id":"levelo_inurba_marseille","lat":43.225362,"lon":5.348472,"is_reserved":false,"is_disabled":false,"rental_uris":{"android":"levelo://app?vid=1028cd2b-b4fc-4d5c-9515-2844e29f4322","ios":"levelo://app?vid=1028cd2b-b4fc-4d5c-9515-2844e29f4322"},"vehicle_type_id":"4","last_reported":1758992856,"current_range_meters":5600,"station_id":"","pricing_plan_id":"cebpf4jnsgd1na2vs0mg"},{"bike_id":"3ff019b4-f200-434f-bdbd-2de527b20d7e","system_id":"levelo_inurba_marseille","lat":43.21189,"lon":5.35083,"is_reserved":false,"is_disabled":false,"rental_uris":{"android":"levelo://app?vid=3ff019b4-f200-434f-bdbd-2de527b20d7e","ios":"levelo://app?vid=3ff019b4-f200-434f-bdbd-2de527b20d7e"},"vehicle_type_id":"4","last_reported":1758992856,"current_range_meters":5600,"station_id":"st_cvj6sg6p6f1abm77japg","pricing_plan_id":"cebpf4jnsgd1na2vs0mg"},{"bike_id":"041cd397-24ab-4e04-af23-07b961e161f4","system_id":"levelo_inurba_marseille","lat":43.337444,"lon":5.374475,"is_reserved":false,"is_disabled":false,"rental_uris":{"android":"levelo://app?vid=041cd397-24ab-4e04-af23-07b961e161f4","ios":"levelo://app?vid=041cd397-24ab-4e04-af23-07b961e161f4"},"vehicle_type_id":"4","last_reported":1758992856,"current_range_meters":5600,"station_id":"","pricing_plan_id":"cebpf4jnsgd1na2vs0mg"},{"bike_id":"49f57098-a687-4e01-9633-41b745c46556","system_id":"levelo_inurba_marseille","lat":43.29676,"lon":5.37286,"is_reserved":false,"is_disabled":false,"rental_uris":{"android":"levelo://app?vid=49f57098-a687-4e01-9633-41b745c46556","ios":"levelo://app?vid=49f57098-a687-4e01-9633-41b745c46556"},"vehicle_type_id":"4","last_reported":1758992856,"current_range_meters":5600,"station_id":"ce4bgk12rcd13ifvqbj0","pricing_plan_id":"cebpf4jnsgd1na2vs0mg"},{"bike_id":"85a96c70-9fc6-4698-bb7a-8aae96de7260","system_id":"levelo_inurba_marseille","lat":43.31285,"lon":5.38698,"is_reserved":false,"is_disabled":false,"rental_uris":{"android":"levelo://app?vid=85a96c70-9fc6-4698-bb7a-8aae96de7260","ios":"levelo://app?vid=85a96c70-9fc6-4698-bb7a-8aae96de7260"},"vehicle_type_id":"4","last_reported":1758992856,"current_range_meters":6000,"station_id":"","pricing_plan_id":"cebpf4jnsgd1na2vs0mg"},{"bike_id":"939a25ef-e89b-4b61-a6e9-d880864fba94","system_id":"levelo_inurba_marseille","lat":43.29883,"lon":5.38896,"is_reserved":false,"is_disabled":false,"rental_uris":{"android":"levelo://app?vid=939a25ef-e89b-4b61-a6e9-d880864fba94","ios":"levelo://app?vid=939a25ef-e89b-4b61-a6e9-d880864fba94"},"vehicle_type_id":"4","last_reported":1758992856,"current_range_meters":6000,"station_id":"ce4bh392rcd13ifvqdl0","pricing_plan_id":"cebpf4jnsgd1na2vs0mg"},{"bike_id":"69a56246-2281-4457-91e8-8fe23a573bf1","system_id":"levelo_inurba_marseille","lat":43.21744,"lon":5.34602,"is_reserved":false,"is_disabled":true,"rental_uris":{"android":"levelo://app?vid=69a56246-2281-4457-91e8-8fe23a573bf1","ios":"levelo://app?vid=69a56246-2281-4457-91e8-8fe23a573bf1"},"vehicle_type_id":"4","last_reported":1758992856,"current_range_meters":6000,"station_id":"","pricing_plan_id":"cebpf4jnsgd1na2vs0mg"},{"bike_id":"a72cc840-aa9a-4818-969f-19f1c579bd15","system_id":"levelo_inurba_marseille","lat":43.2678,"lon":5.39415,"is_reserved":false,"is_disabled":false,"rental_uris":{"android":"levelo://app?vid=a72cc840-aa9a-4818-969f-19f1c579bd15","ios":"levelo://app?vid=a72cc840-aa9a-4818-969f-19f1c579bd15"},"vehicle_type_id":"4","last_reported":1758992856,"current_range_meters":5600,"station_id":"ce4bhh12rcd13ifvqfg0","pricing_plan_id":"cebpf4jnsgd1na2vs0mg"},{"bike_id":"82006668-3565-4ee4-87e9-08a1943ceda8","system_id":"levelo_inurba_marseille","lat":43.28418,"lon":5.37508,"is_reserved":false,"is_disabled":false,"rental_uris":{"android":"levelo://app?vid=82006668-3565-4ee4-87e9-08a1943ceda8","ios":"levelo://app?vid=82006668-3565-4ee4-87e9-08a1943ceda8"},"vehicle_type_id":"4","last_reported":1758992856,"current_range_meters":6000,"station_id":"ce4bh412rcd13ifvqds0","pricing_plan_id":"cebpf4jnsgd1na2vs0mg"},{"bike_id":"a549d4b0-dcac-478d-bc97-a5327593b82b","system_id":"levelo_inurba_marseille","lat":43.23968,"lon":5.36628,"is_reserved":false,"is_disabled":false,"rental_uris":{"android":"levelo://app?vid=a549d4b0-dcac-478d-bc97-a5327593b82b","ios":"levelo://app?vid=a549d4b0-dcac-478d-bc97-a5327593b82b"},"vehicle_type_id":"4","last_reported":1758992856,"current_range_meters":6000,"station_id":"ce4bhi12rcd13ifvqfp0","pricing_plan_id":"cebpf4jnsgd1na2vs0mg"},{"bike_id":"3a398966-6450-40dc-a651-58849e6ed48e","system_id":"levelo_inurba_marseille","lat":43.33722,"lon":5.39185,"is_reserved":false,"is_disabled":false,"rental_uris":{"android":"levelo://app?vid=3a398966-6450-40dc-a651-58849e6ed48e","ios":"levelo://app?vid=3a398966-6450-40dc-a651-58849e6ed48e"},"vehicle_type_id":"4","last_reported":1758992856,"current_range_meters":5600,"station_id":"ce4bhr92rcd13ifvqhsg","pricing_plan_id":"cebpf4jnsgd1na2vs0mg"},{"bike_id":"af5b7fdf-6b71-4411-b11f-406ea44ecb80","system_id":"levelo_inurba_marseille","lat":43.21745,"lon":5.34607,"is_reserved":false,"is_disabled":true,"rental_uris":{"android":"levelo://app?vid=af5b7fdf-6b71-4411-b11f-406ea44ecb80","ios":"levelo://app?vid=af5b7fdf-6b71-4411-b11f-406ea44ecb80"},"vehicle_type_id":"4","last_reported":1758992856,"current_range_meters":6000,"station_id":"st_cvj6r9ubvosntc0bgbag","pricing_plan_id":"cebpf4jnsgd1na2vs0mg"},{"bike_id":"a462cce2-9104-46a9-a432-ba7c3c35eb6a","system_id":"levelo_inurba_marseille","lat":43.27066,"lon":5.40276,"is_reserved":false,"is_disabled":true,"rental_uris":{"android":"levelo://app?vid=a462cce2-9104-46a9-a432-ba7c3c35eb6a","ios":"levelo://app?vid=a462cce2-9104-46a9-a432-ba7c3c35eb6a"},"vehicle_type_id":"4","last_reported":1758992856,"current_range_meters":6000,"station_id":"ce4bhk92rcd13ifvqgc0","pricing_plan_id":"cebpf4jnsgd1na2vs0mg"},{"bike_id":"9b2a4166-4bf6-4740-b018-82f7f5312a3d","system_id":"levelo_inurba_marseille","lat":43.26946,"lon":5.40249,"is_reserved":false,"is_disabled":true,"rental_uris":{"android":"levelo://app?vid=9b2a4166-4bf6-4740-b018-82f7f5312a3d","ios":"levelo://app?vid=9b2a4166-4bf6-4740-b018-82f7f5312a3d"},"vehicle_type_id":"4","last_reported":1758992856,"current_range_meters":6400,"station_id":"cjm6bp8fraef2m0cb0m0","pricing_plan_id":"cebpf4jnsgd1na2vs0mg"},{"bike_id":"174dfb4f-f618-4c2f-be1c-ae0d6b405e94","system_id":"levelo_inurba_marseille","lat":43.29684,"lon":5.38273,"is_reserved":false,"is_disabled":false,"rental_uris":{"android":"levelo://app?vid=174dfb4f-f618-4c2f-be1c-ae0d6b405e94","ios":"levelo://app?vid=174dfb4f-f618-4c2f-be1c-ae0d6b405e94"},"vehicle_type_id":"4","last_reported":1758992856,"current_range_meters":6400,"station_id":"","pricing_plan_id":"cebpf4jnsgd1na2vs0mg"},{"bike_id":"58216bc7-2ea8-453b-97dc-f3791dabf039","system_id":"levelo_inurba_marseille","lat":43.28262,"lon":5.35065,"is_reserved":false,"is_disabled":false,"rental_uris":{"android":"levelo://app?vid=58216bc7-2ea8-453b-97dc-f3791dabf039","ios":"levelo://app?vid=58216bc7-2ea8-453b-97dc-f3791dabf039"},"vehicle_type_id":"4","last_reported":1758992856,"current_range_meters":6800,"station_id":"ce4bhbp2rcd13ifvqerg","pricing_plan_id":"cebpf4jnsgd1na2vs0mg"},{"bike_id":"b005a18f-1659-4e1b-a257-cd84243fc123","system_id":"levelo_inurba_marseille","lat":43.28094,"lon":5.37858,"is_reserved":false,"is_disabled":false,"rental_uris":{"android":"levelo://app?vid=b005a18f-1659-4e1b-a257-cd84243fc123","ios":"levelo://app?vid=b005a18f-1659-4e1b-a257-cd84243fc123"},"vehicle_type_id":"4","last_reported":1758992856,"current_range_meters":6400,"station_id":"ce4bha12rcd13ifvqee0","pricing_plan_id":"cebpf4jnsgd1na2vs0mg"},{"bike_id":"4ea066be-d5c0-4685-b39a-612a810bdfbb","system_id":"levelo_inurba_marseille","lat":43.3377,"lon":5.37473,"is_reserved":false,"is_disabled":true,"rental_uris":{"android":"levelo://app?vid=4ea066be-d5c0-4685-b39a-612a810bdfbb","ios":"levelo://app?vid=4ea066be-d5c0-4685-b39a-612a810bdfbb"},"vehicle_type_id":"4","last_reported":1758992856,"current_range_meters":6800,"station_id":"","pricing_plan_id":"cebpf4jnsgd1na2vs0mg"},{"bike_id":"545c9663-634d-4cdd-9dd6-360d637f9cf1","system_id":"levelo_inurba_marseille","lat":43.29012,"lon":5.38126,"is_reserved":false,"is_disabled":false,"rental_uris":{"android":"levelo://app?vid=545c9663-634d-4cdd-9dd6-360d637f9cf1","ios":"levelo://app?vid=545c9663-634d-4cdd-9dd6-360d637f9cf1"},"vehicle_type_id":"4","last_reported":1758992856,"current_range_meters":6400,"station_id":"ce4bh4p2rcd13ifvqe1g","pricing_plan_id":"cebpf4jnsgd1na2vs0mg"},{"bike_id":"bf5c2e55-4ceb-46d5-92b7-8c7b3b7ffbb3","system_id":"levelo_inurba_marseille","lat":43.26572,"lon":5.39012,"is_reserved":false,"is_disabled":false,"rental_uris":{"android":"levelo://app?vid=bf5c2e55-4ceb-46d5-92b7-8c7b3b7ffbb3","ios":"levelo://app?vid=bf5c2e55-4ceb-46d5-92b7-8c7b3b7ffbb3"},"vehicle_type_id":"4","last_reported":1758992856,"current_range_meters":6800,"station_id":"ce4bhe12rcd13ifvqf30","pricing_plan_id":"cebpf4jnsgd1na2vs0mg"},{"bike_id":"9c9caa37-a319-48e1-8d4f-0b68bdc37c55","system_id":"levelo_inurba_marseille","lat":43.24949,"lon":5.40507,"is_reserved":false,"is_disabled":false,"rental_uris":{"android":"levelo://app?vid=9c9caa37-a319-48e1-8d4f-0b68bdc37c55","ios":"levelo://app?vid=9c9caa37-a319-48e1-8d4f-0b68bdc37c55"},"vehicle_type_id":"4","last_reported":1758992856,"current_range_meters":6800,"station_id":"st_d2ngiaodas8pm72gd1h0","pricing_plan_id":"cebpf4jnsgd1na2vs0mg"},{"bike_id":"8311fa65-8c66-4478-abeb-354e6e2e8baa","system_id":"levelo_inurba_marseille","lat":43.29519,"lon":5.39037,"is_reserved":false,"is_disabled":false,"rental_uris":{"android":"levelo://app?vid=8311fa65-8c66-4478-abeb-354e6e2e8baa","ios":"levelo://app?vid=8311fa65-8c66-4478-abeb-354e6e2e8baa"},"vehicle_type_id":"4","last_reported":1758992856,"current_range_meters":6800,"station_id":"ce4bh3p2rcd13ifvqdp0","pricing_plan_id":"cebpf4jnsgd1na2vs0mg"},{"bike_id":"c2207658-b923-4a8f-a2fa-281c17511191","system_id":"levelo_inurba_marseille","lat":43.32468,"lon":5.36578,"is_reserved":false,"is_disabled":false,"rental_uris":{"android":"levelo://app?vid=c2207658-b923-4a8f-a2fa-281c17511191","ios":"levelo://app?vid=c2207658-b923-4a8f-a2fa-281c17511191"},"vehicle_type_id":"4","last_reported":1758992856,"current_range_meters":7200,"station_id":"ce4bhs12rcd13ifvqhvg","pricing_plan_id":"cebpf4jnsgd1na2vs0mg"},{"bike_id":"d2b4ac83-91e6-46fb-9929-4b55b0b2c4f5","system_id":"levelo_inurba_marseille","lat":43.25714,"lon":5.41135,"is_reserved":false,"is_disabled":false,"rental_uris":{"android":"levelo://app?vid=d2b4ac83-91e6-46fb-9929-4b55b0b2c4f5","ios":"levelo://app?vid=d2b4ac83-91e6-46fb-9929-4b55b0b2c4f5"},"vehicle_type_id":"4","last_reported":1758992856,"current_range_meters":8000,"station_id":"ce4bhkp2rcd13ifvqgd0","pricing_plan_id":"cebpf4jnsgd1na2vs0mg"},{"bike_id":"5365e873-98ea-45e2-9689-7e119051f22e","system_id":"levelo_inurba_marseille","lat":43.33014,"lon":5.39266,"is_reserved":false,"is_disabled":false,"rental_uris":{"android":"levelo://app?vid=5365e873-98ea-45e2-9689-7e119051f22e","ios":"levelo://app?vid=5365e873-98ea-45e2-9689-7e119051f22e"},"vehicle_type_id":"4","last_reported":1758992856,"current_range_meters":8000,"station_id":"","pricing_plan_id":"cebpf4jnsgd1na2vs0mg"},{"bike_id":"cd5332c8-b7a4-42d8-bbee-d21346d785c0","system_id":"levelo_inurba_marseille","lat":43.32502,"lon":5.36574,"is_reserved":false,"is_disabled":false,"rental_uris":{"android":"levelo://app?vid=cd5332c8-b7a4-42d8-bbee-d21346d785c0","ios":"levelo://app?vid=cd5332c8-b7a4-42d8-bbee-d21346d785c0"},"vehicle_type_id":"4","last_reported":1758992856,"current_range_meters":8000,"station_id":"ce4bhs12rcd13ifvqhvg","pricing_plan_id":"cebpf4jnsgd1na2vs0mg"},{"bike_id":"6565e10a-1ac6-40d9-ba39-2d18a25ce913","system_id":"levelo_inurba_marseille","lat":43.30172,"lon":5.36637,"is_reserved":false,"is_disabled":false,"rental_uris":{"android":"levelo://app?vid=6565e10a-1ac6-40d9-ba39-2d18a25ce913","ios":"levelo://app?vid=6565e10a-1ac6-40d9-ba39-2d18a25ce913"},"vehicle_type_id":"4","last_reported":1758992856,"current_range_meters":8000,"station_id":"ce4bgrh2rcd13ifvqc8g","pricing_plan_id":"cebpf4jnsgd1na2vs0mg"},{"bike_id":"7ac11a70-f46e-4c0b-8d8c-0d20734cb51b","system_id":"levelo_inurba_marseille","lat":43.28656,"lon":5.3636,"is_reserved":false,"is_disabled":false,"rental_uris":{"android":"levelo://app?vid=7ac11a70-f46e-4c0b-8d8c-0d20734cb51b","ios":"levelo://app?vid=7ac11a70-f46e-4c0b-8d8c-0d20734cb51b"},"vehicle_type_id":"4","last_reported":1758992856,"current_range_meters":8000,"station_id":"ce4bhah2rcd13ifvqej0","pricing_plan_id":"cebpf4jnsgd1na2vs0mg"},{"bike_id":"2631d52a-7e86-4e33-b4aa-e84da64409d5","system_id":"levelo_inurba_marseille","lat":43.26785,"lon":5.39434,"is_reserved":false,"is_disabled":false,"rental_uris":{"android":"levelo://app?vid=2631d52a-7e86-4e33-b4aa-e84da64409d5","ios":"levelo://app?vid=2631d52a-7e86-4e33-b4aa-e84da64409d5"},"vehicle_type_id":"4","last_reported":1758992856,"current_range_meters":8000,"station_id":"ce4bhh12rcd13ifvqfg0","pricing_plan_id":"cebpf4jnsgd1na2vs0mg"},{"bike_id":"7d10ced2-fd36-422c-85df-85fe50747f91","system_id":"levelo_inurba_marseille","lat":43.24811,"lon":5.37475,"is_reserved":false,"is_disabled":false,"rental_uris":{"android":"levelo://app?vid=7d10ced2-fd36-422c-85df-85fe50747f91","ios":"levelo://app?vid=7d10ced2-fd36-422c-85df-85fe50747f91"},"vehicle_type_id":"4","last_reported":1758992856,"current_range_meters":8000,"station_id":"ce4bhgh2rcd13ifvqfb0","pricing_plan_id":"cebpf4jnsgd1na2vs0mg"},{"bike_id":"a639c491-c436-478a-8d5d-bd2c30b918ff","system_id":"levelo_inurba_marseille","lat":43.29754,"lon":5.37236,"is_reserved":false,"is_disabled":false,"rental_uris":{"android":"levelo://app?vid=a639c491-c436-478a-8d5d-bd2c30b918ff","ios":"levelo://app?vid=a639c491-c436-478a-8d5d-bd2c30b918ff"},"vehicle_type_id":"4","last_reported":1758992856,"current_range_meters":8000,"station_id":"","pricing_plan_id":"cebpf4jnsgd1na2vs0mg"},{"bike_id":"7b348cb6-3a5f-4ce4-9d43-7c05a07c0b6f","system_id":"levelo_inurba_marseille","lat":43.316186,"lon":5.404315,"is_reserved":false,"is_disabled":false,"rental_uris":{"android":"levelo://app?vid=7b348cb6-3a5f-4ce4-9d43-7c05a07c0b6f","ios":"levelo://app?vid=7b348cb6-3a5f-4ce4-9d43-7c05a07c0b6f"},"vehicle_type_id":"4","last_reported":1758992856,"current_range_meters":8000,"station_id":"ce4bhnp2rcd13ifvqh0g","pricing_plan_id":"cebpf4jnsgd1na2vs0mg"},{"bike_id":"113f00b3-29ff-48c1-a8fd-aee6a0100769","system_id":"levelo_inurba_marseille","lat":43.2843,"lon":5.37512,"is_reserved":false,"is_disabled":false,"rental_uris":{"android":"levelo://app?vid=113f00b3-29ff-48c1-a8fd-aee6a0100769","ios":"levelo://app?vid=113f00b3-29ff-48c1-a8fd-aee6a0100769"},"vehicle_type_id":"4","last_reported":1758992856,"current_range_meters":8000,"station_id":"ce4bh412rcd13ifvqds0","pricing_plan_id":"cebpf4jnsgd1na2vs0mg"},{"bike_id":"91d5cff6-d085-4edb-89e7-bd8553c0a8cc","system_id":"levelo_inurba_marseille","lat":43.2961,"lon":5.37743,"is_reserved":false,"is_disabled":false,"rental_uris":{"android":"levelo://app?vid=91d5cff6-d085-4edb-89e7-bd8553c0a8cc","ios":"levelo://app?vid=91d5cff6-d085-4edb-89e7-bd8553c0a8cc"},"vehicle_type_id":"4","last_reported":1758992856,"current_range_meters":8400,"station_id":"ce4bgi92rcd13ifvqb90","pricing_plan_id":"cebpf4jnsgd1na2vs0mg"},{"bike_id":"2907de3a-cdb7-4c49-945b-9d4546080cdd","system_id":"levelo_inurba_marseille","lat":43.29456,"lon":5.36238,"is_reserved":false,"is_disabled":false,"rental_uris":{"android":"levelo://app?vid=2907de3a-cdb7-4c49-945b-9d4546080cdd","ios":"levelo://app?vid=2907de3a-cdb7-4c49-945b-9d4546080cdd"},"vehicle_type_id":"4","last_reported":1758992856,"current_range_meters":8400,"station_id":"","pricing_plan_id":"cebpf4jnsgd1na2vs0mg"},{"bike_id":"604ad5a8-5f40-40e9-a190-32a5acc4eee0","system_id":"levelo_inurba_marseille","lat":43.295044,"lon":5.394075,"is_reserved":false,"is_disabled":false,"rental_uris":{"android":"levelo://app?vid=604ad5a8-5f40-40e9-a190-32a5acc4eee0","ios":"levelo://app?vid=604ad5a8-5f40-40e9-a190-32a5acc4eee0"},"vehicle_type_id":"4","last_reported":1758992856,"current_range_meters":8400,"station_id":"ce4bh292rcd13ifvqdf0","pricing_plan_id":"cebpf4jnsgd1na2vs0mg"},{"bike_id":"a78302dc-aa43-437f-9030-51e4e7e137f4","system_id":"levelo_inurba_marseille","lat":43.21191,"lon":5.35076,"is_reserved":false,"is_disabled":false,"rental_uris":{"android":"levelo://app?vid=a78302dc-aa43-437f-9030-51e4e7e137f4","ios":"levelo://app?vid=a78302dc-aa43-437f-9030-51e4e7e137f4"},"vehicle_type_id":"4","last_reported":1758992856,"current_range_meters":8800,"station_id":"st_cvj6sg6p6f1abm77japg","pricing_plan_id":"cebpf4jnsgd1na2vs0mg"},{"bike_id":"462c06e1-6eeb-4c2a-afe6-9beabe81d024","system_id":"levelo_inurba_marseille","lat":43.260284,"lon":5.375491,"is_reserved":false,"is_disabled":false,"rental_uris":{"android":"levelo://app?vid=462c06e1-6eeb-4c2a-afe6-9beabe81d024","ios":"levelo://app?vid=462c06e1-6eeb-4c2a-afe6-9beabe81d024"},"vehicle_type_id":"4","last_reported":1758992856,"current_range_meters":8800,"station_id":"ce4bhgh2rcd13ifvqfa0","pricing_plan_id":"cebpf4jnsgd1na2vs0mg"},{"bike_id":"0e1af0dc-fb2e-4633-ae93-94ef923f26e8","system_id":"levelo_inurba_marseille","lat":43.27999,"lon":5.41669,"is_reserved":false,"is_disabled":false,"rental_uris":{"android":"levelo://app?vid=0e1af0dc-fb2e-4633-ae93-94ef923f26e8","ios":"levelo://app?vid=0e1af0dc-fb2e-4633-ae93-94ef923f26e8"},"vehicle_type_id":"4","last_reported":1758992856,"current_range_meters":8800,"station_id":"ce4bho12rcd13ifvqh1g","pricing_plan_id":"cebpf4jnsgd1na2vs0mg"},{"bike_id":"f1ae04a0-7429-4e02-91d7-0e4ee700dec2","system_id":"levelo_inurba_marseille","lat":43.29798,"lon":5.38101,"is_reserved":false,"is_disabled":false,"rental_uris":{"android":"levelo://app?vid=f1ae04a0-7429-4e02-91d7-0e4ee700dec2","ios":"levelo://app?vid=f1ae04a0-7429-4e02-91d7-0e4ee700dec2"},"vehicle_type_id":"4","last_reported":1758992856,"current_range_meters":8400,"station_id":"ce4bgip2rcd13ifvqbb0","pricing_plan_id":"cebpf4jnsgd1na2vs0mg"},{"bike_id":"08fe2b08-b3fa-43f8-ae73-04061f76318d","system_id":"levelo_inurba_marseille","lat":43.305552,"lon":5.365395,"is_reserved":false,"is_disabled":false,"rental_uris":{"android":"levelo://app?vid=08fe2b08-b3fa-43f8-ae73-04061f76318d","ios":"levelo://app?vid=08fe2b08-b3fa-43f8-ae73-04061f76318d"},"vehicle_type_id":"4","last_reported":1758992856,"current_range_meters":8800,"station_id":"","pricing_plan_id":"cebpf4jnsgd1na2vs0mg"},{"bike_id":"443f7dc3-4c35-4975-a8f4-b6a0ee79874b","system_id":"levelo_inurba_marseille","lat":43.29256,"lon":5.3724,"is_reserved":false,"is_disabled":false,"rental_uris":{"android":"levelo://app?vid=443f7dc3-4c35-4975-a8f4-b6a0ee79874b","ios":"levelo://app?vid=443f7dc3-4c35-4975-a8f4-b6a0ee79874b"},"vehicle_type_id":"4","last_reported":1758992856,"current_range_meters":8800,"station_id":"","pricing_plan_id":"cebpf4jnsgd1na2vs0mg"},{"bike_id":"fc0bcd7f-a95a-4a92-b854-68218f4dc9f2","system_id":"levelo_inurba_marseille","lat":43.2797,"lon":5.38742,"is_reserved":false,"is_disabled":false,"rental_uris":{"android":"levelo://app?vid=fc0bcd7f-a95a-4a92-b854-68218f4dc9f2","ios":"levelo://app?vid=fc0bcd7f-a95a-4a92-b854-68218f4dc9f2"},"vehicle_type_id":"4","last_reported":1758992856,"current_range_meters":8800,"station_id":"ce4bhg12rcd13ifvqf80","pricing_plan_id":"cebpf4jnsgd1na2vs0mg"},{"bike_id":"907ed216-30a4-406f-ae2e-0197aba3ed23","system_id":"levelo_inurba_marseille","lat":43.21199,"lon":5.35074,"is_reserved":false,"is_disabled":false,"rental_uris":{"android":"levelo://app?vid=907ed216-30a4-406f-ae2e-0197aba3ed23","ios":"levelo://app?vid=907ed216-30a4-406f-ae2e-0197aba3ed23"},"vehicle_type_id":"4","last_reported":1758992856,"current_range_meters":8800,"station_id":"st_cvj6sg6p6f1abm77japg","pricing_plan_id":"cebpf4jnsgd1na2vs0mg"},{"bike_id":"c3fe7d43-61d7-483c-9ade-516d24794cef","system_id":"levelo_inurba_marseille","lat":43.29892,"lon":5.3977,"is_reserved":false,"is_disabled":false,"rental_uris":{"android":"levelo://app?vid=c3fe7d43-61d7-483c-9ade-516d24794cef","ios":"levelo://app?vid=c3fe7d43-61d7-483c-9ade-516d24794cef"},"vehicle_type_id":"4","last_reported":1758992856,"current_range_meters":9200,"station_id":"ce4bh0h2rcd13ifvqd50","pricing_plan_id":"cebpf4jnsgd1na2vs0mg"},{"bike_id":"fc742547-dc1a-49b0-86fb-deede054da76","system_id":"levelo_inurba_marseille","lat":43.31331,"lon":5.39702,"is_reserved":false,"is_disabled":false,"rental_uris":{"android":"levelo://app?vid=fc742547-dc1a-49b0-86fb-deede054da76","ios":"levelo://app?vid=fc742547-dc1a-49b0-86fb-deede054da76"},"vehicle_type_id":"4","last_reported":1758992856,"current_range_meters":9200,"station_id":"ce4bgvp2rcd13ifvqcu0","pricing_plan_id":"cebpf4jnsgd1na2vs0mg"},{"bike_id":"d271ab45-d4ba-4722-b5ad-4cfb4a029ff5","system_id":"levelo_inurba_marseille","lat":43.28842,"lon":5.35835,"is_reserved":false,"is_disabled":false,"rental_uris":{"android":"levelo://app?vid=d271ab45-d4ba-4722-b5ad-4cfb4a029ff5","ios":"levelo://app?vid=d271ab45-d4ba-4722-b5ad-4cfb4a029ff5"},"vehicle_type_id":"4","last_reported":1758992856,"current_range_meters":9200,"station_id":"ce4bhb12rcd13ifvqem0","pricing_plan_id":"cebpf4jnsgd1na2vs0mg"},{"bike_id":"d06b65cd-52b1-4756-a5cf-4ba6bf7ffeaf","system_id":"levelo_inurba_marseille","lat":43.292816,"lon":5.407367,"is_reserved":false,"is_disabled":false,"rental_uris":{"android":"levelo://app?vid=d06b65cd-52b1-4756-a5cf-4ba6bf7ffeaf","ios":"levelo://app?vid=d06b65cd-52b1-4756-a5cf-4ba6bf7ffeaf"},"vehicle_type_id":"4","last_reported":1758992856,"current_range_meters":9200,"station_id":"ce4bh192rcd13ifvqdc0","pricing_plan_id":"cebpf4jnsgd1na2vs0mg"},{"bike_id":"84d6596e-826e-4815-af8d-72fb1325f2ec","system_id":"levelo_inurba_marseille","lat":43.24426,"lon":5.38383,"is_reserved":false,"is_disabled":false,"rental_uris":{"android":"levelo://app?vid=84d6596e-826e-4815-af8d-72fb1325f2ec","ios":"levelo://app?vid=84d6596e-826e-4815-af8d-72fb1325f2ec"},"vehicle_type_id":"4","last_reported":1758992856,"current_range_meters":9200,"station_id":"","pricing_plan_id":"cebpf4jnsgd1na2vs0mg"},{"bike_id":"3d2293a5-d710-44cd-9295-0d367c21c27f","system_id":"levelo_inurba_marseille","lat":43.27565,"lon":5.38431,"is_reserved":false,"is_disabled":false,"rental_uris":{"android":"levelo://app?vid=3d2293a5-d710-44cd-9295-0d367c21c27f","ios":"levelo://app?vid=3d2293a5-d710-44cd-9295-0d367c21c27f"},"vehicle_type_id":"4","last_reported":1758992856,"current_range_meters":8800,"station_id":"ce4bhh92rcd13ifvqfi0","pricing_plan_id":"cebpf4jnsgd1na2vs0mg"},{"bike_id":"ee96a502-9b76-492e-840a-498b02aefe72","system_id":"levelo_inurba_marseille","lat":43.32317,"lon":5.3923,"is_reserved":false,"is_disabled":false,"rental_uris":{"android":"levelo://app?vid=ee96a502-9b76-492e-840a-498b02aefe72","ios":"levelo://app?vid=ee96a502-9b76-492e-840a-498b02aefe72"},"vehicle_type_id":"4","last_reported":1758992856,"current_range_meters":9200,"station_id":"","pricing_plan_id":"cebpf4jnsgd1na2vs0mg"},{"bike_id":"8e385f69-4a89-4bf0-86a4-c68fbcf7e1cb","system_id":"levelo_inurba_marseille","lat":43.225324,"lon":5.348325,"is_reserved":false,"is_disabled":false,"rental_uris":{"android":"levelo://app?vid=8e385f69-4a89-4bf0-86a4-c68fbcf7e1cb","ios":"levelo://app?vid=8e385f69-4a89-4bf0-86a4-c68fbcf7e1cb"},"vehicle_type_id":"4","last_reported":1758992856,"current_range_meters":9200,"station_id":"","pricing_plan_id":"cebpf4jnsgd1na2vs0mg"},{"bike_id":"3dd6a794-041f-4383-9cc8-cce4f21e59d8","system_id":"levelo_inurba_marseille","lat":43.29082,"lon":5.3716,"is_reserved":false,"is_disabled":false,"rental_uris":{"android":"levelo://app?vid=3dd6a794-041f-4383-9cc8-cce4f21e59d8","ios":"levelo://app?vid=3dd6a794-041f-4383-9cc8-cce4f21e59d8"},"vehicle_type_id":"4","last_reported":1758992856,"current_range_meters":9200,"station_id":"ce4bh5p2rcd13ifvqe4g","pricing_plan_id":"cebpf4jnsgd1na2vs0mg"},{"bike_id":"fee74e98-eb52-4f66-a612-109c75f34aa6","system_id":"levelo_inurba_marseille","lat":43.296216,"lon":5.379492,"is_reserved":false,"is_disabled":false,"rental_uris":{"android":"levelo://app?vid=fee74e98-eb52-4f66-a612-109c75f34aa6","ios":"levelo://app?vid=fee74e98-eb52-4f66-a612-109c75f34aa6"},"vehicle_type_id":"4","last_reported":1758992856,"current_range_meters":9200,"station_id":"","pricing_plan_id":"cebpf4jnsgd1na2vs0mg"},{"bike_id":"64fea3ad-307c-41c3-b5de-c7ac3d2188b7","system_id":"levelo_inurba_marseille","lat":43.29043,"lon":5.35919,"is_reserved":false,"is_disabled":false,"rental_uris":{"android":"levelo://app?vid=64fea3ad-307c-41c3-b5de-c7ac3d2188b7","ios":"levelo://app?vid=64fea3ad-307c-41c3-b5de-c7ac3d2188b7"},"vehicle_type_id":"4","last_reported":1758992856,"current_range_meters":9200,"station_id":"ce4bha92rcd13ifvqeg0","pricing_plan_id":"cebpf4jnsgd1na2vs0mg"},{"bike_id":"7b65e264-2dd9-4f1a-9195-0dbc1cf0a026","system_id":"levelo_inurba_marseille","lat":43.27999,"lon":5.4001,"is_reserved":false,"is_disabled":false,"rental_uris":{"android":"levelo://app?vid=7b65e264-2dd9-4f1a-9195-0dbc1cf0a026","ios":"levelo://app?vid=7b65e264-2dd9-4f1a-9195-0dbc1cf0a026"},"vehicle_type_id":"4","last_reported":1758992856,"current_range_meters":9200,"station_id":"ce4bho92rcd13ifvqh4g","pricing_plan_id":"cebpf4jnsgd1na2vs0mg"},{"bike_id":"5f657238-3924-4edf-9381-8ddeee15c693","system_id":"levelo_inurba_marseille","lat":43.225334,"lon":5.348386,"is_reserved":false,"is_disabled":false,"rental_uris":{"android":"levelo://app?vid=5f657238-3924-4edf-9381-8ddeee15c693","ios":"levelo://app?vid=5f657238-3924-4edf-9381-8ddeee15c693"},"vehicle_type_id":"4","last_reported":1758992856,"current_range_meters":9600,"station_id":"","pricing_plan_id":"cebpf4jnsgd1na2vs0mg"},{"bike_id":"97bdd733-26e0-4684-8cbb-6e19074be8e7","system_id":"levelo_inurba_marseille","lat":43.29794,"lon":5.39342,"is_reserved":false,"is_disabled":false,"rental_uris":{"android":"levelo://app?vid=97bdd733-26e0-4684-8cbb-6e19074be8e7","ios":"levelo://app?vid=97bdd733-26e0-4684-8cbb-6e19074be8e7"},"vehicle_type_id":"4","last_reported":1758992856,"current_range_meters":9600,"station_id":"chh1huq6cuj3fo74tm60","pricing_plan_id":"cebpf4jnsgd1na2vs0mg"},{"bike_id":"6c00a6a0-3cf0-48a9-b218-0693fab11be9","system_id":"levelo_inurba_marseille","lat":43.30289,"lon":5.43525,"is_reserved":false,"is_disabled":false,"rental_uris":{"android":"levelo://app?vid=6c00a6a0-3cf0-48a9-b218-0693fab11be9","ios":"levelo://app?vid=6c00a6a0-3cf0-48a9-b218-0693fab11be9"},"vehicle_type_id":"4","last_reported":1758992856,"current_range_meters":9600,"station_id":"","pricing_plan_id":"cebpf4jnsgd1na2vs0mg"},{"bike_id":"5e230b97-516f-45af-a5bf-0fc75c44ad83","system_id":"levelo_inurba_marseille","lat":43.24071,"lon":5.37767,"is_reserved":false,"is_disabled":false,"rental_uris":{"android":"levelo://app?vid=5e230b97-516f-45af-a5bf-0fc75c44ad83","ios":"levelo://app?vid=5e230b97-516f-45af-a5bf-0fc75c44ad83"},"vehicle_type_id":"4","last_reported":1758992856,"current_range_meters":9600,"station_id":"ce4bhnp2rcd13ifvqgvg","pricing_plan_id":"cebpf4jnsgd1na2vs0mg"},{"bike_id":"9743fd3d-b83a-49fe-b055-16ed840cdbf1","system_id":"levelo_inurba_marseille","lat":43.299411,"lon":5.385201,"is_reserved":false,"is_disabled":true,"rental_uris":{"android":"levelo://app?vid=9743fd3d-b83a-49fe-b055-16ed840cdbf1","ios":"levelo://app?vid=9743fd3d-b83a-49fe-b055-16ed840cdbf1"},"vehicle_type_id":"4","last_reported":1758992856,"current_range_meters":9600,"station_id":"","pricing_plan_id":"cebpf4jnsgd1na2vs0mg"},{"bike_id":"23545538-348a-4b30-8dcc-63988e594832","system_id":"levelo_inurba_marseille","lat":43.291967,"lon":5.357973,"is_reserved":false,"is_disabled":false,"rental_uris":{"android":"levelo://app?vid=23545538-348a-4b30-8dcc-63988e594832","ios":"levelo://app?vid=23545538-348a-4b30-8dcc-63988e594832"},"vehicle_type_id":"4","last_reported":1758992856,"current_range_meters":9600,"station_id":"ce4bhb12rcd13ifvqel0","pricing_plan_id":"cebpf4jnsgd1na2vs0mg"},{"bike_id":"14141a8c-58ea-473d-acb7-96565daecf50","system_id":"levelo_inurba_marseille","lat":43.286153,"lon":5.351033,"is_reserved":false,"is_disabled":false,"rental_uris":{"android":"levelo://app?vid=14141a8c-58ea-473d-acb7-96565daecf50","ios":"levelo://app?vid=14141a8c-58ea-473d-acb7-96565daecf50"},"vehicle_type_id":"4","last_reported":1758992856,"current_range_meters":10000,"station_id":"ce4bhch2rcd13ifvqeug","pricing_plan_id":"cebpf4jnsgd1na2vs0mg"},{"bike_id":"e1e76f8d-c84c-4d8b-9ba2-d69f90791fb9","system_id":"levelo_inurba_marseille","lat":43.279975,"lon":5.416736,"is_reserved":false,"is_disabled":false,"rental_uris":{"android":"levelo://app?vid=e1e76f8d-c84c-4d8b-9ba2-d69f90791fb9","ios":"levelo://app?vid=e1e76f8d-c84c-4d8b-9ba2-d69f90791fb9"},"vehicle_type_id":"4","last_reported":1758992856,"current_range_meters":10000,"station_id":"ce4bho12rcd13ifvqh1g","pricing_plan_id":"cebpf4jnsgd1na2vs0mg"},{"bike_id":"47b6361a-2cbc-4e5e-9bde-75f2dfc67006","system_id":"levelo_inurba_marseille","lat":43.24661,"lon":5.38158,"is_reserved":false,"is_disabled":false,"rental_uris":{"android":"levelo://app?vid=47b6361a-2cbc-4e5e-9bde-75f2dfc67006","ios":"levelo://app?vid=47b6361a-2cbc-4e5e-9bde-75f2dfc67006"},"vehicle_type_id":"4","last_reported":1758992856,"current_range_meters":10000,"station_id":"ce4bhih2rcd13ifvqfr0","pricing_plan_id":"cebpf4jnsgd1na2vs0mg"},{"bike_id":"d0dfbad7-46d3-425c-ac16-6676819f8599","system_id":"levelo_inurba_marseille","lat":43.28936,"lon":5.36632,"is_reserved":false,"is_disabled":false,"rental_uris":{"android":"levelo://app?vid=d0dfbad7-46d3-425c-ac16-6676819f8599","ios":"levelo://app?vid=d0dfbad7-46d3-425c-ac16-6676819f8599"},"vehicle_type_id":"4","last_reported":1758992856,"current_range_meters":17600,"station_id":"ce4bhap2rcd13ifvqek0","pricing_plan_id":"cebpf4jnsgd1na2vs0mg"},{"bike_id":"8360fe96-8a6b-4a67-9ba4-0ef948b002e1","system_id":"levelo_inurba_marseille","lat":43.25009,"lon":5.38936,"is_reserved":false,"is_disabled":true,"rental_uris":{"android":"levelo://app?vid=8360fe96-8a6b-4a67-9ba4-0ef948b002e1","ios":"levelo://app?vid=8360fe96-8a6b-4a67-9ba4-0ef948b002e1"},"vehicle_type_id":"4","last_reported":1758992856,"current_range_meters":10000,"station_id":"ce4bhgp2rcd13ifvqfd0","pricing_plan_id":"cebpf4jnsgd1na2vs0mg"},{"bike_id":"fd4b5ad5-2581-44dd-90b2-f4a8fbdc2423","system_id":"levelo_inurba_marseille","lat":43.299011,"lon":5.364989,"is_reserved":false,"is_disabled":false,"rental_uris":{"android":"levelo://app?vid=fd4b5ad5-2581-44dd-90b2-f4a8fbdc2423","ios":"levelo://app?vid=fd4b5ad5-2581-44dd-90b2-f4a8fbdc2423"},"vehicle_type_id":"4","last_reported":1758992856,"current_range_meters":10000,"station_id":"","pricing_plan_id":"cebpf4jnsgd1na2vs0mg"},{"bike_id":"6fa1d1f2-6f3d-4246-816d-0276fd19ad9e","system_id":"levelo_inurba_marseille","lat":43.30551,"lon":5.36719,"is_reserved":false,"is_disabled":false,"rental_uris":{"android":"levelo://app?vid=6fa1d1f2-6f3d-4246-816d-0276fd19ad9e","ios":"levelo://app?vid=6fa1d1f2-6f3d-4246-816d-0276fd19ad9e"},"vehicle_type_id":"4","last_reported":1758992856,"current_range_meters":10000,"station_id":"ce4bgrp2rcd13ifvqc9g","pricing_plan_id":"cebpf4jnsgd1na2vs0mg"},{"bike_id":"dceac72c-77da-4726-8308-898d064a5176","system_id":"levelo_inurba_marseille","lat":43.31326,"lon":5.39694,"is_reserved":false,"is_disabled":false,"rental_uris":{"android":"levelo://app?vid=dceac72c-77da-4726-8308-898d064a5176","ios":"levelo://app?vid=dceac72c-77da-4726-8308-898d064a5176"},"vehicle_type_id":"4","last_reported":1758992856,"current_range_meters":10000,"station_id":"ce4bgvp2rcd13ifvqcu0","pricing_plan_id":"cebpf4jnsgd1na2vs0mg"},{"bike_id":"73164d02-f6e0-4465-bf05-5695ce64ad22","system_id":"levelo_inurba_marseille","lat":43.30907,"lon":5.36852,"is_reserved":false,"is_disabled":false,"rental_uris":{"android":"levelo://app?vid=73164d02-f6e0-4465-bf05-5695ce64ad22","ios":"levelo://app?vid=73164d02-f6e0-4465-bf05-5695ce64ad22"},"vehicle_type_id":"4","last_reported":1758992856,"current_range_meters":10000,"station_id":"ce4bgn92rcd13ifvqbvg","pricing_plan_id":"cebpf4jnsgd1na2vs0mg"},{"bike_id":"ccea33ad-6ab7-4a34-96c5-31f7cdf54269","system_id":"levelo_inurba_marseille","lat":43.315325,"lon":5.367735,"is_reserved":false,"is_disabled":false,"rental_uris":{"android":"levelo://app?vid=ccea33ad-6ab7-4a34-96c5-31f7cdf54269","ios":"levelo://app?vid=ccea33ad-6ab7-4a34-96c5-31f7cdf54269"},"vehicle_type_id":"4","last_reported":1758992856,"current_range_meters":10000,"station_id":"ce4bhsh2rcd13ifvqi2g","pricing_plan_id":"cebpf4jnsgd1na2vs0mg"},{"bike_id":"63d52c35-c9c9-44eb-9780-1b2f9145123b","system_id":"levelo_inurba_marseille","lat":43.29627,"lon":5.377037,"is_reserved":false,"is_disabled":false,"rental_uris":{"android":"levelo://app?vid=63d52c35-c9c9-44eb-9780-1b2f9145123b","ios":"levelo://app?vid=63d52c35-c9c9-44eb-9780-1b2f9145123b"},"vehicle_type_id":"4","last_reported":1758992856,"current_range_meters":10800,"station_id":"","pricing_plan_id":"cebpf4jnsgd1na2vs0mg"},{"bike_id":"221fb690-de4f-4d2b-894e-d4e6251bd1f8","system_id":"levelo_inurba_marseille","lat":43.28273,"lon":5.35088,"is_reserved":false,"is_disabled":false,"rental_uris":{"android":"levelo://app?vid=221fb690-de4f-4d2b-894e-d4e6251bd1f8","ios":"levelo://app?vid=221fb690-de4f-4d2b-894e-d4e6251bd1f8"},"vehicle_type_id":"4","last_reported":1758992856,"current_range_meters":10000,"station_id":"ce4bhbp2rcd13ifvqerg","pricing_plan_id":"cebpf4jnsgd1na2vs0mg"},{"bike_id":"fd7db3b2-bf6f-47a6-a193-d9e54fb8924d","system_id":"levelo_inurba_marseille","lat":43.30331,"lon":5.36601,"is_reserved":false,"is_disabled":false,"rental_uris":{"android":"levelo://app?vid=fd7db3b2-bf6f-47a6-a193-d9e54fb8924d","ios":"levelo://app?vid=fd7db3b2-bf6f-47a6-a193-d9e54fb8924d"},"vehicle_type_id":"4","last_reported":1758992856,"current_range_meters":10800,"station_id":"","pricing_plan_id":"cebpf4jnsgd1na2vs0mg"},{"bike_id":"9bb4db31-0bf9-4171-bca1-76cb045f53a3","system_id":"levelo_inurba_marseille","lat":43.26924,"lon":5.389081,"is_reserved":false,"is_disabled":true,"rental_uris":{"android":"levelo://app?vid=9bb4db31-0bf9-4171-bca1-76cb045f53a3","ios":"levelo://app?vid=9bb4db31-0bf9-4171-bca1-76cb045f53a3"},"vehicle_type_id":"4","last_reported":1758992856,"current_range_meters":10800,"station_id":"ce4bhhh2rcd13ifvqfl0","pricing_plan_id":"cebpf4jnsgd1na2vs0mg"},{"bike_id":"cf96a574-f395-4f2b-a586-dd62384d90ae","system_id":"levelo_inurba_marseille","lat":43.30373,"lon":5.42494,"is_reserved":false,"is_disabled":false,"rental_uris":{"android":"levelo://app?vid=cf96a574-f395-4f2b-a586-dd62384d90ae","ios":"levelo://app?vid=cf96a574-f395-4f2b-a586-dd62384d90ae"},"vehicle_type_id":"4","last_reported":1758992856,"current_range_meters":10800,"station_id":"ce4bhoh2rcd13ifvqh6g","pricing_plan_id":"cebpf4jnsgd1na2vs0mg"},{"bike_id":"01bf55f2-4ac6-46f6-8504-3267bf31e1a6","system_id":"levelo_inurba_marseille","lat":43.2973,"lon":5.381787,"is_reserved":false,"is_disabled":false,"rental_uris":{"android":"levelo://app?vid=01bf55f2-4ac6-46f6-8504-3267bf31e1a6","ios":"levelo://app?vid=01bf55f2-4ac6-46f6-8504-3267bf31e1a6"},"vehicle_type_id":"4","last_reported":1758992856,"current_range_meters":10800,"station_id":"","pricing_plan_id":"cebpf4jnsgd1na2vs0mg"},{"bike_id":"00ead6f2-4566-47d5-9cb4-202d0f9f52fe","system_id":"levelo_inurba_marseille","lat":43.29101,"lon":5.38137,"is_reserved":false,"is_disabled":false,"rental_uris":{"android":"levelo://app?vid=00ead6f2-4566-47d5-9cb4-202d0f9f52fe","ios":"levelo://app?vid=00ead6f2-4566-47d5-9cb4-202d0f9f52fe"},"vehicle_type_id":"4","last_reported":1758992856,"current_range_meters":10800,"station_id":"ce4bh512rcd13ifvqe2g","pricing_plan_id":"cebpf4jnsgd1na2vs0mg"},{"bike_id":"a15d6c6d-764d-45f1-8d14-89a7ad716ff3","system_id":"levelo_inurba_marseille","lat":43.29199,"lon":5.39325,"is_reserved":false,"is_disabled":false,"rental_uris":{"android":"levelo://app?vid=a15d6c6d-764d-45f1-8d14-89a7ad716ff3","ios":"levelo://app?vid=a15d6c6d-764d-45f1-8d14-89a7ad716ff3"},"vehicle_type_id":"4","last_reported":1758992856,"current_range_meters":10000,"station_id":"ce4bh192rcd13ifvqdd0","pricing_plan_id":"cebpf4jnsgd1na2vs0mg"},{"bike_id":"f2ab6a55-ac4e-46f5-9916-ad9c41a3fe00","system_id":"levelo_inurba_marseille","lat":43.29794,"lon":5.38092,"is_reserved":false,"is_disabled":false,"rental_uris":{"android":"levelo://app?vid=f2ab6a55-ac4e-46f5-9916-ad9c41a3fe00","ios":"levelo://app?vid=f2ab6a55-ac4e-46f5-9916-ad9c41a3fe00"},"vehicle_type_id":"4","last_reported":1758992856,"current_range_meters":10800,"station_id":"ce4bgip2rcd13ifvqbb0","pricing_plan_id":"cebpf4jnsgd1na2vs0mg"},{"bike_id":"84e3ae39-832e-4594-bc45-8dae172dec9e","system_id":"levelo_inurba_marseille","lat":43.24382,"lon":5.37074,"is_reserved":false,"is_disabled":false,"rental_uris":{"android":"levelo://app?vid=84e3ae39-832e-4594-bc45-8dae172dec9e","ios":"levelo://app?vid=84e3ae39-832e-4594-bc45-8dae172dec9e"},"vehicle_type_id":"4","last_reported":1758992856,"current_range_meters":11200,"station_id":"ce4bhhh2rcd13ifvqfk0","pricing_plan_id":"cebpf4jnsgd1na2vs0mg"},{"bike_id":"ca33125d-1c32-4ecd-86ab-97a516aea09f","system_id":"levelo_inurba_marseille","lat":43.31848,"lon":5.3905,"is_reserved":false,"is_disabled":false,"rental_uris":{"android":"levelo://app?vid=ca33125d-1c32-4ecd-86ab-97a516aea09f","ios":"levelo://app?vid=ca33125d-1c32-4ecd-86ab-97a516aea09f"},"vehicle_type_id":"4","last_reported":1758992856,"current_range_meters":11200,"station_id":"","pricing_plan_id":"cebpf4jnsgd1na2vs0mg"},{"bike_id":"b5e3d95c-d6ab-47a1-a565-d021b45ce728","system_id":"levelo_inurba_marseille","lat":43.217432,"lon":5.346035,"is_reserved":false,"is_disabled":true,"rental_uris":{"android":"levelo://app?vid=b5e3d95c-d6ab-47a1-a565-d021b45ce728","ios":"levelo://app?vid=b5e3d95c-d6ab-47a1-a565-d021b45ce728"},"vehicle_type_id":"4","last_reported":1758992856,"current_range_meters":11200,"station_id":"st_cvj6r9ubvosntc0bgbag","pricing_plan_id":"cebpf4jnsgd1na2vs0mg"},{"bike_id":"e114a3ae-0a89-4dac-83a7-a52236826763","system_id":"levelo_inurba_marseille","lat":43.2118,"lon":5.35106,"is_reserved":false,"is_disabled":false,"rental_uris":{"android":"levelo://app?vid=e114a3ae-0a89-4dac-83a7-a52236826763","ios":"levelo://app?vid=e114a3ae-0a89-4dac-83a7-a52236826763"},"vehicle_type_id":"4","last_reported":1758992856,"current_range_meters":11200,"station_id":"st_cvj6sg6p6f1abm77japg","pricing_plan_id":"cebpf4jnsgd1na2vs0mg"},{"bike_id":"1c14f608-9eb0-4b58-8221-e6e5ed28265b","system_id":"levelo_inurba_marseille","lat":43.24394,"lon":5.371,"is_reserved":false,"is_disabled":false,"rental_uris":{"android":"levelo://app?vid=1c14f608-9eb0-4b58-8221-e6e5ed28265b","ios":"levelo://app?vid=1c14f608-9eb0-4b58-8221-e6e5ed28265b"},"vehicle_type_id":"4","last_reported":1758992856,"current_range_meters":11200,"station_id":"ce4bhhh2rcd13ifvqfk0","pricing_plan_id":"cebpf4jnsgd1na2vs0mg"},{"bike_id":"e30fc5a0-0fe2-4894-8c7f-02761a990d6e","system_id":"levelo_inurba_marseille","lat":43.27498,"lon":5.42453,"is_reserved":false,"is_disabled":false,"rental_uris":{"android":"levelo://app?vid=e30fc5a0-0fe2-4894-8c7f-02761a990d6e","ios":"levelo://app?vid=e30fc5a0-0fe2-4894-8c7f-02761a990d6e"},"vehicle_type_id":"4","last_reported":1758992856,"current_range_meters":11200,"station_id":"ce4bhn92rcd13ifvqgrg","pricing_plan_id":"cebpf4jnsgd1na2vs0mg"},{"bike_id":"0fd45cab-0cda-40a7-9db8-4f9d11273236","system_id":"levelo_inurba_marseille","lat":43.29308,"lon":5.37166,"is_reserved":false,"is_disabled":false,"rental_uris":{"android":"levelo://app?vid=0fd45cab-0cda-40a7-9db8-4f9d11273236","ios":"levelo://app?vid=0fd45cab-0cda-40a7-9db8-4f9d11273236"},"vehicle_type_id":"4","last_reported":1758992856,"current_range_meters":11200,"station_id":"ce4bgh92rcd13ifvqb40","pricing_plan_id":"cebpf4jnsgd1na2vs0mg"},{"bike_id":"580e21aa-a688-4de8-8385-267ee05c2cde","system_id":"levelo_inurba_marseille","lat":43.25497,"lon":5.37651,"is_reserved":false,"is_disabled":false,"rental_uris":{"android":"levelo://app?vid=580e21aa-a688-4de8-8385-267ee05c2cde","ios":"levelo://app?vid=580e21aa-a688-4de8-8385-267ee05c2cde"},"vehicle_type_id":"4","last_reported":1758992856,"current_range_meters":11200,"station_id":"ce4bhh12rcd13ifvqff0","pricing_plan_id":"cebpf4jnsgd1na2vs0mg"},{"bike_id":"c9bf2352-3269-4046-bed4-093693455352","system_id":"levelo_inurba_marseille","lat":43.27324,"lon":5.39062,"is_reserved":false,"is_disabled":false,"rental_uris":{"android":"levelo://app?vid=c9bf2352-3269-4046-bed4-093693455352","ios":"levelo://app?vid=c9bf2352-3269-4046-bed4-093693455352"},"vehicle_type_id":"4","last_reported":1758992856,"current_range_meters":11200,"station_id":"ce4bhgp2rcd13ifvqfe0","pricing_plan_id":"cebpf4jnsgd1na2vs0mg"},{"bike_id":"3f51e03c-3abb-4dde-8cdd-da596aa3252f","system_id":"levelo_inurba_marseille","lat":43.27666,"lon":5.38907,"is_reserved":false,"is_disabled":true,"rental_uris":{"android":"levelo://app?vid=3f51e03c-3abb-4dde-8cdd-da596aa3252f","ios":"levelo://app?vid=3f51e03c-3abb-4dde-8cdd-da596aa3252f"},"vehicle_type_id":"4","last_reported":1758992856,"current_range_meters":11600,"station_id":"ce4bhi12rcd13ifvqfo0","pricing_plan_id":"cebpf4jnsgd1na2vs0mg"},{"bike_id":"b3356fb8-e8da-4e2c-b1e4-5ebb3655d645","system_id":"levelo_inurba_marseille","lat":43.25008,"lon":5.38927,"is_reserved":false,"is_disabled":false,"rental_uris":{"android":"levelo://app?vid=b3356fb8-e8da-4e2c-b1e4-5ebb3655d645","ios":"levelo://app?vid=b3356fb8-e8da-4e2c-b1e4-5ebb3655d645"},"vehicle_type_id":"4","last_reported":1758992856,"current_range_meters":11600,"station_id":"ce4bhgp2rcd13ifvqfd0","pricing_plan_id":"cebpf4jnsgd1na2vs0mg"},{"bike_id":"2d41fdf2-dee7-405f-918e-64063cc80f3a","system_id":"levelo_inurba_marseille","lat":43.28724,"lon":5.37934,"is_reserved":false,"is_disabled":false,"rental_uris":{"android":"levelo://app?vid=2d41fdf2-dee7-405f-918e-64063cc80f3a","ios":"levelo://app?vid=2d41fdf2-dee7-405f-918e-64063cc80f3a"},"vehicle_type_id":"4","last_reported":1758992856,"current_range_meters":11600,"station_id":"ce4bh9p2rcd13ifvqec0","pricing_plan_id":"cebpf4jnsgd1na2vs0mg"},{"bike_id":"86cfbe39-a643-4a81-b483-3ceae2d99b62","system_id":"levelo_inurba_marseille","lat":43.24633,"lon":5.43148,"is_reserved":false,"is_disabled":false,"rental_uris":{"android":"levelo://app?vid=86cfbe39-a643-4a81-b483-3ceae2d99b62","ios":"levelo://app?vid=86cfbe39-a643-4a81-b483-3ceae2d99b62"},"vehicle_type_id":"4","last_reported":1758992856,"current_range_meters":11600,"station_id":"st_d2m6c4gdas8pm72e190g","pricing_plan_id":"cebpf4jnsgd1na2vs0mg"},{"bike_id":"80bdba63-46f3-4274-b0d9-d9711409b6a8","system_id":"levelo_inurba_marseille","lat":43.270752,"lon":5.402497,"is_reserved":false,"is_disabled":false,"rental_uris":{"android":"levelo://app?vid=80bdba63-46f3-4274-b0d9-d9711409b6a8","ios":"levelo://app?vid=80bdba63-46f3-4274-b0d9-d9711409b6a8"},"vehicle_type_id":"4","last_reported":1758992856,"current_range_meters":11600,"station_id":"","pricing_plan_id":"cebpf4jnsgd1na2vs0mg"},{"bike_id":"0e7205af-7c50-4917-8fe1-1983f9d63835","system_id":"levelo_inurba_marseille","lat":43.24988,"lon":5.38937,"is_reserved":false,"is_disabled":false,"rental_uris":{"android":"levelo://app?vid=0e7205af-7c50-4917-8fe1-1983f9d63835","ios":"levelo://app?vid=0e7205af-7c50-4917-8fe1-1983f9d63835"},"vehicle_type_id":"4","last_reported":1758992856,"current_range_meters":11600,"station_id":"ce4bhgp2rcd13ifvqfd0","pricing_plan_id":"cebpf4jnsgd1na2vs0mg"},{"bike_id":"3fd7c937-a838-4d6f-932e-9e3bccbc6d3b","system_id":"levelo_inurba_marseille","lat":43.2993,"lon":5.38231,"is_reserved":false,"is_disabled":false,"rental_uris":{"android":"levelo://app?vid=3fd7c937-a838-4d6f-932e-9e3bccbc6d3b","ios":"levelo://app?vid=3fd7c937-a838-4d6f-932e-9e3bccbc6d3b"},"vehicle_type_id":"4","last_reported":1758992856,"current_range_meters":11600,"station_id":"","pricing_plan_id":"cebpf4jnsgd1na2vs0mg"},{"bike_id":"7ee12965-0fed-415c-8f08-8f986985cec6","system_id":"levelo_inurba_marseille","lat":43.21763,"lon":5.34586,"is_reserved":false,"is_disabled":true,"rental_uris":{"android":"levelo://app?vid=7ee12965-0fed-415c-8f08-8f986985cec6","ios":"levelo://app?vid=7ee12965-0fed-415c-8f08-8f986985cec6"},"vehicle_type_id":"4","last_reported":1758992856,"current_range_meters":11600,"station_id":"st_cvj6r9ubvosntc0bgbag","pricing_plan_id":"cebpf4jnsgd1na2vs0mg"},{"bike_id":"934ea1ec-b7f6-49a1-9efa-287317d4eb22","system_id":"levelo_inurba_marseille","lat":43.29048,"lon":5.35914,"is_reserved":false,"is_disabled":false,"rental_uris":{"android":"levelo://app?vid=934ea1ec-b7f6-49a1-9efa-287317d4eb22","ios":"levelo://app?vid=934ea1ec-b7f6-49a1-9efa-287317d4eb22"},"vehicle_type_id":"4","last_reported":1758992856,"current_range_meters":12000,"station_id":"","pricing_plan_id":"cebpf4jnsgd1na2vs0mg"},{"bike_id":"e9e7a0c1-487e-47a4-84d6-ab1f655f14fc","system_id":"levelo_inurba_marseille","lat":43.32493,"lon":5.36566,"is_reserved":false,"is_disabled":false,"rental_uris":{"android":"levelo://app?vid=e9e7a0c1-487e-47a4-84d6-ab1f655f14fc","ios":"levelo://app?vid=e9e7a0c1-487e-47a4-84d6-ab1f655f14fc"},"vehicle_type_id":"4","last_reported":1758992856,"current_range_meters":12000,"station_id":"ce4bhs12rcd13ifvqhvg","pricing_plan_id":"cebpf4jnsgd1na2vs0mg"},{"bike_id":"5bb42022-0e19-48bc-a5b4-218bb1d7482e","system_id":"levelo_inurba_marseille","lat":43.31225,"lon":5.37835,"is_reserved":false,"is_disabled":false,"rental_uris":{"android":"levelo://app?vid=5bb42022-0e19-48bc-a5b4-218bb1d7482e","ios":"levelo://app?vid=5bb42022-0e19-48bc-a5b4-218bb1d7482e"},"vehicle_type_id":"4","last_reported":1758992856,"current_range_meters":12000,"station_id":"","pricing_plan_id":"cebpf4jnsgd1na2vs0mg"},{"bike_id":"36e7dd9d-fca3-4fab-9632-991f792dd03c","system_id":"levelo_inurba_marseille","lat":43.28993,"lon":5.35622,"is_reserved":false,"is_disabled":false,"rental_uris":{"android":"levelo://app?vid=36e7dd9d-fca3-4fab-9632-991f792dd03c","ios":"levelo://app?vid=36e7dd9d-fca3-4fab-9632-991f792dd03c"},"vehicle_type_id":"4","last_reported":1758992856,"current_range_meters":12000,"station_id":"ce4bhb92rcd13ifvqen0","pricing_plan_id":"cebpf4jnsgd1na2vs0mg"},{"bike_id":"46ac5fb6-ac2e-43e8-84c9-c4e46889ea29","system_id":"levelo_inurba_marseille","lat":43.21201,"lon":5.35087,"is_reserved":false,"is_disabled":false,"rental_uris":{"android":"levelo://app?vid=46ac5fb6-ac2e-43e8-84c9-c4e46889ea29","ios":"levelo://app?vid=46ac5fb6-ac2e-43e8-84c9-c4e46889ea29"},"vehicle_type_id":"4","last_reported":1758992856,"current_range_meters":12000,"station_id":"st_cvj6sg6p6f1abm77japg","pricing_plan_id":"cebpf4jnsgd1na2vs0mg"},{"bike_id":"496f183f-9b9d-47dd-95db-7f45946938bd","system_id":"levelo_inurba_marseille","lat":43.28931,"lon":5.38385,"is_reserved":false,"is_disabled":false,"rental_uris":{"android":"levelo://app?vid=496f183f-9b9d-47dd-95db-7f45946938bd","ios":"levelo://app?vid=496f183f-9b9d-47dd-95db-7f45946938bd"},"vehicle_type_id":"4","last_reported":1758992856,"current_range_meters":11600,"station_id":"ce4bh612rcd13ifvqe6g","pricing_plan_id":"cebpf4jnsgd1na2vs0mg"},{"bike_id":"ffeb9b34-6fe8-4db5-895a-ea1f8a27a31c","system_id":"levelo_inurba_marseille","lat":43.301447,"lon":5.374066,"is_reserved":false,"is_disabled":false,"rental_uris":{"android":"levelo://app?vid=ffeb9b34-6fe8-4db5-895a-ea1f8a27a31c","ios":"levelo://app?vid=ffeb9b34-6fe8-4db5-895a-ea1f8a27a31c"},"vehicle_type_id":"4","last_reported":1758992856,"current_range_meters":11600,"station_id":"ce4bgs92rcd13ifvqcc0","pricing_plan_id":"cebpf4jnsgd1na2vs0mg"},{"bike_id":"f4a707ca-2fc6-4914-947d-05c69faabff9","system_id":"levelo_inurba_marseille","lat":43.33602,"lon":5.41028,"is_reserved":false,"is_disabled":false,"rental_uris":{"android":"levelo://app?vid=f4a707ca-2fc6-4914-947d-05c69faabff9","ios":"levelo://app?vid=f4a707ca-2fc6-4914-947d-05c69faabff9"},"vehicle_type_id":"4","last_reported":1758992856,"current_range_meters":12400,"station_id":"ce4bhqh2rcd13ifvqhmg","pricing_plan_id":"cebpf4jnsgd1na2vs0mg"},{"bike_id":"f2fd2284-837d-45c8-8a92-163c2aa30979","system_id":"levelo_inurba_marseille","lat":43.26932,"lon":5.38913,"is_reserved":false,"is_disabled":true,"rental_uris":{"android":"levelo://app?vid=f2fd2284-837d-45c8-8a92-163c2aa30979","ios":"levelo://app?vid=f2fd2284-837d-45c8-8a92-163c2aa30979"},"vehicle_type_id":"4","last_reported":1758992856,"current_range_meters":12400,"station_id":"ce4bhhh2rcd13ifvqfl0","pricing_plan_id":"cebpf4jnsgd1na2vs0mg"},{"bike_id":"9de5eb4a-2bba-4d94-b5d2-50807c7d8cc2","system_id":"levelo_inurba_marseille","lat":43.22534,"lon":5.34839,"is_reserved":false,"is_disabled":false,"rental_uris":{"android":"levelo://app?vid=9de5eb4a-2bba-4d94-b5d2-50807c7d8cc2","ios":"levelo://app?vid=9de5eb4a-2bba-4d94-b5d2-50807c7d8cc2"},"vehicle_type_id":"4","last_reported":1758992856,"current_range_meters":12400,"station_id":"","pricing_plan_id":"cebpf4jnsgd1na2vs0mg"},{"bike_id":"720623f7-9148-4a0e-ade4-a205c6fa44f0","system_id":"levelo_inurba_marseille","lat":43.28971,"lon":5.42905,"is_reserved":false,"is_disabled":false,"rental_uris":{"android":"levelo://app?vid=720623f7-9148-4a0e-ade4-a205c6fa44f0","ios":"levelo://app?vid=720623f7-9148-4a0e-ade4-a205c6fa44f0"},"vehicle_type_id":"4","last_reported":1758992856,"current_range_meters":12400,"station_id":"","pricing_plan_id":"cebpf4jnsgd1na2vs0mg"},{"bike_id":"03350417-1098-4d6c-b8fe-9e64358744bf","system_id":"levelo_inurba_marseille","lat":43.31079,"lon":5.37585,"is_reserved":false,"is_disabled":false,"rental_uris":{"android":"levelo://app?vid=03350417-1098-4d6c-b8fe-9e64358744bf","ios":"levelo://app?vid=03350417-1098-4d6c-b8fe-9e64358744bf"},"vehicle_type_id":"4","last_reported":1758992856,"current_range_meters":12400,"station_id":"","pricing_plan_id":"cebpf4jnsgd1na2vs0mg"},{"bike_id":"71649b2c-48f8-4b8a-b9c0-477bd83fa14b","system_id":"levelo_inurba_marseille","lat":43.28419,"lon":5.34998,"is_reserved":false,"is_disabled":false,"rental_uris":{"android":"levelo://app?vid=71649b2c-48f8-4b8a-b9c0-477bd83fa14b","ios":"levelo://app?vid=71649b2c-48f8-4b8a-b9c0-477bd83fa14b"},"vehicle_type_id":"4","last_reported":1758992856,"current_range_meters":12800,"station_id":"ce4bhbh2rcd13ifvqepg","pricing_plan_id":"cebpf4jnsgd1na2vs0mg"},{"bike_id":"da232d6d-d1ec-4a18-898c-54aff413c174","system_id":"levelo_inurba_marseille","lat":43.30138,"lon":5.38783,"is_reserved":false,"is_disabled":false,"rental_uris":{"android":"levelo://app?vid=da232d6d-d1ec-4a18-898c-54aff413c174","ios":"levelo://app?vid=da232d6d-d1ec-4a18-898c-54aff413c174"},"vehicle_type_id":"4","last_reported":1758992856,"current_range_meters":12800,"station_id":"ce4bghh2rcd13ifvqb60","pricing_plan_id":"cebpf4jnsgd1na2vs0mg"},{"bike_id":"6ef3024a-2129-46d2-8f53-f8c4119ef86c","system_id":"levelo_inurba_marseille","lat":43.22939,"lon":5.35383,"is_reserved":false,"is_disabled":false,"rental_uris":{"android":"levelo://app?vid=6ef3024a-2129-46d2-8f53-f8c4119ef86c","ios":"levelo://app?vid=6ef3024a-2129-46d2-8f53-f8c4119ef86c"},"vehicle_type_id":"4","last_reported":1758992856,"current_range_meters":12800,"station_id":"cpo3532slgdg3j2ikp40","pricing_plan_id":"cebpf4jnsgd1na2vs0mg"},{"bike_id":"360c0746-c854-4629-884f-7c911de53d9d","system_id":"levelo_inurba_marseille","lat":43.30827,"lon":5.37539,"is_reserved":false,"is_disabled":false,"rental_uris":{"android":"levelo://app?vid=360c0746-c854-4629-884f-7c911de53d9d","ios":"levelo://app?vid=360c0746-c854-4629-884f-7c911de53d9d"},"vehicle_type_id":"4","last_reported":1758992856,"current_range_meters":12800,"station_id":"","pricing_plan_id":"cebpf4jnsgd1na2vs0mg"},{"bike_id":"eedfbf61-711e-444c-88e3-b720ea74f76a","system_id":"levelo_inurba_marseille","lat":43.2119,"lon":5.35081,"is_reserved":false,"is_disabled":false,"rental_uris":{"android":"levelo://app?vid=eedfbf61-711e-444c-88e3-b720ea74f76a","ios":"levelo://app?vid=eedfbf61-711e-444c-88e3-b720ea74f76a"},"vehicle_type_id":"4","last_reported":1758992856,"current_range_meters":12800,"station_id":"st_cvj6sg6p6f1abm77japg","pricing_plan_id":"cebpf4jnsgd1na2vs0mg"},{"bike_id":"a79771f7-9547-42c9-9edd-e8630ba14d95","system_id":"levelo_inurba_marseille","lat":43.2321,"lon":5.3555,"is_reserved":false,"is_disabled":false,"rental_uris":{"android":"levelo://app?vid=a79771f7-9547-42c9-9edd-e8630ba14d95","ios":"levelo://app?vid=a79771f7-9547-42c9-9edd-e8630ba14d95"},"vehicle_type_id":"4","last_reported":1758992856,"current_range_meters":12800,"station_id":"ce4bhu92rcd13ifvqi70","pricing_plan_id":"cebpf4jnsgd1na2vs0mg"},{"bike_id":"695662ab-65fe-4c59-81b6-3dceb9f5066d","system_id":"levelo_inurba_marseille","lat":43.25557,"lon":5.38254,"is_reserved":false,"is_disabled":true,"rental_uris":{"android":"levelo://app?vid=695662ab-65fe-4c59-81b6-3dceb9f5066d","ios":"levelo://app?vid=695662ab-65fe-4c59-81b6-3dceb9f5066d"},"vehicle_type_id":"4","last_reported":1758992856,"current_range_meters":12800,"station_id":"ce4bhih2rcd13ifvqfs0","pricing_plan_id":"cebpf4jnsgd1na2vs0mg"},{"bike_id":"9feae468-b8bd-422a-8fcb-2d68fc5ee82c","system_id":"levelo_inurba_marseille","lat":43.33375,"lon":5.42021,"is_reserved":false,"is_disabled":false,"rental_uris":{"android":"levelo://app?vid=9feae468-b8bd-422a-8fcb-2d68fc5ee82c","ios":"levelo://app?vid=9feae468-b8bd-422a-8fcb-2d68fc5ee82c"},"vehicle_type_id":"4","last_reported":1758992856,"current_range_meters":13600,"station_id":"","pricing_plan_id":"cebpf4jnsgd1na2vs0mg"},{"bike_id":"713498d4-5a84-45c2-b213-a588f97dd66f","system_id":"levelo_inurba_marseille","lat":43.28461,"lon":5.35883,"is_reserved":false,"is_disabled":false,"rental_uris":{"android":"levelo://app?vid=713498d4-5a84-45c2-b213-a588f97dd66f","ios":"levelo://app?vid=713498d4-5a84-45c2-b213-a588f97dd66f"},"vehicle_type_id":"4","last_reported":1758992856,"current_range_meters":13600,"station_id":"ce4bhah2rcd13ifvqei0","pricing_plan_id":"cebpf4jnsgd1na2vs0mg"},{"bike_id":"349977c5-2efd-48ed-8dd8-9cfd0d464679","system_id":"levelo_inurba_marseille","lat":43.21201,"lon":5.35099,"is_reserved":false,"is_disabled":false,"rental_uris":{"android":"levelo://app?vid=349977c5-2efd-48ed-8dd8-9cfd0d464679","ios":"levelo://app?vid=349977c5-2efd-48ed-8dd8-9cfd0d464679"},"vehicle_type_id":"4","last_reported":1758992856,"current_range_meters":13600,"station_id":"st_cvj6sg6p6f1abm77japg","pricing_plan_id":"cebpf4jnsgd1na2vs0mg"},{"bike_id":"cd0f10df-cc03-4d77-87ff-eb0fb4204ceb","system_id":"levelo_inurba_marseille","lat":43.27624,"lon":5.36105,"is_reserved":false,"is_disabled":false,"rental_uris":{"android":"levelo://app?vid=cd0f10df-cc03-4d77-87ff-eb0fb4204ceb","ios":"levelo://app?vid=cd0f10df-cc03-4d77-87ff-eb0fb4204ceb"},"vehicle_type_id":"4","last_reported":1758992856,"current_range_meters":13600,"station_id":"ce4bgj92rcd13ifvqbe0","pricing_plan_id":"cebpf4jnsgd1na2vs0mg"},{"bike_id":"2ca205d7-ac55-4d7d-ae07-5f6058c9f252","system_id":"levelo_inurba_marseille","lat":43.2997,"lon":5.38508,"is_reserved":false,"is_disabled":false,"rental_uris":{"android":"levelo://app?vid=2ca205d7-ac55-4d7d-ae07-5f6058c9f252","ios":"levelo://app?vid=2ca205d7-ac55-4d7d-ae07-5f6058c9f252"},"vehicle_type_id":"4","last_reported":1758992856,"current_range_meters":14000,"station_id":"ce4bgj92rcd13ifvqbd0","pricing_plan_id":"cebpf4jnsgd1na2vs0mg"},{"bike_id":"f226e006-f360-45ce-8d32-f14fe7d226aa","system_id":"levelo_inurba_marseille","lat":43.306133,"lon":5.372394,"is_reserved":false,"is_disabled":false,"rental_uris":{"android":"levelo://app?vid=f226e006-f360-45ce-8d32-f14fe7d226aa","ios":"levelo://app?vid=f226e006-f360-45ce-8d32-f14fe7d226aa"},"vehicle_type_id":"4","last_reported":1758992856,"current_range_meters":14000,"station_id":"ce4bgqh2rcd13ifvqc4g","pricing_plan_id":"cebpf4jnsgd1na2vs0mg"},{"bike_id":"dc4883ea-8f06-44d1-8b3d-6660e39a87ec","system_id":"levelo_inurba_marseille","lat":43.22935,"lon":5.35381,"is_reserved":false,"is_disabled":true,"rental_uris":{"android":"levelo://app?vid=dc4883ea-8f06-44d1-8b3d-6660e39a87ec","ios":"levelo://app?vid=dc4883ea-8f06-44d1-8b3d-6660e39a87ec"},"vehicle_type_id":"4","last_reported":1758992856,"current_range_meters":14000,"station_id":"cpo3532slgdg3j2ikp40","pricing_plan_id":"cebpf4jnsgd1na2vs0mg"},{"bike_id":"f5736c71-2134-46e2-bc64-cfa9acae41a3","system_id":"levelo_inurba_marseille","lat":43.29256,"lon":5.3844,"is_reserved":false,"is_disabled":false,"rental_uris":{"android":"levelo://app?vid=f5736c71-2134-46e2-bc64-cfa9acae41a3","ios":"levelo://app?vid=f5736c71-2134-46e2-bc64-cfa9acae41a3"},"vehicle_type_id":"4","last_reported":1758992856,"current_range_meters":14000,"station_id":"ce4bh692rcd13ifvqea0","pricing_plan_id":"cebpf4jnsgd1na2vs0mg"},{"bike_id":"81f6741b-dc82-425e-b4cc-0bc0718d4e97","system_id":"levelo_inurba_marseille","lat":43.28399,"lon":5.37513,"is_reserved":false,"is_disabled":false,"rental_uris":{"android":"levelo://app?vid=81f6741b-dc82-425e-b4cc-0bc0718d4e97","ios":"levelo://app?vid=81f6741b-dc82-425e-b4cc-0bc0718d4e97"},"vehicle_type_id":"4","last_reported":1758992856,"current_range_meters":14000,"station_id":"ce4bh412rcd13ifvqds0","pricing_plan_id":"cebpf4jnsgd1na2vs0mg"},{"bike_id":"8699c9fa-b1fb-4018-ad8e-cc788e7b7ace","system_id":"levelo_inurba_marseille","lat":43.26206,"lon":5.3744,"is_reserved":false,"is_disabled":false,"rental_uris":{"android":"levelo://app?vid=8699c9fa-b1fb-4018-ad8e-cc788e7b7ace","ios":"levelo://app?vid=8699c9fa-b1fb-4018-ad8e-cc788e7b7ace"},"vehicle_type_id":"4","last_reported":1758992856,"current_range_meters":14400,"station_id":"ce4bhgp2rcd13ifvqfc0","pricing_plan_id":"cebpf4jnsgd1na2vs0mg"},{"bike_id":"2f312d63-8484-4361-8811-a24435fe356a","system_id":"levelo_inurba_marseille","lat":43.3041,"lon":5.38903,"is_reserved":false,"is_disabled":false,"rental_uris":{"android":"levelo://app?vid=2f312d63-8484-4361-8811-a24435fe356a","ios":"levelo://app?vid=2f312d63-8484-4361-8811-a24435fe356a"},"vehicle_type_id":"4","last_reported":1758992856,"current_range_meters":14400,"station_id":"ce4bgk12rcd13ifvqbi0","pricing_plan_id":"cebpf4jnsgd1na2vs0mg"},{"bike_id":"6d4fa21f-0f41-49ae-93a6-059b63d3c466","system_id":"levelo_inurba_marseille","lat":43.23967,"lon":5.36623,"is_reserved":false,"is_disabled":false,"rental_uris":{"android":"levelo://app?vid=6d4fa21f-0f41-49ae-93a6-059b63d3c466","ios":"levelo://app?vid=6d4fa21f-0f41-49ae-93a6-059b63d3c466"},"vehicle_type_id":"4","last_reported":1758992856,"current_range_meters":14400,"station_id":"ce4bhi12rcd13ifvqfp0","pricing_plan_id":"cebpf4jnsgd1na2vs0mg"},{"bike_id":"0e5f9f7d-969e-47a2-a8cb-1ea8ff06bbb8","system_id":"levelo_inurba_marseille","lat":43.27566,"lon":5.38423,"is_reserved":false,"is_disabled":false,"rental_uris":{"android":"levelo://app?vid=0e5f9f7d-969e-47a2-a8cb-1ea8ff06bbb8","ios":"levelo://app?vid=0e5f9f7d-969e-47a2-a8cb-1ea8ff06bbb8"},"vehicle_type_id":"4","last_reported":1758992856,"current_range_meters":14400,"station_id":"ce4bhh92rcd13ifvqfi0","pricing_plan_id":"cebpf4jnsgd1na2vs0mg"},{"bike_id":"399f1aa0-1605-481e-a6a0-35f3a12834ac","system_id":"levelo_inurba_marseille","lat":43.26063,"lon":5.394,"is_reserved":false,"is_disabled":false,"rental_uris":{"android":"levelo://app?vid=399f1aa0-1605-481e-a6a0-35f3a12834ac","ios":"levelo://app?vid=399f1aa0-1605-481e-a6a0-35f3a12834ac"},"vehicle_type_id":"4","last_reported":1758992856,"current_range_meters":14000,"station_id":"ce4bhh92rcd13ifvqfj0","pricing_plan_id":"cebpf4jnsgd1na2vs0mg"},{"bike_id":"c833070b-baa0-4f6e-84a4-dad65aacc2ad","system_id":"levelo_inurba_marseille","lat":43.23181,"lon":5.35554,"is_reserved":false,"is_disabled":false,"rental_uris":{"android":"levelo://app?vid=c833070b-baa0-4f6e-84a4-dad65aacc2ad","ios":"levelo://app?vid=c833070b-baa0-4f6e-84a4-dad65aacc2ad"},"vehicle_type_id":"4","last_reported":1758992856,"current_range_meters":14400,"station_id":"ce4bhu92rcd13ifvqi70","pricing_plan_id":"cebpf4jnsgd1na2vs0mg"},{"bike_id":"60da636a-ffab-4ae5-af20-5ab237ec136e","system_id":"levelo_inurba_marseille","lat":43.28493,"lon":5.38415,"is_reserved":false,"is_disabled":false,"rental_uris":{"android":"levelo://app?vid=60da636a-ffab-4ae5-af20-5ab237ec136e","ios":"levelo://app?vid=60da636a-ffab-4ae5-af20-5ab237ec136e"},"vehicle_type_id":"4","last_reported":1758992856,"current_range_meters":14800,"station_id":"ce4bh512rcd13ifvqe3g","pricing_plan_id":"cebpf4jnsgd1na2vs0mg"},{"bike_id":"fd369edc-de64-4b30-8e37-307aa7aaae34","system_id":"levelo_inurba_marseille","lat":43.27915,"lon":5.39573,"is_reserved":false,"is_disabled":false,"rental_uris":{"android":"levelo://app?vid=fd369edc-de64-4b30-8e37-307aa7aaae34","ios":"levelo://app?vid=fd369edc-de64-4b30-8e37-307aa7aaae34"},"vehicle_type_id":"4","last_reported":1758992856,"current_range_meters":14800,"station_id":"ce4bhf92rcd13ifvqf40","pricing_plan_id":"cebpf4jnsgd1na2vs0mg"},{"bike_id":"6bef550a-0205-488c-97cd-0e55193f21ed","system_id":"levelo_inurba_marseille","lat":43.32344,"lon":5.40603,"is_reserved":false,"is_disabled":false,"rental_uris":{"android":"levelo://app?vid=6bef550a-0205-488c-97cd-0e55193f21ed","ios":"levelo://app?vid=6bef550a-0205-488c-97cd-0e55193f21ed"},"vehicle_type_id":"4","last_reported":1758992856,"current_range_meters":14800,"station_id":"ce4bhq92rcd13ifvqhjg","pricing_plan_id":"cebpf4jnsgd1na2vs0mg"},{"bike_id":"e4f3cee5-30d8-406b-bbf0-c2c93af43a3b","system_id":"levelo_inurba_marseille","lat":43.30805,"lon":5.381576,"is_reserved":false,"is_disabled":false,"rental_uris":{"android":"levelo://app?vid=e4f3cee5-30d8-406b-bbf0-c2c93af43a3b","ios":"levelo://app?vid=e4f3cee5-30d8-406b-bbf0-c2c93af43a3b"},"vehicle_type_id":"4","last_reported":1758992856,"current_range_meters":14800,"station_id":"ce4bgt12rcd13ifvqce0","pricing_plan_id":"cebpf4jnsgd1na2vs0mg"},{"bike_id":"9e8231b9-319c-4790-81c2-475de8022a89","system_id":"levelo_inurba_marseille","lat":43.28411,"lon":5.34997,"is_reserved":false,"is_disabled":false,"rental_uris":{"android":"levelo://app?vid=9e8231b9-319c-4790-81c2-475de8022a89","ios":"levelo://app?vid=9e8231b9-319c-4790-81c2-475de8022a89"},"vehicle_type_id":"4","last_reported":1758992856,"current_range_meters":14800,"station_id":"ce4bhbh2rcd13ifvqepg","pricing_plan_id":"cebpf4jnsgd1na2vs0mg"},{"bike_id":"401692d8-4451-41e7-b4ef-507d21d58716","system_id":"levelo_inurba_marseille","lat":43.28155,"lon":5.4264,"is_reserved":false,"is_disabled":false,"rental_uris":{"android":"levelo://app?vid=401692d8-4451-41e7-b4ef-507d21d58716","ios":"levelo://app?vid=401692d8-4451-41e7-b4ef-507d21d58716"},"vehicle_type_id":"4","last_reported":1758992856,"current_range_meters":14800,"station_id":"ce4bhnh2rcd13ifvqgug","pricing_plan_id":"cebpf4jnsgd1na2vs0mg"},{"bike_id":"cb0a43cc-2f6b-482a-91bb-c383cccf5be4","system_id":"levelo_inurba_marseille","lat":43.31995,"lon":5.38073,"is_reserved":false,"is_disabled":false,"rental_uris":{"android":"levelo://app?vid=cb0a43cc-2f6b-482a-91bb-c383cccf5be4","ios":"levelo://app?vid=cb0a43cc-2f6b-482a-91bb-c383cccf5be4"},"vehicle_type_id":"4","last_reported":1758992856,"current_range_meters":14800,"station_id":"","pricing_plan_id":"cebpf4jnsgd1na2vs0mg"},{"bike_id":"95ee7b97-e26d-4637-8422-88bf4b7aad91","system_id":"levelo_inurba_marseille","lat":43.256583,"lon":5.411284,"is_reserved":false,"is_disabled":false,"rental_uris":{"android":"levelo://app?vid=95ee7b97-e26d-4637-8422-88bf4b7aad91","ios":"levelo://app?vid=95ee7b97-e26d-4637-8422-88bf4b7aad91"},"vehicle_type_id":"4","last_reported":1758992856,"current_range_meters":14800,"station_id":"ce4bhkp2rcd13ifvqgd0","pricing_plan_id":"cebpf4jnsgd1na2vs0mg"},{"bike_id":"a141ba13-19f1-4f9e-9fa5-b678aae29a88","system_id":"levelo_inurba_marseille","lat":43.31116,"lon":5.37771,"is_reserved":false,"is_disabled":false,"rental_uris":{"android":"levelo://app?vid=a141ba13-19f1-4f9e-9fa5-b678aae29a88","ios":"levelo://app?vid=a141ba13-19f1-4f9e-9fa5-b678aae29a88"},"vehicle_type_id":"4","last_reported":1758992856,"current_range_meters":15200,"station_id":"ce4bgt92rcd13ifvqcg0","pricing_plan_id":"cebpf4jnsgd1na2vs0mg"},{"bike_id":"a1e2b7f3-f53e-4b6a-b8f1-27b0fbf9634d","system_id":"levelo_inurba_marseille","lat":43.31826,"lon":5.37995,"is_reserved":false,"is_disabled":false,"rental_uris":{"android":"levelo://app?vid=a1e2b7f3-f53e-4b6a-b8f1-27b0fbf9634d","ios":"levelo://app?vid=a1e2b7f3-f53e-4b6a-b8f1-27b0fbf9634d"},"vehicle_type_id":"4","last_reported":1758992856,"current_range_meters":15200,"station_id":"","pricing_plan_id":"cebpf4jnsgd1na2vs0mg"},{"bike_id":"096c311a-e31f-4e60-ab8c-de0b76354103","system_id":"levelo_inurba_marseille","lat":43.27212,"lon":5.40981,"is_reserved":false,"is_disabled":true,"rental_uris":{"android":"levelo://app?vid=096c311a-e31f-4e60-ab8c-de0b76354103","ios":"levelo://app?vid=096c311a-e31f-4e60-ab8c-de0b76354103"},"vehicle_type_id":"4","last_reported":1758992856,"current_range_meters":15200,"station_id":"ce4bhl12rcd13ifvqgf0","pricing_plan_id":"cebpf4jnsgd1na2vs0mg"},{"bike_id":"8b5e53cf-f333-45a9-bc1a-1505b2a7f925","system_id":"levelo_inurba_marseille","lat":43.30886,"lon":5.39655,"is_reserved":false,"is_disabled":false,"rental_uris":{"android":"levelo://app?vid=8b5e53cf-f333-45a9-bc1a-1505b2a7f925","ios":"levelo://app?vid=8b5e53cf-f333-45a9-bc1a-1505b2a7f925"},"vehicle_type_id":"4","last_reported":1758992856,"current_range_meters":15200,"station_id":"ce4bh012rcd13ifvqcv0","pricing_plan_id":"cebpf4jnsgd1na2vs0mg"},{"bike_id":"85c7ac65-0172-4766-8977-f4ba34ed9c93","system_id":"levelo_inurba_marseille","lat":43.25336,"lon":5.42174,"is_reserved":false,"is_disabled":false,"rental_uris":{"android":"levelo://app?vid=85c7ac65-0172-4766-8977-f4ba34ed9c93","ios":"levelo://app?vid=85c7ac65-0172-4766-8977-f4ba34ed9c93"},"vehicle_type_id":"4","last_reported":1758992856,"current_range_meters":15200,"station_id":"st_d2m65c5bi1j21697t3ng","pricing_plan_id":"cebpf4jnsgd1na2vs0mg"},{"bike_id":"add5e1d3-b15d-4f12-984e-345bcbf667e9","system_id":"levelo_inurba_marseille","lat":43.31268,"lon":5.40176,"is_reserved":false,"is_disabled":false,"rental_uris":{"android":"levelo://app?vid=add5e1d3-b15d-4f12-984e-345bcbf667e9","ios":"levelo://app?vid=add5e1d3-b15d-4f12-984e-345bcbf667e9"},"vehicle_type_id":"4","last_reported":1758992856,"current_range_meters":15200,"station_id":"ce4bh092rcd13ifvqd30","pricing_plan_id":"cebpf4jnsgd1na2vs0mg"},{"bike_id":"4c02c545-ad59-45b1-9b9c-d3678a5922c7","system_id":"levelo_inurba_marseille","lat":43.337444,"lon":5.374475,"is_reserved":false,"is_disabled":false,"rental_uris":{"android":"levelo://app?vid=4c02c545-ad59-45b1-9b9c-d3678a5922c7","ios":"levelo://app?vid=4c02c545-ad59-45b1-9b9c-d3678a5922c7"},"vehicle_type_id":"4","last_reported":1758992856,"current_range_meters":15200,"station_id":"","pricing_plan_id":"cebpf4jnsgd1na2vs0mg"},{"bike_id":"c097f066-7651-435e-913f-a8a7838aba88","system_id":"levelo_inurba_marseille","lat":43.33722,"lon":5.37459,"is_reserved":false,"is_disabled":false,"rental_uris":{"android":"levelo://app?vid=c097f066-7651-435e-913f-a8a7838aba88","ios":"levelo://app?vid=c097f066-7651-435e-913f-a8a7838aba88"},"vehicle_type_id":"4","last_reported":1758992856,"current_range_meters":15200,"station_id":"","pricing_plan_id":"cebpf4jnsgd1na2vs0mg"},{"bike_id":"c3c74308-510b-4eca-8fe6-0cef0f578e16","system_id":"levelo_inurba_marseille","lat":43.29964,"lon":5.385,"is_reserved":false,"is_disabled":false,"rental_uris":{"android":"levelo://app?vid=c3c74308-510b-4eca-8fe6-0cef0f578e16","ios":"levelo://app?vid=c3c74308-510b-4eca-8fe6-0cef0f578e16"},"vehicle_type_id":"4","last_reported":1758992856,"current_range_meters":15200,"station_id":"ce4bgj92rcd13ifvqbd0","pricing_plan_id":"cebpf4jnsgd1na2vs0mg"},{"bike_id":"ed011518-a8de-442f-a953-86a3db052f58","system_id":"levelo_inurba_marseille","lat":43.29846,"lon":5.36276,"is_reserved":false,"is_disabled":false,"rental_uris":{"android":"levelo://app?vid=ed011518-a8de-442f-a953-86a3db052f58","ios":"levelo://app?vid=ed011518-a8de-442f-a953-86a3db052f58"},"vehicle_type_id":"4","last_reported":1758992856,"current_range_meters":16400,"station_id":"ce4bgpp2rcd13ifvqc3g","pricing_plan_id":"cebpf4jnsgd1na2vs0mg"},{"bike_id":"976fd36e-2f5c-424c-baa8-068b37f1eb42","system_id":"levelo_inurba_marseille","lat":43.27561,"lon":5.3843,"is_reserved":false,"is_disabled":false,"rental_uris":{"android":"levelo://app?vid=976fd36e-2f5c-424c-baa8-068b37f1eb42","ios":"levelo://app?vid=976fd36e-2f5c-424c-baa8-068b37f1eb42"},"vehicle_type_id":"4","last_reported":1758992856,"current_range_meters":16000,"station_id":"ce4bhh92rcd13ifvqfi0","pricing_plan_id":"cebpf4jnsgd1na2vs0mg"},{"bike_id":"dd7819e8-1261-43da-b08d-60c49cd0b04a","system_id":"levelo_inurba_marseille","lat":43.25499,"lon":5.37626,"is_reserved":false,"is_disabled":false,"rental_uris":{"android":"levelo://app?vid=dd7819e8-1261-43da-b08d-60c49cd0b04a","ios":"levelo://app?vid=dd7819e8-1261-43da-b08d-60c49cd0b04a"},"vehicle_type_id":"4","last_reported":1758992856,"current_range_meters":16000,"station_id":"ce4bhh12rcd13ifvqff0","pricing_plan_id":"cebpf4jnsgd1na2vs0mg"},{"bike_id":"6a1c1a9d-0cfb-4a38-bac7-dc0ede41c712","system_id":"levelo_inurba_marseille","lat":43.26943,"lon":5.40248,"is_reserved":false,"is_disabled":false,"rental_uris":{"android":"levelo://app?vid=6a1c1a9d-0cfb-4a38-bac7-dc0ede41c712","ios":"levelo://app?vid=6a1c1a9d-0cfb-4a38-bac7-dc0ede41c712"},"vehicle_type_id":"4","last_reported":1758992856,"current_range_meters":16000,"station_id":"cjm6bp8fraef2m0cb0m0","pricing_plan_id":"cebpf4jnsgd1na2vs0mg"},{"bike_id":"6d98ab21-1faa-4b15-97b2-a1dd6f53a5a7","system_id":"levelo_inurba_marseille","lat":43.27431,"lon":5.39417,"is_reserved":false,"is_disabled":true,"rental_uris":{"android":"levelo://app?vid=6d98ab21-1faa-4b15-97b2-a1dd6f53a5a7","ios":"levelo://app?vid=6d98ab21-1faa-4b15-97b2-a1dd6f53a5a7"},"vehicle_type_id":"4","last_reported":1758992856,"current_range_meters":16000,"station_id":"ce4bhdp2rcd13ifvqf20","pricing_plan_id":"cebpf4jnsgd1na2vs0mg"},{"bike_id":"3105354d-c7fc-4559-8dea-b867ccc508ed","system_id":"levelo_inurba_marseille","lat":43.30872,"lon":5.39628,"is_reserved":false,"is_disabled":false,"rental_uris":{"android":"levelo://app?vid=3105354d-c7fc-4559-8dea-b867ccc508ed","ios":"levelo://app?vid=3105354d-c7fc-4559-8dea-b867ccc508ed"},"vehicle_type_id":"4","last_reported":1758992856,"current_range_meters":16000,"station_id":"ce4bh012rcd13ifvqcv0","pricing_plan_id":"cebpf4jnsgd1na2vs0mg"},{"bike_id":"d66cd03b-dbeb-4aa4-961e-bd97aeefe4a4","system_id":"levelo_inurba_marseille","lat":43.2595,"lon":5.41377,"is_reserved":false,"is_disabled":false,"rental_uris":{"android":"levelo://app?vid=d66cd03b-dbeb-4aa4-961e-bd97aeefe4a4","ios":"levelo://app?vid=d66cd03b-dbeb-4aa4-961e-bd97aeefe4a4"},"vehicle_type_id":"4","last_reported":1758992856,"current_range_meters":16000,"station_id":"","pricing_plan_id":"cebpf4jnsgd1na2vs0mg"},{"bike_id":"d5a7c166-ce48-4907-a923-e74828ac315d","system_id":"levelo_inurba_marseille","lat":43.29032,"lon":5.37552,"is_reserved":false,"is_disabled":false,"rental_uris":{"android":"levelo://app?vid=d5a7c166-ce48-4907-a923-e74828ac315d","ios":"levelo://app?vid=d5a7c166-ce48-4907-a923-e74828ac315d"},"vehicle_type_id":"4","last_reported":1758992856,"current_range_meters":16000,"station_id":"ce4bh692rcd13ifvqe90","pricing_plan_id":"cebpf4jnsgd1na2vs0mg"},{"bike_id":"6946079f-02bd-4cbd-8127-3dc27f013c79","system_id":"levelo_inurba_marseille","lat":43.29504,"lon":5.39096,"is_reserved":false,"is_disabled":false,"rental_uris":{"android":"levelo://app?vid=6946079f-02bd-4cbd-8127-3dc27f013c79","ios":"levelo://app?vid=6946079f-02bd-4cbd-8127-3dc27f013c79"},"vehicle_type_id":"4","last_reported":1758992856,"current_range_meters":16000,"station_id":"ce4bh3p2rcd13ifvqdp0","pricing_plan_id":"cebpf4jnsgd1na2vs0mg"},{"bike_id":"5a1e34a0-14f1-4fb4-8594-84a60af4e24b","system_id":"levelo_inurba_marseille","lat":43.29304,"lon":5.37179,"is_reserved":false,"is_disabled":false,"rental_uris":{"android":"levelo://app?vid=5a1e34a0-14f1-4fb4-8594-84a60af4e24b","ios":"levelo://app?vid=5a1e34a0-14f1-4fb4-8594-84a60af4e24b"},"vehicle_type_id":"4","last_reported":1758992856,"current_range_meters":16000,"station_id":"ce4bgh92rcd13ifvqb40","pricing_plan_id":"cebpf4jnsgd1na2vs0mg"},{"bike_id":"4312b3e8-1993-401e-83fd-68dd194aea8e","system_id":"levelo_inurba_marseille","lat":43.225351,"lon":5.348334,"is_reserved":false,"is_disabled":false,"rental_uris":{"android":"levelo://app?vid=4312b3e8-1993-401e-83fd-68dd194aea8e","ios":"levelo://app?vid=4312b3e8-1993-401e-83fd-68dd194aea8e"},"vehicle_type_id":"4","last_reported":1758992856,"current_range_meters":16400,"station_id":"","pricing_plan_id":"cebpf4jnsgd1na2vs0mg"},{"bike_id":"75a1808b-f036-45a0-9b9e-d8442cdf8f90","system_id":"levelo_inurba_marseille","lat":43.2499,"lon":5.3895,"is_reserved":false,"is_disabled":false,"rental_uris":{"android":"levelo://app?vid=75a1808b-f036-45a0-9b9e-d8442cdf8f90","ios":"levelo://app?vid=75a1808b-f036-45a0-9b9e-d8442cdf8f90"},"vehicle_type_id":"4","last_reported":1758992856,"current_range_meters":16400,"station_id":"ce4bhgp2rcd13ifvqfd0","pricing_plan_id":"cebpf4jnsgd1na2vs0mg"},{"bike_id":"e54b8c9f-4f66-4c52-b603-24745fa68456","system_id":"levelo_inurba_marseille","lat":43.25737,"lon":5.41094,"is_reserved":false,"is_disabled":false,"rental_uris":{"android":"levelo://app?vid=e54b8c9f-4f66-4c52-b603-24745fa68456","ios":"levelo://app?vid=e54b8c9f-4f66-4c52-b603-24745fa68456"},"vehicle_type_id":"4","last_reported":1758992856,"current_range_meters":16400,"station_id":"ce4bhkp2rcd13ifvqgd0","pricing_plan_id":"cebpf4jnsgd1na2vs0mg"},{"bike_id":"101f5c9c-5d90-4f9b-acec-7bcade3e90e0","system_id":"levelo_inurba_marseille","lat":43.249191,"lon":5.375711,"is_reserved":false,"is_disabled":false,"rental_uris":{"android":"levelo://app?vid=101f5c9c-5d90-4f9b-acec-7bcade3e90e0","ios":"levelo://app?vid=101f5c9c-5d90-4f9b-acec-7bcade3e90e0"},"vehicle_type_id":"4","last_reported":1758992856,"current_range_meters":16800,"station_id":"ce4bhgh2rcd13ifvqfb0","pricing_plan_id":"cebpf4jnsgd1na2vs0mg"},{"bike_id":"54fff988-c74f-45fc-a0eb-29489bfa1777","system_id":"levelo_inurba_marseille","lat":43.24651,"lon":5.38882,"is_reserved":false,"is_disabled":false,"rental_uris":{"android":"levelo://app?vid=54fff988-c74f-45fc-a0eb-29489bfa1777","ios":"levelo://app?vid=54fff988-c74f-45fc-a0eb-29489bfa1777"},"vehicle_type_id":"4","last_reported":1758992856,"current_range_meters":16400,"station_id":"ce4bhg12rcd13ifvqf60","pricing_plan_id":"cebpf4jnsgd1na2vs0mg"},{"bike_id":"b219c086-dfbe-4625-9649-9c9028fcc568","system_id":"levelo_inurba_marseille","lat":43.24795,"lon":5.3748,"is_reserved":false,"is_disabled":false,"rental_uris":{"android":"levelo://app?vid=b219c086-dfbe-4625-9649-9c9028fcc568","ios":"levelo://app?vid=b219c086-dfbe-4625-9649-9c9028fcc568"},"vehicle_type_id":"4","last_reported":1758992856,"current_range_meters":16400,"station_id":"ce4bhgh2rcd13ifvqfb0","pricing_plan_id":"cebpf4jnsgd1na2vs0mg"},{"bike_id":"342aa4a8-2613-4079-ad39-b792bb12bc57","system_id":"levelo_inurba_marseille","lat":43.32088,"lon":5.36801,"is_reserved":false,"is_disabled":false,"rental_uris":{"android":"levelo://app?vid=342aa4a8-2613-4079-ad39-b792bb12bc57","ios":"levelo://app?vid=342aa4a8-2613-4079-ad39-b792bb12bc57"},"vehicle_type_id":"4","last_reported":1758992856,"current_range_meters":16400,"station_id":"ce4bhrh2rcd13ifvqhug","pricing_plan_id":"cebpf4jnsgd1na2vs0mg"},{"bike_id":"c081d6ac-5788-49e0-94f1-f96219519e58","system_id":"levelo_inurba_marseille","lat":43.24651,"lon":5.3889,"is_reserved":false,"is_disabled":false,"rental_uris":{"android":"levelo://app?vid=c081d6ac-5788-49e0-94f1-f96219519e58","ios":"levelo://app?vid=c081d6ac-5788-49e0-94f1-f96219519e58"},"vehicle_type_id":"4","last_reported":1758992856,"current_range_meters":16400,"station_id":"ce4bhg12rcd13ifvqf60","pricing_plan_id":"cebpf4jnsgd1na2vs0mg"},{"bike_id":"afb3a0b1-c807-4eff-8fb4-4964910f49c8","system_id":"levelo_inurba_marseille","lat":43.21746,"lon":5.34604,"is_reserved":false,"is_disabled":true,"rental_uris":{"android":"levelo://app?vid=afb3a0b1-c807-4eff-8fb4-4964910f49c8","ios":"levelo://app?vid=afb3a0b1-c807-4eff-8fb4-4964910f49c8"},"vehicle_type_id":"4","last_reported":1758992856,"current_range_meters":16400,"station_id":"","pricing_plan_id":"cebpf4jnsgd1na2vs0mg"},{"bike_id":"c7f04b2e-7c9b-43a1-8dc9-a7fc42c95dfc","system_id":"levelo_inurba_marseille","lat":43.3133,"lon":5.39685,"is_reserved":false,"is_disabled":false,"rental_uris":{"android":"levelo://app?vid=c7f04b2e-7c9b-43a1-8dc9-a7fc42c95dfc","ios":"levelo://app?vid=c7f04b2e-7c9b-43a1-8dc9-a7fc42c95dfc"},"vehicle_type_id":"4","last_reported":1758992856,"current_range_meters":16400,"station_id":"ce4bgvp2rcd13ifvqcu0","pricing_plan_id":"cebpf4jnsgd1na2vs0mg"},{"bike_id":"258ab053-1083-4ca9-a32a-1e85f085fc22","system_id":"levelo_inurba_marseille","lat":43.337444,"lon":5.374475,"is_reserved":false,"is_disabled":false,"rental_uris":{"android":"levelo://app?vid=258ab053-1083-4ca9-a32a-1e85f085fc22","ios":"levelo://app?vid=258ab053-1083-4ca9-a32a-1e85f085fc22"},"vehicle_type_id":"4","last_reported":1758992856,"current_range_meters":16400,"station_id":"","pricing_plan_id":"cebpf4jnsgd1na2vs0mg"},{"bike_id":"f62fe733-90ac-444a-a20a-73d227678ff7","system_id":"levelo_inurba_marseille","lat":43.29625,"lon":5.3772,"is_reserved":false,"is_disabled":true,"rental_uris":{"android":"levelo://app?vid=f62fe733-90ac-444a-a20a-73d227678ff7","ios":"levelo://app?vid=f62fe733-90ac-444a-a20a-73d227678ff7"},"vehicle_type_id":"4","last_reported":1758992856,"current_range_meters":16800,"station_id":"ce4bgi92rcd13ifvqb90","pricing_plan_id":"cebpf4jnsgd1na2vs0mg"},{"bike_id":"95bafeb0-6c7b-407a-a73b-a6569ff5cb66","system_id":"levelo_inurba_marseille","lat":43.33766,"lon":5.37472,"is_reserved":false,"is_disabled":false,"rental_uris":{"android":"levelo://app?vid=95bafeb0-6c7b-407a-a73b-a6569ff5cb66","ios":"levelo://app?vid=95bafeb0-6c7b-407a-a73b-a6569ff5cb66"},"vehicle_type_id":"4","last_reported":1758992856,"current_range_meters":16800,"station_id":"","pricing_plan_id":"cebpf4jnsgd1na2vs0mg"},{"bike_id":"2243febf-ebaf-474b-8e3e-799410e4c867","system_id":"levelo_inurba_marseille","lat":43.3256,"lon":5.36363,"is_reserved":false,"is_disabled":false,"rental_uris":{"android":"levelo://app?vid=2243febf-ebaf-474b-8e3e-799410e4c867","ios":"levelo://app?vid=2243febf-ebaf-474b-8e3e-799410e4c867"},"vehicle_type_id":"4","last_reported":1758992856,"current_range_meters":16800,"station_id":"","pricing_plan_id":"cebpf4jnsgd1na2vs0mg"},{"bike_id":"f4c53ff4-73a4-4134-bb3f-bbf464878afb","system_id":"levelo_inurba_marseille","lat":43.21748,"lon":5.34607,"is_reserved":false,"is_disabled":true,"rental_uris":{"android":"levelo://app?vid=f4c53ff4-73a4-4134-bb3f-bbf464878afb","ios":"levelo://app?vid=f4c53ff4-73a4-4134-bb3f-bbf464878afb"},"vehicle_type_id":"4","last_reported":1758992856,"current_range_meters":16800,"station_id":"st_cvj6r9ubvosntc0bgbag","pricing_plan_id":"cebpf4jnsgd1na2vs0mg"},{"bike_id":"35dadb55-9404-408f-a398-5d5a4297915a","system_id":"levelo_inurba_marseille","lat":43.24998,"lon":5.38936,"is_reserved":false,"is_disabled":false,"rental_uris":{"android":"levelo://app?vid=35dadb55-9404-408f-a398-5d5a4297915a","ios":"levelo://app?vid=35dadb55-9404-408f-a398-5d5a4297915a"},"vehicle_type_id":"4","last_reported":1758992856,"current_range_meters":16400,"station_id":"ce4bhgp2rcd13ifvqfd0","pricing_plan_id":"cebpf4jnsgd1na2vs0mg"},{"bike_id":"33ac03ed-dfbb-4aa1-aee0-f01e22e067d9","system_id":"levelo_inurba_marseille","lat":43.24624,"lon":5.43174,"is_reserved":false,"is_disabled":false,"rental_uris":{"android":"levelo://app?vid=33ac03ed-dfbb-4aa1-aee0-f01e22e067d9","ios":"levelo://app?vid=33ac03ed-dfbb-4aa1-aee0-f01e22e067d9"},"vehicle_type_id":"4","last_reported":1758992856,"current_range_meters":16800,"station_id":"st_d2m6c4gdas8pm72e190g","pricing_plan_id":"cebpf4jnsgd1na2vs0mg"},{"bike_id":"5985a084-2799-4466-8b2a-35092bb9ff30","system_id":"levelo_inurba_marseille","lat":43.28476,"lon":5.38431,"is_reserved":false,"is_disabled":false,"rental_uris":{"android":"levelo://app?vid=5985a084-2799-4466-8b2a-35092bb9ff30","ios":"levelo://app?vid=5985a084-2799-4466-8b2a-35092bb9ff30"},"vehicle_type_id":"4","last_reported":1758992856,"current_range_meters":16800,"station_id":"ce4bh512rcd13ifvqe3g","pricing_plan_id":"cebpf4jnsgd1na2vs0mg"},{"bike_id":"59553313-7730-4043-a884-67b34efd5176","system_id":"levelo_inurba_marseille","lat":43.24072,"lon":5.37762,"is_reserved":false,"is_disabled":false,"rental_uris":{"android":"levelo://app?vid=59553313-7730-4043-a884-67b34efd5176","ios":"levelo://app?vid=59553313-7730-4043-a884-67b34efd5176"},"vehicle_type_id":"4","last_reported":1758992856,"current_range_meters":16800,"station_id":"ce4bhnp2rcd13ifvqgvg","pricing_plan_id":"cebpf4jnsgd1na2vs0mg"},{"bike_id":"91f03681-11bd-4a24-811a-6c09a89c8efe","system_id":"levelo_inurba_marseille","lat":43.24995,"lon":5.38922,"is_reserved":false,"is_disabled":false,"rental_uris":{"android":"levelo://app?vid=91f03681-11bd-4a24-811a-6c09a89c8efe","ios":"levelo://app?vid=91f03681-11bd-4a24-811a-6c09a89c8efe"},"vehicle_type_id":"4","last_reported":1758992856,"current_range_meters":16800,"station_id":"ce4bhgp2rcd13ifvqfd0","pricing_plan_id":"cebpf4jnsgd1na2vs0mg"},{"bike_id":"8ba5e33b-48f1-42b5-a531-76085f7229c8","system_id":"levelo_inurba_marseille","lat":43.24634,"lon":5.4315,"is_reserved":false,"is_disabled":false,"rental_uris":{"android":"levelo://app?vid=8ba5e33b-48f1-42b5-a531-76085f7229c8","ios":"levelo://app?vid=8ba5e33b-48f1-42b5-a531-76085f7229c8"},"vehicle_type_id":"4","last_reported":1758992856,"current_range_meters":16800,"station_id":"st_d2m6c4gdas8pm72e190g","pricing_plan_id":"cebpf4jnsgd1na2vs0mg"},{"bike_id":"5a3c32b9-b454-4269-9b04-7486df23fa7d","system_id":"levelo_inurba_marseille","lat":43.29788,"lon":5.39345,"is_reserved":false,"is_disabled":false,"rental_uris":{"android":"levelo://app?vid=5a3c32b9-b454-4269-9b04-7486df23fa7d","ios":"levelo://app?vid=5a3c32b9-b454-4269-9b04-7486df23fa7d"},"vehicle_type_id":"4","last_reported":1758992856,"current_range_meters":16800,"station_id":"chh1huq6cuj3fo74tm60","pricing_plan_id":"cebpf4jnsgd1na2vs0mg"},{"bike_id":"3b390c71-9079-411e-87a1-dbb5ec86ee04","system_id":"levelo_inurba_marseille","lat":43.299668,"lon":5.384843,"is_reserved":false,"is_disabled":false,"rental_uris":{"android":"levelo://app?vid=3b390c71-9079-411e-87a1-dbb5ec86ee04","ios":"levelo://app?vid=3b390c71-9079-411e-87a1-dbb5ec86ee04"},"vehicle_type_id":"4","last_reported":1758992856,"current_range_meters":16800,"station_id":"ce4bgj92rcd13ifvqbd0","pricing_plan_id":"cebpf4jnsgd1na2vs0mg"},{"bike_id":"4f67c31c-b8bd-4bbf-b108-3b9124abcd6e","system_id":"levelo_inurba_marseille","lat":43.28621,"lon":5.35129,"is_reserved":false,"is_disabled":false,"rental_uris":{"android":"levelo://app?vid=4f67c31c-b8bd-4bbf-b108-3b9124abcd6e","ios":"levelo://app?vid=4f67c31c-b8bd-4bbf-b108-3b9124abcd6e"},"vehicle_type_id":"4","last_reported":1758992856,"current_range_meters":17200,"station_id":"ce4bhch2rcd13ifvqeug","pricing_plan_id":"cebpf4jnsgd1na2vs0mg"},{"bike_id":"2c6518be-b3f0-42d2-93c9-c1de9e54885f","system_id":"levelo_inurba_marseille","lat":43.29227,"lon":5.38219,"is_reserved":false,"is_disabled":false,"rental_uris":{"android":"levelo://app?vid=2c6518be-b3f0-42d2-93c9-c1de9e54885f","ios":"levelo://app?vid=2c6518be-b3f0-42d2-93c9-c1de9e54885f"},"vehicle_type_id":"4","last_reported":1758992856,"current_range_meters":17200,"station_id":"","pricing_plan_id":"cebpf4jnsgd1na2vs0mg"},{"bike_id":"7ac81eae-aed2-4f3f-a100-b35f399befc9","system_id":"levelo_inurba_marseille","lat":43.25103,"lon":5.40336,"is_reserved":false,"is_disabled":false,"rental_uris":{"android":"levelo://app?vid=7ac81eae-aed2-4f3f-a100-b35f399befc9","ios":"levelo://app?vid=7ac81eae-aed2-4f3f-a100-b35f399befc9"},