{"last_updated":1737375425,"ttl":60,"version":"2.2","data":{"bikes":[{"bike_id":"d2ec807b-8552-42be-9ebd-455f939901ca","system_id":"levelo_inurba_marseille","lat":43.29787,"lon":5.38108,"is_reserved":false,"is_disabled":false,"rental_uris":{"android":"levelo://app?vid=d2ec807b-8552-42be-9ebd-455f939901ca","ios":"levelo://app?vid=d2ec807b-8552-42be-9ebd-455f939901ca"},"vehicle_type_id":"4","last_reported":1737375425,"current_range_meters":39200,"station_id":"ce4bgip2rcd13ifvqbb0","pricing_plan_id":"cebpf4jnsgd1na2vs0mg"},{"bike_id":"976d939b-a82d-41e6-abb4-e25496ddb17f","system_id":"levelo_inurba_marseille","lat":43.25934,"lon":5.40949,"is_reserved":false,"is_disabled":false,"rental_uris":{"android":"levelo://app?vid=976d939b-a82d-41e6-abb4-e25496ddb17f","ios":"levelo://app?vid=976d939b-a82d-41e6-abb4-e25496ddb17f"},"vehicle_type_id":"4","last_reported":1737375425,"current_range_meters":28000,"station_id":"ce4bhm92rcd13ifvqglg","pricing_plan_id":"cebpf4jnsgd1na2vs0mg"},{"bike_id":"54699930-2dbc-4d91-ab1b-41cfe810e817","system_id":"levelo_inurba_marseille","lat":43.29182,"lon":5.39397,"is_reserved":false,"is_disabled":true,"rental_uris":{"android":"levelo://app?vid=54699930-2dbc-4d91-ab1b-41cfe810e817","ios":"levelo://app?vid=54699930-2dbc-4d91-ab1b-41cfe810e817"},"vehicle_type_id":"4","last_reported":1737375425,"current_range_meters":0,"station_id":"","pricing_plan_id":"cebpf4jnsgd1na2vs0mg"},{"bike_id":"97895ebf-d09c-4c8b-9e0a-2dc38f2cc398","system_id":"levelo_inurba_marseille","lat":43.25111,"lon":5.40336,"is_reserved":false,"is_disabled":false,"rental_uris":{"android":"levelo://app?vid=97895ebf-d09c-4c8b-9e0a-2dc38f2cc398","ios":"levelo://app?vid=97895ebf-d09c-4c8b-9e0a-2dc38f2cc398"},"vehicle_type_id":"4","last_reported":1737375425,"current_range_meters":33600,"station_id":"ce4bhlh2rcd13ifvqgig","pricing_plan_id":"cebpf4jnsgd1na2vs0mg"},{"bike_id":"26d92998-8ba2-4647-a669-43b8de185c89","system_id":"levelo_inurba_marseille","lat":43.23051,"lon":5.35494,"is_reserved":false,"is_disabled":false,"rental_uris":{"android":"levelo://app?vid=26d92998-8ba2-4647-a669-43b8de185c89","ios":"levelo://app?vid=26d92998-8ba2-4647-a669-43b8de185c89"},"vehicle_type_id":"4","last_reported":1737375425,"current_range_meters":18800,"station_id":"cpo3342slgdg3j2ifvpg","pricing_plan_id":"cebpf4jnsgd1na2vs0mg"},{"bike_id":"fde2972f-10b6-4382-8fdc-8a279f7b4d92","system_id":"levelo_inurba_marseille","lat":43.30135,"lon":5.39883,"is_reserved":false,"is_disabled":false,"rental_uris":{"android":"levelo://app?vid=fde2972f-10b6-4382-8fdc-8a279f7b4d92","ios":"levelo://app?vid=fde2972f-10b6-4382-8fdc-8a279f7b4d92"},"vehicle_type_id":"4","last_reported":1737375425,"current_range_meters":20800,"station_id":"ce4bh0h2rcd13ifvqd40","pricing_plan_id":"cebpf4jnsgd1na2vs0mg"},{"bike_id":"70ac5e43-1a65-4943-bf4c-9459b26a7429","system_id":"levelo_inurba_marseille","lat":43.25721,"lon":5.41107,"is_reserved":false,"is_disabled":false,"rental_uris":{"android":"levelo://app?vid=70ac5e43-1a65-4943-bf4c-9459b26a7429","ios":"levelo://app?vid=70ac5e43-1a65-4943-bf4c-9459b26a7429"},"vehicle_type_id":"4","last_reported":1737375425,"current_range_meters":16400,"station_id":"ce4bhkp2rcd13ifvqgd0","pricing_plan_id":"cebpf4jnsgd1na2vs0mg"},{"bike_id":"eea82476-12c7-44e5-8c88-36b7a00a7d6c","system_id":"levelo_inurba_marseille","lat":43.29038,"lon":5.39987,"is_reserved":false,"is_disabled":false,"rental_uris":{"android":"levelo://app?vid=eea82476-12c7-44e5-8c88-36b7a00a7d6c","ios":"levelo://app?vid=eea82476-12c7-44e5-8c88-36b7a00a7d6c"},"vehicle_type_id":"4","last_reported":1737375425,"current_range_meters":24800,"station_id":"ce4bh392rcd13ifvqdm0","pricing_plan_id":"cebpf4jnsgd1na2vs0mg"},{"bike_id":"89c60171-e7c9-486b-9ccc-9e4795e53faf","system_id":"levelo_inurba_marseille","lat":43.33605,"lon":5.41007,"is_reserved":false,"is_disabled":true,"rental_uris":{"android":"levelo://app?vid=89c60171-e7c9-486b-9ccc-9e4795e53faf","ios":"levelo://app?vid=89c60171-e7c9-486b-9ccc-9e4795e53faf"},"vehicle_type_id":"4","last_reported":1737375425,"current_range_meters":0,"station_id":"ce4bhqh2rcd13ifvqhmg","pricing_plan_id":"cebpf4jnsgd1na2vs0mg"},{"bike_id":"e3d5a69f-7604-4ab5-bfce-dc9cf0dd7b56","system_id":"levelo_inurba_marseille","lat":43.29547,"lon":5.3998,"is_reserved":false,"is_disabled":true,"rental_uris":{"android":"levelo://app?vid=e3d5a69f-7604-4ab5-bfce-dc9cf0dd7b56","ios":"levelo://app?vid=e3d5a69f-7604-4ab5-bfce-dc9cf0dd7b56"},"vehicle_type_id":"4","last_reported":1737375425,"current_range_meters":39200,"station_id":"ce4bh312rcd13ifvqdj0","pricing_plan_id":"cebpf4jnsgd1na2vs0mg"},{"bike_id":"499a4336-a391-4bbb-b69c-e8b928eb108b","system_id":"levelo_inurba_marseille","lat":43.29089,"lon":5.38155,"is_reserved":false,"is_disabled":false,"rental_uris":{"android":"levelo://app?vid=499a4336-a391-4bbb-b69c-e8b928eb108b","ios":"levelo://app?vid=499a4336-a391-4bbb-b69c-e8b928eb108b"},"vehicle_type_id":"4","last_reported":1737375425,"current_range_meters":38800,"station_id":"ce4bh512rcd13ifvqe2g","pricing_plan_id":"cebpf4jnsgd1na2vs0mg"},{"bike_id":"a55ca721-4884-4103-a468-9462758a444e","system_id":"levelo_inurba_marseille","lat":43.2973,"lon":5.36306,"is_reserved":false,"is_disabled":false,"rental_uris":{"android":"levelo://app?vid=a55ca721-4884-4103-a468-9462758a444e","ios":"levelo://app?vid=a55ca721-4884-4103-a468-9462758a444e"},"vehicle_type_id":"4","last_reported":1737375425,"current_range_meters":22000,"station_id":"ce4bgpp2rcd13ifvqc3g","pricing_plan_id":"cebpf4jnsgd1na2vs0mg"},{"bike_id":"9e684055-1014-419f-b942-a47f37584c9c","system_id":"levelo_inurba_marseille","lat":43.26784,"lon":5.39412,"is_reserved":false,"is_disabled":false,"rental_uris":{"android":"levelo://app?vid=9e684055-1014-419f-b942-a47f37584c9c","ios":"levelo://app?vid=9e684055-1014-419f-b942-a47f37584c9c"},"vehicle_type_id":"4","last_reported":1737375425,"current_range_meters":28400,"station_id":"ce4bhh12rcd13ifvqfg0","pricing_plan_id":"cebpf4jnsgd1na2vs0mg"},{"bike_id":"cb6acc65-5525-40d4-bab1-4ad8f3a7aa53","system_id":"levelo_inurba_marseille","lat":43.27313,"lon":5.39083,"is_reserved":false,"is_disabled":false,"rental_uris":{"android":"levelo://app?vid=cb6acc65-5525-40d4-bab1-4ad8f3a7aa53","ios":"levelo://app?vid=cb6acc65-5525-40d4-bab1-4ad8f3a7aa53"},"vehicle_type_id":"4","last_reported":1737375425,"current_range_meters":39200,"station_id":"ce4bhgp2rcd13ifvqfe0","pricing_plan_id":"cebpf4jnsgd1na2vs0mg"},{"bike_id":"763ed4fc-16fd-47a0-aedf-62c028daa66f","system_id":"levelo_inurba_marseille","lat":43.36395,"lon":5.35588,"is_reserved":false,"is_disabled":false,"rental_uris":{"android":"levelo://app?vid=763ed4fc-16fd-47a0-aedf-62c028daa66f","ios":"levelo://app?vid=763ed4fc-16fd-47a0-aedf-62c028daa66f"},"vehicle_type_id":"4","last_reported":1737375425,"current_range_meters":9200,"station_id":"","pricing_plan_id":"cebpf4jnsgd1na2vs0mg"},{"bike_id":"54e47bbf-d358-4fc6-9623-23d2eb6b92a9","system_id":"levelo_inurba_marseille","lat":43.276747,"lon":5.388474,"is_reserved":false,"is_disabled":true,"rental_uris":{"android":"levelo://app?vid=54e47bbf-d358-4fc6-9623-23d2eb6b92a9","ios":"levelo://app?vid=54e47bbf-d358-4fc6-9623-23d2eb6b92a9"},"vehicle_type_id":"4","last_reported":1737375425,"current_range_meters":17200,"station_id":"","pricing_plan_id":"cebpf4jnsgd1na2vs0mg"},{"bike_id":"a2771881-b956-4a9a-9bc9-a89642d437c9","system_id":"levelo_inurba_marseille","lat":43.23204,"lon":5.35555,"is_reserved":false,"is_disabled":false,"rental_uris":{"android":"levelo://app?vid=a2771881-b956-4a9a-9bc9-a89642d437c9","ios":"levelo://app?vid=a2771881-b956-4a9a-9bc9-a89642d437c9"},"vehicle_type_id":"4","last_reported":1737375425,"current_range_meters":38000,"station_id":"ce4bhu92rcd13ifvqi70","pricing_plan_id":"cebpf4jnsgd1na2vs0mg"},{"bike_id":"3b26ab37-3b51-49df-bcb5-b23c8b5b2a76","system_id":"levelo_inurba_marseille","lat":43.32098,"lon":5.36772,"is_reserved":false,"is_disabled":false,"rental_uris":{"android":"levelo://app?vid=3b26ab37-3b51-49df-bcb5-b23c8b5b2a76","ios":"levelo://app?vid=3b26ab37-3b51-49df-bcb5-b23c8b5b2a76"},"vehicle_type_id":"4","last_reported":1737375425,"current_range_meters":18000,"station_id":"ce4bhrh2rcd13ifvqhug","pricing_plan_id":"cebpf4jnsgd1na2vs0mg"},{"bike_id":"f2ff15d0-45fd-4ef4-97fc-2ed5432ce3c6","system_id":"levelo_inurba_marseille","lat":43.28849,"lon":5.39317,"is_reserved":false,"is_disabled":false,"rental_uris":{"android":"levelo://app?vid=f2ff15d0-45fd-4ef4-97fc-2ed5432ce3c6","ios":"levelo://app?vid=f2ff15d0-45fd-4ef4-97fc-2ed5432ce3c6"},"vehicle_type_id":"4","last_reported":1737375425,"current_range_meters":6800,"station_id":"ce4bh2p2rcd13ifvqdi0","pricing_plan_id":"cebpf4jnsgd1na2vs0mg"},{"bike_id":"f3c94274-f861-4c89-8bb1-1ebe1a531935","system_id":"levelo_inurba_marseille","lat":43.24997,"lon":5.38922,"is_reserved":false,"is_disabled":false,"rental_uris":{"android":"levelo://app?vid=f3c94274-f861-4c89-8bb1-1ebe1a531935","ios":"levelo://app?vid=f3c94274-f861-4c89-8bb1-1ebe1a531935"},"vehicle_type_id":"4","last_reported":1737375425,"current_range_meters":34800,"station_id":"ce4bhgp2rcd13ifvqfd0","pricing_plan_id":"cebpf4jnsgd1na2vs0mg"},{"bike_id":"fb86402b-4e54-46af-beab-fa4078efd67c","system_id":"levelo_inurba_marseille","lat":43.30578,"lon":5.36534,"is_reserved":false,"is_disabled":false,"rental_uris":{"android":"levelo://app?vid=fb86402b-4e54-46af-beab-fa4078efd67c","ios":"levelo://app?vid=fb86402b-4e54-46af-beab-fa4078efd67c"},"vehicle_type_id":"4","last_reported":1737375425,"current_range_meters":30400,"station_id":"ce4bgs12rcd13ifvqcag","pricing_plan_id":"cebpf4jnsgd1na2vs0mg"},{"bike_id":"ea820ade-d81d-428e-82b9-7f165f7e8e75","system_id":"levelo_inurba_marseille","lat":43.323611,"lon":5.367584,"is_reserved":false,"is_disabled":false,"rental_uris":{"android":"levelo://app?vid=ea820ade-d81d-428e-82b9-7f165f7e8e75","ios":"levelo://app?vid=ea820ade-d81d-428e-82b9-7f165f7e8e75"},"vehicle_type_id":"4","last_reported":1737375425,"current_range_meters":10800,"station_id":"ce4bhsh2rcd13ifvqi2g","pricing_plan_id":"cebpf4jnsgd1na2vs0mg"},{"bike_id":"bb370303-4a32-4398-91b6-3fea00dc1f78","system_id":"levelo_inurba_marseille","lat":43.30956,"lon":5.39034,"is_reserved":false,"is_disabled":false,"rental_uris":{"android":"levelo://app?vid=bb370303-4a32-4398-91b6-3fea00dc1f78","ios":"levelo://app?vid=bb370303-4a32-4398-91b6-3fea00dc1f78"},"vehicle_type_id":"4","last_reported":1737375425,"current_range_meters":38400,"station_id":"ce4bgup2rcd13ifvqco0","pricing_plan_id":"cebpf4jnsgd1na2vs0mg"},{"bike_id":"c29020e0-83ef-4b06-ac4f-c4422257f84a","system_id":"levelo_inurba_marseille","lat":43.36394,"lon":5.35599,"is_reserved":false,"is_disabled":false,"rental_uris":{"android":"levelo://app?vid=c29020e0-83ef-4b06-ac4f-c4422257f84a","ios":"levelo://app?vid=c29020e0-83ef-4b06-ac4f-c4422257f84a"},"vehicle_type_id":"4","last_reported":1737375425,"current_range_meters":14000,"station_id":"","pricing_plan_id":"cebpf4jnsgd1na2vs0mg"},{"bike_id":"fbc9fbdc-44d5-477b-bfc5-9890b7fe1b8f","system_id":"levelo_inurba_marseille","lat":43.2707,"lon":5.42285,"is_reserved":false,"is_disabled":false,"rental_uris":{"android":"levelo://app?vid=fbc9fbdc-44d5-477b-bfc5-9890b7fe1b8f","ios":"levelo://app?vid=fbc9fbdc-44d5-477b-bfc5-9890b7fe1b8f"},"vehicle_type_id":"4","last_reported":1737375425,"current_range_meters":30800,"station_id":"ce4bhk92rcd13ifvqgb0","pricing_plan_id":"cebpf4jnsgd1na2vs0mg"},{"bike_id":"3adb8b1c-6b21-4cd2-804f-a772410a62c7","system_id":"levelo_inurba_marseille","lat":43.27426,"lon":5.39419,"is_reserved":false,"is_disabled":false,"rental_uris":{"android":"levelo://app?vid=3adb8b1c-6b21-4cd2-804f-a772410a62c7","ios":"levelo://app?vid=3adb8b1c-6b21-4cd2-804f-a772410a62c7"},"vehicle_type_id":"4","last_reported":1737375425,"current_range_meters":33600,"station_id":"ce4bhdp2rcd13ifvqf20","pricing_plan_id":"cebpf4jnsgd1na2vs0mg"},{"bike_id":"2134fa96-3287-49a0-8c4d-ce46e95d9fc9","system_id":"levelo_inurba_marseille","lat":43.25934,"lon":5.409065,"is_reserved":false,"is_disabled":false,"rental_uris":{"android":"levelo://app?vid=2134fa96-3287-49a0-8c4d-ce46e95d9fc9","ios":"levelo://app?vid=2134fa96-3287-49a0-8c4d-ce46e95d9fc9"},"vehicle_type_id":"4","last_reported":1737375425,"current_range_meters":29600,"station_id":"ce4bhm92rcd13ifvqglg","pricing_plan_id":"cebpf4jnsgd1na2vs0mg"},{"bike_id":"6bf5bd29-3e54-437a-9020-86384919dc04","system_id":"levelo_inurba_marseille","lat":43.32271,"lon":5.38301,"is_reserved":false,"is_disabled":false,"rental_uris":{"android":"levelo://app?vid=6bf5bd29-3e54-437a-9020-86384919dc04","ios":"levelo://app?vid=6bf5bd29-3e54-437a-9020-86384919dc04"},"vehicle_type_id":"4","last_reported":1737375425,"current_range_meters":38800,"station_id":"ce4bhr12rcd13ifvqhqg","pricing_plan_id":"cebpf4jnsgd1na2vs0mg"},{"bike_id":"c26bb43c-9a6f-4633-a114-b1704b400a4e","system_id":"levelo_inurba_marseille","lat":43.28043,"lon":5.36942,"is_reserved":false,"is_disabled":false,"rental_uris":{"android":"levelo://app?vid=c26bb43c-9a6f-4633-a114-b1704b400a4e","ios":"levelo://app?vid=c26bb43c-9a6f-4633-a114-b1704b400a4e"},"vehicle_type_id":"4","last_reported":1737375425,"current_range_meters":30400,"station_id":"ce4bha12rcd13ifvqef0","pricing_plan_id":"cebpf4jnsgd1na2vs0mg"},{"bike_id":"cc9c7977-0b7b-496b-8da8-be6e92cdaf91","system_id":"levelo_inurba_marseille","lat":43.26554,"lon":5.37288,"is_reserved":false,"is_disabled":false,"rental_uris":{"android":"levelo://app?vid=cc9c7977-0b7b-496b-8da8-be6e92cdaf91","ios":"levelo://app?vid=cc9c7977-0b7b-496b-8da8-be6e92cdaf91"},"vehicle_type_id":"4","last_reported":1737375425,"current_range_meters":24000,"station_id":"ce4bhg12rcd13ifvqf70","pricing_plan_id":"cebpf4jnsgd1na2vs0mg"},{"bike_id":"04e7f6b2-1170-476d-8eb7-54bc6ab7d23c","system_id":"levelo_inurba_marseille","lat":43.243896,"lon":5.370576,"is_reserved":false,"is_disabled":false,"rental_uris":{"android":"levelo://app?vid=04e7f6b2-1170-476d-8eb7-54bc6ab7d23c","ios":"levelo://app?vid=04e7f6b2-1170-476d-8eb7-54bc6ab7d23c"},"vehicle_type_id":"4","last_reported":1737375425,"current_range_meters":34000,"station_id":"ce4bhhh2rcd13ifvqfk0","pricing_plan_id":"cebpf4jnsgd1na2vs0mg"},{"bike_id":"4dba7bd6-c52d-4d95-aa78-18c218c84ca6","system_id":"levelo_inurba_marseille","lat":43.272095,"lon":5.391808,"is_reserved":false,"is_disabled":false,"rental_uris":{"android":"levelo://app?vid=4dba7bd6-c52d-4d95-aa78-18c218c84ca6","ios":"levelo://app?vid=4dba7bd6-c52d-4d95-aa78-18c218c84ca6"},"vehicle_type_id":"4","last_reported":1737375425,"current_range_meters":7200,"station_id":"ce4bhhp2rcd13ifvqfm0","pricing_plan_id":"cebpf4jnsgd1na2vs0mg"},{"bike_id":"98c1d16b-6b2e-42fc-9091-c80c2614bdd1","system_id":"levelo_inurba_marseille","lat":43.28151,"lon":5.42649,"is_reserved":false,"is_disabled":false,"rental_uris":{"android":"levelo://app?vid=98c1d16b-6b2e-42fc-9091-c80c2614bdd1","ios":"levelo://app?vid=98c1d16b-6b2e-42fc-9091-c80c2614bdd1"},"vehicle_type_id":"4","last_reported":1737375425,"current_range_meters":8000,"station_id":"ce4bhnh2rcd13ifvqgug","pricing_plan_id":"cebpf4jnsgd1na2vs0mg"},{"bike_id":"bee473c1-b4bb-40f3-b08c-263326dc4a80","system_id":"levelo_inurba_marseille","lat":43.3133,"lon":5.39691,"is_reserved":false,"is_disabled":false,"rental_uris":{"android":"levelo://app?vid=bee473c1-b4bb-40f3-b08c-263326dc4a80","ios":"levelo://app?vid=bee473c1-b4bb-40f3-b08c-263326dc4a80"},"vehicle_type_id":"4","last_reported":1737375425,"current_range_meters":21600,"station_id":"ce4bgvp2rcd13ifvqcu0","pricing_plan_id":"cebpf4jnsgd1na2vs0mg"},{"bike_id":"c8fe6bd0-5be5-4ede-8e98-69d8c19fd7cf","system_id":"levelo_inurba_marseille","lat":43.23153,"lon":5.43723,"is_reserved":false,"is_disabled":false,"rental_uris":{"android":"levelo://app?vid=c8fe6bd0-5be5-4ede-8e98-69d8c19fd7cf","ios":"levelo://app?vid=c8fe6bd0-5be5-4ede-8e98-69d8c19fd7cf"},"vehicle_type_id":"4","last_reported":1737375425,"current_range_meters":38800,"station_id":"ce4bhmp2rcd13ifvqgog","pricing_plan_id":"cebpf4jnsgd1na2vs0mg"},{"bike_id":"57b0e606-8fdf-401d-8223-87c7978ca31e","system_id":"levelo_inurba_marseille","lat":43.26225,"lon":5.40461,"is_reserved":false,"is_disabled":false,"rental_uris":{"android":"levelo://app?vid=57b0e606-8fdf-401d-8223-87c7978ca31e","ios":"levelo://app?vid=57b0e606-8fdf-401d-8223-87c7978ca31e"},"vehicle_type_id":"4","last_reported":1737375425,"current_range_meters":30800,"station_id":"","pricing_plan_id":"cebpf4jnsgd1na2vs0mg"},{"bike_id":"d6dda788-2ee0-45e5-a6fd-f8b98f248df1","system_id":"levelo_inurba_marseille","lat":43.2316,"lon":5.4372,"is_reserved":false,"is_disabled":false,"rental_uris":{"android":"levelo://app?vid=d6dda788-2ee0-45e5-a6fd-f8b98f248df1","ios":"levelo://app?vid=d6dda788-2ee0-45e5-a6fd-f8b98f248df1"},"vehicle_type_id":"4","last_reported":1737375425,"current_range_meters":39200,"station_id":"ce4bhmp2rcd13ifvqgog","pricing_plan_id":"cebpf4jnsgd1na2vs0mg"},{"bike_id":"65a86908-3f3c-443c-bf72-fc852a079ec2","system_id":"levelo_inurba_marseille","lat":43.30125,"lon":5.3879,"is_reserved":false,"is_disabled":false,"rental_uris":{"android":"levelo://app?vid=65a86908-3f3c-443c-bf72-fc852a079ec2","ios":"levelo://app?vid=65a86908-3f3c-443c-bf72-fc852a079ec2"},"vehicle_type_id":"4","last_reported":1737375425,"current_range_meters":21600,"station_id":"ce4bghh2rcd13ifvqb60","pricing_plan_id":"cebpf4jnsgd1na2vs0mg"},{"bike_id":"54faa076-f87a-449b-9aaf-c46a9bd845cd","system_id":"levelo_inurba_marseille","lat":43.28759,"lon":5.37935,"is_reserved":false,"is_disabled":false,"rental_uris":{"android":"levelo://app?vid=54faa076-f87a-449b-9aaf-c46a9bd845cd","ios":"levelo://app?vid=54faa076-f87a-449b-9aaf-c46a9bd845cd"},"vehicle_type_id":"4","last_reported":1737375425,"current_range_meters":34000,"station_id":"","pricing_plan_id":"cebpf4jnsgd1na2vs0mg"},{"bike_id":"afe1430a-f5d9-47c6-9b1e-7309b885f552","system_id":"levelo_inurba_marseille","lat":43.31328,"lon":5.39703,"is_reserved":false,"is_disabled":false,"rental_uris":{"android":"levelo://app?vid=afe1430a-f5d9-47c6-9b1e-7309b885f552","ios":"levelo://app?vid=afe1430a-f5d9-47c6-9b1e-7309b885f552"},"vehicle_type_id":"4","last_reported":1737375425,"current_range_meters":38800,"station_id":"ce4bgvp2rcd13ifvqcu0","pricing_plan_id":"cebpf4jnsgd1na2vs0mg"},{"bike_id":"0fc5fdc3-8ada-4230-a1ac-e56e275f647e","system_id":"levelo_inurba_marseille","lat":43.29029,"lon":5.38645,"is_reserved":false,"is_disabled":false,"rental_uris":{"android":"levelo://app?vid=0fc5fdc3-8ada-4230-a1ac-e56e275f647e","ios":"levelo://app?vid=0fc5fdc3-8ada-4230-a1ac-e56e275f647e"},"vehicle_type_id":"4","last_reported":1737375425,"current_range_meters":13600,"station_id":"ce4bh4p2rcd13ifvqe0g","pricing_plan_id":"cebpf4jnsgd1na2vs0mg"},{"bike_id":"c0ca7781-c364-4c57-8944-068415c5e26a","system_id":"levelo_inurba_marseille","lat":43.3053,"lon":5.36732,"is_reserved":false,"is_disabled":false,"rental_uris":{"android":"levelo://app?vid=c0ca7781-c364-4c57-8944-068415c5e26a","ios":"levelo://app?vid=c0ca7781-c364-4c57-8944-068415c5e26a"},"vehicle_type_id":"4","last_reported":1737375425,"current_range_meters":8400,"station_id":"ce4bgrp2rcd13ifvqc9g","pricing_plan_id":"cebpf4jnsgd1na2vs0mg"},{"bike_id":"0c0a37e5-044f-498b-b68f-b13ea4f758bf","system_id":"levelo_inurba_marseille","lat":43.31503,"lon":5.37301,"is_reserved":false,"is_disabled":true,"rental_uris":{"android":"levelo://app?vid=0c0a37e5-044f-498b-b68f-b13ea4f758bf","ios":"levelo://app?vid=0c0a37e5-044f-498b-b68f-b13ea4f758bf"},"vehicle_type_id":"4","last_reported":1737375425,"current_range_meters":33600,"station_id":"ce4bgt12rcd13ifvqcd0","pricing_plan_id":"cebpf4jnsgd1na2vs0mg"},{"bike_id":"16e326cc-aec7-4931-9dbd-430f76563d53","system_id":"levelo_inurba_marseille","lat":43.28079,"lon":5.39669,"is_reserved":false,"is_disabled":false,"rental_uris":{"android":"levelo://app?vid=16e326cc-aec7-4931-9dbd-430f76563d53","ios":"levelo://app?vid=16e326cc-aec7-4931-9dbd-430f76563d53"},"vehicle_type_id":"4","last_reported":1737375425,"current_range_meters":25200,"station_id":"ce4bho12rcd13ifvqh2g","pricing_plan_id":"cebpf4jnsgd1na2vs0mg"},{"bike_id":"4c94e7dd-843d-4b17-9f54-8188cb403a48","system_id":"levelo_inurba_marseille","lat":43.28924,"lon":5.38401,"is_reserved":false,"is_disabled":false,"rental_uris":{"android":"levelo://app?vid=4c94e7dd-843d-4b17-9f54-8188cb403a48","ios":"levelo://app?vid=4c94e7dd-843d-4b17-9f54-8188cb403a48"},"vehicle_type_id":"4","last_reported":1737375425,"current_range_meters":22800,"station_id":"ce4bh612rcd13ifvqe6g","pricing_plan_id":"cebpf4jnsgd1na2vs0mg"},{"bike_id":"3860f79b-6390-4baa-9962-103869425bc6","system_id":"levelo_inurba_marseille","lat":43.29901,"lon":5.43688,"is_reserved":false,"is_disabled":false,"rental_uris":{"android":"levelo://app?vid=3860f79b-6390-4baa-9962-103869425bc6","ios":"levelo://app?vid=3860f79b-6390-4baa-9962-103869425bc6"},"vehicle_type_id":"4","last_reported":1737375425,"current_range_meters":17600,"station_id":"ce4bhpp2rcd13ifvqhfg","pricing_plan_id":"cebpf4jnsgd1na2vs0mg"},{"bike_id":"22eeec66-b5f0-4aaa-8072-03a4d2659429","system_id":"levelo_inurba_marseille","lat":43.30538,"lon":5.3843,"is_reserved":false,"is_disabled":false,"rental_uris":{"android":"levelo://app?vid=22eeec66-b5f0-4aaa-8072-03a4d2659429","ios":"levelo://app?vid=22eeec66-b5f0-4aaa-8072-03a4d2659429"},"vehicle_type_id":"4","last_reported":1737375425,"current_range_meters":39200,"station_id":"ce4bgg92rcd13ifvqb30","pricing_plan_id":"cebpf4jnsgd1na2vs0mg"},{"bike_id":"ffb78305-7254-49d5-91ac-d66e39094b97","system_id":"levelo_inurba_marseille","lat":43.29904,"lon":5.3747,"is_reserved":false,"is_disabled":false,"rental_uris":{"android":"levelo://app?vid=ffb78305-7254-49d5-91ac-d66e39094b97","ios":"levelo://app?vid=ffb78305-7254-49d5-91ac-d66e39094b97"},"vehicle_type_id":"4","last_reported":1737375425,"current_range_meters":39200,"station_id":"ce4bgjh2rcd13ifvqbg0","pricing_plan_id":"cebpf4jnsgd1na2vs0mg"},{"bike_id":"ca8aa51d-4833-4c77-8009-59b7c07323a3","system_id":"levelo_inurba_marseille","lat":43.323634,"lon":5.367595,"is_reserved":false,"is_disabled":false,"rental_uris":{"android":"levelo://app?vid=ca8aa51d-4833-4c77-8009-59b7c07323a3","ios":"levelo://app?vid=ca8aa51d-4833-4c77-8009-59b7c07323a3"},"vehicle_type_id":"4","last_reported":1737375425,"current_range_meters":32400,"station_id":"ce4bhsh2rcd13ifvqi2g","pricing_plan_id":"cebpf4jnsgd1na2vs0mg"},{"bike_id":"9abe4455-8431-4558-8269-cd3b3335cf98","system_id":"levelo_inurba_marseille","lat":43.28479,"lon":5.38422,"is_reserved":false,"is_disabled":false,"rental_uris":{"android":"levelo://app?vid=9abe4455-8431-4558-8269-cd3b3335cf98","ios":"levelo://app?vid=9abe4455-8431-4558-8269-cd3b3335cf98"},"vehicle_type_id":"4","last_reported":1737375425,"current_range_meters":36000,"station_id":"ce4bh512rcd13ifvqe3g","pricing_plan_id":"cebpf4jnsgd1na2vs0mg"},{"bike_id":"b2eb5e4d-22a0-4f9e-8a89-51bd832bc768","system_id":"levelo_inurba_marseille","lat":43.30925,"lon":5.39065,"is_reserved":false,"is_disabled":false,"rental_uris":{"android":"levelo://app?vid=b2eb5e4d-22a0-4f9e-8a89-51bd832bc768","ios":"levelo://app?vid=b2eb5e4d-22a0-4f9e-8a89-51bd832bc768"},"vehicle_type_id":"4","last_reported":1737375425,"current_range_meters":29600,"station_id":"ce4bgup2rcd13ifvqco0","pricing_plan_id":"cebpf4jnsgd1na2vs0mg"},{"bike_id":"126d5e66-0382-4642-876c-130196f28001","system_id":"levelo_inurba_marseille","lat":43.28422,"lon":5.3498,"is_reserved":false,"is_disabled":false,"rental_uris":{"android":"levelo://app?vid=126d5e66-0382-4642-876c-130196f28001","ios":"levelo://app?vid=126d5e66-0382-4642-876c-130196f28001"},"vehicle_type_id":"4","last_reported":1737375425,"current_range_meters":30000,"station_id":"ce4bhbh2rcd13ifvqepg","pricing_plan_id":"cebpf4jnsgd1na2vs0mg"},{"bike_id":"0010417c-6792-4bf5-9666-6315478f84ce","system_id":"levelo_inurba_marseille","lat":43.3028,"lon":5.37721,"is_reserved":false,"is_disabled":false,"rental_uris":{"android":"levelo://app?vid=0010417c-6792-4bf5-9666-6315478f84ce","ios":"levelo://app?vid=0010417c-6792-4bf5-9666-6315478f84ce"},"vehicle_type_id":"4","last_reported":1737375425,"current_range_meters":33600,"station_id":"ce4bguh2rcd13ifvqcj0","pricing_plan_id":"cebpf4jnsgd1na2vs0mg"},{"bike_id":"49edd341-1744-445c-b1f6-ec80c4f617c5","system_id":"levelo_inurba_marseille","lat":43.27075,"lon":5.42273,"is_reserved":false,"is_disabled":false,"rental_uris":{"android":"levelo://app?vid=49edd341-1744-445c-b1f6-ec80c4f617c5","ios":"levelo://app?vid=49edd341-1744-445c-b1f6-ec80c4f617c5"},"vehicle_type_id":"4","last_reported":1737375425,"current_range_meters":38800,"station_id":"ce4bhk92rcd13ifvqgb0","pricing_plan_id":"cebpf4jnsgd1na2vs0mg"},{"bike_id":"51379e9f-1ebd-43ee-bd84-6927ab606473","system_id":"levelo_inurba_marseille","lat":43.24169,"lon":5.36417,"is_reserved":false,"is_disabled":false,"rental_uris":{"android":"levelo://app?vid=51379e9f-1ebd-43ee-bd84-6927ab606473","ios":"levelo://app?vid=51379e9f-1ebd-43ee-bd84-6927ab606473"},"vehicle_type_id":"4","last_reported":1737375425,"current_range_meters":22800,"station_id":"cpo36qri1sfpv3e86is0","pricing_plan_id":"cebpf4jnsgd1na2vs0mg"},{"bike_id":"57d9fa47-e597-4ea4-913f-9b45079bd718","system_id":"levelo_inurba_marseille","lat":43.3303,"lon":5.39042,"is_reserved":false,"is_disabled":false,"rental_uris":{"android":"levelo://app?vid=57d9fa47-e597-4ea4-913f-9b45079bd718","ios":"levelo://app?vid=57d9fa47-e597-4ea4-913f-9b45079bd718"},"vehicle_type_id":"4","last_reported":1737375425,"current_range_meters":39200,"station_id":"ce4bhr92rcd13ifvqhrg","pricing_plan_id":"cebpf4jnsgd1na2vs0mg"},{"bike_id":"a6817152-9db4-45be-84b1-a30b6bbc47cf","system_id":"levelo_inurba_marseille","lat":43.24165,"lon":5.39743,"is_reserved":false,"is_disabled":false,"rental_uris":{"android":"levelo://app?vid=a6817152-9db4-45be-84b1-a30b6bbc47cf","ios":"levelo://app?vid=a6817152-9db4-45be-84b1-a30b6bbc47cf"},"vehicle_type_id":"4","last_reported":1737375425,"current_range_meters":38800,"station_id":"ce4bhn12rcd13ifvqgpg","pricing_plan_id":"cebpf4jnsgd1na2vs0mg"},{"bike_id":"d7b57092-5089-4c4a-819e-bef9772d11d8","system_id":"levelo_inurba_marseille","lat":43.31793,"lon":5.37825,"is_reserved":false,"is_disabled":false,"rental_uris":{"android":"levelo://app?vid=d7b57092-5089-4c4a-819e-bef9772d11d8","ios":"levelo://app?vid=d7b57092-5089-4c4a-819e-bef9772d11d8"},"vehicle_type_id":"4","last_reported":1737375425,"current_range_meters":28400,"station_id":"","pricing_plan_id":"cebpf4jnsgd1na2vs0mg"},{"bike_id":"f8285391-65c7-4933-97c9-1a73bc9cdc8d","system_id":"levelo_inurba_marseille","lat":43.2816,"lon":5.42669,"is_reserved":false,"is_disabled":false,"rental_uris":{"android":"levelo://app?vid=f8285391-65c7-4933-97c9-1a73bc9cdc8d","ios":"levelo://app?vid=f8285391-65c7-4933-97c9-1a73bc9cdc8d"},"vehicle_type_id":"4","last_reported":1737375425,"current_range_meters":38800,"station_id":"ce4bhnh2rcd13ifvqgug","pricing_plan_id":"cebpf4jnsgd1na2vs0mg"},{"bike_id":"970eacc2-5e8f-4753-aa3e-5d8cafb72393","system_id":"levelo_inurba_marseille","lat":43.2593,"lon":5.40899,"is_reserved":false,"is_disabled":false,"rental_uris":{"android":"levelo://app?vid=970eacc2-5e8f-4753-aa3e-5d8cafb72393","ios":"levelo://app?vid=970eacc2-5e8f-4753-aa3e-5d8cafb72393"},"vehicle_type_id":"4","last_reported":1737375425,"current_range_meters":32000,"station_id":"ce4bhm92rcd13ifvqglg","pricing_plan_id":"cebpf4jnsgd1na2vs0mg"},{"bike_id":"ae35589b-d85c-4f9a-b98c-9bc44748a230","system_id":"levelo_inurba_marseille","lat":43.25732,"lon":5.41136,"is_reserved":false,"is_disabled":false,"rental_uris":{"android":"levelo://app?vid=ae35589b-d85c-4f9a-b98c-9bc44748a230","ios":"levelo://app?vid=ae35589b-d85c-4f9a-b98c-9bc44748a230"},"vehicle_type_id":"4","last_reported":1737375425,"current_range_meters":16000,"station_id":"ce4bhkp2rcd13ifvqgd0","pricing_plan_id":"cebpf4jnsgd1na2vs0mg"},{"bike_id":"4104cbba-088f-4383-b2a0-261d17699731","system_id":"levelo_inurba_marseille","lat":43.23964,"lon":5.36636,"is_reserved":false,"is_disabled":false,"rental_uris":{"android":"levelo://app?vid=4104cbba-088f-4383-b2a0-261d17699731","ios":"levelo://app?vid=4104cbba-088f-4383-b2a0-261d17699731"},"vehicle_type_id":"4","last_reported":1737375425,"current_range_meters":32400,"station_id":"ce4bhi12rcd13ifvqfp0","pricing_plan_id":"cebpf4jnsgd1na2vs0mg"},{"bike_id":"7be810f6-d21f-44ca-8f08-d9a4a9e1b082","system_id":"levelo_inurba_marseille","lat":43.32368,"lon":5.36776,"is_reserved":false,"is_disabled":false,"rental_uris":{"android":"levelo://app?vid=7be810f6-d21f-44ca-8f08-d9a4a9e1b082","ios":"levelo://app?vid=7be810f6-d21f-44ca-8f08-d9a4a9e1b082"},"vehicle_type_id":"4","last_reported":1737375425,"current_range_meters":10800,"station_id":"ce4bhsh2rcd13ifvqi2g","pricing_plan_id":"cebpf4jnsgd1na2vs0mg"},{"bike_id":"aa0542ca-3416-4442-9938-3e69c1b81a79","system_id":"levelo_inurba_marseille","lat":43.29975,"lon":5.3849,"is_reserved":false,"is_disabled":false,"rental_uris":{"android":"levelo://app?vid=aa0542ca-3416-4442-9938-3e69c1b81a79","ios":"levelo://app?vid=aa0542ca-3416-4442-9938-3e69c1b81a79"},"vehicle_type_id":"4","last_reported":1737375425,"current_range_meters":38000,"station_id":"ce4bgj92rcd13ifvqbd0","pricing_plan_id":"cebpf4jnsgd1na2vs0mg"},{"bike_id":"e769477c-b503-4bb8-b7d3-b7f7ff9ddf2d","system_id":"levelo_inurba_marseille","lat":43.29202,"lon":5.36903,"is_reserved":false,"is_disabled":false,"rental_uris":{"android":"levelo://app?vid=e769477c-b503-4bb8-b7d3-b7f7ff9ddf2d","ios":"levelo://app?vid=e769477c-b503-4bb8-b7d3-b7f7ff9ddf2d"},"vehicle_type_id":"4","last_reported":1737375425,"current_range_meters":16000,"station_id":"","pricing_plan_id":"cebpf4jnsgd1na2vs0mg"},{"bike_id":"87f748ae-200c-46f9-a87e-58da3bbaecae","system_id":"levelo_inurba_marseille","lat":43.3341,"lon":5.42964,"is_reserved":false,"is_disabled":false,"rental_uris":{"android":"levelo://app?vid=87f748ae-200c-46f9-a87e-58da3bbaecae","ios":"levelo://app?vid=87f748ae-200c-46f9-a87e-58da3bbaecae"},"vehicle_type_id":"4","last_reported":1737375425,"current_range_meters":22800,"station_id":"","pricing_plan_id":"cebpf4jnsgd1na2vs0mg"},{"bike_id":"28ef1c1e-dd89-43e8-817b-9b489831397b","system_id":"levelo_inurba_marseille","lat":43.27104,"lon":5.39617,"is_reserved":false,"is_disabled":true,"rental_uris":{"android":"levelo://app?vid=28ef1c1e-dd89-43e8-817b-9b489831397b","ios":"levelo://app?vid=28ef1c1e-dd89-43e8-817b-9b489831397b"},"vehicle_type_id":"4","last_reported":1737375425,"current_range_meters":0,"station_id":"","pricing_plan_id":"cebpf4jnsgd1na2vs0mg"},{"bike_id":"a090d58d-a1fb-4921-bd15-f1d1e2db9ea4","system_id":"levelo_inurba_marseille","lat":43.24171,"lon":5.39766,"is_reserved":false,"is_disabled":false,"rental_uris":{"android":"levelo://app?vid=a090d58d-a1fb-4921-bd15-f1d1e2db9ea4","ios":"levelo://app?vid=a090d58d-a1fb-4921-bd15-f1d1e2db9ea4"},"vehicle_type_id":"4","last_reported":1737375425,"current_range_meters":27200,"station_id":"ce4bhn12rcd13ifvqgpg","pricing_plan_id":"cebpf4jnsgd1na2vs0mg"},{"bike_id":"b8c33cc5-e538-44b1-a7f5-a0c6163b2176","system_id":"levelo_inurba_marseille","lat":43.27205,"lon":5.39196,"is_reserved":false,"is_disabled":false,"rental_uris":{"android":"levelo://app?vid=b8c33cc5-e538-44b1-a7f5-a0c6163b2176","ios":"levelo://app?vid=b8c33cc5-e538-44b1-a7f5-a0c6163b2176"},"vehicle_type_id":"4","last_reported":1737375425,"current_range_meters":26800,"station_id":"ce4bhhp2rcd13ifvqfm0","pricing_plan_id":"cebpf4jnsgd1na2vs0mg"},{"bike_id":"973357c8-dead-42ca-92e9-500225bc994c","system_id":"levelo_inurba_marseille","lat":43.33026,"lon":5.390467,"is_reserved":false,"is_disabled":false,"rental_uris":{"android":"levelo://app?vid=973357c8-dead-42ca-92e9-500225bc994c","ios":"levelo://app?vid=973357c8-dead-42ca-92e9-500225bc994c"},"vehicle_type_id":"4","last_reported":1737375425,"current_range_meters":28800,"station_id":"ce4bhr92rcd13ifvqhrg","pricing_plan_id":"cebpf4jnsgd1na2vs0mg"},{"bike_id":"bbd6e56f-1a5f-4813-a7fd-d882eb94346c","system_id":"levelo_inurba_marseille","lat":43.31707,"lon":5.43684,"is_reserved":false,"is_disabled":true,"rental_uris":{"android":"levelo://app?vid=bbd6e56f-1a5f-4813-a7fd-d882eb94346c","ios":"levelo://app?vid=bbd6e56f-1a5f-4813-a7fd-d882eb94346c"},"vehicle_type_id":"4","last_reported":1737375425,"current_range_meters":39200,"station_id":"ce4bhp92rcd13ifvqhcg","pricing_plan_id":"cebpf4jnsgd1na2vs0mg"},{"bike_id":"fc795e62-f526-45eb-8ef2-afe4ca77270c","system_id":"levelo_inurba_marseille","lat":43.28373,"lon":5.38635,"is_reserved":false,"is_disabled":false,"rental_uris":{"android":"levelo://app?vid=fc795e62-f526-45eb-8ef2-afe4ca77270c","ios":"levelo://app?vid=fc795e62-f526-45eb-8ef2-afe4ca77270c"},"vehicle_type_id":"4","last_reported":1737375425,"current_range_meters":38000,"station_id":"ce4bh492rcd13ifvqdvg","pricing_plan_id":"cebpf4jnsgd1na2vs0mg"},{"bike_id":"e362fcac-a1c2-40b0-99b0-8310143e8a12","system_id":"levelo_inurba_marseille","lat":43.313378,"lon":5.396972,"is_reserved":false,"is_disabled":false,"rental_uris":{"android":"levelo://app?vid=e362fcac-a1c2-40b0-99b0-8310143e8a12","ios":"levelo://app?vid=e362fcac-a1c2-40b0-99b0-8310143e8a12"},"vehicle_type_id":"4","last_reported":1737375425,"current_range_meters":38800,"station_id":"ce4bgvp2rcd13ifvqcu0","pricing_plan_id":"cebpf4jnsgd1na2vs0mg"},{"bike_id":"4ca0c0a8-ebec-4495-a31b-51805b75ee6d","system_id":"levelo_inurba_marseille","lat":43.24659,"lon":5.38896,"is_reserved":false,"is_disabled":false,"rental_uris":{"android":"levelo://app?vid=4ca0c0a8-ebec-4495-a31b-51805b75ee6d","ios":"levelo://app?vid=4ca0c0a8-ebec-4495-a31b-51805b75ee6d"},"vehicle_type_id":"4","last_reported":1737375425,"current_range_meters":38800,"station_id":"ce4bhg12rcd13ifvqf60","pricing_plan_id":"cebpf4jnsgd1na2vs0mg"},{"bike_id":"d714004e-0a5d-46dc-8f45-dcd4ee7c47a7","system_id":"levelo_inurba_marseille","lat":43.29561,"lon":5.37507,"is_reserved":false,"is_disabled":false,"rental_uris":{"android":"levelo://app?vid=d714004e-0a5d-46dc-8f45-dcd4ee7c47a7","ios":"levelo://app?vid=d714004e-0a5d-46dc-8f45-dcd4ee7c47a7"},"vehicle_type_id":"4","last_reported":1737375425,"current_range_meters":39200,"station_id":"ce4bgkp2rcd13ifvqbmg","pricing_plan_id":"cebpf4jnsgd1na2vs0mg"},{"bike_id":"d1fbee56-a8f7-4480-a4bd-ba66bb143867","system_id":"levelo_inurba_marseille","lat":43.30253,"lon":5.37714,"is_reserved":false,"is_disabled":false,"rental_uris":{"android":"levelo://app?vid=d1fbee56-a8f7-4480-a4bd-ba66bb143867","ios":"levelo://app?vid=d1fbee56-a8f7-4480-a4bd-ba66bb143867"},"vehicle_type_id":"4","last_reported":1737375425,"current_range_meters":38800,"station_id":"ce4bguh2rcd13ifvqcj0","pricing_plan_id":"cebpf4jnsgd1na2vs0mg"},{"bike_id":"26376a94-6528-4fdf-8409-26b3583fac75","system_id":"levelo_inurba_marseille","lat":43.24393,"lon":5.37061,"is_reserved":false,"is_disabled":false,"rental_uris":{"android":"levelo://app?vid=26376a94-6528-4fdf-8409-26b3583fac75","ios":"levelo://app?vid=26376a94-6528-4fdf-8409-26b3583fac75"},"vehicle_type_id":"4","last_reported":1737375425,"current_range_meters":22800,"station_id":"ce4bhhh2rcd13ifvqfk0","pricing_plan_id":"cebpf4jnsgd1na2vs0mg"},{"bike_id":"01a07bd9-36a1-4c19-a88b-7c9e3a6ee490","system_id":"levelo_inurba_marseille","lat":43.25097,"lon":5.39513,"is_reserved":false,"is_disabled":false,"rental_uris":{"android":"levelo://app?vid=01a07bd9-36a1-4c19-a88b-7c9e3a6ee490","ios":"levelo://app?vid=01a07bd9-36a1-4c19-a88b-7c9e3a6ee490"},"vehicle_type_id":"4","last_reported":1737375425,"current_range_meters":28800,"station_id":"ce4bhm12rcd13ifvqgkg","pricing_plan_id":"cebpf4jnsgd1na2vs0mg"},{"bike_id":"1492404f-2d9b-4866-8974-fc5e7bfdfd68","system_id":"levelo_inurba_marseille","lat":43.31108,"lon":5.37759,"is_reserved":false,"is_disabled":true,"rental_uris":{"android":"levelo://app?vid=1492404f-2d9b-4866-8974-fc5e7bfdfd68","ios":"levelo://app?vid=1492404f-2d9b-4866-8974-fc5e7bfdfd68"},"vehicle_type_id":"4","last_reported":1737375425,"current_range_meters":6000,"station_id":"ce4bgt92rcd13ifvqcg0","pricing_plan_id":"cebpf4jnsgd1na2vs0mg"},{"bike_id":"f7b8bf84-ad1d-4863-9560-986b7fddbbba","system_id":"levelo_inurba_marseille","lat":43.2809,"lon":5.39663,"is_reserved":false,"is_disabled":false,"rental_uris":{"android":"levelo://app?vid=f7b8bf84-ad1d-4863-9560-986b7fddbbba","ios":"levelo://app?vid=f7b8bf84-ad1d-4863-9560-986b7fddbbba"},"vehicle_type_id":"4","last_reported":1737375425,"current_range_meters":37600,"station_id":"ce4bho12rcd13ifvqh2g","pricing_plan_id":"cebpf4jnsgd1na2vs0mg"},{"bike_id":"963e4cba-1eab-42c9-b44f-210b5244ef98","system_id":"levelo_inurba_marseille","lat":43.29539,"lon":5.38547,"is_reserved":false,"is_disabled":false,"rental_uris":{"android":"levelo://app?vid=963e4cba-1eab-42c9-b44f-210b5244ef98","ios":"levelo://app?vid=963e4cba-1eab-42c9-b44f-210b5244ef98"},"vehicle_type_id":"4","last_reported":1737375425,"current_range_meters":15200,"station_id":"ce4bgih2rcd13ifvqba0","pricing_plan_id":"cebpf4jnsgd1na2vs0mg"},{"bike_id":"c5152281-b637-470d-9252-45d007798180","system_id":"levelo_inurba_marseille","lat":43.31365,"lon":5.38493,"is_reserved":false,"is_disabled":false,"rental_uris":{"android":"levelo://app?vid=c5152281-b637-470d-9252-45d007798180","ios":"levelo://app?vid=c5152281-b637-470d-9252-45d007798180"},"vehicle_type_id":"4","last_reported":1737375425,"current_range_meters":20000,"station_id":"ce4bgt92rcd13ifvqcf0","pricing_plan_id":"cebpf4jnsgd1na2vs0mg"},{"bike_id":"ed2666a4-4c5a-4a7e-be22-49a938cd6bbe","system_id":"levelo_inurba_marseille","lat":43.29898,"lon":5.37472,"is_reserved":false,"is_disabled":false,"rental_uris":{"android":"levelo://app?vid=ed2666a4-4c5a-4a7e-be22-49a938cd6bbe","ios":"levelo://app?vid=ed2666a4-4c5a-4a7e-be22-49a938cd6bbe"},"vehicle_type_id":"4","last_reported":1737375425,"current_range_meters":26000,"station_id":"ce4bgjh2rcd13ifvqbg0","pricing_plan_id":"cebpf4jnsgd1na2vs0mg"},{"bike_id":"b22c44fc-076a-48d3-b338-5c31d1781bf5","system_id":"levelo_inurba_marseille","lat":43.30181,"lon":5.3662,"is_reserved":false,"is_disabled":false,"rental_uris":{"android":"levelo://app?vid=b22c44fc-076a-48d3-b338-5c31d1781bf5","ios":"levelo://app?vid=b22c44fc-076a-48d3-b338-5c31d1781bf5"},"vehicle_type_id":"4","last_reported":1737375425,"current_range_meters":39200,"station_id":"ce4bgrh2rcd13ifvqc8g","pricing_plan_id":"cebpf4jnsgd1na2vs0mg"},{"bike_id":"c42268c0-a5e0-42b8-b874-93ef21576df8","system_id":"levelo_inurba_marseille","lat":43.281494,"lon":5.426451,"is_reserved":false,"is_disabled":false,"rental_uris":{"android":"levelo://app?vid=c42268c0-a5e0-42b8-b874-93ef21576df8","ios":"levelo://app?vid=c42268c0-a5e0-42b8-b874-93ef21576df8"},"vehicle_type_id":"4","last_reported":1737375425,"current_range_meters":24000,"station_id":"ce4bhnh2rcd13ifvqgug","pricing_plan_id":"cebpf4jnsgd1na2vs0mg"},{"bike_id":"77192f79-2b12-4ff4-874e-f5cab7df388a","system_id":"levelo_inurba_marseille","lat":43.28427,"lon":5.34993,"is_reserved":false,"is_disabled":true,"rental_uris":{"android":"levelo://app?vid=77192f79-2b12-4ff4-874e-f5cab7df388a","ios":"levelo://app?vid=77192f79-2b12-4ff4-874e-f5cab7df388a"},"vehicle_type_id":"4","last_reported":1737375425,"current_range_meters":33200,"station_id":"ce4bhbh2rcd13ifvqepg","pricing_plan_id":"cebpf4jnsgd1na2vs0mg"},{"bike_id":"37e24f29-f9e5-4fbd-966f-119335fd695e","system_id":"levelo_inurba_marseille","lat":43.24074,"lon":5.37761,"is_reserved":false,"is_disabled":false,"rental_uris":{"android":"levelo://app?vid=37e24f29-f9e5-4fbd-966f-119335fd695e","ios":"levelo://app?vid=37e24f29-f9e5-4fbd-966f-119335fd695e"},"vehicle_type_id":"4","last_reported":1737375425,"current_range_meters":38400,"station_id":"ce4bhnp2rcd13ifvqgvg","pricing_plan_id":"cebpf4jnsgd1na2vs0mg"},{"bike_id":"f6477394-37ad-474b-869e-23ecf9fee49a","system_id":"levelo_inurba_marseille","lat":43.24163,"lon":5.39753,"is_reserved":false,"is_disabled":false,"rental_uris":{"android":"levelo://app?vid=f6477394-37ad-474b-869e-23ecf9fee49a","ios":"levelo://app?vid=f6477394-37ad-474b-869e-23ecf9fee49a"},"vehicle_type_id":"4","last_reported":1737375425,"current_range_meters":38800,"station_id":"ce4bhn12rcd13ifvqgpg","pricing_plan_id":"cebpf4jnsgd1na2vs0mg"},{"bike_id":"01e6e722-f692-47ad-9954-e66b12f335ac","system_id":"levelo_inurba_marseille","lat":43.29978,"lon":5.37178,"is_reserved":false,"is_disabled":false,"rental_uris":{"android":"levelo://app?vid=01e6e722-f692-47ad-9954-e66b12f335ac","ios":"levelo://app?vid=01e6e722-f692-47ad-9954-e66b12f335ac"},"vehicle_type_id":"4","last_reported":1737375425,"current_range_meters":16800,"station_id":"ce4bgr92rcd13ifvqc7g","pricing_plan_id":"cebpf4jnsgd1na2vs0mg"},{"bike_id":"6fd85c9c-5cad-4352-a248-92582e23a8ce","system_id":"levelo_inurba_marseille","lat":43.29974,"lon":5.37162,"is_reserved":false,"is_disabled":false,"rental_uris":{"android":"levelo://app?vid=6fd85c9c-5cad-4352-a248-92582e23a8ce","ios":"levelo://app?vid=6fd85c9c-5cad-4352-a248-92582e23a8ce"},"vehicle_type_id":"4","last_reported":1737375425,"current_range_meters":30000,"station_id":"ce4bgr92rcd13ifvqc7g","pricing_plan_id":"cebpf4jnsgd1na2vs0mg"},{"bike_id":"49ec1c53-8b1b-4aab-9bfa-c7c99f891f25","system_id":"levelo_inurba_marseille","lat":43.28622,"lon":5.35108,"is_reserved":false,"is_disabled":false,"rental_uris":{"android":"levelo://app?vid=49ec1c53-8b1b-4aab-9bfa-c7c99f891f25","ios":"levelo://app?vid=49ec1c53-8b1b-4aab-9bfa-c7c99f891f25"},"vehicle_type_id":"4","last_reported":1737375425,"current_range_meters":8000,"station_id":"ce4bhch2rcd13ifvqeug","pricing_plan_id":"cebpf4jnsgd1na2vs0mg"},{"bike_id":"4e7cfeff-a917-4d27-a68c-da24c7b49659","system_id":"levelo_inurba_marseille","lat":43.24173,"lon":5.39716,"is_reserved":false,"is_disabled":false,"rental_uris":{"android":"levelo://app?vid=4e7cfeff-a917-4d27-a68c-da24c7b49659","ios":"levelo://app?vid=4e7cfeff-a917-4d27-a68c-da24c7b49659"},"vehicle_type_id":"4","last_reported":1737375425,"current_range_meters":38800,"station_id":"ce4bhn12rcd13ifvqgpg","pricing_plan_id":"cebpf4jnsgd1na2vs0mg"},{"bike_id":"5c355f1f-2346-434b-b0b1-1dbab4b16da7","system_id":"levelo_inurba_marseille","lat":43.30912,"lon":5.36853,"is_reserved":false,"is_disabled":false,"rental_uris":{"android":"levelo://app?vid=5c355f1f-2346-434b-b0b1-1dbab4b16da7","ios":"levelo://app?vid=5c355f1f-2346-434b-b0b1-1dbab4b16da7"},"vehicle_type_id":"4","last_reported":1737375425,"current_range_meters":38800,"station_id":"ce4bgn92rcd13ifvqbvg","pricing_plan_id":"cebpf4jnsgd1na2vs0mg"},{"bike_id":"a33b96e6-4057-40c7-8cb4-4accc193e95f","system_id":"levelo_inurba_marseille","lat":43.28361,"lon":5.38102,"is_reserved":false,"is_disabled":false,"rental_uris":{"android":"levelo://app?vid=a33b96e6-4057-40c7-8cb4-4accc193e95f","ios":"levelo://app?vid=a33b96e6-4057-40c7-8cb4-4accc193e95f"},"vehicle_type_id":"4","last_reported":1737375425,"current_range_meters":16000,"station_id":"ce4bh412rcd13ifvqdr0","pricing_plan_id":"cebpf4jnsgd1na2vs0mg"},{"bike_id":"32c787de-90a2-4b26-8e28-584af39ce073","system_id":"levelo_inurba_marseille","lat":43.2418,"lon":5.39725,"is_reserved":false,"is_disabled":false,"rental_uris":{"android":"levelo://app?vid=32c787de-90a2-4b26-8e28-584af39ce073","ios":"levelo://app?vid=32c787de-90a2-4b26-8e28-584af39ce073"},"vehicle_type_id":"4","last_reported":1737375425,"current_range_meters":27600,"station_id":"ce4bhn12rcd13ifvqgpg","pricing_plan_id":"cebpf4jnsgd1na2vs0mg"},{"bike_id":"a928f3f8-500f-4949-9198-e59e77dfdb5f","system_id":"levelo_inurba_marseille","lat":43.25007,"lon":5.38947,"is_reserved":false,"is_disabled":false,"rental_uris":{"android":"levelo://app?vid=a928f3f8-500f-4949-9198-e59e77dfdb5f","ios":"levelo://app?vid=a928f3f8-500f-4949-9198-e59e77dfdb5f"},"vehicle_type_id":"4","last_reported":1737375425,"current_range_meters":24800,"station_id":"ce4bhgp2rcd13ifvqfd0","pricing_plan_id":"cebpf4jnsgd1na2vs0mg"},{"bike_id":"0897e627-1690-4b1c-984d-29cb463c9770","system_id":"levelo_inurba_marseille","lat":43.31895,"lon":5.40745,"is_reserved":false,"is_disabled":true,"rental_uris":{"android":"levelo://app?vid=0897e627-1690-4b1c-984d-29cb463c9770","ios":"levelo://app?vid=0897e627-1690-4b1c-984d-29cb463c9770"},"vehicle_type_id":"4","last_reported":1737375425,"current_range_meters":0,"station_id":"ce4bhq12rcd13ifvqhig","pricing_plan_id":"cebpf4jnsgd1na2vs0mg"},{"bike_id":"80bcc3e7-77de-44a5-8965-f19acb6d7452","system_id":"levelo_inurba_marseille","lat":43.330218,"lon":5.390406,"is_reserved":false,"is_disabled":false,"rental_uris":{"android":"levelo://app?vid=80bcc3e7-77de-44a5-8965-f19acb6d7452","ios":"levelo://app?vid=80bcc3e7-77de-44a5-8965-f19acb6d7452"},"vehicle_type_id":"4","last_reported":1737375425,"current_range_meters":38800,"station_id":"ce4bhr92rcd13ifvqhrg","pricing_plan_id":"cebpf4jnsgd1na2vs0mg"},{"bike_id":"72390169-8e05-4fa0-b309-aa779b3f2100","system_id":"levelo_inurba_marseille","lat":43.30556,"lon":5.36538,"is_reserved":false,"is_disabled":false,"rental_uris":{"android":"levelo://app?vid=72390169-8e05-4fa0-b309-aa779b3f2100","ios":"levelo://app?vid=72390169-8e05-4fa0-b309-aa779b3f2100"},"vehicle_type_id":"4","last_reported":1737375425,"current_range_meters":27200,"station_id":"ce4bgs12rcd13ifvqcag","pricing_plan_id":"cebpf4jnsgd1na2vs0mg"},{"bike_id":"b9c3363e-0b2e-4a19-9825-6a43065897ec","system_id":"levelo_inurba_marseille","lat":43.31531,"lon":5.38024,"is_reserved":false,"is_disabled":false,"rental_uris":{"android":"levelo://app?vid=b9c3363e-0b2e-4a19-9825-6a43065897ec","ios":"levelo://app?vid=b9c3363e-0b2e-4a19-9825-6a43065897ec"},"vehicle_type_id":"4","last_reported":1737375425,"current_range_meters":37600,"station_id":"ce4bhsp2rcd13ifvqi50","pricing_plan_id":"cebpf4jnsgd1na2vs0mg"},{"bike_id":"f0172799-105e-48fc-9d46-8f62723cda5b","system_id":"levelo_inurba_marseille","lat":43.27494,"lon":5.42453,"is_reserved":false,"is_disabled":false,"rental_uris":{"android":"levelo://app?vid=f0172799-105e-48fc-9d46-8f62723cda5b","ios":"levelo://app?vid=f0172799-105e-48fc-9d46-8f62723cda5b"},"vehicle_type_id":"4","last_reported":1737375425,"current_range_meters":30000,"station_id":"ce4bhn92rcd13ifvqgrg","pricing_plan_id":"cebpf4jnsgd1na2vs0mg"},{"bike_id":"c17a9fd0-dfc9-4003-b545-807d643133a2","system_id":"levelo_inurba_marseille","lat":43.322869,"lon":5.382715,"is_reserved":false,"is_disabled":false,"rental_uris":{"android":"levelo://app?vid=c17a9fd0-dfc9-4003-b545-807d643133a2","ios":"levelo://app?vid=c17a9fd0-dfc9-4003-b545-807d643133a2"},"vehicle_type_id":"4","last_reported":1737375425,"current_range_meters":8400,"station_id":"ce4bhr12rcd13ifvqhqg","pricing_plan_id":"cebpf4jnsgd1na2vs0mg"},{"bike_id":"79f47f5b-027a-4e75-90bf-71ec6d89e298","system_id":"levelo_inurba_marseille","lat":43.30106,"lon":5.39062,"is_reserved":false,"is_disabled":false,"rental_uris":{"android":"levelo://app?vid=79f47f5b-027a-4e75-90bf-71ec6d89e298","ios":"levelo://app?vid=79f47f5b-027a-4e75-90bf-71ec6d89e298"},"vehicle_type_id":"4","last_reported":1737375425,"current_range_meters":38800,"station_id":"ce4bh192rcd13ifvqdb0","pricing_plan_id":"cebpf4jnsgd1na2vs0mg"},{"bike_id":"06a02d4c-3e66-4d38-bbd2-e79a058bf1d0","system_id":"levelo_inurba_marseille","lat":43.29704,"lon":5.37696,"is_reserved":false,"is_disabled":false,"rental_uris":{"android":"levelo://app?vid=06a02d4c-3e66-4d38-bbd2-e79a058bf1d0","ios":"levelo://app?vid=06a02d4c-3e66-4d38-bbd2-e79a058bf1d0"},"vehicle_type_id":"4","last_reported":1737375425,"current_range_meters":33200,"station_id":"ce4bgkh2rcd13ifvqbl0","pricing_plan_id":"cebpf4jnsgd1na2vs0mg"},{"bike_id":"e7118011-2d04-4b34-9604-f463992b4c02","system_id":"levelo_inurba_marseille","lat":43.24074,"lon":5.37761,"is_reserved":false,"is_disabled":false,"rental_uris":{"android":"levelo://app?vid=e7118011-2d04-4b34-9604-f463992b4c02","ios":"levelo://app?vid=e7118011-2d04-4b34-9604-f463992b4c02"},"vehicle_type_id":"4","last_reported":1737375425,"current_range_meters":38800,"station_id":"ce4bhnp2rcd13ifvqgvg","pricing_plan_id":"cebpf4jnsgd1na2vs0mg"},{"bike_id":"50343fe7-b049-4115-b6cd-1d192f0464f8","system_id":"levelo_inurba_marseille","lat":43.25818,"lon":5.39447,"is_reserved":false,"is_disabled":false,"rental_uris":{"android":"levelo://app?vid=50343fe7-b049-4115-b6cd-1d192f0464f8","ios":"levelo://app?vid=50343fe7-b049-4115-b6cd-1d192f0464f8"},"vehicle_type_id":"4","last_reported":1737375425,"current_range_meters":38800,"station_id":"ce4bhip2rcd13ifvqft0","pricing_plan_id":"cebpf4jnsgd1na2vs0mg"},{"bike_id":"2e794146-c416-4cb2-a55b-73e393dd3b5f","system_id":"levelo_inurba_marseille","lat":43.31325,"lon":5.39715,"is_reserved":false,"is_disabled":false,"rental_uris":{"android":"levelo://app?vid=2e794146-c416-4cb2-a55b-73e393dd3b5f","ios":"levelo://app?vid=2e794146-c416-4cb2-a55b-73e393dd3b5f"},"vehicle_type_id":"4","last_reported":1737375425,"current_range_meters":24000,"station_id":"ce4bgvp2rcd13ifvqcu0","pricing_plan_id":"cebpf4jnsgd1na2vs0mg"},{"bike_id":"9786796e-a707-45f6-9b21-ca0a16d2cfb9","system_id":"levelo_inurba_marseille","lat":43.29694,"lon":5.37687,"is_reserved":false,"is_disabled":false,"rental_uris":{"android":"levelo://app?vid=9786796e-a707-45f6-9b21-ca0a16d2cfb9","ios":"levelo://app?vid=9786796e-a707-45f6-9b21-ca0a16d2cfb9"},"vehicle_type_id":"4","last_reported":1737375425,"current_range_meters":17600,"station_id":"ce4bgkh2rcd13ifvqbl0","pricing_plan_id":"cebpf4jnsgd1na2vs0mg"},{"bike_id":"55cad7fa-9694-43e6-9f64-005bab2ad3a8","system_id":"levelo_inurba_marseille","lat":43.30886,"lon":5.39644,"is_reserved":false,"is_disabled":false,"rental_uris":{"android":"levelo://app?vid=55cad7fa-9694-43e6-9f64-005bab2ad3a8","ios":"levelo://app?vid=55cad7fa-9694-43e6-9f64-005bab2ad3a8"},"vehicle_type_id":"4","last_reported":1737375425,"current_range_meters":23200,"station_id":"ce4bh012rcd13ifvqcv0","pricing_plan_id":"cebpf4jnsgd1na2vs0mg"},{"bike_id":"43ab6a6e-18b0-45a2-bdfd-26946078537a","system_id":"levelo_inurba_marseille","lat":43.250159,"lon":5.389183,"is_reserved":false,"is_disabled":false,"rental_uris":{"android":"levelo://app?vid=43ab6a6e-18b0-45a2-bdfd-26946078537a","ios":"levelo://app?vid=43ab6a6e-18b0-45a2-bdfd-26946078537a"},"vehicle_type_id":"4","last_reported":1737375425,"current_range_meters":38000,"station_id":"ce4bhgp2rcd13ifvqfd0","pricing_plan_id":"cebpf4jnsgd1na2vs0mg"},{"bike_id":"b7801d22-cd0c-476d-9cbe-e631b2509cd7","system_id":"levelo_inurba_marseille","lat":43.30147,"lon":5.38076,"is_reserved":false,"is_disabled":false,"rental_uris":{"android":"levelo://app?vid=b7801d22-cd0c-476d-9cbe-e631b2509cd7","ios":"levelo://app?vid=b7801d22-cd0c-476d-9cbe-e631b2509cd7"},"vehicle_type_id":"4","last_reported":1737375425,"current_range_meters":25200,"station_id":"ce4bgjp2rcd13ifvqbh0","pricing_plan_id":"cebpf4jnsgd1na2vs0mg"},{"bike_id":"a1b4d36e-bc3f-4dd7-b3ef-739d028fa07d","system_id":"levelo_inurba_marseille","lat":43.26575,"lon":5.39015,"is_reserved":false,"is_disabled":false,"rental_uris":{"android":"levelo://app?vid=a1b4d36e-bc3f-4dd7-b3ef-739d028fa07d","ios":"levelo://app?vid=a1b4d36e-bc3f-4dd7-b3ef-739d028fa07d"},"vehicle_type_id":"4","last_reported":1737375425,"current_range_meters":5600,"station_id":"ce4bhe12rcd13ifvqf30","pricing_plan_id":"cebpf4jnsgd1na2vs0mg"},{"bike_id":"8b4e6a4a-272c-4907-8f5e-7ff77a984aa3","system_id":"levelo_inurba_marseille","lat":43.3046,"lon":5.37909,"is_reserved":false,"is_disabled":false,"rental_uris":{"android":"levelo://app?vid=8b4e6a4a-272c-4907-8f5e-7ff77a984aa3","ios":"levelo://app?vid=8b4e6a4a-272c-4907-8f5e-7ff77a984aa3"},"vehicle_type_id":"4","last_reported":1737375425,"current_range_meters":20400,"station_id":"ce4bgup2rcd13ifvqcn0","pricing_plan_id":"cebpf4jnsgd1na2vs0mg"},{"bike_id":"5c29aaf4-4fcc-4063-a3b7-f0a84df955dc","system_id":"levelo_inurba_marseille","lat":43.29614,"lon":5.37739,"is_reserved":false,"is_disabled":false,"rental_uris":{"android":"levelo://app?vid=5c29aaf4-4fcc-4063-a3b7-f0a84df955dc","ios":"levelo://app?vid=5c29aaf4-4fcc-4063-a3b7-f0a84df955dc"},"vehicle_type_id":"4","last_reported":1737375425,"current_range_meters":38800,"station_id":"ce4bgi92rcd13ifvqb90","pricing_plan_id":"cebpf4jnsgd1na2vs0mg"},{"bike_id":"f50c355d-0a75-47b0-b4cf-cd0ad431856e","system_id":"levelo_inurba_marseille","lat":43.3015,"lon":5.3809,"is_reserved":false,"is_disabled":false,"rental_uris":{"android":"levelo://app?vid=f50c355d-0a75-47b0-b4cf-cd0ad431856e","ios":"levelo://app?vid=f50c355d-0a75-47b0-b4cf-cd0ad431856e"},"vehicle_type_id":"4","last_reported":1737375425,"current_range_meters":38800,"station_id":"ce4bgjp2rcd13ifvqbh0","pricing_plan_id":"cebpf4jnsgd1na2vs0mg"},{"bike_id":"090fdfe6-6c2f-4f10-ba87-76b4a56d7c7e","system_id":"levelo_inurba_marseille","lat":43.27069,"lon":5.40256,"is_reserved":false,"is_disabled":false,"rental_uris":{"android":"levelo://app?vid=090fdfe6-6c2f-4f10-ba87-76b4a56d7c7e","ios":"levelo://app?vid=090fdfe6-6c2f-4f10-ba87-76b4a56d7c7e"},"vehicle_type_id":"4","last_reported":1737375425,"current_range_meters":8800,"station_id":"ce4bhk92rcd13ifvqgc0","pricing_plan_id":"cebpf4jnsgd1na2vs0mg"},{"bike_id":"b5c7c556-4380-4b0b-9ac9-b912d1911894","system_id":"levelo_inurba_marseille","lat":43.30283,"lon":5.37702,"is_reserved":false,"is_disabled":false,"rental_uris":{"android":"levelo://app?vid=b5c7c556-4380-4b0b-9ac9-b912d1911894","ios":"levelo://app?vid=b5c7c556-4380-4b0b-9ac9-b912d1911894"},"vehicle_type_id":"4","last_reported":1737375425,"current_range_meters":32400,"station_id":"ce4bguh2rcd13ifvqcj0","pricing_plan_id":"cebpf4jnsgd1na2vs0mg"},{"bike_id":"0e91b70c-1e42-4d65-a90a-72cbd40954b0","system_id":"levelo_inurba_marseille","lat":43.32369,"lon":5.36768,"is_reserved":false,"is_disabled":false,"rental_uris":{"android":"levelo://app?vid=0e91b70c-1e42-4d65-a90a-72cbd40954b0","ios":"levelo://app?vid=0e91b70c-1e42-4d65-a90a-72cbd40954b0"},"vehicle_type_id":"4","last_reported":1737375425,"current_range_meters":38000,"station_id":"ce4bhsh2rcd13ifvqi2g","pricing_plan_id":"cebpf4jnsgd1na2vs0mg"},{"bike_id":"d6928915-0bb2-4d95-b580-89aedcd81d34","system_id":"levelo_inurba_marseille","lat":43.29298,"lon":5.37449,"is_reserved":false,"is_disabled":false,"rental_uris":{"android":"levelo://app?vid=d6928915-0bb2-4d95-b580-89aedcd81d34","ios":"levelo://app?vid=d6928915-0bb2-4d95-b580-89aedcd81d34"},"vehicle_type_id":"4","last_reported":1737375425,"current_range_meters":14000,"station_id":"ce4bgi12rcd13ifvqb70","pricing_plan_id":"cebpf4jnsgd1na2vs0mg"},{"bike_id":"809cb738-c150-49d8-8dbb-7ac1d2ee4312","system_id":"levelo_inurba_marseille","lat":43.30189,"lon":5.36633,"is_reserved":false,"is_disabled":false,"rental_uris":{"android":"levelo://app?vid=809cb738-c150-49d8-8dbb-7ac1d2ee4312","ios":"levelo://app?vid=809cb738-c150-49d8-8dbb-7ac1d2ee4312"},"vehicle_type_id":"4","last_reported":1737375425,"current_range_meters":39200,"station_id":"ce4bgrh2rcd13ifvqc8g","pricing_plan_id":"cebpf4jnsgd1na2vs0mg"},{"bike_id":"7f6908f7-cfcb-4080-a4c3-d5b221bf885b","system_id":"levelo_inurba_marseille","lat":43.320436,"lon":5.415926,"is_reserved":false,"is_disabled":true,"rental_uris":{"android":"levelo://app?vid=7f6908f7-cfcb-4080-a4c3-d5b221bf885b","ios":"levelo://app?vid=7f6908f7-cfcb-4080-a4c3-d5b221bf885b"},"vehicle_type_id":"4","last_reported":1737375425,"current_range_meters":0,"station_id":"ce4bhq92rcd13ifvqhkg","pricing_plan_id":"cebpf4jnsgd1na2vs0mg"},{"bike_id":"146a0fc6-102c-4b68-8436-40e86162d01b","system_id":"levelo_inurba_marseille","lat":43.25985,"lon":5.40981,"is_reserved":false,"is_disabled":false,"rental_uris":{"android":"levelo://app?vid=146a0fc6-102c-4b68-8436-40e86162d01b","ios":"levelo://app?vid=146a0fc6-102c-4b68-8436-40e86162d01b"},"vehicle_type_id":"4","last_reported":1737375425,"current_range_meters":36400,"station_id":"ce4bhm92rcd13ifvqglg","pricing_plan_id":"cebpf4jnsgd1na2vs0mg"},{"bike_id":"9106a107-4851-4ec8-a9d8-47c5aef4643f","system_id":"levelo_inurba_marseille","lat":43.29976,"lon":5.38483,"is_reserved":false,"is_disabled":false,"rental_uris":{"android":"levelo://app?vid=9106a107-4851-4ec8-a9d8-47c5aef4643f","ios":"levelo://app?vid=9106a107-4851-4ec8-a9d8-47c5aef4643f"},"vehicle_type_id":"4","last_reported":1737375425,"current_range_meters":26800,"station_id":"ce4bgj92rcd13ifvqbd0","pricing_plan_id":"cebpf4jnsgd1na2vs0mg"},{"bike_id":"02f25583-5bae-4143-b3b2-7b8d3f3e60d9","system_id":"levelo_inurba_marseille","lat":43.28485,"lon":5.38434,"is_reserved":false,"is_disabled":false,"rental_uris":{"android":"levelo://app?vid=02f25583-5bae-4143-b3b2-7b8d3f3e60d9","ios":"levelo://app?vid=02f25583-5bae-4143-b3b2-7b8d3f3e60d9"},"vehicle_type_id":"4","last_reported":1737375425,"current_range_meters":31200,"station_id":"ce4bh512rcd13ifvqe3g","pricing_plan_id":"cebpf4jnsgd1na2vs0mg"},{"bike_id":"e27d21f3-275b-496f-8635-31780ec12b42","system_id":"levelo_inurba_marseille","lat":43.26213,"lon":5.37433,"is_reserved":false,"is_disabled":false,"rental_uris":{"android":"levelo://app?vid=e27d21f3-275b-496f-8635-31780ec12b42","ios":"levelo://app?vid=e27d21f3-275b-496f-8635-31780ec12b42"},"vehicle_type_id":"4","last_reported":1737375425,"current_range_meters":26000,"station_id":"ce4bhgp2rcd13ifvqfc0","pricing_plan_id":"cebpf4jnsgd1na2vs0mg"},{"bike_id":"b0f9841a-6ef7-473b-88e4-71933e43d925","system_id":"levelo_inurba_marseille","lat":43.30149,"lon":5.3809,"is_reserved":false,"is_disabled":false,"rental_uris":{"android":"levelo://app?vid=b0f9841a-6ef7-473b-88e4-71933e43d925","ios":"levelo://app?vid=b0f9841a-6ef7-473b-88e4-71933e43d925"},"vehicle_type_id":"4","last_reported":1737375425,"current_range_meters":34000,"station_id":"ce4bgjp2rcd13ifvqbh0","pricing_plan_id":"cebpf4jnsgd1na2vs0mg"},{"bike_id":"5d6cd589-cd8a-4a7a-8ea0-0f6e117e94fd","system_id":"levelo_inurba_marseille","lat":43.24805,"lon":5.37459,"is_reserved":false,"is_disabled":false,"rental_uris":{"android":"levelo://app?vid=5d6cd589-cd8a-4a7a-8ea0-0f6e117e94fd","ios":"levelo://app?vid=5d6cd589-cd8a-4a7a-8ea0-0f6e117e94fd"},"vehicle_type_id":"4","last_reported":1737375425,"current_range_meters":16400,"station_id":"ce4bhgh2rcd13ifvqfb0","pricing_plan_id":"cebpf4jnsgd1na2vs0mg"},{"bike_id":"06815d35-757d-4280-814a-8dba22433ced","system_id":"levelo_inurba_marseille","lat":43.27066,"lon":5.42271,"is_reserved":false,"is_disabled":false,"rental_uris":{"android":"levelo://app?vid=06815d35-757d-4280-814a-8dba22433ced","ios":"levelo://app?vid=06815d35-757d-4280-814a-8dba22433ced"},"vehicle_type_id":"4","last_reported":1737375425,"current_range_meters":36800,"station_id":"ce4bhk92rcd13ifvqgb0","pricing_plan_id":"cebpf4jnsgd1na2vs0mg"},{"bike_id":"a690ca9e-e8ce-40eb-931c-1d8a8ddbcb9f","system_id":"levelo_inurba_marseille","lat":43.29913,"lon":5.3748,"is_reserved":false,"is_disabled":false,"rental_uris":{"android":"levelo://app?vid=a690ca9e-e8ce-40eb-931c-1d8a8ddbcb9f","ios":"levelo://app?vid=a690ca9e-e8ce-40eb-931c-1d8a8ddbcb9f"},"vehicle_type_id":"4","last_reported":1737375425,"current_range_meters":31200,"station_id":"ce4bgjh2rcd13ifvqbg0","pricing_plan_id":"cebpf4jnsgd1na2vs0mg"},{"bike_id":"069c18c5-90c7-49ea-ab0e-e2d921f6660e","system_id":"levelo_inurba_marseille","lat":43.29273,"lon":5.40111,"is_reserved":false,"is_disabled":false,"rental_uris":{"android":"levelo://app?vid=069c18c5-90c7-49ea-ab0e-e2d921f6660e","ios":"levelo://app?vid=069c18c5-90c7-49ea-ab0e-e2d921f6660e"},"vehicle_type_id":"4","last_reported":1737375425,"current_range_meters":32000,"station_id":"ce4bh312rcd13ifvqdk0","pricing_plan_id":"cebpf4jnsgd1na2vs0mg"},{"bike_id":"7a956b0b-b8f6-4389-bb50-97bccab2a50c","system_id":"levelo_inurba_marseille","lat":43.25926,"lon":5.40916,"is_reserved":false,"is_disabled":false,"rental_uris":{"android":"levelo://app?vid=7a956b0b-b8f6-4389-bb50-97bccab2a50c","ios":"levelo://app?vid=7a956b0b-b8f6-4389-bb50-97bccab2a50c"},"vehicle_type_id":"4","last_reported":1737375425,"current_range_meters":38800,"station_id":"ce4bhm92rcd13ifvqglg","pricing_plan_id":"cebpf4jnsgd1na2vs0mg"},{"bike_id":"a80b852c-67f7-4f92-bf4d-54e70b44a4b9","system_id":"levelo_inurba_marseille","lat":43.2988,"lon":5.36319,"is_reserved":false,"is_disabled":false,"rental_uris":{"android":"levelo://app?vid=a80b852c-67f7-4f92-bf4d-54e70b44a4b9","ios":"levelo://app?vid=a80b852c-67f7-4f92-bf4d-54e70b44a4b9"},"vehicle_type_id":"4","last_reported":1737375425,"current_range_meters":38800,"station_id":"","pricing_plan_id":"cebpf4jnsgd1na2vs0mg"},{"bike_id":"364a038d-bfbc-44f9-9a0d-65e4060a2877","system_id":"levelo_inurba_marseille","lat":43.29788,"lon":5.39342,"is_reserved":false,"is_disabled":true,"rental_uris":{"android":"levelo://app?vid=364a038d-bfbc-44f9-9a0d-65e4060a2877","ios":"levelo://app?vid=364a038d-bfbc-44f9-9a0d-65e4060a2877"},"vehicle_type_id":"4","last_reported":1737375425,"current_range_meters":1200,"station_id":"chh1huq6cuj3fo74tm60","pricing_plan_id":"cebpf4jnsgd1na2vs0mg"},{"bike_id":"1fff2a9f-023a-43ec-bd02-633596668a23","system_id":"levelo_inurba_marseille","lat":43.29629,"lon":5.37223,"is_reserved":false,"is_disabled":false,"rental_uris":{"android":"levelo://app?vid=1fff2a9f-023a-43ec-bd02-633596668a23","ios":"levelo://app?vid=1fff2a9f-023a-43ec-bd02-633596668a23"},"vehicle_type_id":"4","last_reported":1737375425,"current_range_meters":38800,"station_id":"","pricing_plan_id":"cebpf4jnsgd1na2vs0mg"},{"bike_id":"072c3726-49c0-4288-9182-c88fa0a8900c","system_id":"levelo_inurba_marseille","lat":43.2782,"lon":5.40712,"is_reserved":false,"is_disabled":false,"rental_uris":{"android":"levelo://app?vid=072c3726-49c0-4288-9182-c88fa0a8900c","ios":"levelo://app?vid=072c3726-49c0-4288-9182-c88fa0a8900c"},"vehicle_type_id":"4","last_reported":1737375425,"current_range_meters":38400,"station_id":"ce4bhnh2rcd13ifvqgtg","pricing_plan_id":"cebpf4jnsgd1na2vs0mg"},{"bike_id":"daa469d1-906a-422d-a928-7db834887741","system_id":"levelo_inurba_marseille","lat":43.31223,"lon":5.3686,"is_reserved":false,"is_disabled":false,"rental_uris":{"android":"levelo://app?vid=daa469d1-906a-422d-a928-7db834887741","ios":"levelo://app?vid=daa469d1-906a-422d-a928-7db834887741"},"vehicle_type_id":"4","last_reported":1737375425,"current_range_meters":31200,"station_id":"ce4bgl92rcd13ifvqbq0","pricing_plan_id":"cebpf4jnsgd1na2vs0mg"},{"bike_id":"250b7373-c529-4f66-b41e-89f657782acd","system_id":"levelo_inurba_marseille","lat":43.30551,"lon":5.36539,"is_reserved":false,"is_disabled":false,"rental_uris":{"android":"levelo://app?vid=250b7373-c529-4f66-b41e-89f657782acd","ios":"levelo://app?vid=250b7373-c529-4f66-b41e-89f657782acd"},"vehicle_type_id":"4","last_reported":1737375425,"current_range_meters":30800,"station_id":"ce4bgs12rcd13ifvqcag","pricing_plan_id":"cebpf4jnsgd1na2vs0mg"},{"bike_id":"e274159c-9d85-4e90-b9c4-fcc879511945","system_id":"levelo_inurba_marseille","lat":43.33025,"lon":5.39048,"is_reserved":false,"is_disabled":true,"rental_uris":{"android":"levelo://app?vid=e274159c-9d85-4e90-b9c4-fcc879511945","ios":"levelo://app?vid=e274159c-9d85-4e90-b9c4-fcc879511945"},"vehicle_type_id":"4","last_reported":1737375425,"current_range_meters":0,"station_id":"ce4bhr92rcd13ifvqhrg","pricing_plan_id":"cebpf4jnsgd1na2vs0mg"},{"bike_id":"f2390374-e060-4fe1-bcfa-cb2711193e58","system_id":"levelo_inurba_marseille","lat":43.2508,"lon":5.39528,"is_reserved":false,"is_disabled":false,"rental_uris":{"android":"levelo://app?vid=f2390374-e060-4fe1-bcfa-cb2711193e58","ios":"levelo://app?vid=f2390374-e060-4fe1-bcfa-cb2711193e58"},"vehicle_type_id":"4","last_reported":1737375425,"current_range_meters":35600,"station_id":"ce4bhm12rcd13ifvqgkg","pricing_plan_id":"cebpf4jnsgd1na2vs0mg"},{"bike_id":"0f8104d8-ae0e-40b2-9d64-c24deeb12b25","system_id":"levelo_inurba_marseille","lat":43.306983,"lon":5.369797,"is_reserved":false,"is_disabled":false,"rental_uris":{"android":"levelo://app?vid=0f8104d8-ae0e-40b2-9d64-c24deeb12b25","ios":"levelo://app?vid=0f8104d8-ae0e-40b2-9d64-c24deeb12b25"},"vehicle_type_id":"4","last_reported":1737375425,"current_range_meters":24400,"station_id":"","pricing_plan_id":"cebpf4jnsgd1na2vs0mg"},{"bike_id":"dce3c90d-37f4-4b01-88a0-6c51ce8cf835","system_id":"levelo_inurba_marseille","lat":43.30966,"lon":5.39081,"is_reserved":false,"is_disabled":false,"rental_uris":{"android":"levelo://app?vid=dce3c90d-37f4-4b01-88a0-6c51ce8cf835","ios":"levelo://app?vid=dce3c90d-37f4-4b01-88a0-6c51ce8cf835"},"vehicle_type_id":"4","last_reported":1737375425,"current_range_meters":28000,"station_id":"ce4bgup2rcd13ifvqco0","pricing_plan_id":"cebpf4jnsgd1na2vs0mg"},{"bike_id":"f7faee15-9f27-463c-82d0-e1bca63b9f5a","system_id":"levelo_inurba_marseille","lat":43.24995,"lon":5.38945,"is_reserved":false,"is_disabled":false,"rental_uris":{"android":"levelo://app?vid=f7faee15-9f27-463c-82d0-e1bca63b9f5a","ios":"levelo://app?vid=f7faee15-9f27-463c-82d0-e1bca63b9f5a"},"vehicle_type_id":"4","last_reported":1737375425,"current_range_meters":14400,"station_id":"ce4bhgp2rcd13ifvqfd0","pricing_plan_id":"cebpf4jnsgd1na2vs0mg"},{"bike_id":"b9e5574d-e6d5-48b5-b96d-dbd4c4ee194e","system_id":"levelo_inurba_marseille","lat":43.3095,"lon":5.39036,"is_reserved":false,"is_disabled":false,"rental_uris":{"android":"levelo://app?vid=b9e5574d-e6d5-48b5-b96d-dbd4c4ee194e","ios":"levelo://app?vid=b9e5574d-e6d5-48b5-b96d-dbd4c4ee194e"},"vehicle_type_id":"4","last_reported":1737375425,"current_range_meters":24000,"station_id":"ce4bgup2rcd13ifvqco0","pricing_plan_id":"cebpf4jnsgd1na2vs0mg"},{"bike_id":"e0ed03a6-398d-4601-999c-fb7210ccd2be","system_id":"levelo_inurba_marseille","lat":43.27821,"lon":5.4072,"is_reserved":false,"is_disabled":false,"rental_uris":{"android":"levelo://app?vid=e0ed03a6-398d-4601-999c-fb7210ccd2be","ios":"levelo://app?vid=e0ed03a6-398d-4601-999c-fb7210ccd2be"},"vehicle_type_id":"4","last_reported":1737375425,"current_range_meters":22000,"station_id":"ce4bhnh2rcd13ifvqgtg","pricing_plan_id":"cebpf4jnsgd1na2vs0mg"},{"bike_id":"e768d22a-471b-44a7-9c0b-92942b2bfa50","system_id":"levelo_inurba_marseille","lat":43.24391,"lon":5.3706,"is_reserved":false,"is_disabled":false,"rental_uris":{"android":"levelo://app?vid=e768d22a-471b-44a7-9c0b-92942b2bfa50","ios":"levelo://app?vid=e768d22a-471b-44a7-9c0b-92942b2bfa50"},"vehicle_type_id":"4","last_reported":1737375425,"current_range_meters":28000,"station_id":"ce4bhhh2rcd13ifvqfk0","pricing_plan_id":"cebpf4jnsgd1na2vs0mg"},{"bike_id":"6bbc47c9-ed18-464f-ae15-c7d53e2bd9ba","system_id":"levelo_inurba_marseille","lat":43.29775,"lon":5.37098,"is_reserved":false,"is_disabled":false,"rental_uris":{"android":"levelo://app?vid=6bbc47c9-ed18-464f-ae15-c7d53e2bd9ba","ios":"levelo://app?vid=6bbc47c9-ed18-464f-ae15-c7d53e2bd9ba"},"vehicle_type_id":"4","last_reported":1737375425,"current_range_meters":39200,"station_id":"ce4bgop2rcd13ifvqc1g","pricing_plan_id":"cebpf4jnsgd1na2vs0mg"},{"bike_id":"5c5bd4e8-fb2d-401c-90ca-a89a2ddb4152","system_id":"levelo_inurba_marseille","lat":43.307823,"lon":5.376521,"is_reserved":false,"is_disabled":false,"rental_uris":{"android":"levelo://app?vid=5c5bd4e8-fb2d-401c-90ca-a89a2ddb4152","ios":"levelo://app?vid=5c5bd4e8-fb2d-401c-90ca-a89a2ddb4152"},"vehicle_type_id":"4","last_reported":1737375425,"current_range_meters":38000,"station_id":"ce4bgv92rcd13ifvqcq0","pricing_plan_id":"cebpf4jnsgd1na2vs0mg"},{"bike_id":"5e339aa2-ed7e-44c6-9974-2fdc1901c1ee","system_id":"levelo_inurba_marseille","lat":43.31757,"lon":5.39028,"is_reserved":false,"is_disabled":false,"rental_uris":{"android":"levelo://app?vid=5e339aa2-ed7e-44c6-9974-2fdc1901c1ee","ios":"levelo://app?vid=5e339aa2-ed7e-44c6-9974-2fdc1901c1ee"},"vehicle_type_id":"4","last_reported":1737375425,"current_range_meters":10800,"station_id":"ce4bhqp2rcd13ifvqhng","pricing_plan_id":"cebpf4jnsgd1na2vs0mg"},{"bike_id":"0f310b49-0d3d-4287-b676-324e7adec091","system_id":"levelo_inurba_marseille","lat":43.27308,"lon":5.39077,"is_reserved":false,"is_disabled":false,"rental_uris":{"android":"levelo://app?vid=0f310b49-0d3d-4287-b676-324e7adec091","ios":"levelo://app?vid=0f310b49-0d3d-4287-b676-324e7adec091"},"vehicle_type_id":"4","last_reported":1737375425,"current_range_meters":17600,"station_id":"ce4bhgp2rcd13ifvqfe0","pricing_plan_id":"cebpf4jnsgd1na2vs0mg"},{"bike_id":"0e37a4bd-7850-41b7-91e1-556e8b5c7017","system_id":"levelo_inurba_marseille","lat":43.28152,"lon":5.4265,"is_reserved":false,"is_disabled":false,"rental_uris":{"android":"levelo://app?vid=0e37a4bd-7850-41b7-91e1-556e8b5c7017","ios":"levelo://app?vid=0e37a4bd-7850-41b7-91e1-556e8b5c7017"},"vehicle_type_id":"4","last_reported":1737375425,"current_range_meters":30000,"station_id":"ce4bhnh2rcd13ifvqgug","pricing_plan_id":"cebpf4jnsgd1na2vs0mg"},{"bike_id":"4ad51266-48e4-4d1b-8631-93a7a7c83fc9","system_id":"levelo_inurba_marseille","lat":43.3096,"lon":5.39034,"is_reserved":false,"is_disabled":false,"rental_uris":{"android":"levelo://app?vid=4ad51266-48e4-4d1b-8631-93a7a7c83fc9","ios":"levelo://app?vid=4ad51266-48e4-4d1b-8631-93a7a7c83fc9"},"vehicle_type_id":"4","last_reported":1737375425,"current_range_meters":12800,"station_id":"ce4bgup2rcd13ifvqco0","pricing_plan_id":"cebpf4jnsgd1na2vs0mg"},{"bike_id":"726d19e3-8e15-462e-b816-e1720b7842d5","system_id":"levelo_inurba_marseille","lat":43.26789,"lon":5.39414,"is_reserved":false,"is_disabled":false,"rental_uris":{"android":"levelo://app?vid=726d19e3-8e15-462e-b816-e1720b7842d5","ios":"levelo://app?vid=726d19e3-8e15-462e-b816-e1720b7842d5"},"vehicle_type_id":"4","last_reported":1737375425,"current_range_meters":18000,"station_id":"ce4bhh12rcd13ifvqfg0","pricing_plan_id":"cebpf4jnsgd1na2vs0mg"},{"bike_id":"5957b55c-bbf3-4d79-a9fa-182e34bda710","system_id":"levelo_inurba_marseille","lat":43.266694,"lon":5.402978,"is_reserved":false,"is_disabled":false,"rental_uris":{"android":"levelo://app?vid=5957b55c-bbf3-4d79-a9fa-182e34bda710","ios":"levelo://app?vid=5957b55c-bbf3-4d79-a9fa-182e34bda710"},"vehicle_type_id":"4","last_reported":1737375425,"current_range_meters":10800,"station_id":"","pricing_plan_id":"cebpf4jnsgd1na2vs0mg"},{"bike_id":"85ecc783-1dcd-4d7b-9945-51ef75ced28d","system_id":"levelo_inurba_marseille","lat":43.30328,"lon":5.36919,"is_reserved":false,"is_disabled":false,"rental_uris":{"android":"levelo://app?vid=85ecc783-1dcd-4d7b-9945-51ef75ced28d","ios":"levelo://app?vid=85ecc783-1dcd-4d7b-9945-51ef75ced28d"},"vehicle_type_id":"4","last_reported":1737375425,"current_range_meters":12800,"station_id":"ce4bgqh2rcd13ifvqc5g","pricing_plan_id":"cebpf4jnsgd1na2vs0mg"},{"bike_id":"668f9767-c78d-438a-96bb-c0760f782967","system_id":"levelo_inurba_marseille","lat":43.262093,"lon":5.379201,"is_reserved":false,"is_disabled":false,"rental_uris":{"android":"levelo://app?vid=668f9767-c78d-438a-96bb-c0760f782967","ios":"levelo://app?vid=668f9767-c78d-438a-96bb-c0760f782967"},"vehicle_type_id":"4","last_reported":1737375425,"current_range_meters":32000,"station_id":"ce4bhjp2rcd13ifvqg90","pricing_plan_id":"cebpf4jnsgd1na2vs0mg"},{"bike_id":"b4fa5c01-cecc-49e4-9482-65309291a760","system_id":"levelo_inurba_marseille","lat":43.25019,"lon":5.38938,"is_reserved":false,"is_disabled":false,"rental_uris":{"android":"levelo://app?vid=b4fa5c01-cecc-49e4-9482-65309291a760","ios":"levelo://app?vid=b4fa5c01-cecc-49e4-9482-65309291a760"},"vehicle_type_id":"4","last_reported":1737375425,"current_range_meters":33200,"station_id":"ce4bhgp2rcd13ifvqfd0","pricing_plan_id":"cebpf4jnsgd1na2vs0mg"},{"bike_id":"3a3f982b-b14e-47e9-945d-5db56162aaab","system_id":"levelo_inurba_marseille","lat":43.30584,"lon":5.37194,"is_reserved":false,"is_disabled":false,"rental_uris":{"android":"levelo://app?vid=3a3f982b-b14e-47e9-945d-5db56162aaab","ios":"levelo://app?vid=3a3f982b-b14e-47e9-945d-5db56162aaab"},"vehicle_type_id":"4","last_reported":1737375425,"current_range_meters":38400,"station_id":"ce4bgqh2rcd13ifvqc4g","pricing_plan_id":"cebpf4jnsgd1na2vs0mg"},{"bike_id":"4f40d972-06fd-42b6-87d8-47b7f66628c5","system_id":"levelo_inurba_marseille","lat":43.23965,"lon":5.3665,"is_reserved":false,"is_disabled":false,"rental_uris":{"android":"levelo://app?vid=4f40d972-06fd-42b6-87d8-47b7f66628c5","ios":"levelo://app?vid=4f40d972-06fd-42b6-87d8-47b7f66628c5"},"vehicle_type_id":"4","last_reported":1737375425,"current_range_meters":6400,"station_id":"ce4bhi12rcd13ifvqfp0","pricing_plan_id":"cebpf4jnsgd1na2vs0mg"},{"bike_id":"a53a497d-ccde-403c-9698-5dddfd2c6208","system_id":"levelo_inurba_marseille","lat":43.24049,"lon":5.37765,"is_reserved":false,"is_disabled":false,"rental_uris":{"android":"levelo://app?vid=a53a497d-ccde-403c-9698-5dddfd2c6208","ios":"levelo://app?vid=a53a497d-ccde-403c-9698-5dddfd2c6208"},"vehicle_type_id":"4","last_reported":1737375425,"current_range_meters":37600,"station_id":"ce4bhnp2rcd13ifvqgvg","pricing_plan_id":"cebpf4jnsgd1na2vs0mg"},{"bike_id":"e7cb33cf-dafd-4274-9575-178ed6bdff09","system_id":"levelo_inurba_marseille","lat":43.29569,"lon":5.3751,"is_reserved":false,"is_disabled":false,"rental_uris":{"android":"levelo://app?vid=e7cb33cf-dafd-4274-9575-178ed6bdff09","ios":"levelo://app?vid=e7cb33cf-dafd-4274-9575-178ed6bdff09"},"vehicle_type_id":"4","last_reported":1737375425,"current_range_meters":24400,"station_id":"ce4bgh92rcd13ifvqb50","pricing_plan_id":"cebpf4jnsgd1na2vs0mg"},{"bike_id":"55ffbcd1-eef7-48c6-8e1e-15dc3a2da4c1","system_id":"levelo_inurba_marseille","lat":43.28148,"lon":5.4264,"is_reserved":false,"is_disabled":false,"rental_uris":{"android":"levelo://app?vid=55ffbcd1-eef7-48c6-8e1e-15dc3a2da4c1","ios":"levelo://app?vid=55ffbcd1-eef7-48c6-8e1e-15dc3a2da4c1"},"vehicle_type_id":"4","last_reported":1737375425,"current_range_meters":26800,"station_id":"ce4bhnh2rcd13ifvqgug","pricing_plan_id":"cebpf4jnsgd1na2vs0mg"},{"bike_id":"c92cbb9f-5a8c-4f30-b00a-221ba31b944d","system_id":"levelo_inurba_marseille","lat":43.2842,"lon":5.34975,"is_reserved":false,"is_disabled":true,"rental_uris":{"android":"levelo://app?vid=c92cbb9f-5a8c-4f30-b00a-221ba31b944d","ios":"levelo://app?vid=c92cbb9f-5a8c-4f30-b00a-221ba31b944d"},"vehicle_type_id":"4","last_reported":1737375425,"current_range_meters":27600,"station_id":"ce4bhbh2rcd13ifvqepg","pricing_plan_id":"cebpf4jnsgd1na2vs0mg"},{"bike_id":"c95773ea-3deb-4fd7-a02c-5d580aadf1b9","system_id":"levelo_inurba_marseille","lat":43.29314,"lon":5.37178,"is_reserved":false,"is_disabled":false,"rental_uris":{"android":"levelo://app?vid=c95773ea-3deb-4fd7-a02c-5d580aadf1b9","ios":"levelo://app?vid=c95773ea-3deb-4fd7-a02c-5d580aadf1b9"},"vehicle_type_id":"4","last_reported":1737375425,"current_range_meters":34000,"station_id":"ce4bgh92rcd13ifvqb40","pricing_plan_id":"cebpf4jnsgd1na2vs0mg"},{"bike_id":"2398b642-cd0a-4a16-abf3-3ac0b4a8c4a8","system_id":"levelo_inurba_marseille","lat":43.32456,"lon":5.36614,"is_reserved":false,"is_disabled":false,"rental_uris":{"android":"levelo://app?vid=2398b642-cd0a-4a16-abf3-3ac0b4a8c4a8","ios":"levelo://app?vid=2398b642-cd0a-4a16-abf3-3ac0b4a8c4a8"},"vehicle_type_id":"4","last_reported":1737375425,"current_range_meters":16400,"station_id":"","pricing_plan_id":"cebpf4jnsgd1na2vs0mg"},{"bike_id":"073de163-4b85-4aea-a6e3-3e90626122a8","system_id":"levelo_inurba_marseille","lat":43.29876,"lon":5.38909,"is_reserved":false,"is_disabled":false,"rental_uris":{"android":"levelo://app?vid=073de163-4b85-4aea-a6e3-3e90626122a8","ios":"levelo://app?vid=073de163-4b85-4aea-a6e3-3e90626122a8"},"vehicle_type_id":"4","last_reported":1737375425,"current_range_meters":29600,"station_id":"ce4bh392rcd13ifvqdl0","pricing_plan_id":"cebpf4jnsgd1na2vs0mg"},{"bike_id":"cffde4ab-2477-4a4d-9ef4-53f2cfae4a7e","system_id":"levelo_inurba_marseille","lat":43.27939,"lon":5.38716,"is_reserved":false,"is_disabled":false,"rental_uris":{"android":"levelo://app?vid=cffde4ab-2477-4a4d-9ef4-53f2cfae4a7e","ios":"levelo://app?vid=cffde4ab-2477-4a4d-9ef4-53f2cfae4a7e"},"vehicle_type_id":"4","last_reported":1737375425,"current_range_meters":17200,"station_id":"","pricing_plan_id":"cebpf4jnsgd1na2vs0mg"},{"bike_id":"187a71e0-c1c3-4e71-8a26-0d48a596fe6b","system_id":"levelo_inurba_marseille","lat":43.2508,"lon":5.39521,"is_reserved":false,"is_disabled":false,"rental_uris":{"android":"levelo://app?vid=187a71e0-c1c3-4e71-8a26-0d48a596fe6b","ios":"levelo://app?vid=187a71e0-c1c3-4e71-8a26-0d48a596fe6b"},"vehicle_type_id":"4","last_reported":1737375425,"current_range_meters":30000,"station_id":"ce4bhm12rcd13ifvqgkg","pricing_plan_id":"cebpf4jnsgd1na2vs0mg"},{"bike_id":"aeeb7245-8a7c-4b79-b9ac-efca69f7818a","system_id":"levelo_inurba_marseille","lat":43.32108,"lon":5.36823,"is_reserved":false,"is_disabled":false,"rental_uris":{"android":"levelo://app?vid=aeeb7245-8a7c-4b79-b9ac-efca69f7818a","ios":"levelo://app?vid=aeeb7245-8a7c-4b79-b9ac-efca69f7818a"},"vehicle_type_id":"4","last_reported":1737375425,"current_range_meters":16400,"station_id":"ce4bhrh2rcd13ifvqhug","pricing_plan_id":"cebpf4jnsgd1na2vs0mg"},{"bike_id":"9cfd1b91-f2e2-4105-8eab-1af7b9349d93","system_id":"levelo_inurba_marseille","lat":43.29574,"lon":5.39986,"is_reserved":false,"is_disabled":false,"rental_uris":{"android":"levelo://app?vid=9cfd1b91-f2e2-4105-8eab-1af7b9349d93","ios":"levelo://app?vid=9cfd1b91-f2e2-4105-8eab-1af7b9349d93"},"vehicle_type_id":"4","last_reported":1737375425,"current_range_meters":38800,"station_id":"ce4bh312rcd13ifvqdj0","pricing_plan_id":"cebpf4jnsgd1na2vs0mg"},{"bike_id":"d7ebea74-ea94-4f72-85c3-775497bc315c","system_id":"levelo_inurba_marseille","lat":43.32302,"lon":5.38321,"is_reserved":false,"is_disabled":false,"rental_uris":{"android":"levelo://app?vid=d7ebea74-ea94-4f72-85c3-775497bc315c","ios":"levelo://app?vid=d7ebea74-ea94-4f72-85c3-775497bc315c"},"vehicle_type_id":"4","last_reported":1737375425,"current_range_meters":38800,"station_id":"ce4bhr12rcd13ifvqhqg","pricing_plan_id":"cebpf4jnsgd1na2vs0mg"},{"bike_id":"01c5dbcb-0ce1-4138-ac1b-29294ab651c5","system_id":"levelo_inurba_marseille","lat":43.30954,"lon":5.39045,"is_reserved":false,"is_disabled":false,"rental_uris":{"android":"levelo://app?vid=01c5dbcb-0ce1-4138-ac1b-29294ab651c5","ios":"levelo://app?vid=01c5dbcb-0ce1-4138-ac1b-29294ab651c5"},"vehicle_type_id":"4","last_reported":1737375425,"current_range_meters":34000,"station_id":"ce4bgup2rcd13ifvqco0","pricing_plan_id":"cebpf4jnsgd1na2vs0mg"},{"bike_id":"9eb335b9-be9e-4d87-ab11-b7aad1d486a4","system_id":"levelo_inurba_marseille","lat":43.23157,"lon":5.4373,"is_reserved":false,"is_disabled":false,"rental_uris":{"android":"levelo://app?vid=9eb335b9-be9e-4d87-ab11-b7aad1d486a4","ios":"levelo://app?vid=9eb335b9-be9e-4d87-ab11-b7aad1d486a4"},"vehicle_type_id":"4","last_reported":1737375425,"current_range_meters":38400,"station_id":"ce4bhmp2rcd13ifvqgog","pricing_plan_id":"cebpf4jnsgd1na2vs0mg"},{"bike_id":"d59e0ecc-ed04-4c70-a073-cd2b09d410dd","system_id":"levelo_inurba_marseille","lat":43.31262,"lon":5.36892,"is_reserved":false,"is_disabled":false,"rental_uris":{"android":"levelo://app?vid=d59e0ecc-ed04-4c70-a073-cd2b09d410dd","ios":"levelo://app?vid=d59e0ecc-ed04-4c70-a073-cd2b09d410dd"},"vehicle_type_id":"4","last_reported":1737375425,"current_range_meters":16800,"station_id":"","pricing_plan_id":"cebpf4jnsgd1na2vs0mg"},{"bike_id":"c152fc79-1cd4-48b6-9683-75e37b136f35","system_id":"levelo_inurba_marseille","lat":43.25002,"lon":5.38937,"is_reserved":false,"is_disabled":false,"rental_uris":{"android":"levelo://app?vid=c152fc79-1cd4-48b6-9683-75e37b136f35","ios":"levelo://app?vid=c152fc79-1cd4-48b6-9683-75e37b136f35"},"vehicle_type_id":"4","last_reported":1737375425,"current_range_meters":38800,"station_id":"ce4bhgp2rcd13ifvqfd0","pricing_plan_id":"cebpf4jnsgd1na2vs0mg"},{"bike_id":"703438ea-576b-4b38-85dd-11153e806ffb","system_id":"levelo_inurba_marseille","lat":43.27604,"lon":5.36113,"is_reserved":false,"is_disabled":false,"rental_uris":{"android":"levelo://app?vid=703438ea-576b-4b38-85dd-11153e806ffb","ios":"levelo://app?vid=703438ea-576b-4b38-85dd-11153e806ffb"},"vehicle_type_id":"4","last_reported":1737375425,"current_range_meters":39200,"station_id":"ce4bgj92rcd13ifvqbe0","pricing_plan_id":"cebpf4jnsgd1na2vs0mg"},{"bike_id":"5434439c-80a7-45ef-8e7d-a897cb833684","system_id":"levelo_inurba_marseille","lat":43.32426,"lon":5.36769,"is_reserved":false,"is_disabled":false,"rental_uris":{"android":"levelo://app?vid=5434439c-80a7-45ef-8e7d-a897cb833684","ios":"levelo://app?vid=5434439c-80a7-45ef-8e7d-a897cb833684"},"vehicle_type_id":"4","last_reported":1737375425,"current_range_meters":7200,"station_id":"","pricing_plan_id":"cebpf4jnsgd1na2vs0mg"},{"bike_id":"98564d36-ea72-4bb1-b2f6-a2930a7f809a","system_id":"levelo_inurba_marseille","lat":43.29847,"lon":5.36289,"is_reserved":false,"is_disabled":false,"rental_uris":{"android":"levelo://app?vid=98564d36-ea72-4bb1-b2f6-a2930a7f809a","ios":"levelo://app?vid=98564d36-ea72-4bb1-b2f6-a2930a7f809a"},"vehicle_type_id":"4","last_reported":1737375425,"current_range_meters":28400,"station_id":"ce4bgpp2rcd13ifvqc3g","pricing_plan_id":"cebpf4jnsgd1na2vs0mg"},{"bike_id":"e8422e35-790e-4cfa-b72c-e9a20617b4e5","system_id":"levelo_inurba_marseille","lat":43.30403,"lon":5.39764,"is_reserved":false,"is_disabled":false,"rental_uris":{"android":"levelo://app?vid=e8422e35-790e-4cfa-b72c-e9a20617b4e5","ios":"levelo://app?vid=e8422e35-790e-4cfa-b72c-e9a20617b4e5"},"vehicle_type_id":"4","last_reported":1737375425,"current_range_meters":37600,"station_id":"ce4bh092rcd13ifvqd20","pricing_plan_id":"cebpf4jnsgd1na2vs0mg"},{"bike_id":"df00be52-92ae-4aee-985f-60baf0786455","system_id":"levelo_inurba_marseille","lat":43.27614,"lon":5.36108,"is_reserved":false,"is_disabled":false,"rental_uris":{"android":"levelo://app?vid=df00be52-92ae-4aee-985f-60baf0786455","ios":"levelo://app?vid=df00be52-92ae-4aee-985f-60baf0786455"},"vehicle_type_id":"4","last_reported":1737375425,"current_range_meters":24400,"station_id":"ce4bgj92rcd13ifvqbe0","pricing_plan_id":"cebpf4jnsgd1na2vs0mg"},{"bike_id":"50267a36-8428-4ee1-ac27-ac6a771a71af","system_id":"levelo_inurba_marseille","lat":43.33715,"lon":5.35567,"is_reserved":false,"is_disabled":true,"rental_uris":{"android":"levelo://app?vid=50267a36-8428-4ee1-ac27-ac6a771a71af","ios":"levelo://app?vid=50267a36-8428-4ee1-ac27-ac6a771a71af"},"vehicle_type_id":"4","last_reported":1737375425,"current_range_meters":800,"station_id":"","pricing_plan_id":"cebpf4jnsgd1na2vs0mg"},{"bike_id":"f5863b18-13a1-4c6e-92de-5668ea912ad3","system_id":"levelo_inurba_marseille","lat":43.26234,"lon":5.40439,"is_reserved":false,"is_disabled":true,"rental_uris":{"android":"levelo://app?vid=f5863b18-13a1-4c6e-92de-5668ea912ad3","ios":"levelo://app?vid=f5863b18-13a1-4c6e-92de-5668ea912ad3"},"vehicle_type_id":"4","last_reported":1737375425,"current_range_meters":0,"station_id":"","pricing_plan_id":"cebpf4jnsgd1na2vs0mg"},{"bike_id":"e3969d47-7a98-48ce-95b3-bbad5d42c766","system_id":"levelo_inurba_marseille","lat":43.25122,"lon":5.40345,"is_reserved":false,"is_disabled":false,"rental_uris":{"android":"levelo://app?vid=e3969d47-7a98-48ce-95b3-bbad5d42c766","ios":"levelo://app?vid=e3969d47-7a98-48ce-95b3-bbad5d42c766"},"vehicle_type_id":"4","last_reported":1737375425,"current_range_meters":38800,"station_id":"ce4bhlh2rcd13ifvqgig","pricing_plan_id":"cebpf4jnsgd1na2vs0mg"},{"bike_id":"c59da5b8-9606-44e6-a886-ca458834f607","system_id":"levelo_inurba_marseille","lat":43.28478,"lon":5.38573,"is_reserved":false,"is_disabled":false,"rental_uris":{"android":"levelo://app?vid=c59da5b8-9606-44e6-a886-ca458834f607","ios":"levelo://app?vid=c59da5b8-9606-44e6-a886-ca458834f607"},"vehicle_type_id":"4","last_reported":1737375425,"current_range_meters":28000,"station_id":"ce4bh8p2rcd13ifvqeb0","pricing_plan_id":"cebpf4jnsgd1na2vs0mg"},{"bike_id":"eb6fcbf2-4dba-4dcc-a3a1-6b992d95097c","system_id":"levelo_inurba_marseille","lat":43.23962,"lon":5.36629,"is_reserved":false,"is_disabled":false,"rental_uris":{"android":"levelo://app?vid=eb6fcbf2-4dba-4dcc-a3a1-6b992d95097c","ios":"levelo://app?vid=eb6fcbf2-4dba-4dcc-a3a1-6b992d95097c"},"vehicle_type_id":"4","last_reported":1737375425,"current_range_meters":28400,"station_id":"ce4bhi12rcd13ifvqfp0","pricing_plan_id":"cebpf4jnsgd1na2vs0mg"},{"bike_id":"701ad8a5-4a2f-4eda-bee4-d8f2c0da4dac","system_id":"levelo_inurba_marseille","lat":43.29838,"lon":5.38904,"is_reserved":false,"is_disabled":true,"rental_uris":{"android":"levelo://app?vid=701ad8a5-4a2f-4eda-bee4-d8f2c0da4dac","ios":"levelo://app?vid=701ad8a5-4a2f-4eda-bee4-d8f2c0da4dac"},"vehicle_type_id":"4","last_reported":1737375425,"current_range_meters":25600,"station_id":"ce4bh392rcd13ifvqdl0","pricing_plan_id":"cebpf4jnsgd1na2vs0mg"},{"bike_id":"c7cc3d8a-71da-4ee2-a75b-e00177e5ac9a","system_id":"levelo_inurba_marseille","lat":43.26557,"lon":5.37286,"is_reserved":false,"is_disabled":false,"rental_uris":{"android":"levelo://app?vid=c7cc3d8a-71da-4ee2-a75b-e00177e5ac9a","ios":"levelo://app?vid=c7cc3d8a-71da-4ee2-a75b-e00177e5ac9a"},"vehicle_type_id":"4","last_reported":1737375425,"current_range_meters":38800,"station_id":"ce4bhg12rcd13ifvqf70","pricing_plan_id":"cebpf4jnsgd1na2vs0mg"},{"bike_id":"f0f7ae09-777e-4d19-af74-78fcd2e44652","system_id":"levelo_inurba_marseille","lat":43.250026,"lon":5.38928,"is_reserved":false,"is_disabled":false,"rental_uris":{"android":"levelo://app?vid=f0f7ae09-777e-4d19-af74-78fcd2e44652","ios":"levelo://app?vid=f0f7ae09-777e-4d19-af74-78fcd2e44652"},"vehicle_type_id":"4","last_reported":1737375425,"current_range_meters":10800,"station_id":"ce4bhgp2rcd13ifvqfd0","pricing_plan_id":"cebpf4jnsgd1na2vs0mg"},{"bike_id":"4fe58642-8ec3-4f25-a4fc-eb5dc3dc47a8","system_id":"levelo_inurba_marseille","lat":43.33543,"lon":5.36143,"is_reserved":false,"is_disabled":true,"rental_uris":{"android":"levelo://app?vid=4fe58642-8ec3-4f25-a4fc-eb5dc3dc47a8","ios":"levelo://app?vid=4fe58642-8ec3-4f25-a4fc-eb5dc3dc47a8"},"vehicle_type_id":"4","last_reported":1737375425,"current_range_meters":25600,"station_id":"","pricing_plan_id":"cebpf4jnsgd1na2vs0mg"},{"bike_id":"9cccd2ff-b864-466b-83c6-b52ec2815836","system_id":"levelo_inurba_marseille","lat":43.25717,"lon":5.4115,"is_reserved":false,"is_disabled":false,"rental_uris":{"android":"levelo://app?vid=9cccd2ff-b864-466b-83c6-b52ec2815836","ios":"levelo://app?vid=9cccd2ff-b864-466b-83c6-b52ec2815836"},"vehicle_type_id":"4","last_reported":1737375425,"current_range_meters":32400,"station_id":"ce4bhkp2rcd13ifvqgd0","pricing_plan_id":"cebpf4jnsgd1na2vs0mg"},{"bike_id":"c1f3e784-99c2-4b0b-aa1e-3a51e02a4caa","system_id":"levelo_inurba_marseille","lat":43.26924,"lon":5.38913,"is_reserved":false,"is_disabled":false,"rental_uris":{"android":"levelo://app?vid=c1f3e784-99c2-4b0b-aa1e-3a51e02a4caa","ios":"levelo://app?vid=c1f3e784-99c2-4b0b-aa1e-3a51e02a4caa"},"vehicle_type_id":"4","last_reported":1737375425,"current_range_meters":8000,"station_id":"ce4bhhh2rcd13ifvqfl0","pricing_plan_id":"cebpf4jnsgd1na2vs0mg"},{"bike_id":"b5b91842-f1aa-4bba-964f-7a9484225fb0","system_id":"levelo_inurba_marseille","lat":43.25842,"lon":5.39904,"is_reserved":false,"is_disabled":false,"rental_uris":{"android":"levelo://app?vid=b5b91842-f1aa-4bba-964f-7a9484225fb0","ios":"levelo://app?vid=b5b91842-f1aa-4bba-964f-7a9484225fb0"},"vehicle_type_id":"4","last_reported":1737375425,"current_range_meters":38800,"station_id":"ce4bhl92rcd13ifvqghg","pricing_plan_id":"cebpf4jnsgd1na2vs0mg"},{"bike_id":"9e3cde69-91cd-4384-a162-f2d38fd3e8d0","system_id":"levelo_inurba_marseille","lat":43.31492,"lon":5.37301,"is_reserved":false,"is_disabled":false,"rental_uris":{"android":"levelo://app?vid=9e3cde69-91cd-4384-a162-f2d38fd3e8d0","ios":"levelo://app?vid=9e3cde69-91cd-4384-a162-f2d38fd3e8d0"},"vehicle_type_id":"4","last_reported":1737375425,"current_range_meters":38800,"station_id":"ce4bgt12rcd13ifvqcd0","pricing_plan_id":"cebpf4jnsgd1na2vs0mg"},{"bike_id":"13a9853e-21c2-4d7a-8ae7-af374064a8b8","system_id":"levelo_inurba_marseille","lat":43.31798,"lon":5.37371,"is_reserved":false,"is_disabled":false,"rental_uris":{"android":"levelo://app?vid=13a9853e-21c2-4d7a-8ae7-af374064a8b8","ios":"levelo://app?vid=13a9853e-21c2-4d7a-8ae7-af374064a8b8"},"vehicle_type_id":"4","last_reported":1737375425,"current_range_meters":22400,"station_id":"","pricing_plan_id":"cebpf4jnsgd1na2vs0mg"},{"bike_id":"60b7d049-237a-4dbd-ad0c-436ecde1802f","system_id":"levelo_inurba_marseille","lat":43.23195,"lon":5.35557,"is_reserved":false,"is_disabled":false,"rental_uris":{"android":"levelo://app?vid=60b7d049-237a-4dbd-ad0c-436ecde1802f","ios":"levelo://app?vid=60b7d049-237a-4dbd-ad0c-436ecde1802f"},"vehicle_type_id":"4","last_reported":1737375425,"current_range_meters":24800,"station_id":"ce4bhu92rcd13ifvqi70","pricing_plan_id":"cebpf4jnsgd1na2vs0mg"},{"bike_id":"23e3688e-1696-4e5e-b435-07ea8f03f9f4","system_id":"levelo_inurba_marseille","lat":43.30595,"lon":5.37218,"is_reserved":false,"is_disabled":false,"rental_uris":{"android":"levelo://app?vid=23e3688e-1696-4e5e-b435-07ea8f03f9f4","ios":"levelo://app?vid=23e3688e-1696-4e5e-b435-07ea8f03f9f4"},"vehicle_type_id":"4","last_reported":1737375425,"current_range_meters":24400,"station_id":"ce4bgqh2rcd13ifvqc4g","pricing_plan_id":"cebpf4jnsgd1na2vs0mg"},{"bike_id":"23a5b3f4-0f7a-4a4e-8090-ef0fdae8d7e5","system_id":"levelo_inurba_marseille","lat":43.32466,"lon":5.36614,"is_reserved":false,"is_disabled":false,"rental_uris":{"android":"levelo://app?vid=23a5b3f4-0f7a-4a4e-8090-ef0fdae8d7e5","ios":"levelo://app?vid=23a5b3f4-0f7a-4a4e-8090-ef0fdae8d7e5"},"vehicle_type_id":"4","last_reported":1737375425,"current_range_meters":15200,"station_id":"ce4bhs12rcd13ifvqhvg","pricing_plan_id":"cebpf4jnsgd1na2vs0mg"},{"bike_id":"8a064807-61b8-47f9-aded-79582a7d8735","system_id":"levelo_inurba_marseille","lat":43.28483,"lon":5.38417,"is_reserved":false,"is_disabled":false,"rental_uris":{"android":"levelo://app?vid=8a064807-61b8-47f9-aded-79582a7d8735","ios":"levelo://app?vid=8a064807-61b8-47f9-aded-79582a7d8735"},"vehicle_type_id":"4","last_reported":1737375425,"current_range_meters":9200,"station_id":"ce4bh512rcd13ifvqe3g","pricing_plan_id":"cebpf4jnsgd1na2vs0mg"},{"bike_id":"e53b2507-6614-42f0-97ea-66eebc4709af","system_id":"levelo_inurba_marseille","lat":43.24804,"lon":5.37454,"is_reserved":false,"is_disabled":false,"rental_uris":{"android":"levelo://app?vid=e53b2507-6614-42f0-97ea-66eebc4709af","ios":"levelo://app?vid=e53b2507-6614-42f0-97ea-66eebc4709af"},"vehicle_type_id":"4","last_reported":1737375425,"current_range_meters":32800,"station_id":"ce4bhgh2rcd13ifvqfb0","pricing_plan_id":"cebpf4jnsgd1na2vs0mg"},{"bike_id":"8a3a0fcc-7ef4-44c2-a48f-4191b9c60868","system_id":"levelo_inurba_marseille","lat":43.32477,"lon":5.36564,"is_reserved":false,"is_disabled":false,"rental_uris":{"android":"levelo://app?vid=8a3a0fcc-7ef4-44c2-a48f-4191b9c60868","ios":"levelo://app?vid=8a3a0fcc-7ef4-44c2-a48f-4191b9c60868"},"vehicle_type_id":"4","last_reported":1737375425,"current_range_meters":4800,"station_id":"ce4bhs12rcd13ifvqhvg","pricing_plan_id":"cebpf4jnsgd1na2vs0mg"},{"bike_id":"160fd5c9-e55e-4329-8617-ce32926eb50a","system_id":"levelo_inurba_marseille","lat":43.2992,"lon":5.36521,"is_reserved":false,"is_disabled":true,"rental_uris":{"android":"levelo://app?vid=160fd5c9-e55e-4329-8617-ce32926eb50a","ios":"levelo://app?vid=160fd5c9-e55e-4329-8617-ce32926eb50a"},"vehicle_type_id":"4","last_reported":1737375425,"current_range_meters":0,"station_id":"ce4bgm92rcd13ifvqbr0","pricing_plan_id":"cebpf4jnsgd1na2vs0mg"},{"bike_id":"c73224c5-8662-473f-8844-f010af6d2952","system_id":"levelo_inurba_marseille","lat":43.27176,"lon":5.41,"is_reserved":false,"is_disabled":true,"rental_uris":{"android":"levelo://app?vid=c73224c5-8662-473f-8844-f010af6d2952","ios":"levelo://app?vid=c73224c5-8662-473f-8844-f010af6d2952"},"vehicle_type_id":"4","last_reported":1737375425,"current_range_meters":14000,"station_id":"","pricing_plan_id":"cebpf4jnsgd1na2vs0mg"},{"bike_id":"511441a2-57fd-40c6-9873-dc1f8837f88c","system_id":"levelo_inurba_marseille","lat":43.34155,"lon":5.40917,"is_reserved":false,"is_disabled":false,"rental_uris":{"android":"levelo://app?vid=511441a2-57fd-40c6-9873-dc1f8837f88c","ios":"levelo://app?vid=511441a2-57fd-40c6-9873-dc1f8837f88c"},"vehicle_type_id":"4","last_reported":1737375425,"current_range_meters":38400,"station_id":"ce4bhqh2rcd13ifvqhlg","pricing_plan_id":"cebpf4jnsgd1na2vs0mg"},{"bike_id":"95b517d0-9dcf-47f9-8053-773bec6e6a69","system_id":"levelo_inurba_marseille","lat":43.26675,"lon":5.3954,"is_reserved":false,"is_disabled":false,"rental_uris":{"android":"levelo://app?vid=95b517d0-9dcf-47f9-8053-773bec6e6a69","ios":"levelo://app?vid=95b517d0-9dcf-47f9-8053-773bec6e6a69"},"vehicle_type_id":"4","last_reported":1737375425,"current_range_meters":8400,"station_id":"","pricing_plan_id":"cebpf4jnsgd1na2vs0mg"},{"bike_id":"ef6995fd-e68e-4985-8c9d-7187adb30bbc","system_id":"levelo_inurba_marseille","lat":43.24664,"lon":5.38905,"is_reserved":false,"is_disabled":false,"rental_uris":{"android":"levelo://app?vid=ef6995fd-e68e-4985-8c9d-7187adb30bbc","ios":"levelo://app?vid=ef6995fd-e68e-4985-8c9d-7187adb30bbc"},"vehicle_type_id":"4","last_reported":1737375425,"current_range_meters":38800,"station_id":"ce4bhg12rcd13ifvqf60","pricing_plan_id":"cebpf4jnsgd1na2vs0mg"},{"bike_id":"17d82ad8-2950-46aa-9331-137b5454cf81","system_id":"levelo_inurba_marseille","lat":43.32475,"lon":5.3657,"is_reserved":false,"is_disabled":false,"rental_uris":{"android":"levelo://app?vid=17d82ad8-2950-46aa-9331-137b5454cf81","ios":"levelo://app?vid=17d82ad8-2950-46aa-9331-137b5454cf81"},"vehicle_type_id":"4","last_reported":1737375425,"current_range_meters":26000,"station_id":"ce4bhs12rcd13ifvqhvg","pricing_plan_id":"cebpf4jnsgd1na2vs0mg"},{"bike_id":"ce3a9e21-a302-4073-966f-8841df5a539c","system_id":"levelo_inurba_marseille","lat":43.304562,"lon":5.393201,"is_reserved":false,"is_disabled":false,"rental_uris":{"android":"levelo://app?vid=ce3a9e21-a302-4073-966f-8841df5a539c","ios":"levelo://app?vid=ce3a9e21-a302-4073-966f-8841df5a539c"},"vehicle_type_id":"4","last_reported":1737375425,"current_range_meters":30800,"station_id":"ce4bgip2rcd13ifvqbb0","pricing_plan_id":"cebpf4jnsgd1na2vs0mg"},{"bike_id":"47ad60ef-9d71-4c2b-9c0f-48487854fa86","system_id":"levelo_inurba_marseille","lat":43.29609,"lon":5.37165,"is_reserved":false,"is_disabled":false,"rental_uris":{"android":"levelo://app?vid=47ad60ef-9d71-4c2b-9c0f-48487854fa86","ios":"levelo://app?vid=47ad60ef-9d71-4c2b-9c0f-48487854fa86"},"vehicle_type_id":"4","last_reported":1737375425,"current_range_meters":38400,"station_id":"ce4bgnh2rcd13ifvqc0g","pricing_plan_id":"cebpf4jnsgd1na2vs0mg"},{"bike_id":"02ee253b-59c2-4a1b-842e-44918ef2f053","system_id":"levelo_inurba_marseille","lat":43.27058,"lon":5.40263,"is_reserved":false,"is_disabled":false,"rental_uris":{"android":"levelo://app?vid=02ee253b-59c2-4a1b-842e-44918ef2f053","ios":"levelo://app?vid=02ee253b-59c2-4a1b-842e-44918ef2f053"},"vehicle_type_id":"4","last_reported":1737375425,"current_range_meters":24400,"station_id":"ce4bhk92rcd13ifvqgc0","pricing_plan_id":"cebpf4jnsgd1na2vs0mg"},{"bike_id":"9118817a-adb0-4715-b2a0-301ebdb8aff1","system_id":"levelo_inurba_marseille","lat":43.28951,"lon":5.364211,"is_reserved":false,"is_disabled":false,"rental_uris":{"android":"levelo://app?vid=9118817a-adb0-4715-b2a0-301ebdb8aff1","ios":"levelo://app?vid=9118817a-adb0-4715-b2a0-301ebdb8aff1"},"vehicle_type_id":"4","last_reported":1737375425,"current_range_meters":35200,"station_id":"ce4bhc92rcd13ifvqetg","pricing_plan_id":"cebpf4jnsgd1na2vs0mg"},{"bike_id":"202e79a8-237c-46a9-9026-5c40c313c8a4","system_id":"levelo_inurba_marseille","lat":43.2929,"lon":5.37475,"is_reserved":false,"is_disabled":false,"rental_uris":{"android":"levelo://app?vid=202e79a8-237c-46a9-9026-5c40c313c8a4","ios":"levelo://app?vid=202e79a8-237c-46a9-9026-5c40c313c8a4"},"vehicle_type_id":"4","last_reported":1737375425,"current_range_meters":17600,"station_id":"ce4bgi12rcd13ifvqb70","pricing_plan_id":"cebpf4jnsgd1na2vs0mg"},{"bike_id":"12e3168b-09df-4632-9aa1-875ea537771e","system_id":"levelo_inurba_marseille","lat":43.29964,"lon":5.37181,"is_reserved":false,"is_disabled":false,"rental_uris":{"android":"levelo://app?vid=12e3168b-09df-4632-9aa1-875ea537771e","ios":"levelo://app?vid=12e3168b-09df-4632-9aa1-875ea537771e"},"vehicle_type_id":"4","last_reported":1737375425,"current_range_meters":14000,"station_id":"ce4bgr92rcd13ifvqc7g","pricing_plan_id":"cebpf4jnsgd1na2vs0mg"},{"bike_id":"432c47ae-0380-4e8c-833a-83a413fc293f","system_id":"levelo_inurba_marseille","lat":43.28158,"lon":5.42663,"is_reserved":false,"is_disabled":false,"rental_uris":{"android":"levelo://app?vid=432c47ae-0380-4e8c-833a-83a413fc293f","ios":"levelo://app?vid=432c47ae-0380-4e8c-833a-83a413fc293f"},"vehicle_type_id":"4","last_reported":1737375425,"current_range_meters":27600,"station_id":"ce4bhnh2rcd13ifvqgug","pricing_plan_id":"cebpf4jnsgd1na2vs0mg"},{"bike_id":"4dda61a9-3829-4ace-85ae-49fcc3ca21e5","system_id":"levelo_inurba_marseille","lat":43.23162,"lon":5.43723,"is_reserved":false,"is_disabled":false,"rental_uris":{"android":"levelo://app?vid=4dda61a9-3829-4ace-85ae-49fcc3ca21e5","ios":"levelo://app?vid=4dda61a9-3829-4ace-85ae-49fcc3ca21e5"},"vehicle_type_id":"4","last_reported":1737375425,"current_range_meters":18000,"station_id":"ce4bhmp2rcd13ifvqgog","pricing_plan_id":"cebpf4jnsgd1na2vs0mg"},{"bike_id":"c3a502cf-8ade-4420-87b0-051a6b1ff1d3","system_id":"levelo_inurba_marseille","lat":43.29428,"lon":5.38637,"is_reserved":false,"is_disabled":false,"rental_uris":{"android":"levelo://app?vid=c3a502cf-8ade-4420-87b0-051a6b1ff1d3","ios":"levelo://app?vid=c3a502cf-8ade-4420-87b0-051a6b1ff1d3"},"vehicle_type_id":"4","last_reported":1737375425,"current_range_meters":28800,"station_id":"ce4bh2h2rcd13ifvqdh0","pricing_plan_id":"cebpf4jnsgd1na2vs0mg"},{"bike_id":"37def594-d241-48d9-9cdd-96311bde1897","system_id":"levelo_inurba_marseille","lat":43.32111,"lon":5.36789,"is_reserved":false,"is_disabled":false,"rental_uris":{"android":"levelo://app?vid=37def594-d241-48d9-9cdd-96311bde1897","ios":"levelo://app?vid=37def594-d241-48d9-9cdd-96311bde1897"},"vehicle_type_id":"4","last_reported":1737375425,"current_range_meters":37600,"station_id":"ce4bhrh2rcd13ifvqhug","pricing_plan_id":"cebpf4jnsgd1na2vs0mg"},{"bike_id":"34405b41-6cc5-4b3a-876f-38fd11be1250","system_id":"levelo_inurba_marseille","lat":43.25973,"lon":5.40963,"is_reserved":false,"is_disabled":false,"rental_uris":{"android":"levelo://app?vid=34405b41-6cc5-4b3a-876f-38fd11be1250","ios":"levelo://app?vid=34405b41-6cc5-4b3a-876f-38fd11be1250"},"vehicle_type_id":"4","last_reported":1737375425,"current_range_meters":38800,"station_id":"ce4bhm92rcd13ifvqglg","pricing_plan_id":"cebpf4jnsgd1na2vs0mg"},{"bike_id":"fe8900e9-cf6f-45da-81d2-344b59b9cf48","system_id":"levelo_inurba_marseille","lat":43.24085,"lon":5.37754,"is_reserved":false,"is_disabled":false,"rental_uris":{"android":"levelo://app?vid=fe8900e9-cf6f-45da-81d2-344b59b9cf48","ios":"levelo://app?vid=fe8900e9-cf6f-45da-81d2-344b59b9cf48"},"vehicle_type_id":"4","last_reported":1737375425,"current_range_meters":38800,"station_id":"ce4bhnp2rcd13ifvqgvg","pricing_plan_id":"cebpf4jnsgd1na2vs0mg"},{"bike_id":"9b570da9-d892-4de0-83fd-31f2509d0191","system_id":"levelo_inurba_marseille","lat":43.27063,"lon":5.42279,"is_reserved":false,"is_disabled":false,"rental_uris":{"android":"levelo://app?vid=9b570da9-d892-4de0-83fd-31f2509d0191","ios":"levelo://app?vid=9b570da9-d892-4de0-83fd-31f2509d0191"},"vehicle_type_id":"4","last_reported":1737375425,"current_range_meters":38800,"station_id":"ce4bhk92rcd13ifvqgb0","pricing_plan_id":"cebpf4jnsgd1na2vs0mg"},{"bike_id":"80a600a9-590c-42e3-9fa9-426bde10902a","system_id":"levelo_inurba_marseille","lat":43.29627,"lon":5.37164,"is_reserved":false,"is_disabled":false,"rental_uris":{"android":"levelo://app?vid=80a600a9-590c-42e3-9fa9-426bde10902a","ios":"levelo://app?vid=80a600a9-590c-42e3-9fa9-426bde10902a"},"vehicle_type_id":"4","last_reported":1737375425,"current_range_meters":38800,"station_id":"","pricing_plan_id":"cebpf4jnsgd1na2vs0mg"},{"bike_id":"e1e727eb-9ab5-4b73-815c-92a2125780b8","system_id":"levelo_inurba_marseille","lat":43.30842,"lon":5.37404,"is_reserved":false,"is_disabled":true,"rental_uris":{"android":"levelo://app?vid=e1e727eb-9ab5-4b73-815c-92a2125780b8","ios":"levelo://app?vid=e1e727eb-9ab5-4b73-815c-92a2125780b8"},