{"last_updated":1741342211,"ttl":60,"version":"2.2","data":{"bikes":[{"bike_id":"ee1d2ad1-36ca-49dd-a328-f2a9a9994ecb","system_id":"levelo_inurba_marseille","lat":43.31087,"lon":5.38114,"is_reserved":false,"is_disabled":true,"rental_uris":{"android":"levelo://app?vid=ee1d2ad1-36ca-49dd-a328-f2a9a9994ecb","ios":"levelo://app?vid=ee1d2ad1-36ca-49dd-a328-f2a9a9994ecb"},"vehicle_type_id":"4","last_reported":1741342211,"current_range_meters":0,"station_id":"","pricing_plan_id":"cebpf4jnsgd1na2vs0mg"},{"bike_id":"fd3969db-25e9-424b-bc71-523f0eb1872c","system_id":"levelo_inurba_marseille","lat":43.23202,"lon":5.43688,"is_reserved":false,"is_disabled":true,"rental_uris":{"android":"levelo://app?vid=fd3969db-25e9-424b-bc71-523f0eb1872c","ios":"levelo://app?vid=fd3969db-25e9-424b-bc71-523f0eb1872c"},"vehicle_type_id":"4","last_reported":1741342211,"current_range_meters":0,"station_id":"ce4bhmp2rcd13ifvqgog","pricing_plan_id":"cebpf4jnsgd1na2vs0mg"},{"bike_id":"c9436184-d823-4ba0-a742-88899826a0d8","system_id":"levelo_inurba_marseille","lat":43.29776,"lon":5.39337,"is_reserved":false,"is_disabled":true,"rental_uris":{"android":"levelo://app?vid=c9436184-d823-4ba0-a742-88899826a0d8","ios":"levelo://app?vid=c9436184-d823-4ba0-a742-88899826a0d8"},"vehicle_type_id":"4","last_reported":1741342211,"current_range_meters":0,"station_id":"chh1huq6cuj3fo74tm60","pricing_plan_id":"cebpf4jnsgd1na2vs0mg"},{"bike_id":"2f144baf-20a8-435e-99ff-6be4c38a5638","system_id":"levelo_inurba_marseille","lat":43.29102,"lon":5.38136,"is_reserved":false,"is_disabled":true,"rental_uris":{"android":"levelo://app?vid=2f144baf-20a8-435e-99ff-6be4c38a5638","ios":"levelo://app?vid=2f144baf-20a8-435e-99ff-6be4c38a5638"},"vehicle_type_id":"4","last_reported":1741342211,"current_range_meters":400,"station_id":"ce4bguh2rcd13ifvqckg","pricing_plan_id":"cebpf4jnsgd1na2vs0mg"},{"bike_id":"515bbac6-5a6f-40bc-9688-8f8881b7b1ba","system_id":"levelo_inurba_marseille","lat":43.30323,"lon":5.40434,"is_reserved":false,"is_disabled":true,"rental_uris":{"android":"levelo://app?vid=515bbac6-5a6f-40bc-9688-8f8881b7b1ba","ios":"levelo://app?vid=515bbac6-5a6f-40bc-9688-8f8881b7b1ba"},"vehicle_type_id":"4","last_reported":1741342211,"current_range_meters":400,"station_id":"ce4bh012rcd13ifvqd10","pricing_plan_id":"cebpf4jnsgd1na2vs0mg"},{"bike_id":"a68203c3-82a5-460f-880c-255e1c9093e4","system_id":"levelo_inurba_marseille","lat":43.29377,"lon":5.37854,"is_reserved":false,"is_disabled":true,"rental_uris":{"android":"levelo://app?vid=a68203c3-82a5-460f-880c-255e1c9093e4","ios":"levelo://app?vid=a68203c3-82a5-460f-880c-255e1c9093e4"},"vehicle_type_id":"4","last_reported":1741342211,"current_range_meters":800,"station_id":"ce4bgjh2rcd13ifvqbf0","pricing_plan_id":"cebpf4jnsgd1na2vs0mg"},{"bike_id":"c19d9d9e-7ae3-40fc-93b9-0ed56a8141aa","system_id":"levelo_inurba_marseille","lat":43.24181,"lon":5.39732,"is_reserved":false,"is_disabled":true,"rental_uris":{"android":"levelo://app?vid=c19d9d9e-7ae3-40fc-93b9-0ed56a8141aa","ios":"levelo://app?vid=c19d9d9e-7ae3-40fc-93b9-0ed56a8141aa"},"vehicle_type_id":"4","last_reported":1741342211,"current_range_meters":800,"station_id":"ce4bhn12rcd13ifvqgpg","pricing_plan_id":"cebpf4jnsgd1na2vs0mg"},{"bike_id":"42eccaf5-53fa-4467-8dbb-c674ce4a5491","system_id":"levelo_inurba_marseille","lat":43.33604,"lon":5.41032,"is_reserved":false,"is_disabled":true,"rental_uris":{"android":"levelo://app?vid=42eccaf5-53fa-4467-8dbb-c674ce4a5491","ios":"levelo://app?vid=42eccaf5-53fa-4467-8dbb-c674ce4a5491"},"vehicle_type_id":"4","last_reported":1741342211,"current_range_meters":1600,"station_id":"ce4bhqh2rcd13ifvqhmg","pricing_plan_id":"cebpf4jnsgd1na2vs0mg"},{"bike_id":"feb0f1e4-8daa-4169-9c60-dbb8b1521e48","system_id":"levelo_inurba_marseille","lat":43.324782,"lon":5.365678,"is_reserved":false,"is_disabled":true,"rental_uris":{"android":"levelo://app?vid=feb0f1e4-8daa-4169-9c60-dbb8b1521e48","ios":"levelo://app?vid=feb0f1e4-8daa-4169-9c60-dbb8b1521e48"},"vehicle_type_id":"4","last_reported":1741342211,"current_range_meters":1600,"station_id":"ce4bhs12rcd13ifvqhvg","pricing_plan_id":"cebpf4jnsgd1na2vs0mg"},{"bike_id":"c6efdfee-4842-42b0-a53a-6965d2d6795d","system_id":"levelo_inurba_marseille","lat":43.26487,"lon":5.39566,"is_reserved":false,"is_disabled":true,"rental_uris":{"android":"levelo://app?vid=c6efdfee-4842-42b0-a53a-6965d2d6795d","ios":"levelo://app?vid=c6efdfee-4842-42b0-a53a-6965d2d6795d"},"vehicle_type_id":"4","last_reported":1741342211,"current_range_meters":2000,"station_id":"ce4bhi12rcd13ifvqfq0","pricing_plan_id":"cebpf4jnsgd1na2vs0mg"},{"bike_id":"52825aa5-39e5-4af6-8b1b-b15f642854b4","system_id":"levelo_inurba_marseille","lat":43.2593,"lon":5.40928,"is_reserved":false,"is_disabled":true,"rental_uris":{"android":"levelo://app?vid=52825aa5-39e5-4af6-8b1b-b15f642854b4","ios":"levelo://app?vid=52825aa5-39e5-4af6-8b1b-b15f642854b4"},"vehicle_type_id":"4","last_reported":1741342211,"current_range_meters":2000,"station_id":"ce4bhm92rcd13ifvqglg","pricing_plan_id":"cebpf4jnsgd1na2vs0mg"},{"bike_id":"e0014f9e-7e65-47aa-a3a0-8624b0d64140","system_id":"levelo_inurba_marseille","lat":43.2695,"lon":5.40267,"is_reserved":false,"is_disabled":true,"rental_uris":{"android":"levelo://app?vid=e0014f9e-7e65-47aa-a3a0-8624b0d64140","ios":"levelo://app?vid=e0014f9e-7e65-47aa-a3a0-8624b0d64140"},"vehicle_type_id":"4","last_reported":1741342211,"current_range_meters":2000,"station_id":"cjm6bp8fraef2m0cb0m0","pricing_plan_id":"cebpf4jnsgd1na2vs0mg"},{"bike_id":"604baac5-83b7-465a-a47d-088d34b42ff7","system_id":"levelo_inurba_marseille","lat":43.31243,"lon":5.36868,"is_reserved":false,"is_disabled":false,"rental_uris":{"android":"levelo://app?vid=604baac5-83b7-465a-a47d-088d34b42ff7","ios":"levelo://app?vid=604baac5-83b7-465a-a47d-088d34b42ff7"},"vehicle_type_id":"4","last_reported":1741342211,"current_range_meters":2800,"station_id":"ce4bgl92rcd13ifvqbq0","pricing_plan_id":"cebpf4jnsgd1na2vs0mg"},{"bike_id":"c6117969-00de-436a-a053-a8663931cc1e","system_id":"levelo_inurba_marseille","lat":43.27624,"lon":5.36117,"is_reserved":false,"is_disabled":false,"rental_uris":{"android":"levelo://app?vid=c6117969-00de-436a-a053-a8663931cc1e","ios":"levelo://app?vid=c6117969-00de-436a-a053-a8663931cc1e"},"vehicle_type_id":"4","last_reported":1741342211,"current_range_meters":3200,"station_id":"ce4bgj92rcd13ifvqbe0","pricing_plan_id":"cebpf4jnsgd1na2vs0mg"},{"bike_id":"5e2a7c49-ce3c-4fd6-8ee4-35572445cd82","system_id":"levelo_inurba_marseille","lat":43.2816,"lon":5.42657,"is_reserved":false,"is_disabled":false,"rental_uris":{"android":"levelo://app?vid=5e2a7c49-ce3c-4fd6-8ee4-35572445cd82","ios":"levelo://app?vid=5e2a7c49-ce3c-4fd6-8ee4-35572445cd82"},"vehicle_type_id":"4","last_reported":1741342211,"current_range_meters":3600,"station_id":"ce4bhnh2rcd13ifvqgug","pricing_plan_id":"cebpf4jnsgd1na2vs0mg"},{"bike_id":"3fffc9cd-f418-41de-9fba-0cc23722d684","system_id":"levelo_inurba_marseille","lat":43.23063,"lon":5.35498,"is_reserved":false,"is_disabled":false,"rental_uris":{"android":"levelo://app?vid=3fffc9cd-f418-41de-9fba-0cc23722d684","ios":"levelo://app?vid=3fffc9cd-f418-41de-9fba-0cc23722d684"},"vehicle_type_id":"4","last_reported":1741342211,"current_range_meters":3600,"station_id":"cpo3342slgdg3j2ifvpg","pricing_plan_id":"cebpf4jnsgd1na2vs0mg"},{"bike_id":"fc0a133b-0e54-4db6-b441-fb7e3659637a","system_id":"levelo_inurba_marseille","lat":43.27368,"lon":5.36243,"is_reserved":false,"is_disabled":false,"rental_uris":{"android":"levelo://app?vid=fc0a133b-0e54-4db6-b441-fb7e3659637a","ios":"levelo://app?vid=fc0a133b-0e54-4db6-b441-fb7e3659637a"},"vehicle_type_id":"4","last_reported":1741342211,"current_range_meters":4000,"station_id":"ce4bhbh2rcd13ifvqeo0","pricing_plan_id":"cebpf4jnsgd1na2vs0mg"},{"bike_id":"532f13ae-701f-43a0-9593-65eacb3de894","system_id":"levelo_inurba_marseille","lat":43.28264,"lon":5.35066,"is_reserved":false,"is_disabled":false,"rental_uris":{"android":"levelo://app?vid=532f13ae-701f-43a0-9593-65eacb3de894","ios":"levelo://app?vid=532f13ae-701f-43a0-9593-65eacb3de894"},"vehicle_type_id":"4","last_reported":1741342211,"current_range_meters":4000,"station_id":"ce4bhbp2rcd13ifvqerg","pricing_plan_id":"cebpf4jnsgd1na2vs0mg"},{"bike_id":"af58721d-d90c-4a1b-9acd-e01391118436","system_id":"levelo_inurba_marseille","lat":43.31228,"lon":5.36842,"is_reserved":false,"is_disabled":false,"rental_uris":{"android":"levelo://app?vid=af58721d-d90c-4a1b-9acd-e01391118436","ios":"levelo://app?vid=af58721d-d90c-4a1b-9acd-e01391118436"},"vehicle_type_id":"4","last_reported":1741342211,"current_range_meters":4800,"station_id":"ce4bgl92rcd13ifvqbq0","pricing_plan_id":"cebpf4jnsgd1na2vs0mg"},{"bike_id":"bf79e937-0cb1-4c33-a49a-c89ae47feddc","system_id":"levelo_inurba_marseille","lat":43.31363,"lon":5.36695,"is_reserved":false,"is_disabled":false,"rental_uris":{"android":"levelo://app?vid=bf79e937-0cb1-4c33-a49a-c89ae47feddc","ios":"levelo://app?vid=bf79e937-0cb1-4c33-a49a-c89ae47feddc"},"vehicle_type_id":"4","last_reported":1741342211,"current_range_meters":4800,"station_id":"ce4bgr92rcd13ifvqc6g","pricing_plan_id":"cebpf4jnsgd1na2vs0mg"},{"bike_id":"b6e18a32-1cad-4a90-abf9-8a37d0bbdcaa","system_id":"levelo_inurba_marseille","lat":43.29199,"lon":5.358,"is_reserved":false,"is_disabled":false,"rental_uris":{"android":"levelo://app?vid=b6e18a32-1cad-4a90-abf9-8a37d0bbdcaa","ios":"levelo://app?vid=b6e18a32-1cad-4a90-abf9-8a37d0bbdcaa"},"vehicle_type_id":"4","last_reported":1741342211,"current_range_meters":4800,"station_id":"ce4bhb12rcd13ifvqel0","pricing_plan_id":"cebpf4jnsgd1na2vs0mg"},{"bike_id":"0e44ea0d-7ceb-4c90-809f-bff2bb2c1d5d","system_id":"levelo_inurba_marseille","lat":43.29254,"lon":5.37607,"is_reserved":false,"is_disabled":false,"rental_uris":{"android":"levelo://app?vid=0e44ea0d-7ceb-4c90-809f-bff2bb2c1d5d","ios":"levelo://app?vid=0e44ea0d-7ceb-4c90-809f-bff2bb2c1d5d"},"vehicle_type_id":"4","last_reported":1741342211,"current_range_meters":5600,"station_id":"ce4bgi12rcd13ifvqb80","pricing_plan_id":"cebpf4jnsgd1na2vs0mg"},{"bike_id":"b7198722-cdae-497c-bf32-1c7f69866918","system_id":"levelo_inurba_marseille","lat":43.29967,"lon":5.38502,"is_reserved":false,"is_disabled":true,"rental_uris":{"android":"levelo://app?vid=b7198722-cdae-497c-bf32-1c7f69866918","ios":"levelo://app?vid=b7198722-cdae-497c-bf32-1c7f69866918"},"vehicle_type_id":"4","last_reported":1741342211,"current_range_meters":5600,"station_id":"ce4bgj92rcd13ifvqbd0","pricing_plan_id":"cebpf4jnsgd1na2vs0mg"},{"bike_id":"60ca2d11-e6af-45ee-8186-84d398205c2c","system_id":"levelo_inurba_marseille","lat":43.26681,"lon":5.38274,"is_reserved":false,"is_disabled":false,"rental_uris":{"android":"levelo://app?vid=60ca2d11-e6af-45ee-8186-84d398205c2c","ios":"levelo://app?vid=60ca2d11-e6af-45ee-8186-84d398205c2c"},"vehicle_type_id":"4","last_reported":1741342211,"current_range_meters":5600,"station_id":"ce4bhg92rcd13ifvqf90","pricing_plan_id":"cebpf4jnsgd1na2vs0mg"},{"bike_id":"fb310371-f352-49b8-bd49-287819a32f83","system_id":"levelo_inurba_marseille","lat":43.26192,"lon":5.37447,"is_reserved":false,"is_disabled":false,"rental_uris":{"android":"levelo://app?vid=fb310371-f352-49b8-bd49-287819a32f83","ios":"levelo://app?vid=fb310371-f352-49b8-bd49-287819a32f83"},"vehicle_type_id":"4","last_reported":1741342211,"current_range_meters":5600,"station_id":"ce4bhgp2rcd13ifvqfc0","pricing_plan_id":"cebpf4jnsgd1na2vs0mg"},{"bike_id":"341fd1f0-1448-416c-9265-9ade9fbb4e70","system_id":"levelo_inurba_marseille","lat":43.23188,"lon":5.39984,"is_reserved":false,"is_disabled":false,"rental_uris":{"android":"levelo://app?vid=341fd1f0-1448-416c-9265-9ade9fbb4e70","ios":"levelo://app?vid=341fd1f0-1448-416c-9265-9ade9fbb4e70"},"vehicle_type_id":"4","last_reported":1741342211,"current_range_meters":5600,"station_id":"ce4bhn12rcd13ifvqgqg","pricing_plan_id":"cebpf4jnsgd1na2vs0mg"},{"bike_id":"6fe4e6b0-6e35-46ef-ab90-59c7660aaee0","system_id":"levelo_inurba_marseille","lat":43.28442,"lon":5.39205,"is_reserved":false,"is_disabled":false,"rental_uris":{"android":"levelo://app?vid=6fe4e6b0-6e35-46ef-ab90-59c7660aaee0","ios":"levelo://app?vid=6fe4e6b0-6e35-46ef-ab90-59c7660aaee0"},"vehicle_type_id":"4","last_reported":1741342211,"current_range_meters":5600,"station_id":"ce4bhoh2rcd13ifvqh5g","pricing_plan_id":"cebpf4jnsgd1na2vs0mg"},{"bike_id":"664b882c-c007-4be7-b55b-68191c3155e4","system_id":"levelo_inurba_marseille","lat":43.33598,"lon":5.4103,"is_reserved":false,"is_disabled":false,"rental_uris":{"android":"levelo://app?vid=664b882c-c007-4be7-b55b-68191c3155e4","ios":"levelo://app?vid=664b882c-c007-4be7-b55b-68191c3155e4"},"vehicle_type_id":"4","last_reported":1741342211,"current_range_meters":5600,"station_id":"ce4bhqh2rcd13ifvqhmg","pricing_plan_id":"cebpf4jnsgd1na2vs0mg"},{"bike_id":"31d0d2ca-5a69-4103-af3c-17b79e351a8a","system_id":"levelo_inurba_marseille","lat":43.26583,"lon":5.39071,"is_reserved":false,"is_disabled":false,"rental_uris":{"android":"levelo://app?vid=31d0d2ca-5a69-4103-af3c-17b79e351a8a","ios":"levelo://app?vid=31d0d2ca-5a69-4103-af3c-17b79e351a8a"},"vehicle_type_id":"4","last_reported":1741342211,"current_range_meters":6000,"station_id":"ce4bhe12rcd13ifvqf30","pricing_plan_id":"cebpf4jnsgd1na2vs0mg"},{"bike_id":"fe0659af-9cec-4dc5-81cd-fa11d1ae4511","system_id":"levelo_inurba_marseille","lat":43.26688,"lon":5.38255,"is_reserved":false,"is_disabled":false,"rental_uris":{"android":"levelo://app?vid=fe0659af-9cec-4dc5-81cd-fa11d1ae4511","ios":"levelo://app?vid=fe0659af-9cec-4dc5-81cd-fa11d1ae4511"},"vehicle_type_id":"4","last_reported":1741342211,"current_range_meters":6000,"station_id":"ce4bhg92rcd13ifvqf90","pricing_plan_id":"cebpf4jnsgd1na2vs0mg"},{"bike_id":"e0c0bec3-454a-410d-a60f-3aed516ec149","system_id":"levelo_inurba_marseille","lat":43.23223,"lon":5.3555,"is_reserved":false,"is_disabled":false,"rental_uris":{"android":"levelo://app?vid=e0c0bec3-454a-410d-a60f-3aed516ec149","ios":"levelo://app?vid=e0c0bec3-454a-410d-a60f-3aed516ec149"},"vehicle_type_id":"4","last_reported":1741342211,"current_range_meters":6000,"station_id":"ce4bhu92rcd13ifvqi70","pricing_plan_id":"cebpf4jnsgd1na2vs0mg"},{"bike_id":"c3a5b20d-74f8-44e8-b569-cd5170022596","system_id":"levelo_inurba_marseille","lat":43.30885,"lon":5.37187,"is_reserved":false,"is_disabled":false,"rental_uris":{"android":"levelo://app?vid=c3a5b20d-74f8-44e8-b569-cd5170022596","ios":"levelo://app?vid=c3a5b20d-74f8-44e8-b569-cd5170022596"},"vehicle_type_id":"4","last_reported":1741342211,"current_range_meters":6400,"station_id":"ce4bguh2rcd13ifvqckg","pricing_plan_id":"cebpf4jnsgd1na2vs0mg"},{"bike_id":"2da197ac-57ed-4f4f-b0f6-cc89ef5c1c68","system_id":"levelo_inurba_marseille","lat":43.26683,"lon":5.38286,"is_reserved":false,"is_disabled":false,"rental_uris":{"android":"levelo://app?vid=2da197ac-57ed-4f4f-b0f6-cc89ef5c1c68","ios":"levelo://app?vid=2da197ac-57ed-4f4f-b0f6-cc89ef5c1c68"},"vehicle_type_id":"4","last_reported":1741342211,"current_range_meters":6800,"station_id":"ce4bhg92rcd13ifvqf90","pricing_plan_id":"cebpf4jnsgd1na2vs0mg"},{"bike_id":"8aef80f6-d63a-4d5b-a709-5382d05dd4df","system_id":"levelo_inurba_marseille","lat":43.25006,"lon":5.38932,"is_reserved":false,"is_disabled":false,"rental_uris":{"android":"levelo://app?vid=8aef80f6-d63a-4d5b-a709-5382d05dd4df","ios":"levelo://app?vid=8aef80f6-d63a-4d5b-a709-5382d05dd4df"},"vehicle_type_id":"4","last_reported":1741342211,"current_range_meters":6800,"station_id":"ce4bhgp2rcd13ifvqfd0","pricing_plan_id":"cebpf4jnsgd1na2vs0mg"},{"bike_id":"abdc7a6f-de4f-4b3b-b537-5a723ca3b154","system_id":"levelo_inurba_marseille","lat":43.2694,"lon":5.38652,"is_reserved":false,"is_disabled":false,"rental_uris":{"android":"levelo://app?vid=abdc7a6f-de4f-4b3b-b537-5a723ca3b154","ios":"levelo://app?vid=abdc7a6f-de4f-4b3b-b537-5a723ca3b154"},"vehicle_type_id":"4","last_reported":1741342211,"current_range_meters":6800,"station_id":"ce4bhh92rcd13ifvqfh0","pricing_plan_id":"cebpf4jnsgd1na2vs0mg"},{"bike_id":"f5f16292-5540-4aae-b9c8-f3d9f389f20c","system_id":"levelo_inurba_marseille","lat":43.27088,"lon":5.42278,"is_reserved":false,"is_disabled":false,"rental_uris":{"android":"levelo://app?vid=f5f16292-5540-4aae-b9c8-f3d9f389f20c","ios":"levelo://app?vid=f5f16292-5540-4aae-b9c8-f3d9f389f20c"},"vehicle_type_id":"4","last_reported":1741342211,"current_range_meters":6800,"station_id":"ce4bhk92rcd13ifvqgb0","pricing_plan_id":"cebpf4jnsgd1na2vs0mg"},{"bike_id":"2860da57-3e4a-4079-8e9b-e79c52a22a2e","system_id":"levelo_inurba_marseille","lat":43.2783,"lon":5.40732,"is_reserved":false,"is_disabled":false,"rental_uris":{"android":"levelo://app?vid=2860da57-3e4a-4079-8e9b-e79c52a22a2e","ios":"levelo://app?vid=2860da57-3e4a-4079-8e9b-e79c52a22a2e"},"vehicle_type_id":"4","last_reported":1741342211,"current_range_meters":6800,"station_id":"ce4bhnh2rcd13ifvqgtg","pricing_plan_id":"cebpf4jnsgd1na2vs0mg"},{"bike_id":"7f1905bf-da4d-4f13-af14-c5d46804e585","system_id":"levelo_inurba_marseille","lat":43.23194,"lon":5.35566,"is_reserved":false,"is_disabled":false,"rental_uris":{"android":"levelo://app?vid=7f1905bf-da4d-4f13-af14-c5d46804e585","ios":"levelo://app?vid=7f1905bf-da4d-4f13-af14-c5d46804e585"},"vehicle_type_id":"4","last_reported":1741342211,"current_range_meters":6800,"station_id":"ce4bhu92rcd13ifvqi70","pricing_plan_id":"cebpf4jnsgd1na2vs0mg"},{"bike_id":"7afbf847-7a26-4a70-868c-4d78bac5da4f","system_id":"levelo_inurba_marseille","lat":43.30537,"lon":5.36505,"is_reserved":false,"is_disabled":false,"rental_uris":{"android":"levelo://app?vid=7afbf847-7a26-4a70-868c-4d78bac5da4f","ios":"levelo://app?vid=7afbf847-7a26-4a70-868c-4d78bac5da4f"},"vehicle_type_id":"4","last_reported":1741342211,"current_range_meters":7200,"station_id":"","pricing_plan_id":"cebpf4jnsgd1na2vs0mg"},{"bike_id":"81220ab9-fb8e-4638-a084-692a6595df85","system_id":"levelo_inurba_marseille","lat":43.261877,"lon":5.420744,"is_reserved":false,"is_disabled":false,"rental_uris":{"android":"levelo://app?vid=81220ab9-fb8e-4638-a084-692a6595df85","ios":"levelo://app?vid=81220ab9-fb8e-4638-a084-692a6595df85"},"vehicle_type_id":"4","last_reported":1741342211,"current_range_meters":7200,"station_id":"","pricing_plan_id":"cebpf4jnsgd1na2vs0mg"},{"bike_id":"27bf5454-f5cc-40f9-873e-597610f0d7f8","system_id":"levelo_inurba_marseille","lat":43.27602,"lon":5.36124,"is_reserved":false,"is_disabled":false,"rental_uris":{"android":"levelo://app?vid=27bf5454-f5cc-40f9-873e-597610f0d7f8","ios":"levelo://app?vid=27bf5454-f5cc-40f9-873e-597610f0d7f8"},"vehicle_type_id":"4","last_reported":1741342211,"current_range_meters":7200,"station_id":"ce4bgj92rcd13ifvqbe0","pricing_plan_id":"cebpf4jnsgd1na2vs0mg"},{"bike_id":"373181b1-e21f-4b56-97a2-669a5770348f","system_id":"levelo_inurba_marseille","lat":43.27376,"lon":5.36244,"is_reserved":false,"is_disabled":false,"rental_uris":{"android":"levelo://app?vid=373181b1-e21f-4b56-97a2-669a5770348f","ios":"levelo://app?vid=373181b1-e21f-4b56-97a2-669a5770348f"},"vehicle_type_id":"4","last_reported":1741342211,"current_range_meters":7200,"station_id":"ce4bhbh2rcd13ifvqeo0","pricing_plan_id":"cebpf4jnsgd1na2vs0mg"},{"bike_id":"3c5e0350-07a6-4d3d-b526-00ffb41b6d3e","system_id":"levelo_inurba_marseille","lat":43.27955,"lon":5.41051,"is_reserved":false,"is_disabled":false,"rental_uris":{"android":"levelo://app?vid=3c5e0350-07a6-4d3d-b526-00ffb41b6d3e","ios":"levelo://app?vid=3c5e0350-07a6-4d3d-b526-00ffb41b6d3e"},"vehicle_type_id":"4","last_reported":1741342211,"current_range_meters":7200,"station_id":"ce4bhnp2rcd13ifvqh0g","pricing_plan_id":"cebpf4jnsgd1na2vs0mg"},{"bike_id":"32d1f900-0344-4b56-aaa5-564d19ec802c","system_id":"levelo_inurba_marseille","lat":43.27939,"lon":5.4104,"is_reserved":false,"is_disabled":false,"rental_uris":{"android":"levelo://app?vid=32d1f900-0344-4b56-aaa5-564d19ec802c","ios":"levelo://app?vid=32d1f900-0344-4b56-aaa5-564d19ec802c"},"vehicle_type_id":"4","last_reported":1741342211,"current_range_meters":7200,"station_id":"ce4bhnp2rcd13ifvqh0g","pricing_plan_id":"cebpf4jnsgd1na2vs0mg"},{"bike_id":"f927a9c8-5d84-472f-b8fd-88f2fc3bc3e6","system_id":"levelo_inurba_marseille","lat":43.29899,"lon":5.43648,"is_reserved":false,"is_disabled":false,"rental_uris":{"android":"levelo://app?vid=f927a9c8-5d84-472f-b8fd-88f2fc3bc3e6","ios":"levelo://app?vid=f927a9c8-5d84-472f-b8fd-88f2fc3bc3e6"},"vehicle_type_id":"4","last_reported":1741342211,"current_range_meters":7200,"station_id":"ce4bhpp2rcd13ifvqhfg","pricing_plan_id":"cebpf4jnsgd1na2vs0mg"},{"bike_id":"c5d9a748-fb84-4751-9008-dc4467d9ed9a","system_id":"levelo_inurba_marseille","lat":43.23183,"lon":5.35553,"is_reserved":false,"is_disabled":false,"rental_uris":{"android":"levelo://app?vid=c5d9a748-fb84-4751-9008-dc4467d9ed9a","ios":"levelo://app?vid=c5d9a748-fb84-4751-9008-dc4467d9ed9a"},"vehicle_type_id":"4","last_reported":1741342211,"current_range_meters":7200,"station_id":"ce4bhu92rcd13ifvqi70","pricing_plan_id":"cebpf4jnsgd1na2vs0mg"},{"bike_id":"b75fa8bd-8e8a-400c-8abc-d9b43870e1af","system_id":"levelo_inurba_marseille","lat":43.290225,"lon":5.374073,"is_reserved":false,"is_disabled":false,"rental_uris":{"android":"levelo://app?vid=b75fa8bd-8e8a-400c-8abc-d9b43870e1af","ios":"levelo://app?vid=b75fa8bd-8e8a-400c-8abc-d9b43870e1af"},"vehicle_type_id":"4","last_reported":1741342211,"current_range_meters":8000,"station_id":"ce4bhbp2rcd13ifvqerg","pricing_plan_id":"cebpf4jnsgd1na2vs0mg"},{"bike_id":"372db1e0-c5e0-4b1c-9637-2d5d8db360e7","system_id":"levelo_inurba_marseille","lat":43.25825,"lon":5.3944,"is_reserved":false,"is_disabled":false,"rental_uris":{"android":"levelo://app?vid=372db1e0-c5e0-4b1c-9637-2d5d8db360e7","ios":"levelo://app?vid=372db1e0-c5e0-4b1c-9637-2d5d8db360e7"},"vehicle_type_id":"4","last_reported":1741342211,"current_range_meters":8000,"station_id":"ce4bhip2rcd13ifvqft0","pricing_plan_id":"cebpf4jnsgd1na2vs0mg"},{"bike_id":"651068a3-bff5-4aa4-bafe-de2f2377d643","system_id":"levelo_inurba_marseille","lat":43.25728,"lon":5.41102,"is_reserved":false,"is_disabled":false,"rental_uris":{"android":"levelo://app?vid=651068a3-bff5-4aa4-bafe-de2f2377d643","ios":"levelo://app?vid=651068a3-bff5-4aa4-bafe-de2f2377d643"},"vehicle_type_id":"4","last_reported":1741342211,"current_range_meters":8000,"station_id":"ce4bhkp2rcd13ifvqgd0","pricing_plan_id":"cebpf4jnsgd1na2vs0mg"},{"bike_id":"c262f8cf-6400-4efd-af91-c8aabadab203","system_id":"levelo_inurba_marseille","lat":43.231882,"lon":5.399803,"is_reserved":false,"is_disabled":false,"rental_uris":{"android":"levelo://app?vid=c262f8cf-6400-4efd-af91-c8aabadab203","ios":"levelo://app?vid=c262f8cf-6400-4efd-af91-c8aabadab203"},"vehicle_type_id":"4","last_reported":1741342211,"current_range_meters":8000,"station_id":"ce4bhn12rcd13ifvqgqg","pricing_plan_id":"cebpf4jnsgd1na2vs0mg"},{"bike_id":"484f17bc-2a99-4d45-a9b9-614e75e026f7","system_id":"levelo_inurba_marseille","lat":43.27809,"lon":5.40724,"is_reserved":false,"is_disabled":false,"rental_uris":{"android":"levelo://app?vid=484f17bc-2a99-4d45-a9b9-614e75e026f7","ios":"levelo://app?vid=484f17bc-2a99-4d45-a9b9-614e75e026f7"},"vehicle_type_id":"4","last_reported":1741342211,"current_range_meters":8000,"station_id":"ce4bhnh2rcd13ifvqgtg","pricing_plan_id":"cebpf4jnsgd1na2vs0mg"},{"bike_id":"5487e4c1-499e-460a-9df1-016e88b5ed82","system_id":"levelo_inurba_marseille","lat":43.29911,"lon":5.43684,"is_reserved":false,"is_disabled":false,"rental_uris":{"android":"levelo://app?vid=5487e4c1-499e-460a-9df1-016e88b5ed82","ios":"levelo://app?vid=5487e4c1-499e-460a-9df1-016e88b5ed82"},"vehicle_type_id":"4","last_reported":1741342211,"current_range_meters":8000,"station_id":"ce4bhpp2rcd13ifvqhfg","pricing_plan_id":"cebpf4jnsgd1na2vs0mg"},{"bike_id":"1b34c58c-f011-43f3-baac-47c6cf7523c0","system_id":"levelo_inurba_marseille","lat":43.29892,"lon":5.43649,"is_reserved":false,"is_disabled":false,"rental_uris":{"android":"levelo://app?vid=1b34c58c-f011-43f3-baac-47c6cf7523c0","ios":"levelo://app?vid=1b34c58c-f011-43f3-baac-47c6cf7523c0"},"vehicle_type_id":"4","last_reported":1741342211,"current_range_meters":8000,"station_id":"ce4bhpp2rcd13ifvqhfg","pricing_plan_id":"cebpf4jnsgd1na2vs0mg"},{"bike_id":"858c50df-ffa3-4ac3-a680-aba957e8944e","system_id":"levelo_inurba_marseille","lat":43.2989,"lon":5.43657,"is_reserved":false,"is_disabled":false,"rental_uris":{"android":"levelo://app?vid=858c50df-ffa3-4ac3-a680-aba957e8944e","ios":"levelo://app?vid=858c50df-ffa3-4ac3-a680-aba957e8944e"},"vehicle_type_id":"4","last_reported":1741342211,"current_range_meters":8000,"station_id":"ce4bhpp2rcd13ifvqhfg","pricing_plan_id":"cebpf4jnsgd1na2vs0mg"},{"bike_id":"f25f4f6e-697a-480c-95f0-89bf5426a900","system_id":"levelo_inurba_marseille","lat":43.33606,"lon":5.41033,"is_reserved":false,"is_disabled":false,"rental_uris":{"android":"levelo://app?vid=f25f4f6e-697a-480c-95f0-89bf5426a900","ios":"levelo://app?vid=f25f4f6e-697a-480c-95f0-89bf5426a900"},"vehicle_type_id":"4","last_reported":1741342211,"current_range_meters":8000,"station_id":"ce4bhqh2rcd13ifvqhmg","pricing_plan_id":"cebpf4jnsgd1na2vs0mg"},{"bike_id":"fbe50864-25cc-4155-a7e3-9a4c8dd54dd6","system_id":"levelo_inurba_marseille","lat":43.30914,"lon":5.36854,"is_reserved":false,"is_disabled":false,"rental_uris":{"android":"levelo://app?vid=fbe50864-25cc-4155-a7e3-9a4c8dd54dd6","ios":"levelo://app?vid=fbe50864-25cc-4155-a7e3-9a4c8dd54dd6"},"vehicle_type_id":"4","last_reported":1741342211,"current_range_meters":8400,"station_id":"ce4bgn92rcd13ifvqbvg","pricing_plan_id":"cebpf4jnsgd1na2vs0mg"},{"bike_id":"0e4f29e7-d28c-45d5-a936-55905fbd5061","system_id":"levelo_inurba_marseille","lat":43.31377,"lon":5.36724,"is_reserved":false,"is_disabled":false,"rental_uris":{"android":"levelo://app?vid=0e4f29e7-d28c-45d5-a936-55905fbd5061","ios":"levelo://app?vid=0e4f29e7-d28c-45d5-a936-55905fbd5061"},"vehicle_type_id":"4","last_reported":1741342211,"current_range_meters":8400,"station_id":"ce4bgr92rcd13ifvqc6g","pricing_plan_id":"cebpf4jnsgd1na2vs0mg"},{"bike_id":"bae88569-610f-475c-98ca-784f8598b84a","system_id":"levelo_inurba_marseille","lat":43.30279,"lon":5.376987,"is_reserved":false,"is_disabled":false,"rental_uris":{"android":"levelo://app?vid=bae88569-610f-475c-98ca-784f8598b84a","ios":"levelo://app?vid=bae88569-610f-475c-98ca-784f8598b84a"},"vehicle_type_id":"4","last_reported":1741342211,"current_range_meters":8400,"station_id":"ce4bguh2rcd13ifvqcj0","pricing_plan_id":"cebpf4jnsgd1na2vs0mg"},{"bike_id":"e2a1b5c0-11be-424d-9537-fafb86f45f07","system_id":"levelo_inurba_marseille","lat":43.309113,"lon":5.36845,"is_reserved":false,"is_disabled":false,"rental_uris":{"android":"levelo://app?vid=e2a1b5c0-11be-424d-9537-fafb86f45f07","ios":"levelo://app?vid=e2a1b5c0-11be-424d-9537-fafb86f45f07"},"vehicle_type_id":"4","last_reported":1741342211,"current_range_meters":8800,"station_id":"ce4bgn92rcd13ifvqbvg","pricing_plan_id":"cebpf4jnsgd1na2vs0mg"},{"bike_id":"bac24664-3ab1-41bf-af8d-4befdf6341f7","system_id":"levelo_inurba_marseille","lat":43.30891,"lon":5.37206,"is_reserved":false,"is_disabled":false,"rental_uris":{"android":"levelo://app?vid=bac24664-3ab1-41bf-af8d-4befdf6341f7","ios":"levelo://app?vid=bac24664-3ab1-41bf-af8d-4befdf6341f7"},"vehicle_type_id":"4","last_reported":1741342211,"current_range_meters":8800,"station_id":"ce4bguh2rcd13ifvqckg","pricing_plan_id":"cebpf4jnsgd1na2vs0mg"},{"bike_id":"b0d23981-b8ae-484d-ad8c-72d75d654285","system_id":"levelo_inurba_marseille","lat":43.28711,"lon":5.37384,"is_reserved":false,"is_disabled":false,"rental_uris":{"android":"levelo://app?vid=b0d23981-b8ae-484d-ad8c-72d75d654285","ios":"levelo://app?vid=b0d23981-b8ae-484d-ad8c-72d75d654285"},"vehicle_type_id":"4","last_reported":1741342211,"current_range_meters":8800,"station_id":"ce4bh3p2rcd13ifvqdq0","pricing_plan_id":"cebpf4jnsgd1na2vs0mg"},{"bike_id":"3039f003-31f0-4ead-9dee-581bb853c92d","system_id":"levelo_inurba_marseille","lat":43.2656,"lon":5.3728,"is_reserved":false,"is_disabled":false,"rental_uris":{"android":"levelo://app?vid=3039f003-31f0-4ead-9dee-581bb853c92d","ios":"levelo://app?vid=3039f003-31f0-4ead-9dee-581bb853c92d"},"vehicle_type_id":"4","last_reported":1741342211,"current_range_meters":8800,"station_id":"ce4bhg12rcd13ifvqf70","pricing_plan_id":"cebpf4jnsgd1na2vs0mg"},{"bike_id":"34da12a4-e1c5-4c32-a72f-689173614aac","system_id":"levelo_inurba_marseille","lat":43.24998,"lon":5.38936,"is_reserved":false,"is_disabled":false,"rental_uris":{"android":"levelo://app?vid=34da12a4-e1c5-4c32-a72f-689173614aac","ios":"levelo://app?vid=34da12a4-e1c5-4c32-a72f-689173614aac"},"vehicle_type_id":"4","last_reported":1741342211,"current_range_meters":8800,"station_id":"ce4bhgp2rcd13ifvqfd0","pricing_plan_id":"cebpf4jnsgd1na2vs0mg"},{"bike_id":"f73c1751-9f0e-479f-9e9f-366c8c6563ea","system_id":"levelo_inurba_marseille","lat":43.269513,"lon":5.386272,"is_reserved":false,"is_disabled":false,"rental_uris":{"android":"levelo://app?vid=f73c1751-9f0e-479f-9e9f-366c8c6563ea","ios":"levelo://app?vid=f73c1751-9f0e-479f-9e9f-366c8c6563ea"},"vehicle_type_id":"4","last_reported":1741342211,"current_range_meters":8800,"station_id":"ce4bhh92rcd13ifvqfh0","pricing_plan_id":"cebpf4jnsgd1na2vs0mg"},{"bike_id":"fdde8103-1f2a-4455-bcfa-e1d74ecb0194","system_id":"levelo_inurba_marseille","lat":43.27813,"lon":5.40704,"is_reserved":false,"is_disabled":false,"rental_uris":{"android":"levelo://app?vid=fdde8103-1f2a-4455-bcfa-e1d74ecb0194","ios":"levelo://app?vid=fdde8103-1f2a-4455-bcfa-e1d74ecb0194"},"vehicle_type_id":"4","last_reported":1741342211,"current_range_meters":8800,"station_id":"ce4bhnh2rcd13ifvqgtg","pricing_plan_id":"cebpf4jnsgd1na2vs0mg"},{"bike_id":"357f6b0d-7429-4870-b5b1-c540923d954d","system_id":"levelo_inurba_marseille","lat":43.23076,"lon":5.35512,"is_reserved":false,"is_disabled":false,"rental_uris":{"android":"levelo://app?vid=357f6b0d-7429-4870-b5b1-c540923d954d","ios":"levelo://app?vid=357f6b0d-7429-4870-b5b1-c540923d954d"},"vehicle_type_id":"4","last_reported":1741342211,"current_range_meters":8800,"station_id":"cpo3342slgdg3j2ifvpg","pricing_plan_id":"cebpf4jnsgd1na2vs0mg"},{"bike_id":"d8e0cd60-2b65-4338-bbaf-5428c7410cef","system_id":"levelo_inurba_marseille","lat":43.30988,"lon":5.36821,"is_reserved":false,"is_disabled":false,"rental_uris":{"android":"levelo://app?vid=d8e0cd60-2b65-4338-bbaf-5428c7410cef","ios":"levelo://app?vid=d8e0cd60-2b65-4338-bbaf-5428c7410cef"},"vehicle_type_id":"4","last_reported":1741342211,"current_range_meters":9200,"station_id":"","pricing_plan_id":"cebpf4jnsgd1na2vs0mg"},{"bike_id":"4a744a83-fcd1-46c2-808e-6bac0c75806f","system_id":"levelo_inurba_marseille","lat":43.30611,"lon":5.37232,"is_reserved":false,"is_disabled":false,"rental_uris":{"android":"levelo://app?vid=4a744a83-fcd1-46c2-808e-6bac0c75806f","ios":"levelo://app?vid=4a744a83-fcd1-46c2-808e-6bac0c75806f"},"vehicle_type_id":"4","last_reported":1741342211,"current_range_meters":9200,"station_id":"ce4bgqh2rcd13ifvqc4g","pricing_plan_id":"cebpf4jnsgd1na2vs0mg"},{"bike_id":"dd5733e2-9630-4511-912e-aeca8f56bea1","system_id":"levelo_inurba_marseille","lat":43.25585,"lon":5.38224,"is_reserved":false,"is_disabled":false,"rental_uris":{"android":"levelo://app?vid=dd5733e2-9630-4511-912e-aeca8f56bea1","ios":"levelo://app?vid=dd5733e2-9630-4511-912e-aeca8f56bea1"},"vehicle_type_id":"4","last_reported":1741342211,"current_range_meters":9200,"station_id":"ce4bhih2rcd13ifvqfs0","pricing_plan_id":"cebpf4jnsgd1na2vs0mg"},{"bike_id":"2d340159-37c8-41dc-a62f-ca06729e55bc","system_id":"levelo_inurba_marseille","lat":43.323614,"lon":5.367641,"is_reserved":false,"is_disabled":false,"rental_uris":{"android":"levelo://app?vid=2d340159-37c8-41dc-a62f-ca06729e55bc","ios":"levelo://app?vid=2d340159-37c8-41dc-a62f-ca06729e55bc"},"vehicle_type_id":"4","last_reported":1741342211,"current_range_meters":9200,"station_id":"ce4bhsh2rcd13ifvqi2g","pricing_plan_id":"cebpf4jnsgd1na2vs0mg"},{"bike_id":"a5056a32-e997-4e5c-b679-d52e4331fd74","system_id":"levelo_inurba_marseille","lat":43.30476,"lon":5.37888,"is_reserved":false,"is_disabled":false,"rental_uris":{"android":"levelo://app?vid=a5056a32-e997-4e5c-b679-d52e4331fd74","ios":"levelo://app?vid=a5056a32-e997-4e5c-b679-d52e4331fd74"},"vehicle_type_id":"4","last_reported":1741342211,"current_range_meters":9600,"station_id":"ce4bgup2rcd13ifvqcn0","pricing_plan_id":"cebpf4jnsgd1na2vs0mg"},{"bike_id":"e75c7a54-2c78-4bc4-bb61-d5cd46d6faf4","system_id":"levelo_inurba_marseille","lat":43.28675,"lon":5.3867,"is_reserved":false,"is_disabled":false,"rental_uris":{"android":"levelo://app?vid=e75c7a54-2c78-4bc4-bb61-d5cd46d6faf4","ios":"levelo://app?vid=e75c7a54-2c78-4bc4-bb61-d5cd46d6faf4"},"vehicle_type_id":"4","last_reported":1741342211,"current_range_meters":9600,"station_id":"ce4bh492rcd13ifvqdug","pricing_plan_id":"cebpf4jnsgd1na2vs0mg"},{"bike_id":"5571d9ff-5d81-41bd-bcf5-ba27f45ec832","system_id":"levelo_inurba_marseille","lat":43.26209,"lon":5.37446,"is_reserved":false,"is_disabled":false,"rental_uris":{"android":"levelo://app?vid=5571d9ff-5d81-41bd-bcf5-ba27f45ec832","ios":"levelo://app?vid=5571d9ff-5d81-41bd-bcf5-ba27f45ec832"},"vehicle_type_id":"4","last_reported":1741342211,"current_range_meters":9600,"station_id":"ce4bhgp2rcd13ifvqfc0","pricing_plan_id":"cebpf4jnsgd1na2vs0mg"},{"bike_id":"d0e2ef87-cca3-4608-a32c-059de7183971","system_id":"levelo_inurba_marseille","lat":43.24081,"lon":5.37756,"is_reserved":false,"is_disabled":false,"rental_uris":{"android":"levelo://app?vid=d0e2ef87-cca3-4608-a32c-059de7183971","ios":"levelo://app?vid=d0e2ef87-cca3-4608-a32c-059de7183971"},"vehicle_type_id":"4","last_reported":1741342211,"current_range_meters":10000,"station_id":"","pricing_plan_id":"cebpf4jnsgd1na2vs0mg"},{"bike_id":"56db0908-ef01-44f7-b403-cea5d6e769c0","system_id":"levelo_inurba_marseille","lat":43.26188,"lon":5.37459,"is_reserved":false,"is_disabled":false,"rental_uris":{"android":"levelo://app?vid=56db0908-ef01-44f7-b403-cea5d6e769c0","ios":"levelo://app?vid=56db0908-ef01-44f7-b403-cea5d6e769c0"},"vehicle_type_id":"4","last_reported":1741342211,"current_range_meters":10000,"station_id":"ce4bhgp2rcd13ifvqfc0","pricing_plan_id":"cebpf4jnsgd1na2vs0mg"},{"bike_id":"7d483360-c35f-4d7f-9a39-8a1e6c8ecd39","system_id":"levelo_inurba_marseille","lat":43.26964,"lon":5.38622,"is_reserved":false,"is_disabled":false,"rental_uris":{"android":"levelo://app?vid=7d483360-c35f-4d7f-9a39-8a1e6c8ecd39","ios":"levelo://app?vid=7d483360-c35f-4d7f-9a39-8a1e6c8ecd39"},"vehicle_type_id":"4","last_reported":1741342211,"current_range_meters":10000,"station_id":"ce4bhh92rcd13ifvqfh0","pricing_plan_id":"cebpf4jnsgd1na2vs0mg"},{"bike_id":"42323b44-4776-4993-88db-08c90d643018","system_id":"levelo_inurba_marseille","lat":43.30077,"lon":5.37685,"is_reserved":false,"is_disabled":false,"rental_uris":{"android":"levelo://app?vid=42323b44-4776-4993-88db-08c90d643018","ios":"levelo://app?vid=42323b44-4776-4993-88db-08c90d643018"},"vehicle_type_id":"4","last_reported":1741342211,"current_range_meters":10800,"station_id":"","pricing_plan_id":"cebpf4jnsgd1na2vs0mg"},{"bike_id":"f530f6f5-07c4-438e-adcf-c66e1e91e95a","system_id":"levelo_inurba_marseille","lat":43.30301,"lon":5.36883,"is_reserved":false,"is_disabled":false,"rental_uris":{"android":"levelo://app?vid=f530f6f5-07c4-438e-adcf-c66e1e91e95a","ios":"levelo://app?vid=f530f6f5-07c4-438e-adcf-c66e1e91e95a"},"vehicle_type_id":"4","last_reported":1741342211,"current_range_meters":10800,"station_id":"ce4bgqh2rcd13ifvqc5g","pricing_plan_id":"cebpf4jnsgd1na2vs0mg"},{"bike_id":"a7e8bc7d-4983-4763-86bc-9b1548214877","system_id":"levelo_inurba_marseille","lat":43.30543,"lon":5.36694,"is_reserved":false,"is_disabled":false,"rental_uris":{"android":"levelo://app?vid=a7e8bc7d-4983-4763-86bc-9b1548214877","ios":"levelo://app?vid=a7e8bc7d-4983-4763-86bc-9b1548214877"},"vehicle_type_id":"4","last_reported":1741342211,"current_range_meters":10800,"station_id":"ce4bgrp2rcd13ifvqc9g","pricing_plan_id":"cebpf4jnsgd1na2vs0mg"},{"bike_id":"61e04abe-a59e-4f2d-93bd-20235b7acce6","system_id":"levelo_inurba_marseille","lat":43.30116,"lon":5.39845,"is_reserved":false,"is_disabled":false,"rental_uris":{"android":"levelo://app?vid=61e04abe-a59e-4f2d-93bd-20235b7acce6","ios":"levelo://app?vid=61e04abe-a59e-4f2d-93bd-20235b7acce6"},"vehicle_type_id":"4","last_reported":1741342211,"current_range_meters":10800,"station_id":"ce4bh0h2rcd13ifvqd40","pricing_plan_id":"cebpf4jnsgd1na2vs0mg"},{"bike_id":"25fa3c25-b6a8-4846-b5aa-b5bbfcb9cf23","system_id":"levelo_inurba_marseille","lat":43.2904,"lon":5.39984,"is_reserved":false,"is_disabled":false,"rental_uris":{"android":"levelo://app?vid=25fa3c25-b6a8-4846-b5aa-b5bbfcb9cf23","ios":"levelo://app?vid=25fa3c25-b6a8-4846-b5aa-b5bbfcb9cf23"},"vehicle_type_id":"4","last_reported":1741342211,"current_range_meters":10800,"station_id":"ce4bh392rcd13ifvqdm0","pricing_plan_id":"cebpf4jnsgd1na2vs0mg"},{"bike_id":"efeecc4e-a20d-45dd-8d85-a2fda88e8c85","system_id":"levelo_inurba_marseille","lat":43.26033,"lon":5.37546,"is_reserved":false,"is_disabled":false,"rental_uris":{"android":"levelo://app?vid=efeecc4e-a20d-45dd-8d85-a2fda88e8c85","ios":"levelo://app?vid=efeecc4e-a20d-45dd-8d85-a2fda88e8c85"},"vehicle_type_id":"4","last_reported":1741342211,"current_range_meters":10800,"station_id":"ce4bhgh2rcd13ifvqfa0","pricing_plan_id":"cebpf4jnsgd1na2vs0mg"},{"bike_id":"09b5a791-41f8-48d8-a8af-e40022d24921","system_id":"levelo_inurba_marseille","lat":43.26811,"lon":5.39404,"is_reserved":false,"is_disabled":false,"rental_uris":{"android":"levelo://app?vid=09b5a791-41f8-48d8-a8af-e40022d24921","ios":"levelo://app?vid=09b5a791-41f8-48d8-a8af-e40022d24921"},"vehicle_type_id":"4","last_reported":1741342211,"current_range_meters":10800,"station_id":"ce4bhh12rcd13ifvqfg0","pricing_plan_id":"cebpf4jnsgd1na2vs0mg"},{"bike_id":"12a111c0-ef8d-4ebb-9a90-a2fec8ca5ecb","system_id":"levelo_inurba_marseille","lat":43.287,"lon":5.3999,"is_reserved":false,"is_disabled":false,"rental_uris":{"android":"levelo://app?vid=12a111c0-ef8d-4ebb-9a90-a2fec8ca5ecb","ios":"levelo://app?vid=12a111c0-ef8d-4ebb-9a90-a2fec8ca5ecb"},"vehicle_type_id":"4","last_reported":1741342211,"current_range_meters":10800,"station_id":"ce4bho92rcd13ifvqh3g","pricing_plan_id":"cebpf4jnsgd1na2vs0mg"},{"bike_id":"cce9dc5f-d3e2-473d-bce2-8c78a0ec43a5","system_id":"levelo_inurba_marseille","lat":43.29776,"lon":5.39342,"is_reserved":false,"is_disabled":false,"rental_uris":{"android":"levelo://app?vid=cce9dc5f-d3e2-473d-bce2-8c78a0ec43a5","ios":"levelo://app?vid=cce9dc5f-d3e2-473d-bce2-8c78a0ec43a5"},"vehicle_type_id":"4","last_reported":1741342211,"current_range_meters":10800,"station_id":"chh1huq6cuj3fo74tm60","pricing_plan_id":"cebpf4jnsgd1na2vs0mg"},{"bike_id":"c1305342-5928-451d-987c-c054439f0006","system_id":"levelo_inurba_marseille","lat":43.29346,"lon":5.37847,"is_reserved":false,"is_disabled":false,"rental_uris":{"android":"levelo://app?vid=c1305342-5928-451d-987c-c054439f0006","ios":"levelo://app?vid=c1305342-5928-451d-987c-c054439f0006"},"vehicle_type_id":"4","last_reported":1741342211,"current_range_meters":11200,"station_id":"ce4bgjh2rcd13ifvqbf0","pricing_plan_id":"cebpf4jnsgd1na2vs0mg"},{"bike_id":"5b3792ce-69ec-4529-bb39-23707e722c49","system_id":"levelo_inurba_marseille","lat":43.29623,"lon":5.37155,"is_reserved":false,"is_disabled":false,"rental_uris":{"android":"levelo://app?vid=5b3792ce-69ec-4529-bb39-23707e722c49","ios":"levelo://app?vid=5b3792ce-69ec-4529-bb39-23707e722c49"},"vehicle_type_id":"4","last_reported":1741342211,"current_range_meters":11200,"station_id":"ce4bgnh2rcd13ifvqc0g","pricing_plan_id":"cebpf4jnsgd1na2vs0mg"},{"bike_id":"773b5bb5-136d-4c66-bac9-7348ed7bc4c5","system_id":"levelo_inurba_marseille","lat":43.287174,"lon":5.379354,"is_reserved":false,"is_disabled":false,"rental_uris":{"android":"levelo://app?vid=773b5bb5-136d-4c66-bac9-7348ed7bc4c5","ios":"levelo://app?vid=773b5bb5-136d-4c66-bac9-7348ed7bc4c5"},"vehicle_type_id":"4","last_reported":1741342211,"current_range_meters":11200,"station_id":"ce4bh9p2rcd13ifvqec0","pricing_plan_id":"cebpf4jnsgd1na2vs0mg"},{"bike_id":"97ec7852-1a72-4f4d-8bce-6eb24e8fcbf1","system_id":"levelo_inurba_marseille","lat":43.336088,"lon":5.410293,"is_reserved":false,"is_disabled":false,"rental_uris":{"android":"levelo://app?vid=97ec7852-1a72-4f4d-8bce-6eb24e8fcbf1","ios":"levelo://app?vid=97ec7852-1a72-4f4d-8bce-6eb24e8fcbf1"},"vehicle_type_id":"4","last_reported":1741342211,"current_range_meters":11200,"station_id":"ce4bhqh2rcd13ifvqhmg","pricing_plan_id":"cebpf4jnsgd1na2vs0mg"},{"bike_id":"c17906fc-573a-4577-8a38-824483c69cee","system_id":"levelo_inurba_marseille","lat":43.3246,"lon":5.36581,"is_reserved":false,"is_disabled":false,"rental_uris":{"android":"levelo://app?vid=c17906fc-573a-4577-8a38-824483c69cee","ios":"levelo://app?vid=c17906fc-573a-4577-8a38-824483c69cee"},"vehicle_type_id":"4","last_reported":1741342211,"current_range_meters":11200,"station_id":"ce4bhs12rcd13ifvqhvg","pricing_plan_id":"cebpf4jnsgd1na2vs0mg"},{"bike_id":"30f75003-60b0-4271-83ee-e546ba470a36","system_id":"levelo_inurba_marseille","lat":43.29628,"lon":5.40601,"is_reserved":false,"is_disabled":false,"rental_uris":{"android":"levelo://app?vid=30f75003-60b0-4271-83ee-e546ba470a36","ios":"levelo://app?vid=30f75003-60b0-4271-83ee-e546ba470a36"},"vehicle_type_id":"4","last_reported":1741342211,"current_range_meters":11600,"station_id":"ce4bh0h2rcd13ifvqd60","pricing_plan_id":"cebpf4jnsgd1na2vs0mg"},{"bike_id":"d015e1e7-8b4f-4898-a841-104d62c0d9ad","system_id":"levelo_inurba_marseille","lat":43.23172,"lon":5.39992,"is_reserved":false,"is_disabled":false,"rental_uris":{"android":"levelo://app?vid=d015e1e7-8b4f-4898-a841-104d62c0d9ad","ios":"levelo://app?vid=d015e1e7-8b4f-4898-a841-104d62c0d9ad"},"vehicle_type_id":"4","last_reported":1741342211,"current_range_meters":11600,"station_id":"ce4bhn12rcd13ifvqgqg","pricing_plan_id":"cebpf4jnsgd1na2vs0mg"},{"bike_id":"4ecec15e-51a9-464b-a6c3-43511ce6977f","system_id":"levelo_inurba_marseille","lat":43.27806,"lon":5.40705,"is_reserved":false,"is_disabled":false,"rental_uris":{"android":"levelo://app?vid=4ecec15e-51a9-464b-a6c3-43511ce6977f","ios":"levelo://app?vid=4ecec15e-51a9-464b-a6c3-43511ce6977f"},"vehicle_type_id":"4","last_reported":1741342211,"current_range_meters":11600,"station_id":"ce4bhnh2rcd13ifvqgtg","pricing_plan_id":"cebpf4jnsgd1na2vs0mg"},{"bike_id":"da4b0df0-098c-4216-b3e1-843796eb7c80","system_id":"levelo_inurba_marseille","lat":43.28153,"lon":5.42645,"is_reserved":false,"is_disabled":false,"rental_uris":{"android":"levelo://app?vid=da4b0df0-098c-4216-b3e1-843796eb7c80","ios":"levelo://app?vid=da4b0df0-098c-4216-b3e1-843796eb7c80"},"vehicle_type_id":"4","last_reported":1741342211,"current_range_meters":11600,"station_id":"ce4bhnh2rcd13ifvqgug","pricing_plan_id":"cebpf4jnsgd1na2vs0mg"},{"bike_id":"66d38daa-6efe-47bc-acc9-66b295102cc5","system_id":"levelo_inurba_marseille","lat":43.31387,"lon":5.4319,"is_reserved":false,"is_disabled":false,"rental_uris":{"android":"levelo://app?vid=66d38daa-6efe-47bc-acc9-66b295102cc5","ios":"levelo://app?vid=66d38daa-6efe-47bc-acc9-66b295102cc5"},"vehicle_type_id":"4","last_reported":1741342211,"current_range_meters":11600,"station_id":"ce4bhp92rcd13ifvqhcg","pricing_plan_id":"cebpf4jnsgd1na2vs0mg"},{"bike_id":"6a1366c1-41ed-4dda-b62f-b12cda709bc4","system_id":"levelo_inurba_marseille","lat":43.32363,"lon":5.38913,"is_reserved":false,"is_disabled":false,"rental_uris":{"android":"levelo://app?vid=6a1366c1-41ed-4dda-b62f-b12cda709bc4","ios":"levelo://app?vid=6a1366c1-41ed-4dda-b62f-b12cda709bc4"},"vehicle_type_id":"4","last_reported":1741342211,"current_range_meters":11600,"station_id":"ce4bhqp2rcd13ifvqhog","pricing_plan_id":"cebpf4jnsgd1na2vs0mg"},{"bike_id":"d0a9e0b6-7460-48af-b167-fa241d6b44c3","system_id":"levelo_inurba_marseille","lat":43.32084,"lon":5.36786,"is_reserved":false,"is_disabled":false,"rental_uris":{"android":"levelo://app?vid=d0a9e0b6-7460-48af-b167-fa241d6b44c3","ios":"levelo://app?vid=d0a9e0b6-7460-48af-b167-fa241d6b44c3"},"vehicle_type_id":"4","last_reported":1741342211,"current_range_meters":11600,"station_id":"ce4bhrh2rcd13ifvqhug","pricing_plan_id":"cebpf4jnsgd1na2vs0mg"},{"bike_id":"daa48c53-c5de-46aa-94fc-655cbd710c8c","system_id":"levelo_inurba_marseille","lat":43.229283,"lon":5.353931,"is_reserved":false,"is_disabled":false,"rental_uris":{"android":"levelo://app?vid=daa48c53-c5de-46aa-94fc-655cbd710c8c","ios":"levelo://app?vid=daa48c53-c5de-46aa-94fc-655cbd710c8c"},"vehicle_type_id":"4","last_reported":1741342211,"current_range_meters":11600,"station_id":"cpo3532slgdg3j2ikp40","pricing_plan_id":"cebpf4jnsgd1na2vs0mg"},{"bike_id":"2735d81b-f407-410c-9b16-c25290674dbb","system_id":"levelo_inurba_marseille","lat":43.26052,"lon":5.37532,"is_reserved":false,"is_disabled":false,"rental_uris":{"android":"levelo://app?vid=2735d81b-f407-410c-9b16-c25290674dbb","ios":"levelo://app?vid=2735d81b-f407-410c-9b16-c25290674dbb"},"vehicle_type_id":"4","last_reported":1741342211,"current_range_meters":12000,"station_id":"","pricing_plan_id":"cebpf4jnsgd1na2vs0mg"},{"bike_id":"707f7ab7-3329-4bbe-a15e-b7a9d9e721c7","system_id":"levelo_inurba_marseille","lat":43.31215,"lon":5.36845,"is_reserved":false,"is_disabled":false,"rental_uris":{"android":"levelo://app?vid=707f7ab7-3329-4bbe-a15e-b7a9d9e721c7","ios":"levelo://app?vid=707f7ab7-3329-4bbe-a15e-b7a9d9e721c7"},"vehicle_type_id":"4","last_reported":1741342211,"current_range_meters":12000,"station_id":"ce4bgl92rcd13ifvqbq0","pricing_plan_id":"cebpf4jnsgd1na2vs0mg"},{"bike_id":"b12a2bac-7a47-4d4b-8f37-73565a7958bc","system_id":"levelo_inurba_marseille","lat":43.30789,"lon":5.38156,"is_reserved":false,"is_disabled":false,"rental_uris":{"android":"levelo://app?vid=b12a2bac-7a47-4d4b-8f37-73565a7958bc","ios":"levelo://app?vid=b12a2bac-7a47-4d4b-8f37-73565a7958bc"},"vehicle_type_id":"4","last_reported":1741342211,"current_range_meters":12000,"station_id":"ce4bgt12rcd13ifvqce0","pricing_plan_id":"cebpf4jnsgd1na2vs0mg"},{"bike_id":"63690bf7-4105-4faa-8d93-85da6488a237","system_id":"levelo_inurba_marseille","lat":43.29874,"lon":5.39748,"is_reserved":false,"is_disabled":false,"rental_uris":{"android":"levelo://app?vid=63690bf7-4105-4faa-8d93-85da6488a237","ios":"levelo://app?vid=63690bf7-4105-4faa-8d93-85da6488a237"},"vehicle_type_id":"4","last_reported":1741342211,"current_range_meters":12000,"station_id":"ce4bh0h2rcd13ifvqd50","pricing_plan_id":"cebpf4jnsgd1na2vs0mg"},{"bike_id":"fba20498-47c8-4184-b582-c4636d4fbe9f","system_id":"levelo_inurba_marseille","lat":43.2619,"lon":5.37452,"is_reserved":false,"is_disabled":false,"rental_uris":{"android":"levelo://app?vid=fba20498-47c8-4184-b582-c4636d4fbe9f","ios":"levelo://app?vid=fba20498-47c8-4184-b582-c4636d4fbe9f"},"vehicle_type_id":"4","last_reported":1741342211,"current_range_meters":12000,"station_id":"ce4bhgp2rcd13ifvqfc0","pricing_plan_id":"cebpf4jnsgd1na2vs0mg"},{"bike_id":"693db7cd-c1ad-4554-a554-5ae5efa16a2d","system_id":"levelo_inurba_marseille","lat":43.24172,"lon":5.39736,"is_reserved":false,"is_disabled":false,"rental_uris":{"android":"levelo://app?vid=693db7cd-c1ad-4554-a554-5ae5efa16a2d","ios":"levelo://app?vid=693db7cd-c1ad-4554-a554-5ae5efa16a2d"},"vehicle_type_id":"4","last_reported":1741342211,"current_range_meters":12000,"station_id":"ce4bhn12rcd13ifvqgpg","pricing_plan_id":"cebpf4jnsgd1na2vs0mg"},{"bike_id":"3949e300-2dbd-4203-aa58-eef0b1b0c774","system_id":"levelo_inurba_marseille","lat":43.33776,"lon":5.37441,"is_reserved":false,"is_disabled":false,"rental_uris":{"android":"levelo://app?vid=3949e300-2dbd-4203-aa58-eef0b1b0c774","ios":"levelo://app?vid=3949e300-2dbd-4203-aa58-eef0b1b0c774"},"vehicle_type_id":"4","last_reported":1741342211,"current_range_meters":12400,"station_id":"","pricing_plan_id":"cebpf4jnsgd1na2vs0mg"},{"bike_id":"1ea20267-c047-4d3e-b61f-4c89af5c4965","system_id":"levelo_inurba_marseille","lat":43.269542,"lon":5.386344,"is_reserved":false,"is_disabled":false,"rental_uris":{"android":"levelo://app?vid=1ea20267-c047-4d3e-b61f-4c89af5c4965","ios":"levelo://app?vid=1ea20267-c047-4d3e-b61f-4c89af5c4965"},"vehicle_type_id":"4","last_reported":1741342211,"current_range_meters":12400,"station_id":"ce4bhh92rcd13ifvqfh0","pricing_plan_id":"cebpf4jnsgd1na2vs0mg"},{"bike_id":"3d1418b1-b188-41b9-ab34-b3681dd4bf4b","system_id":"levelo_inurba_marseille","lat":43.29203,"lon":5.35796,"is_reserved":false,"is_disabled":false,"rental_uris":{"android":"levelo://app?vid=3d1418b1-b188-41b9-ab34-b3681dd4bf4b","ios":"levelo://app?vid=3d1418b1-b188-41b9-ab34-b3681dd4bf4b"},"vehicle_type_id":"4","last_reported":1741342211,"current_range_meters":12800,"station_id":"ce4bhb12rcd13ifvqel0","pricing_plan_id":"cebpf4jnsgd1na2vs0mg"},{"bike_id":"00cab53e-c5c3-43b1-a491-2c38efeecd93","system_id":"levelo_inurba_marseille","lat":43.24998,"lon":5.38939,"is_reserved":false,"is_disabled":false,"rental_uris":{"android":"levelo://app?vid=00cab53e-c5c3-43b1-a491-2c38efeecd93","ios":"levelo://app?vid=00cab53e-c5c3-43b1-a491-2c38efeecd93"},"vehicle_type_id":"4","last_reported":1741342211,"current_range_meters":12800,"station_id":"ce4bhgp2rcd13ifvqfd0","pricing_plan_id":"cebpf4jnsgd1na2vs0mg"},{"bike_id":"c53ffb14-3aba-45ef-9a7a-1baf57388aed","system_id":"levelo_inurba_marseille","lat":43.30549,"lon":5.36549,"is_reserved":false,"is_disabled":false,"rental_uris":{"android":"levelo://app?vid=c53ffb14-3aba-45ef-9a7a-1baf57388aed","ios":"levelo://app?vid=c53ffb14-3aba-45ef-9a7a-1baf57388aed"},"vehicle_type_id":"4","last_reported":1741342211,"current_range_meters":13600,"station_id":"ce4bgs12rcd13ifvqcag","pricing_plan_id":"cebpf4jnsgd1na2vs0mg"},{"bike_id":"41467d62-573c-4dd2-a21a-5867e06ef715","system_id":"levelo_inurba_marseille","lat":43.30453,"lon":5.37902,"is_reserved":false,"is_disabled":false,"rental_uris":{"android":"levelo://app?vid=41467d62-573c-4dd2-a21a-5867e06ef715","ios":"levelo://app?vid=41467d62-573c-4dd2-a21a-5867e06ef715"},"vehicle_type_id":"4","last_reported":1741342211,"current_range_meters":13600,"station_id":"ce4bgup2rcd13ifvqcn0","pricing_plan_id":"cebpf4jnsgd1na2vs0mg"},{"bike_id":"0094f176-ba22-4082-a4d3-e7852b10c0e6","system_id":"levelo_inurba_marseille","lat":43.30463,"lon":5.37909,"is_reserved":false,"is_disabled":false,"rental_uris":{"android":"levelo://app?vid=0094f176-ba22-4082-a4d3-e7852b10c0e6","ios":"levelo://app?vid=0094f176-ba22-4082-a4d3-e7852b10c0e6"},"vehicle_type_id":"4","last_reported":1741342211,"current_range_meters":13600,"station_id":"ce4bgup2rcd13ifvqcn0","pricing_plan_id":"cebpf4jnsgd1na2vs0mg"},{"bike_id":"fb9fe5c8-244f-47c3-aa5b-0ac4cf40dbfe","system_id":"levelo_inurba_marseille","lat":43.24386,"lon":5.37056,"is_reserved":false,"is_disabled":false,"rental_uris":{"android":"levelo://app?vid=fb9fe5c8-244f-47c3-aa5b-0ac4cf40dbfe","ios":"levelo://app?vid=fb9fe5c8-244f-47c3-aa5b-0ac4cf40dbfe"},"vehicle_type_id":"4","last_reported":1741342211,"current_range_meters":13600,"station_id":"ce4bhhh2rcd13ifvqfk0","pricing_plan_id":"cebpf4jnsgd1na2vs0mg"},{"bike_id":"5f598be0-e162-4184-948a-4d84c2e78910","system_id":"levelo_inurba_marseille","lat":43.24153,"lon":5.3975,"is_reserved":false,"is_disabled":false,"rental_uris":{"android":"levelo://app?vid=5f598be0-e162-4184-948a-4d84c2e78910","ios":"levelo://app?vid=5f598be0-e162-4184-948a-4d84c2e78910"},"vehicle_type_id":"4","last_reported":1741342211,"current_range_meters":13600,"station_id":"ce4bhn12rcd13ifvqgpg","pricing_plan_id":"cebpf4jnsgd1na2vs0mg"},{"bike_id":"6152b505-bdaa-4154-9904-8e28b1c35e0b","system_id":"levelo_inurba_marseille","lat":43.2781,"lon":5.40741,"is_reserved":false,"is_disabled":false,"rental_uris":{"android":"levelo://app?vid=6152b505-bdaa-4154-9904-8e28b1c35e0b","ios":"levelo://app?vid=6152b505-bdaa-4154-9904-8e28b1c35e0b"},"vehicle_type_id":"4","last_reported":1741342211,"current_range_meters":13600,"station_id":"ce4bhnh2rcd13ifvqgtg","pricing_plan_id":"cebpf4jnsgd1na2vs0mg"},{"bike_id":"6d7e0450-89ad-4e81-9f4f-61db2e3e009a","system_id":"levelo_inurba_marseille","lat":43.299,"lon":5.43656,"is_reserved":false,"is_disabled":false,"rental_uris":{"android":"levelo://app?vid=6d7e0450-89ad-4e81-9f4f-61db2e3e009a","ios":"levelo://app?vid=6d7e0450-89ad-4e81-9f4f-61db2e3e009a"},"vehicle_type_id":"4","last_reported":1741342211,"current_range_meters":13600,"station_id":"ce4bhpp2rcd13ifvqhfg","pricing_plan_id":"cebpf4jnsgd1na2vs0mg"},{"bike_id":"9efbff90-6380-4e58-8359-a0c4a1eca8c5","system_id":"levelo_inurba_marseille","lat":43.3238,"lon":5.38871,"is_reserved":false,"is_disabled":false,"rental_uris":{"android":"levelo://app?vid=9efbff90-6380-4e58-8359-a0c4a1eca8c5","ios":"levelo://app?vid=9efbff90-6380-4e58-8359-a0c4a1eca8c5"},"vehicle_type_id":"4","last_reported":1741342211,"current_range_meters":13600,"station_id":"ce4bhqp2rcd13ifvqhog","pricing_plan_id":"cebpf4jnsgd1na2vs0mg"},{"bike_id":"181d4c23-2eb9-475f-946a-716fa539fd18","system_id":"levelo_inurba_marseille","lat":43.25938,"lon":5.37586,"is_reserved":false,"is_disabled":false,"rental_uris":{"android":"levelo://app?vid=181d4c23-2eb9-475f-946a-716fa539fd18","ios":"levelo://app?vid=181d4c23-2eb9-475f-946a-716fa539fd18"},"vehicle_type_id":"4","last_reported":1741342211,"current_range_meters":14000,"station_id":"","pricing_plan_id":"cebpf4jnsgd1na2vs0mg"},{"bike_id":"46d95211-34d8-4b29-826a-3638495eab7b","system_id":"levelo_inurba_marseille","lat":43.310272,"lon":5.389526,"is_reserved":false,"is_disabled":false,"rental_uris":{"android":"levelo://app?vid=46d95211-34d8-4b29-826a-3638495eab7b","ios":"levelo://app?vid=46d95211-34d8-4b29-826a-3638495eab7b"},"vehicle_type_id":"4","last_reported":1741342211,"current_range_meters":14000,"station_id":"ce4bgi92rcd13ifvqb90","pricing_plan_id":"cebpf4jnsgd1na2vs0mg"},{"bike_id":"6dc172cc-bafc-4383-897b-623fe4e9d3d1","system_id":"levelo_inurba_marseille","lat":43.30547,"lon":5.36539,"is_reserved":false,"is_disabled":false,"rental_uris":{"android":"levelo://app?vid=6dc172cc-bafc-4383-897b-623fe4e9d3d1","ios":"levelo://app?vid=6dc172cc-bafc-4383-897b-623fe4e9d3d1"},"vehicle_type_id":"4","last_reported":1741342211,"current_range_meters":14000,"station_id":"ce4bgs12rcd13ifvqcag","pricing_plan_id":"cebpf4jnsgd1na2vs0mg"},{"bike_id":"14e76b96-af6e-4e50-b023-8d9acb4cdf7c","system_id":"levelo_inurba_marseille","lat":43.30448,"lon":5.37913,"is_reserved":false,"is_disabled":false,"rental_uris":{"android":"levelo://app?vid=14e76b96-af6e-4e50-b023-8d9acb4cdf7c","ios":"levelo://app?vid=14e76b96-af6e-4e50-b023-8d9acb4cdf7c"},"vehicle_type_id":"4","last_reported":1741342211,"current_range_meters":14000,"station_id":"ce4bgup2rcd13ifvqcn0","pricing_plan_id":"cebpf4jnsgd1na2vs0mg"},{"bike_id":"4e141fc2-77f3-438b-b540-a78aa3cb87ad","system_id":"levelo_inurba_marseille","lat":43.26567,"lon":5.3901,"is_reserved":false,"is_disabled":false,"rental_uris":{"android":"levelo://app?vid=4e141fc2-77f3-438b-b540-a78aa3cb87ad","ios":"levelo://app?vid=4e141fc2-77f3-438b-b540-a78aa3cb87ad"},"vehicle_type_id":"4","last_reported":1741342211,"current_range_meters":14000,"station_id":"ce4bhe12rcd13ifvqf30","pricing_plan_id":"cebpf4jnsgd1na2vs0mg"},{"bike_id":"798190a2-5c35-4b44-b68e-0016ac4e3e0b","system_id":"levelo_inurba_marseille","lat":43.27968,"lon":5.38732,"is_reserved":false,"is_disabled":false,"rental_uris":{"android":"levelo://app?vid=798190a2-5c35-4b44-b68e-0016ac4e3e0b","ios":"levelo://app?vid=798190a2-5c35-4b44-b68e-0016ac4e3e0b"},"vehicle_type_id":"4","last_reported":1741342211,"current_range_meters":14000,"station_id":"ce4bhg12rcd13ifvqf80","pricing_plan_id":"cebpf4jnsgd1na2vs0mg"},{"bike_id":"6901c985-3237-4a3b-8579-87e57cfd1efa","system_id":"levelo_inurba_marseille","lat":43.25007,"lon":5.38931,"is_reserved":false,"is_disabled":false,"rental_uris":{"android":"levelo://app?vid=6901c985-3237-4a3b-8579-87e57cfd1efa","ios":"levelo://app?vid=6901c985-3237-4a3b-8579-87e57cfd1efa"},"vehicle_type_id":"4","last_reported":1741342211,"current_range_meters":14000,"station_id":"ce4bhgp2rcd13ifvqfd0","pricing_plan_id":"cebpf4jnsgd1na2vs0mg"},{"bike_id":"33c3461d-33a4-42b7-aaad-38e2706134ea","system_id":"levelo_inurba_marseille","lat":43.2591,"lon":5.40917,"is_reserved":false,"is_disabled":false,"rental_uris":{"android":"levelo://app?vid=33c3461d-33a4-42b7-aaad-38e2706134ea","ios":"levelo://app?vid=33c3461d-33a4-42b7-aaad-38e2706134ea"},"vehicle_type_id":"4","last_reported":1741342211,"current_range_meters":14000,"station_id":"ce4bhm92rcd13ifvqglg","pricing_plan_id":"cebpf4jnsgd1na2vs0mg"},{"bike_id":"e6472cf0-0ad7-491d-9b42-ba9a1b7210e2","system_id":"levelo_inurba_marseille","lat":43.29879,"lon":5.4366,"is_reserved":false,"is_disabled":false,"rental_uris":{"android":"levelo://app?vid=e6472cf0-0ad7-491d-9b42-ba9a1b7210e2","ios":"levelo://app?vid=e6472cf0-0ad7-491d-9b42-ba9a1b7210e2"},"vehicle_type_id":"4","last_reported":1741342211,"current_range_meters":14000,"station_id":"ce4bhpp2rcd13ifvqhfg","pricing_plan_id":"cebpf4jnsgd1na2vs0mg"},{"bike_id":"3a41131e-d4b1-4802-9eac-559cbd0bdf2c","system_id":"levelo_inurba_marseille","lat":43.29572,"lon":5.3752,"is_reserved":false,"is_disabled":false,"rental_uris":{"android":"levelo://app?vid=3a41131e-d4b1-4802-9eac-559cbd0bdf2c","ios":"levelo://app?vid=3a41131e-d4b1-4802-9eac-559cbd0bdf2c"},"vehicle_type_id":"4","last_reported":1741342211,"current_range_meters":14400,"station_id":"ce4bgh92rcd13ifvqb50","pricing_plan_id":"cebpf4jnsgd1na2vs0mg"},{"bike_id":"0e674cb4-f37d-4bd5-aaff-7ec953d386c6","system_id":"levelo_inurba_marseille","lat":43.241668,"lon":5.364078,"is_reserved":false,"is_disabled":false,"rental_uris":{"android":"levelo://app?vid=0e674cb4-f37d-4bd5-aaff-7ec953d386c6","ios":"levelo://app?vid=0e674cb4-f37d-4bd5-aaff-7ec953d386c6"},"vehicle_type_id":"4","last_reported":1741342211,"current_range_meters":14400,"station_id":"cpo36qri1sfpv3e86is0","pricing_plan_id":"cebpf4jnsgd1na2vs0mg"},{"bike_id":"7372ba19-4949-453e-a20c-490c28817add","system_id":"levelo_inurba_marseille","lat":43.337744,"lon":5.374527,"is_reserved":false,"is_disabled":false,"rental_uris":{"android":"levelo://app?vid=7372ba19-4949-453e-a20c-490c28817add","ios":"levelo://app?vid=7372ba19-4949-453e-a20c-490c28817add"},"vehicle_type_id":"4","last_reported":1741342211,"current_range_meters":14800,"station_id":"","pricing_plan_id":"cebpf4jnsgd1na2vs0mg"},{"bike_id":"60dbdfe4-0290-459f-80b1-32d771207de8","system_id":"levelo_inurba_marseille","lat":43.24996,"lon":5.38941,"is_reserved":false,"is_disabled":false,"rental_uris":{"android":"levelo://app?vid=60dbdfe4-0290-459f-80b1-32d771207de8","ios":"levelo://app?vid=60dbdfe4-0290-459f-80b1-32d771207de8"},"vehicle_type_id":"4","last_reported":1741342211,"current_range_meters":14800,"station_id":"ce4bhgp2rcd13ifvqfd0","pricing_plan_id":"cebpf4jnsgd1na2vs0mg"},{"bike_id":"6ae77951-a909-4dfa-a933-35324bca41b7","system_id":"levelo_inurba_marseille","lat":43.25021,"lon":5.38914,"is_reserved":false,"is_disabled":false,"rental_uris":{"android":"levelo://app?vid=6ae77951-a909-4dfa-a933-35324bca41b7","ios":"levelo://app?vid=6ae77951-a909-4dfa-a933-35324bca41b7"},"vehicle_type_id":"4","last_reported":1741342211,"current_range_meters":14800,"station_id":"ce4bhgp2rcd13ifvqfd0","pricing_plan_id":"cebpf4jnsgd1na2vs0mg"},{"bike_id":"ad9a8406-e1b8-4c43-83e7-6ca47ad1435f","system_id":"levelo_inurba_marseille","lat":43.25001,"lon":5.38942,"is_reserved":false,"is_disabled":false,"rental_uris":{"android":"levelo://app?vid=ad9a8406-e1b8-4c43-83e7-6ca47ad1435f","ios":"levelo://app?vid=ad9a8406-e1b8-4c43-83e7-6ca47ad1435f"},"vehicle_type_id":"4","last_reported":1741342211,"current_range_meters":14800,"station_id":"ce4bhgp2rcd13ifvqfd0","pricing_plan_id":"cebpf4jnsgd1na2vs0mg"},{"bike_id":"35358317-de54-4a09-b979-66e187ea4848","system_id":"levelo_inurba_marseille","lat":43.30466,"lon":5.37907,"is_reserved":false,"is_disabled":false,"rental_uris":{"android":"levelo://app?vid=35358317-de54-4a09-b979-66e187ea4848","ios":"levelo://app?vid=35358317-de54-4a09-b979-66e187ea4848"},"vehicle_type_id":"4","last_reported":1741342211,"current_range_meters":15200,"station_id":"ce4bgup2rcd13ifvqcn0","pricing_plan_id":"cebpf4jnsgd1na2vs0mg"},{"bike_id":"69569c59-ba4f-4667-8a6b-9c93227c8ffa","system_id":"levelo_inurba_marseille","lat":43.27373,"lon":5.36261,"is_reserved":false,"is_disabled":false,"rental_uris":{"android":"levelo://app?vid=69569c59-ba4f-4667-8a6b-9c93227c8ffa","ios":"levelo://app?vid=69569c59-ba4f-4667-8a6b-9c93227c8ffa"},"vehicle_type_id":"4","last_reported":1741342211,"current_range_meters":15200,"station_id":"ce4bhbh2rcd13ifvqeo0","pricing_plan_id":"cebpf4jnsgd1na2vs0mg"},{"bike_id":"e524bcef-a391-41b2-bad2-673eae53ea51","system_id":"levelo_inurba_marseille","lat":43.31703,"lon":5.43709,"is_reserved":false,"is_disabled":false,"rental_uris":{"android":"levelo://app?vid=e524bcef-a391-41b2-bad2-673eae53ea51","ios":"levelo://app?vid=e524bcef-a391-41b2-bad2-673eae53ea51"},"vehicle_type_id":"4","last_reported":1741342211,"current_range_meters":15200,"station_id":"ce4bhp92rcd13ifvqhcg","pricing_plan_id":"cebpf4jnsgd1na2vs0mg"},{"bike_id":"db1c7047-7b9f-4b56-96ef-3b289cb537df","system_id":"levelo_inurba_marseille","lat":43.308224,"lon":5.374014,"is_reserved":false,"is_disabled":false,"rental_uris":{"android":"levelo://app?vid=db1c7047-7b9f-4b56-96ef-3b289cb537df","ios":"levelo://app?vid=db1c7047-7b9f-4b56-96ef-3b289cb537df"},"vehicle_type_id":"4","last_reported":1741342211,"current_range_meters":16000,"station_id":"","pricing_plan_id":"cebpf4jnsgd1na2vs0mg"},{"bike_id":"17a04f47-ef72-4c60-9605-cfbe86c769c8","system_id":"levelo_inurba_marseille","lat":43.30236,"lon":5.40038,"is_reserved":false,"is_disabled":false,"rental_uris":{"android":"levelo://app?vid=17a04f47-ef72-4c60-9605-cfbe86c769c8","ios":"levelo://app?vid=17a04f47-ef72-4c60-9605-cfbe86c769c8"},"vehicle_type_id":"4","last_reported":1741342211,"current_range_meters":16000,"station_id":"ce4bgvh2rcd13ifvqcs0","pricing_plan_id":"cebpf4jnsgd1na2vs0mg"},{"bike_id":"daa3212f-f74e-4f24-8643-d0769656394c","system_id":"levelo_inurba_marseille","lat":43.26779,"lon":5.39429,"is_reserved":false,"is_disabled":false,"rental_uris":{"android":"levelo://app?vid=daa3212f-f74e-4f24-8643-d0769656394c","ios":"levelo://app?vid=daa3212f-f74e-4f24-8643-d0769656394c"},"vehicle_type_id":"4","last_reported":1741342211,"current_range_meters":16000,"station_id":"ce4bhh12rcd13ifvqfg0","pricing_plan_id":"cebpf4jnsgd1na2vs0mg"},{"bike_id":"8ea383d4-f425-4f2e-91a3-57cb03091ad5","system_id":"levelo_inurba_marseille","lat":43.24386,"lon":5.37057,"is_reserved":false,"is_disabled":false,"rental_uris":{"android":"levelo://app?vid=8ea383d4-f425-4f2e-91a3-57cb03091ad5","ios":"levelo://app?vid=8ea383d4-f425-4f2e-91a3-57cb03091ad5"},"vehicle_type_id":"4","last_reported":1741342211,"current_range_meters":16000,"station_id":"ce4bhhh2rcd13ifvqfk0","pricing_plan_id":"cebpf4jnsgd1na2vs0mg"},{"bike_id":"79be271d-c970-4f96-8dd4-cbcfea9439b9","system_id":"levelo_inurba_marseille","lat":43.23158,"lon":5.43708,"is_reserved":false,"is_disabled":false,"rental_uris":{"android":"levelo://app?vid=79be271d-c970-4f96-8dd4-cbcfea9439b9","ios":"levelo://app?vid=79be271d-c970-4f96-8dd4-cbcfea9439b9"},"vehicle_type_id":"4","last_reported":1741342211,"current_range_meters":16000,"station_id":"ce4bhmp2rcd13ifvqgog","pricing_plan_id":"cebpf4jnsgd1na2vs0mg"},{"bike_id":"5ab2001e-22b6-4441-9cbe-2789bb8f2209","system_id":"levelo_inurba_marseille","lat":43.33614,"lon":5.41025,"is_reserved":false,"is_disabled":false,"rental_uris":{"android":"levelo://app?vid=5ab2001e-22b6-4441-9cbe-2789bb8f2209","ios":"levelo://app?vid=5ab2001e-22b6-4441-9cbe-2789bb8f2209"},"vehicle_type_id":"4","last_reported":1741342211,"current_range_meters":16000,"station_id":"ce4bhqh2rcd13ifvqhmg","pricing_plan_id":"cebpf4jnsgd1na2vs0mg"},{"bike_id":"b1d03295-5a4c-4b8b-ad8e-3dbefaa793f2","system_id":"levelo_inurba_marseille","lat":43.232016,"lon":5.355552,"is_reserved":false,"is_disabled":false,"rental_uris":{"android":"levelo://app?vid=b1d03295-5a4c-4b8b-ad8e-3dbefaa793f2","ios":"levelo://app?vid=b1d03295-5a4c-4b8b-ad8e-3dbefaa793f2"},"vehicle_type_id":"4","last_reported":1741342211,"current_range_meters":16000,"station_id":"ce4bhu92rcd13ifvqi70","pricing_plan_id":"cebpf4jnsgd1na2vs0mg"},{"bike_id":"a59c941d-b9d9-4002-b926-de5d10e62478","system_id":"levelo_inurba_marseille","lat":43.24164,"lon":5.36391,"is_reserved":false,"is_disabled":false,"rental_uris":{"android":"levelo://app?vid=a59c941d-b9d9-4002-b926-de5d10e62478","ios":"levelo://app?vid=a59c941d-b9d9-4002-b926-de5d10e62478"},"vehicle_type_id":"4","last_reported":1741342211,"current_range_meters":16000,"station_id":"cpo36qri1sfpv3e86is0","pricing_plan_id":"cebpf4jnsgd1na2vs0mg"},{"bike_id":"0c0aff20-1b42-4e38-b779-ccb6f1796869","system_id":"levelo_inurba_marseille","lat":43.29539,"lon":5.37514,"is_reserved":false,"is_disabled":false,"rental_uris":{"android":"levelo://app?vid=0c0aff20-1b42-4e38-b779-ccb6f1796869","ios":"levelo://app?vid=0c0aff20-1b42-4e38-b779-ccb6f1796869"},"vehicle_type_id":"4","last_reported":1741342211,"current_range_meters":16400,"station_id":"ce4bgkp2rcd13ifvqbmg","pricing_plan_id":"cebpf4jnsgd1na2vs0mg"},{"bike_id":"c7973454-67df-4210-b3e0-54c3d8c4a6ad","system_id":"levelo_inurba_marseille","lat":43.29616,"lon":5.38096,"is_reserved":false,"is_disabled":false,"rental_uris":{"android":"levelo://app?vid=c7973454-67df-4210-b3e0-54c3d8c4a6ad","ios":"levelo://app?vid=c7973454-67df-4210-b3e0-54c3d8c4a6ad"},"vehicle_type_id":"4","last_reported":1741342211,"current_range_meters":16400,"station_id":"ce4bgl12rcd13ifvqbo0","pricing_plan_id":"cebpf4jnsgd1na2vs0mg"},{"bike_id":"7a234828-ce11-459e-8c82-c4c9a970f721","system_id":"levelo_inurba_marseille","lat":43.31215,"lon":5.3689,"is_reserved":false,"is_disabled":false,"rental_uris":{"android":"levelo://app?vid=7a234828-ce11-459e-8c82-c4c9a970f721","ios":"levelo://app?vid=7a234828-ce11-459e-8c82-c4c9a970f721"},"vehicle_type_id":"4","last_reported":1741342211,"current_range_meters":16400,"station_id":"ce4bgl92rcd13ifvqbq0","pricing_plan_id":"cebpf4jnsgd1na2vs0mg"},{"bike_id":"e6a6578a-0758-4e9d-ada5-5334a9480b65","system_id":"levelo_inurba_marseille","lat":43.30555,"lon":5.36694,"is_reserved":false,"is_disabled":false,"rental_uris":{"android":"levelo://app?vid=e6a6578a-0758-4e9d-ada5-5334a9480b65","ios":"levelo://app?vid=e6a6578a-0758-4e9d-ada5-5334a9480b65"},"vehicle_type_id":"4","last_reported":1741342211,"current_range_meters":16400,"station_id":"ce4bgrp2rcd13ifvqc9g","pricing_plan_id":"cebpf4jnsgd1na2vs0mg"},{"bike_id":"f9523084-b0aa-4f6c-8782-9210e7fc053f","system_id":"levelo_inurba_marseille","lat":43.30467,"lon":5.37905,"is_reserved":false,"is_disabled":false,"rental_uris":{"android":"levelo://app?vid=f9523084-b0aa-4f6c-8782-9210e7fc053f","ios":"levelo://app?vid=f9523084-b0aa-4f6c-8782-9210e7fc053f"},"vehicle_type_id":"4","last_reported":1741342211,"current_range_meters":16400,"station_id":"ce4bgup2rcd13ifvqcn0","pricing_plan_id":"cebpf4jnsgd1na2vs0mg"},{"bike_id":"0ab989a7-c0f3-4502-895b-debf8b02b620","system_id":"levelo_inurba_marseille","lat":43.29442,"lon":5.39743,"is_reserved":false,"is_disabled":false,"rental_uris":{"android":"levelo://app?vid=0ab989a7-c0f3-4502-895b-debf8b02b620","ios":"levelo://app?vid=0ab989a7-c0f3-4502-895b-debf8b02b620"},"vehicle_type_id":"4","last_reported":1741342211,"current_range_meters":16400,"station_id":"ce4bh3h2rcd13ifvqdo0","pricing_plan_id":"cebpf4jnsgd1na2vs0mg"},{"bike_id":"4f44efd0-2ec1-456a-be1f-9b8a67b5b291","system_id":"levelo_inurba_marseille","lat":43.28709,"lon":5.37919,"is_reserved":false,"is_disabled":false,"rental_uris":{"android":"levelo://app?vid=4f44efd0-2ec1-456a-be1f-9b8a67b5b291","ios":"levelo://app?vid=4f44efd0-2ec1-456a-be1f-9b8a67b5b291"},"vehicle_type_id":"4","last_reported":1741342211,"current_range_meters":16400,"station_id":"ce4bh9p2rcd13ifvqec0","pricing_plan_id":"cebpf4jnsgd1na2vs0mg"},{"bike_id":"870c8d05-28b1-4b06-8dd5-7ae6b42d2e98","system_id":"levelo_inurba_marseille","lat":43.26684,"lon":5.38272,"is_reserved":false,"is_disabled":false,"rental_uris":{"android":"levelo://app?vid=870c8d05-28b1-4b06-8dd5-7ae6b42d2e98","ios":"levelo://app?vid=870c8d05-28b1-4b06-8dd5-7ae6b42d2e98"},"vehicle_type_id":"4","last_reported":1741342211,"current_range_meters":16400,"station_id":"ce4bhg92rcd13ifvqf90","pricing_plan_id":"cebpf4jnsgd1na2vs0mg"},{"bike_id":"37c795b7-c172-41a1-a38f-2f25494fb3e3","system_id":"levelo_inurba_marseille","lat":43.25929,"lon":5.40904,"is_reserved":false,"is_disabled":false,"rental_uris":{"android":"levelo://app?vid=37c795b7-c172-41a1-a38f-2f25494fb3e3","ios":"levelo://app?vid=37c795b7-c172-41a1-a38f-2f25494fb3e3"},"vehicle_type_id":"4","last_reported":1741342211,"current_range_meters":16400,"station_id":"ce4bhm92rcd13ifvqglg","pricing_plan_id":"cebpf4jnsgd1na2vs0mg"},{"bike_id":"32acfc34-8cd4-4262-8ead-298d21d83614","system_id":"levelo_inurba_marseille","lat":43.23134,"lon":5.43724,"is_reserved":false,"is_disabled":false,"rental_uris":{"android":"levelo://app?vid=32acfc34-8cd4-4262-8ead-298d21d83614","ios":"levelo://app?vid=32acfc34-8cd4-4262-8ead-298d21d83614"},"vehicle_type_id":"4","last_reported":1741342211,"current_range_meters":16400,"station_id":"ce4bhmp2rcd13ifvqgog","pricing_plan_id":"cebpf4jnsgd1na2vs0mg"},{"bike_id":"7e9ff520-83aa-4d71-9c21-74bb91bdd2a6","system_id":"levelo_inurba_marseille","lat":43.32283,"lon":5.38272,"is_reserved":false,"is_disabled":false,"rental_uris":{"android":"levelo://app?vid=7e9ff520-83aa-4d71-9c21-74bb91bdd2a6","ios":"levelo://app?vid=7e9ff520-83aa-4d71-9c21-74bb91bdd2a6"},"vehicle_type_id":"4","last_reported":1741342211,"current_range_meters":16400,"station_id":"ce4bhr12rcd13ifvqhqg","pricing_plan_id":"cebpf4jnsgd1na2vs0mg"},{"bike_id":"27ab3f75-d5ee-43a9-8ddd-f6fbab7edacb","system_id":"levelo_inurba_marseille","lat":43.32106,"lon":5.36791,"is_reserved":false,"is_disabled":false,"rental_uris":{"android":"levelo://app?vid=27ab3f75-d5ee-43a9-8ddd-f6fbab7edacb","ios":"levelo://app?vid=27ab3f75-d5ee-43a9-8ddd-f6fbab7edacb"},"vehicle_type_id":"4","last_reported":1741342211,"current_range_meters":16400,"station_id":"ce4bhrh2rcd13ifvqhug","pricing_plan_id":"cebpf4jnsgd1na2vs0mg"},{"bike_id":"25db000e-d19c-4398-ae97-e9e1deee0744","system_id":"levelo_inurba_marseille","lat":43.29759,"lon":5.37127,"is_reserved":false,"is_disabled":false,"rental_uris":{"android":"levelo://app?vid=25db000e-d19c-4398-ae97-e9e1deee0744","ios":"levelo://app?vid=25db000e-d19c-4398-ae97-e9e1deee0744"},"vehicle_type_id":"4","last_reported":1741342211,"current_range_meters":16800,"station_id":"ce4bgop2rcd13ifvqc1g","pricing_plan_id":"cebpf4jnsgd1na2vs0mg"},{"bike_id":"b882545e-af75-45ef-8883-abae125245af","system_id":"levelo_inurba_marseille","lat":43.29254,"lon":5.40913,"is_reserved":false,"is_disabled":false,"rental_uris":{"android":"levelo://app?vid=b882545e-af75-45ef-8883-abae125245af","ios":"levelo://app?vid=b882545e-af75-45ef-8883-abae125245af"},"vehicle_type_id":"4","last_reported":1741342211,"current_range_meters":16800,"station_id":"ce4bh192rcd13ifvqdc0","pricing_plan_id":"cebpf4jnsgd1na2vs0mg"},{"bike_id":"312c6b67-0cfb-470b-9524-22c53042250e","system_id":"levelo_inurba_marseille","lat":43.28267,"lon":5.35089,"is_reserved":false,"is_disabled":false,"rental_uris":{"android":"levelo://app?vid=312c6b67-0cfb-470b-9524-22c53042250e","ios":"levelo://app?vid=312c6b67-0cfb-470b-9524-22c53042250e"},"vehicle_type_id":"4","last_reported":1741342211,"current_range_meters":16800,"station_id":"ce4bhbp2rcd13ifvqerg","pricing_plan_id":"cebpf4jnsgd1na2vs0mg"},{"bike_id":"972e2f50-98e6-461a-82c8-97a95938100a","system_id":"levelo_inurba_marseille","lat":43.27959,"lon":5.38746,"is_reserved":false,"is_disabled":false,"rental_uris":{"android":"levelo://app?vid=972e2f50-98e6-461a-82c8-97a95938100a","ios":"levelo://app?vid=972e2f50-98e6-461a-82c8-97a95938100a"},"vehicle_type_id":"4","last_reported":1741342211,"current_range_meters":16800,"station_id":"ce4bhg12rcd13ifvqf80","pricing_plan_id":"cebpf4jnsgd1na2vs0mg"},{"bike_id":"0d592bc8-cfd1-41de-9241-b627e8d47b44","system_id":"levelo_inurba_marseille","lat":43.27245,"lon":5.39173,"is_reserved":false,"is_disabled":false,"rental_uris":{"android":"levelo://app?vid=0d592bc8-cfd1-41de-9241-b627e8d47b44","ios":"levelo://app?vid=0d592bc8-cfd1-41de-9241-b627e8d47b44"},"vehicle_type_id":"4","last_reported":1741342211,"current_range_meters":16800,"station_id":"ce4bhhp2rcd13ifvqfm0","pricing_plan_id":"cebpf4jnsgd1na2vs0mg"},{"bike_id":"9b8789be-c150-4679-b8ba-e1d5e4639da2","system_id":"levelo_inurba_marseille","lat":43.25716,"lon":5.41124,"is_reserved":false,"is_disabled":false,"rental_uris":{"android":"levelo://app?vid=9b8789be-c150-4679-b8ba-e1d5e4639da2","ios":"levelo://app?vid=9b8789be-c150-4679-b8ba-e1d5e4639da2"},"vehicle_type_id":"4","last_reported":1741342211,"current_range_meters":16800,"station_id":"ce4bhkp2rcd13ifvqgd0","pricing_plan_id":"cebpf4jnsgd1na2vs0mg"},{"bike_id":"d4c869f2-d60e-4acf-a576-ad09fac00e76","system_id":"levelo_inurba_marseille","lat":43.25936,"lon":5.409,"is_reserved":false,"is_disabled":false,"rental_uris":{"android":"levelo://app?vid=d4c869f2-d60e-4acf-a576-ad09fac00e76","ios":"levelo://app?vid=d4c869f2-d60e-4acf-a576-ad09fac00e76"},"vehicle_type_id":"4","last_reported":1741342211,"current_range_meters":16800,"station_id":"ce4bhm92rcd13ifvqglg","pricing_plan_id":"cebpf4jnsgd1na2vs0mg"},{"bike_id":"523dd7c5-08de-4faa-af09-359a3efdba9c","system_id":"levelo_inurba_marseille","lat":43.24179,"lon":5.39729,"is_reserved":false,"is_disabled":false,"rental_uris":{"android":"levelo://app?vid=523dd7c5-08de-4faa-af09-359a3efdba9c","ios":"levelo://app?vid=523dd7c5-08de-4faa-af09-359a3efdba9c"},"vehicle_type_id":"4","last_reported":1741342211,"current_range_meters":16800,"station_id":"ce4bhn12rcd13ifvqgpg","pricing_plan_id":"cebpf4jnsgd1na2vs0mg"},{"bike_id":"ba628138-486a-4fa2-afdd-d0b87ce251a3","system_id":"levelo_inurba_marseille","lat":43.24071,"lon":5.37768,"is_reserved":false,"is_disabled":false,"rental_uris":{"android":"levelo://app?vid=ba628138-486a-4fa2-afdd-d0b87ce251a3","ios":"levelo://app?vid=ba628138-486a-4fa2-afdd-d0b87ce251a3"},"vehicle_type_id":"4","last_reported":1741342211,"current_range_meters":16800,"station_id":"ce4bhnp2rcd13ifvqgvg","pricing_plan_id":"cebpf4jnsgd1na2vs0mg"},{"bike_id":"c4c723cb-a07b-4be7-9352-175d996d4f95","system_id":"levelo_inurba_marseille","lat":43.2795,"lon":5.41045,"is_reserved":false,"is_disabled":false,"rental_uris":{"android":"levelo://app?vid=c4c723cb-a07b-4be7-9352-175d996d4f95","ios":"levelo://app?vid=c4c723cb-a07b-4be7-9352-175d996d4f95"},"vehicle_type_id":"4","last_reported":1741342211,"current_range_meters":16800,"station_id":"ce4bhnp2rcd13ifvqh0g","pricing_plan_id":"cebpf4jnsgd1na2vs0mg"},{"bike_id":"34fca5e7-8353-4d68-89e6-b1d671353da7","system_id":"levelo_inurba_marseille","lat":43.32363,"lon":5.3891,"is_reserved":false,"is_disabled":false,"rental_uris":{"android":"levelo://app?vid=34fca5e7-8353-4d68-89e6-b1d671353da7","ios":"levelo://app?vid=34fca5e7-8353-4d68-89e6-b1d671353da7"},"vehicle_type_id":"4","last_reported":1741342211,"current_range_meters":16800,"station_id":"ce4bhqp2rcd13ifvqhog","pricing_plan_id":"cebpf4jnsgd1na2vs0mg"},{"bike_id":"70d26014-93c1-4550-9c6b-e8b8235ca60e","system_id":"levelo_inurba_marseille","lat":43.29913,"lon":5.37482,"is_reserved":false,"is_disabled":false,"rental_uris":{"android":"levelo://app?vid=70d26014-93c1-4550-9c6b-e8b8235ca60e","ios":"levelo://app?vid=70d26014-93c1-4550-9c6b-e8b8235ca60e"},"vehicle_type_id":"4","last_reported":1741342211,"current_range_meters":17200,"station_id":"ce4bgjh2rcd13ifvqbg0","pricing_plan_id":"cebpf4jnsgd1na2vs0mg"},{"bike_id":"b2c2514d-58df-4080-9acc-0a3325c87525","system_id":"levelo_inurba_marseille","lat":43.32368,"lon":5.36756,"is_reserved":false,"is_disabled":false,"rental_uris":{"android":"levelo://app?vid=b2c2514d-58df-4080-9acc-0a3325c87525","ios":"levelo://app?vid=b2c2514d-58df-4080-9acc-0a3325c87525"},"vehicle_type_id":"4","last_reported":1741342211,"current_range_meters":17200,"station_id":"ce4bhsh2rcd13ifvqi2g","pricing_plan_id":"cebpf4jnsgd1na2vs0mg"},{"bike_id":"2619de62-9b19-4b41-ba90-49f68c3ea1b4","system_id":"levelo_inurba_marseille","lat":43.29792,"lon":5.3809,"is_reserved":false,"is_disabled":false,"rental_uris":{"android":"levelo://app?vid=2619de62-9b19-4b41-ba90-49f68c3ea1b4","ios":"levelo://app?vid=2619de62-9b19-4b41-ba90-49f68c3ea1b4"},"vehicle_type_id":"4","last_reported":1741342211,"current_range_meters":17600,"station_id":"ce4bgip2rcd13ifvqbb0","pricing_plan_id":"cebpf4jnsgd1na2vs0mg"},{"bike_id":"9069bb27-05e2-4d5d-8eeb-2dc44124aba4","system_id":"levelo_inurba_marseille","lat":43.31343,"lon":5.36716,"is_reserved":false,"is_disabled":false,"rental_uris":{"android":"levelo://app?vid=9069bb27-05e2-4d5d-8eeb-2dc44124aba4","ios":"levelo://app?vid=9069bb27-05e2-4d5d-8eeb-2dc44124aba4"},"vehicle_type_id":"4","last_reported":1741342211,"current_range_meters":17600,"station_id":"ce4bgr92rcd13ifvqc6g","pricing_plan_id":"cebpf4jnsgd1na2vs0mg"},{"bike_id":"a16e5e2c-dca2-4fd6-a17a-ec91229f2862","system_id":"levelo_inurba_marseille","lat":43.2698,"lon":5.38643,"is_reserved":false,"is_disabled":false,"rental_uris":{"android":"levelo://app?vid=a16e5e2c-dca2-4fd6-a17a-ec91229f2862","ios":"levelo://app?vid=a16e5e2c-dca2-4fd6-a17a-ec91229f2862"},"vehicle_type_id":"4","last_reported":1741342211,"current_range_meters":17600,"station_id":"ce4bhh92rcd13ifvqfh0","pricing_plan_id":"cebpf4jnsgd1na2vs0mg"},{"bike_id":"b074c098-105a-483f-9325-0896897af1e3","system_id":"levelo_inurba_marseille","lat":43.23188,"lon":5.39983,"is_reserved":false,"is_disabled":false,"rental_uris":{"android":"levelo://app?vid=b074c098-105a-483f-9325-0896897af1e3","ios":"levelo://app?vid=b074c098-105a-483f-9325-0896897af1e3"},"vehicle_type_id":"4","last_reported":1741342211,"current_range_meters":17600,"station_id":"ce4bhn12rcd13ifvqgqg","pricing_plan_id":"cebpf4jnsgd1na2vs0mg"},{"bike_id":"e6fda615-fd41-4b55-a73b-5d4708966aba","system_id":"levelo_inurba_marseille","lat":43.34137,"lon":5.40902,"is_reserved":false,"is_disabled":false,"rental_uris":{"android":"levelo://app?vid=e6fda615-fd41-4b55-a73b-5d4708966aba","ios":"levelo://app?vid=e6fda615-fd41-4b55-a73b-5d4708966aba"},"vehicle_type_id":"4","last_reported":1741342211,"current_range_meters":17600,"station_id":"ce4bhqh2rcd13ifvqhlg","pricing_plan_id":"cebpf4jnsgd1na2vs0mg"},{"bike_id":"1ff664cb-f378-4a6c-b3c1-b47ee25a2174","system_id":"levelo_inurba_marseille","lat":43.32365,"lon":5.38877,"is_reserved":false,"is_disabled":false,"rental_uris":{"android":"levelo://app?vid=1ff664cb-f378-4a6c-b3c1-b47ee25a2174","ios":"levelo://app?vid=1ff664cb-f378-4a6c-b3c1-b47ee25a2174"},"vehicle_type_id":"4","last_reported":1741342211,"current_range_meters":17600,"station_id":"ce4bhqp2rcd13ifvqhog","pricing_plan_id":"cebpf4jnsgd1na2vs0mg"},{"bike_id":"d11877fa-1517-43a0-a527-30e5970b0411","system_id":"levelo_inurba_marseille","lat":43.26036,"lon":5.37544,"is_reserved":false,"is_disabled":false,"rental_uris":{"android":"levelo://app?vid=d11877fa-1517-43a0-a527-30e5970b0411","ios":"levelo://app?vid=d11877fa-1517-43a0-a527-30e5970b0411"},"vehicle_type_id":"4","last_reported":1741342211,"current_range_meters":18000,"station_id":"","pricing_plan_id":"cebpf4jnsgd1na2vs0mg"},{"bike_id":"afa5713c-d5c9-44f7-ad17-c6217eb36580","system_id":"levelo_inurba_marseille","lat":43.31245,"lon":5.3685,"is_reserved":false,"is_disabled":false,"rental_uris":{"android":"levelo://app?vid=afa5713c-d5c9-44f7-ad17-c6217eb36580","ios":"levelo://app?vid=afa5713c-d5c9-44f7-ad17-c6217eb36580"},"vehicle_type_id":"4","last_reported":1741342211,"current_range_meters":18000,"station_id":"ce4bgl92rcd13ifvqbq0","pricing_plan_id":"cebpf4jnsgd1na2vs0mg"},{"bike_id":"34f44ab1-70ca-4c23-9a3a-e74ec117c744","system_id":"levelo_inurba_marseille","lat":43.29536,"lon":5.39393,"is_reserved":false,"is_disabled":false,"rental_uris":{"android":"levelo://app?vid=34f44ab1-70ca-4c23-9a3a-e74ec117c744","ios":"levelo://app?vid=34f44ab1-70ca-4c23-9a3a-e74ec117c744"},"vehicle_type_id":"4","last_reported":1741342211,"current_range_meters":18000,"station_id":"ce4bh292rcd13ifvqdf0","pricing_plan_id":"cebpf4jnsgd1na2vs0mg"},{"bike_id":"d6590c37-5418-4eb2-9df7-e8d37e9708bf","system_id":"levelo_inurba_marseille","lat":43.24998,"lon":5.38932,"is_reserved":false,"is_disabled":false,"rental_uris":{"android":"levelo://app?vid=d6590c37-5418-4eb2-9df7-e8d37e9708bf","ios":"levelo://app?vid=d6590c37-5418-4eb2-9df7-e8d37e9708bf"},"vehicle_type_id":"4","last_reported":1741342211,"current_range_meters":18000,"station_id":"ce4bhgp2rcd13ifvqfd0","pricing_plan_id":"cebpf4jnsgd1na2vs0mg"},{"bike_id":"a608eae3-b9b9-48e9-b86d-d2f6bca2ba9d","system_id":"levelo_inurba_marseille","lat":43.267889,"lon":5.394245,"is_reserved":false,"is_disabled":false,"rental_uris":{"android":"levelo://app?vid=a608eae3-b9b9-48e9-b86d-d2f6bca2ba9d","ios":"levelo://app?vid=a608eae3-b9b9-48e9-b86d-d2f6bca2ba9d"},"vehicle_type_id":"4","last_reported":1741342211,"current_range_meters":18000,"station_id":"ce4bhh12rcd13ifvqfg0","pricing_plan_id":"cebpf4jnsgd1na2vs0mg"},{"bike_id":"b078b069-8e37-4234-bc0c-ef4a6d24068c","system_id":"levelo_inurba_marseille","lat":43.24389,"lon":5.37061,"is_reserved":false,"is_disabled":false,"rental_uris":{"android":"levelo://app?vid=b078b069-8e37-4234-bc0c-ef4a6d24068c","ios":"levelo://app?vid=b078b069-8e37-4234-bc0c-ef4a6d24068c"},"vehicle_type_id":"4","last_reported":1741342211,"current_range_meters":18000,"station_id":"ce4bhhh2rcd13ifvqfk0","pricing_plan_id":"cebpf4jnsgd1na2vs0mg"},{"bike_id":"e051026c-fe71-4998-b031-914f6f9c5bfd","system_id":"levelo_inurba_marseille","lat":43.246637,"lon":5.381593,"is_reserved":false,"is_disabled":false,"rental_uris":{"android":"levelo://app?vid=e051026c-fe71-4998-b031-914f6f9c5bfd","ios":"levelo://app?vid=e051026c-fe71-4998-b031-914f6f9c5bfd"},"vehicle_type_id":"4","last_reported":1741342211,"current_range_meters":18000,"station_id":"ce4bhih2rcd13ifvqfr0","pricing_plan_id":"cebpf4jnsgd1na2vs0mg"},{"bike_id":"525be0b4-f4ae-41e2-b978-e931d3bc4ea2","system_id":"levelo_inurba_marseille","lat":43.25935,"lon":5.40901,"is_reserved":false,"is_disabled":false,"rental_uris":{"android":"levelo://app?vid=525be0b4-f4ae-41e2-b978-e931d3bc4ea2","ios":"levelo://app?vid=525be0b4-f4ae-41e2-b978-e931d3bc4ea2"},"vehicle_type_id":"4","last_reported":1741342211,"current_range_meters":18000,"station_id":"ce4bhm92rcd13ifvqglg","pricing_plan_id":"cebpf4jnsgd1na2vs0mg"},{"bike_id":"d76f15d6-9c40-42dd-85d4-6e9270bd28b8","system_id":"levelo_inurba_marseille","lat":43.23146,"lon":5.43721,"is_reserved":false,"is_disabled":false,"rental_uris":{"android":"levelo://app?vid=d76f15d6-9c40-42dd-85d4-6e9270bd28b8","ios":"levelo://app?vid=d76f15d6-9c40-42dd-85d4-6e9270bd28b8"},"vehicle_type_id":"4","last_reported":1741342211,"current_range_meters":18000,"station_id":"ce4bhmp2rcd13ifvqgog","pricing_plan_id":"cebpf4jnsgd1na2vs0mg"},{"bike_id":"d3c8f304-490f-406a-bd1e-8a039529a8d4","system_id":"levelo_inurba_marseille","lat":43.32087,"lon":5.36839,"is_reserved":false,"is_disabled":false,"rental_uris":{"android":"levelo://app?vid=d3c8f304-490f-406a-bd1e-8a039529a8d4","ios":"levelo://app?vid=d3c8f304-490f-406a-bd1e-8a039529a8d4"},"vehicle_type_id":"4","last_reported":1741342211,"current_range_meters":18000,"station_id":"ce4bhrh2rcd13ifvqhug","pricing_plan_id":"cebpf4jnsgd1na2vs0mg"},{"bike_id":"c1c412b3-ae23-45ab-894a-fe5b494cc9e6","system_id":"levelo_inurba_marseille","lat":43.23194,"lon":5.3556,"is_reserved":false,"is_disabled":false,"rental_uris":{"android":"levelo://app?vid=c1c412b3-ae23-45ab-894a-fe5b494cc9e6","ios":"levelo://app?vid=c1c412b3-ae23-45ab-894a-fe5b494cc9e6"},"vehicle_type_id":"4","last_reported":1741342211,"current_range_meters":18000,"station_id":"ce4bhu92rcd13ifvqi70","pricing_plan_id":"cebpf4jnsgd1na2vs0mg"},{"bike_id":"c429de85-2030-43ac-b7ca-b75001501649","system_id":"levelo_inurba_marseille","lat":43.2319,"lon":5.35551,"is_reserved":false,"is_disabled":false,"rental_uris":{"android":"levelo://app?vid=c429de85-2030-43ac-b7ca-b75001501649","ios":"levelo://app?vid=c429de85-2030-43ac-b7ca-b75001501649"},"vehicle_type_id":"4","last_reported":1741342211,"current_range_meters":18000,"station_id":"ce4bhu92rcd13ifvqi70","pricing_plan_id":"cebpf4jnsgd1na2vs0mg"},{"bike_id":"31391206-f42d-48da-8637-382acdfd18f7","system_id":"levelo_inurba_marseille","lat":43.29585,"lon":5.37506,"is_reserved":false,"is_disabled":false,"rental_uris":{"android":"levelo://app?vid=31391206-f42d-48da-8637-382acdfd18f7","ios":"levelo://app?vid=31391206-f42d-48da-8637-382acdfd18f7"},"vehicle_type_id":"4","last_reported":1741342211,"current_range_meters":18800,"station_id":"ce4bgh92rcd13ifvqb50","pricing_plan_id":"cebpf4jnsgd1na2vs0mg"},{"bike_id":"479fcc18-9eba-4c7b-8f6f-2136223ab008","system_id":"levelo_inurba_marseille","lat":43.30895,"lon":5.36855,"is_reserved":false,"is_disabled":false,"rental_uris":{"android":"levelo://app?vid=479fcc18-9eba-4c7b-8f6f-2136223ab008","ios":"levelo://app?vid=479fcc18-9eba-4c7b-8f6f-2136223ab008"},"vehicle_type_id":"4","last_reported":1741342211,"current_range_meters":18800,"station_id":"ce4bgn92rcd13ifvqbvg","pricing_plan_id":"cebpf4jnsgd1na2vs0mg"},{"bike_id":"1f2cb6fb-440b-49ed-aef0-85fa0738e458","system_id":"levelo_inurba_marseille","lat":43.30872,"lon":5.39664,"is_reserved":false,"is_disabled":false,"rental_uris":{"android":"levelo://app?vid=1f2cb6fb-440b-49ed-aef0-85fa0738e458","ios":"levelo://app?vid=1f2cb6fb-440b-49ed-aef0-85fa0738e458"},"vehicle_type_id":"4","last_reported":1741342211,"current_range_meters":18800,"station_id":"ce4bh012rcd13ifvqcv0","pricing_plan_id":"cebpf4jnsgd1na2vs0mg"},{"bike_id":"369facee-2e08-4979-8feb-749dbf9756ca","system_id":"levelo_inurba_marseille","lat":43.26207,"lon":5.37441,"is_reserved":false,"is_disabled":false,"rental_uris":{"android":"levelo://app?vid=369facee-2e08-4979-8feb-749dbf9756ca","ios":"levelo://app?vid=369facee-2e08-4979-8feb-749dbf9756ca"},"vehicle_type_id":"4","last_reported":1741342211,"current_range_meters":18800,"station_id":"ce4bhgp2rcd13ifvqfc0","pricing_plan_id":"cebpf4jnsgd1na2vs0mg"},{"bike_id":"55f1a346-655d-4ceb-961f-e11c032b07e0","system_id":"levelo_inurba_marseille","lat":43.31639,"lon":5.39899,"is_reserved":false,"is_disabled":false,"rental_uris":{"android":"levelo://app?vid=55f1a346-655d-4ceb-961f-e11c032b07e0","ios":"levelo://app?vid=55f1a346-655d-4ceb-961f-e11c032b07e0"},"vehicle_type_id":"4","last_reported":1741342211,"current_range_meters":19200,"station_id":"","pricing_plan_id":"cebpf4jnsgd1na2vs0mg"},{"bike_id":"109bb351-186b-4265-a656-ba9ebcca2768","system_id":"levelo_inurba_marseille","lat":43.3136,"lon":5.38495,"is_reserved":false,"is_disabled":false,"rental_uris":{"android":"levelo://app?vid=109bb351-186b-4265-a656-ba9ebcca2768","ios":"levelo://app?vid=109bb351-186b-4265-a656-ba9ebcca2768"},"vehicle_type_id":"4","last_reported":1741342211,"current_range_meters":19200,"station_id":"ce4bgt92rcd13ifvqcf0","pricing_plan_id":"cebpf4jnsgd1na2vs0mg"},{"bike_id":"e7a47a36-4c7a-4d18-9556-80e0688c24b2","system_id":"levelo_inurba_marseille","lat":43.30276,"lon":5.37694,"is_reserved":false,"is_disabled":false,"rental_uris":{"android":"levelo://app?vid=e7a47a36-4c7a-4d18-9556-80e0688c24b2","ios":"levelo://app?vid=e7a47a36-4c7a-4d18-9556-80e0688c24b2"},"vehicle_type_id":"4","last_reported":1741342211,"current_range_meters":19200,"station_id":"ce4bguh2rcd13ifvqcj0","pricing_plan_id":"cebpf4jnsgd1na2vs0mg"},{"bike_id":"9db7f241-21f8-4dee-86d3-ea1c33d52319","system_id":"levelo_inurba_marseille","lat":43.30888,"lon":5.372225,"is_reserved":false,"is_disabled":false,"rental_uris":{"android":"levelo://app?vid=9db7f241-21f8-4dee-86d3-ea1c33d52319","ios":"levelo://app?vid=9db7f241-21f8-4dee-86d3-ea1c33d52319"},"vehicle_type_id":"4","last_reported":1741342211,"current_range_meters":19200,"station_id":"ce4bguh2rcd13ifvqckg","pricing_plan_id":"cebpf4jnsgd1na2vs0mg"},{"bike_id":"330efe6b-ffca-4bc9-a8eb-bb1265c1230b","system_id":"levelo_inurba_marseille","lat":43.303016,"lon":5.392136,"is_reserved":false,"is_disabled":false,"rental_uris":{"android":"levelo://app?vid=330efe6b-ffca-4bc9-a8eb-bb1265c1230b","ios":"levelo://app?vid=330efe6b-ffca-4bc9-a8eb-bb1265c1230b"},"vehicle_type_id":"4","last_reported":1741342211,"current_range_meters":19200,"station_id":"ce4bh512rcd13ifvqe3g","pricing_plan_id":"cebpf4jnsgd1na2vs0mg"},{"bike_id":"e33cfe4f-0fde-4d5d-a73b-8319e33ade11","system_id":"levelo_inurba_marseille","lat":43.274398,"lon":5.394228,"is_reserved":false,"is_disabled":false,"rental_uris":{"android":"levelo://app?vid=e33cfe4f-0fde-4d5d-a73b-8319e33ade11","ios":"levelo://app?vid=e33cfe4f-0fde-4d5d-a73b-8319e33ade11"},"vehicle_type_id":"4","last_reported":1741342211,"current_range_meters":19200,"station_id":"ce4bhdp2rcd13ifvqf20","pricing_plan_id":"cebpf4jnsgd1na2vs0mg"},{"bike_id":"f96cb518-5a43-4db2-9e85-d6a786d285d8","system_id":"levelo_inurba_marseille","lat":43.26553,"lon":5.37283,"is_reserved":false,"is_disabled":false,"rental_uris":{"android":"levelo://app?vid=f96cb518-5a43-4db2-9e85-d6a786d285d8","ios":"levelo://app?vid=f96cb518-5a43-4db2-9e85-d6a786d285d8"},"vehicle_type_id":"4","last_reported":1741342211,"current_range_meters":19200,"station_id":"ce4bhg12rcd13ifvqf70","pricing_plan_id":"cebpf4jnsgd1na2vs0mg"},{"bike_id":"e38fdd6b-9037-48d0-bf51-29371898881f","system_id":"levelo_inurba_marseille","lat":43.25005,"lon":5.3892,"is_reserved":false,"is_disabled":false,"rental_uris":{"android":"levelo://app?vid=e38fdd6b-9037-48d0-bf51-29371898881f","ios":"levelo://app?vid=e38fdd6b-9037-48d0-bf51-29371898881f"},"vehicle_type_id":"4","last_reported":1741342211,"current_range_meters":19200,"station_id":"ce4bhgp2rcd13ifvqfd0","pricing_plan_id":"cebpf4jnsgd1na2vs0mg"},{"bike_id":"b5b10b8f-aea1-4b36-8a6e-28ad0a171d2b","system_id":"levelo_inurba_marseille","lat":43.24072,"lon":5.37756,"is_reserved":false,"is_disabled":false,"rental_uris":{"android":"levelo://app?vid=b5b10b8f-aea1-4b36-8a6e-28ad0a171d2b","ios":"levelo://app?vid=b5b10b8f-aea1-4b36-8a6e-28ad0a171d2b"},"vehicle_type_id":"4","last_reported":1741342211,"current_range_meters":19200,"station_id":"ce4bhnp2rcd13ifvqgvg","pricing_plan_id":"cebpf4jnsgd1na2vs0mg"},{"bike_id":"62b8f8c6-4f3a-4290-a9fa-eb80264648df","system_id":"levelo_inurba_marseille","lat":43.3361,"lon":5.41035,"is_reserved":false,"is_disabled":false,"rental_uris":{"android":"levelo://app?vid=62b8f8c6-4f3a-4290-a9fa-eb80264648df","ios":"levelo://app?vid=62b8f8c6-4f3a-4290-a9fa-eb80264648df"},"vehicle_type_id":"4","last_reported":1741342211,"current_range_meters":19200,"station_id":"ce4bhqh2rcd13ifvqhmg","pricing_plan_id":"cebpf4jnsgd1na2vs0mg"},{"bike_id":"0b430c6b-47c5-4b80-b500-24188c992917","system_id":"levelo_inurba_marseille","lat":43.3017,"lon":5.374,"is_reserved":false,"is_disabled":false,"rental_uris":{"android":"levelo://app?vid=0b430c6b-47c5-4b80-b500-24188c992917","ios":"levelo://app?vid=0b430c6b-47c5-4b80-b500-24188c992917"},"vehicle_type_id":"4","last_reported":1741342211,"current_range_meters":19600,"station_id":"ce4bgs92rcd13ifvqcc0","pricing_plan_id":"cebpf4jnsgd1na2vs0mg"},{"bike_id":"a3ac8ebf-9193-4b1e-a06a-d03a8c00f3a9","system_id":"levelo_inurba_marseille","lat":43.274422,"lon":5.394141,"is_reserved":false,"is_disabled":false,"rental_uris":{"android":"levelo://app?vid=a3ac8ebf-9193-4b1e-a06a-d03a8c00f3a9","ios":"levelo://app?vid=a3ac8ebf-9193-4b1e-a06a-d03a8c00f3a9"},"vehicle_type_id":"4","last_reported":1741342211,"current_range_meters":19600,"station_id":"ce4bhdp2rcd13ifvqf20","pricing_plan_id":"cebpf4jnsgd1na2vs0mg"},{"bike_id":"9d5b824a-cc91-4fd5-8f4f-f20d4a403471","system_id":"levelo_inurba_marseille","lat":43.30537,"lon":5.36526,"is_reserved":false,"is_disabled":false,"rental_uris":{"android":"levelo://app?vid=9d5b824a-cc91-4fd5-8f4f-f20d4a403471","ios":"levelo://app?vid=9d5b824a-cc91-4fd5-8f4f-f20d4a403471"},"vehicle_type_id":"4","last_reported":1741342211,"current_range_meters":20000,"station_id":"ce4bgs12rcd13ifvqcag","pricing_plan_id":"cebpf4jnsgd1na2vs0mg"},{"bike_id":"e54d5574-252a-4d4d-a2ef-1cac88ccf37a","system_id":"levelo_inurba_marseille","lat":43.2898,"lon":5.3783,"is_reserved":false,"is_disabled":false,"rental_uris":{"android":"levelo://app?vid=e54d5574-252a-4d4d-a2ef-1cac88ccf37a","ios":"levelo://app?vid=e54d5574-252a-4d4d-a2ef-1cac88ccf37a"},"vehicle_type_id":"4","last_reported":1741342211,"current_range_meters":20000,"station_id":"ce4bh9p2rcd13ifvqed0","pricing_plan_id":"cebpf4jnsgd1na2vs0mg"},{"bike_id":"c4265cea-0ae4-4a19-840e-6e224eb07d82","system_id":"levelo_inurba_marseille","lat":43.26168,"lon":5.37457,"is_reserved":false,"is_disabled":false,"rental_uris":{"android":"levelo://app?vid=c4265cea-0ae4-4a19-840e-6e224eb07d82","ios":"levelo://app?vid=c4265cea-0ae4-4a19-840e-6e224eb07d82"},"vehicle_type_id":"4","last_reported":1741342211,"current_range_meters":20000,"station_id":"ce4bhgp2rcd13ifvqfc0","pricing_plan_id":"cebpf4jnsgd1na2vs0mg"},{"bike_id":"f79478be-86f8-4be8-ba58-66c76fffbdbd","system_id":"levelo_inurba_marseille","lat":43.25936,"lon":5.4091,"is_reserved":false,"is_disabled":false,"rental_uris":{"android":"levelo://app?vid=f79478be-86f8-4be8-ba58-66c76fffbdbd","ios":"levelo://app?vid=f79478be-86f8-4be8-ba58-66c76fffbdbd"},"vehicle_type_id":"4","last_reported":1741342211,"current_range_meters":20000,"station_id":"ce4bhm92rcd13ifvqglg","pricing_plan_id":"cebpf4jnsgd1na2vs0mg"},{"bike_id":"d79ca698-fa40-4342-83b0-dc8ccb2bb79b","system_id":"levelo_inurba_marseille","lat":43.32365,"lon":5.38902,"is_reserved":false,"is_disabled":false,"rental_uris":{"android":"levelo://app?vid=d79ca698-fa40-4342-83b0-dc8ccb2bb79b","ios":"levelo://app?vid=d79ca698-fa40-4342-83b0-dc8ccb2bb79b"},"vehicle_type_id":"4","last_reported":1741342211,"current_range_meters":20000,"station_id":"ce4bhqp2rcd13ifvqhog","pricing_plan_id":"cebpf4jnsgd1na2vs0mg"},{"bike_id":"dd21ccee-dab1-41cc-bef7-ff48528dd719","system_id":"levelo_inurba_marseille","lat":43.32485,"lon":5.36569,"is_reserved":false,"is_disabled":false,"rental_uris":{"android":"levelo://app?vid=dd21ccee-dab1-41cc-bef7-ff48528dd719","ios":"levelo://app?vid=dd21ccee-dab1-41cc-bef7-ff48528dd719"},"vehicle_type_id":"4","last_reported":1741342211,"current_range_meters":20000,"station_id":"ce4bhs12rcd13ifvqhvg","pricing_plan_id":"cebpf4jnsgd1na2vs0mg"},{"bike_id":"2bf91aae-e93c-405b-a5c6-3669fe822af6","system_id":"levelo_inurba_marseille","lat":43.30144,"lon":5.38079,"is_reserved":false,"is_disabled":false,"rental_uris":{"android":"levelo://app?vid=2bf91aae-e93c-405b-a5c6-3669fe822af6","ios":"levelo://app?vid=2bf91aae-e93c-405b-a5c6-3669fe822af6"},"vehicle_type_id":"4","last_reported":1741342211,"current_range_meters":20400,"station_id":"ce4bgjp2rcd13ifvqbh0","pricing_plan_id":"cebpf4jnsgd1na2vs0mg"},{"bike_id":"0060530b-1566-4df7-b29e-8337bc5ed2fd","system_id":"levelo_inurba_marseille","lat":43.30539,"lon":5.36547,"is_reserved":false,"is_disabled":false,"rental_uris":{"android":"levelo://app?vid=0060530b-1566-4df7-b29e-8337bc5ed2fd","ios":"levelo://app?vid=0060530b-1566-4df7-b29e-8337bc5ed2fd"},"vehicle_type_id":"4","last_reported":1741342211,"current_range_meters":20400,"station_id":"ce4bgs12rcd13ifvqcag","pricing_plan_id":"cebpf4jnsgd1na2vs0mg"},{"bike_id":"41964e63-946b-49fd-9b33-19c638c43e74","system_id":"levelo_inurba_marseille","lat":43.30465,"lon":5.37909,"is_reserved":false,"is_disabled":false,"rental_uris":{"android":"levelo://app?vid=41964e63-946b-49fd-9b33-19c638c43e74","ios":"levelo://app?vid=41964e63-946b-49fd-9b33-19c638c43e74"},"vehicle_type_id":"4","last_reported":1741342211,"current_range_meters":20400,"station_id":"ce4bgup2rcd13ifvqcn0","pricing_plan_id":"cebpf4jnsgd1na2vs0mg"},{"bike_id":"7e7e5ce4-799e-4c28-be26-0f35bb8e9eac","system_id":"levelo_inurba_marseille","lat":43.27933,"lon":5.38733,"is_reserved":false,"is_disabled":false,"rental_uris":{"android":"levelo://app?vid=7e7e5ce4-799e-4c28-be26-0f35bb8e9eac","ios":"levelo://app?vid=7e7e5ce4-799e-4c28-be26-0f35bb8e9eac"},"vehicle_type_id":"4","last_reported":1741342211,"current_range_meters":20400,"station_id":"ce4bhg12rcd13ifvqf80","pricing_plan_id":"cebpf4jnsgd1na2vs0mg"},{"bike_id":"e8f7010e-0f0c-4049-96a8-6743502e35fe","system_id":"levelo_inurba_marseille","lat":43.25004,"lon":5.38929,"is_reserved":false,"is_disabled":false,"rental_uris":{"android":"levelo://app?vid=e8f7010e-0f0c-4049-96a8-6743502e35fe","ios":"levelo://app?vid=e8f7010e-0f0c-4049-96a8-6743502e35fe"},"vehicle_type_id":"4","last_reported":1741342211,"current_range_meters":20400,"station_id":"ce4bhgp2rcd13ifvqfd0","pricing_plan_id":"cebpf4jnsgd1na2vs0mg"},{"bike_id":"fe501a61-f5a4-4634-9657-a177401bfd4d","system_id":"levelo_inurba_marseille","lat":43.25812,"lon":5.39443,"is_reserved":false,"is_disabled":false,"rental_uris":{"android":"levelo://app?vid=fe501a61-f5a4-4634-9657-a177401bfd4d","ios":"levelo://app?vid=fe501a61-f5a4-4634-9657-a177401bfd4d"},"vehicle_type_id":"4","last_reported":1741342211,"current_range_meters":20400,"station_id":"ce4bhip2rcd13ifvqft0","pricing_plan_id":"cebpf4jnsgd1na2vs0mg"},{"bike_id":"f0578d1c-f965-4fd9-8d42-b8286ea2c020","system_id":"levelo_inurba_marseille","lat":43.27175,"lon":5.40995,"is_reserved":false,"is_disabled":false,"rental_uris":{"android":"levelo://app?vid=f0578d1c-f965-4fd9-8d42-b8286ea2c020","ios":"levelo://app?vid=f0578d1c-f965-4fd9-8d42-b8286ea2c020"},"vehicle_type_id":"4","last_reported":1741342211,"current_range_meters":20400,"station_id":"ce4bhl12rcd13ifvqgf0","pricing_plan_id":"cebpf4jnsgd1na2vs0mg"},{"bike_id":"bf1a5507-acdf-4c68-8934-406f91226d54","system_id":"levelo_inurba_marseille","lat":43.33028,"lon":5.39043,"is_reserved":false,"is_disabled":false,"rental_uris":{"android":"levelo://app?vid=bf1a5507-acdf-4c68-8934-406f91226d54","ios":"levelo://app?vid=bf1a5507-acdf-4c68-8934-406f91226d54"},"vehicle_type_id":"4","last_reported":1741342211,"current_range_meters":20400,"station_id":"ce4bhr92rcd13ifvqhrg","pricing_plan_id":"cebpf4jnsgd1na2vs0mg"},{"bike_id":"77b06d11-ce57-4edd-9012-642dd241ea1b","system_id":"levelo_inurba_marseille","lat":43.31035,"lon":5.40085,"is_reserved":false,"is_disabled":false,"rental_uris":{"android":"levelo://app?vid=77b06d11-ce57-4edd-9012-642dd241ea1b","ios":"levelo://app?vid=77b06d11-ce57-4edd-9012-642dd241ea1b"},"vehicle_type_id":"4","last_reported":1741342211,"current_range_meters":20400,"station_id":"chh1huq6cuj3fo74tm60","pricing_plan_id":"cebpf4jnsgd1na2vs0mg"},{"bike_id":"3a325ce1-fb4c-416d-a064-77ad56bed288","system_id":"levelo_inurba_marseille","lat":43.29596,"lon":5.38099,"is_reserved":false,"is_disabled":false,"rental_uris":{"android":"levelo://app?vid=3a325ce1-fb4c-416d-a064-77ad56bed288","ios":"levelo://app?vid=3a325ce1-fb4c-416d-a064-77ad56bed288"},"vehicle_type_id":"4","last_reported":1741342211,"current_range_meters":20800,"station_id":"ce4bgl12rcd13ifvqbo0","pricing_plan_id":"cebpf4jnsgd1na2vs0mg"},{"bike_id":"c62aa004-c593-4090-a707-8c27a6c44fee","system_id":"levelo_inurba_marseille","lat":43.30913,"lon":5.36842,"is_reserved":false,"is_disabled":false,"rental_uris":{"android":"levelo://app?vid=c62aa004-c593-4090-a707-8c27a6c44fee","ios":"levelo://app?vid=c62aa004-c593-4090-a707-8c27a6c44fee"},"vehicle_type_id":"4","last_reported":1741342211,"current_range_meters":20800,"station_id":"ce4bgn92rcd13ifvqbvg","pricing_plan_id":"cebpf4jnsgd1na2vs0mg"},{"bike_id":"90749686-8990-4294-b1e1-5f2d733e6e37","system_id":"levelo_inurba_marseille","lat":43.23151,"lon":5.437,"is_reserved":false,"is_disabled":false,"rental_uris":{"android":"levelo://app?vid=90749686-8990-4294-b1e1-5f2d733e6e37","ios":"levelo://app?vid=90749686-8990-4294-b1e1-5f2d733e6e37"},"vehicle_type_id":"4","last_reported":1741342211,"current_range_meters":20800,"station_id":"ce4bhmp2rcd13ifvqgog","pricing_plan_id":"cebpf4jnsgd1na2vs0mg"},