{"last_updated":1740755382,"ttl":60,"version":"2.2","data":{"bikes":[{"bike_id":"1de8dc4e-e02e-4b64-825f-32b4e2be1eb9","system_id":"levelo_inurba_marseille","lat":43.23198,"lon":5.35551,"is_reserved":false,"is_disabled":false,"rental_uris":{"android":"levelo://app?vid=1de8dc4e-e02e-4b64-825f-32b4e2be1eb9","ios":"levelo://app?vid=1de8dc4e-e02e-4b64-825f-32b4e2be1eb9"},"vehicle_type_id":"4","last_reported":1740755382,"current_range_meters":2800,"station_id":"ce4bhu92rcd13ifvqi70","pricing_plan_id":"cebpf4jnsgd1na2vs0mg"},{"bike_id":"f5199d14-d35a-4e6b-8747-13add0e50f88","system_id":"levelo_inurba_marseille","lat":43.2762,"lon":5.36104,"is_reserved":false,"is_disabled":false,"rental_uris":{"android":"levelo://app?vid=f5199d14-d35a-4e6b-8747-13add0e50f88","ios":"levelo://app?vid=f5199d14-d35a-4e6b-8747-13add0e50f88"},"vehicle_type_id":"4","last_reported":1740755382,"current_range_meters":2800,"station_id":"ce4bgj92rcd13ifvqbe0","pricing_plan_id":"cebpf4jnsgd1na2vs0mg"},{"bike_id":"9be1a596-fe70-4586-8814-0cb04a326d73","system_id":"levelo_inurba_marseille","lat":43.28421,"lon":5.3499,"is_reserved":false,"is_disabled":false,"rental_uris":{"android":"levelo://app?vid=9be1a596-fe70-4586-8814-0cb04a326d73","ios":"levelo://app?vid=9be1a596-fe70-4586-8814-0cb04a326d73"},"vehicle_type_id":"4","last_reported":1740755382,"current_range_meters":3600,"station_id":"ce4bhbh2rcd13ifvqepg","pricing_plan_id":"cebpf4jnsgd1na2vs0mg"},{"bike_id":"17635321-397b-4f8b-9d46-58a5891c7b21","system_id":"levelo_inurba_marseille","lat":43.28095,"lon":5.39663,"is_reserved":false,"is_disabled":false,"rental_uris":{"android":"levelo://app?vid=17635321-397b-4f8b-9d46-58a5891c7b21","ios":"levelo://app?vid=17635321-397b-4f8b-9d46-58a5891c7b21"},"vehicle_type_id":"4","last_reported":1740755382,"current_range_meters":4000,"station_id":"ce4bho12rcd13ifvqh2g","pricing_plan_id":"cebpf4jnsgd1na2vs0mg"},{"bike_id":"8aa3e5e9-131f-43ff-b932-cedd5dde5d87","system_id":"levelo_inurba_marseille","lat":43.2397,"lon":5.36631,"is_reserved":false,"is_disabled":false,"rental_uris":{"android":"levelo://app?vid=8aa3e5e9-131f-43ff-b932-cedd5dde5d87","ios":"levelo://app?vid=8aa3e5e9-131f-43ff-b932-cedd5dde5d87"},"vehicle_type_id":"4","last_reported":1740755382,"current_range_meters":3600,"station_id":"ce4bhi12rcd13ifvqfp0","pricing_plan_id":"cebpf4jnsgd1na2vs0mg"},{"bike_id":"120c20b4-0795-4bce-a2d1-c2fbda4df911","system_id":"levelo_inurba_marseille","lat":43.30623,"lon":5.37448,"is_reserved":false,"is_disabled":false,"rental_uris":{"android":"levelo://app?vid=120c20b4-0795-4bce-a2d1-c2fbda4df911","ios":"levelo://app?vid=120c20b4-0795-4bce-a2d1-c2fbda4df911"},"vehicle_type_id":"4","last_reported":1740755382,"current_range_meters":1600,"station_id":"","pricing_plan_id":"cebpf4jnsgd1na2vs0mg"},{"bike_id":"e306a62e-3579-4534-8cc5-8da76b7ee8ea","system_id":"levelo_inurba_marseille","lat":43.25112,"lon":5.4033,"is_reserved":false,"is_disabled":false,"rental_uris":{"android":"levelo://app?vid=e306a62e-3579-4534-8cc5-8da76b7ee8ea","ios":"levelo://app?vid=e306a62e-3579-4534-8cc5-8da76b7ee8ea"},"vehicle_type_id":"4","last_reported":1740755382,"current_range_meters":4000,"station_id":"ce4bhlh2rcd13ifvqgig","pricing_plan_id":"cebpf4jnsgd1na2vs0mg"},{"bike_id":"ea83035f-0817-4739-81d1-2819314ef457","system_id":"levelo_inurba_marseille","lat":43.28109,"lon":5.37851,"is_reserved":false,"is_disabled":false,"rental_uris":{"android":"levelo://app?vid=ea83035f-0817-4739-81d1-2819314ef457","ios":"levelo://app?vid=ea83035f-0817-4739-81d1-2819314ef457"},"vehicle_type_id":"4","last_reported":1740755382,"current_range_meters":4400,"station_id":"ce4bha12rcd13ifvqee0","pricing_plan_id":"cebpf4jnsgd1na2vs0mg"},{"bike_id":"c3b9d76e-ecb5-4f62-9ef6-02fa1d8cf1ad","system_id":"levelo_inurba_marseille","lat":43.29005,"lon":5.35631,"is_reserved":false,"is_disabled":true,"rental_uris":{"android":"levelo://app?vid=c3b9d76e-ecb5-4f62-9ef6-02fa1d8cf1ad","ios":"levelo://app?vid=c3b9d76e-ecb5-4f62-9ef6-02fa1d8cf1ad"},"vehicle_type_id":"4","last_reported":1740755382,"current_range_meters":4400,"station_id":"ce4bhb92rcd13ifvqen0","pricing_plan_id":"cebpf4jnsgd1na2vs0mg"},{"bike_id":"80c7b970-6455-470a-89d9-c60746c3905f","system_id":"levelo_inurba_marseille","lat":43.25588,"lon":5.38251,"is_reserved":false,"is_disabled":false,"rental_uris":{"android":"levelo://app?vid=80c7b970-6455-470a-89d9-c60746c3905f","ios":"levelo://app?vid=80c7b970-6455-470a-89d9-c60746c3905f"},"vehicle_type_id":"4","last_reported":1740755382,"current_range_meters":4800,"station_id":"ce4bhih2rcd13ifvqfs0","pricing_plan_id":"cebpf4jnsgd1na2vs0mg"},{"bike_id":"8a376742-1b98-4235-a76e-610dc1cf80af","system_id":"levelo_inurba_marseille","lat":43.25943,"lon":5.40891,"is_reserved":false,"is_disabled":false,"rental_uris":{"android":"levelo://app?vid=8a376742-1b98-4235-a76e-610dc1cf80af","ios":"levelo://app?vid=8a376742-1b98-4235-a76e-610dc1cf80af"},"vehicle_type_id":"4","last_reported":1740755382,"current_range_meters":4800,"station_id":"ce4bhm92rcd13ifvqglg","pricing_plan_id":"cebpf4jnsgd1na2vs0mg"},{"bike_id":"6ef29f22-9749-425c-ada6-e06158d3b988","system_id":"levelo_inurba_marseille","lat":43.29228,"lon":5.36069,"is_reserved":false,"is_disabled":false,"rental_uris":{"android":"levelo://app?vid=6ef29f22-9749-425c-ada6-e06158d3b988","ios":"levelo://app?vid=6ef29f22-9749-425c-ada6-e06158d3b988"},"vehicle_type_id":"4","last_reported":1740755382,"current_range_meters":5600,"station_id":"ce4bhbh2rcd13ifvqeqg","pricing_plan_id":"cebpf4jnsgd1na2vs0mg"},{"bike_id":"6691d6a6-0500-4413-8d1a-283f729c6f82","system_id":"levelo_inurba_marseille","lat":43.25499,"lon":5.37663,"is_reserved":false,"is_disabled":false,"rental_uris":{"android":"levelo://app?vid=6691d6a6-0500-4413-8d1a-283f729c6f82","ios":"levelo://app?vid=6691d6a6-0500-4413-8d1a-283f729c6f82"},"vehicle_type_id":"4","last_reported":1740755382,"current_range_meters":4800,"station_id":"ce4bhh12rcd13ifvqff0","pricing_plan_id":"cebpf4jnsgd1na2vs0mg"},{"bike_id":"43d2bbc0-cdc9-4fff-90d6-b9092bc6d78f","system_id":"levelo_inurba_marseille","lat":43.32481,"lon":5.36563,"is_reserved":false,"is_disabled":false,"rental_uris":{"android":"levelo://app?vid=43d2bbc0-cdc9-4fff-90d6-b9092bc6d78f","ios":"levelo://app?vid=43d2bbc0-cdc9-4fff-90d6-b9092bc6d78f"},"vehicle_type_id":"4","last_reported":1740755382,"current_range_meters":5600,"station_id":"ce4bhs12rcd13ifvqhvg","pricing_plan_id":"cebpf4jnsgd1na2vs0mg"},{"bike_id":"1c80f975-8bfa-404a-9fe4-06f4f9439bfd","system_id":"levelo_inurba_marseille","lat":43.23197,"lon":5.3554,"is_reserved":false,"is_disabled":false,"rental_uris":{"android":"levelo://app?vid=1c80f975-8bfa-404a-9fe4-06f4f9439bfd","ios":"levelo://app?vid=1c80f975-8bfa-404a-9fe4-06f4f9439bfd"},"vehicle_type_id":"4","last_reported":1740755382,"current_range_meters":5600,"station_id":"ce4bhu92rcd13ifvqi70","pricing_plan_id":"cebpf4jnsgd1na2vs0mg"},{"bike_id":"e4edfb01-efe9-4fc4-b1ba-adefdab88bb3","system_id":"levelo_inurba_marseille","lat":43.3137,"lon":5.38507,"is_reserved":false,"is_disabled":false,"rental_uris":{"android":"levelo://app?vid=e4edfb01-efe9-4fc4-b1ba-adefdab88bb3","ios":"levelo://app?vid=e4edfb01-efe9-4fc4-b1ba-adefdab88bb3"},"vehicle_type_id":"4","last_reported":1740755382,"current_range_meters":5600,"station_id":"ce4bgt92rcd13ifvqcf0","pricing_plan_id":"cebpf4jnsgd1na2vs0mg"},{"bike_id":"8a72fd36-7518-4e8b-90c3-294112d9307e","system_id":"levelo_inurba_marseille","lat":43.24802,"lon":5.41204,"is_reserved":false,"is_disabled":false,"rental_uris":{"android":"levelo://app?vid=8a72fd36-7518-4e8b-90c3-294112d9307e","ios":"levelo://app?vid=8a72fd36-7518-4e8b-90c3-294112d9307e"},"vehicle_type_id":"4","last_reported":1740755382,"current_range_meters":5600,"station_id":"","pricing_plan_id":"cebpf4jnsgd1na2vs0mg"},{"bike_id":"0ca43f34-9d3a-47c0-93e2-5826f87bb5a3","system_id":"levelo_inurba_marseille","lat":43.293255,"lon":5.372779,"is_reserved":false,"is_disabled":false,"rental_uris":{"android":"levelo://app?vid=0ca43f34-9d3a-47c0-93e2-5826f87bb5a3","ios":"levelo://app?vid=0ca43f34-9d3a-47c0-93e2-5826f87bb5a3"},"vehicle_type_id":"4","last_reported":1740755382,"current_range_meters":5600,"station_id":"ce4bh2h2rcd13ifvqdh0","pricing_plan_id":"cebpf4jnsgd1na2vs0mg"},{"bike_id":"cb151145-1667-44f5-888c-ed10a82848b4","system_id":"levelo_inurba_marseille","lat":43.26562,"lon":5.39013,"is_reserved":false,"is_disabled":false,"rental_uris":{"android":"levelo://app?vid=cb151145-1667-44f5-888c-ed10a82848b4","ios":"levelo://app?vid=cb151145-1667-44f5-888c-ed10a82848b4"},"vehicle_type_id":"4","last_reported":1740755382,"current_range_meters":5600,"station_id":"ce4bhe12rcd13ifvqf30","pricing_plan_id":"cebpf4jnsgd1na2vs0mg"},{"bike_id":"cd6ae55e-9577-4e21-b1ed-2b646020da13","system_id":"levelo_inurba_marseille","lat":43.28422,"lon":5.34982,"is_reserved":false,"is_disabled":true,"rental_uris":{"android":"levelo://app?vid=cd6ae55e-9577-4e21-b1ed-2b646020da13","ios":"levelo://app?vid=cd6ae55e-9577-4e21-b1ed-2b646020da13"},"vehicle_type_id":"4","last_reported":1740755382,"current_range_meters":5600,"station_id":"ce4bhbh2rcd13ifvqepg","pricing_plan_id":"cebpf4jnsgd1na2vs0mg"},{"bike_id":"1086c175-128e-4141-8561-404add4aa68c","system_id":"levelo_inurba_marseille","lat":43.26792,"lon":5.41998,"is_reserved":false,"is_disabled":false,"rental_uris":{"android":"levelo://app?vid=1086c175-128e-4141-8561-404add4aa68c","ios":"levelo://app?vid=1086c175-128e-4141-8561-404add4aa68c"},"vehicle_type_id":"4","last_reported":1740755382,"current_range_meters":11600,"station_id":"","pricing_plan_id":"cebpf4jnsgd1na2vs0mg"},{"bike_id":"4b7e929d-3f2c-431b-9339-e85d55368cd8","system_id":"levelo_inurba_marseille","lat":43.2499,"lon":5.38913,"is_reserved":false,"is_disabled":false,"rental_uris":{"android":"levelo://app?vid=4b7e929d-3f2c-431b-9339-e85d55368cd8","ios":"levelo://app?vid=4b7e929d-3f2c-431b-9339-e85d55368cd8"},"vehicle_type_id":"4","last_reported":1740755382,"current_range_meters":5600,"station_id":"ce4bhgp2rcd13ifvqfd0","pricing_plan_id":"cebpf4jnsgd1na2vs0mg"},{"bike_id":"c83294e8-bffd-4ff7-bb60-e8e592bc7779","system_id":"levelo_inurba_marseille","lat":43.29227,"lon":5.36065,"is_reserved":false,"is_disabled":false,"rental_uris":{"android":"levelo://app?vid=c83294e8-bffd-4ff7-bb60-e8e592bc7779","ios":"levelo://app?vid=c83294e8-bffd-4ff7-bb60-e8e592bc7779"},"vehicle_type_id":"4","last_reported":1740755382,"current_range_meters":5600,"station_id":"ce4bhbh2rcd13ifvqeqg","pricing_plan_id":"cebpf4jnsgd1na2vs0mg"},{"bike_id":"3213d89e-51d9-44b4-9b5d-0d1fc0990b7d","system_id":"levelo_inurba_marseille","lat":43.27384,"lon":5.36262,"is_reserved":false,"is_disabled":false,"rental_uris":{"android":"levelo://app?vid=3213d89e-51d9-44b4-9b5d-0d1fc0990b7d","ios":"levelo://app?vid=3213d89e-51d9-44b4-9b5d-0d1fc0990b7d"},"vehicle_type_id":"4","last_reported":1740755382,"current_range_meters":6000,"station_id":"ce4bhbh2rcd13ifvqeo0","pricing_plan_id":"cebpf4jnsgd1na2vs0mg"},{"bike_id":"048889bf-861b-45fc-8e8b-55d474c3801a","system_id":"levelo_inurba_marseille","lat":43.28615,"lon":5.351,"is_reserved":false,"is_disabled":false,"rental_uris":{"android":"levelo://app?vid=048889bf-861b-45fc-8e8b-55d474c3801a","ios":"levelo://app?vid=048889bf-861b-45fc-8e8b-55d474c3801a"},"vehicle_type_id":"4","last_reported":1740755382,"current_range_meters":6000,"station_id":"ce4bhch2rcd13ifvqeug","pricing_plan_id":"cebpf4jnsgd1na2vs0mg"},{"bike_id":"ffe785f9-dc35-4cdf-be54-dca250807323","system_id":"levelo_inurba_marseille","lat":43.23197,"lon":5.3555,"is_reserved":false,"is_disabled":false,"rental_uris":{"android":"levelo://app?vid=ffe785f9-dc35-4cdf-be54-dca250807323","ios":"levelo://app?vid=ffe785f9-dc35-4cdf-be54-dca250807323"},"vehicle_type_id":"4","last_reported":1740755382,"current_range_meters":6000,"station_id":"ce4bhu92rcd13ifvqi70","pricing_plan_id":"cebpf4jnsgd1na2vs0mg"},{"bike_id":"4b85117a-c371-4290-a1e2-0e41692b037c","system_id":"levelo_inurba_marseille","lat":43.28275,"lon":5.35059,"is_reserved":false,"is_disabled":false,"rental_uris":{"android":"levelo://app?vid=4b85117a-c371-4290-a1e2-0e41692b037c","ios":"levelo://app?vid=4b85117a-c371-4290-a1e2-0e41692b037c"},"vehicle_type_id":"4","last_reported":1740755382,"current_range_meters":6400,"station_id":"ce4bhbp2rcd13ifvqerg","pricing_plan_id":"cebpf4jnsgd1na2vs0mg"},{"bike_id":"f620ce1d-3336-438a-b5da-4d2ad8cc66e4","system_id":"levelo_inurba_marseille","lat":43.25009,"lon":5.37515,"is_reserved":false,"is_disabled":false,"rental_uris":{"android":"levelo://app?vid=f620ce1d-3336-438a-b5da-4d2ad8cc66e4","ios":"levelo://app?vid=f620ce1d-3336-438a-b5da-4d2ad8cc66e4"},"vehicle_type_id":"4","last_reported":1740755382,"current_range_meters":6800,"station_id":"","pricing_plan_id":"cebpf4jnsgd1na2vs0mg"},{"bike_id":"1b364542-e2fa-4bd4-8564-b0ee373e71fe","system_id":"levelo_inurba_marseille","lat":43.23057,"lon":5.35501,"is_reserved":false,"is_disabled":false,"rental_uris":{"android":"levelo://app?vid=1b364542-e2fa-4bd4-8564-b0ee373e71fe","ios":"levelo://app?vid=1b364542-e2fa-4bd4-8564-b0ee373e71fe"},"vehicle_type_id":"4","last_reported":1740755382,"current_range_meters":6400,"station_id":"cpo3342slgdg3j2ifvpg","pricing_plan_id":"cebpf4jnsgd1na2vs0mg"},{"bike_id":"5c25469b-1631-4741-b1e1-dae9887684a2","system_id":"levelo_inurba_marseille","lat":43.26232,"lon":5.40455,"is_reserved":false,"is_disabled":false,"rental_uris":{"android":"levelo://app?vid=5c25469b-1631-4741-b1e1-dae9887684a2","ios":"levelo://app?vid=5c25469b-1631-4741-b1e1-dae9887684a2"},"vehicle_type_id":"4","last_reported":1740755382,"current_range_meters":6400,"station_id":"ce4bhmh2rcd13ifvqgmg","pricing_plan_id":"cebpf4jnsgd1na2vs0mg"},{"bike_id":"a402dcb0-63b6-4569-b9e8-ad825500c3f8","system_id":"levelo_inurba_marseille","lat":43.28995,"lon":5.35908,"is_reserved":false,"is_disabled":false,"rental_uris":{"android":"levelo://app?vid=a402dcb0-63b6-4569-b9e8-ad825500c3f8","ios":"levelo://app?vid=a402dcb0-63b6-4569-b9e8-ad825500c3f8"},"vehicle_type_id":"4","last_reported":1740755382,"current_range_meters":6400,"station_id":"","pricing_plan_id":"cebpf4jnsgd1na2vs0mg"},{"bike_id":"ecb70d6e-8b09-49f8-96e8-80e062633b66","system_id":"levelo_inurba_marseille","lat":43.27055,"lon":5.40265,"is_reserved":false,"is_disabled":false,"rental_uris":{"android":"levelo://app?vid=ecb70d6e-8b09-49f8-96e8-80e062633b66","ios":"levelo://app?vid=ecb70d6e-8b09-49f8-96e8-80e062633b66"},"vehicle_type_id":"4","last_reported":1740755382,"current_range_meters":6400,"station_id":"ce4bhk92rcd13ifvqgc0","pricing_plan_id":"cebpf4jnsgd1na2vs0mg"},{"bike_id":"b1fd7ee9-30e5-4fab-aa78-d50ff4137b52","system_id":"levelo_inurba_marseille","lat":43.25575,"lon":5.38241,"is_reserved":false,"is_disabled":false,"rental_uris":{"android":"levelo://app?vid=b1fd7ee9-30e5-4fab-aa78-d50ff4137b52","ios":"levelo://app?vid=b1fd7ee9-30e5-4fab-aa78-d50ff4137b52"},"vehicle_type_id":"4","last_reported":1740755382,"current_range_meters":6400,"station_id":"ce4bhih2rcd13ifvqfs0","pricing_plan_id":"cebpf4jnsgd1na2vs0mg"},{"bike_id":"17ddbbb5-11e9-4dea-8d48-8df35a23e77a","system_id":"levelo_inurba_marseille","lat":43.31759,"lon":5.39017,"is_reserved":false,"is_disabled":false,"rental_uris":{"android":"levelo://app?vid=17ddbbb5-11e9-4dea-8d48-8df35a23e77a","ios":"levelo://app?vid=17ddbbb5-11e9-4dea-8d48-8df35a23e77a"},"vehicle_type_id":"4","last_reported":1740755382,"current_range_meters":6400,"station_id":"ce4bhqp2rcd13ifvqhng","pricing_plan_id":"cebpf4jnsgd1na2vs0mg"},{"bike_id":"e61c558e-70bf-4486-b29e-74b2bb22ec44","system_id":"levelo_inurba_marseille","lat":43.25584,"lon":5.38246,"is_reserved":false,"is_disabled":false,"rental_uris":{"android":"levelo://app?vid=e61c558e-70bf-4486-b29e-74b2bb22ec44","ios":"levelo://app?vid=e61c558e-70bf-4486-b29e-74b2bb22ec44"},"vehicle_type_id":"4","last_reported":1740755382,"current_range_meters":6800,"station_id":"ce4bhih2rcd13ifvqfs0","pricing_plan_id":"cebpf4jnsgd1na2vs0mg"},{"bike_id":"1bd9b77c-7d80-4f08-9932-0d87c658774e","system_id":"levelo_inurba_marseille","lat":43.30456,"lon":5.37902,"is_reserved":false,"is_disabled":false,"rental_uris":{"android":"levelo://app?vid=1bd9b77c-7d80-4f08-9932-0d87c658774e","ios":"levelo://app?vid=1bd9b77c-7d80-4f08-9932-0d87c658774e"},"vehicle_type_id":"4","last_reported":1740755382,"current_range_meters":6800,"station_id":"ce4bgup2rcd13ifvqcn0","pricing_plan_id":"cebpf4jnsgd1na2vs0mg"},{"bike_id":"92779791-4a8b-4834-9034-39c66ed18251","system_id":"levelo_inurba_marseille","lat":43.30178,"lon":5.36655,"is_reserved":false,"is_disabled":false,"rental_uris":{"android":"levelo://app?vid=92779791-4a8b-4834-9034-39c66ed18251","ios":"levelo://app?vid=92779791-4a8b-4834-9034-39c66ed18251"},"vehicle_type_id":"4","last_reported":1740755382,"current_range_meters":6800,"station_id":"ce4bgrh2rcd13ifvqc8g","pricing_plan_id":"cebpf4jnsgd1na2vs0mg"},{"bike_id":"b67f3b2c-7c9b-4e08-a4d6-93f89a78ad66","system_id":"levelo_inurba_marseille","lat":43.30934,"lon":5.40151,"is_reserved":false,"is_disabled":false,"rental_uris":{"android":"levelo://app?vid=b67f3b2c-7c9b-4e08-a4d6-93f89a78ad66","ios":"levelo://app?vid=b67f3b2c-7c9b-4e08-a4d6-93f89a78ad66"},"vehicle_type_id":"4","last_reported":1740755382,"current_range_meters":6800,"station_id":"ce4bgvp2rcd13ifvqct0","pricing_plan_id":"cebpf4jnsgd1na2vs0mg"},{"bike_id":"64d214ed-2561-43d5-9440-11a8102b228d","system_id":"levelo_inurba_marseille","lat":43.26197,"lon":5.3745,"is_reserved":false,"is_disabled":false,"rental_uris":{"android":"levelo://app?vid=64d214ed-2561-43d5-9440-11a8102b228d","ios":"levelo://app?vid=64d214ed-2561-43d5-9440-11a8102b228d"},"vehicle_type_id":"4","last_reported":1740755382,"current_range_meters":6800,"station_id":"ce4bhgp2rcd13ifvqfc0","pricing_plan_id":"cebpf4jnsgd1na2vs0mg"},{"bike_id":"6d86835a-6926-467d-bc3b-bf7db2410582","system_id":"levelo_inurba_marseille","lat":43.27186,"lon":5.40985,"is_reserved":false,"is_disabled":false,"rental_uris":{"android":"levelo://app?vid=6d86835a-6926-467d-bc3b-bf7db2410582","ios":"levelo://app?vid=6d86835a-6926-467d-bc3b-bf7db2410582"},"vehicle_type_id":"4","last_reported":1740755382,"current_range_meters":6800,"station_id":"ce4bhl12rcd13ifvqgf0","pricing_plan_id":"cebpf4jnsgd1na2vs0mg"},{"bike_id":"435cc12b-60b2-4fef-b94c-59941ba4cebb","system_id":"levelo_inurba_marseille","lat":43.27373,"lon":5.36268,"is_reserved":false,"is_disabled":false,"rental_uris":{"android":"levelo://app?vid=435cc12b-60b2-4fef-b94c-59941ba4cebb","ios":"levelo://app?vid=435cc12b-60b2-4fef-b94c-59941ba4cebb"},"vehicle_type_id":"4","last_reported":1740755382,"current_range_meters":6800,"station_id":"ce4bhbh2rcd13ifvqeo0","pricing_plan_id":"cebpf4jnsgd1na2vs0mg"},{"bike_id":"716ca9e9-f948-4094-a6ab-ab925bd4b584","system_id":"levelo_inurba_marseille","lat":43.31369,"lon":5.38493,"is_reserved":false,"is_disabled":false,"rental_uris":{"android":"levelo://app?vid=716ca9e9-f948-4094-a6ab-ab925bd4b584","ios":"levelo://app?vid=716ca9e9-f948-4094-a6ab-ab925bd4b584"},"vehicle_type_id":"4","last_reported":1740755382,"current_range_meters":7200,"station_id":"ce4bgt92rcd13ifvqcf0","pricing_plan_id":"cebpf4jnsgd1na2vs0mg"},{"bike_id":"5e0e22b0-e973-48d0-8bed-a771273f721a","system_id":"levelo_inurba_marseille","lat":43.27388,"lon":5.36261,"is_reserved":false,"is_disabled":false,"rental_uris":{"android":"levelo://app?vid=5e0e22b0-e973-48d0-8bed-a771273f721a","ios":"levelo://app?vid=5e0e22b0-e973-48d0-8bed-a771273f721a"},"vehicle_type_id":"4","last_reported":1740755382,"current_range_meters":7200,"station_id":"ce4bhbh2rcd13ifvqeo0","pricing_plan_id":"cebpf4jnsgd1na2vs0mg"},{"bike_id":"527177d7-ee42-402e-aae8-d8d2a03364c9","system_id":"levelo_inurba_marseille","lat":43.24177,"lon":5.39731,"is_reserved":false,"is_disabled":false,"rental_uris":{"android":"levelo://app?vid=527177d7-ee42-402e-aae8-d8d2a03364c9","ios":"levelo://app?vid=527177d7-ee42-402e-aae8-d8d2a03364c9"},"vehicle_type_id":"4","last_reported":1740755382,"current_range_meters":7200,"station_id":"ce4bhn12rcd13ifvqgpg","pricing_plan_id":"cebpf4jnsgd1na2vs0mg"},{"bike_id":"a857a849-1414-4d4d-9dae-cc5261b581b9","system_id":"levelo_inurba_marseille","lat":43.23188,"lon":5.35537,"is_reserved":false,"is_disabled":false,"rental_uris":{"android":"levelo://app?vid=a857a849-1414-4d4d-9dae-cc5261b581b9","ios":"levelo://app?vid=a857a849-1414-4d4d-9dae-cc5261b581b9"},"vehicle_type_id":"4","last_reported":1740755382,"current_range_meters":7200,"station_id":"ce4bhu92rcd13ifvqi70","pricing_plan_id":"cebpf4jnsgd1na2vs0mg"},{"bike_id":"79dd6344-b2c8-4aed-b67b-5532831871dc","system_id":"levelo_inurba_marseille","lat":43.31071,"lon":5.38353,"is_reserved":false,"is_disabled":false,"rental_uris":{"android":"levelo://app?vid=79dd6344-b2c8-4aed-b67b-5532831871dc","ios":"levelo://app?vid=79dd6344-b2c8-4aed-b67b-5532831871dc"},"vehicle_type_id":"4","last_reported":1740755382,"current_range_meters":4000,"station_id":"ce4bgv92rcd13ifvqcr0","pricing_plan_id":"cebpf4jnsgd1na2vs0mg"},{"bike_id":"9dd9610b-b803-4dc5-8a9a-ca22056b1999","system_id":"levelo_inurba_marseille","lat":43.24675,"lon":5.38162,"is_reserved":false,"is_disabled":false,"rental_uris":{"android":"levelo://app?vid=9dd9610b-b803-4dc5-8a9a-ca22056b1999","ios":"levelo://app?vid=9dd9610b-b803-4dc5-8a9a-ca22056b1999"},"vehicle_type_id":"4","last_reported":1740755382,"current_range_meters":7200,"station_id":"ce4bhih2rcd13ifvqfr0","pricing_plan_id":"cebpf4jnsgd1na2vs0mg"},{"bike_id":"7cf5164f-9a9f-4eed-b254-9c9af269c409","system_id":"levelo_inurba_marseille","lat":43.29881,"lon":5.389003,"is_reserved":false,"is_disabled":false,"rental_uris":{"android":"levelo://app?vid=7cf5164f-9a9f-4eed-b254-9c9af269c409","ios":"levelo://app?vid=7cf5164f-9a9f-4eed-b254-9c9af269c409"},"vehicle_type_id":"4","last_reported":1740755382,"current_range_meters":8000,"station_id":"ce4bh392rcd13ifvqdl0","pricing_plan_id":"cebpf4jnsgd1na2vs0mg"},{"bike_id":"ddf4c189-cdc7-4208-a0e3-f769f5b5d1c5","system_id":"levelo_inurba_marseille","lat":43.32006,"lon":5.3816,"is_reserved":false,"is_disabled":false,"rental_uris":{"android":"levelo://app?vid=ddf4c189-cdc7-4208-a0e3-f769f5b5d1c5","ios":"levelo://app?vid=ddf4c189-cdc7-4208-a0e3-f769f5b5d1c5"},"vehicle_type_id":"4","last_reported":1740755382,"current_range_meters":8000,"station_id":"ce4bhr12rcd13ifvqhpg","pricing_plan_id":"cebpf4jnsgd1na2vs0mg"},{"bike_id":"0e07936b-b5f4-4ce0-90ff-73c063994f1c","system_id":"levelo_inurba_marseille","lat":43.30515,"lon":5.37258,"is_reserved":false,"is_disabled":false,"rental_uris":{"android":"levelo://app?vid=0e07936b-b5f4-4ce0-90ff-73c063994f1c","ios":"levelo://app?vid=0e07936b-b5f4-4ce0-90ff-73c063994f1c"},"vehicle_type_id":"4","last_reported":1740755382,"current_range_meters":8000,"station_id":"","pricing_plan_id":"cebpf4jnsgd1na2vs0mg"},{"bike_id":"77875351-7df6-450f-b9eb-902a942490f3","system_id":"levelo_inurba_marseille","lat":43.28422,"lon":5.34986,"is_reserved":false,"is_disabled":false,"rental_uris":{"android":"levelo://app?vid=77875351-7df6-450f-b9eb-902a942490f3","ios":"levelo://app?vid=77875351-7df6-450f-b9eb-902a942490f3"},"vehicle_type_id":"4","last_reported":1740755382,"current_range_meters":8000,"station_id":"ce4bhbh2rcd13ifvqepg","pricing_plan_id":"cebpf4jnsgd1na2vs0mg"},{"bike_id":"b33c190a-fc49-4acb-8f25-877ed5243ae1","system_id":"levelo_inurba_marseille","lat":43.26204,"lon":5.37928,"is_reserved":false,"is_disabled":false,"rental_uris":{"android":"levelo://app?vid=b33c190a-fc49-4acb-8f25-877ed5243ae1","ios":"levelo://app?vid=b33c190a-fc49-4acb-8f25-877ed5243ae1"},"vehicle_type_id":"4","last_reported":1740755382,"current_range_meters":8000,"station_id":"ce4bhjp2rcd13ifvqg90","pricing_plan_id":"cebpf4jnsgd1na2vs0mg"},{"bike_id":"45725814-7546-46dc-848f-626094350458","system_id":"levelo_inurba_marseille","lat":43.253318,"lon":5.376092,"is_reserved":false,"is_disabled":false,"rental_uris":{"android":"levelo://app?vid=45725814-7546-46dc-848f-626094350458","ios":"levelo://app?vid=45725814-7546-46dc-848f-626094350458"},"vehicle_type_id":"4","last_reported":1740755382,"current_range_meters":9600,"station_id":"ce4bhih2rcd13ifvqfr0","pricing_plan_id":"cebpf4jnsgd1na2vs0mg"},{"bike_id":"b27b5b64-b7b6-4f00-bdfc-f60892f9a58d","system_id":"levelo_inurba_marseille","lat":43.24168,"lon":5.36395,"is_reserved":false,"is_disabled":false,"rental_uris":{"android":"levelo://app?vid=b27b5b64-b7b6-4f00-bdfc-f60892f9a58d","ios":"levelo://app?vid=b27b5b64-b7b6-4f00-bdfc-f60892f9a58d"},"vehicle_type_id":"4","last_reported":1740755382,"current_range_meters":5600,"station_id":"cpo36qri1sfpv3e86is0","pricing_plan_id":"cebpf4jnsgd1na2vs0mg"},{"bike_id":"1ab7b098-f66b-40af-b0cc-bd927e3e0ad1","system_id":"levelo_inurba_marseille","lat":43.23207,"lon":5.35542,"is_reserved":false,"is_disabled":false,"rental_uris":{"android":"levelo://app?vid=1ab7b098-f66b-40af-b0cc-bd927e3e0ad1","ios":"levelo://app?vid=1ab7b098-f66b-40af-b0cc-bd927e3e0ad1"},"vehicle_type_id":"4","last_reported":1740755382,"current_range_meters":8400,"station_id":"ce4bhu92rcd13ifvqi70","pricing_plan_id":"cebpf4jnsgd1na2vs0mg"},{"bike_id":"3b99d266-05ba-4a0f-8f45-aa0b1ce40697","system_id":"levelo_inurba_marseille","lat":43.3236,"lon":5.36757,"is_reserved":false,"is_disabled":false,"rental_uris":{"android":"levelo://app?vid=3b99d266-05ba-4a0f-8f45-aa0b1ce40697","ios":"levelo://app?vid=3b99d266-05ba-4a0f-8f45-aa0b1ce40697"},"vehicle_type_id":"4","last_reported":1740755382,"current_range_meters":8000,"station_id":"ce4bhsh2rcd13ifvqi2g","pricing_plan_id":"cebpf4jnsgd1na2vs0mg"},{"bike_id":"1403e108-0ff4-43a0-8fd1-02628b26ae30","system_id":"levelo_inurba_marseille","lat":43.27499,"lon":5.42451,"is_reserved":false,"is_disabled":false,"rental_uris":{"android":"levelo://app?vid=1403e108-0ff4-43a0-8fd1-02628b26ae30","ios":"levelo://app?vid=1403e108-0ff4-43a0-8fd1-02628b26ae30"},"vehicle_type_id":"4","last_reported":1740755382,"current_range_meters":8000,"station_id":"ce4bhn92rcd13ifvqgrg","pricing_plan_id":"cebpf4jnsgd1na2vs0mg"},{"bike_id":"1b703033-daae-4c72-bdf8-f0cd6274d098","system_id":"levelo_inurba_marseille","lat":43.29379,"lon":5.37862,"is_reserved":false,"is_disabled":false,"rental_uris":{"android":"levelo://app?vid=1b703033-daae-4c72-bdf8-f0cd6274d098","ios":"levelo://app?vid=1b703033-daae-4c72-bdf8-f0cd6274d098"},"vehicle_type_id":"4","last_reported":1740755382,"current_range_meters":8800,"station_id":"ce4bgjh2rcd13ifvqbf0","pricing_plan_id":"cebpf4jnsgd1na2vs0mg"},{"bike_id":"999052d4-bb10-46bc-8cc8-29887a8d613d","system_id":"levelo_inurba_marseille","lat":43.31481,"lon":5.37312,"is_reserved":false,"is_disabled":false,"rental_uris":{"android":"levelo://app?vid=999052d4-bb10-46bc-8cc8-29887a8d613d","ios":"levelo://app?vid=999052d4-bb10-46bc-8cc8-29887a8d613d"},"vehicle_type_id":"4","last_reported":1740755382,"current_range_meters":8400,"station_id":"ce4bgt12rcd13ifvqcd0","pricing_plan_id":"cebpf4jnsgd1na2vs0mg"},{"bike_id":"026e178e-412a-49e0-9772-e5f6d0abaab4","system_id":"levelo_inurba_marseille","lat":43.30881,"lon":5.37078,"is_reserved":false,"is_disabled":false,"rental_uris":{"android":"levelo://app?vid=026e178e-412a-49e0-9772-e5f6d0abaab4","ios":"levelo://app?vid=026e178e-412a-49e0-9772-e5f6d0abaab4"},"vehicle_type_id":"4","last_reported":1740755382,"current_range_meters":8800,"station_id":"","pricing_plan_id":"cebpf4jnsgd1na2vs0mg"},{"bike_id":"045457a5-0624-47ff-b0ea-add280185ef9","system_id":"levelo_inurba_marseille","lat":43.30818,"lon":5.38155,"is_reserved":false,"is_disabled":false,"rental_uris":{"android":"levelo://app?vid=045457a5-0624-47ff-b0ea-add280185ef9","ios":"levelo://app?vid=045457a5-0624-47ff-b0ea-add280185ef9"},"vehicle_type_id":"4","last_reported":1740755382,"current_range_meters":8800,"station_id":"ce4bgt12rcd13ifvqce0","pricing_plan_id":"cebpf4jnsgd1na2vs0mg"},{"bike_id":"d26ab757-073b-4d1b-8238-93a312c5045c","system_id":"levelo_inurba_marseille","lat":43.29849,"lon":5.36279,"is_reserved":false,"is_disabled":false,"rental_uris":{"android":"levelo://app?vid=d26ab757-073b-4d1b-8238-93a312c5045c","ios":"levelo://app?vid=d26ab757-073b-4d1b-8238-93a312c5045c"},"vehicle_type_id":"4","last_reported":1740755382,"current_range_meters":9200,"station_id":"ce4bgpp2rcd13ifvqc3g","pricing_plan_id":"cebpf4jnsgd1na2vs0mg"},{"bike_id":"319c1ea5-7d5e-4123-b780-c7ba202537c5","system_id":"levelo_inurba_marseille","lat":43.26216,"lon":5.37458,"is_reserved":false,"is_disabled":false,"rental_uris":{"android":"levelo://app?vid=319c1ea5-7d5e-4123-b780-c7ba202537c5","ios":"levelo://app?vid=319c1ea5-7d5e-4123-b780-c7ba202537c5"},"vehicle_type_id":"4","last_reported":1740755382,"current_range_meters":8800,"station_id":"ce4bhgp2rcd13ifvqfc0","pricing_plan_id":"cebpf4jnsgd1na2vs0mg"},{"bike_id":"4a12ce53-fe4b-474d-8f38-d8de4928fa65","system_id":"levelo_inurba_marseille","lat":43.30091,"lon":5.39068,"is_reserved":false,"is_disabled":false,"rental_uris":{"android":"levelo://app?vid=4a12ce53-fe4b-474d-8f38-d8de4928fa65","ios":"levelo://app?vid=4a12ce53-fe4b-474d-8f38-d8de4928fa65"},"vehicle_type_id":"4","last_reported":1740755382,"current_range_meters":8800,"station_id":"ce4bh192rcd13ifvqdb0","pricing_plan_id":"cebpf4jnsgd1na2vs0mg"},{"bike_id":"a97ef810-7225-4bf9-ae16-85c852e9dbad","system_id":"levelo_inurba_marseille","lat":43.305567,"lon":5.36541,"is_reserved":false,"is_disabled":false,"rental_uris":{"android":"levelo://app?vid=a97ef810-7225-4bf9-ae16-85c852e9dbad","ios":"levelo://app?vid=a97ef810-7225-4bf9-ae16-85c852e9dbad"},"vehicle_type_id":"4","last_reported":1740755382,"current_range_meters":8800,"station_id":"ce4bgs12rcd13ifvqcag","pricing_plan_id":"cebpf4jnsgd1na2vs0mg"},{"bike_id":"70110c23-da06-4a35-b7ee-8b2a392beb82","system_id":"levelo_inurba_marseille","lat":43.28106,"lon":5.37833,"is_reserved":false,"is_disabled":false,"rental_uris":{"android":"levelo://app?vid=70110c23-da06-4a35-b7ee-8b2a392beb82","ios":"levelo://app?vid=70110c23-da06-4a35-b7ee-8b2a392beb82"},"vehicle_type_id":"4","last_reported":1740755382,"current_range_meters":8800,"station_id":"ce4bha12rcd13ifvqee0","pricing_plan_id":"cebpf4jnsgd1na2vs0mg"},{"bike_id":"29690972-c746-4268-8fa4-5ddb9f3177ec","system_id":"levelo_inurba_marseille","lat":43.25731,"lon":5.41108,"is_reserved":false,"is_disabled":false,"rental_uris":{"android":"levelo://app?vid=29690972-c746-4268-8fa4-5ddb9f3177ec","ios":"levelo://app?vid=29690972-c746-4268-8fa4-5ddb9f3177ec"},"vehicle_type_id":"4","last_reported":1740755382,"current_range_meters":9200,"station_id":"ce4bhkp2rcd13ifvqgd0","pricing_plan_id":"cebpf4jnsgd1na2vs0mg"},{"bike_id":"c378f726-37cf-4c4e-9b89-d4c24e05d0ac","system_id":"levelo_inurba_marseille","lat":43.28415,"lon":5.34995,"is_reserved":false,"is_disabled":false,"rental_uris":{"android":"levelo://app?vid=c378f726-37cf-4c4e-9b89-d4c24e05d0ac","ios":"levelo://app?vid=c378f726-37cf-4c4e-9b89-d4c24e05d0ac"},"vehicle_type_id":"4","last_reported":1740755382,"current_range_meters":9200,"station_id":"ce4bhbh2rcd13ifvqepg","pricing_plan_id":"cebpf4jnsgd1na2vs0mg"},{"bike_id":"379f4009-2fed-4f96-9809-f0eeee54aaf5","system_id":"levelo_inurba_marseille","lat":43.29843,"lon":5.36297,"is_reserved":false,"is_disabled":false,"rental_uris":{"android":"levelo://app?vid=379f4009-2fed-4f96-9809-f0eeee54aaf5","ios":"levelo://app?vid=379f4009-2fed-4f96-9809-f0eeee54aaf5"},"vehicle_type_id":"4","last_reported":1740755382,"current_range_meters":9200,"station_id":"ce4bgpp2rcd13ifvqc3g","pricing_plan_id":"cebpf4jnsgd1na2vs0mg"},{"bike_id":"6afc6515-269f-4a04-985d-c0ac6cbdcffa","system_id":"levelo_inurba_marseille","lat":43.29849,"lon":5.36278,"is_reserved":false,"is_disabled":false,"rental_uris":{"android":"levelo://app?vid=6afc6515-269f-4a04-985d-c0ac6cbdcffa","ios":"levelo://app?vid=6afc6515-269f-4a04-985d-c0ac6cbdcffa"},"vehicle_type_id":"4","last_reported":1740755382,"current_range_meters":9600,"station_id":"ce4bgpp2rcd13ifvqc3g","pricing_plan_id":"cebpf4jnsgd1na2vs0mg"},{"bike_id":"829e8e25-1afb-4d71-a0cb-364bb0d6af55","system_id":"levelo_inurba_marseille","lat":43.28104,"lon":5.3784,"is_reserved":false,"is_disabled":false,"rental_uris":{"android":"levelo://app?vid=829e8e25-1afb-4d71-a0cb-364bb0d6af55","ios":"levelo://app?vid=829e8e25-1afb-4d71-a0cb-364bb0d6af55"},"vehicle_type_id":"4","last_reported":1740755382,"current_range_meters":9200,"station_id":"ce4bha12rcd13ifvqee0","pricing_plan_id":"cebpf4jnsgd1na2vs0mg"},{"bike_id":"51ea1582-279e-41ce-a27f-4933dea6925f","system_id":"levelo_inurba_marseille","lat":43.29713,"lon":5.37712,"is_reserved":false,"is_disabled":false,"rental_uris":{"android":"levelo://app?vid=51ea1582-279e-41ce-a27f-4933dea6925f","ios":"levelo://app?vid=51ea1582-279e-41ce-a27f-4933dea6925f"},"vehicle_type_id":"4","last_reported":1740755382,"current_range_meters":9200,"station_id":"ce4bgkh2rcd13ifvqbl0","pricing_plan_id":"cebpf4jnsgd1na2vs0mg"},{"bike_id":"fe292945-df50-4a70-8c45-5828eb511424","system_id":"levelo_inurba_marseille","lat":43.24183,"lon":5.39716,"is_reserved":false,"is_disabled":false,"rental_uris":{"android":"levelo://app?vid=fe292945-df50-4a70-8c45-5828eb511424","ios":"levelo://app?vid=fe292945-df50-4a70-8c45-5828eb511424"},"vehicle_type_id":"4","last_reported":1740755382,"current_range_meters":9200,"station_id":"ce4bhn12rcd13ifvqgpg","pricing_plan_id":"cebpf4jnsgd1na2vs0mg"},{"bike_id":"3de9aeda-1f9a-4bbc-8b90-e02a49e56ca9","system_id":"levelo_inurba_marseille","lat":43.23196,"lon":5.35551,"is_reserved":false,"is_disabled":false,"rental_uris":{"android":"levelo://app?vid=3de9aeda-1f9a-4bbc-8b90-e02a49e56ca9","ios":"levelo://app?vid=3de9aeda-1f9a-4bbc-8b90-e02a49e56ca9"},"vehicle_type_id":"4","last_reported":1740755382,"current_range_meters":9200,"station_id":"ce4bhu92rcd13ifvqi70","pricing_plan_id":"cebpf4jnsgd1na2vs0mg"},{"bike_id":"165b4f84-d3e5-4925-aadf-a2cc6d324e84","system_id":"levelo_inurba_marseille","lat":43.27911,"lon":5.39579,"is_reserved":false,"is_disabled":false,"rental_uris":{"android":"levelo://app?vid=165b4f84-d3e5-4925-aadf-a2cc6d324e84","ios":"levelo://app?vid=165b4f84-d3e5-4925-aadf-a2cc6d324e84"},"vehicle_type_id":"4","last_reported":1740755382,"current_range_meters":9200,"station_id":"ce4bhf92rcd13ifvqf40","pricing_plan_id":"cebpf4jnsgd1na2vs0mg"},{"bike_id":"826dc6bb-88a2-4f70-a1b4-381c1792bf5e","system_id":"levelo_inurba_marseille","lat":43.2791,"lon":5.38023,"is_reserved":false,"is_disabled":false,"rental_uris":{"android":"levelo://app?vid=826dc6bb-88a2-4f70-a1b4-381c1792bf5e","ios":"levelo://app?vid=826dc6bb-88a2-4f70-a1b4-381c1792bf5e"},"vehicle_type_id":"4","last_reported":1740755382,"current_range_meters":9600,"station_id":"ce4bhf92rcd13ifvqf50","pricing_plan_id":"cebpf4jnsgd1na2vs0mg"},{"bike_id":"d4918d6a-5525-4be8-b0c4-7af64b54343d","system_id":"levelo_inurba_marseille","lat":43.24178,"lon":5.3639,"is_reserved":false,"is_disabled":false,"rental_uris":{"android":"levelo://app?vid=d4918d6a-5525-4be8-b0c4-7af64b54343d","ios":"levelo://app?vid=d4918d6a-5525-4be8-b0c4-7af64b54343d"},"vehicle_type_id":"4","last_reported":1740755382,"current_range_meters":10000,"station_id":"cpo36qri1sfpv3e86is0","pricing_plan_id":"cebpf4jnsgd1na2vs0mg"},{"bike_id":"a92f59e1-45f6-404d-bd08-f108dcf176dc","system_id":"levelo_inurba_marseille","lat":43.27202,"lon":5.40988,"is_reserved":false,"is_disabled":false,"rental_uris":{"android":"levelo://app?vid=a92f59e1-45f6-404d-bd08-f108dcf176dc","ios":"levelo://app?vid=a92f59e1-45f6-404d-bd08-f108dcf176dc"},"vehicle_type_id":"4","last_reported":1740755382,"current_range_meters":9600,"station_id":"ce4bhl12rcd13ifvqgf0","pricing_plan_id":"cebpf4jnsgd1na2vs0mg"},{"bike_id":"0d8b3744-45a2-40c6-a7d5-e48187b98f45","system_id":"levelo_inurba_marseille","lat":43.23155,"lon":5.43702,"is_reserved":false,"is_disabled":false,"rental_uris":{"android":"levelo://app?vid=0d8b3744-45a2-40c6-a7d5-e48187b98f45","ios":"levelo://app?vid=0d8b3744-45a2-40c6-a7d5-e48187b98f45"},"vehicle_type_id":"4","last_reported":1740755382,"current_range_meters":9600,"station_id":"ce4bhmp2rcd13ifvqgog","pricing_plan_id":"cebpf4jnsgd1na2vs0mg"},{"bike_id":"ba97357c-10f2-47eb-9d67-2fd5defbaab8","system_id":"levelo_inurba_marseille","lat":43.25493,"lon":5.37649,"is_reserved":false,"is_disabled":false,"rental_uris":{"android":"levelo://app?vid=ba97357c-10f2-47eb-9d67-2fd5defbaab8","ios":"levelo://app?vid=ba97357c-10f2-47eb-9d67-2fd5defbaab8"},"vehicle_type_id":"4","last_reported":1740755382,"current_range_meters":9600,"station_id":"ce4bhh12rcd13ifvqff0","pricing_plan_id":"cebpf4jnsgd1na2vs0mg"},{"bike_id":"a896ecae-a02d-4eeb-82e2-8f541abf427f","system_id":"levelo_inurba_marseille","lat":43.27059,"lon":5.40263,"is_reserved":false,"is_disabled":false,"rental_uris":{"android":"levelo://app?vid=a896ecae-a02d-4eeb-82e2-8f541abf427f","ios":"levelo://app?vid=a896ecae-a02d-4eeb-82e2-8f541abf427f"},"vehicle_type_id":"4","last_reported":1740755382,"current_range_meters":9600,"station_id":"ce4bhk92rcd13ifvqgc0","pricing_plan_id":"cebpf4jnsgd1na2vs0mg"},{"bike_id":"08eead74-da0c-4ce9-9af8-c3212eb58cf9","system_id":"levelo_inurba_marseille","lat":43.23959,"lon":5.3663,"is_reserved":false,"is_disabled":false,"rental_uris":{"android":"levelo://app?vid=08eead74-da0c-4ce9-9af8-c3212eb58cf9","ios":"levelo://app?vid=08eead74-da0c-4ce9-9af8-c3212eb58cf9"},"vehicle_type_id":"4","last_reported":1740755382,"current_range_meters":6800,"station_id":"ce4bhi12rcd13ifvqfp0","pricing_plan_id":"cebpf4jnsgd1na2vs0mg"},{"bike_id":"cdffd77c-3944-4e45-b1b8-8e151591694e","system_id":"levelo_inurba_marseille","lat":43.28427,"lon":5.34987,"is_reserved":false,"is_disabled":false,"rental_uris":{"android":"levelo://app?vid=cdffd77c-3944-4e45-b1b8-8e151591694e","ios":"levelo://app?vid=cdffd77c-3944-4e45-b1b8-8e151591694e"},"vehicle_type_id":"4","last_reported":1740755382,"current_range_meters":9600,"station_id":"ce4bhbh2rcd13ifvqepg","pricing_plan_id":"cebpf4jnsgd1na2vs0mg"},{"bike_id":"2a329baa-c529-4f7f-84c9-0753ea19a2b8","system_id":"levelo_inurba_marseille","lat":43.23149,"lon":5.43708,"is_reserved":false,"is_disabled":false,"rental_uris":{"android":"levelo://app?vid=2a329baa-c529-4f7f-84c9-0753ea19a2b8","ios":"levelo://app?vid=2a329baa-c529-4f7f-84c9-0753ea19a2b8"},"vehicle_type_id":"4","last_reported":1740755382,"current_range_meters":9600,"station_id":"ce4bhmp2rcd13ifvqgog","pricing_plan_id":"cebpf4jnsgd1na2vs0mg"},{"bike_id":"2bea5a6a-8790-4fa8-89fb-f5ab4a6db348","system_id":"levelo_inurba_marseille","lat":43.27066,"lon":5.4228,"is_reserved":false,"is_disabled":false,"rental_uris":{"android":"levelo://app?vid=2bea5a6a-8790-4fa8-89fb-f5ab4a6db348","ios":"levelo://app?vid=2bea5a6a-8790-4fa8-89fb-f5ab4a6db348"},"vehicle_type_id":"4","last_reported":1740755382,"current_range_meters":12000,"station_id":"ce4bhk92rcd13ifvqgb0","pricing_plan_id":"cebpf4jnsgd1na2vs0mg"},{"bike_id":"c4aaec2d-c2fd-442e-ab39-1c1382bfa4a2","system_id":"levelo_inurba_marseille","lat":43.285987,"lon":5.370777,"is_reserved":false,"is_disabled":false,"rental_uris":{"android":"levelo://app?vid=c4aaec2d-c2fd-442e-ab39-1c1382bfa4a2","ios":"levelo://app?vid=c4aaec2d-c2fd-442e-ab39-1c1382bfa4a2"},"vehicle_type_id":"4","last_reported":1740755382,"current_range_meters":10000,"station_id":"ce4bht12rcd13ifvqi60","pricing_plan_id":"cebpf4jnsgd1na2vs0mg"},{"bike_id":"d3b50e28-8b7a-4ddf-8988-4e5fa59cd247","system_id":"levelo_inurba_marseille","lat":43.29199,"lon":5.35803,"is_reserved":false,"is_disabled":false,"rental_uris":{"android":"levelo://app?vid=d3b50e28-8b7a-4ddf-8988-4e5fa59cd247","ios":"levelo://app?vid=d3b50e28-8b7a-4ddf-8988-4e5fa59cd247"},"vehicle_type_id":"4","last_reported":1740755382,"current_range_meters":9600,"station_id":"ce4bhb12rcd13ifvqel0","pricing_plan_id":"cebpf4jnsgd1na2vs0mg"},{"bike_id":"93356d6f-68fd-4f85-b972-a491110e4e6a","system_id":"levelo_inurba_marseille","lat":43.31366,"lon":5.38496,"is_reserved":false,"is_disabled":false,"rental_uris":{"android":"levelo://app?vid=93356d6f-68fd-4f85-b972-a491110e4e6a","ios":"levelo://app?vid=93356d6f-68fd-4f85-b972-a491110e4e6a"},"vehicle_type_id":"4","last_reported":1740755382,"current_range_meters":10000,"station_id":"ce4bgt92rcd13ifvqcf0","pricing_plan_id":"cebpf4jnsgd1na2vs0mg"},{"bike_id":"82dd7fa1-f620-45d5-b201-c352b30f1318","system_id":"levelo_inurba_marseille","lat":43.29194,"lon":5.35801,"is_reserved":false,"is_disabled":false,"rental_uris":{"android":"levelo://app?vid=82dd7fa1-f620-45d5-b201-c352b30f1318","ios":"levelo://app?vid=82dd7fa1-f620-45d5-b201-c352b30f1318"},"vehicle_type_id":"4","last_reported":1740755382,"current_range_meters":9600,"station_id":"ce4bhb12rcd13ifvqel0","pricing_plan_id":"cebpf4jnsgd1na2vs0mg"},{"bike_id":"494f8245-e14e-4bc7-9487-f8815d9a889c","system_id":"levelo_inurba_marseille","lat":43.26557,"lon":5.37303,"is_reserved":false,"is_disabled":false,"rental_uris":{"android":"levelo://app?vid=494f8245-e14e-4bc7-9487-f8815d9a889c","ios":"levelo://app?vid=494f8245-e14e-4bc7-9487-f8815d9a889c"},"vehicle_type_id":"4","last_reported":1740755382,"current_range_meters":10000,"station_id":"ce4bhg12rcd13ifvqf70","pricing_plan_id":"cebpf4jnsgd1na2vs0mg"},{"bike_id":"3a55d03f-f7c4-4b35-a044-45791d7d5b38","system_id":"levelo_inurba_marseille","lat":43.2826,"lon":5.35072,"is_reserved":false,"is_disabled":false,"rental_uris":{"android":"levelo://app?vid=3a55d03f-f7c4-4b35-a044-45791d7d5b38","ios":"levelo://app?vid=3a55d03f-f7c4-4b35-a044-45791d7d5b38"},"vehicle_type_id":"4","last_reported":1740755382,"current_range_meters":9200,"station_id":"ce4bhbp2rcd13ifvqerg","pricing_plan_id":"cebpf4jnsgd1na2vs0mg"},{"bike_id":"10be055f-dd9f-4dc6-8d3f-7aba3762d29b","system_id":"levelo_inurba_marseille","lat":43.321,"lon":5.36788,"is_reserved":false,"is_disabled":false,"rental_uris":{"android":"levelo://app?vid=10be055f-dd9f-4dc6-8d3f-7aba3762d29b","ios":"levelo://app?vid=10be055f-dd9f-4dc6-8d3f-7aba3762d29b"},"vehicle_type_id":"4","last_reported":1740755382,"current_range_meters":10000,"station_id":"ce4bhrh2rcd13ifvqhug","pricing_plan_id":"cebpf4jnsgd1na2vs0mg"},{"bike_id":"9fe1686b-87f4-4090-857d-b2cad3d05448","system_id":"levelo_inurba_marseille","lat":43.2592,"lon":5.40895,"is_reserved":false,"is_disabled":false,"rental_uris":{"android":"levelo://app?vid=9fe1686b-87f4-4090-857d-b2cad3d05448","ios":"levelo://app?vid=9fe1686b-87f4-4090-857d-b2cad3d05448"},"vehicle_type_id":"4","last_reported":1740755382,"current_range_meters":10800,"station_id":"ce4bhm92rcd13ifvqglg","pricing_plan_id":"cebpf4jnsgd1na2vs0mg"},{"bike_id":"36aaff39-aaa8-465d-bd0a-3f671adb5484","system_id":"levelo_inurba_marseille","lat":43.29817,"lon":5.36261,"is_reserved":false,"is_disabled":false,"rental_uris":{"android":"levelo://app?vid=36aaff39-aaa8-465d-bd0a-3f671adb5484","ios":"levelo://app?vid=36aaff39-aaa8-465d-bd0a-3f671adb5484"},"vehicle_type_id":"4","last_reported":1740755382,"current_range_meters":10800,"station_id":"ce4bgpp2rcd13ifvqc3g","pricing_plan_id":"cebpf4jnsgd1na2vs0mg"},{"bike_id":"dbc383a9-0632-4abe-874c-3f720670c887","system_id":"levelo_inurba_marseille","lat":43.25116,"lon":5.4031,"is_reserved":false,"is_disabled":false,"rental_uris":{"android":"levelo://app?vid=dbc383a9-0632-4abe-874c-3f720670c887","ios":"levelo://app?vid=dbc383a9-0632-4abe-874c-3f720670c887"},"vehicle_type_id":"4","last_reported":1740755382,"current_range_meters":10800,"station_id":"ce4bhlh2rcd13ifvqgig","pricing_plan_id":"cebpf4jnsgd1na2vs0mg"},{"bike_id":"650fccdd-b7aa-47d2-b7f0-547a8c704021","system_id":"levelo_inurba_marseille","lat":43.28703,"lon":5.37395,"is_reserved":false,"is_disabled":false,"rental_uris":{"android":"levelo://app?vid=650fccdd-b7aa-47d2-b7f0-547a8c704021","ios":"levelo://app?vid=650fccdd-b7aa-47d2-b7f0-547a8c704021"},"vehicle_type_id":"4","last_reported":1740755382,"current_range_meters":11600,"station_id":"ce4bh3p2rcd13ifvqdq0","pricing_plan_id":"cebpf4jnsgd1na2vs0mg"},{"bike_id":"d61bcd8d-a84b-486c-a7aa-8ba03c83452a","system_id":"levelo_inurba_marseille","lat":43.31239,"lon":5.36866,"is_reserved":false,"is_disabled":false,"rental_uris":{"android":"levelo://app?vid=d61bcd8d-a84b-486c-a7aa-8ba03c83452a","ios":"levelo://app?vid=d61bcd8d-a84b-486c-a7aa-8ba03c83452a"},"vehicle_type_id":"4","last_reported":1740755382,"current_range_meters":10000,"station_id":"ce4bgl92rcd13ifvqbq0","pricing_plan_id":"cebpf4jnsgd1na2vs0mg"},{"bike_id":"b3672aa5-6f36-4322-9f5f-0f785e72ff09","system_id":"levelo_inurba_marseille","lat":43.31272,"lon":5.40177,"is_reserved":false,"is_disabled":false,"rental_uris":{"android":"levelo://app?vid=b3672aa5-6f36-4322-9f5f-0f785e72ff09","ios":"levelo://app?vid=b3672aa5-6f36-4322-9f5f-0f785e72ff09"},"vehicle_type_id":"4","last_reported":1740755382,"current_range_meters":11200,"station_id":"ce4bh092rcd13ifvqd30","pricing_plan_id":"cebpf4jnsgd1na2vs0mg"},{"bike_id":"1a94e9d3-b727-422e-a41a-b92fec3c7e69","system_id":"levelo_inurba_marseille","lat":43.29255,"lon":5.40907,"is_reserved":false,"is_disabled":false,"rental_uris":{"android":"levelo://app?vid=1a94e9d3-b727-422e-a41a-b92fec3c7e69","ios":"levelo://app?vid=1a94e9d3-b727-422e-a41a-b92fec3c7e69"},"vehicle_type_id":"4","last_reported":1740755382,"current_range_meters":16400,"station_id":"ce4bh192rcd13ifvqdc0","pricing_plan_id":"cebpf4jnsgd1na2vs0mg"},{"bike_id":"5b28cd77-a409-482f-8702-f764eef9151e","system_id":"levelo_inurba_marseille","lat":43.25882,"lon":5.40833,"is_reserved":false,"is_disabled":false,"rental_uris":{"android":"levelo://app?vid=5b28cd77-a409-482f-8702-f764eef9151e","ios":"levelo://app?vid=5b28cd77-a409-482f-8702-f764eef9151e"},"vehicle_type_id":"4","last_reported":1740755382,"current_range_meters":10800,"station_id":"","pricing_plan_id":"cebpf4jnsgd1na2vs0mg"},{"bike_id":"54c4ecf0-8750-416c-be34-eab664ed1ede","system_id":"levelo_inurba_marseille","lat":43.23977,"lon":5.36605,"is_reserved":false,"is_disabled":false,"rental_uris":{"android":"levelo://app?vid=54c4ecf0-8750-416c-be34-eab664ed1ede","ios":"levelo://app?vid=54c4ecf0-8750-416c-be34-eab664ed1ede"},"vehicle_type_id":"4","last_reported":1740755382,"current_range_meters":10800,"station_id":"ce4bhi12rcd13ifvqfp0","pricing_plan_id":"cebpf4jnsgd1na2vs0mg"},{"bike_id":"fe359adf-7241-4454-877a-88d2e91bf9c0","system_id":"levelo_inurba_marseille","lat":43.27067,"lon":5.40263,"is_reserved":false,"is_disabled":false,"rental_uris":{"android":"levelo://app?vid=fe359adf-7241-4454-877a-88d2e91bf9c0","ios":"levelo://app?vid=fe359adf-7241-4454-877a-88d2e91bf9c0"},"vehicle_type_id":"4","last_reported":1740755382,"current_range_meters":8000,"station_id":"ce4bhk92rcd13ifvqgc0","pricing_plan_id":"cebpf4jnsgd1na2vs0mg"},{"bike_id":"4572c283-07e8-4b84-8525-98106d26b682","system_id":"levelo_inurba_marseille","lat":43.27975,"lon":5.3874,"is_reserved":false,"is_disabled":false,"rental_uris":{"android":"levelo://app?vid=4572c283-07e8-4b84-8525-98106d26b682","ios":"levelo://app?vid=4572c283-07e8-4b84-8525-98106d26b682"},"vehicle_type_id":"4","last_reported":1740755382,"current_range_meters":11200,"station_id":"ce4bhg12rcd13ifvqf80","pricing_plan_id":"cebpf4jnsgd1na2vs0mg"},{"bike_id":"734d6e5e-269d-426d-a517-3c7bd90d9aa4","system_id":"levelo_inurba_marseille","lat":43.31361,"lon":5.38507,"is_reserved":false,"is_disabled":false,"rental_uris":{"android":"levelo://app?vid=734d6e5e-269d-426d-a517-3c7bd90d9aa4","ios":"levelo://app?vid=734d6e5e-269d-426d-a517-3c7bd90d9aa4"},"vehicle_type_id":"4","last_reported":1740755382,"current_range_meters":11200,"station_id":"ce4bgt92rcd13ifvqcf0","pricing_plan_id":"cebpf4jnsgd1na2vs0mg"},{"bike_id":"0781246f-83a0-4f45-8590-ca7823929ebb","system_id":"levelo_inurba_marseille","lat":43.24672,"lon":5.38159,"is_reserved":false,"is_disabled":false,"rental_uris":{"android":"levelo://app?vid=0781246f-83a0-4f45-8590-ca7823929ebb","ios":"levelo://app?vid=0781246f-83a0-4f45-8590-ca7823929ebb"},"vehicle_type_id":"4","last_reported":1740755382,"current_range_meters":14400,"station_id":"ce4bhih2rcd13ifvqfr0","pricing_plan_id":"cebpf4jnsgd1na2vs0mg"},{"bike_id":"2cd5dcfa-9d1e-4d27-a7a1-5863f7e21971","system_id":"levelo_inurba_marseille","lat":43.28678,"lon":5.3742,"is_reserved":false,"is_disabled":false,"rental_uris":{"android":"levelo://app?vid=2cd5dcfa-9d1e-4d27-a7a1-5863f7e21971","ios":"levelo://app?vid=2cd5dcfa-9d1e-4d27-a7a1-5863f7e21971"},"vehicle_type_id":"4","last_reported":1740755382,"current_range_meters":8000,"station_id":"ce4bh3p2rcd13ifvqdq0","pricing_plan_id":"cebpf4jnsgd1na2vs0mg"},{"bike_id":"45ae4917-fe3c-4f48-bbad-af26161ac58d","system_id":"levelo_inurba_marseille","lat":43.29039,"lon":5.37572,"is_reserved":false,"is_disabled":false,"rental_uris":{"android":"levelo://app?vid=45ae4917-fe3c-4f48-bbad-af26161ac58d","ios":"levelo://app?vid=45ae4917-fe3c-4f48-bbad-af26161ac58d"},"vehicle_type_id":"4","last_reported":1740755382,"current_range_meters":11200,"station_id":"ce4bh692rcd13ifvqe90","pricing_plan_id":"cebpf4jnsgd1na2vs0mg"},{"bike_id":"18f0bd67-87d6-42b2-bdb0-4e44f6e9d712","system_id":"levelo_inurba_marseille","lat":43.26556,"lon":5.37286,"is_reserved":false,"is_disabled":false,"rental_uris":{"android":"levelo://app?vid=18f0bd67-87d6-42b2-bdb0-4e44f6e9d712","ios":"levelo://app?vid=18f0bd67-87d6-42b2-bdb0-4e44f6e9d712"},"vehicle_type_id":"4","last_reported":1740755382,"current_range_meters":11200,"station_id":"ce4bhg12rcd13ifvqf70","pricing_plan_id":"cebpf4jnsgd1na2vs0mg"},{"bike_id":"07c95ed8-ef75-441b-82b8-4bc0502030ca","system_id":"levelo_inurba_marseille","lat":43.23195,"lon":5.3556,"is_reserved":false,"is_disabled":false,"rental_uris":{"android":"levelo://app?vid=07c95ed8-ef75-441b-82b8-4bc0502030ca","ios":"levelo://app?vid=07c95ed8-ef75-441b-82b8-4bc0502030ca"},"vehicle_type_id":"4","last_reported":1740755382,"current_range_meters":11200,"station_id":"ce4bhu92rcd13ifvqi70","pricing_plan_id":"cebpf4jnsgd1na2vs0mg"},{"bike_id":"2d5dcacd-8869-46e8-8aa0-d53489da5625","system_id":"levelo_inurba_marseille","lat":43.29073,"lon":5.37151,"is_reserved":false,"is_disabled":false,"rental_uris":{"android":"levelo://app?vid=2d5dcacd-8869-46e8-8aa0-d53489da5625","ios":"levelo://app?vid=2d5dcacd-8869-46e8-8aa0-d53489da5625"},"vehicle_type_id":"4","last_reported":1740755382,"current_range_meters":11200,"station_id":"ce4bh5p2rcd13ifvqe4g","pricing_plan_id":"cebpf4jnsgd1na2vs0mg"},{"bike_id":"524330c2-3e14-48e4-a3bd-af13b0bc0dda","system_id":"levelo_inurba_marseille","lat":43.25084,"lon":5.39523,"is_reserved":false,"is_disabled":false,"rental_uris":{"android":"levelo://app?vid=524330c2-3e14-48e4-a3bd-af13b0bc0dda","ios":"levelo://app?vid=524330c2-3e14-48e4-a3bd-af13b0bc0dda"},"vehicle_type_id":"4","last_reported":1740755382,"current_range_meters":11200,"station_id":"ce4bhm12rcd13ifvqgkg","pricing_plan_id":"cebpf4jnsgd1na2vs0mg"},{"bike_id":"c71af32a-7c94-44f3-90b9-21a26efc1ce5","system_id":"levelo_inurba_marseille","lat":43.28157,"lon":5.42645,"is_reserved":false,"is_disabled":false,"rental_uris":{"android":"levelo://app?vid=c71af32a-7c94-44f3-90b9-21a26efc1ce5","ios":"levelo://app?vid=c71af32a-7c94-44f3-90b9-21a26efc1ce5"},"vehicle_type_id":"4","last_reported":1740755382,"current_range_meters":11600,"station_id":"ce4bhnh2rcd13ifvqgug","pricing_plan_id":"cebpf4jnsgd1na2vs0mg"},{"bike_id":"b12302b4-d886-400e-aec8-597abc147b0b","system_id":"levelo_inurba_marseille","lat":43.31446,"lon":5.36627,"is_reserved":false,"is_disabled":false,"rental_uris":{"android":"levelo://app?vid=b12302b4-d886-400e-aec8-597abc147b0b","ios":"levelo://app?vid=b12302b4-d886-400e-aec8-597abc147b0b"},"vehicle_type_id":"4","last_reported":1740755382,"current_range_meters":11600,"station_id":"ce4bgr92rcd13ifvqc6g","pricing_plan_id":"cebpf4jnsgd1na2vs0mg"},{"bike_id":"604d576f-12b2-4503-b0ec-f4ef73265db9","system_id":"levelo_inurba_marseille","lat":43.29618,"lon":5.37728,"is_reserved":false,"is_disabled":false,"rental_uris":{"android":"levelo://app?vid=604d576f-12b2-4503-b0ec-f4ef73265db9","ios":"levelo://app?vid=604d576f-12b2-4503-b0ec-f4ef73265db9"},"vehicle_type_id":"4","last_reported":1740755382,"current_range_meters":11600,"station_id":"ce4bgi92rcd13ifvqb90","pricing_plan_id":"cebpf4jnsgd1na2vs0mg"},{"bike_id":"43d6aa6f-20c7-4a1b-bcb8-31b660876567","system_id":"levelo_inurba_marseille","lat":43.26556,"lon":5.37283,"is_reserved":false,"is_disabled":false,"rental_uris":{"android":"levelo://app?vid=43d6aa6f-20c7-4a1b-bcb8-31b660876567","ios":"levelo://app?vid=43d6aa6f-20c7-4a1b-bcb8-31b660876567"},"vehicle_type_id":"4","last_reported":1740755382,"current_range_meters":11600,"station_id":"ce4bhg12rcd13ifvqf70","pricing_plan_id":"cebpf4jnsgd1na2vs0mg"},{"bike_id":"dfc7d439-d001-4f7d-b155-790f1b3dc735","system_id":"levelo_inurba_marseille","lat":43.29011,"lon":5.35616,"is_reserved":false,"is_disabled":false,"rental_uris":{"android":"levelo://app?vid=dfc7d439-d001-4f7d-b155-790f1b3dc735","ios":"levelo://app?vid=dfc7d439-d001-4f7d-b155-790f1b3dc735"},"vehicle_type_id":"4","last_reported":1740755382,"current_range_meters":11600,"station_id":"ce4bhb92rcd13ifvqen0","pricing_plan_id":"cebpf4jnsgd1na2vs0mg"},{"bike_id":"3f5e4c77-943b-4a46-b257-614bf13afec4","system_id":"levelo_inurba_marseille","lat":43.2416,"lon":5.36438,"is_reserved":false,"is_disabled":false,"rental_uris":{"android":"levelo://app?vid=3f5e4c77-943b-4a46-b257-614bf13afec4","ios":"levelo://app?vid=3f5e4c77-943b-4a46-b257-614bf13afec4"},"vehicle_type_id":"4","last_reported":1740755382,"current_range_meters":11600,"station_id":"cpo36qri1sfpv3e86is0","pricing_plan_id":"cebpf4jnsgd1na2vs0mg"},{"bike_id":"50fb54de-f749-4737-8860-24319296bee5","system_id":"levelo_inurba_marseille","lat":43.25717,"lon":5.41112,"is_reserved":false,"is_disabled":false,"rental_uris":{"android":"levelo://app?vid=50fb54de-f749-4737-8860-24319296bee5","ios":"levelo://app?vid=50fb54de-f749-4737-8860-24319296bee5"},"vehicle_type_id":"4","last_reported":1740755382,"current_range_meters":11600,"station_id":"ce4bhkp2rcd13ifvqgd0","pricing_plan_id":"cebpf4jnsgd1na2vs0mg"},{"bike_id":"5f95bf74-4760-4e7b-8b97-ab6079abebe6","system_id":"levelo_inurba_marseille","lat":43.26582,"lon":5.37306,"is_reserved":false,"is_disabled":false,"rental_uris":{"android":"levelo://app?vid=5f95bf74-4760-4e7b-8b97-ab6079abebe6","ios":"levelo://app?vid=5f95bf74-4760-4e7b-8b97-ab6079abebe6"},"vehicle_type_id":"4","last_reported":1740755382,"current_range_meters":11600,"station_id":"ce4bhg12rcd13ifvqf70","pricing_plan_id":"cebpf4jnsgd1na2vs0mg"},{"bike_id":"119bb6a1-fa2f-487c-b32f-b0094f53dcfa","system_id":"levelo_inurba_marseille","lat":43.25014,"lon":5.38935,"is_reserved":false,"is_disabled":false,"rental_uris":{"android":"levelo://app?vid=119bb6a1-fa2f-487c-b32f-b0094f53dcfa","ios":"levelo://app?vid=119bb6a1-fa2f-487c-b32f-b0094f53dcfa"},"vehicle_type_id":"4","last_reported":1740755382,"current_range_meters":11600,"station_id":"ce4bhgp2rcd13ifvqfd0","pricing_plan_id":"cebpf4jnsgd1na2vs0mg"},{"bike_id":"fbb578c6-bc58-4f39-a675-f75212c7ad17","system_id":"levelo_inurba_marseille","lat":43.25569,"lon":5.382485,"is_reserved":false,"is_disabled":false,"rental_uris":{"android":"levelo://app?vid=fbb578c6-bc58-4f39-a675-f75212c7ad17","ios":"levelo://app?vid=fbb578c6-bc58-4f39-a675-f75212c7ad17"},"vehicle_type_id":"4","last_reported":1740755382,"current_range_meters":11600,"station_id":"ce4bhih2rcd13ifvqfs0","pricing_plan_id":"cebpf4jnsgd1na2vs0mg"},{"bike_id":"e539e494-fa17-4683-9bd7-83b731a11d93","system_id":"levelo_inurba_marseille","lat":43.24163,"lon":5.36398,"is_reserved":false,"is_disabled":false,"rental_uris":{"android":"levelo://app?vid=e539e494-fa17-4683-9bd7-83b731a11d93","ios":"levelo://app?vid=e539e494-fa17-4683-9bd7-83b731a11d93"},"vehicle_type_id":"4","last_reported":1740755382,"current_range_meters":11600,"station_id":"cpo36qri1sfpv3e86is0","pricing_plan_id":"cebpf4jnsgd1na2vs0mg"},{"bike_id":"636baefc-d569-45c5-a101-5ad4b9e124a9","system_id":"levelo_inurba_marseille","lat":43.30891,"lon":5.39649,"is_reserved":false,"is_disabled":false,"rental_uris":{"android":"levelo://app?vid=636baefc-d569-45c5-a101-5ad4b9e124a9","ios":"levelo://app?vid=636baefc-d569-45c5-a101-5ad4b9e124a9"},"vehicle_type_id":"4","last_reported":1740755382,"current_range_meters":11600,"station_id":"ce4bh012rcd13ifvqcv0","pricing_plan_id":"cebpf4jnsgd1na2vs0mg"},{"bike_id":"92151e43-236e-4006-978e-1626eb4f41f0","system_id":"levelo_inurba_marseille","lat":43.25592,"lon":5.3825,"is_reserved":false,"is_disabled":false,"rental_uris":{"android":"levelo://app?vid=92151e43-236e-4006-978e-1626eb4f41f0","ios":"levelo://app?vid=92151e43-236e-4006-978e-1626eb4f41f0"},"vehicle_type_id":"4","last_reported":1740755382,"current_range_meters":12000,"station_id":"ce4bhih2rcd13ifvqfs0","pricing_plan_id":"cebpf4jnsgd1na2vs0mg"},{"bike_id":"511934ef-c328-4333-ae4b-ec2fe93665ed","system_id":"levelo_inurba_marseille","lat":43.29807,"lon":5.38091,"is_reserved":false,"is_disabled":false,"rental_uris":{"android":"levelo://app?vid=511934ef-c328-4333-ae4b-ec2fe93665ed","ios":"levelo://app?vid=511934ef-c328-4333-ae4b-ec2fe93665ed"},"vehicle_type_id":"4","last_reported":1740755382,"current_range_meters":12000,"station_id":"ce4bgip2rcd13ifvqbb0","pricing_plan_id":"cebpf4jnsgd1na2vs0mg"},{"bike_id":"8e2e8b26-02ef-4947-8f68-494d56926013","system_id":"levelo_inurba_marseille","lat":43.29535,"lon":5.38557,"is_reserved":false,"is_disabled":false,"rental_uris":{"android":"levelo://app?vid=8e2e8b26-02ef-4947-8f68-494d56926013","ios":"levelo://app?vid=8e2e8b26-02ef-4947-8f68-494d56926013"},"vehicle_type_id":"4","last_reported":1740755382,"current_range_meters":12000,"station_id":"ce4bgih2rcd13ifvqba0","pricing_plan_id":"cebpf4jnsgd1na2vs0mg"},{"bike_id":"26ea3936-ca1a-4833-89ff-6ab4e1a1c8e3","system_id":"levelo_inurba_marseille","lat":43.23969,"lon":5.36631,"is_reserved":false,"is_disabled":false,"rental_uris":{"android":"levelo://app?vid=26ea3936-ca1a-4833-89ff-6ab4e1a1c8e3","ios":"levelo://app?vid=26ea3936-ca1a-4833-89ff-6ab4e1a1c8e3"},"vehicle_type_id":"4","last_reported":1740755382,"current_range_meters":12000,"station_id":"ce4bhi12rcd13ifvqfp0","pricing_plan_id":"cebpf4jnsgd1na2vs0mg"},{"bike_id":"1f295c72-f7d6-49ba-aef7-697f97257d31","system_id":"levelo_inurba_marseille","lat":43.3369,"lon":5.39248,"is_reserved":false,"is_disabled":false,"rental_uris":{"android":"levelo://app?vid=1f295c72-f7d6-49ba-aef7-697f97257d31","ios":"levelo://app?vid=1f295c72-f7d6-49ba-aef7-697f97257d31"},"vehicle_type_id":"4","last_reported":1740755382,"current_range_meters":11200,"station_id":"","pricing_plan_id":"cebpf4jnsgd1na2vs0mg"},{"bike_id":"96f719f8-ddbe-4f13-a1b6-5eb435bc9a17","system_id":"levelo_inurba_marseille","lat":43.27192,"lon":5.40985,"is_reserved":false,"is_disabled":false,"rental_uris":{"android":"levelo://app?vid=96f719f8-ddbe-4f13-a1b6-5eb435bc9a17","ios":"levelo://app?vid=96f719f8-ddbe-4f13-a1b6-5eb435bc9a17"},"vehicle_type_id":"4","last_reported":1740755382,"current_range_meters":12000,"station_id":"ce4bhl12rcd13ifvqgf0","pricing_plan_id":"cebpf4jnsgd1na2vs0mg"},{"bike_id":"b6704ff6-de6a-4339-85c4-43ba7f5da833","system_id":"levelo_inurba_marseille","lat":43.29011,"lon":5.356103,"is_reserved":false,"is_disabled":false,"rental_uris":{"android":"levelo://app?vid=b6704ff6-de6a-4339-85c4-43ba7f5da833","ios":"levelo://app?vid=b6704ff6-de6a-4339-85c4-43ba7f5da833"},"vehicle_type_id":"4","last_reported":1740755382,"current_range_meters":12400,"station_id":"ce4bhb92rcd13ifvqen0","pricing_plan_id":"cebpf4jnsgd1na2vs0mg"},{"bike_id":"25ce1959-4b44-4725-b909-cd4426628b37","system_id":"levelo_inurba_marseille","lat":43.29795,"lon":5.38079,"is_reserved":false,"is_disabled":false,"rental_uris":{"android":"levelo://app?vid=25ce1959-4b44-4725-b909-cd4426628b37","ios":"levelo://app?vid=25ce1959-4b44-4725-b909-cd4426628b37"},"vehicle_type_id":"4","last_reported":1740755382,"current_range_meters":12400,"station_id":"ce4bgip2rcd13ifvqbb0","pricing_plan_id":"cebpf4jnsgd1na2vs0mg"},{"bike_id":"5d48dbbe-fcad-4dae-bef8-0248de0d9ba9","system_id":"levelo_inurba_marseille","lat":43.2721,"lon":5.39176,"is_reserved":false,"is_disabled":false,"rental_uris":{"android":"levelo://app?vid=5d48dbbe-fcad-4dae-bef8-0248de0d9ba9","ios":"levelo://app?vid=5d48dbbe-fcad-4dae-bef8-0248de0d9ba9"},"vehicle_type_id":"4","last_reported":1740755382,"current_range_meters":12400,"station_id":"ce4bhhp2rcd13ifvqfm0","pricing_plan_id":"cebpf4jnsgd1na2vs0mg"},{"bike_id":"7053ed04-89cd-47b3-b66e-d28617ca8d79","system_id":"levelo_inurba_marseille","lat":43.31081,"lon":5.38374,"is_reserved":false,"is_disabled":false,"rental_uris":{"android":"levelo://app?vid=7053ed04-89cd-47b3-b66e-d28617ca8d79","ios":"levelo://app?vid=7053ed04-89cd-47b3-b66e-d28617ca8d79"},"vehicle_type_id":"4","last_reported":1740755382,"current_range_meters":12800,"station_id":"ce4bgv92rcd13ifvqcr0","pricing_plan_id":"cebpf4jnsgd1na2vs0mg"},{"bike_id":"746263b4-a680-4488-aae1-409c8429429b","system_id":"levelo_inurba_marseille","lat":43.30537,"lon":5.36686,"is_reserved":false,"is_disabled":false,"rental_uris":{"android":"levelo://app?vid=746263b4-a680-4488-aae1-409c8429429b","ios":"levelo://app?vid=746263b4-a680-4488-aae1-409c8429429b"},"vehicle_type_id":"4","last_reported":1740755382,"current_range_meters":12000,"station_id":"ce4bgrp2rcd13ifvqc9g","pricing_plan_id":"cebpf4jnsgd1na2vs0mg"},{"bike_id":"11f3c4dd-a927-4c6e-9870-b67988e390be","system_id":"levelo_inurba_marseille","lat":43.28265,"lon":5.35072,"is_reserved":false,"is_disabled":false,"rental_uris":{"android":"levelo://app?vid=11f3c4dd-a927-4c6e-9870-b67988e390be","ios":"levelo://app?vid=11f3c4dd-a927-4c6e-9870-b67988e390be"},"vehicle_type_id":"4","last_reported":1740755382,"current_range_meters":12800,"station_id":"ce4bhbp2rcd13ifvqerg","pricing_plan_id":"cebpf4jnsgd1na2vs0mg"},{"bike_id":"f7a20cba-2399-49fd-8468-072e901dffab","system_id":"levelo_inurba_marseille","lat":43.29254,"lon":5.40926,"is_reserved":false,"is_disabled":false,"rental_uris":{"android":"levelo://app?vid=f7a20cba-2399-49fd-8468-072e901dffab","ios":"levelo://app?vid=f7a20cba-2399-49fd-8468-072e901dffab"},"vehicle_type_id":"4","last_reported":1740755382,"current_range_meters":13600,"station_id":"ce4bh192rcd13ifvqdc0","pricing_plan_id":"cebpf4jnsgd1na2vs0mg"},{"bike_id":"f5fe4361-1d3d-4314-a7e8-95ca49fcf6f9","system_id":"levelo_inurba_marseille","lat":43.32211,"lon":5.38764,"is_reserved":false,"is_disabled":false,"rental_uris":{"android":"levelo://app?vid=f5fe4361-1d3d-4314-a7e8-95ca49fcf6f9","ios":"levelo://app?vid=f5fe4361-1d3d-4314-a7e8-95ca49fcf6f9"},"vehicle_type_id":"4","last_reported":1740755382,"current_range_meters":13600,"station_id":"","pricing_plan_id":"cebpf4jnsgd1na2vs0mg"},{"bike_id":"b7523272-72d9-4dca-87eb-42240f7f4f3d","system_id":"levelo_inurba_marseille","lat":43.26941,"lon":5.38926,"is_reserved":false,"is_disabled":false,"rental_uris":{"android":"levelo://app?vid=b7523272-72d9-4dca-87eb-42240f7f4f3d","ios":"levelo://app?vid=b7523272-72d9-4dca-87eb-42240f7f4f3d"},"vehicle_type_id":"4","last_reported":1740755382,"current_range_meters":14800,"station_id":"ce4bhhh2rcd13ifvqfl0","pricing_plan_id":"cebpf4jnsgd1na2vs0mg"},{"bike_id":"52af985b-0be7-4cce-a149-20cfb1168009","system_id":"levelo_inurba_marseille","lat":43.27998,"lon":5.41655,"is_reserved":false,"is_disabled":false,"rental_uris":{"android":"levelo://app?vid=52af985b-0be7-4cce-a149-20cfb1168009","ios":"levelo://app?vid=52af985b-0be7-4cce-a149-20cfb1168009"},"vehicle_type_id":"4","last_reported":1740755382,"current_range_meters":13600,"station_id":"ce4bho12rcd13ifvqh1g","pricing_plan_id":"cebpf4jnsgd1na2vs0mg"},{"bike_id":"1fbb0f11-3935-4d09-93c3-ad3cee0d3c7b","system_id":"levelo_inurba_marseille","lat":43.30928,"lon":5.40151,"is_reserved":false,"is_disabled":false,"rental_uris":{"android":"levelo://app?vid=1fbb0f11-3935-4d09-93c3-ad3cee0d3c7b","ios":"levelo://app?vid=1fbb0f11-3935-4d09-93c3-ad3cee0d3c7b"},"vehicle_type_id":"4","last_reported":1740755382,"current_range_meters":14400,"station_id":"ce4bgvp2rcd13ifvqct0","pricing_plan_id":"cebpf4jnsgd1na2vs0mg"},{"bike_id":"593edb3c-7add-4a3d-9dbe-95cef549de0d","system_id":"levelo_inurba_marseille","lat":43.23059,"lon":5.35501,"is_reserved":false,"is_disabled":false,"rental_uris":{"android":"levelo://app?vid=593edb3c-7add-4a3d-9dbe-95cef549de0d","ios":"levelo://app?vid=593edb3c-7add-4a3d-9dbe-95cef549de0d"},"vehicle_type_id":"4","last_reported":1740755382,"current_range_meters":13600,"station_id":"cpo3342slgdg3j2ifvpg","pricing_plan_id":"cebpf4jnsgd1na2vs0mg"},{"bike_id":"50a0b66d-2ea2-43ca-b8a9-de97888546d6","system_id":"levelo_inurba_marseille","lat":43.30105,"lon":5.39859,"is_reserved":false,"is_disabled":false,"rental_uris":{"android":"levelo://app?vid=50a0b66d-2ea2-43ca-b8a9-de97888546d6","ios":"levelo://app?vid=50a0b66d-2ea2-43ca-b8a9-de97888546d6"},"vehicle_type_id":"4","last_reported":1740755382,"current_range_meters":13600,"station_id":"ce4bh0h2rcd13ifvqd40","pricing_plan_id":"cebpf4jnsgd1na2vs0mg"},{"bike_id":"f4ad7c71-e496-484a-b37f-1245e0f53958","system_id":"levelo_inurba_marseille","lat":43.33024,"lon":5.39041,"is_reserved":false,"is_disabled":false,"rental_uris":{"android":"levelo://app?vid=f4ad7c71-e496-484a-b37f-1245e0f53958","ios":"levelo://app?vid=f4ad7c71-e496-484a-b37f-1245e0f53958"},"vehicle_type_id":"4","last_reported":1740755382,"current_range_meters":14000,"station_id":"ce4bhr92rcd13ifvqhrg","pricing_plan_id":"cebpf4jnsgd1na2vs0mg"},{"bike_id":"364b209e-752e-45ea-b26c-06b2552c1833","system_id":"levelo_inurba_marseille","lat":43.23183,"lon":5.35549,"is_reserved":false,"is_disabled":false,"rental_uris":{"android":"levelo://app?vid=364b209e-752e-45ea-b26c-06b2552c1833","ios":"levelo://app?vid=364b209e-752e-45ea-b26c-06b2552c1833"},"vehicle_type_id":"4","last_reported":1740755382,"current_range_meters":14000,"station_id":"ce4bhu92rcd13ifvqi70","pricing_plan_id":"cebpf4jnsgd1na2vs0mg"},{"bike_id":"685a0357-c8db-4a02-9a25-a9947b7c7c10","system_id":"levelo_inurba_marseille","lat":43.3016,"lon":5.38085,"is_reserved":false,"is_disabled":false,"rental_uris":{"android":"levelo://app?vid=685a0357-c8db-4a02-9a25-a9947b7c7c10","ios":"levelo://app?vid=685a0357-c8db-4a02-9a25-a9947b7c7c10"},"vehicle_type_id":"4","last_reported":1740755382,"current_range_meters":14000,"station_id":"ce4bgjp2rcd13ifvqbh0","pricing_plan_id":"cebpf4jnsgd1na2vs0mg"},{"bike_id":"933480e5-7509-4de0-8539-dd5b5379be4f","system_id":"levelo_inurba_marseille","lat":43.29623,"lon":5.37165,"is_reserved":false,"is_disabled":false,"rental_uris":{"android":"levelo://app?vid=933480e5-7509-4de0-8539-dd5b5379be4f","ios":"levelo://app?vid=933480e5-7509-4de0-8539-dd5b5379be4f"},"vehicle_type_id":"4","last_reported":1740755382,"current_range_meters":14400,"station_id":"ce4bgnh2rcd13ifvqc0g","pricing_plan_id":"cebpf4jnsgd1na2vs0mg"},{"bike_id":"435de083-a59d-4d02-bb25-ac546a68f18f","system_id":"levelo_inurba_marseille","lat":43.23969,"lon":5.36621,"is_reserved":false,"is_disabled":false,"rental_uris":{"android":"levelo://app?vid=435de083-a59d-4d02-bb25-ac546a68f18f","ios":"levelo://app?vid=435de083-a59d-4d02-bb25-ac546a68f18f"},"vehicle_type_id":"4","last_reported":1740755382,"current_range_meters":14400,"station_id":"ce4bhi12rcd13ifvqfp0","pricing_plan_id":"cebpf4jnsgd1na2vs0mg"},{"bike_id":"f105385c-4d5c-4a7d-89de-9c5606cae81d","system_id":"levelo_inurba_marseille","lat":43.23128,"lon":5.43716,"is_reserved":false,"is_disabled":false,"rental_uris":{"android":"levelo://app?vid=f105385c-4d5c-4a7d-89de-9c5606cae81d","ios":"levelo://app?vid=f105385c-4d5c-4a7d-89de-9c5606cae81d"},"vehicle_type_id":"4","last_reported":1740755382,"current_range_meters":14000,"station_id":"ce4bhmp2rcd13ifvqgog","pricing_plan_id":"cebpf4jnsgd1na2vs0mg"},{"bike_id":"c3879c4a-1f8e-4ca7-8a3b-195d6726be8b","system_id":"levelo_inurba_marseille","lat":43.30179,"lon":5.38093,"is_reserved":false,"is_disabled":false,"rental_uris":{"android":"levelo://app?vid=c3879c4a-1f8e-4ca7-8a3b-195d6726be8b","ios":"levelo://app?vid=c3879c4a-1f8e-4ca7-8a3b-195d6726be8b"},"vehicle_type_id":"4","last_reported":1740755382,"current_range_meters":14400,"station_id":"ce4bgjp2rcd13ifvqbh0","pricing_plan_id":"cebpf4jnsgd1na2vs0mg"},{"bike_id":"24d91a00-a073-4256-b9c7-4e7e98b2e7c3","system_id":"levelo_inurba_marseille","lat":43.22928,"lon":5.35376,"is_reserved":false,"is_disabled":false,"rental_uris":{"android":"levelo://app?vid=24d91a00-a073-4256-b9c7-4e7e98b2e7c3","ios":"levelo://app?vid=24d91a00-a073-4256-b9c7-4e7e98b2e7c3"},"vehicle_type_id":"4","last_reported":1740755382,"current_range_meters":14400,"station_id":"cpo3532slgdg3j2ikp40","pricing_plan_id":"cebpf4jnsgd1na2vs0mg"},{"bike_id":"49e9cdc7-76a5-4b66-ae2d-61c73beb73a8","system_id":"levelo_inurba_marseille","lat":43.24185,"lon":5.36402,"is_reserved":false,"is_disabled":false,"rental_uris":{"android":"levelo://app?vid=49e9cdc7-76a5-4b66-ae2d-61c73beb73a8","ios":"levelo://app?vid=49e9cdc7-76a5-4b66-ae2d-61c73beb73a8"},"vehicle_type_id":"4","last_reported":1740755382,"current_range_meters":14400,"station_id":"cpo36qri1sfpv3e86is0","pricing_plan_id":"cebpf4jnsgd1na2vs0mg"},{"bike_id":"c24f7718-bfca-4476-a379-cde8a4253ff8","system_id":"levelo_inurba_marseille","lat":43.30648,"lon":5.40077,"is_reserved":false,"is_disabled":false,"rental_uris":{"android":"levelo://app?vid=c24f7718-bfca-4476-a379-cde8a4253ff8","ios":"levelo://app?vid=c24f7718-bfca-4476-a379-cde8a4253ff8"},"vehicle_type_id":"4","last_reported":1740755382,"current_range_meters":14800,"station_id":"ce4bh112rcd13ifvqda0","pricing_plan_id":"cebpf4jnsgd1na2vs0mg"},{"bike_id":"71d2f349-bf62-4ac4-8e51-0d608510d160","system_id":"levelo_inurba_marseille","lat":43.27211,"lon":5.39185,"is_reserved":false,"is_disabled":false,"rental_uris":{"android":"levelo://app?vid=71d2f349-bf62-4ac4-8e51-0d608510d160","ios":"levelo://app?vid=71d2f349-bf62-4ac4-8e51-0d608510d160"},"vehicle_type_id":"4","last_reported":1740755382,"current_range_meters":14800,"station_id":"ce4bhhp2rcd13ifvqfm0","pricing_plan_id":"cebpf4jnsgd1na2vs0mg"},{"bike_id":"2d88358d-51e4-402c-9114-80adef6f2ff3","system_id":"levelo_inurba_marseille","lat":43.29039,"lon":5.37582,"is_reserved":false,"is_disabled":false,"rental_uris":{"android":"levelo://app?vid=2d88358d-51e4-402c-9114-80adef6f2ff3","ios":"levelo://app?vid=2d88358d-51e4-402c-9114-80adef6f2ff3"},"vehicle_type_id":"4","last_reported":1740755382,"current_range_meters":15200,"station_id":"ce4bh692rcd13ifvqe90","pricing_plan_id":"cebpf4jnsgd1na2vs0mg"},{"bike_id":"0d92acf4-1899-4145-a596-096ace415b1c","system_id":"levelo_inurba_marseille","lat":43.28946,"lon":5.36419,"is_reserved":false,"is_disabled":false,"rental_uris":{"android":"levelo://app?vid=0d92acf4-1899-4145-a596-096ace415b1c","ios":"levelo://app?vid=0d92acf4-1899-4145-a596-096ace415b1c"},"vehicle_type_id":"4","last_reported":1740755382,"current_range_meters":15200,"station_id":"ce4bhc92rcd13ifvqetg","pricing_plan_id":"cebpf4jnsgd1na2vs0mg"},{"bike_id":"4e92c2c0-0aed-4a92-9959-ad7c9187bea9","system_id":"levelo_inurba_marseille","lat":43.29256,"lon":5.40907,"is_reserved":false,"is_disabled":false,"rental_uris":{"android":"levelo://app?vid=4e92c2c0-0aed-4a92-9959-ad7c9187bea9","ios":"levelo://app?vid=4e92c2c0-0aed-4a92-9959-ad7c9187bea9"},"vehicle_type_id":"4","last_reported":1740755382,"current_range_meters":15200,"station_id":"ce4bh192rcd13ifvqdc0","pricing_plan_id":"cebpf4jnsgd1na2vs0mg"},{"bike_id":"38142d64-ee61-4491-8970-adbed5748be1","system_id":"levelo_inurba_marseille","lat":43.29035,"lon":5.37564,"is_reserved":false,"is_disabled":false,"rental_uris":{"android":"levelo://app?vid=38142d64-ee61-4491-8970-adbed5748be1","ios":"levelo://app?vid=38142d64-ee61-4491-8970-adbed5748be1"},"vehicle_type_id":"4","last_reported":1740755382,"current_range_meters":15200,"station_id":"ce4bh692rcd13ifvqe90","pricing_plan_id":"cebpf4jnsgd1na2vs0mg"},{"bike_id":"33b2b3da-1ba3-4ec8-bf36-4d542c365e95","system_id":"levelo_inurba_marseille","lat":43.24184,"lon":5.39737,"is_reserved":false,"is_disabled":false,"rental_uris":{"android":"levelo://app?vid=33b2b3da-1ba3-4ec8-bf36-4d542c365e95","ios":"levelo://app?vid=33b2b3da-1ba3-4ec8-bf36-4d542c365e95"},"vehicle_type_id":"4","last_reported":1740755382,"current_range_meters":15200,"station_id":"ce4bhn12rcd13ifvqgpg","pricing_plan_id":"cebpf4jnsgd1na2vs0mg"},{"bike_id":"9d0546b9-abb6-4ae3-9ed7-8d418444c7ba","system_id":"levelo_inurba_marseille","lat":43.23196,"lon":5.35553,"is_reserved":false,"is_disabled":false,"rental_uris":{"android":"levelo://app?vid=9d0546b9-abb6-4ae3-9ed7-8d418444c7ba","ios":"levelo://app?vid=9d0546b9-abb6-4ae3-9ed7-8d418444c7ba"},"vehicle_type_id":"4","last_reported":1740755382,"current_range_meters":15200,"station_id":"ce4bhu92rcd13ifvqi70","pricing_plan_id":"cebpf4jnsgd1na2vs0mg"},{"bike_id":"09a79771-6bb3-4ab6-af0e-0a7eecfdfbca","system_id":"levelo_inurba_marseille","lat":43.28272,"lon":5.35056,"is_reserved":false,"is_disabled":false,"rental_uris":{"android":"levelo://app?vid=09a79771-6bb3-4ab6-af0e-0a7eecfdfbca","ios":"levelo://app?vid=09a79771-6bb3-4ab6-af0e-0a7eecfdfbca"},"vehicle_type_id":"4","last_reported":1740755382,"current_range_meters":15200,"station_id":"ce4bhbp2rcd13ifvqerg","pricing_plan_id":"cebpf4jnsgd1na2vs0mg"},{"bike_id":"597c78d8-1097-48db-b3be-fafc8754eab9","system_id":"levelo_inurba_marseille","lat":43.24155,"lon":5.36418,"is_reserved":false,"is_disabled":false,"rental_uris":{"android":"levelo://app?vid=597c78d8-1097-48db-b3be-fafc8754eab9","ios":"levelo://app?vid=597c78d8-1097-48db-b3be-fafc8754eab9"},"vehicle_type_id":"4","last_reported":1740755382,"current_range_meters":16000,"station_id":"cpo36qri1sfpv3e86is0","pricing_plan_id":"cebpf4jnsgd1na2vs0mg"},{"bike_id":"d9ccb614-2c39-4386-a74b-b0b909c9bc51","system_id":"levelo_inurba_marseille","lat":43.26688,"lon":5.38279,"is_reserved":false,"is_disabled":false,"rental_uris":{"android":"levelo://app?vid=d9ccb614-2c39-4386-a74b-b0b909c9bc51","ios":"levelo://app?vid=d9ccb614-2c39-4386-a74b-b0b909c9bc51"},"vehicle_type_id":"4","last_reported":1740755382,"current_range_meters":16000,"station_id":"ce4bhg92rcd13ifvqf90","pricing_plan_id":"cebpf4jnsgd1na2vs0mg"},{"bike_id":"8b383fad-f10f-4d6c-aa72-edd1d8053e2b","system_id":"levelo_inurba_marseille","lat":43.29996,"lon":5.37371,"is_reserved":false,"is_disabled":false,"rental_uris":{"android":"levelo://app?vid=8b383fad-f10f-4d6c-aa72-edd1d8053e2b","ios":"levelo://app?vid=8b383fad-f10f-4d6c-aa72-edd1d8053e2b"},"vehicle_type_id":"4","last_reported":1740755382,"current_range_meters":16000,"station_id":"","pricing_plan_id":"cebpf4jnsgd1na2vs0mg"},{"bike_id":"df5e2f43-22c4-456f-9bb7-ad548083c724","system_id":"levelo_inurba_marseille","lat":43.28734,"lon":5.36094,"is_reserved":false,"is_disabled":false,"rental_uris":{"android":"levelo://app?vid=df5e2f43-22c4-456f-9bb7-ad548083c724","ios":"levelo://app?vid=df5e2f43-22c4-456f-9bb7-ad548083c724"},"vehicle_type_id":"4","last_reported":1740755382,"current_range_meters":16000,"station_id":"cki0cbj6b192h4jlfktg","pricing_plan_id":"cebpf4jnsgd1na2vs0mg"},{"bike_id":"0d26f420-a0f7-4185-872d-a53816403a21","system_id":"levelo_inurba_marseille","lat":43.28256,"lon":5.35079,"is_reserved":false,"is_disabled":false,"rental_uris":{"android":"levelo://app?vid=0d26f420-a0f7-4185-872d-a53816403a21","ios":"levelo://app?vid=0d26f420-a0f7-4185-872d-a53816403a21"},"vehicle_type_id":"4","last_reported":1740755382,"current_range_meters":16000,"station_id":"ce4bhbp2rcd13ifvqerg","pricing_plan_id":"cebpf4jnsgd1na2vs0mg"},{"bike_id":"c84f47e5-27b1-47a9-a2d2-ba104cc1f39a","system_id":"levelo_inurba_marseille","lat":43.32363,"lon":5.36766,"is_reserved":false,"is_disabled":false,"rental_uris":{"android":"levelo://app?vid=c84f47e5-27b1-47a9-a2d2-ba104cc1f39a","ios":"levelo://app?vid=c84f47e5-27b1-47a9-a2d2-ba104cc1f39a"},"vehicle_type_id":"4","last_reported":1740755382,"current_range_meters":16000,"station_id":"ce4bhsh2rcd13ifvqi2g","pricing_plan_id":"cebpf4jnsgd1na2vs0mg"},{"bike_id":"192adea5-a213-4231-85f9-987063f5c28a","system_id":"levelo_inurba_marseille","lat":43.23196,"lon":5.35551,"is_reserved":false,"is_disabled":false,"rental_uris":{"android":"levelo://app?vid=192adea5-a213-4231-85f9-987063f5c28a","ios":"levelo://app?vid=192adea5-a213-4231-85f9-987063f5c28a"},"vehicle_type_id":"4","last_reported":1740755382,"current_range_meters":16000,"station_id":"ce4bhu92rcd13ifvqi70","pricing_plan_id":"cebpf4jnsgd1na2vs0mg"},{"bike_id":"79bb3a88-1ef3-49bb-a686-3c712a80715d","system_id":"levelo_inurba_marseille","lat":43.29255,"lon":5.40919,"is_reserved":false,"is_disabled":false,"rental_uris":{"android":"levelo://app?vid=79bb3a88-1ef3-49bb-a686-3c712a80715d","ios":"levelo://app?vid=79bb3a88-1ef3-49bb-a686-3c712a80715d"},"vehicle_type_id":"4","last_reported":1740755382,"current_range_meters":16000,"station_id":"ce4bh192rcd13ifvqdc0","pricing_plan_id":"cebpf4jnsgd1na2vs0mg"},{"bike_id":"695e9a27-d903-4bbc-b050-bcc463be80aa","system_id":"levelo_inurba_marseille","lat":43.24168,"lon":5.36406,"is_reserved":false,"is_disabled":false,"rental_uris":{"android":"levelo://app?vid=695e9a27-d903-4bbc-b050-bcc463be80aa","ios":"levelo://app?vid=695e9a27-d903-4bbc-b050-bcc463be80aa"},"vehicle_type_id":"4","last_reported":1740755382,"current_range_meters":16400,"station_id":"cpo36qri1sfpv3e86is0","pricing_plan_id":"cebpf4jnsgd1na2vs0mg"},{"bike_id":"eb8cb07e-72ab-41d8-94bf-80478cf843d2","system_id":"levelo_inurba_marseille","lat":43.26486,"lon":5.39553,"is_reserved":false,"is_disabled":false,"rental_uris":{"android":"levelo://app?vid=eb8cb07e-72ab-41d8-94bf-80478cf843d2","ios":"levelo://app?vid=eb8cb07e-72ab-41d8-94bf-80478cf843d2"},"vehicle_type_id":"4","last_reported":1740755382,"current_range_meters":16000,"station_id":"ce4bhi12rcd13ifvqfq0","pricing_plan_id":"cebpf4jnsgd1na2vs0mg"},{"bike_id":"bd7ec62f-0dc9-4405-b781-e2e9798963d2","system_id":"levelo_inurba_marseille","lat":43.23201,"lon":5.40011,"is_reserved":false,"is_disabled":false,"rental_uris":{"android":"levelo://app?vid=bd7ec62f-0dc9-4405-b781-e2e9798963d2","ios":"levelo://app?vid=bd7ec62f-0dc9-4405-b781-e2e9798963d2"},"vehicle_type_id":"4","last_reported":1740755382,"current_range_meters":16000,"station_id":"ce4bhn12rcd13ifvqgqg","pricing_plan_id":"cebpf4jnsgd1na2vs0mg"},{"bike_id":"27f8d61f-de01-4772-8b8c-ceceaf4de61e","system_id":"levelo_inurba_marseille","lat":43.2911,"lon":5.37174,"is_reserved":false,"is_disabled":true,"rental_uris":{"android":"levelo://app?vid=27f8d61f-de01-4772-8b8c-ceceaf4de61e","ios":"levelo://app?vid=27f8d61f-de01-4772-8b8c-ceceaf4de61e"},"vehicle_type_id":"4","last_reported":1740755382,"current_range_meters":16400,"station_id":"ce4bh5p2rcd13ifvqe4g","pricing_plan_id":"cebpf4jnsgd1na2vs0mg"},{"bike_id":"d468dd7d-e86c-46bf-9293-ffc9505569c9","system_id":"levelo_inurba_marseille","lat":43.28346,"lon":5.38103,"is_reserved":false,"is_disabled":false,"rental_uris":{"android":"levelo://app?vid=d468dd7d-e86c-46bf-9293-ffc9505569c9","ios":"levelo://app?vid=d468dd7d-e86c-46bf-9293-ffc9505569c9"},"vehicle_type_id":"4","last_reported":1740755382,"current_range_meters":15200,"station_id":"ce4bh412rcd13ifvqdr0","pricing_plan_id":"cebpf4jnsgd1na2vs0mg"},{"bike_id":"9d10d9fa-01d1-4f34-9fd2-6276042dffed","system_id":"levelo_inurba_marseille","lat":43.30525,"lon":5.367,"is_reserved":false,"is_disabled":false,"rental_uris":{"android":"levelo://app?vid=9d10d9fa-01d1-4f34-9fd2-6276042dffed","ios":"levelo://app?vid=9d10d9fa-01d1-4f34-9fd2-6276042dffed"},"vehicle_type_id":"4","last_reported":1740755382,"current_range_meters":16000,"station_id":"ce4bgrp2rcd13ifvqc9g","pricing_plan_id":"cebpf4jnsgd1na2vs0mg"},{"bike_id":"48117f54-556b-407e-8e6d-86f346883d6c","system_id":"levelo_inurba_marseille","lat":43.27917,"lon":5.39579,"is_reserved":false,"is_disabled":false,"rental_uris":{"android":"levelo://app?vid=48117f54-556b-407e-8e6d-86f346883d6c","ios":"levelo://app?vid=48117f54-556b-407e-8e6d-86f346883d6c"},"vehicle_type_id":"4","last_reported":1740755382,"current_range_meters":16400,"station_id":"ce4bhf92rcd13ifvqf40","pricing_plan_id":"cebpf4jnsgd1na2vs0mg"},{"bike_id":"c4f86853-835a-4f28-a545-9e39f871cf04","system_id":"levelo_inurba_marseille","lat":43.3127,"lon":5.40168,"is_reserved":false,"is_disabled":false,"rental_uris":{"android":"levelo://app?vid=c4f86853-835a-4f28-a545-9e39f871cf04","ios":"levelo://app?vid=c4f86853-835a-4f28-a545-9e39f871cf04"},"vehicle_type_id":"4","last_reported":1740755382,"current_range_meters":16400,"station_id":"ce4bh092rcd13ifvqd30","pricing_plan_id":"cebpf4jnsgd1na2vs0mg"},{"bike_id":"8c86cb21-5e53-44c8-a766-70640a93721c","system_id":"levelo_inurba_marseille","lat":43.29192,"lon":5.37569,"is_reserved":false,"is_disabled":false,"rental_uris":{"android":"levelo://app?vid=8c86cb21-5e53-44c8-a766-70640a93721c","ios":"levelo://app?vid=8c86cb21-5e53-44c8-a766-70640a93721c"},"vehicle_type_id":"4","last_reported":1740755382,"current_range_meters":16400,"station_id":"","pricing_plan_id":"cebpf4jnsgd1na2vs0mg"},{"bike_id":"64fc1650-f3a1-4993-be35-bbc0c55c0232","system_id":"levelo_inurba_marseille","lat":43.27807,"lon":5.36259,"is_reserved":false,"is_disabled":false,"rental_uris":{"android":"levelo://app?vid=64fc1650-f3a1-4993-be35-bbc0c55c0232","ios":"levelo://app?vid=64fc1650-f3a1-4993-be35-bbc0c55c0232"},"vehicle_type_id":"4","last_reported":1740755382,"current_range_meters":16400,"station_id":"","pricing_plan_id":"cebpf4jnsgd1na2vs0mg"},{"bike_id":"91de09a9-c021-4256-9bb3-2279ff7564b3","system_id":"levelo_inurba_marseille","lat":43.23179,"lon":5.39993,"is_reserved":false,"is_disabled":false,"rental_uris":{"android":"levelo://app?vid=91de09a9-c021-4256-9bb3-2279ff7564b3","ios":"levelo://app?vid=91de09a9-c021-4256-9bb3-2279ff7564b3"},"vehicle_type_id":"4","last_reported":1740755382,"current_range_meters":16400,"station_id":"ce4bhn12rcd13ifvqgqg","pricing_plan_id":"cebpf4jnsgd1na2vs0mg"},{"bike_id":"2cb233c4-f741-4b76-9282-393c4197fc79","system_id":"levelo_inurba_marseille","lat":43.29851,"lon":5.36288,"is_reserved":false,"is_disabled":false,"rental_uris":{"android":"levelo://app?vid=2cb233c4-f741-4b76-9282-393c4197fc79","ios":"levelo://app?vid=2cb233c4-f741-4b76-9282-393c4197fc79"},"vehicle_type_id":"4","last_reported":1740755382,"current_range_meters":16400,"station_id":"ce4bgpp2rcd13ifvqc3g","pricing_plan_id":"cebpf4jnsgd1na2vs0mg"},{"bike_id":"a43d23d2-0d6e-4cf7-8691-8ab079a8ff69","system_id":"levelo_inurba_marseille","lat":43.29902,"lon":5.436708,"is_reserved":false,"is_disabled":false,"rental_uris":{"android":"levelo://app?vid=a43d23d2-0d6e-4cf7-8691-8ab079a8ff69","ios":"levelo://app?vid=a43d23d2-0d6e-4cf7-8691-8ab079a8ff69"},"vehicle_type_id":"4","last_reported":1740755382,"current_range_meters":16800,"station_id":"ce4bhpp2rcd13ifvqhfg","pricing_plan_id":"cebpf4jnsgd1na2vs0mg"},{"bike_id":"4015c440-7267-44b4-8be2-f4b87cb51aa9","system_id":"levelo_inurba_marseille","lat":43.255812,"lon":5.382295,"is_reserved":false,"is_disabled":false,"rental_uris":{"android":"levelo://app?vid=4015c440-7267-44b4-8be2-f4b87cb51aa9","ios":"levelo://app?vid=4015c440-7267-44b4-8be2-f4b87cb51aa9"},"vehicle_type_id":"4","last_reported":1740755382,"current_range_meters":16400,"station_id":"ce4bhih2rcd13ifvqfs0","pricing_plan_id":"cebpf4jnsgd1na2vs0mg"},{"bike_id":"b00ae3d4-8c6b-481b-b9c7-be810c349b9a","system_id":"levelo_inurba_marseille","lat":43.30149,"lon":5.38072,"is_reserved":false,"is_disabled":false,"rental_uris":{"android":"levelo://app?vid=b00ae3d4-8c6b-481b-b9c7-be810c349b9a","ios":"levelo://app?vid=b00ae3d4-8c6b-481b-b9c7-be810c349b9a"},"vehicle_type_id":"4","last_reported":1740755382,"current_range_meters":16800,"station_id":"ce4bgjp2rcd13ifvqbh0","pricing_plan_id":"cebpf4jnsgd1na2vs0mg"},{"bike_id":"766f9252-76ba-4151-9194-6d162e66f1d3","system_id":"levelo_inurba_marseille","lat":43.248164,"lon":5.374618,"is_reserved":false,"is_disabled":false,"rental_uris":{"android":"levelo://app?vid=766f9252-76ba-4151-9194-6d162e66f1d3","ios":"levelo://app?vid=766f9252-76ba-4151-9194-6d162e66f1d3"},"vehicle_type_id":"4","last_reported":1740755382,"current_range_meters":16800,"station_id":"ce4bhgh2rcd13ifvqfb0","pricing_plan_id":"cebpf4jnsgd1na2vs0mg"},{"bike_id":"629b17f1-cf46-49fd-b425-e015cf257d2f","system_id":"levelo_inurba_marseille","lat":43.30802,"lon":5.38154,"is_reserved":false,"is_disabled":false,"rental_uris":{"android":"levelo://app?vid=629b17f1-cf46-49fd-b425-e015cf257d2f","ios":"levelo://app?vid=629b17f1-cf46-49fd-b425-e015cf257d2f"},"vehicle_type_id":"4","last_reported":1740755382,"current_range_meters":16400,"station_id":"ce4bgt12rcd13ifvqce0","pricing_plan_id":"cebpf4jnsgd1na2vs0mg"},{"bike_id":"70c8fcb6-d493-475a-a781-afd15bdd07b1","system_id":"levelo_inurba_marseille","lat":43.283429,"lon":5.381088,"is_reserved":false,"is_disabled":false,"rental_uris":{"android":"levelo://app?vid=70c8fcb6-d493-475a-a781-afd15bdd07b1","ios":"levelo://app?vid=70c8fcb6-d493-475a-a781-afd15bdd07b1"},"vehicle_type_id":"4","last_reported":1740755382,"current_range_meters":16400,"station_id":"ce4bh412rcd13ifvqdr0","pricing_plan_id":"cebpf4jnsgd1na2vs0mg"},{"bike_id":"16d6a25c-f214-4967-a24a-2fa204fc54a9","system_id":"levelo_inurba_marseille","lat":43.29777,"lon":5.38072,"is_reserved":false,"is_disabled":false,"rental_uris":{"android":"levelo://app?vid=16d6a25c-f214-4967-a24a-2fa204fc54a9","ios":"levelo://app?vid=16d6a25c-f214-4967-a24a-2fa204fc54a9"},"vehicle_type_id":"4","last_reported":1740755382,"current_range_meters":16400,"station_id":"ce4bgip2rcd13ifvqbb0","pricing_plan_id":"cebpf4jnsgd1na2vs0mg"},{"bike_id":"0693b9d6-4a9d-4e38-bfa2-80f934bcc2e3","system_id":"levelo_inurba_marseille","lat":43.24181,"lon":5.36397,"is_reserved":false,"is_disabled":false,"rental_uris":{"android":"levelo://app?vid=0693b9d6-4a9d-4e38-bfa2-80f934bcc2e3","ios":"levelo://app?vid=0693b9d6-4a9d-4e38-bfa2-80f934bcc2e3"},"vehicle_type_id":"4","last_reported":1740755382,"current_range_meters":16800,"station_id":"cpo36qri1sfpv3e86is0","pricing_plan_id":"cebpf4jnsgd1na2vs0mg"},{"bike_id":"a566e966-9712-4484-947d-355e0fd614d3","system_id":"levelo_inurba_marseille","lat":43.29259,"lon":5.40924,"is_reserved":false,"is_disabled":false,"rental_uris":{"android":"levelo://app?vid=a566e966-9712-4484-947d-355e0fd614d3","ios":"levelo://app?vid=a566e966-9712-4484-947d-355e0fd614d3"},"vehicle_type_id":"4","last_reported":1740755382,"current_range_meters":16800,"station_id":"ce4bh192rcd13ifvqdc0","pricing_plan_id":"cebpf4jnsgd1na2vs0mg"},{"bike_id":"085d28c3-d678-460a-a2b0-03561e14272e","system_id":"levelo_inurba_marseille","lat":43.32102,"lon":5.36782,"is_reserved":false,"is_disabled":false,"rental_uris":{"android":"levelo://app?vid=085d28c3-d678-460a-a2b0-03561e14272e","ios":"levelo://app?vid=085d28c3-d678-460a-a2b0-03561e14272e"},"vehicle_type_id":"4","last_reported":1740755382,"current_range_meters":17200,"station_id":"ce4bhrh2rcd13ifvqhug","pricing_plan_id":"cebpf4jnsgd1na2vs0mg"},{"bike_id":"1c05c9eb-a923-464b-b8e2-a210bd9c428d","system_id":"levelo_inurba_marseille","lat":43.28415,"lon":5.34998,"is_reserved":false,"is_disabled":false,"rental_uris":{"android":"levelo://app?vid=1c05c9eb-a923-464b-b8e2-a210bd9c428d","ios":"levelo://app?vid=1c05c9eb-a923-464b-b8e2-a210bd9c428d"},"vehicle_type_id":"4","last_reported":1740755382,"current_range_meters":16800,"station_id":"ce4bhbh2rcd13ifvqepg","pricing_plan_id":"cebpf4jnsgd1na2vs0mg"},{"bike_id":"199f6953-90bf-452d-a70b-9790e3c9500e","system_id":"levelo_inurba_marseille","lat":43.28419,"lon":5.34997,"is_reserved":false,"is_disabled":false,"rental_uris":{"android":"levelo://app?vid=199f6953-90bf-452d-a70b-9790e3c9500e","ios":"levelo://app?vid=199f6953-90bf-452d-a70b-9790e3c9500e"},"vehicle_type_id":"4","last_reported":1740755382,"current_range_meters":16800,"station_id":"ce4bhbh2rcd13ifvqepg","pricing_plan_id":"cebpf4jnsgd1na2vs0mg"},{"bike_id":"6c00e2bd-c1a0-4878-ab7d-bb856a589cae","system_id":"levelo_inurba_marseille","lat":43.25578,"lon":5.38244,"is_reserved":false,"is_disabled":false,"rental_uris":{"android":"levelo://app?vid=6c00e2bd-c1a0-4878-ab7d-bb856a589cae","ios":"levelo://app?vid=6c00e2bd-c1a0-4878-ab7d-bb856a589cae"},"vehicle_type_id":"4","last_reported":1740755382,"current_range_meters":16800,"station_id":"ce4bhih2rcd13ifvqfs0","pricing_plan_id":"cebpf4jnsgd1na2vs0mg"},{"bike_id":"5afe3ca4-4293-472f-af4b-7206f75b5a44","system_id":"levelo_inurba_marseille","lat":43.29835,"lon":5.36276,"is_reserved":false,"is_disabled":false,"rental_uris":{"android":"levelo://app?vid=5afe3ca4-4293-472f-af4b-7206f75b5a44","ios":"levelo://app?vid=5afe3ca4-4293-472f-af4b-7206f75b5a44"},"vehicle_type_id":"4","last_reported":1740755382,"current_range_meters":16800,"station_id":"ce4bgpp2rcd13ifvqc3g","pricing_plan_id":"cebpf4jnsgd1na2vs0mg"},{"bike_id":"0edcb5f6-5d31-42a2-bfd6-392b10b8c6da","system_id":"levelo_inurba_marseille","lat":43.32052,"lon":5.41515,"is_reserved":false,"is_disabled":false,"rental_uris":{"android":"levelo://app?vid=0edcb5f6-5d31-42a2-bfd6-392b10b8c6da","ios":"levelo://app?vid=0edcb5f6-5d31-42a2-bfd6-392b10b8c6da"},"vehicle_type_id":"4","last_reported":1740755382,"current_range_meters":17200,"station_id":"ce4bhq92rcd13ifvqhkg","pricing_plan_id":"cebpf4jnsgd1na2vs0mg"},{"bike_id":"a7fc70e4-f76e-4a71-af7e-624ce3fef4bb","system_id":"levelo_inurba_marseille","lat":43.22931,"lon":5.35376,"is_reserved":false,"is_disabled":false,"rental_uris":{"android":"levelo://app?vid=a7fc70e4-f76e-4a71-af7e-624ce3fef4bb","ios":"levelo://app?vid=a7fc70e4-f76e-4a71-af7e-624ce3fef4bb"},"vehicle_type_id":"4","last_reported":1740755382,"current_range_meters":16800,"station_id":"cpo3532slgdg3j2ikp40","pricing_plan_id":"cebpf4jnsgd1na2vs0mg"},{"bike_id":"8d91c655-19ff-47c9-a3e3-8857cd75c678","system_id":"levelo_inurba_marseille","lat":43.24831,"lon":5.37466,"is_reserved":false,"is_disabled":false,"rental_uris":{"android":"levelo://app?vid=8d91c655-19ff-47c9-a3e3-8857cd75c678","ios":"levelo://app?vid=8d91c655-19ff-47c9-a3e3-8857cd75c678"},"vehicle_type_id":"4","last_reported":1740755382,"current_range_meters":16800,"station_id":"ce4bhgh2rcd13ifvqfb0","pricing_plan_id":"cebpf4jnsgd1na2vs0mg"},{"bike_id":"1873c6df-c3c1-4ddc-a81d-ef48bda03fdb","system_id":"levelo_inurba_marseille","lat":43.28941,"lon":5.36395,"is_reserved":false,"is_disabled":false,"rental_uris":{"android":"levelo://app?vid=1873c6df-c3c1-4ddc-a81d-ef48bda03fdb","ios":"levelo://app?vid=1873c6df-c3c1-4ddc-a81d-ef48bda03fdb"},"vehicle_type_id":"4","last_reported":1740755382,"current_range_meters":17200,"station_id":"ce4bhc92rcd13ifvqetg","pricing_plan_id":"cebpf4jnsgd1na2vs0mg"},{"bike_id":"04d5518c-e111-4077-bbd8-386d546d52a3","system_id":"levelo_inurba_marseille","lat":43.32002,"lon":5.38154,"is_reserved":false,"is_disabled":false,"rental_uris":{"android":"levelo://app?vid=04d5518c-e111-4077-bbd8-386d546d52a3","ios":"levelo://app?vid=04d5518c-e111-4077-bbd8-386d546d52a3"},"vehicle_type_id":"4","last_reported":1740755382,"current_range_meters":16400,"station_id":"ce4bhr12rcd13ifvqhpg","pricing_plan_id":"cebpf4jnsgd1na2vs0mg"},{"bike_id":"30329c39-1ae2-462f-8d3c-b1c4da53c50a","system_id":"levelo_inurba_marseille","lat":43.27438,"lon":5.39415,"is_reserved":false,"is_disabled":false,"rental_uris":{"android":"levelo://app?vid=30329c39-1ae2-462f-8d3c-b1c4da53c50a","ios":"levelo://app?vid=30329c39-1ae2-462f-8d3c-b1c4da53c50a"},"vehicle_type_id":"4","last_reported":1740755382,"current_range_meters":17200,"station_id":"ce4bhdp2rcd13ifvqf20","pricing_plan_id":"cebpf4jnsgd1na2vs0mg"},{"bike_id":"bb3a6215-d4ec-4491-ac4e-66c201d51d15","system_id":"levelo_inurba_marseille","lat":43.30154,"lon":5.38078,"is_reserved":false,"is_disabled":true,"rental_uris":{"android":"levelo://app?vid=bb3a6215-d4ec-4491-ac4e-66c201d51d15","ios":"levelo://app?vid=bb3a6215-d4ec-4491-ac4e-66c201d51d15"},"vehicle_type_id":"4","last_reported":1740755382,"current_range_meters":16800,"station_id":"ce4bgjp2rcd13ifvqbh0","pricing_plan_id":"cebpf4jnsgd1na2vs0mg"},{"bike_id":"9dbad41f-5b6e-4733-990b-e95cba213dca","system_id":"levelo_inurba_marseille","lat":43.31764,"lon":5.39018,"is_reserved":false,"is_disabled":false,"rental_uris":{"android":"levelo://app?vid=9dbad41f-5b6e-4733-990b-e95cba213dca","ios":"levelo://app?vid=9dbad41f-5b6e-4733-990b-e95cba213dca"},"vehicle_type_id":"4","last_reported":1740755382,"current_range_meters":17200,"station_id":"ce4bhqp2rcd13ifvqhng","pricing_plan_id":"cebpf4jnsgd1na2vs0mg"},{"bike_id":"9a01249f-a7e6-4d4c-af7a-0fae8942f0f3","system_id":"levelo_inurba_marseille","lat":43.23063,"lon":5.35494,"is_reserved":false,"is_disabled":false,"rental_uris":{"android":"levelo://app?vid=9a01249f-a7e6-4d4c-af7a-0fae8942f0f3","ios":"levelo://app?vid=9a01249f-a7e6-4d4c-af7a-0fae8942f0f3"},"vehicle_type_id":"4","last_reported":1740755382,"current_range_meters":17200,"station_id":"cpo3342slgdg3j2ifvpg","pricing_plan_id":"cebpf4jnsgd1na2vs0mg"},{"bike_id":"f51dfc5c-023a-4e4b-bed5-25644325150b","system_id":"levelo_inurba_marseille","lat":43.31711,"lon":5.37743,"is_reserved":false,"is_disabled":false,"rental_uris":{"android":"levelo://app?vid=f51dfc5c-023a-4e4b-bed5-25644325150b","ios":"levelo://app?vid=f51dfc5c-023a-4e4b-bed5-25644325150b"},"vehicle_type_id":"4","last_reported":1740755382,"current_range_meters":17200,"station_id":"ce4bgth2rcd13ifvqch0","pricing_plan_id":"cebpf4jnsgd1na2vs0mg"},{"bike_id":"cdc4308c-e14b-4942-9839-cd3b339606bf","system_id":"levelo_inurba_marseille","lat":43.30318,"lon":5.36905,"is_reserved":false,"is_disabled":false,"rental_uris":{"android":"levelo://app?vid=cdc4308c-e14b-4942-9839-cd3b339606bf","ios":"levelo://app?vid=cdc4308c-e14b-4942-9839-cd3b339606bf"},"vehicle_type_id":"4","last_reported":1740755382,"current_range_meters":17600,"station_id":"ce4bgqh2rcd13ifvqc5g","pricing_plan_id":"cebpf4jnsgd1na2vs0mg"},{"bike_id":"457d0afc-6648-4752-8819-4d9ad1c01b1f","system_id":"levelo_inurba_marseille","lat":43.26785,"lon":5.39418,"is_reserved":false,"is_disabled":false,"rental_uris":{"android":"levelo://app?vid=457d0afc-6648-4752-8819-4d9ad1c01b1f","ios":"levelo://app?vid=457d0afc-6648-4752-8819-4d9ad1c01b1f"},"vehicle_type_id":"4","last_reported":1740755382,"current_range_meters":17600,"station_id":"ce4bhh12rcd13ifvqfg0","pricing_plan_id":"cebpf4jnsgd1na2vs0mg"},{"bike_id":"7cdeecd6-b116-49a9-8781-4878972b07be","system_id":"levelo_inurba_marseille","lat":43.30604,"lon":5.39374,"is_reserved":false,"is_disabled":false,"rental_uris":{"android":"levelo://app?vid=7cdeecd6-b116-49a9-8781-4878972b07be","ios":"levelo://app?vid=7cdeecd6-b116-49a9-8781-4878972b07be"},"vehicle_type_id":"4","last_reported":1740755382,"current_range_meters":18800,"station_id":"ce4bh0p2rcd13ifvqd80","pricing_plan_id":"cebpf4jnsgd1na2vs0mg"},{"bike_id":"161d70e9-e213-4bf5-bde1-9c3d7296d89c","system_id":"levelo_inurba_marseille","lat":43.27838,"lon":5.39205,"is_reserved":false,"is_disabled":true,"rental_uris":{"android":"levelo://app?vid=161d70e9-e213-4bf5-bde1-9c3d7296d89c","ios":"levelo://app?vid=161d70e9-e213-4bf5-bde1-9c3d7296d89c"},"vehicle_type_id":"4","last_reported":1740755382,"current_range_meters":16000,"station_id":"ce4bhjp2rcd13ifvqga0","pricing_plan_id":"cebpf4jnsgd1na2vs0mg"},{"bike_id":"c293f989-46e0-460c-82dd-279ead65081a","system_id":"levelo_inurba_marseille","lat":43.24808,"lon":5.37459,"is_reserved":false,"is_disabled":false,"rental_uris":{"android":"levelo://app?vid=c293f989-46e0-460c-82dd-279ead65081a","ios":"levelo://app?vid=c293f989-46e0-460c-82dd-279ead65081a"},"vehicle_type_id":"4","last_reported":1740755382,"current_range_meters":17200,"station_id":"ce4bhgh2rcd13ifvqfb0","pricing_plan_id":"cebpf4jnsgd1na2vs0mg"},{"bike_id":"7e7b865b-2767-432d-b3fe-75868ee464b3","system_id":"levelo_inurba_marseille","lat":43.28707,"lon":5.373779,"is_reserved":false,"is_disabled":false,"rental_uris":{"android":"levelo://app?vid=7e7b865b-2767-432d-b3fe-75868ee464b3","ios":"levelo://app?vid=7e7b865b-2767-432d-b3fe-75868ee464b3"},"vehicle_type_id":"4","last_reported":1740755382,"current_range_meters":17600,"station_id":"ce4bh3p2rcd13ifvqdq0","pricing_plan_id":"cebpf4jnsgd1na2vs0mg"},{"bike_id":"e4d8aea3-ca93-43b3-b49c-2c9bc9cbc59f","system_id":"levelo_inurba_marseille","lat":43.27799,"lon":5.40724,"is_reserved":false,"is_disabled":false,"rental_uris":{"android":"levelo://app?vid=e4d8aea3-ca93-43b3-b49c-2c9bc9cbc59f","ios":"levelo://app?vid=e4d8aea3-ca93-43b3-b49c-2c9bc9cbc59f"},"vehicle_type_id":"4","last_reported":1740755382,"current_range_meters":18800,"station_id":"ce4bhnh2rcd13ifvqgtg","pricing_plan_id":"cebpf4jnsgd1na2vs0mg"},{"bike_id":"32ceb2c3-2f3b-4092-8d32-8ede67e0cd39","system_id":"levelo_inurba_marseille","lat":43.298956,"lon":5.436595,"is_reserved":false,"is_disabled":false,"rental_uris":{"android":"levelo://app?vid=32ceb2c3-2f3b-4092-8d32-8ede67e0cd39","ios":"levelo://app?vid=32ceb2c3-2f3b-4092-8d32-8ede67e0cd39"},"vehicle_type_id":"4","last_reported":1740755382,"current_range_meters":18000,"station_id":"ce4bhpp2rcd13ifvqhfg","pricing_plan_id":"cebpf4jnsgd1na2vs0mg"},{"bike_id":"3f203f23-4004-4cf3-8fd7-3c9839a0ab70","system_id":"levelo_inurba_marseille","lat":43.27192,"lon":5.4099,"is_reserved":false,"is_disabled":false,"rental_uris":{"android":"levelo://app?vid=3f203f23-4004-4cf3-8fd7-3c9839a0ab70","ios":"levelo://app?vid=3f203f23-4004-4cf3-8fd7-3c9839a0ab70"},"vehicle_type_id":"4","last_reported":1740755382,"current_range_meters":18000,"station_id":"ce4bhl12rcd13ifvqgf0","pricing_plan_id":"cebpf4jnsgd1na2vs0mg"},{"bike_id":"8fb2dccb-3147-4d26-8faa-30f3b0c19848","system_id":"levelo_inurba_marseille","lat":43.30941,"lon":5.4014,"is_reserved":false,"is_disabled":false,"rental_uris":{"android":"levelo://app?vid=8fb2dccb-3147-4d26-8faa-30f3b0c19848","ios":"levelo://app?vid=8fb2dccb-3147-4d26-8faa-30f3b0c19848"},"vehicle_type_id":"4","last_reported":1740755382,"current_range_meters":18000,"station_id":"ce4bgvp2rcd13ifvqct0","pricing_plan_id":"cebpf4jnsgd1na2vs0mg"},{"bike_id":"40934b71-845e-4f3a-bef6-a23530397ee7","system_id":"levelo_inurba_marseille","lat":43.28273,"lon":5.35074,"is_reserved":false,"is_disabled":false,"rental_uris":{"android":"levelo://app?vid=40934b71-845e-4f3a-bef6-a23530397ee7","ios":"levelo://app?vid=40934b71-845e-4f3a-bef6-a23530397ee7"},"vehicle_type_id":"4","last_reported":1740755382,"current_range_meters":18000,"station_id":"ce4bhbp2rcd13ifvqerg","pricing_plan_id":"cebpf4jnsgd1na2vs0mg"},{"bike_id":"388d361d-0903-4278-86d6-2a715f0eca22","system_id":"levelo_inurba_marseille","lat":43.30494,"lon":5.36646,"is_reserved":false,"is_disabled":false,"rental_uris":{"android":"levelo://app?vid=388d361d-0903-4278-86d6-2a715f0eca22","ios":"levelo://app?vid=388d361d-0903-4278-86d6-2a715f0eca22"},"vehicle_type_id":"4","last_reported":1740755382,"current_range_meters":18000,"station_id":"","pricing_plan_id":"cebpf4jnsgd1na2vs0mg"},{"bike_id":"4b75b758-6e2c-4516-ab85-32d61cdf5c3d","system_id":"levelo_inurba_marseille","lat":43.23965,"lon":5.36627,"is_reserved":false,"is_disabled":false,"rental_uris":{"android":"levelo://app?vid=4b75b758-6e2c-4516-ab85-32d61cdf5c3d","ios":"levelo://app?vid=4b75b758-6e2c-4516-ab85-32d61cdf5c3d"},"vehicle_type_id":"4","last_reported":1740755382,"current_range_meters":18800,"station_id":"ce4bhi12rcd13ifvqfp0","pricing_plan_id":"cebpf4jnsgd1na2vs0mg"},{"bike_id":"f4b4f460-644c-4058-b990-eacb5419b4eb","system_id":"levelo_inurba_marseille","lat":43.27216,"lon":5.392,"is_reserved":false,"is_disabled":false,"rental_uris":{"android":"levelo://app?vid=f4b4f460-644c-4058-b990-eacb5419b4eb","ios":"levelo://app?vid=f4b4f460-644c-4058-b990-eacb5419b4eb"},"vehicle_type_id":"4","last_reported":1740755382,"current_range_meters":18000,"station_id":"ce4bhhp2rcd13ifvqfm0","pricing_plan_id":"cebpf4jnsgd1na2vs0mg"},{"bike_id":"d4ac43f6-7fb5-4005-bacf-effb75760a02","system_id":"levelo_inurba_marseille","lat":43.27211,"lon":5.39182,"is_reserved":false,"is_disabled":false,"rental_uris":{"android":"levelo://app?vid=d4ac43f6-7fb5-4005-bacf-effb75760a02","ios":"levelo://app?vid=d4ac43f6-7fb5-4005-bacf-effb75760a02"},"vehicle_type_id":"4","last_reported":1740755382,"current_range_meters":18000,"station_id":"ce4bhhp2rcd13ifvqfm0","pricing_plan_id":"cebpf4jnsgd1na2vs0mg"},