{"last_updated":1752934160,"ttl":60,"version":"2.2","data":{"bikes":[{"bike_id":"53b742a7-31ae-4272-9bba-7740339e2a2f","system_id":"levelo_inurba_marseille","lat":43.33747,"lon":5.37463,"is_reserved":false,"is_disabled":false,"rental_uris":{"android":"levelo://app?vid=53b742a7-31ae-4272-9bba-7740339e2a2f","ios":"levelo://app?vid=53b742a7-31ae-4272-9bba-7740339e2a2f"},"vehicle_type_id":"1","last_reported":1752934161,"current_range_meters":15200,"station_id":"","pricing_plan_id":"cebpf4jnsgd1na2vs0mg"},{"bike_id":"573cf756-66c2-4edd-bd8a-f1c53f065bd4","system_id":"levelo_inurba_marseille","lat":43.27962,"lon":5.3536,"is_reserved":false,"is_disabled":false,"rental_uris":{"android":"levelo://app?vid=573cf756-66c2-4edd-bd8a-f1c53f065bd4","ios":"levelo://app?vid=573cf756-66c2-4edd-bd8a-f1c53f065bd4"},"vehicle_type_id":"4","last_reported":1752934161,"current_range_meters":2800,"station_id":"","pricing_plan_id":"cebpf4jnsgd1na2vs0mg"},{"bike_id":"f48322bf-d5e8-4498-bd18-0e520bb189b8","system_id":"levelo_inurba_marseille","lat":43.217478,"lon":5.346057,"is_reserved":false,"is_disabled":false,"rental_uris":{"android":"levelo://app?vid=f48322bf-d5e8-4498-bd18-0e520bb189b8","ios":"levelo://app?vid=f48322bf-d5e8-4498-bd18-0e520bb189b8"},"vehicle_type_id":"4","last_reported":1752934161,"current_range_meters":2800,"station_id":"st_cvj6r9ubvosntc0bgbag","pricing_plan_id":"cebpf4jnsgd1na2vs0mg"},{"bike_id":"4298709f-d90a-45df-8a57-9ba59538e3fc","system_id":"levelo_inurba_marseille","lat":43.281499,"lon":5.40743,"is_reserved":false,"is_disabled":false,"rental_uris":{"android":"levelo://app?vid=4298709f-d90a-45df-8a57-9ba59538e3fc","ios":"levelo://app?vid=4298709f-d90a-45df-8a57-9ba59538e3fc"},"vehicle_type_id":"4","last_reported":1752934161,"current_range_meters":3600,"station_id":"","pricing_plan_id":"cebpf4jnsgd1na2vs0mg"},{"bike_id":"8870e32b-bb80-48c1-ab3d-c18723de62ae","system_id":"levelo_inurba_marseille","lat":43.23962,"lon":5.36627,"is_reserved":false,"is_disabled":false,"rental_uris":{"android":"levelo://app?vid=8870e32b-bb80-48c1-ab3d-c18723de62ae","ios":"levelo://app?vid=8870e32b-bb80-48c1-ab3d-c18723de62ae"},"vehicle_type_id":"4","last_reported":1752934161,"current_range_meters":3600,"station_id":"ce4bhi12rcd13ifvqfp0","pricing_plan_id":"cebpf4jnsgd1na2vs0mg"},{"bike_id":"3444bdc6-514a-4ba6-9650-f9073305e33d","system_id":"levelo_inurba_marseille","lat":43.29682,"lon":5.3698,"is_reserved":false,"is_disabled":false,"rental_uris":{"android":"levelo://app?vid=3444bdc6-514a-4ba6-9650-f9073305e33d","ios":"levelo://app?vid=3444bdc6-514a-4ba6-9650-f9073305e33d"},"vehicle_type_id":"4","last_reported":1752934161,"current_range_meters":4000,"station_id":"","pricing_plan_id":"cebpf4jnsgd1na2vs0mg"},{"bike_id":"a8bd65b0-f803-4075-9616-7026422b7ea8","system_id":"levelo_inurba_marseille","lat":43.30148,"lon":5.39841,"is_reserved":false,"is_disabled":false,"rental_uris":{"android":"levelo://app?vid=a8bd65b0-f803-4075-9616-7026422b7ea8","ios":"levelo://app?vid=a8bd65b0-f803-4075-9616-7026422b7ea8"},"vehicle_type_id":"4","last_reported":1752934161,"current_range_meters":4000,"station_id":"ce4bh0h2rcd13ifvqd40","pricing_plan_id":"cebpf4jnsgd1na2vs0mg"},{"bike_id":"9bdcfb5e-ac16-41d0-a4c2-388bc36976bb","system_id":"levelo_inurba_marseille","lat":43.29546,"lon":5.42277,"is_reserved":false,"is_disabled":false,"rental_uris":{"android":"levelo://app?vid=9bdcfb5e-ac16-41d0-a4c2-388bc36976bb","ios":"levelo://app?vid=9bdcfb5e-ac16-41d0-a4c2-388bc36976bb"},"vehicle_type_id":"4","last_reported":1752934161,"current_range_meters":4400,"station_id":"ce4bhph2rcd13ifvqhdg","pricing_plan_id":"cebpf4jnsgd1na2vs0mg"},{"bike_id":"0f77f26d-e190-4160-bad6-5a549e2f93b1","system_id":"levelo_inurba_marseille","lat":43.28411,"lon":5.34983,"is_reserved":false,"is_disabled":false,"rental_uris":{"android":"levelo://app?vid=0f77f26d-e190-4160-bad6-5a549e2f93b1","ios":"levelo://app?vid=0f77f26d-e190-4160-bad6-5a549e2f93b1"},"vehicle_type_id":"4","last_reported":1752934161,"current_range_meters":6000,"station_id":"ce4bhbh2rcd13ifvqepg","pricing_plan_id":"cebpf4jnsgd1na2vs0mg"},{"bike_id":"cb2e018e-24b3-4823-8c65-ab1c1d51aef0","system_id":"levelo_inurba_marseille","lat":43.27379,"lon":5.36264,"is_reserved":false,"is_disabled":false,"rental_uris":{"android":"levelo://app?vid=cb2e018e-24b3-4823-8c65-ab1c1d51aef0","ios":"levelo://app?vid=cb2e018e-24b3-4823-8c65-ab1c1d51aef0"},"vehicle_type_id":"4","last_reported":1752934161,"current_range_meters":6000,"station_id":"ce4bhbh2rcd13ifvqeo0","pricing_plan_id":"cebpf4jnsgd1na2vs0mg"},{"bike_id":"da891840-0cec-4ccc-961c-48903736c6fa","system_id":"levelo_inurba_marseille","lat":43.31139,"lon":5.37692,"is_reserved":false,"is_disabled":false,"rental_uris":{"android":"levelo://app?vid=da891840-0cec-4ccc-961c-48903736c6fa","ios":"levelo://app?vid=da891840-0cec-4ccc-961c-48903736c6fa"},"vehicle_type_id":"4","last_reported":1752934161,"current_range_meters":6400,"station_id":"","pricing_plan_id":"cebpf4jnsgd1na2vs0mg"},{"bike_id":"e555b545-304c-4dce-8496-1643c0f2600e","system_id":"levelo_inurba_marseille","lat":43.337444,"lon":5.374475,"is_reserved":false,"is_disabled":false,"rental_uris":{"android":"levelo://app?vid=e555b545-304c-4dce-8496-1643c0f2600e","ios":"levelo://app?vid=e555b545-304c-4dce-8496-1643c0f2600e"},"vehicle_type_id":"4","last_reported":1752934161,"current_range_meters":6400,"station_id":"","pricing_plan_id":"cebpf4jnsgd1na2vs0mg"},{"bike_id":"4b0a4178-b312-4126-804a-155e981ca319","system_id":"levelo_inurba_marseille","lat":43.29854,"lon":5.3629,"is_reserved":false,"is_disabled":false,"rental_uris":{"android":"levelo://app?vid=4b0a4178-b312-4126-804a-155e981ca319","ios":"levelo://app?vid=4b0a4178-b312-4126-804a-155e981ca319"},"vehicle_type_id":"4","last_reported":1752934161,"current_range_meters":6400,"station_id":"ce4bgpp2rcd13ifvqc3g","pricing_plan_id":"cebpf4jnsgd1na2vs0mg"},{"bike_id":"a3b77b5e-411d-49eb-91bb-ebf7ec30c025","system_id":"levelo_inurba_marseille","lat":43.22934,"lon":5.35377,"is_reserved":false,"is_disabled":false,"rental_uris":{"android":"levelo://app?vid=a3b77b5e-411d-49eb-91bb-ebf7ec30c025","ios":"levelo://app?vid=a3b77b5e-411d-49eb-91bb-ebf7ec30c025"},"vehicle_type_id":"4","last_reported":1752934161,"current_range_meters":6800,"station_id":"cpo3532slgdg3j2ikp40","pricing_plan_id":"cebpf4jnsgd1na2vs0mg"},{"bike_id":"2d95b47d-d06f-40a4-bb6e-c13e954e3c8f","system_id":"levelo_inurba_marseille","lat":43.2773,"lon":5.41434,"is_reserved":false,"is_disabled":false,"rental_uris":{"android":"levelo://app?vid=2d95b47d-d06f-40a4-bb6e-c13e954e3c8f","ios":"levelo://app?vid=2d95b47d-d06f-40a4-bb6e-c13e954e3c8f"},"vehicle_type_id":"4","last_reported":1752934161,"current_range_meters":7200,"station_id":"","pricing_plan_id":"cebpf4jnsgd1na2vs0mg"},{"bike_id":"3031c8a2-5092-4aec-bd70-c8ece7c85037","system_id":"levelo_inurba_marseille","lat":43.24388,"lon":5.37061,"is_reserved":false,"is_disabled":false,"rental_uris":{"android":"levelo://app?vid=3031c8a2-5092-4aec-bd70-c8ece7c85037","ios":"levelo://app?vid=3031c8a2-5092-4aec-bd70-c8ece7c85037"},"vehicle_type_id":"4","last_reported":1752934161,"current_range_meters":9600,"station_id":"ce4bhhh2rcd13ifvqfk0","pricing_plan_id":"cebpf4jnsgd1na2vs0mg"},{"bike_id":"1f01a78f-6336-4455-86de-02d2648dae44","system_id":"levelo_inurba_marseille","lat":43.26811,"lon":5.402572,"is_reserved":false,"is_disabled":false,"rental_uris":{"android":"levelo://app?vid=1f01a78f-6336-4455-86de-02d2648dae44","ios":"levelo://app?vid=1f01a78f-6336-4455-86de-02d2648dae44"},"vehicle_type_id":"4","last_reported":1752934161,"current_range_meters":8000,"station_id":"ce501612rcd8frsf0b60","pricing_plan_id":"cebpf4jnsgd1na2vs0mg"},{"bike_id":"72acce2b-2249-45a2-be91-c8268f8a11e8","system_id":"levelo_inurba_marseille","lat":43.225067,"lon":5.347838,"is_reserved":false,"is_disabled":false,"rental_uris":{"android":"levelo://app?vid=72acce2b-2249-45a2-be91-c8268f8a11e8","ios":"levelo://app?vid=72acce2b-2249-45a2-be91-c8268f8a11e8"},"vehicle_type_id":"4","last_reported":1752934161,"current_range_meters":8400,"station_id":"st_cvj5dfep6f1abm77gieg","pricing_plan_id":"cebpf4jnsgd1na2vs0mg"},{"bike_id":"a5415014-5840-49b8-a17f-752451db9f4c","system_id":"levelo_inurba_marseille","lat":43.31062,"lon":5.38377,"is_reserved":false,"is_disabled":false,"rental_uris":{"android":"levelo://app?vid=a5415014-5840-49b8-a17f-752451db9f4c","ios":"levelo://app?vid=a5415014-5840-49b8-a17f-752451db9f4c"},"vehicle_type_id":"4","last_reported":1752934161,"current_range_meters":8400,"station_id":"ce4bgv92rcd13ifvqcr0","pricing_plan_id":"cebpf4jnsgd1na2vs0mg"},{"bike_id":"34fe564e-6572-49b1-acfb-39140cc994f8","system_id":"levelo_inurba_marseille","lat":43.28005,"lon":5.40005,"is_reserved":false,"is_disabled":false,"rental_uris":{"android":"levelo://app?vid=34fe564e-6572-49b1-acfb-39140cc994f8","ios":"levelo://app?vid=34fe564e-6572-49b1-acfb-39140cc994f8"},"vehicle_type_id":"4","last_reported":1752934161,"current_range_meters":8400,"station_id":"ce4bho92rcd13ifvqh4g","pricing_plan_id":"cebpf4jnsgd1na2vs0mg"},{"bike_id":"a168d389-ea1d-4756-ad9b-cf73a31ab442","system_id":"levelo_inurba_marseille","lat":43.28578,"lon":5.38361,"is_reserved":false,"is_disabled":true,"rental_uris":{"android":"levelo://app?vid=a168d389-ea1d-4756-ad9b-cf73a31ab442","ios":"levelo://app?vid=a168d389-ea1d-4756-ad9b-cf73a31ab442"},"vehicle_type_id":"4","last_reported":1752934161,"current_range_meters":8400,"station_id":"","pricing_plan_id":"cebpf4jnsgd1na2vs0mg"},{"bike_id":"ce7bd25b-5213-4881-a28b-f582e6a1d712","system_id":"levelo_inurba_marseille","lat":43.31353,"lon":5.36723,"is_reserved":false,"is_disabled":true,"rental_uris":{"android":"levelo://app?vid=ce7bd25b-5213-4881-a28b-f582e6a1d712","ios":"levelo://app?vid=ce7bd25b-5213-4881-a28b-f582e6a1d712"},"vehicle_type_id":"4","last_reported":1752934161,"current_range_meters":8400,"station_id":"ce4bgr92rcd13ifvqc6g","pricing_plan_id":"cebpf4jnsgd1na2vs0mg"},{"bike_id":"b39eb8b8-dca0-421a-9ffc-fc753c7ef029","system_id":"levelo_inurba_marseille","lat":43.237325,"lon":5.363369,"is_reserved":false,"is_disabled":false,"rental_uris":{"android":"levelo://app?vid=b39eb8b8-dca0-421a-9ffc-fc753c7ef029","ios":"levelo://app?vid=b39eb8b8-dca0-421a-9ffc-fc753c7ef029"},"vehicle_type_id":"4","last_reported":1752934161,"current_range_meters":8800,"station_id":"st_cvj6sg6p6f1abm77japg","pricing_plan_id":"cebpf4jnsgd1na2vs0mg"},{"bike_id":"7ba80774-b11e-4526-b36d-edd358abb392","system_id":"levelo_inurba_marseille","lat":43.22522,"lon":5.3478,"is_reserved":false,"is_disabled":false,"rental_uris":{"android":"levelo://app?vid=7ba80774-b11e-4526-b36d-edd358abb392","ios":"levelo://app?vid=7ba80774-b11e-4526-b36d-edd358abb392"},"vehicle_type_id":"4","last_reported":1752934161,"current_range_meters":8800,"station_id":"st_cvj5dfep6f1abm77gieg","pricing_plan_id":"cebpf4jnsgd1na2vs0mg"},{"bike_id":"0e42a7ec-0d0d-4b91-a100-e1bcd751f991","system_id":"levelo_inurba_marseille","lat":43.29862,"lon":5.43656,"is_reserved":false,"is_disabled":false,"rental_uris":{"android":"levelo://app?vid=0e42a7ec-0d0d-4b91-a100-e1bcd751f991","ios":"levelo://app?vid=0e42a7ec-0d0d-4b91-a100-e1bcd751f991"},"vehicle_type_id":"4","last_reported":1752934161,"current_range_meters":8800,"station_id":"ce4bhpp2rcd13ifvqhfg","pricing_plan_id":"cebpf4jnsgd1na2vs0mg"},{"bike_id":"2986c6dd-850b-45ff-95db-93996551edb5","system_id":"levelo_inurba_marseille","lat":43.211967,"lon":5.350729,"is_reserved":false,"is_disabled":false,"rental_uris":{"android":"levelo://app?vid=2986c6dd-850b-45ff-95db-93996551edb5","ios":"levelo://app?vid=2986c6dd-850b-45ff-95db-93996551edb5"},"vehicle_type_id":"4","last_reported":1752934161,"current_range_meters":8800,"station_id":"st_cvj6sg6p6f1abm77japg","pricing_plan_id":"cebpf4jnsgd1na2vs0mg"},{"bike_id":"6ec6eee4-a094-42db-beac-91161b60100f","system_id":"levelo_inurba_marseille","lat":43.27944,"lon":5.41051,"is_reserved":false,"is_disabled":false,"rental_uris":{"android":"levelo://app?vid=6ec6eee4-a094-42db-beac-91161b60100f","ios":"levelo://app?vid=6ec6eee4-a094-42db-beac-91161b60100f"},"vehicle_type_id":"4","last_reported":1752934161,"current_range_meters":8800,"station_id":"ce4bhnp2rcd13ifvqh0g","pricing_plan_id":"cebpf4jnsgd1na2vs0mg"},{"bike_id":"c6db0f6a-96fe-4e1d-8ded-c2ef38c9bab4","system_id":"levelo_inurba_marseille","lat":43.305688,"lon":5.418387,"is_reserved":false,"is_disabled":true,"rental_uris":{"android":"levelo://app?vid=c6db0f6a-96fe-4e1d-8ded-c2ef38c9bab4","ios":"levelo://app?vid=c6db0f6a-96fe-4e1d-8ded-c2ef38c9bab4"},"vehicle_type_id":"4","last_reported":1752934161,"current_range_meters":9200,"station_id":"ce4bht12rcd13ifvqi60","pricing_plan_id":"cebpf4jnsgd1na2vs0mg"},{"bike_id":"bd681f71-c292-40c4-b1e1-592aba006de5","system_id":"levelo_inurba_marseille","lat":43.304349,"lon":5.388931,"is_reserved":false,"is_disabled":false,"rental_uris":{"android":"levelo://app?vid=bd681f71-c292-40c4-b1e1-592aba006de5","ios":"levelo://app?vid=bd681f71-c292-40c4-b1e1-592aba006de5"},"vehicle_type_id":"4","last_reported":1752934161,"current_range_meters":10000,"station_id":"ce4bgk12rcd13ifvqbi0","pricing_plan_id":"cebpf4jnsgd1na2vs0mg"},{"bike_id":"bbfe9aea-ae56-4ffa-9fc9-dc506c6bc068","system_id":"levelo_inurba_marseille","lat":43.29227,"lon":5.36063,"is_reserved":false,"is_disabled":false,"rental_uris":{"android":"levelo://app?vid=bbfe9aea-ae56-4ffa-9fc9-dc506c6bc068","ios":"levelo://app?vid=bbfe9aea-ae56-4ffa-9fc9-dc506c6bc068"},"vehicle_type_id":"4","last_reported":1752934161,"current_range_meters":9600,"station_id":"ce4bhbh2rcd13ifvqeqg","pricing_plan_id":"cebpf4jnsgd1na2vs0mg"},{"bike_id":"07aeb5da-15b1-4b73-9d17-70e8acd75061","system_id":"levelo_inurba_marseille","lat":43.2254,"lon":5.34773,"is_reserved":false,"is_disabled":false,"rental_uris":{"android":"levelo://app?vid=07aeb5da-15b1-4b73-9d17-70e8acd75061","ios":"levelo://app?vid=07aeb5da-15b1-4b73-9d17-70e8acd75061"},"vehicle_type_id":"4","last_reported":1752934161,"current_range_meters":9600,"station_id":"st_cvj5dfep6f1abm77gieg","pricing_plan_id":"cebpf4jnsgd1na2vs0mg"},{"bike_id":"eb48536d-08c8-48ac-8df5-4c7131bb1eeb","system_id":"levelo_inurba_marseille","lat":43.31284,"lon":5.40164,"is_reserved":false,"is_disabled":false,"rental_uris":{"android":"levelo://app?vid=eb48536d-08c8-48ac-8df5-4c7131bb1eeb","ios":"levelo://app?vid=eb48536d-08c8-48ac-8df5-4c7131bb1eeb"},"vehicle_type_id":"4","last_reported":1752934161,"current_range_meters":9600,"station_id":"ce4bh092rcd13ifvqd30","pricing_plan_id":"cebpf4jnsgd1na2vs0mg"},{"bike_id":"d82dc46e-15a2-437f-878b-6e56923d75fd","system_id":"levelo_inurba_marseille","lat":43.292279,"lon":5.360763,"is_reserved":false,"is_disabled":false,"rental_uris":{"android":"levelo://app?vid=d82dc46e-15a2-437f-878b-6e56923d75fd","ios":"levelo://app?vid=d82dc46e-15a2-437f-878b-6e56923d75fd"},"vehicle_type_id":"4","last_reported":1752934161,"current_range_meters":9600,"station_id":"ce4bhbh2rcd13ifvqeqg","pricing_plan_id":"cebpf4jnsgd1na2vs0mg"},{"bike_id":"8bfe25b8-a53d-4088-9c0c-7880c64e94e7","system_id":"levelo_inurba_marseille","lat":43.298444,"lon":5.362943,"is_reserved":false,"is_disabled":false,"rental_uris":{"android":"levelo://app?vid=8bfe25b8-a53d-4088-9c0c-7880c64e94e7","ios":"levelo://app?vid=8bfe25b8-a53d-4088-9c0c-7880c64e94e7"},"vehicle_type_id":"4","last_reported":1752934161,"current_range_meters":10000,"station_id":"ce4bgpp2rcd13ifvqc3g","pricing_plan_id":"cebpf4jnsgd1na2vs0mg"},{"bike_id":"f09cf713-d5ec-47c9-97e3-1369ab04fcc4","system_id":"levelo_inurba_marseille","lat":43.21763,"lon":5.346,"is_reserved":false,"is_disabled":false,"rental_uris":{"android":"levelo://app?vid=f09cf713-d5ec-47c9-97e3-1369ab04fcc4","ios":"levelo://app?vid=f09cf713-d5ec-47c9-97e3-1369ab04fcc4"},"vehicle_type_id":"4","last_reported":1752934161,"current_range_meters":10000,"station_id":"st_cvj6r9ubvosntc0bgbag","pricing_plan_id":"cebpf4jnsgd1na2vs0mg"},{"bike_id":"b5c52e60-c28e-43be-9c81-605e18b4fe3c","system_id":"levelo_inurba_marseille","lat":43.32046,"lon":5.41544,"is_reserved":false,"is_disabled":false,"rental_uris":{"android":"levelo://app?vid=b5c52e60-c28e-43be-9c81-605e18b4fe3c","ios":"levelo://app?vid=b5c52e60-c28e-43be-9c81-605e18b4fe3c"},"vehicle_type_id":"4","last_reported":1752934161,"current_range_meters":10000,"station_id":"ce4bhq92rcd13ifvqhkg","pricing_plan_id":"cebpf4jnsgd1na2vs0mg"},{"bike_id":"57a30f0b-84eb-4b98-8989-8d3c02b43bf0","system_id":"levelo_inurba_marseille","lat":43.28643,"lon":5.36959,"is_reserved":false,"is_disabled":false,"rental_uris":{"android":"levelo://app?vid=57a30f0b-84eb-4b98-8989-8d3c02b43bf0","ios":"levelo://app?vid=57a30f0b-84eb-4b98-8989-8d3c02b43bf0"},"vehicle_type_id":"4","last_reported":1752934161,"current_range_meters":10000,"station_id":"","pricing_plan_id":"cebpf4jnsgd1na2vs0mg"},{"bike_id":"cfb52d04-9134-4c86-8269-771716b20f27","system_id":"levelo_inurba_marseille","lat":43.21187,"lon":5.35083,"is_reserved":false,"is_disabled":false,"rental_uris":{"android":"levelo://app?vid=cfb52d04-9134-4c86-8269-771716b20f27","ios":"levelo://app?vid=cfb52d04-9134-4c86-8269-771716b20f27"},"vehicle_type_id":"4","last_reported":1752934161,"current_range_meters":10000,"station_id":"st_cvj6sg6p6f1abm77japg","pricing_plan_id":"cebpf4jnsgd1na2vs0mg"},{"bike_id":"6f18ab1b-0c74-47b1-bed8-837677176207","system_id":"levelo_inurba_marseille","lat":43.32092,"lon":5.40868,"is_reserved":false,"is_disabled":false,"rental_uris":{"android":"levelo://app?vid=6f18ab1b-0c74-47b1-bed8-837677176207","ios":"levelo://app?vid=6f18ab1b-0c74-47b1-bed8-837677176207"},"vehicle_type_id":"4","last_reported":1752934161,"current_range_meters":10000,"station_id":"","pricing_plan_id":"cebpf4jnsgd1na2vs0mg"},{"bike_id":"16baf93e-2f04-45bd-9717-99d4547ede92","system_id":"levelo_inurba_marseille","lat":43.29045,"lon":5.35934,"is_reserved":false,"is_disabled":false,"rental_uris":{"android":"levelo://app?vid=16baf93e-2f04-45bd-9717-99d4547ede92","ios":"levelo://app?vid=16baf93e-2f04-45bd-9717-99d4547ede92"},"vehicle_type_id":"4","last_reported":1752934161,"current_range_meters":10000,"station_id":"ce4bha92rcd13ifvqeg0","pricing_plan_id":"cebpf4jnsgd1na2vs0mg"},{"bike_id":"19d72019-7681-4570-94c8-383fe1c15910","system_id":"levelo_inurba_marseille","lat":43.31692,"lon":5.4046,"is_reserved":false,"is_disabled":false,"rental_uris":{"android":"levelo://app?vid=19d72019-7681-4570-94c8-383fe1c15910","ios":"levelo://app?vid=19d72019-7681-4570-94c8-383fe1c15910"},"vehicle_type_id":"4","last_reported":1752934161,"current_range_meters":10800,"station_id":"ce4bh012rcd13ifvqd00","pricing_plan_id":"cebpf4jnsgd1na2vs0mg"},{"bike_id":"6fc0f1bc-7699-40c6-be9b-39c5fbc6f9c5","system_id":"levelo_inurba_marseille","lat":43.31066,"lon":5.38357,"is_reserved":false,"is_disabled":false,"rental_uris":{"android":"levelo://app?vid=6fc0f1bc-7699-40c6-be9b-39c5fbc6f9c5","ios":"levelo://app?vid=6fc0f1bc-7699-40c6-be9b-39c5fbc6f9c5"},"vehicle_type_id":"4","last_reported":1752934161,"current_range_meters":11600,"station_id":"ce4bgv92rcd13ifvqcr0","pricing_plan_id":"cebpf4jnsgd1na2vs0mg"},{"bike_id":"a74f75df-13de-48a7-ae8e-7c8165b0ee29","system_id":"levelo_inurba_marseille","lat":43.30936,"lon":5.40152,"is_reserved":false,"is_disabled":false,"rental_uris":{"android":"levelo://app?vid=a74f75df-13de-48a7-ae8e-7c8165b0ee29","ios":"levelo://app?vid=a74f75df-13de-48a7-ae8e-7c8165b0ee29"},"vehicle_type_id":"4","last_reported":1752934161,"current_range_meters":10800,"station_id":"ce4bgvp2rcd13ifvqct0","pricing_plan_id":"cebpf4jnsgd1na2vs0mg"},{"bike_id":"119ed186-566e-4ae9-84db-ad23e77fe912","system_id":"levelo_inurba_marseille","lat":43.28243,"lon":5.35095,"is_reserved":false,"is_disabled":false,"rental_uris":{"android":"levelo://app?vid=119ed186-566e-4ae9-84db-ad23e77fe912","ios":"levelo://app?vid=119ed186-566e-4ae9-84db-ad23e77fe912"},"vehicle_type_id":"4","last_reported":1752934161,"current_range_meters":10800,"station_id":"ce4bhbp2rcd13ifvqerg","pricing_plan_id":"cebpf4jnsgd1na2vs0mg"},{"bike_id":"50a36931-63e6-4819-9058-f86f9fcd0ab3","system_id":"levelo_inurba_marseille","lat":43.32542,"lon":5.41461,"is_reserved":false,"is_disabled":false,"rental_uris":{"android":"levelo://app?vid=50a36931-63e6-4819-9058-f86f9fcd0ab3","ios":"levelo://app?vid=50a36931-63e6-4819-9058-f86f9fcd0ab3"},"vehicle_type_id":"4","last_reported":1752934161,"current_range_meters":11200,"station_id":"ce4bhq12rcd13ifvqhhg","pricing_plan_id":"cebpf4jnsgd1na2vs0mg"},{"bike_id":"3dbe5912-b178-4d6a-b0a5-780c833ee7fa","system_id":"levelo_inurba_marseille","lat":43.29072,"lon":5.35574,"is_reserved":false,"is_disabled":false,"rental_uris":{"android":"levelo://app?vid=3dbe5912-b178-4d6a-b0a5-780c833ee7fa","ios":"levelo://app?vid=3dbe5912-b178-4d6a-b0a5-780c833ee7fa"},"vehicle_type_id":"4","last_reported":1752934161,"current_range_meters":11200,"station_id":"","pricing_plan_id":"cebpf4jnsgd1na2vs0mg"},{"bike_id":"0d72cb77-c7e9-4ea2-ab67-3485b6c9f45c","system_id":"levelo_inurba_marseille","lat":43.31685,"lon":5.404747,"is_reserved":false,"is_disabled":false,"rental_uris":{"android":"levelo://app?vid=0d72cb77-c7e9-4ea2-ab67-3485b6c9f45c","ios":"levelo://app?vid=0d72cb77-c7e9-4ea2-ab67-3485b6c9f45c"},"vehicle_type_id":"4","last_reported":1752934161,"current_range_meters":10800,"station_id":"ce4bh012rcd13ifvqd00","pricing_plan_id":"cebpf4jnsgd1na2vs0mg"},{"bike_id":"f0dbba60-7fa2-4835-8cf4-423440f8b95a","system_id":"levelo_inurba_marseille","lat":43.2176,"lon":5.34606,"is_reserved":false,"is_disabled":false,"rental_uris":{"android":"levelo://app?vid=f0dbba60-7fa2-4835-8cf4-423440f8b95a","ios":"levelo://app?vid=f0dbba60-7fa2-4835-8cf4-423440f8b95a"},"vehicle_type_id":"4","last_reported":1752934161,"current_range_meters":11200,"station_id":"","pricing_plan_id":"cebpf4jnsgd1na2vs0mg"},{"bike_id":"8c194039-3f83-4474-bb07-0cafff885cc3","system_id":"levelo_inurba_marseille","lat":43.33786,"lon":5.37426,"is_reserved":false,"is_disabled":false,"rental_uris":{"android":"levelo://app?vid=8c194039-3f83-4474-bb07-0cafff885cc3","ios":"levelo://app?vid=8c194039-3f83-4474-bb07-0cafff885cc3"},"vehicle_type_id":"4","last_reported":1752934161,"current_range_meters":11200,"station_id":"","pricing_plan_id":"cebpf4jnsgd1na2vs0mg"},{"bike_id":"a5a84860-9687-469f-8026-499aca74090f","system_id":"levelo_inurba_marseille","lat":43.21748,"lon":5.34609,"is_reserved":false,"is_disabled":false,"rental_uris":{"android":"levelo://app?vid=a5a84860-9687-469f-8026-499aca74090f","ios":"levelo://app?vid=a5a84860-9687-469f-8026-499aca74090f"},"vehicle_type_id":"4","last_reported":1752934161,"current_range_meters":11600,"station_id":"st_cvj6r9ubvosntc0bgbag","pricing_plan_id":"cebpf4jnsgd1na2vs0mg"},{"bike_id":"78ef9001-340c-4037-bf11-148120fcef59","system_id":"levelo_inurba_marseille","lat":43.30545,"lon":5.36528,"is_reserved":false,"is_disabled":false,"rental_uris":{"android":"levelo://app?vid=78ef9001-340c-4037-bf11-148120fcef59","ios":"levelo://app?vid=78ef9001-340c-4037-bf11-148120fcef59"},"vehicle_type_id":"4","last_reported":1752934161,"current_range_meters":11600,"station_id":"ce4bgs12rcd13ifvqcag","pricing_plan_id":"cebpf4jnsgd1na2vs0mg"},{"bike_id":"b4c40497-6aa4-4874-87c3-cf544cbffa36","system_id":"levelo_inurba_marseille","lat":43.28262,"lon":5.35074,"is_reserved":false,"is_disabled":false,"rental_uris":{"android":"levelo://app?vid=b4c40497-6aa4-4874-87c3-cf544cbffa36","ios":"levelo://app?vid=b4c40497-6aa4-4874-87c3-cf544cbffa36"},"vehicle_type_id":"4","last_reported":1752934161,"current_range_meters":11600,"station_id":"ce4bhbp2rcd13ifvqerg","pricing_plan_id":"cebpf4jnsgd1na2vs0mg"},{"bike_id":"7bce4995-29f7-472b-9a2b-22fcd26a1a6a","system_id":"levelo_inurba_marseille","lat":43.31699,"lon":5.40466,"is_reserved":false,"is_disabled":false,"rental_uris":{"android":"levelo://app?vid=7bce4995-29f7-472b-9a2b-22fcd26a1a6a","ios":"levelo://app?vid=7bce4995-29f7-472b-9a2b-22fcd26a1a6a"},"vehicle_type_id":"4","last_reported":1752934161,"current_range_meters":11600,"station_id":"ce4bh012rcd13ifvqd00","pricing_plan_id":"cebpf4jnsgd1na2vs0mg"},{"bike_id":"2fd3d782-24a7-42a3-b248-8e69e5a88f8a","system_id":"levelo_inurba_marseille","lat":43.31687,"lon":5.40464,"is_reserved":false,"is_disabled":false,"rental_uris":{"android":"levelo://app?vid=2fd3d782-24a7-42a3-b248-8e69e5a88f8a","ios":"levelo://app?vid=2fd3d782-24a7-42a3-b248-8e69e5a88f8a"},"vehicle_type_id":"4","last_reported":1752934161,"current_range_meters":11600,"station_id":"ce4bh012rcd13ifvqd00","pricing_plan_id":"cebpf4jnsgd1na2vs0mg"},{"bike_id":"dd5c27a5-05d8-40e8-9509-edf2d3299e4a","system_id":"levelo_inurba_marseille","lat":43.240742,"lon":5.377536,"is_reserved":false,"is_disabled":true,"rental_uris":{"android":"levelo://app?vid=dd5c27a5-05d8-40e8-9509-edf2d3299e4a","ios":"levelo://app?vid=dd5c27a5-05d8-40e8-9509-edf2d3299e4a"},"vehicle_type_id":"4","last_reported":1752934161,"current_range_meters":12000,"station_id":"ce4bhnp2rcd13ifvqgvg","pricing_plan_id":"cebpf4jnsgd1na2vs0mg"},{"bike_id":"517ab3a9-8ddd-4ca5-b504-6d7b6d0915a4","system_id":"levelo_inurba_marseille","lat":43.24169,"lon":5.36396,"is_reserved":false,"is_disabled":false,"rental_uris":{"android":"levelo://app?vid=517ab3a9-8ddd-4ca5-b504-6d7b6d0915a4","ios":"levelo://app?vid=517ab3a9-8ddd-4ca5-b504-6d7b6d0915a4"},"vehicle_type_id":"4","last_reported":1752934161,"current_range_meters":12000,"station_id":"cpo36qri1sfpv3e86is0","pricing_plan_id":"cebpf4jnsgd1na2vs0mg"},{"bike_id":"9d77ed5f-b25c-4724-8218-25d9010942f2","system_id":"levelo_inurba_marseille","lat":43.28415,"lon":5.34995,"is_reserved":false,"is_disabled":false,"rental_uris":{"android":"levelo://app?vid=9d77ed5f-b25c-4724-8218-25d9010942f2","ios":"levelo://app?vid=9d77ed5f-b25c-4724-8218-25d9010942f2"},"vehicle_type_id":"4","last_reported":1752934161,"current_range_meters":12000,"station_id":"ce4bhbh2rcd13ifvqepg","pricing_plan_id":"cebpf4jnsgd1na2vs0mg"},{"bike_id":"8ef91a6c-3f69-4b79-ab84-ce08361be2a5","system_id":"levelo_inurba_marseille","lat":43.27383,"lon":5.36257,"is_reserved":false,"is_disabled":false,"rental_uris":{"android":"levelo://app?vid=8ef91a6c-3f69-4b79-ab84-ce08361be2a5","ios":"levelo://app?vid=8ef91a6c-3f69-4b79-ab84-ce08361be2a5"},"vehicle_type_id":"4","last_reported":1752934161,"current_range_meters":12000,"station_id":"ce4bhbh2rcd13ifvqeo0","pricing_plan_id":"cebpf4jnsgd1na2vs0mg"},{"bike_id":"0cc752bd-6105-43d7-8e6c-268b3e105cba","system_id":"levelo_inurba_marseille","lat":43.28936,"lon":5.38378,"is_reserved":false,"is_disabled":false,"rental_uris":{"android":"levelo://app?vid=0cc752bd-6105-43d7-8e6c-268b3e105cba","ios":"levelo://app?vid=0cc752bd-6105-43d7-8e6c-268b3e105cba"},"vehicle_type_id":"4","last_reported":1752934161,"current_range_meters":12000,"station_id":"ce4bh612rcd13ifvqe6g","pricing_plan_id":"cebpf4jnsgd1na2vs0mg"},{"bike_id":"09a99cc9-81c2-4c00-890e-b8a9af05bd19","system_id":"levelo_inurba_marseille","lat":43.24158,"lon":5.36431,"is_reserved":false,"is_disabled":false,"rental_uris":{"android":"levelo://app?vid=09a99cc9-81c2-4c00-890e-b8a9af05bd19","ios":"levelo://app?vid=09a99cc9-81c2-4c00-890e-b8a9af05bd19"},"vehicle_type_id":"4","last_reported":1752934161,"current_range_meters":12000,"station_id":"cpo36qri1sfpv3e86is0","pricing_plan_id":"cebpf4jnsgd1na2vs0mg"},{"bike_id":"b7d3c4fd-4f83-4958-9b2a-ac24a59bd3ad","system_id":"levelo_inurba_marseille","lat":43.29304,"lon":5.37462,"is_reserved":false,"is_disabled":false,"rental_uris":{"android":"levelo://app?vid=b7d3c4fd-4f83-4958-9b2a-ac24a59bd3ad","ios":"levelo://app?vid=b7d3c4fd-4f83-4958-9b2a-ac24a59bd3ad"},"vehicle_type_id":"4","last_reported":1752934161,"current_range_meters":12000,"station_id":"ce4bgi12rcd13ifvqb70","pricing_plan_id":"cebpf4jnsgd1na2vs0mg"},{"bike_id":"0916292f-c60f-4ec2-a3c5-bb862cec8507","system_id":"levelo_inurba_marseille","lat":43.23183,"lon":5.35567,"is_reserved":false,"is_disabled":false,"rental_uris":{"android":"levelo://app?vid=0916292f-c60f-4ec2-a3c5-bb862cec8507","ios":"levelo://app?vid=0916292f-c60f-4ec2-a3c5-bb862cec8507"},"vehicle_type_id":"4","last_reported":1752934161,"current_range_meters":12000,"station_id":"ce4bhu92rcd13ifvqi70","pricing_plan_id":"cebpf4jnsgd1na2vs0mg"},{"bike_id":"d80e0be5-0a34-476d-a523-c879b414c713","system_id":"levelo_inurba_marseille","lat":43.287277,"lon":5.361014,"is_reserved":false,"is_disabled":false,"rental_uris":{"android":"levelo://app?vid=d80e0be5-0a34-476d-a523-c879b414c713","ios":"levelo://app?vid=d80e0be5-0a34-476d-a523-c879b414c713"},"vehicle_type_id":"4","last_reported":1752934161,"current_range_meters":11600,"station_id":"cki0cbj6b192h4jlfktg","pricing_plan_id":"cebpf4jnsgd1na2vs0mg"},{"bike_id":"e908cf8e-0b5a-4ad4-919e-49d394c9fda9","system_id":"levelo_inurba_marseille","lat":43.276184,"lon":5.36111,"is_reserved":false,"is_disabled":false,"rental_uris":{"android":"levelo://app?vid=e908cf8e-0b5a-4ad4-919e-49d394c9fda9","ios":"levelo://app?vid=e908cf8e-0b5a-4ad4-919e-49d394c9fda9"},"vehicle_type_id":"4","last_reported":1752934161,"current_range_meters":12400,"station_id":"ce4bgj92rcd13ifvqbe0","pricing_plan_id":"cebpf4jnsgd1na2vs0mg"},{"bike_id":"875e79b8-828f-41e0-8e09-6cdd5634f137","system_id":"levelo_inurba_marseille","lat":43.2841,"lon":5.35002,"is_reserved":false,"is_disabled":false,"rental_uris":{"android":"levelo://app?vid=875e79b8-828f-41e0-8e09-6cdd5634f137","ios":"levelo://app?vid=875e79b8-828f-41e0-8e09-6cdd5634f137"},"vehicle_type_id":"4","last_reported":1752934161,"current_range_meters":12400,"station_id":"ce4bhbh2rcd13ifvqepg","pricing_plan_id":"cebpf4jnsgd1na2vs0mg"},{"bike_id":"e6d5270a-e9ff-4f3f-b884-fe058d3ebabd","system_id":"levelo_inurba_marseille","lat":43.2737,"lon":5.36253,"is_reserved":false,"is_disabled":false,"rental_uris":{"android":"levelo://app?vid=e6d5270a-e9ff-4f3f-b884-fe058d3ebabd","ios":"levelo://app?vid=e6d5270a-e9ff-4f3f-b884-fe058d3ebabd"},"vehicle_type_id":"4","last_reported":1752934161,"current_range_meters":12400,"station_id":"ce4bhbh2rcd13ifvqeo0","pricing_plan_id":"cebpf4jnsgd1na2vs0mg"},{"bike_id":"daa8d1a1-cbc7-4fcf-80ba-b72faa918cb2","system_id":"levelo_inurba_marseille","lat":43.284149,"lon":5.349804,"is_reserved":false,"is_disabled":false,"rental_uris":{"android":"levelo://app?vid=daa8d1a1-cbc7-4fcf-80ba-b72faa918cb2","ios":"levelo://app?vid=daa8d1a1-cbc7-4fcf-80ba-b72faa918cb2"},"vehicle_type_id":"4","last_reported":1752934161,"current_range_meters":12400,"station_id":"ce4bhbh2rcd13ifvqepg","pricing_plan_id":"cebpf4jnsgd1na2vs0mg"},{"bike_id":"6f0aee91-6a71-428e-90c3-1991d8459835","system_id":"levelo_inurba_marseille","lat":43.2958,"lon":5.36744,"is_reserved":false,"is_disabled":false,"rental_uris":{"android":"levelo://app?vid=6f0aee91-6a71-428e-90c3-1991d8459835","ios":"levelo://app?vid=6f0aee91-6a71-428e-90c3-1991d8459835"},"vehicle_type_id":"4","last_reported":1752934161,"current_range_meters":12400,"station_id":"ce4bgph2rcd13ifvqc2g","pricing_plan_id":"cebpf4jnsgd1na2vs0mg"},{"bike_id":"96579d04-b9e9-484c-9b9a-af500e5e8552","system_id":"levelo_inurba_marseille","lat":43.32672,"lon":5.36398,"is_reserved":false,"is_disabled":false,"rental_uris":{"android":"levelo://app?vid=96579d04-b9e9-484c-9b9a-af500e5e8552","ios":"levelo://app?vid=96579d04-b9e9-484c-9b9a-af500e5e8552"},"vehicle_type_id":"4","last_reported":1752934161,"current_range_meters":12400,"station_id":"","pricing_plan_id":"cebpf4jnsgd1na2vs0mg"},{"bike_id":"3605d35d-f5f1-4b8c-9045-b89ed08529ba","system_id":"levelo_inurba_marseille","lat":43.28259,"lon":5.35072,"is_reserved":false,"is_disabled":false,"rental_uris":{"android":"levelo://app?vid=3605d35d-f5f1-4b8c-9045-b89ed08529ba","ios":"levelo://app?vid=3605d35d-f5f1-4b8c-9045-b89ed08529ba"},"vehicle_type_id":"4","last_reported":1752934161,"current_range_meters":12400,"station_id":"ce4bhbp2rcd13ifvqerg","pricing_plan_id":"cebpf4jnsgd1na2vs0mg"},{"bike_id":"d52daa74-9ca8-4aa1-9e01-a14e51f8d7fb","system_id":"levelo_inurba_marseille","lat":43.288985,"lon":5.395253,"is_reserved":false,"is_disabled":false,"rental_uris":{"android":"levelo://app?vid=d52daa74-9ca8-4aa1-9e01-a14e51f8d7fb","ios":"levelo://app?vid=d52daa74-9ca8-4aa1-9e01-a14e51f8d7fb"},"vehicle_type_id":"4","last_reported":1752934161,"current_range_meters":12800,"station_id":"ce4bh3h2rcd13ifvqdn0","pricing_plan_id":"cebpf4jnsgd1na2vs0mg"},{"bike_id":"d9749d8f-7121-4a45-ac25-8f48b28876d4","system_id":"levelo_inurba_marseille","lat":43.28088,"lon":5.35205,"is_reserved":false,"is_disabled":false,"rental_uris":{"android":"levelo://app?vid=d9749d8f-7121-4a45-ac25-8f48b28876d4","ios":"levelo://app?vid=d9749d8f-7121-4a45-ac25-8f48b28876d4"},"vehicle_type_id":"4","last_reported":1752934161,"current_range_meters":12800,"station_id":"","pricing_plan_id":"cebpf4jnsgd1na2vs0mg"},{"bike_id":"2664bd7f-74a1-4d51-82ce-3a6a7a10b17a","system_id":"levelo_inurba_marseille","lat":43.308003,"lon":5.435276,"is_reserved":false,"is_disabled":false,"rental_uris":{"android":"levelo://app?vid=2664bd7f-74a1-4d51-82ce-3a6a7a10b17a","ios":"levelo://app?vid=2664bd7f-74a1-4d51-82ce-3a6a7a10b17a"},"vehicle_type_id":"4","last_reported":1752934161,"current_range_meters":12800,"station_id":"ce4bhph2rcd13ifvqheg","pricing_plan_id":"cebpf4jnsgd1na2vs0mg"},{"bike_id":"33bac182-6828-4af8-add6-001313625a78","system_id":"levelo_inurba_marseille","lat":43.29969,"lon":5.38505,"is_reserved":false,"is_disabled":false,"rental_uris":{"android":"levelo://app?vid=33bac182-6828-4af8-add6-001313625a78","ios":"levelo://app?vid=33bac182-6828-4af8-add6-001313625a78"},"vehicle_type_id":"4","last_reported":1752934161,"current_range_meters":12800,"station_id":"ce4bgj92rcd13ifvqbd0","pricing_plan_id":"cebpf4jnsgd1na2vs0mg"},{"bike_id":"934a7868-275a-4b85-8748-0f4af0008f6c","system_id":"levelo_inurba_marseille","lat":43.23059,"lon":5.35492,"is_reserved":false,"is_disabled":false,"rental_uris":{"android":"levelo://app?vid=934a7868-275a-4b85-8748-0f4af0008f6c","ios":"levelo://app?vid=934a7868-275a-4b85-8748-0f4af0008f6c"},"vehicle_type_id":"4","last_reported":1752934161,"current_range_meters":12800,"station_id":"cpo3342slgdg3j2ifvpg","pricing_plan_id":"cebpf4jnsgd1na2vs0mg"},{"bike_id":"ec24e56d-5a6e-4267-b1f2-c196aaddc297","system_id":"levelo_inurba_marseille","lat":43.26196,"lon":5.37447,"is_reserved":false,"is_disabled":false,"rental_uris":{"android":"levelo://app?vid=ec24e56d-5a6e-4267-b1f2-c196aaddc297","ios":"levelo://app?vid=ec24e56d-5a6e-4267-b1f2-c196aaddc297"},"vehicle_type_id":"4","last_reported":1752934161,"current_range_meters":12800,"station_id":"ce4bhgp2rcd13ifvqfc0","pricing_plan_id":"cebpf4jnsgd1na2vs0mg"},{"bike_id":"94c07cb2-0943-4d24-99f2-97bdab47aa3f","system_id":"levelo_inurba_marseille","lat":43.337444,"lon":5.374475,"is_reserved":false,"is_disabled":false,"rental_uris":{"android":"levelo://app?vid=94c07cb2-0943-4d24-99f2-97bdab47aa3f","ios":"levelo://app?vid=94c07cb2-0943-4d24-99f2-97bdab47aa3f"},"vehicle_type_id":"4","last_reported":1752934161,"current_range_meters":12800,"station_id":"","pricing_plan_id":"cebpf4jnsgd1na2vs0mg"},{"bike_id":"8350003f-2999-433d-9ad9-923cf70c187e","system_id":"levelo_inurba_marseille","lat":43.29868,"lon":5.39734,"is_reserved":false,"is_disabled":false,"rental_uris":{"android":"levelo://app?vid=8350003f-2999-433d-9ad9-923cf70c187e","ios":"levelo://app?vid=8350003f-2999-433d-9ad9-923cf70c187e"},"vehicle_type_id":"4","last_reported":1752934161,"current_range_meters":13600,"station_id":"","pricing_plan_id":"cebpf4jnsgd1na2vs0mg"},{"bike_id":"9b23bb4d-56e9-4edf-8942-b183d6d94fcb","system_id":"levelo_inurba_marseille","lat":43.27376,"lon":5.36253,"is_reserved":false,"is_disabled":false,"rental_uris":{"android":"levelo://app?vid=9b23bb4d-56e9-4edf-8942-b183d6d94fcb","ios":"levelo://app?vid=9b23bb4d-56e9-4edf-8942-b183d6d94fcb"},"vehicle_type_id":"4","last_reported":1752934161,"current_range_meters":13600,"station_id":"ce4bhbh2rcd13ifvqeo0","pricing_plan_id":"cebpf4jnsgd1na2vs0mg"},{"bike_id":"5cdecdf5-c02a-4a31-a82c-eaf7b07bc2ca","system_id":"levelo_inurba_marseille","lat":43.27373,"lon":5.36255,"is_reserved":false,"is_disabled":false,"rental_uris":{"android":"levelo://app?vid=5cdecdf5-c02a-4a31-a82c-eaf7b07bc2ca","ios":"levelo://app?vid=5cdecdf5-c02a-4a31-a82c-eaf7b07bc2ca"},"vehicle_type_id":"4","last_reported":1752934161,"current_range_meters":13600,"station_id":"ce4bhbh2rcd13ifvqeo0","pricing_plan_id":"cebpf4jnsgd1na2vs0mg"},{"bike_id":"f21cb840-66bd-4f0e-aedc-e7634fea6388","system_id":"levelo_inurba_marseille","lat":43.2417,"lon":5.36397,"is_reserved":false,"is_disabled":false,"rental_uris":{"android":"levelo://app?vid=f21cb840-66bd-4f0e-aedc-e7634fea6388","ios":"levelo://app?vid=f21cb840-66bd-4f0e-aedc-e7634fea6388"},"vehicle_type_id":"4","last_reported":1752934161,"current_range_meters":13600,"station_id":"","pricing_plan_id":"cebpf4jnsgd1na2vs0mg"},{"bike_id":"d1675cc2-8800-46b3-8968-2965f8e11594","system_id":"levelo_inurba_marseille","lat":43.2293,"lon":5.35445,"is_reserved":false,"is_disabled":false,"rental_uris":{"android":"levelo://app?vid=d1675cc2-8800-46b3-8968-2965f8e11594","ios":"levelo://app?vid=d1675cc2-8800-46b3-8968-2965f8e11594"},"vehicle_type_id":"4","last_reported":1752934161,"current_range_meters":14000,"station_id":"cpo3532slgdg3j2ikp40","pricing_plan_id":"cebpf4jnsgd1na2vs0mg"},{"bike_id":"1ed98cb2-3f29-4eb4-9828-350ae6a3855e","system_id":"levelo_inurba_marseille","lat":43.29582,"lon":5.36734,"is_reserved":false,"is_disabled":false,"rental_uris":{"android":"levelo://app?vid=1ed98cb2-3f29-4eb4-9828-350ae6a3855e","ios":"levelo://app?vid=1ed98cb2-3f29-4eb4-9828-350ae6a3855e"},"vehicle_type_id":"4","last_reported":1752934161,"current_range_meters":14000,"station_id":"ce4bgph2rcd13ifvqc2g","pricing_plan_id":"cebpf4jnsgd1na2vs0mg"},{"bike_id":"a4609d5e-155a-4112-bf5e-3799933ef60f","system_id":"levelo_inurba_marseille","lat":43.29896,"lon":5.38895,"is_reserved":false,"is_disabled":false,"rental_uris":{"android":"levelo://app?vid=a4609d5e-155a-4112-bf5e-3799933ef60f","ios":"levelo://app?vid=a4609d5e-155a-4112-bf5e-3799933ef60f"},"vehicle_type_id":"4","last_reported":1752934161,"current_range_meters":14000,"station_id":"ce4bh392rcd13ifvqdl0","pricing_plan_id":"cebpf4jnsgd1na2vs0mg"},{"bike_id":"0fd02cf6-67fb-4589-807f-241dd50b7e1a","system_id":"levelo_inurba_marseille","lat":43.299,"lon":5.4367,"is_reserved":false,"is_disabled":true,"rental_uris":{"android":"levelo://app?vid=0fd02cf6-67fb-4589-807f-241dd50b7e1a","ios":"levelo://app?vid=0fd02cf6-67fb-4589-807f-241dd50b7e1a"},"vehicle_type_id":"4","last_reported":1752934161,"current_range_meters":14000,"station_id":"ce4bhpp2rcd13ifvqhfg","pricing_plan_id":"cebpf4jnsgd1na2vs0mg"},{"bike_id":"a2166f35-4101-4a1d-a550-836930dc4a0c","system_id":"levelo_inurba_marseille","lat":43.29279,"lon":5.37631,"is_reserved":false,"is_disabled":false,"rental_uris":{"android":"levelo://app?vid=a2166f35-4101-4a1d-a550-836930dc4a0c","ios":"levelo://app?vid=a2166f35-4101-4a1d-a550-836930dc4a0c"},"vehicle_type_id":"4","last_reported":1752934161,"current_range_meters":14000,"station_id":"ce4bgi12rcd13ifvqb80","pricing_plan_id":"cebpf4jnsgd1na2vs0mg"},{"bike_id":"b970126c-c1c3-439a-8880-44ad88bd90cf","system_id":"levelo_inurba_marseille","lat":43.321095,"lon":5.36785,"is_reserved":false,"is_disabled":false,"rental_uris":{"android":"levelo://app?vid=b970126c-c1c3-439a-8880-44ad88bd90cf","ios":"levelo://app?vid=b970126c-c1c3-439a-8880-44ad88bd90cf"},"vehicle_type_id":"4","last_reported":1752934161,"current_range_meters":14000,"station_id":"ce4bhrh2rcd13ifvqhug","pricing_plan_id":"cebpf4jnsgd1na2vs0mg"},{"bike_id":"7360b2c1-827d-4a45-ba07-948ef7d2fc35","system_id":"levelo_inurba_marseille","lat":43.229295,"lon":5.353761,"is_reserved":false,"is_disabled":false,"rental_uris":{"android":"levelo://app?vid=7360b2c1-827d-4a45-ba07-948ef7d2fc35","ios":"levelo://app?vid=7360b2c1-827d-4a45-ba07-948ef7d2fc35"},"vehicle_type_id":"4","last_reported":1752934161,"current_range_meters":14000,"station_id":"","pricing_plan_id":"cebpf4jnsgd1na2vs0mg"},{"bike_id":"9eee562f-c74b-4c1a-8fa0-1792764207de","system_id":"levelo_inurba_marseille","lat":43.25498,"lon":5.37656,"is_reserved":false,"is_disabled":false,"rental_uris":{"android":"levelo://app?vid=9eee562f-c74b-4c1a-8fa0-1792764207de","ios":"levelo://app?vid=9eee562f-c74b-4c1a-8fa0-1792764207de"},"vehicle_type_id":"4","last_reported":1752934161,"current_range_meters":14400,"station_id":"ce4bhh12rcd13ifvqff0","pricing_plan_id":"cebpf4jnsgd1na2vs0mg"},{"bike_id":"977026fc-c1b4-4def-be0a-4e99c39bea4f","system_id":"levelo_inurba_marseille","lat":43.28294,"lon":5.35077,"is_reserved":false,"is_disabled":false,"rental_uris":{"android":"levelo://app?vid=977026fc-c1b4-4def-be0a-4e99c39bea4f","ios":"levelo://app?vid=977026fc-c1b4-4def-be0a-4e99c39bea4f"},"vehicle_type_id":"4","last_reported":1752934161,"current_range_meters":14400,"station_id":"ce4bhbp2rcd13ifvqerg","pricing_plan_id":"cebpf4jnsgd1na2vs0mg"},{"bike_id":"11966f8e-0575-4f1b-bb8e-ce9d4c9316fd","system_id":"levelo_inurba_marseille","lat":43.30603,"lon":5.37243,"is_reserved":false,"is_disabled":false,"rental_uris":{"android":"levelo://app?vid=11966f8e-0575-4f1b-bb8e-ce9d4c9316fd","ios":"levelo://app?vid=11966f8e-0575-4f1b-bb8e-ce9d4c9316fd"},"vehicle_type_id":"4","last_reported":1752934161,"current_range_meters":14400,"station_id":"ce4bgqh2rcd13ifvqc4g","pricing_plan_id":"cebpf4jnsgd1na2vs0mg"},{"bike_id":"f4355822-87e3-4d1e-af5a-5bc503addb43","system_id":"levelo_inurba_marseille","lat":43.27928,"lon":5.38011,"is_reserved":false,"is_disabled":false,"rental_uris":{"android":"levelo://app?vid=f4355822-87e3-4d1e-af5a-5bc503addb43","ios":"levelo://app?vid=f4355822-87e3-4d1e-af5a-5bc503addb43"},"vehicle_type_id":"4","last_reported":1752934161,"current_range_meters":14400,"station_id":"ce4bhf92rcd13ifvqf50","pricing_plan_id":"cebpf4jnsgd1na2vs0mg"},{"bike_id":"005ae5a4-924d-4dd0-85f4-d257013a0c89","system_id":"levelo_inurba_marseille","lat":43.30543,"lon":5.36568,"is_reserved":false,"is_disabled":false,"rental_uris":{"android":"levelo://app?vid=005ae5a4-924d-4dd0-85f4-d257013a0c89","ios":"levelo://app?vid=005ae5a4-924d-4dd0-85f4-d257013a0c89"},"vehicle_type_id":"4","last_reported":1752934161,"current_range_meters":14400,"station_id":"ce4bgs12rcd13ifvqcag","pricing_plan_id":"cebpf4jnsgd1na2vs0mg"},{"bike_id":"8f356e9b-84e4-4da0-abdc-d7894fa26e28","system_id":"levelo_inurba_marseille","lat":43.29262,"lon":5.40911,"is_reserved":false,"is_disabled":false,"rental_uris":{"android":"levelo://app?vid=8f356e9b-84e4-4da0-abdc-d7894fa26e28","ios":"levelo://app?vid=8f356e9b-84e4-4da0-abdc-d7894fa26e28"},"vehicle_type_id":"4","last_reported":1752934161,"current_range_meters":14400,"station_id":"ce4bh192rcd13ifvqdc0","pricing_plan_id":"cebpf4jnsgd1na2vs0mg"},{"bike_id":"e79d8b02-29cd-4d27-af63-e865f8a281ed","system_id":"levelo_inurba_marseille","lat":43.23189,"lon":5.3556,"is_reserved":false,"is_disabled":false,"rental_uris":{"android":"levelo://app?vid=e79d8b02-29cd-4d27-af63-e865f8a281ed","ios":"levelo://app?vid=e79d8b02-29cd-4d27-af63-e865f8a281ed"},"vehicle_type_id":"4","last_reported":1752934161,"current_range_meters":14800,"station_id":"ce4bhu92rcd13ifvqi70","pricing_plan_id":"cebpf4jnsgd1na2vs0mg"},{"bike_id":"77e5d396-9f38-43c2-ae33-ac1f85df337d","system_id":"levelo_inurba_marseille","lat":43.29551,"lon":5.42272,"is_reserved":false,"is_disabled":false,"rental_uris":{"android":"levelo://app?vid=77e5d396-9f38-43c2-ae33-ac1f85df337d","ios":"levelo://app?vid=77e5d396-9f38-43c2-ae33-ac1f85df337d"},"vehicle_type_id":"4","last_reported":1752934161,"current_range_meters":14800,"station_id":"ce4bhph2rcd13ifvqhdg","pricing_plan_id":"cebpf4jnsgd1na2vs0mg"},{"bike_id":"e3f8f23c-d761-4a68-94d1-d96c312ee3e7","system_id":"levelo_inurba_marseille","lat":43.24064,"lon":5.37722,"is_reserved":false,"is_disabled":false,"rental_uris":{"android":"levelo://app?vid=e3f8f23c-d761-4a68-94d1-d96c312ee3e7","ios":"levelo://app?vid=e3f8f23c-d761-4a68-94d1-d96c312ee3e7"},"vehicle_type_id":"4","last_reported":1752934161,"current_range_meters":14800,"station_id":"ce4bhnp2rcd13ifvqgvg","pricing_plan_id":"cebpf4jnsgd1na2vs0mg"},{"bike_id":"d1e9c72e-7489-4052-b944-813b64bc55b4","system_id":"levelo_inurba_marseille","lat":43.31593,"lon":5.38935,"is_reserved":false,"is_disabled":false,"rental_uris":{"android":"levelo://app?vid=d1e9c72e-7489-4052-b944-813b64bc55b4","ios":"levelo://app?vid=d1e9c72e-7489-4052-b944-813b64bc55b4"},"vehicle_type_id":"4","last_reported":1752934161,"current_range_meters":14800,"station_id":"","pricing_plan_id":"cebpf4jnsgd1na2vs0mg"},{"bike_id":"43481509-b428-4f64-9eed-504abc2dc6ea","system_id":"levelo_inurba_marseille","lat":43.26219,"lon":5.37445,"is_reserved":false,"is_disabled":false,"rental_uris":{"android":"levelo://app?vid=43481509-b428-4f64-9eed-504abc2dc6ea","ios":"levelo://app?vid=43481509-b428-4f64-9eed-504abc2dc6ea"},"vehicle_type_id":"4","last_reported":1752934161,"current_range_meters":14800,"station_id":"ce4bhgp2rcd13ifvqfc0","pricing_plan_id":"cebpf4jnsgd1na2vs0mg"},{"bike_id":"f760b6b4-2428-41f7-926c-eff8b1e3d871","system_id":"levelo_inurba_marseille","lat":43.28622,"lon":5.35099,"is_reserved":false,"is_disabled":false,"rental_uris":{"android":"levelo://app?vid=f760b6b4-2428-41f7-926c-eff8b1e3d871","ios":"levelo://app?vid=f760b6b4-2428-41f7-926c-eff8b1e3d871"},"vehicle_type_id":"4","last_reported":1752934161,"current_range_meters":14800,"station_id":"ce4bhch2rcd13ifvqeug","pricing_plan_id":"cebpf4jnsgd1na2vs0mg"},{"bike_id":"fdbeb289-adb3-4e25-b0dd-c635efbe92b2","system_id":"levelo_inurba_marseille","lat":43.31699,"lon":5.4045,"is_reserved":false,"is_disabled":false,"rental_uris":{"android":"levelo://app?vid=fdbeb289-adb3-4e25-b0dd-c635efbe92b2","ios":"levelo://app?vid=fdbeb289-adb3-4e25-b0dd-c635efbe92b2"},"vehicle_type_id":"4","last_reported":1752934161,"current_range_meters":15200,"station_id":"ce4bh012rcd13ifvqd00","pricing_plan_id":"cebpf4jnsgd1na2vs0mg"},{"bike_id":"6bf6b87d-18d2-4dee-bb8b-deb7f32f6fe7","system_id":"levelo_inurba_marseille","lat":43.217478,"lon":5.346044,"is_reserved":false,"is_disabled":false,"rental_uris":{"android":"levelo://app?vid=6bf6b87d-18d2-4dee-bb8b-deb7f32f6fe7","ios":"levelo://app?vid=6bf6b87d-18d2-4dee-bb8b-deb7f32f6fe7"},"vehicle_type_id":"4","last_reported":1752934161,"current_range_meters":16000,"station_id":"st_cvj6r9ubvosntc0bgbag","pricing_plan_id":"cebpf4jnsgd1na2vs0mg"},{"bike_id":"a54008a8-d6df-4141-9c71-b657434298fc","system_id":"levelo_inurba_marseille","lat":43.31682,"lon":5.4043,"is_reserved":false,"is_disabled":false,"rental_uris":{"android":"levelo://app?vid=a54008a8-d6df-4141-9c71-b657434298fc","ios":"levelo://app?vid=a54008a8-d6df-4141-9c71-b657434298fc"},"vehicle_type_id":"4","last_reported":1752934161,"current_range_meters":16000,"station_id":"ce4bh012rcd13ifvqd00","pricing_plan_id":"cebpf4jnsgd1na2vs0mg"},{"bike_id":"948cc778-4b52-43d4-bd05-9525cc0c3471","system_id":"levelo_inurba_marseille","lat":43.28085,"lon":5.39285,"is_reserved":false,"is_disabled":false,"rental_uris":{"android":"levelo://app?vid=948cc778-4b52-43d4-bd05-9525cc0c3471","ios":"levelo://app?vid=948cc778-4b52-43d4-bd05-9525cc0c3471"},"vehicle_type_id":"4","last_reported":1752934161,"current_range_meters":16000,"station_id":"","pricing_plan_id":"cebpf4jnsgd1na2vs0mg"},{"bike_id":"e122d88a-9b60-4e16-a29e-60ef32a8dad5","system_id":"levelo_inurba_marseille","lat":43.212061,"lon":5.350731,"is_reserved":false,"is_disabled":false,"rental_uris":{"android":"levelo://app?vid=e122d88a-9b60-4e16-a29e-60ef32a8dad5","ios":"levelo://app?vid=e122d88a-9b60-4e16-a29e-60ef32a8dad5"},"vehicle_type_id":"4","last_reported":1752934161,"current_range_meters":16000,"station_id":"st_cvj6sg6p6f1abm77japg","pricing_plan_id":"cebpf4jnsgd1na2vs0mg"},{"bike_id":"3af15fff-642b-4e96-b212-252f7d500246","system_id":"levelo_inurba_marseille","lat":43.2621,"lon":5.37447,"is_reserved":false,"is_disabled":false,"rental_uris":{"android":"levelo://app?vid=3af15fff-642b-4e96-b212-252f7d500246","ios":"levelo://app?vid=3af15fff-642b-4e96-b212-252f7d500246"},"vehicle_type_id":"4","last_reported":1752934161,"current_range_meters":16000,"station_id":"ce4bhgp2rcd13ifvqfc0","pricing_plan_id":"cebpf4jnsgd1na2vs0mg"},{"bike_id":"072d9626-be18-4556-a3f5-056b23bb503d","system_id":"levelo_inurba_marseille","lat":43.28656,"lon":5.36353,"is_reserved":false,"is_disabled":false,"rental_uris":{"android":"levelo://app?vid=072d9626-be18-4556-a3f5-056b23bb503d","ios":"levelo://app?vid=072d9626-be18-4556-a3f5-056b23bb503d"},"vehicle_type_id":"4","last_reported":1752934161,"current_range_meters":16000,"station_id":"ce4bhah2rcd13ifvqej0","pricing_plan_id":"cebpf4jnsgd1na2vs0mg"},{"bike_id":"6a193f41-f336-48d3-a5d0-a6fca3bf067e","system_id":"levelo_inurba_marseille","lat":43.24664,"lon":5.381595,"is_reserved":false,"is_disabled":false,"rental_uris":{"android":"levelo://app?vid=6a193f41-f336-48d3-a5d0-a6fca3bf067e","ios":"levelo://app?vid=6a193f41-f336-48d3-a5d0-a6fca3bf067e"},"vehicle_type_id":"4","last_reported":1752934161,"current_range_meters":16000,"station_id":"ce4bhih2rcd13ifvqfr0","pricing_plan_id":"cebpf4jnsgd1na2vs0mg"},{"bike_id":"05296541-ea5a-4bd9-b0fb-0e7d77e64dfd","system_id":"levelo_inurba_marseille","lat":43.28431,"lon":5.34995,"is_reserved":false,"is_disabled":false,"rental_uris":{"android":"levelo://app?vid=05296541-ea5a-4bd9-b0fb-0e7d77e64dfd","ios":"levelo://app?vid=05296541-ea5a-4bd9-b0fb-0e7d77e64dfd"},"vehicle_type_id":"4","last_reported":1752934161,"current_range_meters":16000,"station_id":"ce4bhbh2rcd13ifvqepg","pricing_plan_id":"cebpf4jnsgd1na2vs0mg"},{"bike_id":"603820f9-76b2-471d-a1fc-f566022def88","system_id":"levelo_inurba_marseille","lat":43.28279,"lon":5.35061,"is_reserved":false,"is_disabled":false,"rental_uris":{"android":"levelo://app?vid=603820f9-76b2-471d-a1fc-f566022def88","ios":"levelo://app?vid=603820f9-76b2-471d-a1fc-f566022def88"},"vehicle_type_id":"4","last_reported":1752934161,"current_range_meters":16000,"station_id":"ce4bhbp2rcd13ifvqerg","pricing_plan_id":"cebpf4jnsgd1na2vs0mg"},{"bike_id":"057b79cb-dc67-40f9-a206-70fad59f2226","system_id":"levelo_inurba_marseille","lat":43.282689,"lon":5.350621,"is_reserved":false,"is_disabled":false,"rental_uris":{"android":"levelo://app?vid=057b79cb-dc67-40f9-a206-70fad59f2226","ios":"levelo://app?vid=057b79cb-dc67-40f9-a206-70fad59f2226"},"vehicle_type_id":"4","last_reported":1752934161,"current_range_meters":16400,"station_id":"ce4bhbp2rcd13ifvqerg","pricing_plan_id":"cebpf4jnsgd1na2vs0mg"},{"bike_id":"c04f4d0e-09c8-4656-9c87-195fcc2f8942","system_id":"levelo_inurba_marseille","lat":43.2842,"lon":5.35002,"is_reserved":false,"is_disabled":false,"rental_uris":{"android":"levelo://app?vid=c04f4d0e-09c8-4656-9c87-195fcc2f8942","ios":"levelo://app?vid=c04f4d0e-09c8-4656-9c87-195fcc2f8942"},"vehicle_type_id":"4","last_reported":1752934161,"current_range_meters":16400,"station_id":"ce4bhbh2rcd13ifvqepg","pricing_plan_id":"cebpf4jnsgd1na2vs0mg"},{"bike_id":"d421927e-7ddd-40a0-904f-5b4ff0266a72","system_id":"levelo_inurba_marseille","lat":43.31885,"lon":5.40177,"is_reserved":false,"is_disabled":false,"rental_uris":{"android":"levelo://app?vid=d421927e-7ddd-40a0-904f-5b4ff0266a72","ios":"levelo://app?vid=d421927e-7ddd-40a0-904f-5b4ff0266a72"},"vehicle_type_id":"4","last_reported":1752934161,"current_range_meters":16400,"station_id":"","pricing_plan_id":"cebpf4jnsgd1na2vs0mg"},{"bike_id":"45dea0eb-918d-49f1-8341-001e35c226f0","system_id":"levelo_inurba_marseille","lat":43.21194,"lon":5.35068,"is_reserved":false,"is_disabled":false,"rental_uris":{"android":"levelo://app?vid=45dea0eb-918d-49f1-8341-001e35c226f0","ios":"levelo://app?vid=45dea0eb-918d-49f1-8341-001e35c226f0"},"vehicle_type_id":"4","last_reported":1752934161,"current_range_meters":16400,"station_id":"st_cvj6sg6p6f1abm77japg","pricing_plan_id":"cebpf4jnsgd1na2vs0mg"},{"bike_id":"cf9f7b6f-b252-45aa-bd41-e7b8a5947e88","system_id":"levelo_inurba_marseille","lat":43.26936,"lon":5.40268,"is_reserved":false,"is_disabled":true,"rental_uris":{"android":"levelo://app?vid=cf9f7b6f-b252-45aa-bd41-e7b8a5947e88","ios":"levelo://app?vid=cf9f7b6f-b252-45aa-bd41-e7b8a5947e88"},"vehicle_type_id":"4","last_reported":1752934161,"current_range_meters":16400,"station_id":"cjm6bp8fraef2m0cb0m0","pricing_plan_id":"cebpf4jnsgd1na2vs0mg"},{"bike_id":"5cfba425-9675-4f12-b163-bb22dbf81ac4","system_id":"levelo_inurba_marseille","lat":43.217468,"lon":5.346025,"is_reserved":false,"is_disabled":false,"rental_uris":{"android":"levelo://app?vid=5cfba425-9675-4f12-b163-bb22dbf81ac4","ios":"levelo://app?vid=5cfba425-9675-4f12-b163-bb22dbf81ac4"},"vehicle_type_id":"4","last_reported":1752934161,"current_range_meters":16400,"station_id":"st_cvj6r9ubvosntc0bgbag","pricing_plan_id":"cebpf4jnsgd1na2vs0mg"},{"bike_id":"a6de290b-5c15-427b-bc37-8301607e1735","system_id":"levelo_inurba_marseille","lat":43.337444,"lon":5.374475,"is_reserved":false,"is_disabled":false,"rental_uris":{"android":"levelo://app?vid=a6de290b-5c15-427b-bc37-8301607e1735","ios":"levelo://app?vid=a6de290b-5c15-427b-bc37-8301607e1735"},"vehicle_type_id":"4","last_reported":1752934161,"current_range_meters":16400,"station_id":"","pricing_plan_id":"cebpf4jnsgd1na2vs0mg"},{"bike_id":"f8d28149-0be3-49af-b50b-a49ad47425b3","system_id":"levelo_inurba_marseille","lat":43.308803,"lon":5.371918,"is_reserved":false,"is_disabled":false,"rental_uris":{"android":"levelo://app?vid=f8d28149-0be3-49af-b50b-a49ad47425b3","ios":"levelo://app?vid=f8d28149-0be3-49af-b50b-a49ad47425b3"},"vehicle_type_id":"4","last_reported":1752934161,"current_range_meters":16400,"station_id":"ce4bguh2rcd13ifvqckg","pricing_plan_id":"cebpf4jnsgd1na2vs0mg"},{"bike_id":"aa1b4cd0-7d11-438f-b4f0-11e59f944232","system_id":"levelo_inurba_marseille","lat":43.21746,"lon":5.34611,"is_reserved":false,"is_disabled":false,"rental_uris":{"android":"levelo://app?vid=aa1b4cd0-7d11-438f-b4f0-11e59f944232","ios":"levelo://app?vid=aa1b4cd0-7d11-438f-b4f0-11e59f944232"},"vehicle_type_id":"4","last_reported":1752934161,"current_range_meters":16400,"station_id":"st_cvj6r9ubvosntc0bgbag","pricing_plan_id":"cebpf4jnsgd1na2vs0mg"},{"bike_id":"83036b03-adb1-418f-ad9f-83b2e4ca32f2","system_id":"levelo_inurba_marseille","lat":43.24145,"lon":5.36418,"is_reserved":false,"is_disabled":false,"rental_uris":{"android":"levelo://app?vid=83036b03-adb1-418f-ad9f-83b2e4ca32f2","ios":"levelo://app?vid=83036b03-adb1-418f-ad9f-83b2e4ca32f2"},"vehicle_type_id":"4","last_reported":1752934161,"current_range_meters":16400,"station_id":"cpo36qri1sfpv3e86is0","pricing_plan_id":"cebpf4jnsgd1na2vs0mg"},{"bike_id":"44e89ad7-16a2-4910-805f-061f2aee5ab7","system_id":"levelo_inurba_marseille","lat":43.23179,"lon":5.35586,"is_reserved":false,"is_disabled":false,"rental_uris":{"android":"levelo://app?vid=44e89ad7-16a2-4910-805f-061f2aee5ab7","ios":"levelo://app?vid=44e89ad7-16a2-4910-805f-061f2aee5ab7"},"vehicle_type_id":"4","last_reported":1752934161,"current_range_meters":16400,"station_id":"ce4bhu92rcd13ifvqi70","pricing_plan_id":"cebpf4jnsgd1na2vs0mg"},{"bike_id":"c563397a-8e95-43de-9482-c447bf9c775e","system_id":"levelo_inurba_marseille","lat":43.29333,"lon":5.41173,"is_reserved":false,"is_disabled":false,"rental_uris":{"android":"levelo://app?vid=c563397a-8e95-43de-9482-c447bf9c775e","ios":"levelo://app?vid=c563397a-8e95-43de-9482-c447bf9c775e"},"vehicle_type_id":"4","last_reported":1752934161,"current_range_meters":16400,"station_id":"","pricing_plan_id":"cebpf4jnsgd1na2vs0mg"},{"bike_id":"edbb41ca-7fd2-416c-85f4-2dd0fe0aa8d8","system_id":"levelo_inurba_marseille","lat":43.273874,"lon":5.3623,"is_reserved":false,"is_disabled":false,"rental_uris":{"android":"levelo://app?vid=edbb41ca-7fd2-416c-85f4-2dd0fe0aa8d8","ios":"levelo://app?vid=edbb41ca-7fd2-416c-85f4-2dd0fe0aa8d8"},"vehicle_type_id":"4","last_reported":1752934161,"current_range_meters":16400,"station_id":"ce4bhbh2rcd13ifvqeo0","pricing_plan_id":"cebpf4jnsgd1na2vs0mg"},{"bike_id":"23d1e1ca-e960-4a56-b589-2c6b92c824bb","system_id":"levelo_inurba_marseille","lat":43.33111,"lon":5.39225,"is_reserved":false,"is_disabled":false,"rental_uris":{"android":"levelo://app?vid=23d1e1ca-e960-4a56-b589-2c6b92c824bb","ios":"levelo://app?vid=23d1e1ca-e960-4a56-b589-2c6b92c824bb"},"vehicle_type_id":"4","last_reported":1752934161,"current_range_meters":16400,"station_id":"","pricing_plan_id":"cebpf4jnsgd1na2vs0mg"},{"bike_id":"5a570911-22d0-41b1-a776-0fe138c4bdc4","system_id":"levelo_inurba_marseille","lat":43.21187,"lon":5.35077,"is_reserved":false,"is_disabled":false,"rental_uris":{"android":"levelo://app?vid=5a570911-22d0-41b1-a776-0fe138c4bdc4","ios":"levelo://app?vid=5a570911-22d0-41b1-a776-0fe138c4bdc4"},"vehicle_type_id":"4","last_reported":1752934161,"current_range_meters":16400,"station_id":"st_cvj6sg6p6f1abm77japg","pricing_plan_id":"cebpf4jnsgd1na2vs0mg"},{"bike_id":"7592d3b0-727d-4107-ba81-a2966cdc2b34","system_id":"levelo_inurba_marseille","lat":43.262157,"lon":5.404454,"is_reserved":false,"is_disabled":false,"rental_uris":{"android":"levelo://app?vid=7592d3b0-727d-4107-ba81-a2966cdc2b34","ios":"levelo://app?vid=7592d3b0-727d-4107-ba81-a2966cdc2b34"},"vehicle_type_id":"4","last_reported":1752934161,"current_range_meters":16400,"station_id":"ce4bhmh2rcd13ifvqgmg","pricing_plan_id":"cebpf4jnsgd1na2vs0mg"},{"bike_id":"7d91d34c-95ba-419a-8d0b-21d2aeaa83ad","system_id":"levelo_inurba_marseille","lat":43.25484,"lon":5.376555,"is_reserved":false,"is_disabled":true,"rental_uris":{"android":"levelo://app?vid=7d91d34c-95ba-419a-8d0b-21d2aeaa83ad","ios":"levelo://app?vid=7d91d34c-95ba-419a-8d0b-21d2aeaa83ad"},"vehicle_type_id":"4","last_reported":1752934161,"current_range_meters":16400,"station_id":"ce4bhh12rcd13ifvqff0","pricing_plan_id":"cebpf4jnsgd1na2vs0mg"},{"bike_id":"1c522f02-0b79-4f13-8656-a28cc4186541","system_id":"levelo_inurba_marseille","lat":43.21754,"lon":5.34607,"is_reserved":false,"is_disabled":false,"rental_uris":{"android":"levelo://app?vid=1c522f02-0b79-4f13-8656-a28cc4186541","ios":"levelo://app?vid=1c522f02-0b79-4f13-8656-a28cc4186541"},"vehicle_type_id":"4","last_reported":1752934161,"current_range_meters":16400,"station_id":"","pricing_plan_id":"cebpf4jnsgd1na2vs0mg"},{"bike_id":"aa36f004-b5d3-4813-a701-2dda3dc28dfe","system_id":"levelo_inurba_marseille","lat":43.28264,"lon":5.35074,"is_reserved":false,"is_disabled":false,"rental_uris":{"android":"levelo://app?vid=aa36f004-b5d3-4813-a701-2dda3dc28dfe","ios":"levelo://app?vid=aa36f004-b5d3-4813-a701-2dda3dc28dfe"},"vehicle_type_id":"4","last_reported":1752934161,"current_range_meters":16800,"station_id":"ce4bhbp2rcd13ifvqerg","pricing_plan_id":"cebpf4jnsgd1na2vs0mg"},{"bike_id":"37914269-1ad7-46c0-9f88-6e27e2bd4d47","system_id":"levelo_inurba_marseille","lat":43.230573,"lon":5.354945,"is_reserved":false,"is_disabled":false,"rental_uris":{"android":"levelo://app?vid=37914269-1ad7-46c0-9f88-6e27e2bd4d47","ios":"levelo://app?vid=37914269-1ad7-46c0-9f88-6e27e2bd4d47"},"vehicle_type_id":"4","last_reported":1752934161,"current_range_meters":16800,"station_id":"cpo3342slgdg3j2ifvpg","pricing_plan_id":"cebpf4jnsgd1na2vs0mg"},{"bike_id":"63c0dcee-ee5e-4dd4-8695-ce32e009da63","system_id":"levelo_inurba_marseille","lat":43.21742,"lon":5.34607,"is_reserved":false,"is_disabled":false,"rental_uris":{"android":"levelo://app?vid=63c0dcee-ee5e-4dd4-8695-ce32e009da63","ios":"levelo://app?vid=63c0dcee-ee5e-4dd4-8695-ce32e009da63"},"vehicle_type_id":"4","last_reported":1752934161,"current_range_meters":16800,"station_id":"st_cvj6r9ubvosntc0bgbag","pricing_plan_id":"cebpf4jnsgd1na2vs0mg"},{"bike_id":"0a31cf9a-cd51-4e6b-aab8-06ea9749282f","system_id":"levelo_inurba_marseille","lat":43.295,"lon":5.37524,"is_reserved":false,"is_disabled":false,"rental_uris":{"android":"levelo://app?vid=0a31cf9a-cd51-4e6b-aab8-06ea9749282f","ios":"levelo://app?vid=0a31cf9a-cd51-4e6b-aab8-06ea9749282f"},"vehicle_type_id":"4","last_reported":1752934161,"current_range_meters":25200,"station_id":"ce4bgkp2rcd13ifvqbmg","pricing_plan_id":"cebpf4jnsgd1na2vs0mg"},{"bike_id":"2d3e5adb-6ba8-4df7-be40-e52a630e3667","system_id":"levelo_inurba_marseille","lat":43.24084,"lon":5.37751,"is_reserved":false,"is_disabled":false,"rental_uris":{"android":"levelo://app?vid=2d3e5adb-6ba8-4df7-be40-e52a630e3667","ios":"levelo://app?vid=2d3e5adb-6ba8-4df7-be40-e52a630e3667"},"vehicle_type_id":"4","last_reported":1752934161,"current_range_meters":16800,"station_id":"ce4bhnp2rcd13ifvqgvg","pricing_plan_id":"cebpf4jnsgd1na2vs0mg"},{"bike_id":"f64d4495-c6c3-4047-b421-2e9c29951567","system_id":"levelo_inurba_marseille","lat":43.22522,"lon":5.34771,"is_reserved":false,"is_disabled":false,"rental_uris":{"android":"levelo://app?vid=f64d4495-c6c3-4047-b421-2e9c29951567","ios":"levelo://app?vid=f64d4495-c6c3-4047-b421-2e9c29951567"},"vehicle_type_id":"4","last_reported":1752934161,"current_range_meters":16800,"station_id":"st_cvj5dfep6f1abm77gieg","pricing_plan_id":"cebpf4jnsgd1na2vs0mg"},{"bike_id":"9f00b516-2e6c-49ff-b45a-2a85d3e69abf","system_id":"levelo_inurba_marseille","lat":43.29262,"lon":5.39148,"is_reserved":false,"is_disabled":false,"rental_uris":{"android":"levelo://app?vid=9f00b516-2e6c-49ff-b45a-2a85d3e69abf","ios":"levelo://app?vid=9f00b516-2e6c-49ff-b45a-2a85d3e69abf"},"vehicle_type_id":"4","last_reported":1752934161,"current_range_meters":16800,"station_id":"","pricing_plan_id":"cebpf4jnsgd1na2vs0mg"},{"bike_id":"4a2af6fb-f040-4dff-9ff5-d70c4f952e83","system_id":"levelo_inurba_marseille","lat":43.315124,"lon":5.373081,"is_reserved":false,"is_disabled":false,"rental_uris":{"android":"levelo://app?vid=4a2af6fb-f040-4dff-9ff5-d70c4f952e83","ios":"levelo://app?vid=4a2af6fb-f040-4dff-9ff5-d70c4f952e83"},"vehicle_type_id":"4","last_reported":1752934161,"current_range_meters":16800,"station_id":"ce4bgt12rcd13ifvqcd0","pricing_plan_id":"cebpf4jnsgd1na2vs0mg"},{"bike_id":"2060869b-d87e-4c30-8864-6b1d75522919","system_id":"levelo_inurba_marseille","lat":43.29895,"lon":5.43677,"is_reserved":false,"is_disabled":false,"rental_uris":{"android":"levelo://app?vid=2060869b-d87e-4c30-8864-6b1d75522919","ios":"levelo://app?vid=2060869b-d87e-4c30-8864-6b1d75522919"},"vehicle_type_id":"4","last_reported":1752934161,"current_range_meters":16800,"station_id":"ce4bhpp2rcd13ifvqhfg","pricing_plan_id":"cebpf4jnsgd1na2vs0mg"},{"bike_id":"3c42450a-6572-4dd7-b5cc-1ac417a0da8c","system_id":"levelo_inurba_marseille","lat":43.30543,"lon":5.36562,"is_reserved":false,"is_disabled":false,"rental_uris":{"android":"levelo://app?vid=3c42450a-6572-4dd7-b5cc-1ac417a0da8c","ios":"levelo://app?vid=3c42450a-6572-4dd7-b5cc-1ac417a0da8c"},"vehicle_type_id":"4","last_reported":1752934161,"current_range_meters":16800,"station_id":"ce4bgs12rcd13ifvqcag","pricing_plan_id":"cebpf4jnsgd1na2vs0mg"},{"bike_id":"f4a58f62-b828-4cda-b4f9-1493df6c9b02","system_id":"levelo_inurba_marseille","lat":43.21222,"lon":5.35069,"is_reserved":false,"is_disabled":false,"rental_uris":{"android":"levelo://app?vid=f4a58f62-b828-4cda-b4f9-1493df6c9b02","ios":"levelo://app?vid=f4a58f62-b828-4cda-b4f9-1493df6c9b02"},"vehicle_type_id":"4","last_reported":1752934161,"current_range_meters":16800,"station_id":"st_cvj6sg6p6f1abm77japg","pricing_plan_id":"cebpf4jnsgd1na2vs0mg"},{"bike_id":"d6a83b06-3bc5-404d-bac1-410292dc7b08","system_id":"levelo_inurba_marseille","lat":43.28272,"lon":5.35061,"is_reserved":false,"is_disabled":false,"rental_uris":{"android":"levelo://app?vid=d6a83b06-3bc5-404d-bac1-410292dc7b08","ios":"levelo://app?vid=d6a83b06-3bc5-404d-bac1-410292dc7b08"},"vehicle_type_id":"4","last_reported":1752934161,"current_range_meters":16800,"station_id":"ce4bhbp2rcd13ifvqerg","pricing_plan_id":"cebpf4jnsgd1na2vs0mg"},{"bike_id":"7150d82d-0aae-4240-81f3-e459b8173dde","system_id":"levelo_inurba_marseille","lat":43.284149,"lon":5.349733,"is_reserved":false,"is_disabled":false,"rental_uris":{"android":"levelo://app?vid=7150d82d-0aae-4240-81f3-e459b8173dde","ios":"levelo://app?vid=7150d82d-0aae-4240-81f3-e459b8173dde"},"vehicle_type_id":"4","last_reported":1752934161,"current_range_meters":17200,"station_id":"ce4bhbh2rcd13ifvqepg","pricing_plan_id":"cebpf4jnsgd1na2vs0mg"},{"bike_id":"be2fb6b8-f9f1-4e24-8d7a-ce43be2126d1","system_id":"levelo_inurba_marseille","lat":43.21748,"lon":5.34614,"is_reserved":false,"is_disabled":false,"rental_uris":{"android":"levelo://app?vid=be2fb6b8-f9f1-4e24-8d7a-ce43be2126d1","ios":"levelo://app?vid=be2fb6b8-f9f1-4e24-8d7a-ce43be2126d1"},"vehicle_type_id":"4","last_reported":1752934161,"current_range_meters":17200,"station_id":"st_cvj6r9ubvosntc0bgbag","pricing_plan_id":"cebpf4jnsgd1na2vs0mg"},{"bike_id":"0ac9b427-819d-4139-8162-77866abdf07d","system_id":"levelo_inurba_marseille","lat":43.24673,"lon":5.38888,"is_reserved":false,"is_disabled":false,"rental_uris":{"android":"levelo://app?vid=0ac9b427-819d-4139-8162-77866abdf07d","ios":"levelo://app?vid=0ac9b427-819d-4139-8162-77866abdf07d"},"vehicle_type_id":"4","last_reported":1752934161,"current_range_meters":17200,"station_id":"ce4bhg12rcd13ifvqf60","pricing_plan_id":"cebpf4jnsgd1na2vs0mg"},{"bike_id":"f734d1ab-e95f-49df-a640-db407264fdd1","system_id":"levelo_inurba_marseille","lat":43.29556,"lon":5.37522,"is_reserved":false,"is_disabled":false,"rental_uris":{"android":"levelo://app?vid=f734d1ab-e95f-49df-a640-db407264fdd1","ios":"levelo://app?vid=f734d1ab-e95f-49df-a640-db407264fdd1"},"vehicle_type_id":"4","last_reported":1752934161,"current_range_meters":17200,"station_id":"ce4bgh92rcd13ifvqb50","pricing_plan_id":"cebpf4jnsgd1na2vs0mg"},{"bike_id":"11ea5895-a213-41fe-91ae-f803662e0eee","system_id":"levelo_inurba_marseille","lat":43.23059,"lon":5.35487,"is_reserved":false,"is_disabled":false,"rental_uris":{"android":"levelo://app?vid=11ea5895-a213-41fe-91ae-f803662e0eee","ios":"levelo://app?vid=11ea5895-a213-41fe-91ae-f803662e0eee"},"vehicle_type_id":"4","last_reported":1752934161,"current_range_meters":17200,"station_id":"cpo3342slgdg3j2ifvpg","pricing_plan_id":"cebpf4jnsgd1na2vs0mg"},{"bike_id":"da638979-eb76-459c-bb25-3a3d7067b9ec","system_id":"levelo_inurba_marseille","lat":43.24653,"lon":5.38892,"is_reserved":false,"is_disabled":false,"rental_uris":{"android":"levelo://app?vid=da638979-eb76-459c-bb25-3a3d7067b9ec","ios":"levelo://app?vid=da638979-eb76-459c-bb25-3a3d7067b9ec"},"vehicle_type_id":"4","last_reported":1752934161,"current_range_meters":17200,"station_id":"ce4bhg12rcd13ifvqf60","pricing_plan_id":"cebpf4jnsgd1na2vs0mg"},{"bike_id":"50817c71-c433-41db-8588-f3f5b56e9306","system_id":"levelo_inurba_marseille","lat":43.225037,"lon":5.347825,"is_reserved":false,"is_disabled":false,"rental_uris":{"android":"levelo://app?vid=50817c71-c433-41db-8588-f3f5b56e9306","ios":"levelo://app?vid=50817c71-c433-41db-8588-f3f5b56e9306"},"vehicle_type_id":"4","last_reported":1752934161,"current_range_meters":17200,"station_id":"st_cvj5dfep6f1abm77gieg","pricing_plan_id":"cebpf4jnsgd1na2vs0mg"},{"bike_id":"8cd4a7fd-f0fe-4c0b-8398-eaedf409fc8a","system_id":"levelo_inurba_marseille","lat":43.23176,"lon":5.39998,"is_reserved":false,"is_disabled":false,"rental_uris":{"android":"levelo://app?vid=8cd4a7fd-f0fe-4c0b-8398-eaedf409fc8a","ios":"levelo://app?vid=8cd4a7fd-f0fe-4c0b-8398-eaedf409fc8a"},"vehicle_type_id":"4","last_reported":1752934161,"current_range_meters":17200,"station_id":"ce4bhn12rcd13ifvqgqg","pricing_plan_id":"cebpf4jnsgd1na2vs0mg"},{"bike_id":"e0c20feb-b9f2-4290-80b8-5befa4be058c","system_id":"levelo_inurba_marseille","lat":43.298427,"lon":5.362987,"is_reserved":false,"is_disabled":false,"rental_uris":{"android":"levelo://app?vid=e0c20feb-b9f2-4290-80b8-5befa4be058c","ios":"levelo://app?vid=e0c20feb-b9f2-4290-80b8-5befa4be058c"},"vehicle_type_id":"4","last_reported":1752934161,"current_range_meters":17200,"station_id":"ce4bgpp2rcd13ifvqc3g","pricing_plan_id":"cebpf4jnsgd1na2vs0mg"},{"bike_id":"4756c3e0-fc87-4647-b159-7725acd8ef8b","system_id":"levelo_inurba_marseille","lat":43.217489,"lon":5.346042,"is_reserved":false,"is_disabled":false,"rental_uris":{"android":"levelo://app?vid=4756c3e0-fc87-4647-b159-7725acd8ef8b","ios":"levelo://app?vid=4756c3e0-fc87-4647-b159-7725acd8ef8b"},"vehicle_type_id":"4","last_reported":1752934161,"current_range_meters":17600,"station_id":"st_cvj6r9ubvosntc0bgbag","pricing_plan_id":"cebpf4jnsgd1na2vs0mg"},{"bike_id":"6fb131dd-8bae-4bc0-b0c0-17992306572f","system_id":"levelo_inurba_marseille","lat":43.295542,"lon":5.422825,"is_reserved":false,"is_disabled":false,"rental_uris":{"android":"levelo://app?vid=6fb131dd-8bae-4bc0-b0c0-17992306572f","ios":"levelo://app?vid=6fb131dd-8bae-4bc0-b0c0-17992306572f"},"vehicle_type_id":"4","last_reported":1752934161,"current_range_meters":17600,"station_id":"ce4bhph2rcd13ifvqhdg","pricing_plan_id":"cebpf4jnsgd1na2vs0mg"},{"bike_id":"d01966a7-5e23-40f7-8323-4d6534e79969","system_id":"levelo_inurba_marseille","lat":43.22925,"lon":5.35395,"is_reserved":false,"is_disabled":false,"rental_uris":{"android":"levelo://app?vid=d01966a7-5e23-40f7-8323-4d6534e79969","ios":"levelo://app?vid=d01966a7-5e23-40f7-8323-4d6534e79969"},"vehicle_type_id":"4","last_reported":1752934161,"current_range_meters":17600,"station_id":"cpo3532slgdg3j2ikp40","pricing_plan_id":"cebpf4jnsgd1na2vs0mg"},{"bike_id":"ca671420-7636-45e9-91b8-cdcc791d1995","system_id":"levelo_inurba_marseille","lat":43.28414,"lon":5.34996,"is_reserved":false,"is_disabled":false,"rental_uris":{"android":"levelo://app?vid=ca671420-7636-45e9-91b8-cdcc791d1995","ios":"levelo://app?vid=ca671420-7636-45e9-91b8-cdcc791d1995"},"vehicle_type_id":"4","last_reported":1752934161,"current_range_meters":17600,"station_id":"ce4bhbh2rcd13ifvqepg","pricing_plan_id":"cebpf4jnsgd1na2vs0mg"},{"bike_id":"0623aaf7-c769-45d3-abbf-bae39b725fbc","system_id":"levelo_inurba_marseille","lat":43.25575,"lon":5.38242,"is_reserved":false,"is_disabled":false,"rental_uris":{"android":"levelo://app?vid=0623aaf7-c769-45d3-abbf-bae39b725fbc","ios":"levelo://app?vid=0623aaf7-c769-45d3-abbf-bae39b725fbc"},"vehicle_type_id":"4","last_reported":1752934161,"current_range_meters":17600,"station_id":"ce4bhih2rcd13ifvqfs0","pricing_plan_id":"cebpf4jnsgd1na2vs0mg"},{"bike_id":"a4849453-fc76-4eef-856a-587b0feaf6dc","system_id":"levelo_inurba_marseille","lat":43.284284,"lon":5.349926,"is_reserved":false,"is_disabled":false,"rental_uris":{"android":"levelo://app?vid=a4849453-fc76-4eef-856a-587b0feaf6dc","ios":"levelo://app?vid=a4849453-fc76-4eef-856a-587b0feaf6dc"},"vehicle_type_id":"4","last_reported":1752934161,"current_range_meters":17600,"station_id":"ce4bhbh2rcd13ifvqepg","pricing_plan_id":"cebpf4jnsgd1na2vs0mg"},{"bike_id":"64caf522-1921-404b-a9eb-ac9f82993ae0","system_id":"levelo_inurba_marseille","lat":43.21751,"lon":5.34596,"is_reserved":false,"is_disabled":false,"rental_uris":{"android":"levelo://app?vid=64caf522-1921-404b-a9eb-ac9f82993ae0","ios":"levelo://app?vid=64caf522-1921-404b-a9eb-ac9f82993ae0"},"vehicle_type_id":"4","last_reported":1752934161,"current_range_meters":17600,"station_id":"st_cvj6r9ubvosntc0bgbag","pricing_plan_id":"cebpf4jnsgd1na2vs0mg"},{"bike_id":"20c23bf7-da55-4539-9c30-1a4d4a7ceff7","system_id":"levelo_inurba_marseille","lat":43.27963,"lon":5.35373,"is_reserved":false,"is_disabled":false,"rental_uris":{"android":"levelo://app?vid=20c23bf7-da55-4539-9c30-1a4d4a7ceff7","ios":"levelo://app?vid=20c23bf7-da55-4539-9c30-1a4d4a7ceff7"},"vehicle_type_id":"4","last_reported":1752934161,"current_range_meters":17600,"station_id":"","pricing_plan_id":"cebpf4jnsgd1na2vs0mg"},{"bike_id":"95b5bcfa-54af-48c0-bd18-8f73f959ce2b","system_id":"levelo_inurba_marseille","lat":43.31935,"lon":5.37313,"is_reserved":false,"is_disabled":false,"rental_uris":{"android":"levelo://app?vid=95b5bcfa-54af-48c0-bd18-8f73f959ce2b","ios":"levelo://app?vid=95b5bcfa-54af-48c0-bd18-8f73f959ce2b"},"vehicle_type_id":"4","last_reported":1752934161,"current_range_meters":17600,"station_id":"","pricing_plan_id":"cebpf4jnsgd1na2vs0mg"},{"bike_id":"05019271-e2bd-4caf-b0c6-699656320c3b","system_id":"levelo_inurba_marseille","lat":43.30212,"lon":5.3946,"is_reserved":false,"is_disabled":false,"rental_uris":{"android":"levelo://app?vid=05019271-e2bd-4caf-b0c6-699656320c3b","ios":"levelo://app?vid=05019271-e2bd-4caf-b0c6-699656320c3b"},"vehicle_type_id":"4","last_reported":1752934161,"current_range_meters":17600,"station_id":"ce4bh0p2rcd13ifvqd70","pricing_plan_id":"cebpf4jnsgd1na2vs0mg"},{"bike_id":"eca2d9a6-9946-4ff6-a3f3-9bce5243c578","system_id":"levelo_inurba_marseille","lat":43.24181,"lon":5.36384,"is_reserved":false,"is_disabled":false,"rental_uris":{"android":"levelo://app?vid=eca2d9a6-9946-4ff6-a3f3-9bce5243c578","ios":"levelo://app?vid=eca2d9a6-9946-4ff6-a3f3-9bce5243c578"},"vehicle_type_id":"4","last_reported":1752934161,"current_range_meters":18000,"station_id":"cpo36qri1sfpv3e86is0","pricing_plan_id":"cebpf4jnsgd1na2vs0mg"},{"bike_id":"969378c0-bda7-4d67-9c73-0bf3eeb3ccba","system_id":"levelo_inurba_marseille","lat":43.26215,"lon":5.37442,"is_reserved":false,"is_disabled":false,"rental_uris":{"android":"levelo://app?vid=969378c0-bda7-4d67-9c73-0bf3eeb3ccba","ios":"levelo://app?vid=969378c0-bda7-4d67-9c73-0bf3eeb3ccba"},"vehicle_type_id":"4","last_reported":1752934161,"current_range_meters":18000,"station_id":"ce4bhgp2rcd13ifvqfc0","pricing_plan_id":"cebpf4jnsgd1na2vs0mg"},{"bike_id":"f99ff1e4-4111-475a-aa3e-cb902d081040","system_id":"levelo_inurba_marseille","lat":43.24813,"lon":5.37453,"is_reserved":false,"is_disabled":false,"rental_uris":{"android":"levelo://app?vid=f99ff1e4-4111-475a-aa3e-cb902d081040","ios":"levelo://app?vid=f99ff1e4-4111-475a-aa3e-cb902d081040"},"vehicle_type_id":"4","last_reported":1752934161,"current_range_meters":18000,"station_id":"ce4bhgh2rcd13ifvqfb0","pricing_plan_id":"cebpf4jnsgd1na2vs0mg"},{"bike_id":"cb32d093-ee3c-4e55-b5d8-f421974c5321","system_id":"levelo_inurba_marseille","lat":43.23971,"lon":5.36627,"is_reserved":false,"is_disabled":false,"rental_uris":{"android":"levelo://app?vid=cb32d093-ee3c-4e55-b5d8-f421974c5321","ios":"levelo://app?vid=cb32d093-ee3c-4e55-b5d8-f421974c5321"},"vehicle_type_id":"4","last_reported":1752934161,"current_range_meters":18000,"station_id":"ce4bhi12rcd13ifvqfp0","pricing_plan_id":"cebpf4jnsgd1na2vs0mg"},{"bike_id":"1ef1e24d-2eb5-4eb3-b405-b29edcaf1ac5","system_id":"levelo_inurba_marseille","lat":43.29007,"lon":5.35607,"is_reserved":false,"is_disabled":false,"rental_uris":{"android":"levelo://app?vid=1ef1e24d-2eb5-4eb3-b405-b29edcaf1ac5","ios":"levelo://app?vid=1ef1e24d-2eb5-4eb3-b405-b29edcaf1ac5"},"vehicle_type_id":"4","last_reported":1752934161,"current_range_meters":18000,"station_id":"ce4bhb92rcd13ifvqen0","pricing_plan_id":"cebpf4jnsgd1na2vs0mg"},{"bike_id":"c9e13ae8-81d2-45a5-adef-f1b61a66153b","system_id":"levelo_inurba_marseille","lat":43.23966,"lon":5.36616,"is_reserved":false,"is_disabled":false,"rental_uris":{"android":"levelo://app?vid=c9e13ae8-81d2-45a5-adef-f1b61a66153b","ios":"levelo://app?vid=c9e13ae8-81d2-45a5-adef-f1b61a66153b"},"vehicle_type_id":"4","last_reported":1752934161,"current_range_meters":18000,"station_id":"ce4bhi12rcd13ifvqfp0","pricing_plan_id":"cebpf4jnsgd1na2vs0mg"},{"bike_id":"2ba13de8-2053-45a6-bcbf-51b7a4e83469","system_id":"levelo_inurba_marseille","lat":43.23783,"lon":5.36184,"is_reserved":false,"is_disabled":false,"rental_uris":{"android":"levelo://app?vid=2ba13de8-2053-45a6-bcbf-51b7a4e83469","ios":"levelo://app?vid=2ba13de8-2053-45a6-bcbf-51b7a4e83469"},"vehicle_type_id":"4","last_reported":1752934161,"current_range_meters":18000,"station_id":"","pricing_plan_id":"cebpf4jnsgd1na2vs0mg"},{"bike_id":"01e4a67a-eaeb-41d2-9672-e29a7634b230","system_id":"levelo_inurba_marseille","lat":43.28616,"lon":5.35109,"is_reserved":false,"is_disabled":false,"rental_uris":{"android":"levelo://app?vid=01e4a67a-eaeb-41d2-9672-e29a7634b230","ios":"levelo://app?vid=01e4a67a-eaeb-41d2-9672-e29a7634b230"},"vehicle_type_id":"4","last_reported":1752934161,"current_range_meters":18000,"station_id":"ce4bhch2rcd13ifvqeug","pricing_plan_id":"cebpf4jnsgd1na2vs0mg"},{"bike_id":"12c0af7f-d992-4f6f-be1c-802d340c13c5","system_id":"levelo_inurba_marseille","lat":43.295845,"lon":5.375163,"is_reserved":false,"is_disabled":true,"rental_uris":{"android":"levelo://app?vid=12c0af7f-d992-4f6f-be1c-802d340c13c5","ios":"levelo://app?vid=12c0af7f-d992-4f6f-be1c-802d340c13c5"},"vehicle_type_id":"4","last_reported":1752934161,"current_range_meters":18000,"station_id":"ce4bgkp2rcd13ifvqbmg","pricing_plan_id":"cebpf4jnsgd1na2vs0mg"},{"bike_id":"39abf049-3891-4481-9c25-7fb7a413c85a","system_id":"levelo_inurba_marseille","lat":43.25457,"lon":5.3764,"is_reserved":false,"is_disabled":false,"rental_uris":{"android":"levelo://app?vid=39abf049-3891-4481-9c25-7fb7a413c85a","ios":"levelo://app?vid=39abf049-3891-4481-9c25-7fb7a413c85a"},"vehicle_type_id":"4","last_reported":1752934161,"current_range_meters":18000,"station_id":"ce4bhh12rcd13ifvqff0","pricing_plan_id":"cebpf4jnsgd1na2vs0mg"},{"bike_id":"e4e6db7f-6842-4f2c-9bda-e73f51413a84","system_id":"levelo_inurba_marseille","lat":43.28617,"lon":5.351,"is_reserved":false,"is_disabled":false,"rental_uris":{"android":"levelo://app?vid=e4e6db7f-6842-4f2c-9bda-e73f51413a84","ios":"levelo://app?vid=e4e6db7f-6842-4f2c-9bda-e73f51413a84"},"vehicle_type_id":"4","last_reported":1752934161,"current_range_meters":18800,"station_id":"ce4bhch2rcd13ifvqeug","pricing_plan_id":"cebpf4jnsgd1na2vs0mg"},{"bike_id":"6ef7bf14-b1e9-44cb-bb59-0c16477d6fc9","system_id":"levelo_inurba_marseille","lat":43.28268,"lon":5.3506,"is_reserved":false,"is_disabled":false,"rental_uris":{"android":"levelo://app?vid=6ef7bf14-b1e9-44cb-bb59-0c16477d6fc9","ios":"levelo://app?vid=6ef7bf14-b1e9-44cb-bb59-0c16477d6fc9"},"vehicle_type_id":"4","last_reported":1752934161,"current_range_meters":18800,"station_id":"ce4bhbp2rcd13ifvqerg","pricing_plan_id":"cebpf4jnsgd1na2vs0mg"},{"bike_id":"939d220c-6cee-41db-927f-698212462b3e","system_id":"levelo_inurba_marseille","lat":43.28259,"lon":5.35083,"is_reserved":false,"is_disabled":false,"rental_uris":{"android":"levelo://app?vid=939d220c-6cee-41db-927f-698212462b3e","ios":"levelo://app?vid=939d220c-6cee-41db-927f-698212462b3e"},"vehicle_type_id":"4","last_reported":1752934161,"current_range_meters":18800,"station_id":"ce4bhbp2rcd13ifvqerg","pricing_plan_id":"cebpf4jnsgd1na2vs0mg"},{"bike_id":"58929841-4cbe-4124-954f-a2ab955277f0","system_id":"levelo_inurba_marseille","lat":43.23196,"lon":5.35553,"is_reserved":false,"is_disabled":false,"rental_uris":{"android":"levelo://app?vid=58929841-4cbe-4124-954f-a2ab955277f0","ios":"levelo://app?vid=58929841-4cbe-4124-954f-a2ab955277f0"},"vehicle_type_id":"4","last_reported":1752934161,"current_range_meters":18800,"station_id":"ce4bhu92rcd13ifvqi70","pricing_plan_id":"cebpf4jnsgd1na2vs0mg"},{"bike_id":"707af16a-3189-4d92-b010-ef53c9012e98","system_id":"levelo_inurba_marseille","lat":43.21751,"lon":5.34608,"is_reserved":false,"is_disabled":false,"rental_uris":{"android":"levelo://app?vid=707af16a-3189-4d92-b010-ef53c9012e98","ios":"levelo://app?vid=707af16a-3189-4d92-b010-ef53c9012e98"},"vehicle_type_id":"4","last_reported":1752934161,"current_range_meters":18800,"station_id":"","pricing_plan_id":"cebpf4jnsgd1na2vs0mg"},{"bike_id":"5726ddcf-72ab-4125-add4-60f0a9efb3ed","system_id":"levelo_inurba_marseille","lat":43.30936,"lon":5.40145,"is_reserved":false,"is_disabled":false,"rental_uris":{"android":"levelo://app?vid=5726ddcf-72ab-4125-add4-60f0a9efb3ed","ios":"levelo://app?vid=5726ddcf-72ab-4125-add4-60f0a9efb3ed"},"vehicle_type_id":"4","last_reported":1752934161,"current_range_meters":18800,"station_id":"ce4bgvp2rcd13ifvqct0","pricing_plan_id":"cebpf4jnsgd1na2vs0mg"},{"bike_id":"1e6b4bb8-11c1-4647-8f99-3dbca91b4438","system_id":"levelo_inurba_marseille","lat":43.28614,"lon":5.35106,"is_reserved":false,"is_disabled":false,"rental_uris":{"android":"levelo://app?vid=1e6b4bb8-11c1-4647-8f99-3dbca91b4438","ios":"levelo://app?vid=1e6b4bb8-11c1-4647-8f99-3dbca91b4438"},"vehicle_type_id":"4","last_reported":1752934161,"current_range_meters":18800,"station_id":"ce4bhch2rcd13ifvqeug","pricing_plan_id":"cebpf4jnsgd1na2vs0mg"},{"bike_id":"26b8cc06-1e63-495f-b599-843d277731ee","system_id":"levelo_inurba_marseille","lat":43.24106,"lon":5.3778,"is_reserved":false,"is_disabled":false,"rental_uris":{"android":"levelo://app?vid=26b8cc06-1e63-495f-b599-843d277731ee","ios":"levelo://app?vid=26b8cc06-1e63-495f-b599-843d277731ee"},"vehicle_type_id":"4","last_reported":1752934161,"current_range_meters":18800,"station_id":"ce4bhnp2rcd13ifvqgvg","pricing_plan_id":"cebpf4jnsgd1na2vs0mg"},{"bike_id":"31a3e0d3-9340-4ba1-bee1-7596c0335d90","system_id":"levelo_inurba_marseille","lat":43.296563,"lon":5.379437,"is_reserved":false,"is_disabled":false,"rental_uris":{"android":"levelo://app?vid=31a3e0d3-9340-4ba1-bee1-7596c0335d90","ios":"levelo://app?vid=31a3e0d3-9340-4ba1-bee1-7596c0335d90"},"vehicle_type_id":"4","last_reported":1752934161,"current_range_meters":18800,"station_id":"","pricing_plan_id":"cebpf4jnsgd1na2vs0mg"},{"bike_id":"a4e80466-7375-43ef-9860-4f18fd018db5","system_id":"levelo_inurba_marseille","lat":43.29437,"lon":5.39756,"is_reserved":false,"is_disabled":false,"rental_uris":{"android":"levelo://app?vid=a4e80466-7375-43ef-9860-4f18fd018db5","ios":"levelo://app?vid=a4e80466-7375-43ef-9860-4f18fd018db5"},"vehicle_type_id":"4","last_reported":1752934161,"current_range_meters":18800,"station_id":"ce4bh3h2rcd13ifvqdo0","pricing_plan_id":"cebpf4jnsgd1na2vs0mg"},{"bike_id":"157990d3-b9c3-4f5c-8a17-d78382994a2f","system_id":"levelo_inurba_marseille","lat":43.26199,"lon":5.37923,"is_reserved":false,"is_disabled":false,"rental_uris":{"android":"levelo://app?vid=157990d3-b9c3-4f5c-8a17-d78382994a2f","ios":"levelo://app?vid=157990d3-b9c3-4f5c-8a17-d78382994a2f"},"vehicle_type_id":"4","last_reported":1752934161,"current_range_meters":18800,"station_id":"ce4bhjp2rcd13ifvqg90","pricing_plan_id":"cebpf4jnsgd1na2vs0mg"},{"bike_id":"e85a5b9b-e671-47fc-9a86-594d5f2d6058","system_id":"levelo_inurba_marseille","lat":43.23187,"lon":5.35565,"is_reserved":false,"is_disabled":false,"rental_uris":{"android":"levelo://app?vid=e85a5b9b-e671-47fc-9a86-594d5f2d6058","ios":"levelo://app?vid=e85a5b9b-e671-47fc-9a86-594d5f2d6058"},"vehicle_type_id":"4","last_reported":1752934161,"current_range_meters":19600,"station_id":"ce4bhu92rcd13ifvqi70","pricing_plan_id":"cebpf4jnsgd1na2vs0mg"},{"bike_id":"35b2ec77-0b86-4dc9-b452-708ae0662acb","system_id":"levelo_inurba_marseille","lat":43.30529,"lon":5.36529,"is_reserved":false,"is_disabled":false,"rental_uris":{"android":"levelo://app?vid=35b2ec77-0b86-4dc9-b452-708ae0662acb","ios":"levelo://app?vid=35b2ec77-0b86-4dc9-b452-708ae0662acb"},"vehicle_type_id":"4","last_reported":1752934161,"current_range_meters":19200,"station_id":"ce4bgs12rcd13ifvqcag","pricing_plan_id":"cebpf4jnsgd1na2vs0mg"},{"bike_id":"7db8f066-ab1d-4c41-8265-165c87e7372b","system_id":"levelo_inurba_marseille","lat":43.31706,"lon":5.40456,"is_reserved":false,"is_disabled":false,"rental_uris":{"android":"levelo://app?vid=7db8f066-ab1d-4c41-8265-165c87e7372b","ios":"levelo://app?vid=7db8f066-ab1d-4c41-8265-165c87e7372b"},"vehicle_type_id":"4","last_reported":1752934161,"current_range_meters":19200,"station_id":"ce4bh012rcd13ifvqd00","pricing_plan_id":"cebpf4jnsgd1na2vs0mg"},{"bike_id":"87e6a2f2-e7ef-4dba-aeba-5588e1270124","system_id":"levelo_inurba_marseille","lat":43.22944,"lon":5.35396,"is_reserved":false,"is_disabled":false,"rental_uris":{"android":"levelo://app?vid=87e6a2f2-e7ef-4dba-aeba-5588e1270124","ios":"levelo://app?vid=87e6a2f2-e7ef-4dba-aeba-5588e1270124"},"vehicle_type_id":"4","last_reported":1752934161,"current_range_meters":19200,"station_id":"cpo3532slgdg3j2ikp40","pricing_plan_id":"cebpf4jnsgd1na2vs0mg"},{"bike_id":"4381bde2-8054-4743-beeb-716501f2fff2","system_id":"levelo_inurba_marseille","lat":43.27105,"lon":5.40257,"is_reserved":false,"is_disabled":false,"rental_uris":{"android":"levelo://app?vid=4381bde2-8054-4743-beeb-716501f2fff2","ios":"levelo://app?vid=4381bde2-8054-4743-beeb-716501f2fff2"},"vehicle_type_id":"4","last_reported":1752934161,"current_range_meters":19200,"station_id":"ce4bhk92rcd13ifvqgc0","pricing_plan_id":"cebpf4jnsgd1na2vs0mg"},{"bike_id":"d3aca52a-4e64-461a-8fd1-e9a035bafbdf","system_id":"levelo_inurba_marseille","lat":43.257213,"lon":5.411019,"is_reserved":false,"is_disabled":false,"rental_uris":{"android":"levelo://app?vid=d3aca52a-4e64-461a-8fd1-e9a035bafbdf","ios":"levelo://app?vid=d3aca52a-4e64-461a-8fd1-e9a035bafbdf"},"vehicle_type_id":"4","last_reported":1752934161,"current_range_meters":19200,"station_id":"","pricing_plan_id":"cebpf4jnsgd1na2vs0mg"},{"bike_id":"7cb87117-19f1-4d48-84b2-bec6ac38464c","system_id":"levelo_inurba_marseille","lat":43.29559,"lon":5.42272,"is_reserved":false,"is_disabled":false,"rental_uris":{"android":"levelo://app?vid=7cb87117-19f1-4d48-84b2-bec6ac38464c","ios":"levelo://app?vid=7cb87117-19f1-4d48-84b2-bec6ac38464c"},"vehicle_type_id":"4","last_reported":1752934161,"current_range_meters":19200,"station_id":"ce4bhph2rcd13ifvqhdg","pricing_plan_id":"cebpf4jnsgd1na2vs0mg"},{"bike_id":"fd0ef827-9b7d-4701-a4a9-3b3651717bd9","system_id":"levelo_inurba_marseille","lat":43.24057,"lon":5.37745,"is_reserved":false,"is_disabled":false,"rental_uris":{"android":"levelo://app?vid=fd0ef827-9b7d-4701-a4a9-3b3651717bd9","ios":"levelo://app?vid=fd0ef827-9b7d-4701-a4a9-3b3651717bd9"},"vehicle_type_id":"4","last_reported":1752934161,"current_range_meters":19200,"station_id":"ce4bhnp2rcd13ifvqgvg","pricing_plan_id":"cebpf4jnsgd1na2vs0mg"},{"bike_id":"8cd0d573-40aa-467a-8504-5e15d7c16214","system_id":"levelo_inurba_marseille","lat":43.28622,"lon":5.35094,"is_reserved":false,"is_disabled":false,"rental_uris":{"android":"levelo://app?vid=8cd0d573-40aa-467a-8504-5e15d7c16214","ios":"levelo://app?vid=8cd0d573-40aa-467a-8504-5e15d7c16214"},"vehicle_type_id":"4","last_reported":1752934161,"current_range_meters":19200,"station_id":"ce4bhch2rcd13ifvqeug","pricing_plan_id":"cebpf4jnsgd1na2vs0mg"},{"bike_id":"aaa60820-80fd-4afd-9d4a-de02de98b358","system_id":"levelo_inurba_marseille","lat":43.21211,"lon":5.350846,"is_reserved":false,"is_disabled":false,"rental_uris":{"android":"levelo://app?vid=aaa60820-80fd-4afd-9d4a-de02de98b358","ios":"levelo://app?vid=aaa60820-80fd-4afd-9d4a-de02de98b358"},"vehicle_type_id":"4","last_reported":1752934161,"current_range_meters":19200,"station_id":"","pricing_plan_id":"cebpf4jnsgd1na2vs0mg"},{"bike_id":"edb4f659-00e1-4afd-8eb2-37b13ca5d820","system_id":"levelo_inurba_marseille","lat":43.25089,"lon":5.39527,"is_reserved":false,"is_disabled":false,"rental_uris":{"android":"levelo://app?vid=edb4f659-00e1-4afd-8eb2-37b13ca5d820","ios":"levelo://app?vid=edb4f659-00e1-4afd-8eb2-37b13ca5d820"},"vehicle_type_id":"4","last_reported":1752934161,"current_range_meters":19200,"station_id":"ce4bhm12rcd13ifvqgkg","pricing_plan_id":"cebpf4jnsgd1na2vs0mg"},{"bike_id":"42937e6c-ed5c-4ebf-95b2-f8a75a78b730","system_id":"levelo_inurba_marseille","lat":43.30531,"lon":5.36529,"is_reserved":false,"is_disabled":false,"rental_uris":{"android":"levelo://app?vid=42937e6c-ed5c-4ebf-95b2-f8a75a78b730","ios":"levelo://app?vid=42937e6c-ed5c-4ebf-95b2-f8a75a78b730"},"vehicle_type_id":"4","last_reported":1752934161,"current_range_meters":19200,"station_id":"ce4bgs12rcd13ifvqcag","pricing_plan_id":"cebpf4jnsgd1na2vs0mg"},{"bike_id":"2c1c04c0-a56d-4fa0-b08c-272c81d80a8e","system_id":"levelo_inurba_marseille","lat":43.30609,"lon":5.37238,"is_reserved":false,"is_disabled":false,"rental_uris":{"android":"levelo://app?vid=2c1c04c0-a56d-4fa0-b08c-272c81d80a8e","ios":"levelo://app?vid=2c1c04c0-a56d-4fa0-b08c-272c81d80a8e"},"vehicle_type_id":"4","last_reported":1752934161,"current_range_meters":19200,"station_id":"ce4bgqh2rcd13ifvqc4g","pricing_plan_id":"cebpf4jnsgd1na2vs0mg"},{"bike_id":"03c06480-1eaf-4ccf-96ff-18423cbc8b58","system_id":"levelo_inurba_marseille","lat":43.22534,"lon":5.34759,"is_reserved":false,"is_disabled":false,"rental_uris":{"android":"levelo://app?vid=03c06480-1eaf-4ccf-96ff-18423cbc8b58","ios":"levelo://app?vid=03c06480-1eaf-4ccf-96ff-18423cbc8b58"},"vehicle_type_id":"4","last_reported":1752934161,"current_range_meters":19600,"station_id":"st_cvj5dfep6f1abm77gieg","pricing_plan_id":"cebpf4jnsgd1na2vs0mg"},{"bike_id":"96793585-b370-4499-97b5-55297e845c8f","system_id":"levelo_inurba_marseille","lat":43.21741,"lon":5.3461,"is_reserved":false,"is_disabled":false,"rental_uris":{"android":"levelo://app?vid=96793585-b370-4499-97b5-55297e845c8f","ios":"levelo://app?vid=96793585-b370-4499-97b5-55297e845c8f"},"vehicle_type_id":"4","last_reported":1752934161,"current_range_meters":19600,"station_id":"st_cvj6r9ubvosntc0bgbag","pricing_plan_id":"cebpf4jnsgd1na2vs0mg"},{"bike_id":"ed6e46ed-e147-446b-bce0-f37d71ced7ef","system_id":"levelo_inurba_marseille","lat":43.278121,"lon":5.407107,"is_reserved":false,"is_disabled":false,"rental_uris":{"android":"levelo://app?vid=ed6e46ed-e147-446b-bce0-f37d71ced7ef","ios":"levelo://app?vid=ed6e46ed-e147-446b-bce0-f37d71ced7ef"},"vehicle_type_id":"4","last_reported":1752934161,"current_range_meters":19600,"station_id":"ce4bhnh2rcd13ifvqgtg","pricing_plan_id":"cebpf4jnsgd1na2vs0mg"},{"bike_id":"959f7db2-bbe5-42b7-8d3c-1d78765f2b28","system_id":"levelo_inurba_marseille","lat":43.21199,"lon":5.35072,"is_reserved":false,"is_disabled":false,"rental_uris":{"android":"levelo://app?vid=959f7db2-bbe5-42b7-8d3c-1d78765f2b28","ios":"levelo://app?vid=959f7db2-bbe5-42b7-8d3c-1d78765f2b28"},"vehicle_type_id":"4","last_reported":1752934161,"current_range_meters":19600,"station_id":"st_cvj6sg6p6f1abm77japg","pricing_plan_id":"cebpf4jnsgd1na2vs0mg"},{"bike_id":"ea7f6e37-ef7e-4c17-ad8b-04f17bcb78d2","system_id":"levelo_inurba_marseille","lat":43.28453,"lon":5.35901,"is_reserved":false,"is_disabled":false,"rental_uris":{"android":"levelo://app?vid=ea7f6e37-ef7e-4c17-ad8b-04f17bcb78d2","ios":"levelo://app?vid=ea7f6e37-ef7e-4c17-ad8b-04f17bcb78d2"},"vehicle_type_id":"4","last_reported":1752934161,"current_range_meters":19600,"station_id":"ce4bhah2rcd13ifvqei0","pricing_plan_id":"cebpf4jnsgd1na2vs0mg"},{"bike_id":"0e36f665-9b78-4057-b3eb-3ce49fd45395","system_id":"levelo_inurba_marseille","lat":43.23966,"lon":5.36633,"is_reserved":false,"is_disabled":false,"rental_uris":{"android":"levelo://app?vid=0e36f665-9b78-4057-b3eb-3ce49fd45395","ios":"levelo://app?vid=0e36f665-9b78-4057-b3eb-3ce49fd45395"},"vehicle_type_id":"4","last_reported":1752934161,"current_range_meters":19600,"station_id":"ce4bhi12rcd13ifvqfp0","pricing_plan_id":"cebpf4jnsgd1na2vs0mg"},{"bike_id":"8539b1ac-36e3-48c4-b319-e35ccff65019","system_id":"levelo_inurba_marseille","lat":43.27074,"lon":5.42275,"is_reserved":false,"is_disabled":false,"rental_uris":{"android":"levelo://app?vid=8539b1ac-36e3-48c4-b319-e35ccff65019","ios":"levelo://app?vid=8539b1ac-36e3-48c4-b319-e35ccff65019"},"vehicle_type_id":"4","last_reported":1752934161,"current_range_meters":19600,"station_id":"ce4bhk92rcd13ifvqgb0","pricing_plan_id":"cebpf4jnsgd1na2vs0mg"},{"bike_id":"da0dcab8-919c-473b-a5aa-03813cadf3f0","system_id":"levelo_inurba_marseille","lat":43.28271,"lon":5.35074,"is_reserved":false,"is_disabled":false,"rental_uris":{"android":"levelo://app?vid=da0dcab8-919c-473b-a5aa-03813cadf3f0","ios":"levelo://app?vid=da0dcab8-919c-473b-a5aa-03813cadf3f0"},"vehicle_type_id":"4","last_reported":1752934161,"current_range_meters":19600,"station_id":"ce4bhbp2rcd13ifvqerg","pricing_plan_id":"cebpf4jnsgd1na2vs0mg"},{"bike_id":"3b276991-f5a1-4202-b989-9bb80cee295a","system_id":"levelo_inurba_marseille","lat":43.28241,"lon":5.35111,"is_reserved":false,"is_disabled":false,"rental_uris":{"android":"levelo://app?vid=3b276991-f5a1-4202-b989-9bb80cee295a","ios":"levelo://app?vid=3b276991-f5a1-4202-b989-9bb80cee295a"},"vehicle_type_id":"4","last_reported":1752934161,"current_range_meters":19600,"station_id":"","pricing_plan_id":"cebpf4jnsgd1na2vs0mg"},{"bike_id":"2f3c3e50-2567-43cd-a1a6-3cd1ebf81d69","system_id":"levelo_inurba_marseille","lat":43.30206,"lon":5.39454,"is_reserved":false,"is_disabled":false,"rental_uris":{"android":"levelo://app?vid=2f3c3e50-2567-43cd-a1a6-3cd1ebf81d69","ios":"levelo://app?vid=2f3c3e50-2567-43cd-a1a6-3cd1ebf81d69"},"vehicle_type_id":"4","last_reported":1752934161,"current_range_meters":19600,"station_id":"ce4bh0p2rcd13ifvqd70","pricing_plan_id":"cebpf4jnsgd1na2vs0mg"},{"bike_id":"6f530211-2d31-4918-b78d-6fbc7b6302a4","system_id":"levelo_inurba_marseille","lat":43.23578,"lon":5.36136,"is_reserved":false,"is_disabled":false,"rental_uris":{"android":"levelo://app?vid=6f530211-2d31-4918-b78d-6fbc7b6302a4","ios":"levelo://app?vid=6f530211-2d31-4918-b78d-6fbc7b6302a4"},"vehicle_type_id":"4","last_reported":1752934161,"current_range_meters":20000,"station_id":"","pricing_plan_id":"cebpf4jnsgd1na2vs0mg"},{"bike_id":"72b2915f-104b-4593-ab50-bf58e95b0c27","system_id":"levelo_inurba_marseille","lat":43.22919,"lon":5.3539,"is_reserved":false,"is_disabled":false,"rental_uris":{"android":"levelo://app?vid=72b2915f-104b-4593-ab50-bf58e95b0c27","ios":"levelo://app?vid=72b2915f-104b-4593-ab50-bf58e95b0c27"},"vehicle_type_id":"4","last_reported":1752934161,"current_range_meters":20000,"station_id":"cpo3532slgdg3j2ikp40","pricing_plan_id":"cebpf4jnsgd1na2vs0mg"},{"bike_id":"cbcc09f9-2c18-4671-ac1e-fe0b65dd4bcf","system_id":"levelo_inurba_marseille","lat":43.292267,"lon":5.36049,"is_reserved":false,"is_disabled":false,"rental_uris":{"android":"levelo://app?vid=cbcc09f9-2c18-4671-ac1e-fe0b65dd4bcf","ios":"levelo://app?vid=cbcc09f9-2c18-4671-ac1e-fe0b65dd4bcf"},"vehicle_type_id":"4","last_reported":1752934161,"current_range_meters":20000,"station_id":"ce4bhbh2rcd13ifvqeqg","pricing_plan_id":"cebpf4jnsgd1na2vs0mg"},{"bike_id":"bc444916-7121-43cd-b15d-420185e782b9","system_id":"levelo_inurba_marseille","lat":43.27381,"lon":5.36255,"is_reserved":false,"is_disabled":false,"rental_uris":{"android":"levelo://app?vid=bc444916-7121-43cd-b15d-420185e782b9","ios":"levelo://app?vid=bc444916-7121-43cd-b15d-420185e782b9"},"vehicle_type_id":"4","last_reported":1752934161,"current_range_meters":20000,"station_id":"ce4bhbh2rcd13ifvqeo0","pricing_plan_id":"cebpf4jnsgd1na2vs0mg"},{"bike_id":"7f98c65c-6593-4352-858e-be8fe24c31fc","system_id":"levelo_inurba_marseille","lat":43.22504,"lon":5.34818,"is_reserved":false,"is_disabled":false,"rental_uris":{"android":"levelo://app?vid=7f98c65c-6593-4352-858e-be8fe24c31fc","ios":"levelo://app?vid=7f98c65c-6593-4352-858e-be8fe24c31fc"},"vehicle_type_id":"4","last_reported":1752934161,"current_range_meters":20000,"station_id":"st_cvj5dfep6f1abm77gieg","pricing_plan_id":"cebpf4jnsgd1na2vs0mg"},{"bike_id":"ab2f4c5c-050c-4627-86d4-a73427ba1b1c","system_id":"levelo_inurba_marseille","lat":43.29829,"lon":5.36309,"is_reserved":false,"is_disabled":false,"rental_uris":{"android":"levelo://app?vid=ab2f4c5c-050c-4627-86d4-a73427ba1b1c","ios":"levelo://app?vid=ab2f4c5c-050c-4627-86d4-a73427ba1b1c"},"vehicle_type_id":"4","last_reported":1752934161,"current_range_meters":20000,"station_id":"ce4bgpp2rcd13ifvqc3g","pricing_plan_id":"cebpf4jnsgd1na2vs0mg"},{"bike_id":"153e58fa-6f1d-4d3a-aef1-88cd4981d608","system_id":"levelo_inurba_marseille","lat":43.32337,"lon":5.40624,"is_reserved":false,"is_disabled":false,"rental_uris":{"android":"levelo://app?vid=153e58fa-6f1d-4d3a-aef1-88cd4981d608","ios":"levelo://app?vid=153e58fa-6f1d-4d3a-aef1-88cd4981d608"},"vehicle_type_id":"4","last_reported":1752934161,"current_range_meters":20000,"station_id":"ce4bhq92rcd13ifvqhjg","pricing_plan_id":"cebpf4jnsgd1na2vs0mg"},{"bike_id":"50732138-a101-48f6-8955-063feaed78b4","system_id":"levelo_inurba_marseille","lat":43.22928,"lon":5.3539,"is_reserved":false,"is_disabled":false,"rental_uris":{"android":"levelo://app?vid=50732138-a101-48f6-8955-063feaed78b4","ios":"levelo://app?vid=50732138-a101-48f6-8955-063feaed78b4"},"vehicle_type_id":"4","last_reported":1752934161,"current_range_meters":20000,"station_id":"cpo3532slgdg3j2ikp40","pricing_plan_id":"cebpf4jnsgd1na2vs0mg"},{"bike_id":"ab9108cd-b260-4b43-89cb-2a7bb01dcd57","system_id":"levelo_inurba_marseille","lat":43.28616,"lon":5.35107,"is_reserved":false,"is_disabled":false,"rental_uris":{"android":"levelo://app?vid=ab9108cd-b260-4b43-89cb-2a7bb01dcd57","ios":"levelo://app?vid=ab9108cd-b260-4b43-89cb-2a7bb01dcd57"},"vehicle_type_id":"4","last_reported":1752934161,"current_range_meters":20000,"station_id":"ce4bhch2rcd13ifvqeug","pricing_plan_id":"cebpf4jnsgd1na2vs0mg"},{"bike_id":"db5434b7-f2f1-4564-88c5-e40df9f97665","system_id":"levelo_inurba_marseille","lat":43.26209,"lon":5.37446,"is_reserved":false,"is_disabled":false,"rental_uris":{"android":"levelo://app?vid=db5434b7-f2f1-4564-88c5-e40df9f97665","ios":"levelo://app?vid=db5434b7-f2f1-4564-88c5-e40df9f97665"},"vehicle_type_id":"4","last_reported":1752934161,"current_range_meters":20000,"station_id":"ce4bhgp2rcd13ifvqfc0","pricing_plan_id":"cebpf4jnsgd1na2vs0mg"},{"bike_id":"ca427fd6-b16e-43cc-9f37-58925b0ecefa","system_id":"levelo_inurba_marseille","lat":43.337444,"lon":5.374475,"is_reserved":false,"is_disabled":false,"rental_uris":{"android":"levelo://app?vid=ca427fd6-b16e-43cc-9f37-58925b0ecefa","ios":"levelo://app?vid=ca427fd6-b16e-43cc-9f37-58925b0ecefa"},"vehicle_type_id":"4","last_reported":1752934161,"current_range_meters":20000,"station_id":"","pricing_plan_id":"cebpf4jnsgd1na2vs0mg"},{"bike_id":"f54cb70c-cf3f-494d-aaf7-a7abceac9e48","system_id":"levelo_inurba_marseille","lat":43.250068,"lon":5.389277,"is_reserved":false,"is_disabled":false,"rental_uris":{"android":"levelo://app?vid=f54cb70c-cf3f-494d-aaf7-a7abceac9e48","ios":"levelo://app?vid=f54cb70c-cf3f-494d-aaf7-a7abceac9e48"},"vehicle_type_id":"4","last_reported":1752934161,"current_range_meters":20000,"station_id":"ce4bhgp2rcd13ifvqfd0","pricing_plan_id":"cebpf4jnsgd1na2vs0mg"},{"bike_id":"5cae77df-d32c-418a-a800-9ec4543232a1","system_id":"levelo_inurba_marseille","lat":43.28005,"lon":5.40005,"is_reserved":false,"is_disabled":false,"rental_uris":{"android":"levelo://app?vid=5cae77df-d32c-418a-a800-9ec4543232a1","ios":"levelo://app?vid=5cae77df-d32c-418a-a800-9ec4543232a1"},"vehicle_type_id":"4","last_reported":1752934161,"current_range_meters":19600,"station_id":"ce4bho92rcd13ifvqh4g","pricing_plan_id":"cebpf4jnsgd1na2vs0mg"},{"bike_id":"644b8537-8fcd-4480-8df4-a43adb9af271","system_id":"levelo_inurba_marseille","lat":43.272093,"lon":5.391963,"is_reserved":false,"is_disabled":false,"rental_uris":{"android":"levelo://app?vid=644b8537-8fcd-4480-8df4-a43adb9af271","ios":"levelo://app?vid=644b8537-8fcd-4480-8df4-a43adb9af271"},"vehicle_type_id":"4","last_reported":1752934161,"current_range_meters":20000,"station_id":"cki0cbj6b192h4jlfktg","pricing_plan_id":"cebpf4jnsgd1na2vs0mg"},{"bike_id":"fedbdb99-866b-487e-a1c8-43a3bc3eed0b","system_id":"levelo_inurba_marseille","lat":43.29251,"lon":5.40911,"is_reserved":false,"is_disabled":false,"rental_uris":{"android":"levelo://app?vid=fedbdb99-866b-487e-a1c8-43a3bc3eed0b","ios":"levelo://app?vid=fedbdb99-866b-487e-a1c8-43a3bc3eed0b"},"vehicle_type_id":"4","last_reported":1752934161,"current_range_meters":20400,"station_id":"ce4bh192rcd13ifvqdc0","pricing_plan_id":"cebpf4jnsgd1na2vs0mg"},{"bike_id":"1144533f-2970-4ef4-aeea-dd9e457c038f","system_id":"levelo_inurba_marseille","lat":43.29258,"lon":5.40908,"is_reserved":false,"is_disabled":false,"rental_uris":{"android":"levelo://app?vid=1144533f-2970-4ef4-aeea-dd9e457c038f","ios":"levelo://app?vid=1144533f-2970-4ef4-aeea-dd9e457c038f"},"vehicle_type_id":"4","last_reported":1752934161,"current_range_meters":20400,"station_id":"ce4bh192rcd13ifvqdc0","pricing_plan_id":"cebpf4jnsgd1na2vs0mg"},{"bike_id":"c1e6057c-ff5a-4477-a9f1-93444a633642","system_id":"levelo_inurba_marseille","lat":43.27175,"lon":5.39027,"is_reserved":false,"is_disabled":false,"rental_uris":{"android":"levelo://app?vid=c1e6057c-ff5a-4477-a9f1-93444a633642","ios":"levelo://app?vid=c1e6057c-ff5a-4477-a9f1-93444a633642"},"vehicle_type_id":"4","last_reported":1752934161,"current_range_meters":20400,"station_id":"","pricing_plan_id":"cebpf4jnsgd1na2vs0mg"},