{"last_updated":1773962420,"ttl":60,"version":"2.2","data":{"bikes":[{"bike_id":"f5633142-06b4-41a8-9523-f83ce443c69f","system_id":"levelo_inurba_marseille","lat":43.286096,"lon":5.35101,"is_reserved":false,"is_disabled":false,"rental_uris":{"android":"levelo://app?vid=f5633142-06b4-41a8-9523-f83ce443c69f","ios":"levelo://app?vid=f5633142-06b4-41a8-9523-f83ce443c69f"},"vehicle_type_id":"4","last_reported":1773962421,"current_range_meters":2800,"station_id":"","pricing_plan_id":"cebpf4jnsgd1na2vs0mg"},{"bike_id":"8d8aa7c9-6443-493d-97df-f28f1e39c783","system_id":"levelo_inurba_marseille","lat":43.31117,"lon":5.37753,"is_reserved":false,"is_disabled":false,"rental_uris":{"android":"levelo://app?vid=8d8aa7c9-6443-493d-97df-f28f1e39c783","ios":"levelo://app?vid=8d8aa7c9-6443-493d-97df-f28f1e39c783"},"vehicle_type_id":"4","last_reported":1773962421,"current_range_meters":2800,"station_id":"ce4bgt92rcd13ifvqcg0","pricing_plan_id":"cebpf4jnsgd1na2vs0mg"},{"bike_id":"cd0ad1b8-13a6-4a77-b504-90d8244cd83a","system_id":"levelo_inurba_marseille","lat":43.27078,"lon":5.42307,"is_reserved":false,"is_disabled":true,"rental_uris":{"android":"levelo://app?vid=cd0ad1b8-13a6-4a77-b504-90d8244cd83a","ios":"levelo://app?vid=cd0ad1b8-13a6-4a77-b504-90d8244cd83a"},"vehicle_type_id":"4","last_reported":1773962421,"current_range_meters":2800,"station_id":"ce4bhk92rcd13ifvqgb0","pricing_plan_id":"cebpf4jnsgd1na2vs0mg"},{"bike_id":"2634593b-916b-4b35-82ba-c3a2030689b2","system_id":"levelo_inurba_marseille","lat":43.2889,"lon":5.39839,"is_reserved":false,"is_disabled":false,"rental_uris":{"android":"levelo://app?vid=2634593b-916b-4b35-82ba-c3a2030689b2","ios":"levelo://app?vid=2634593b-916b-4b35-82ba-c3a2030689b2"},"vehicle_type_id":"4","last_reported":1773962421,"current_range_meters":2800,"station_id":"","pricing_plan_id":"cebpf4jnsgd1na2vs0mg"},{"bike_id":"287aad2b-264d-40ce-a410-c7320a063063","system_id":"levelo_inurba_marseille","lat":43.28345,"lon":5.38107,"is_reserved":false,"is_disabled":false,"rental_uris":{"android":"levelo://app?vid=287aad2b-264d-40ce-a410-c7320a063063","ios":"levelo://app?vid=287aad2b-264d-40ce-a410-c7320a063063"},"vehicle_type_id":"4","last_reported":1773962421,"current_range_meters":2800,"station_id":"ce4bh412rcd13ifvqdr0","pricing_plan_id":"cebpf4jnsgd1na2vs0mg"},{"bike_id":"bc8d4909-7df2-4328-940f-132ae8fb5a27","system_id":"levelo_inurba_marseille","lat":43.25591,"lon":5.38232,"is_reserved":false,"is_disabled":false,"rental_uris":{"android":"levelo://app?vid=bc8d4909-7df2-4328-940f-132ae8fb5a27","ios":"levelo://app?vid=bc8d4909-7df2-4328-940f-132ae8fb5a27"},"vehicle_type_id":"4","last_reported":1773962421,"current_range_meters":2800,"station_id":"ce4bhih2rcd13ifvqfs0","pricing_plan_id":"cebpf4jnsgd1na2vs0mg"},{"bike_id":"d0b1f448-6af4-4ef1-a755-e03baf4488aa","system_id":"levelo_inurba_marseille","lat":43.29255,"lon":5.35743,"is_reserved":false,"is_disabled":false,"rental_uris":{"android":"levelo://app?vid=d0b1f448-6af4-4ef1-a755-e03baf4488aa","ios":"levelo://app?vid=d0b1f448-6af4-4ef1-a755-e03baf4488aa"},"vehicle_type_id":"4","last_reported":1773962421,"current_range_meters":2800,"station_id":"","pricing_plan_id":"cebpf4jnsgd1na2vs0mg"},{"bike_id":"c6b4ba83-d211-421f-82a7-0a8a0abe04b2","system_id":"levelo_inurba_marseille","lat":43.28938,"lon":5.36649,"is_reserved":false,"is_disabled":false,"rental_uris":{"android":"levelo://app?vid=c6b4ba83-d211-421f-82a7-0a8a0abe04b2","ios":"levelo://app?vid=c6b4ba83-d211-421f-82a7-0a8a0abe04b2"},"vehicle_type_id":"4","last_reported":1773962421,"current_range_meters":2800,"station_id":"ce4bhap2rcd13ifvqek0","pricing_plan_id":"cebpf4jnsgd1na2vs0mg"},{"bike_id":"50c589ba-1ee7-42e5-b2e8-270213ce2a50","system_id":"levelo_inurba_marseille","lat":43.28697,"lon":5.37409,"is_reserved":false,"is_disabled":false,"rental_uris":{"android":"levelo://app?vid=50c589ba-1ee7-42e5-b2e8-270213ce2a50","ios":"levelo://app?vid=50c589ba-1ee7-42e5-b2e8-270213ce2a50"},"vehicle_type_id":"4","last_reported":1773962421,"current_range_meters":2800,"station_id":"ce4bh3p2rcd13ifvqdq0","pricing_plan_id":"cebpf4jnsgd1na2vs0mg"},{"bike_id":"141b67c1-2bbc-4c03-a951-c2575e2c0807","system_id":"levelo_inurba_marseille","lat":43.30539,"lon":5.38422,"is_reserved":false,"is_disabled":false,"rental_uris":{"android":"levelo://app?vid=141b67c1-2bbc-4c03-a951-c2575e2c0807","ios":"levelo://app?vid=141b67c1-2bbc-4c03-a951-c2575e2c0807"},"vehicle_type_id":"4","last_reported":1773962421,"current_range_meters":2800,"station_id":"ce4bgg92rcd13ifvqb30","pricing_plan_id":"cebpf4jnsgd1na2vs0mg"},{"bike_id":"50eaf021-3264-4596-be7b-fe5483994161","system_id":"levelo_inurba_marseille","lat":43.279,"lon":5.37987,"is_reserved":false,"is_disabled":false,"rental_uris":{"android":"levelo://app?vid=50eaf021-3264-4596-be7b-fe5483994161","ios":"levelo://app?vid=50eaf021-3264-4596-be7b-fe5483994161"},"vehicle_type_id":"4","last_reported":1773962421,"current_range_meters":2800,"station_id":"ce4bhf92rcd13ifvqf50","pricing_plan_id":"cebpf4jnsgd1na2vs0mg"},{"bike_id":"0411d334-a130-4157-8a51-2d284b32e855","system_id":"levelo_inurba_marseille","lat":43.31375,"lon":5.38479,"is_reserved":false,"is_disabled":false,"rental_uris":{"android":"levelo://app?vid=0411d334-a130-4157-8a51-2d284b32e855","ios":"levelo://app?vid=0411d334-a130-4157-8a51-2d284b32e855"},"vehicle_type_id":"4","last_reported":1773962421,"current_range_meters":2800,"station_id":"ce4bgt92rcd13ifvqcf0","pricing_plan_id":"cebpf4jnsgd1na2vs0mg"},{"bike_id":"2823a948-f533-43f1-8827-327fd8f55608","system_id":"levelo_inurba_marseille","lat":43.32002,"lon":5.38168,"is_reserved":false,"is_disabled":false,"rental_uris":{"android":"levelo://app?vid=2823a948-f533-43f1-8827-327fd8f55608","ios":"levelo://app?vid=2823a948-f533-43f1-8827-327fd8f55608"},"vehicle_type_id":"4","last_reported":1773962421,"current_range_meters":2800,"station_id":"ce4bhr12rcd13ifvqhpg","pricing_plan_id":"cebpf4jnsgd1na2vs0mg"},{"bike_id":"90df2976-00f1-427e-bc04-5655664bfcea","system_id":"levelo_inurba_marseille","lat":43.29606,"lon":5.36763,"is_reserved":false,"is_disabled":false,"rental_uris":{"android":"levelo://app?vid=90df2976-00f1-427e-bc04-5655664bfcea","ios":"levelo://app?vid=90df2976-00f1-427e-bc04-5655664bfcea"},"vehicle_type_id":"4","last_reported":1773962421,"current_range_meters":2800,"station_id":"ce4bgph2rcd13ifvqc2g","pricing_plan_id":"cebpf4jnsgd1na2vs0mg"},{"bike_id":"fad8e96d-acb2-4874-9608-7180f6b034b8","system_id":"levelo_inurba_marseille","lat":43.29126,"lon":5.40808,"is_reserved":false,"is_disabled":false,"rental_uris":{"android":"levelo://app?vid=fad8e96d-acb2-4874-9608-7180f6b034b8","ios":"levelo://app?vid=fad8e96d-acb2-4874-9608-7180f6b034b8"},"vehicle_type_id":"4","last_reported":1773962421,"current_range_meters":2800,"station_id":"","pricing_plan_id":"cebpf4jnsgd1na2vs0mg"},{"bike_id":"447b11a1-21b5-4523-80dc-ebe593853403","system_id":"levelo_inurba_marseille","lat":43.29132,"lon":5.42614,"is_reserved":false,"is_disabled":false,"rental_uris":{"android":"levelo://app?vid=447b11a1-21b5-4523-80dc-ebe593853403","ios":"levelo://app?vid=447b11a1-21b5-4523-80dc-ebe593853403"},"vehicle_type_id":"4","last_reported":1773962421,"current_range_meters":2800,"station_id":"","pricing_plan_id":"cebpf4jnsgd1na2vs0mg"},{"bike_id":"24e3771f-e706-48ce-9711-2331d480393c","system_id":"levelo_inurba_marseille","lat":43.24824,"lon":5.37437,"is_reserved":false,"is_disabled":false,"rental_uris":{"android":"levelo://app?vid=24e3771f-e706-48ce-9711-2331d480393c","ios":"levelo://app?vid=24e3771f-e706-48ce-9711-2331d480393c"},"vehicle_type_id":"4","last_reported":1773962421,"current_range_meters":2800,"station_id":"ce4bhgh2rcd13ifvqfb0","pricing_plan_id":"cebpf4jnsgd1na2vs0mg"},{"bike_id":"365735fd-0c01-4424-a081-7a4565a71d1a","system_id":"levelo_inurba_marseille","lat":43.29771,"lon":5.37954,"is_reserved":false,"is_disabled":false,"rental_uris":{"android":"levelo://app?vid=365735fd-0c01-4424-a081-7a4565a71d1a","ios":"levelo://app?vid=365735fd-0c01-4424-a081-7a4565a71d1a"},"vehicle_type_id":"4","last_reported":1773962421,"current_range_meters":2800,"station_id":"","pricing_plan_id":"cebpf4jnsgd1na2vs0mg"},{"bike_id":"c9cfc67c-4e42-4833-b4ab-11ad690d27f6","system_id":"levelo_inurba_marseille","lat":43.33035,"lon":5.39505,"is_reserved":false,"is_disabled":false,"rental_uris":{"android":"levelo://app?vid=c9cfc67c-4e42-4833-b4ab-11ad690d27f6","ios":"levelo://app?vid=c9cfc67c-4e42-4833-b4ab-11ad690d27f6"},"vehicle_type_id":"4","last_reported":1773962421,"current_range_meters":2800,"station_id":"","pricing_plan_id":"cebpf4jnsgd1na2vs0mg"},{"bike_id":"bd76c094-5344-424d-b7c4-60f8801fbb04","system_id":"levelo_inurba_marseille","lat":43.29902,"lon":5.40255,"is_reserved":false,"is_disabled":false,"rental_uris":{"android":"levelo://app?vid=bd76c094-5344-424d-b7c4-60f8801fbb04","ios":"levelo://app?vid=bd76c094-5344-424d-b7c4-60f8801fbb04"},"vehicle_type_id":"4","last_reported":1773962421,"current_range_meters":2800,"station_id":"","pricing_plan_id":"cebpf4jnsgd1na2vs0mg"},{"bike_id":"9b0ebb06-a543-4b8c-822e-1e161ca58ce1","system_id":"levelo_inurba_marseille","lat":43.29061,"lon":5.35892,"is_reserved":false,"is_disabled":false,"rental_uris":{"android":"levelo://app?vid=9b0ebb06-a543-4b8c-822e-1e161ca58ce1","ios":"levelo://app?vid=9b0ebb06-a543-4b8c-822e-1e161ca58ce1"},"vehicle_type_id":"4","last_reported":1773962421,"current_range_meters":2800,"station_id":"ce4bha92rcd13ifvqeg0","pricing_plan_id":"cebpf4jnsgd1na2vs0mg"},{"bike_id":"392fcf9a-86d3-4e46-a438-cc6b3eecb0e3","system_id":"levelo_inurba_marseille","lat":43.28656,"lon":5.36349,"is_reserved":false,"is_disabled":false,"rental_uris":{"android":"levelo://app?vid=392fcf9a-86d3-4e46-a438-cc6b3eecb0e3","ios":"levelo://app?vid=392fcf9a-86d3-4e46-a438-cc6b3eecb0e3"},"vehicle_type_id":"4","last_reported":1773962421,"current_range_meters":3200,"station_id":"ce4bhah2rcd13ifvqej0","pricing_plan_id":"cebpf4jnsgd1na2vs0mg"},{"bike_id":"389b0881-0429-4059-b76a-4a9a1279776a","system_id":"levelo_inurba_marseille","lat":43.29699,"lon":5.36617,"is_reserved":false,"is_disabled":false,"rental_uris":{"android":"levelo://app?vid=389b0881-0429-4059-b76a-4a9a1279776a","ios":"levelo://app?vid=389b0881-0429-4059-b76a-4a9a1279776a"},"vehicle_type_id":"4","last_reported":1773962421,"current_range_meters":3200,"station_id":"ce4bgn12rcd13ifvqbt0","pricing_plan_id":"cebpf4jnsgd1na2vs0mg"},{"bike_id":"506661fa-d7d4-473c-8038-c16d45410fe8","system_id":"levelo_inurba_marseille","lat":43.28844,"lon":5.42543,"is_reserved":false,"is_disabled":false,"rental_uris":{"android":"levelo://app?vid=506661fa-d7d4-473c-8038-c16d45410fe8","ios":"levelo://app?vid=506661fa-d7d4-473c-8038-c16d45410fe8"},"vehicle_type_id":"4","last_reported":1773962421,"current_range_meters":3200,"station_id":"","pricing_plan_id":"cebpf4jnsgd1na2vs0mg"},{"bike_id":"d29c05f8-d760-43ef-be8f-e483abd8aa24","system_id":"levelo_inurba_marseille","lat":43.27602,"lon":5.36129,"is_reserved":false,"is_disabled":false,"rental_uris":{"android":"levelo://app?vid=d29c05f8-d760-43ef-be8f-e483abd8aa24","ios":"levelo://app?vid=d29c05f8-d760-43ef-be8f-e483abd8aa24"},"vehicle_type_id":"4","last_reported":1773962421,"current_range_meters":3200,"station_id":"ce4bgj92rcd13ifvqbe0","pricing_plan_id":"cebpf4jnsgd1na2vs0mg"},{"bike_id":"0396a26f-8de3-46fe-8a19-7389f60ff6b6","system_id":"levelo_inurba_marseille","lat":43.29281,"lon":5.40116,"is_reserved":false,"is_disabled":false,"rental_uris":{"android":"levelo://app?vid=0396a26f-8de3-46fe-8a19-7389f60ff6b6","ios":"levelo://app?vid=0396a26f-8de3-46fe-8a19-7389f60ff6b6"},"vehicle_type_id":"4","last_reported":1773962421,"current_range_meters":3200,"station_id":"ce4bh312rcd13ifvqdk0","pricing_plan_id":"cebpf4jnsgd1na2vs0mg"},{"bike_id":"f8e52c65-5437-433b-9fe2-9907ea3317c0","system_id":"levelo_inurba_marseille","lat":43.293067,"lon":5.401612,"is_reserved":false,"is_disabled":false,"rental_uris":{"android":"levelo://app?vid=f8e52c65-5437-433b-9fe2-9907ea3317c0","ios":"levelo://app?vid=f8e52c65-5437-433b-9fe2-9907ea3317c0"},"vehicle_type_id":"4","last_reported":1773962421,"current_range_meters":3200,"station_id":"ce4bh312rcd13ifvqdk0","pricing_plan_id":"cebpf4jnsgd1na2vs0mg"},{"bike_id":"a15529e2-dad5-4ece-a060-3e7f5185c086","system_id":"levelo_inurba_marseille","lat":43.31394,"lon":5.38499,"is_reserved":false,"is_disabled":false,"rental_uris":{"android":"levelo://app?vid=a15529e2-dad5-4ece-a060-3e7f5185c086","ios":"levelo://app?vid=a15529e2-dad5-4ece-a060-3e7f5185c086"},"vehicle_type_id":"4","last_reported":1773962421,"current_range_meters":3200,"station_id":"ce4bgt92rcd13ifvqcf0","pricing_plan_id":"cebpf4jnsgd1na2vs0mg"},{"bike_id":"56021412-2954-48fb-8987-6da69a3f68ca","system_id":"levelo_inurba_marseille","lat":43.28044,"lon":5.36939,"is_reserved":false,"is_disabled":false,"rental_uris":{"android":"levelo://app?vid=56021412-2954-48fb-8987-6da69a3f68ca","ios":"levelo://app?vid=56021412-2954-48fb-8987-6da69a3f68ca"},"vehicle_type_id":"4","last_reported":1773962421,"current_range_meters":3200,"station_id":"ce4bha12rcd13ifvqef0","pricing_plan_id":"cebpf4jnsgd1na2vs0mg"},{"bike_id":"ae1b6921-f6ba-4050-a069-e4c9fa9e7b52","system_id":"levelo_inurba_marseille","lat":43.25494,"lon":5.37671,"is_reserved":false,"is_disabled":false,"rental_uris":{"android":"levelo://app?vid=ae1b6921-f6ba-4050-a069-e4c9fa9e7b52","ios":"levelo://app?vid=ae1b6921-f6ba-4050-a069-e4c9fa9e7b52"},"vehicle_type_id":"4","last_reported":1773962421,"current_range_meters":3200,"station_id":"ce4bhh12rcd13ifvqff0","pricing_plan_id":"cebpf4jnsgd1na2vs0mg"},{"bike_id":"bca34af9-d410-4a3b-b6ad-2be2ebfb943b","system_id":"levelo_inurba_marseille","lat":43.28939,"lon":5.36628,"is_reserved":false,"is_disabled":false,"rental_uris":{"android":"levelo://app?vid=bca34af9-d410-4a3b-b6ad-2be2ebfb943b","ios":"levelo://app?vid=bca34af9-d410-4a3b-b6ad-2be2ebfb943b"},"vehicle_type_id":"4","last_reported":1773962421,"current_range_meters":3200,"station_id":"ce4bhap2rcd13ifvqek0","pricing_plan_id":"cebpf4jnsgd1na2vs0mg"},{"bike_id":"e193a20b-450a-4386-b80c-7f4426970f73","system_id":"levelo_inurba_marseille","lat":43.29588,"lon":5.36736,"is_reserved":false,"is_disabled":false,"rental_uris":{"android":"levelo://app?vid=e193a20b-450a-4386-b80c-7f4426970f73","ios":"levelo://app?vid=e193a20b-450a-4386-b80c-7f4426970f73"},"vehicle_type_id":"4","last_reported":1773962421,"current_range_meters":3200,"station_id":"ce4bgph2rcd13ifvqc2g","pricing_plan_id":"cebpf4jnsgd1na2vs0mg"},{"bike_id":"f45e3f9a-08da-47df-920d-33ae8ee029e0","system_id":"levelo_inurba_marseille","lat":43.29947,"lon":5.37459,"is_reserved":false,"is_disabled":false,"rental_uris":{"android":"levelo://app?vid=f45e3f9a-08da-47df-920d-33ae8ee029e0","ios":"levelo://app?vid=f45e3f9a-08da-47df-920d-33ae8ee029e0"},"vehicle_type_id":"4","last_reported":1773962421,"current_range_meters":3600,"station_id":"ce4bgjh2rcd13ifvqbg0","pricing_plan_id":"cebpf4jnsgd1na2vs0mg"},{"bike_id":"c3bebc21-b0e1-4d69-a2db-e18f2d40fbc4","system_id":"levelo_inurba_marseille","lat":43.30947,"lon":5.3903,"is_reserved":false,"is_disabled":false,"rental_uris":{"android":"levelo://app?vid=c3bebc21-b0e1-4d69-a2db-e18f2d40fbc4","ios":"levelo://app?vid=c3bebc21-b0e1-4d69-a2db-e18f2d40fbc4"},"vehicle_type_id":"4","last_reported":1773962421,"current_range_meters":3600,"station_id":"ce4bgup2rcd13ifvqco0","pricing_plan_id":"cebpf4jnsgd1na2vs0mg"},{"bike_id":"1fdbd032-af28-4158-a02e-01bb107fd2a7","system_id":"levelo_inurba_marseille","lat":43.337444,"lon":5.374475,"is_reserved":false,"is_disabled":false,"rental_uris":{"android":"levelo://app?vid=1fdbd032-af28-4158-a02e-01bb107fd2a7","ios":"levelo://app?vid=1fdbd032-af28-4158-a02e-01bb107fd2a7"},"vehicle_type_id":"4","last_reported":1773962421,"current_range_meters":3600,"station_id":"","pricing_plan_id":"cebpf4jnsgd1na2vs0mg"},{"bike_id":"1c51670a-46e5-4a0c-9d9c-3c2806d077a8","system_id":"levelo_inurba_marseille","lat":43.29039,"lon":5.38122,"is_reserved":false,"is_disabled":true,"rental_uris":{"android":"levelo://app?vid=1c51670a-46e5-4a0c-9d9c-3c2806d077a8","ios":"levelo://app?vid=1c51670a-46e5-4a0c-9d9c-3c2806d077a8"},"vehicle_type_id":"4","last_reported":1773962421,"current_range_meters":3600,"station_id":"ce4bh4p2rcd13ifvqe1g","pricing_plan_id":"cebpf4jnsgd1na2vs0mg"},{"bike_id":"ad0cd57e-33a0-41b1-9838-4bb8121cf1c7","system_id":"levelo_inurba_marseille","lat":43.31172,"lon":5.38698,"is_reserved":false,"is_disabled":false,"rental_uris":{"android":"levelo://app?vid=ad0cd57e-33a0-41b1-9838-4bb8121cf1c7","ios":"levelo://app?vid=ad0cd57e-33a0-41b1-9838-4bb8121cf1c7"},"vehicle_type_id":"4","last_reported":1773962421,"current_range_meters":3600,"station_id":"ce4bgv12rcd13ifvqcp0","pricing_plan_id":"cebpf4jnsgd1na2vs0mg"},{"bike_id":"13ad50bf-7f2f-4ad1-a82f-209db682ff58","system_id":"levelo_inurba_marseille","lat":43.26548,"lon":5.39052,"is_reserved":false,"is_disabled":true,"rental_uris":{"android":"levelo://app?vid=13ad50bf-7f2f-4ad1-a82f-209db682ff58","ios":"levelo://app?vid=13ad50bf-7f2f-4ad1-a82f-209db682ff58"},"vehicle_type_id":"4","last_reported":1773962421,"current_range_meters":3600,"station_id":"ce4bhe12rcd13ifvqf30","pricing_plan_id":"cebpf4jnsgd1na2vs0mg"},{"bike_id":"cbc8599d-0f53-4276-b29f-85b323d36cb9","system_id":"levelo_inurba_marseille","lat":43.25471,"lon":5.37675,"is_reserved":false,"is_disabled":false,"rental_uris":{"android":"levelo://app?vid=cbc8599d-0f53-4276-b29f-85b323d36cb9","ios":"levelo://app?vid=cbc8599d-0f53-4276-b29f-85b323d36cb9"},"vehicle_type_id":"4","last_reported":1773962421,"current_range_meters":3600,"station_id":"ce4bhh12rcd13ifvqff0","pricing_plan_id":"cebpf4jnsgd1na2vs0mg"},{"bike_id":"4e3195b9-dd9e-464c-a049-e82a7bc62b10","system_id":"levelo_inurba_marseille","lat":43.29897,"lon":5.39731,"is_reserved":false,"is_disabled":false,"rental_uris":{"android":"levelo://app?vid=4e3195b9-dd9e-464c-a049-e82a7bc62b10","ios":"levelo://app?vid=4e3195b9-dd9e-464c-a049-e82a7bc62b10"},"vehicle_type_id":"4","last_reported":1773962421,"current_range_meters":3600,"station_id":"ce4bh0h2rcd13ifvqd50","pricing_plan_id":"cebpf4jnsgd1na2vs0mg"},{"bike_id":"95d31319-d36d-403e-adf6-0b51cdaa5b1b","system_id":"levelo_inurba_marseille","lat":43.31398,"lon":5.39263,"is_reserved":false,"is_disabled":true,"rental_uris":{"android":"levelo://app?vid=95d31319-d36d-403e-adf6-0b51cdaa5b1b","ios":"levelo://app?vid=95d31319-d36d-403e-adf6-0b51cdaa5b1b"},"vehicle_type_id":"4","last_reported":1773962421,"current_range_meters":3600,"station_id":"","pricing_plan_id":"cebpf4jnsgd1na2vs0mg"},{"bike_id":"eda5f32d-2bff-4947-ae5f-931dfcef78d1","system_id":"levelo_inurba_marseille","lat":43.28573,"lon":5.39492,"is_reserved":false,"is_disabled":false,"rental_uris":{"android":"levelo://app?vid=eda5f32d-2bff-4947-ae5f-931dfcef78d1","ios":"levelo://app?vid=eda5f32d-2bff-4947-ae5f-931dfcef78d1"},"vehicle_type_id":"4","last_reported":1773962421,"current_range_meters":3600,"station_id":"ce4bh292rcd13ifvqdg0","pricing_plan_id":"cebpf4jnsgd1na2vs0mg"},{"bike_id":"ab8e59d7-35b3-41e1-95f9-9d78741bc131","system_id":"levelo_inurba_marseille","lat":43.2174,"lon":5.34614,"is_reserved":false,"is_disabled":false,"rental_uris":{"android":"levelo://app?vid=ab8e59d7-35b3-41e1-95f9-9d78741bc131","ios":"levelo://app?vid=ab8e59d7-35b3-41e1-95f9-9d78741bc131"},"vehicle_type_id":"4","last_reported":1773962421,"current_range_meters":3600,"station_id":"","pricing_plan_id":"cebpf4jnsgd1na2vs0mg"},{"bike_id":"e911ec0f-fdc6-4078-9daf-928a7b6f1135","system_id":"levelo_inurba_marseille","lat":43.30805,"lon":5.38147,"is_reserved":false,"is_disabled":false,"rental_uris":{"android":"levelo://app?vid=e911ec0f-fdc6-4078-9daf-928a7b6f1135","ios":"levelo://app?vid=e911ec0f-fdc6-4078-9daf-928a7b6f1135"},"vehicle_type_id":"4","last_reported":1773962421,"current_range_meters":3600,"station_id":"ce4bgt12rcd13ifvqce0","pricing_plan_id":"cebpf4jnsgd1na2vs0mg"},{"bike_id":"7efa6f56-19ee-4837-b835-af1e40807b1c","system_id":"levelo_inurba_marseille","lat":43.29581,"lon":5.38699,"is_reserved":false,"is_disabled":false,"rental_uris":{"android":"levelo://app?vid=7efa6f56-19ee-4837-b835-af1e40807b1c","ios":"levelo://app?vid=7efa6f56-19ee-4837-b835-af1e40807b1c"},"vehicle_type_id":"4","last_reported":1773962421,"current_range_meters":3600,"station_id":"","pricing_plan_id":"cebpf4jnsgd1na2vs0mg"},{"bike_id":"c0ae1a85-e12f-449b-babe-eee19665f7f0","system_id":"levelo_inurba_marseille","lat":43.29269,"lon":5.40894,"is_reserved":false,"is_disabled":false,"rental_uris":{"android":"levelo://app?vid=c0ae1a85-e12f-449b-babe-eee19665f7f0","ios":"levelo://app?vid=c0ae1a85-e12f-449b-babe-eee19665f7f0"},"vehicle_type_id":"4","last_reported":1773962421,"current_range_meters":3600,"station_id":"ce4bh192rcd13ifvqdc0","pricing_plan_id":"cebpf4jnsgd1na2vs0mg"},{"bike_id":"f42982ee-175e-498b-bc34-11fa90a2425d","system_id":"levelo_inurba_marseille","lat":43.29202,"lon":5.35797,"is_reserved":false,"is_disabled":false,"rental_uris":{"android":"levelo://app?vid=f42982ee-175e-498b-bc34-11fa90a2425d","ios":"levelo://app?vid=f42982ee-175e-498b-bc34-11fa90a2425d"},"vehicle_type_id":"4","last_reported":1773962421,"current_range_meters":3600,"station_id":"ce4bhb12rcd13ifvqel0","pricing_plan_id":"cebpf4jnsgd1na2vs0mg"},{"bike_id":"dd8390c9-eed9-4b5d-95df-1b40250bc11f","system_id":"levelo_inurba_marseille","lat":43.21624,"lon":5.34514,"is_reserved":false,"is_disabled":false,"rental_uris":{"android":"levelo://app?vid=dd8390c9-eed9-4b5d-95df-1b40250bc11f","ios":"levelo://app?vid=dd8390c9-eed9-4b5d-95df-1b40250bc11f"},"vehicle_type_id":"4","last_reported":1773962421,"current_range_meters":3600,"station_id":"","pricing_plan_id":"cebpf4jnsgd1na2vs0mg"},{"bike_id":"68910bfb-a210-476a-89da-8f5be2ce11af","system_id":"levelo_inurba_marseille","lat":43.30209,"lon":5.39462,"is_reserved":false,"is_disabled":false,"rental_uris":{"android":"levelo://app?vid=68910bfb-a210-476a-89da-8f5be2ce11af","ios":"levelo://app?vid=68910bfb-a210-476a-89da-8f5be2ce11af"},"vehicle_type_id":"4","last_reported":1773962421,"current_range_meters":3600,"station_id":"ce4bh0p2rcd13ifvqd70","pricing_plan_id":"cebpf4jnsgd1na2vs0mg"},{"bike_id":"49d3054f-c210-4503-a5fe-29f89c5d9460","system_id":"levelo_inurba_marseille","lat":43.30818,"lon":5.38147,"is_reserved":false,"is_disabled":false,"rental_uris":{"android":"levelo://app?vid=49d3054f-c210-4503-a5fe-29f89c5d9460","ios":"levelo://app?vid=49d3054f-c210-4503-a5fe-29f89c5d9460"},"vehicle_type_id":"4","last_reported":1773962421,"current_range_meters":3600,"station_id":"ce4bgt12rcd13ifvqce0","pricing_plan_id":"cebpf4jnsgd1na2vs0mg"},{"bike_id":"d154e39b-bb17-44a2-b44f-05209b2a5131","system_id":"levelo_inurba_marseille","lat":43.21757,"lon":5.34617,"is_reserved":false,"is_disabled":false,"rental_uris":{"android":"levelo://app?vid=d154e39b-bb17-44a2-b44f-05209b2a5131","ios":"levelo://app?vid=d154e39b-bb17-44a2-b44f-05209b2a5131"},"vehicle_type_id":"4","last_reported":1773962421,"current_range_meters":4000,"station_id":"","pricing_plan_id":"cebpf4jnsgd1na2vs0mg"},{"bike_id":"07f521f2-168c-437f-9ee7-8d100cdbdf6d","system_id":"levelo_inurba_marseille","lat":43.25572,"lon":5.38252,"is_reserved":false,"is_disabled":false,"rental_uris":{"android":"levelo://app?vid=07f521f2-168c-437f-9ee7-8d100cdbdf6d","ios":"levelo://app?vid=07f521f2-168c-437f-9ee7-8d100cdbdf6d"},"vehicle_type_id":"4","last_reported":1773962421,"current_range_meters":4000,"station_id":"ce4bhih2rcd13ifvqfs0","pricing_plan_id":"cebpf4jnsgd1na2vs0mg"},{"bike_id":"dc0f9891-d222-4b5b-a342-dcb03c4b8dfa","system_id":"levelo_inurba_marseille","lat":43.31704,"lon":5.37797,"is_reserved":false,"is_disabled":false,"rental_uris":{"android":"levelo://app?vid=dc0f9891-d222-4b5b-a342-dcb03c4b8dfa","ios":"levelo://app?vid=dc0f9891-d222-4b5b-a342-dcb03c4b8dfa"},"vehicle_type_id":"4","last_reported":1773962421,"current_range_meters":4000,"station_id":"ce4bgth2rcd13ifvqch0","pricing_plan_id":"cebpf4jnsgd1na2vs0mg"},{"bike_id":"326041aa-dca3-4b10-8601-80dee4dd32bb","system_id":"levelo_inurba_marseille","lat":43.29485,"lon":5.43303,"is_reserved":false,"is_disabled":false,"rental_uris":{"android":"levelo://app?vid=326041aa-dca3-4b10-8601-80dee4dd32bb","ios":"levelo://app?vid=326041aa-dca3-4b10-8601-80dee4dd32bb"},"vehicle_type_id":"4","last_reported":1773962421,"current_range_meters":4000,"station_id":"st_d3j5ugp08ojc73fj9d10","pricing_plan_id":"cebpf4jnsgd1na2vs0mg"},{"bike_id":"9b26818b-3db8-4616-b7fc-554ad10b2d1d","system_id":"levelo_inurba_marseille","lat":43.30926,"lon":5.40145,"is_reserved":false,"is_disabled":false,"rental_uris":{"android":"levelo://app?vid=9b26818b-3db8-4616-b7fc-554ad10b2d1d","ios":"levelo://app?vid=9b26818b-3db8-4616-b7fc-554ad10b2d1d"},"vehicle_type_id":"4","last_reported":1773962421,"current_range_meters":4000,"station_id":"ce4bgvp2rcd13ifvqct0","pricing_plan_id":"cebpf4jnsgd1na2vs0mg"},{"bike_id":"ebce1705-dc84-4260-a102-fbf1a62d110b","system_id":"levelo_inurba_marseille","lat":43.29037,"lon":5.3591,"is_reserved":false,"is_disabled":false,"rental_uris":{"android":"levelo://app?vid=ebce1705-dc84-4260-a102-fbf1a62d110b","ios":"levelo://app?vid=ebce1705-dc84-4260-a102-fbf1a62d110b"},"vehicle_type_id":"4","last_reported":1773962421,"current_range_meters":4000,"station_id":"ce4bha92rcd13ifvqeg0","pricing_plan_id":"cebpf4jnsgd1na2vs0mg"},{"bike_id":"0ee4ce16-829f-49ee-9a2a-4b4670dfbc6f","system_id":"levelo_inurba_marseille","lat":43.28478,"lon":5.48381,"is_reserved":false,"is_disabled":false,"rental_uris":{"android":"levelo://app?vid=0ee4ce16-829f-49ee-9a2a-4b4670dfbc6f","ios":"levelo://app?vid=0ee4ce16-829f-49ee-9a2a-4b4670dfbc6f"},"vehicle_type_id":"4","last_reported":1773962421,"current_range_meters":4000,"station_id":"st_d3svhcjqgbts73a3dn0g","pricing_plan_id":"cebpf4jnsgd1na2vs0mg"},{"bike_id":"b89d795d-1c98-46d3-9f6b-d6f260b371c3","system_id":"levelo_inurba_marseille","lat":43.31498,"lon":5.37302,"is_reserved":false,"is_disabled":false,"rental_uris":{"android":"levelo://app?vid=b89d795d-1c98-46d3-9f6b-d6f260b371c3","ios":"levelo://app?vid=b89d795d-1c98-46d3-9f6b-d6f260b371c3"},"vehicle_type_id":"4","last_reported":1773962421,"current_range_meters":4000,"station_id":"ce4bgt12rcd13ifvqcd0","pricing_plan_id":"cebpf4jnsgd1na2vs0mg"},{"bike_id":"22ba403d-ff98-4cfe-a033-3be640b214e2","system_id":"levelo_inurba_marseille","lat":43.25361,"lon":5.42174,"is_reserved":false,"is_disabled":false,"rental_uris":{"android":"levelo://app?vid=22ba403d-ff98-4cfe-a033-3be640b214e2","ios":"levelo://app?vid=22ba403d-ff98-4cfe-a033-3be640b214e2"},"vehicle_type_id":"4","last_reported":1773962421,"current_range_meters":4000,"station_id":"st_d2m65c5bi1j21697t3ng","pricing_plan_id":"cebpf4jnsgd1na2vs0mg"},{"bike_id":"6f0da953-2adc-429d-bb7c-360d8a3447c9","system_id":"levelo_inurba_marseille","lat":43.2744,"lon":5.41702,"is_reserved":false,"is_disabled":false,"rental_uris":{"android":"levelo://app?vid=6f0da953-2adc-429d-bb7c-360d8a3447c9","ios":"levelo://app?vid=6f0da953-2adc-429d-bb7c-360d8a3447c9"},"vehicle_type_id":"4","last_reported":1773962421,"current_range_meters":4000,"station_id":"st_d6im8g6chgec73a5pndg","pricing_plan_id":"cebpf4jnsgd1na2vs0mg"},{"bike_id":"4501febe-813d-4a2e-90b0-a8e767bdef3c","system_id":"levelo_inurba_marseille","lat":43.30799,"lon":5.37637,"is_reserved":false,"is_disabled":false,"rental_uris":{"android":"levelo://app?vid=4501febe-813d-4a2e-90b0-a8e767bdef3c","ios":"levelo://app?vid=4501febe-813d-4a2e-90b0-a8e767bdef3c"},"vehicle_type_id":"4","last_reported":1773962421,"current_range_meters":4000,"station_id":"ce4bgv92rcd13ifvqcq0","pricing_plan_id":"cebpf4jnsgd1na2vs0mg"},{"bike_id":"a97b9af1-9b46-43d3-90ff-04f2ef16d7e4","system_id":"levelo_inurba_marseille","lat":43.29875,"lon":5.39741,"is_reserved":false,"is_disabled":true,"rental_uris":{"android":"levelo://app?vid=a97b9af1-9b46-43d3-90ff-04f2ef16d7e4","ios":"levelo://app?vid=a97b9af1-9b46-43d3-90ff-04f2ef16d7e4"},"vehicle_type_id":"4","last_reported":1773962421,"current_range_meters":4000,"station_id":"ce4bh0h2rcd13ifvqd50","pricing_plan_id":"cebpf4jnsgd1na2vs0mg"},{"bike_id":"46d5a887-e69e-4b92-9937-af16138c60d7","system_id":"levelo_inurba_marseille","lat":43.25584,"lon":5.38245,"is_reserved":false,"is_disabled":false,"rental_uris":{"android":"levelo://app?vid=46d5a887-e69e-4b92-9937-af16138c60d7","ios":"levelo://app?vid=46d5a887-e69e-4b92-9937-af16138c60d7"},"vehicle_type_id":"4","last_reported":1773962421,"current_range_meters":4000,"station_id":"ce4bhih2rcd13ifvqfs0","pricing_plan_id":"cebpf4jnsgd1na2vs0mg"},{"bike_id":"d04f2b29-bd90-48f0-91bb-b79be6b2dc8e","system_id":"levelo_inurba_marseille","lat":43.31334,"lon":5.39714,"is_reserved":false,"is_disabled":false,"rental_uris":{"android":"levelo://app?vid=d04f2b29-bd90-48f0-91bb-b79be6b2dc8e","ios":"levelo://app?vid=d04f2b29-bd90-48f0-91bb-b79be6b2dc8e"},"vehicle_type_id":"4","last_reported":1773962421,"current_range_meters":4000,"station_id":"ce4bgvp2rcd13ifvqcu0","pricing_plan_id":"cebpf4jnsgd1na2vs0mg"},{"bike_id":"0070260f-bb1a-4133-91ce-a7210e38cdbe","system_id":"levelo_inurba_marseille","lat":43.30792,"lon":5.38152,"is_reserved":false,"is_disabled":false,"rental_uris":{"android":"levelo://app?vid=0070260f-bb1a-4133-91ce-a7210e38cdbe","ios":"levelo://app?vid=0070260f-bb1a-4133-91ce-a7210e38cdbe"},"vehicle_type_id":"4","last_reported":1773962421,"current_range_meters":4000,"station_id":"ce4bgt12rcd13ifvqce0","pricing_plan_id":"cebpf4jnsgd1na2vs0mg"},{"bike_id":"566f6741-178c-4dcf-bd6f-c0d5c8fce96b","system_id":"levelo_inurba_marseille","lat":43.23793,"lon":5.36612,"is_reserved":false,"is_disabled":false,"rental_uris":{"android":"levelo://app?vid=566f6741-178c-4dcf-bd6f-c0d5c8fce96b","ios":"levelo://app?vid=566f6741-178c-4dcf-bd6f-c0d5c8fce96b"},"vehicle_type_id":"4","last_reported":1773962421,"current_range_meters":4000,"station_id":"st_d3nk18o9ro0c73en2l3g","pricing_plan_id":"cebpf4jnsgd1na2vs0mg"},{"bike_id":"2f0354fc-31aa-4398-9c3e-f0f50b7b2184","system_id":"levelo_inurba_marseille","lat":43.24153,"lon":5.39723,"is_reserved":false,"is_disabled":false,"rental_uris":{"android":"levelo://app?vid=2f0354fc-31aa-4398-9c3e-f0f50b7b2184","ios":"levelo://app?vid=2f0354fc-31aa-4398-9c3e-f0f50b7b2184"},"vehicle_type_id":"4","last_reported":1773962421,"current_range_meters":4400,"station_id":"ce4bhn12rcd13ifvqgpg","pricing_plan_id":"cebpf4jnsgd1na2vs0mg"},{"bike_id":"69eb8448-c0e0-496f-831c-8ada77fd31e2","system_id":"levelo_inurba_marseille","lat":43.2306,"lon":5.35487,"is_reserved":false,"is_disabled":false,"rental_uris":{"android":"levelo://app?vid=69eb8448-c0e0-496f-831c-8ada77fd31e2","ios":"levelo://app?vid=69eb8448-c0e0-496f-831c-8ada77fd31e2"},"vehicle_type_id":"4","last_reported":1773962421,"current_range_meters":4400,"station_id":"cpo3342slgdg3j2ifvpg","pricing_plan_id":"cebpf4jnsgd1na2vs0mg"},{"bike_id":"25a235b7-3b5d-4bbd-9b7e-7bd77524d1e3","system_id":"levelo_inurba_marseille","lat":43.24135,"lon":5.39705,"is_reserved":false,"is_disabled":false,"rental_uris":{"android":"levelo://app?vid=25a235b7-3b5d-4bbd-9b7e-7bd77524d1e3","ios":"levelo://app?vid=25a235b7-3b5d-4bbd-9b7e-7bd77524d1e3"},"vehicle_type_id":"4","last_reported":1773962421,"current_range_meters":4400,"station_id":"ce4bhn12rcd13ifvqgpg","pricing_plan_id":"cebpf4jnsgd1na2vs0mg"},{"bike_id":"719e9861-af82-4022-a2ea-bd7d6f00ff5f","system_id":"levelo_inurba_marseille","lat":43.28763,"lon":5.42552,"is_reserved":false,"is_disabled":true,"rental_uris":{"android":"levelo://app?vid=719e9861-af82-4022-a2ea-bd7d6f00ff5f","ios":"levelo://app?vid=719e9861-af82-4022-a2ea-bd7d6f00ff5f"},"vehicle_type_id":"4","last_reported":1773962421,"current_range_meters":4400,"station_id":"","pricing_plan_id":"cebpf4jnsgd1na2vs0mg"},{"bike_id":"09235e4a-5f12-4e3b-b475-dd8048505ef4","system_id":"levelo_inurba_marseille","lat":43.29288,"lon":5.40145,"is_reserved":false,"is_disabled":false,"rental_uris":{"android":"levelo://app?vid=09235e4a-5f12-4e3b-b475-dd8048505ef4","ios":"levelo://app?vid=09235e4a-5f12-4e3b-b475-dd8048505ef4"},"vehicle_type_id":"4","last_reported":1773962421,"current_range_meters":4400,"station_id":"ce4bh312rcd13ifvqdk0","pricing_plan_id":"cebpf4jnsgd1na2vs0mg"},{"bike_id":"caf5e45c-f3f2-43eb-99a6-b11ec33451e8","system_id":"levelo_inurba_marseille","lat":43.23959,"lon":5.36635,"is_reserved":false,"is_disabled":false,"rental_uris":{"android":"levelo://app?vid=caf5e45c-f3f2-43eb-99a6-b11ec33451e8","ios":"levelo://app?vid=caf5e45c-f3f2-43eb-99a6-b11ec33451e8"},"vehicle_type_id":"4","last_reported":1773962421,"current_range_meters":4400,"station_id":"ce4bhi12rcd13ifvqfp0","pricing_plan_id":"cebpf4jnsgd1na2vs0mg"},{"bike_id":"bb7bd987-7ab9-4519-a618-3506eacffb15","system_id":"levelo_inurba_marseille","lat":43.32102,"lon":5.36784,"is_reserved":false,"is_disabled":false,"rental_uris":{"android":"levelo://app?vid=bb7bd987-7ab9-4519-a618-3506eacffb15","ios":"levelo://app?vid=bb7bd987-7ab9-4519-a618-3506eacffb15"},"vehicle_type_id":"4","last_reported":1773962421,"current_range_meters":4400,"station_id":"ce4bhrh2rcd13ifvqhug","pricing_plan_id":"cebpf4jnsgd1na2vs0mg"},{"bike_id":"28025302-46d2-4169-9ce9-8e064c7a81fd","system_id":"levelo_inurba_marseille","lat":43.26374,"lon":5.41085,"is_reserved":false,"is_disabled":false,"rental_uris":{"android":"levelo://app?vid=28025302-46d2-4169-9ce9-8e064c7a81fd","ios":"levelo://app?vid=28025302-46d2-4169-9ce9-8e064c7a81fd"},"vehicle_type_id":"4","last_reported":1773962421,"current_range_meters":4400,"station_id":"","pricing_plan_id":"cebpf4jnsgd1na2vs0mg"},{"bike_id":"73e44213-1cd8-4593-a09e-a9c4a914a5d2","system_id":"levelo_inurba_marseille","lat":43.2848,"lon":5.48392,"is_reserved":false,"is_disabled":false,"rental_uris":{"android":"levelo://app?vid=73e44213-1cd8-4593-a09e-a9c4a914a5d2","ios":"levelo://app?vid=73e44213-1cd8-4593-a09e-a9c4a914a5d2"},"vehicle_type_id":"4","last_reported":1773962421,"current_range_meters":4400,"station_id":"","pricing_plan_id":"cebpf4jnsgd1na2vs0mg"},{"bike_id":"0944f64e-4de5-4ff8-890e-c2dd486ccbe6","system_id":"levelo_inurba_marseille","lat":43.28457,"lon":5.35884,"is_reserved":false,"is_disabled":false,"rental_uris":{"android":"levelo://app?vid=0944f64e-4de5-4ff8-890e-c2dd486ccbe6","ios":"levelo://app?vid=0944f64e-4de5-4ff8-890e-c2dd486ccbe6"},"vehicle_type_id":"4","last_reported":1773962421,"current_range_meters":4400,"station_id":"ce4bhah2rcd13ifvqei0","pricing_plan_id":"cebpf4jnsgd1na2vs0mg"},{"bike_id":"3f5cd70c-7332-4c06-8cd6-f1e79c35bb0c","system_id":"levelo_inurba_marseille","lat":43.30372,"lon":5.42494,"is_reserved":false,"is_disabled":false,"rental_uris":{"android":"levelo://app?vid=3f5cd70c-7332-4c06-8cd6-f1e79c35bb0c","ios":"levelo://app?vid=3f5cd70c-7332-4c06-8cd6-f1e79c35bb0c"},"vehicle_type_id":"4","last_reported":1773962421,"current_range_meters":4400,"station_id":"ce4bhoh2rcd13ifvqh6g","pricing_plan_id":"cebpf4jnsgd1na2vs0mg"},{"bike_id":"606c6414-6c79-47ca-b2bc-ab62ba43fc55","system_id":"levelo_inurba_marseille","lat":43.27915,"lon":5.39579,"is_reserved":false,"is_disabled":false,"rental_uris":{"android":"levelo://app?vid=606c6414-6c79-47ca-b2bc-ab62ba43fc55","ios":"levelo://app?vid=606c6414-6c79-47ca-b2bc-ab62ba43fc55"},"vehicle_type_id":"4","last_reported":1773962421,"current_range_meters":4800,"station_id":"ce4bhf92rcd13ifvqf40","pricing_plan_id":"cebpf4jnsgd1na2vs0mg"},{"bike_id":"61abe7b6-a1d5-4fb1-8e97-6efff73823a7","system_id":"levelo_inurba_marseille","lat":43.23804,"lon":5.36606,"is_reserved":false,"is_disabled":true,"rental_uris":{"android":"levelo://app?vid=61abe7b6-a1d5-4fb1-8e97-6efff73823a7","ios":"levelo://app?vid=61abe7b6-a1d5-4fb1-8e97-6efff73823a7"},"vehicle_type_id":"4","last_reported":1773962421,"current_range_meters":4800,"station_id":"st_d3nk18o9ro0c73en2l3g","pricing_plan_id":"cebpf4jnsgd1na2vs0mg"},{"bike_id":"e0666e0d-2b87-421d-a654-8a669cd5994c","system_id":"levelo_inurba_marseille","lat":43.28867,"lon":5.39314,"is_reserved":false,"is_disabled":false,"rental_uris":{"android":"levelo://app?vid=e0666e0d-2b87-421d-a654-8a669cd5994c","ios":"levelo://app?vid=e0666e0d-2b87-421d-a654-8a669cd5994c"},"vehicle_type_id":"4","last_reported":1773962421,"current_range_meters":4800,"station_id":"ce4bh2p2rcd13ifvqdi0","pricing_plan_id":"cebpf4jnsgd1na2vs0mg"},{"bike_id":"f8002e32-7d40-48f8-99b3-a631b985eba5","system_id":"levelo_inurba_marseille","lat":43.337566,"lon":5.374557,"is_reserved":false,"is_disabled":false,"rental_uris":{"android":"levelo://app?vid=f8002e32-7d40-48f8-99b3-a631b985eba5","ios":"levelo://app?vid=f8002e32-7d40-48f8-99b3-a631b985eba5"},"vehicle_type_id":"4","last_reported":1773962421,"current_range_meters":4800,"station_id":"","pricing_plan_id":"cebpf4jnsgd1na2vs0mg"},{"bike_id":"8c29270d-5d11-446e-a3f0-f5c56ae9c816","system_id":"levelo_inurba_marseille","lat":43.27564,"lon":5.43277,"is_reserved":false,"is_disabled":false,"rental_uris":{"android":"levelo://app?vid=8c29270d-5d11-446e-a3f0-f5c56ae9c816","ios":"levelo://app?vid=8c29270d-5d11-446e-a3f0-f5c56ae9c816"},"vehicle_type_id":"4","last_reported":1773962421,"current_range_meters":4800,"station_id":"","pricing_plan_id":"cebpf4jnsgd1na2vs0mg"},{"bike_id":"a424990f-3052-48e0-895c-8bd9a527cdb2","system_id":"levelo_inurba_marseille","lat":43.27956,"lon":5.41038,"is_reserved":false,"is_disabled":false,"rental_uris":{"android":"levelo://app?vid=a424990f-3052-48e0-895c-8bd9a527cdb2","ios":"levelo://app?vid=a424990f-3052-48e0-895c-8bd9a527cdb2"},"vehicle_type_id":"4","last_reported":1773962421,"current_range_meters":4800,"station_id":"ce4bhnp2rcd13ifvqh0g","pricing_plan_id":"cebpf4jnsgd1na2vs0mg"},{"bike_id":"db4463a3-e3fd-4111-9446-1c911392be7d","system_id":"levelo_inurba_marseille","lat":43.28615,"lon":5.39872,"is_reserved":false,"is_disabled":false,"rental_uris":{"android":"levelo://app?vid=db4463a3-e3fd-4111-9446-1c911392be7d","ios":"levelo://app?vid=db4463a3-e3fd-4111-9446-1c911392be7d"},"vehicle_type_id":"4","last_reported":1773962421,"current_range_meters":4800,"station_id":"st_d4a7ka997mjs738ck50g","pricing_plan_id":"cebpf4jnsgd1na2vs0mg"},{"bike_id":"3fd8ef50-88b4-42ca-93ad-316de6f9e9bc","system_id":"levelo_inurba_marseille","lat":43.2816,"lon":5.42643,"is_reserved":false,"is_disabled":false,"rental_uris":{"android":"levelo://app?vid=3fd8ef50-88b4-42ca-93ad-316de6f9e9bc","ios":"levelo://app?vid=3fd8ef50-88b4-42ca-93ad-316de6f9e9bc"},"vehicle_type_id":"4","last_reported":1773962421,"current_range_meters":4800,"station_id":"ce4bhnh2rcd13ifvqgug","pricing_plan_id":"cebpf4jnsgd1na2vs0mg"},{"bike_id":"80b7eb86-d44d-4945-8f3c-c36c8aeeddf5","system_id":"levelo_inurba_marseille","lat":43.2823,"lon":5.39058,"is_reserved":false,"is_disabled":false,"rental_uris":{"android":"levelo://app?vid=80b7eb86-d44d-4945-8f3c-c36c8aeeddf5","ios":"levelo://app?vid=80b7eb86-d44d-4945-8f3c-c36c8aeeddf5"},"vehicle_type_id":"4","last_reported":1773962421,"current_range_meters":4800,"station_id":"ce4bhn92rcd13ifvqgsg","pricing_plan_id":"cebpf4jnsgd1na2vs0mg"},{"bike_id":"84c2bc89-ac16-472f-9704-88c892c7ea64","system_id":"levelo_inurba_marseille","lat":43.30566,"lon":5.37197,"is_reserved":false,"is_disabled":false,"rental_uris":{"android":"levelo://app?vid=84c2bc89-ac16-472f-9704-88c892c7ea64","ios":"levelo://app?vid=84c2bc89-ac16-472f-9704-88c892c7ea64"},"vehicle_type_id":"4","last_reported":1773962421,"current_range_meters":4800,"station_id":"ce4bgqh2rcd13ifvqc4g","pricing_plan_id":"cebpf4jnsgd1na2vs0mg"},{"bike_id":"5f744b7f-d9ac-4940-9d12-c0e19756661f","system_id":"levelo_inurba_marseille","lat":43.29432,"lon":5.41297,"is_reserved":false,"is_disabled":false,"rental_uris":{"android":"levelo://app?vid=5f744b7f-d9ac-4940-9d12-c0e19756661f","ios":"levelo://app?vid=5f744b7f-d9ac-4940-9d12-c0e19756661f"},"vehicle_type_id":"4","last_reported":1773962421,"current_range_meters":4800,"station_id":"","pricing_plan_id":"cebpf4jnsgd1na2vs0mg"},{"bike_id":"f7e79517-161a-451a-8a95-bb710b1b4d21","system_id":"levelo_inurba_marseille","lat":43.29787,"lon":5.37877,"is_reserved":false,"is_disabled":false,"rental_uris":{"android":"levelo://app?vid=f7e79517-161a-451a-8a95-bb710b1b4d21","ios":"levelo://app?vid=f7e79517-161a-451a-8a95-bb710b1b4d21"},"vehicle_type_id":"4","last_reported":1773962421,"current_range_meters":5600,"station_id":"","pricing_plan_id":"cebpf4jnsgd1na2vs0mg"},{"bike_id":"3ead39a4-807a-44fa-84fd-662cbd412bef","system_id":"levelo_inurba_marseille","lat":43.32103,"lon":5.3677,"is_reserved":false,"is_disabled":false,"rental_uris":{"android":"levelo://app?vid=3ead39a4-807a-44fa-84fd-662cbd412bef","ios":"levelo://app?vid=3ead39a4-807a-44fa-84fd-662cbd412bef"},"vehicle_type_id":"4","last_reported":1773962421,"current_range_meters":5600,"station_id":"ce4bhrh2rcd13ifvqhug","pricing_plan_id":"cebpf4jnsgd1na2vs0mg"},{"bike_id":"0c55ebed-028d-4191-b697-20230840fc88","system_id":"levelo_inurba_marseille","lat":43.28316,"lon":5.38094,"is_reserved":false,"is_disabled":false,"rental_uris":{"android":"levelo://app?vid=0c55ebed-028d-4191-b697-20230840fc88","ios":"levelo://app?vid=0c55ebed-028d-4191-b697-20230840fc88"},"vehicle_type_id":"4","last_reported":1773962421,"current_range_meters":5600,"station_id":"ce4bh412rcd13ifvqdr0","pricing_plan_id":"cebpf4jnsgd1na2vs0mg"},{"bike_id":"d587c369-7b5a-4f48-88cf-962803ec71ba","system_id":"levelo_inurba_marseille","lat":43.24825,"lon":5.37454,"is_reserved":false,"is_disabled":false,"rental_uris":{"android":"levelo://app?vid=d587c369-7b5a-4f48-88cf-962803ec71ba","ios":"levelo://app?vid=d587c369-7b5a-4f48-88cf-962803ec71ba"},"vehicle_type_id":"4","last_reported":1773962421,"current_range_meters":5600,"station_id":"ce4bhgh2rcd13ifvqfb0","pricing_plan_id":"cebpf4jnsgd1na2vs0mg"},{"bike_id":"69dc0199-53d1-4a6e-ade3-580f2c888e49","system_id":"levelo_inurba_marseille","lat":43.24639,"lon":5.389,"is_reserved":false,"is_disabled":false,"rental_uris":{"android":"levelo://app?vid=69dc0199-53d1-4a6e-ade3-580f2c888e49","ios":"levelo://app?vid=69dc0199-53d1-4a6e-ade3-580f2c888e49"},"vehicle_type_id":"4","last_reported":1773962421,"current_range_meters":5600,"station_id":"ce4bhg12rcd13ifvqf60","pricing_plan_id":"cebpf4jnsgd1na2vs0mg"},{"bike_id":"3cdb9282-92ea-46a0-a841-f2dd988ecc68","system_id":"levelo_inurba_marseille","lat":43.22932,"lon":5.35397,"is_reserved":false,"is_disabled":false,"rental_uris":{"android":"levelo://app?vid=3cdb9282-92ea-46a0-a841-f2dd988ecc68","ios":"levelo://app?vid=3cdb9282-92ea-46a0-a841-f2dd988ecc68"},"vehicle_type_id":"4","last_reported":1773962421,"current_range_meters":5600,"station_id":"cpo3532slgdg3j2ikp40","pricing_plan_id":"cebpf4jnsgd1na2vs0mg"},{"bike_id":"24dc1ce5-2db6-421b-869a-69d6f082b300","system_id":"levelo_inurba_marseille","lat":43.29808,"lon":5.36251,"is_reserved":false,"is_disabled":false,"rental_uris":{"android":"levelo://app?vid=24dc1ce5-2db6-421b-869a-69d6f082b300","ios":"levelo://app?vid=24dc1ce5-2db6-421b-869a-69d6f082b300"},"vehicle_type_id":"4","last_reported":1773962421,"current_range_meters":6000,"station_id":"ce4bgpp2rcd13ifvqc3g","pricing_plan_id":"cebpf4jnsgd1na2vs0mg"},{"bike_id":"864f588c-6c9a-47f2-bf8a-559a5ddb02ea","system_id":"levelo_inurba_marseille","lat":43.32108,"lon":5.36784,"is_reserved":false,"is_disabled":false,"rental_uris":{"android":"levelo://app?vid=864f588c-6c9a-47f2-bf8a-559a5ddb02ea","ios":"levelo://app?vid=864f588c-6c9a-47f2-bf8a-559a5ddb02ea"},"vehicle_type_id":"4","last_reported":1773962421,"current_range_meters":6000,"station_id":"ce4bhrh2rcd13ifvqhug","pricing_plan_id":"cebpf4jnsgd1na2vs0mg"},{"bike_id":"6018d565-5c8a-4bab-ba5d-0061fbbaec08","system_id":"levelo_inurba_marseille","lat":43.22929,"lon":5.35383,"is_reserved":false,"is_disabled":false,"rental_uris":{"android":"levelo://app?vid=6018d565-5c8a-4bab-ba5d-0061fbbaec08","ios":"levelo://app?vid=6018d565-5c8a-4bab-ba5d-0061fbbaec08"},"vehicle_type_id":"4","last_reported":1773962421,"current_range_meters":6000,"station_id":"cpo3532slgdg3j2ikp40","pricing_plan_id":"cebpf4jnsgd1na2vs0mg"},{"bike_id":"237c6a25-8f10-4278-982e-6948c42052dc","system_id":"levelo_inurba_marseille","lat":43.2846,"lon":5.35881,"is_reserved":false,"is_disabled":false,"rental_uris":{"android":"levelo://app?vid=237c6a25-8f10-4278-982e-6948c42052dc","ios":"levelo://app?vid=237c6a25-8f10-4278-982e-6948c42052dc"},"vehicle_type_id":"4","last_reported":1773962421,"current_range_meters":6000,"station_id":"ce4bhah2rcd13ifvqei0","pricing_plan_id":"cebpf4jnsgd1na2vs0mg"},{"bike_id":"e71aee5c-105a-4327-9048-67909c29ab24","system_id":"levelo_inurba_marseille","lat":43.28928,"lon":5.38385,"is_reserved":false,"is_disabled":false,"rental_uris":{"android":"levelo://app?vid=e71aee5c-105a-4327-9048-67909c29ab24","ios":"levelo://app?vid=e71aee5c-105a-4327-9048-67909c29ab24"},"vehicle_type_id":"4","last_reported":1773962421,"current_range_meters":6000,"station_id":"ce4bh612rcd13ifvqe6g","pricing_plan_id":"cebpf4jnsgd1na2vs0mg"},{"bike_id":"54ecb19e-3411-447d-b69f-81eb3f2adf32","system_id":"levelo_inurba_marseille","lat":43.28735,"lon":5.3608,"is_reserved":false,"is_disabled":false,"rental_uris":{"android":"levelo://app?vid=54ecb19e-3411-447d-b69f-81eb3f2adf32","ios":"levelo://app?vid=54ecb19e-3411-447d-b69f-81eb3f2adf32"},"vehicle_type_id":"4","last_reported":1773962421,"current_range_meters":6000,"station_id":"cki0cbj6b192h4jlfktg","pricing_plan_id":"cebpf4jnsgd1na2vs0mg"},{"bike_id":"abbf6d01-98c5-4c6a-8da3-f3a3ead823a7","system_id":"levelo_inurba_marseille","lat":43.30415,"lon":5.39759,"is_reserved":false,"is_disabled":false,"rental_uris":{"android":"levelo://app?vid=abbf6d01-98c5-4c6a-8da3-f3a3ead823a7","ios":"levelo://app?vid=abbf6d01-98c5-4c6a-8da3-f3a3ead823a7"},"vehicle_type_id":"4","last_reported":1773962421,"current_range_meters":6000,"station_id":"ce4bh092rcd13ifvqd20","pricing_plan_id":"cebpf4jnsgd1na2vs0mg"},{"bike_id":"dfb50274-b480-429d-83e7-3bb330b8540f","system_id":"levelo_inurba_marseille","lat":43.25511,"lon":5.37643,"is_reserved":false,"is_disabled":false,"rental_uris":{"android":"levelo://app?vid=dfb50274-b480-429d-83e7-3bb330b8540f","ios":"levelo://app?vid=dfb50274-b480-429d-83e7-3bb330b8540f"},"vehicle_type_id":"4","last_reported":1773962421,"current_range_meters":6000,"station_id":"ce4bhh12rcd13ifvqff0","pricing_plan_id":"cebpf4jnsgd1na2vs0mg"},{"bike_id":"aff9c66b-eec4-4ea4-8209-91fb2f32675e","system_id":"levelo_inurba_marseille","lat":43.28156,"lon":5.42643,"is_reserved":false,"is_disabled":false,"rental_uris":{"android":"levelo://app?vid=aff9c66b-eec4-4ea4-8209-91fb2f32675e","ios":"levelo://app?vid=aff9c66b-eec4-4ea4-8209-91fb2f32675e"},"vehicle_type_id":"4","last_reported":1773962421,"current_range_meters":6000,"station_id":"ce4bhnh2rcd13ifvqgug","pricing_plan_id":"cebpf4jnsgd1na2vs0mg"},{"bike_id":"06f2949a-b047-4b5f-8297-bd37c2aeff77","system_id":"levelo_inurba_marseille","lat":43.3063,"lon":5.40075,"is_reserved":false,"is_disabled":false,"rental_uris":{"android":"levelo://app?vid=06f2949a-b047-4b5f-8297-bd37c2aeff77","ios":"levelo://app?vid=06f2949a-b047-4b5f-8297-bd37c2aeff77"},"vehicle_type_id":"4","last_reported":1773962421,"current_range_meters":6000,"station_id":"ce4bh112rcd13ifvqda0","pricing_plan_id":"cebpf4jnsgd1na2vs0mg"},{"bike_id":"6cda15e7-fe2d-4eca-9a9a-008e31fbee7c","system_id":"levelo_inurba_marseille","lat":43.24672,"lon":5.38169,"is_reserved":false,"is_disabled":true,"rental_uris":{"android":"levelo://app?vid=6cda15e7-fe2d-4eca-9a9a-008e31fbee7c","ios":"levelo://app?vid=6cda15e7-fe2d-4eca-9a9a-008e31fbee7c"},"vehicle_type_id":"4","last_reported":1773962421,"current_range_meters":6000,"station_id":"ce4bhih2rcd13ifvqfr0","pricing_plan_id":"cebpf4jnsgd1na2vs0mg"},{"bike_id":"0e8cd5cc-c18c-4d31-9042-e2ffdf430415","system_id":"levelo_inurba_marseille","lat":43.31283,"lon":5.40161,"is_reserved":false,"is_disabled":false,"rental_uris":{"android":"levelo://app?vid=0e8cd5cc-c18c-4d31-9042-e2ffdf430415","ios":"levelo://app?vid=0e8cd5cc-c18c-4d31-9042-e2ffdf430415"},"vehicle_type_id":"4","last_reported":1773962421,"current_range_meters":6000,"station_id":"ce4bh092rcd13ifvqd30","pricing_plan_id":"cebpf4jnsgd1na2vs0mg"},{"bike_id":"1e2f816c-1f69-4076-ad05-a43f4981fe03","system_id":"levelo_inurba_marseille","lat":43.27839,"lon":5.3921,"is_reserved":false,"is_disabled":false,"rental_uris":{"android":"levelo://app?vid=1e2f816c-1f69-4076-ad05-a43f4981fe03","ios":"levelo://app?vid=1e2f816c-1f69-4076-ad05-a43f4981fe03"},"vehicle_type_id":"4","last_reported":1773962421,"current_range_meters":6000,"station_id":"ce4bhjp2rcd13ifvqga0","pricing_plan_id":"cebpf4jnsgd1na2vs0mg"},{"bike_id":"1a35434d-c9e2-448e-ab11-b763a506a6ff","system_id":"levelo_inurba_marseille","lat":43.29928,"lon":5.38091,"is_reserved":false,"is_disabled":true,"rental_uris":{"android":"levelo://app?vid=1a35434d-c9e2-448e-ab11-b763a506a6ff","ios":"levelo://app?vid=1a35434d-c9e2-448e-ab11-b763a506a6ff"},"vehicle_type_id":"4","last_reported":1773962421,"current_range_meters":6000,"station_id":"","pricing_plan_id":"cebpf4jnsgd1na2vs0mg"},{"bike_id":"a7708d63-d82f-4c4d-b348-e4a739be45ee","system_id":"levelo_inurba_marseille","lat":43.28397,"lon":5.37534,"is_reserved":false,"is_disabled":false,"rental_uris":{"android":"levelo://app?vid=a7708d63-d82f-4c4d-b348-e4a739be45ee","ios":"levelo://app?vid=a7708d63-d82f-4c4d-b348-e4a739be45ee"},"vehicle_type_id":"4","last_reported":1773962421,"current_range_meters":6000,"station_id":"ce4bh412rcd13ifvqds0","pricing_plan_id":"cebpf4jnsgd1na2vs0mg"},{"bike_id":"12c89621-b0e8-4f46-b9cf-0967f7977c4d","system_id":"levelo_inurba_marseille","lat":43.269402,"lon":5.402552,"is_reserved":false,"is_disabled":false,"rental_uris":{"android":"levelo://app?vid=12c89621-b0e8-4f46-b9cf-0967f7977c4d","ios":"levelo://app?vid=12c89621-b0e8-4f46-b9cf-0967f7977c4d"},"vehicle_type_id":"4","last_reported":1773962421,"current_range_meters":6000,"station_id":"cjm6bp8fraef2m0cb0m0","pricing_plan_id":"cebpf4jnsgd1na2vs0mg"},{"bike_id":"901df508-52f7-4d28-8460-c2850201844e","system_id":"levelo_inurba_marseille","lat":43.27331,"lon":5.39119,"is_reserved":false,"is_disabled":false,"rental_uris":{"android":"levelo://app?vid=901df508-52f7-4d28-8460-c2850201844e","ios":"levelo://app?vid=901df508-52f7-4d28-8460-c2850201844e"},"vehicle_type_id":"4","last_reported":1773962421,"current_range_meters":6000,"station_id":"ce4bhgp2rcd13ifvqfe0","pricing_plan_id":"cebpf4jnsgd1na2vs0mg"},{"bike_id":"cf21a704-d1d6-45ac-b508-b7d48f023c9f","system_id":"levelo_inurba_marseille","lat":43.32137,"lon":5.36736,"is_reserved":false,"is_disabled":false,"rental_uris":{"android":"levelo://app?vid=cf21a704-d1d6-45ac-b508-b7d48f023c9f","ios":"levelo://app?vid=cf21a704-d1d6-45ac-b508-b7d48f023c9f"},"vehicle_type_id":"4","last_reported":1773962421,"current_range_meters":6400,"station_id":"","pricing_plan_id":"cebpf4jnsgd1na2vs0mg"},{"bike_id":"a9b7ca13-2660-4df5-ac7e-17daa08bbb3e","system_id":"levelo_inurba_marseille","lat":43.28924,"lon":5.38382,"is_reserved":false,"is_disabled":false,"rental_uris":{"android":"levelo://app?vid=a9b7ca13-2660-4df5-ac7e-17daa08bbb3e","ios":"levelo://app?vid=a9b7ca13-2660-4df5-ac7e-17daa08bbb3e"},"vehicle_type_id":"4","last_reported":1773962421,"current_range_meters":6400,"station_id":"ce4bh612rcd13ifvqe6g","pricing_plan_id":"cebpf4jnsgd1na2vs0mg"},{"bike_id":"6fb9b3df-00d7-49db-8cc0-5408ffc3cc0c","system_id":"levelo_inurba_marseille","lat":43.28158,"lon":5.42644,"is_reserved":false,"is_disabled":false,"rental_uris":{"android":"levelo://app?vid=6fb9b3df-00d7-49db-8cc0-5408ffc3cc0c","ios":"levelo://app?vid=6fb9b3df-00d7-49db-8cc0-5408ffc3cc0c"},"vehicle_type_id":"4","last_reported":1773962421,"current_range_meters":6400,"station_id":"ce4bhnh2rcd13ifvqgug","pricing_plan_id":"cebpf4jnsgd1na2vs0mg"},{"bike_id":"9e509105-ac6b-43ca-9508-4c17bcc456f1","system_id":"levelo_inurba_marseille","lat":43.30356,"lon":5.4187,"is_reserved":false,"is_disabled":false,"rental_uris":{"android":"levelo://app?vid=9e509105-ac6b-43ca-9508-4c17bcc456f1","ios":"levelo://app?vid=9e509105-ac6b-43ca-9508-4c17bcc456f1"},"vehicle_type_id":"4","last_reported":1773962421,"current_range_meters":6400,"station_id":"ce4bhop2rcd13ifvqh7g","pricing_plan_id":"cebpf4jnsgd1na2vs0mg"},{"bike_id":"78beea6e-fd38-45c1-919e-297e7a3c4aab","system_id":"levelo_inurba_marseille","lat":43.28603,"lon":5.37057,"is_reserved":false,"is_disabled":false,"rental_uris":{"android":"levelo://app?vid=78beea6e-fd38-45c1-919e-297e7a3c4aab","ios":"levelo://app?vid=78beea6e-fd38-45c1-919e-297e7a3c4aab"},"vehicle_type_id":"4","last_reported":1773962421,"current_range_meters":6400,"station_id":"ce4bht12rcd13ifvqi60","pricing_plan_id":"cebpf4jnsgd1na2vs0mg"},{"bike_id":"dd10efc5-28b9-436a-be78-8011941e89fc","system_id":"levelo_inurba_marseille","lat":43.28467,"lon":5.48396,"is_reserved":false,"is_disabled":false,"rental_uris":{"android":"levelo://app?vid=dd10efc5-28b9-436a-be78-8011941e89fc","ios":"levelo://app?vid=dd10efc5-28b9-436a-be78-8011941e89fc"},"vehicle_type_id":"4","last_reported":1773962421,"current_range_meters":6400,"station_id":"st_d3svhcjqgbts73a3dn0g","pricing_plan_id":"cebpf4jnsgd1na2vs0mg"},{"bike_id":"a7589a93-7e92-46e3-9adb-33c382fc7b2d","system_id":"levelo_inurba_marseille","lat":43.23961,"lon":5.36627,"is_reserved":false,"is_disabled":false,"rental_uris":{"android":"levelo://app?vid=a7589a93-7e92-46e3-9adb-33c382fc7b2d","ios":"levelo://app?vid=a7589a93-7e92-46e3-9adb-33c382fc7b2d"},"vehicle_type_id":"4","last_reported":1773962421,"current_range_meters":6400,"station_id":"ce4bhi12rcd13ifvqfp0","pricing_plan_id":"cebpf4jnsgd1na2vs0mg"},{"bike_id":"e84409cd-ab11-47ab-92ac-0bad50daf5c3","system_id":"levelo_inurba_marseille","lat":43.31899,"lon":5.36803,"is_reserved":false,"is_disabled":false,"rental_uris":{"android":"levelo://app?vid=e84409cd-ab11-47ab-92ac-0bad50daf5c3","ios":"levelo://app?vid=e84409cd-ab11-47ab-92ac-0bad50daf5c3"},"vehicle_type_id":"4","last_reported":1773962421,"current_range_meters":6400,"station_id":"st_d6o2h0d0559c73evc1b0","pricing_plan_id":"cebpf4jnsgd1na2vs0mg"},{"bike_id":"17a139df-17a2-4cb5-8cdc-aa40d036a00a","system_id":"levelo_inurba_marseille","lat":43.23791,"lon":5.36627,"is_reserved":false,"is_disabled":false,"rental_uris":{"android":"levelo://app?vid=17a139df-17a2-4cb5-8cdc-aa40d036a00a","ios":"levelo://app?vid=17a139df-17a2-4cb5-8cdc-aa40d036a00a"},"vehicle_type_id":"4","last_reported":1773962421,"current_range_meters":6400,"station_id":"st_d3nk18o9ro0c73en2l3g","pricing_plan_id":"cebpf4jnsgd1na2vs0mg"},{"bike_id":"fc7efc5d-1cfc-4478-be02-6cad154d8e35","system_id":"levelo_inurba_marseille","lat":43.28863,"lon":5.39325,"is_reserved":false,"is_disabled":false,"rental_uris":{"android":"levelo://app?vid=fc7efc5d-1cfc-4478-be02-6cad154d8e35","ios":"levelo://app?vid=fc7efc5d-1cfc-4478-be02-6cad154d8e35"},"vehicle_type_id":"4","last_reported":1773962421,"current_range_meters":6400,"station_id":"ce4bh2p2rcd13ifvqdi0","pricing_plan_id":"cebpf4jnsgd1na2vs0mg"},{"bike_id":"778dccca-a702-4182-bbb1-44fc206fadf5","system_id":"levelo_inurba_marseille","lat":43.30187,"lon":5.36585,"is_reserved":false,"is_disabled":false,"rental_uris":{"android":"levelo://app?vid=778dccca-a702-4182-bbb1-44fc206fadf5","ios":"levelo://app?vid=778dccca-a702-4182-bbb1-44fc206fadf5"},"vehicle_type_id":"4","last_reported":1773962421,"current_range_meters":6400,"station_id":"ce4bgrh2rcd13ifvqc8g","pricing_plan_id":"cebpf4jnsgd1na2vs0mg"},{"bike_id":"e1fcda96-10f8-4416-a2de-b3c0381d6f12","system_id":"levelo_inurba_marseille","lat":43.27377,"lon":5.36247,"is_reserved":false,"is_disabled":true,"rental_uris":{"android":"levelo://app?vid=e1fcda96-10f8-4416-a2de-b3c0381d6f12","ios":"levelo://app?vid=e1fcda96-10f8-4416-a2de-b3c0381d6f12"},"vehicle_type_id":"4","last_reported":1773962421,"current_range_meters":6400,"station_id":"ce4bhbh2rcd13ifvqeo0","pricing_plan_id":"cebpf4jnsgd1na2vs0mg"},{"bike_id":"7fb26005-b04a-411f-ab89-80dcf676c1a9","system_id":"levelo_inurba_marseille","lat":43.28619,"lon":5.35101,"is_reserved":false,"is_disabled":false,"rental_uris":{"android":"levelo://app?vid=7fb26005-b04a-411f-ab89-80dcf676c1a9","ios":"levelo://app?vid=7fb26005-b04a-411f-ab89-80dcf676c1a9"},"vehicle_type_id":"4","last_reported":1773962421,"current_range_meters":6400,"station_id":"ce4bhch2rcd13ifvqeug","pricing_plan_id":"cebpf4jnsgd1na2vs0mg"},{"bike_id":"8691b55f-c8cb-4c5e-9ada-7af52853c186","system_id":"levelo_inurba_marseille","lat":43.28878,"lon":5.35844,"is_reserved":false,"is_disabled":false,"rental_uris":{"android":"levelo://app?vid=8691b55f-c8cb-4c5e-9ada-7af52853c186","ios":"levelo://app?vid=8691b55f-c8cb-4c5e-9ada-7af52853c186"},"vehicle_type_id":"4","last_reported":1773962421,"current_range_meters":6400,"station_id":"ce4bhb12rcd13ifvqem0","pricing_plan_id":"cebpf4jnsgd1na2vs0mg"},{"bike_id":"1ed14975-ffc4-4856-bb43-9428d8562a11","system_id":"levelo_inurba_marseille","lat":43.28366,"lon":5.38111,"is_reserved":false,"is_disabled":false,"rental_uris":{"android":"levelo://app?vid=1ed14975-ffc4-4856-bb43-9428d8562a11","ios":"levelo://app?vid=1ed14975-ffc4-4856-bb43-9428d8562a11"},"vehicle_type_id":"4","last_reported":1773962421,"current_range_meters":6400,"station_id":"ce4bh412rcd13ifvqdr0","pricing_plan_id":"cebpf4jnsgd1na2vs0mg"},{"bike_id":"cc0dec12-ec6b-4ec9-b9a4-eaf9f1c479b1","system_id":"levelo_inurba_marseille","lat":43.29374,"lon":5.37427,"is_reserved":false,"is_disabled":false,"rental_uris":{"android":"levelo://app?vid=cc0dec12-ec6b-4ec9-b9a4-eaf9f1c479b1","ios":"levelo://app?vid=cc0dec12-ec6b-4ec9-b9a4-eaf9f1c479b1"},"vehicle_type_id":"4","last_reported":1773962421,"current_range_meters":6800,"station_id":"","pricing_plan_id":"cebpf4jnsgd1na2vs0mg"},{"bike_id":"a11c8cfa-453a-4892-a974-6a22bafa8290","system_id":"levelo_inurba_marseille","lat":43.23192,"lon":5.35544,"is_reserved":false,"is_disabled":false,"rental_uris":{"android":"levelo://app?vid=a11c8cfa-453a-4892-a974-6a22bafa8290","ios":"levelo://app?vid=a11c8cfa-453a-4892-a974-6a22bafa8290"},"vehicle_type_id":"4","last_reported":1773962421,"current_range_meters":6800,"station_id":"ce4bhu92rcd13ifvqi70","pricing_plan_id":"cebpf4jnsgd1na2vs0mg"},{"bike_id":"081a0881-89b6-4aec-8d87-38fd39de8439","system_id":"levelo_inurba_marseille","lat":43.28532,"lon":5.44105,"is_reserved":false,"is_disabled":false,"rental_uris":{"android":"levelo://app?vid=081a0881-89b6-4aec-8d87-38fd39de8439","ios":"levelo://app?vid=081a0881-89b6-4aec-8d87-38fd39de8439"},"vehicle_type_id":"4","last_reported":1773962421,"current_range_meters":6800,"station_id":"st_d3j3df2ikq2c7380ej80","pricing_plan_id":"cebpf4jnsgd1na2vs0mg"},{"bike_id":"dd2f7881-755c-4593-bb3a-7ba359f1b823","system_id":"levelo_inurba_marseille","lat":43.29108,"lon":5.38167,"is_reserved":false,"is_disabled":true,"rental_uris":{"android":"levelo://app?vid=dd2f7881-755c-4593-bb3a-7ba359f1b823","ios":"levelo://app?vid=dd2f7881-755c-4593-bb3a-7ba359f1b823"},"vehicle_type_id":"4","last_reported":1773962421,"current_range_meters":6800,"station_id":"ce4bh512rcd13ifvqe2g","pricing_plan_id":"cebpf4jnsgd1na2vs0mg"},{"bike_id":"d5f7f0bf-c4f5-45e1-bf7d-f4959ca7505e","system_id":"levelo_inurba_marseille","lat":43.24402,"lon":5.3709,"is_reserved":false,"is_disabled":false,"rental_uris":{"android":"levelo://app?vid=d5f7f0bf-c4f5-45e1-bf7d-f4959ca7505e","ios":"levelo://app?vid=d5f7f0bf-c4f5-45e1-bf7d-f4959ca7505e"},"vehicle_type_id":"4","last_reported":1773962421,"current_range_meters":6800,"station_id":"ce4bhhh2rcd13ifvqfk0","pricing_plan_id":"cebpf4jnsgd1na2vs0mg"},{"bike_id":"fb9f1d22-8aec-4a54-b4db-79f30174e92d","system_id":"levelo_inurba_marseille","lat":43.30888,"lon":5.39649,"is_reserved":false,"is_disabled":false,"rental_uris":{"android":"levelo://app?vid=fb9f1d22-8aec-4a54-b4db-79f30174e92d","ios":"levelo://app?vid=fb9f1d22-8aec-4a54-b4db-79f30174e92d"},"vehicle_type_id":"4","last_reported":1773962421,"current_range_meters":6800,"station_id":"ce4bh012rcd13ifvqcv0","pricing_plan_id":"cebpf4jnsgd1na2vs0mg"},{"bike_id":"d03a2022-6922-4b85-aada-659333694e5e","system_id":"levelo_inurba_marseille","lat":43.31206,"lon":5.38725,"is_reserved":false,"is_disabled":true,"rental_uris":{"android":"levelo://app?vid=d03a2022-6922-4b85-aada-659333694e5e","ios":"levelo://app?vid=d03a2022-6922-4b85-aada-659333694e5e"},"vehicle_type_id":"4","last_reported":1773962421,"current_range_meters":6800,"station_id":"ce4bgv12rcd13ifvqcp0","pricing_plan_id":"cebpf4jnsgd1na2vs0mg"},{"bike_id":"7d7853e1-0f0f-4593-acfa-ac807596e39d","system_id":"levelo_inurba_marseille","lat":43.28695,"lon":5.3738,"is_reserved":false,"is_disabled":false,"rental_uris":{"android":"levelo://app?vid=7d7853e1-0f0f-4593-acfa-ac807596e39d","ios":"levelo://app?vid=7d7853e1-0f0f-4593-acfa-ac807596e39d"},"vehicle_type_id":"4","last_reported":1773962421,"current_range_meters":6800,"station_id":"ce4bh3p2rcd13ifvqdq0","pricing_plan_id":"cebpf4jnsgd1na2vs0mg"},{"bike_id":"47b958a5-a9e9-4494-8472-abb0f760256b","system_id":"levelo_inurba_marseille","lat":43.23792,"lon":5.36623,"is_reserved":false,"is_disabled":false,"rental_uris":{"android":"levelo://app?vid=47b958a5-a9e9-4494-8472-abb0f760256b","ios":"levelo://app?vid=47b958a5-a9e9-4494-8472-abb0f760256b"},"vehicle_type_id":"4","last_reported":1773962421,"current_range_meters":6800,"station_id":"st_d3nk18o9ro0c73en2l3g","pricing_plan_id":"cebpf4jnsgd1na2vs0mg"},{"bike_id":"d51fe815-5335-4e1f-8e42-efe91c7e85aa","system_id":"levelo_inurba_marseille","lat":43.22911,"lon":5.35361,"is_reserved":false,"is_disabled":false,"rental_uris":{"android":"levelo://app?vid=d51fe815-5335-4e1f-8e42-efe91c7e85aa","ios":"levelo://app?vid=d51fe815-5335-4e1f-8e42-efe91c7e85aa"},"vehicle_type_id":"4","last_reported":1773962421,"current_range_meters":6800,"station_id":"cpo3532slgdg3j2ikp40","pricing_plan_id":"cebpf4jnsgd1na2vs0mg"},{"bike_id":"b7e87515-c3ea-478e-bf01-a70f86b2f092","system_id":"levelo_inurba_marseille","lat":43.24169,"lon":5.36413,"is_reserved":false,"is_disabled":false,"rental_uris":{"android":"levelo://app?vid=b7e87515-c3ea-478e-bf01-a70f86b2f092","ios":"levelo://app?vid=b7e87515-c3ea-478e-bf01-a70f86b2f092"},"vehicle_type_id":"4","last_reported":1773962421,"current_range_meters":6800,"station_id":"cpo36qri1sfpv3e86is0","pricing_plan_id":"cebpf4jnsgd1na2vs0mg"},{"bike_id":"b5d9b7e8-6bf7-4c13-9f97-bba138fa09d7","system_id":"levelo_inurba_marseille","lat":43.28707,"lon":5.39973,"is_reserved":false,"is_disabled":false,"rental_uris":{"android":"levelo://app?vid=b5d9b7e8-6bf7-4c13-9f97-bba138fa09d7","ios":"levelo://app?vid=b5d9b7e8-6bf7-4c13-9f97-bba138fa09d7"},"vehicle_type_id":"4","last_reported":1773962421,"current_range_meters":6800,"station_id":"ce4bho92rcd13ifvqh3g","pricing_plan_id":"cebpf4jnsgd1na2vs0mg"},{"bike_id":"2042b168-377d-44b9-86a1-a8003ce7916b","system_id":"levelo_inurba_marseille","lat":43.31346,"lon":5.38815,"is_reserved":false,"is_disabled":false,"rental_uris":{"android":"levelo://app?vid=2042b168-377d-44b9-86a1-a8003ce7916b","ios":"levelo://app?vid=2042b168-377d-44b9-86a1-a8003ce7916b"},"vehicle_type_id":"4","last_reported":1773962421,"current_range_meters":6800,"station_id":"","pricing_plan_id":"cebpf4jnsgd1na2vs0mg"},{"bike_id":"1fa6ae88-4570-45b6-a22f-8f6c4c98f8a7","system_id":"levelo_inurba_marseille","lat":43.284,"lon":5.37544,"is_reserved":false,"is_disabled":false,"rental_uris":{"android":"levelo://app?vid=1fa6ae88-4570-45b6-a22f-8f6c4c98f8a7","ios":"levelo://app?vid=1fa6ae88-4570-45b6-a22f-8f6c4c98f8a7"},"vehicle_type_id":"4","last_reported":1773962421,"current_range_meters":6800,"station_id":"ce4bh412rcd13ifvqds0","pricing_plan_id":"cebpf4jnsgd1na2vs0mg"},{"bike_id":"61239933-bb7a-43f4-b487-1165a24cf210","system_id":"levelo_inurba_marseille","lat":43.29636,"lon":5.40597,"is_reserved":false,"is_disabled":false,"rental_uris":{"android":"levelo://app?vid=61239933-bb7a-43f4-b487-1165a24cf210","ios":"levelo://app?vid=61239933-bb7a-43f4-b487-1165a24cf210"},"vehicle_type_id":"4","last_reported":1773962421,"current_range_meters":6800,"station_id":"ce4bh0h2rcd13ifvqd60","pricing_plan_id":"cebpf4jnsgd1na2vs0mg"},{"bike_id":"be523ae7-f0fc-4e2a-970b-30a3029fa717","system_id":"levelo_inurba_marseille","lat":43.28483,"lon":5.48384,"is_reserved":false,"is_disabled":false,"rental_uris":{"android":"levelo://app?vid=be523ae7-f0fc-4e2a-970b-30a3029fa717","ios":"levelo://app?vid=be523ae7-f0fc-4e2a-970b-30a3029fa717"},"vehicle_type_id":"4","last_reported":1773962421,"current_range_meters":6800,"station_id":"","pricing_plan_id":"cebpf4jnsgd1na2vs0mg"},{"bike_id":"4a60aa53-47a8-4af9-8332-c7495b0c46f4","system_id":"levelo_inurba_marseille","lat":43.31177,"lon":5.38726,"is_reserved":false,"is_disabled":false,"rental_uris":{"android":"levelo://app?vid=4a60aa53-47a8-4af9-8332-c7495b0c46f4","ios":"levelo://app?vid=4a60aa53-47a8-4af9-8332-c7495b0c46f4"},"vehicle_type_id":"4","last_reported":1773962421,"current_range_meters":6800,"station_id":"ce4bgv12rcd13ifvqcp0","pricing_plan_id":"cebpf4jnsgd1na2vs0mg"},{"bike_id":"27cfd7f2-48c6-4fe4-9d82-e5b76120df75","system_id":"levelo_inurba_marseille","lat":43.29797,"lon":5.44063,"is_reserved":false,"is_disabled":false,"rental_uris":{"android":"levelo://app?vid=27cfd7f2-48c6-4fe4-9d82-e5b76120df75","ios":"levelo://app?vid=27cfd7f2-48c6-4fe4-9d82-e5b76120df75"},"vehicle_type_id":"4","last_reported":1773962421,"current_range_meters":7200,"station_id":"st_d3jp68qikq2c7381ktn0","pricing_plan_id":"cebpf4jnsgd1na2vs0mg"},{"bike_id":"13ece891-29b9-4ae9-a4c4-ae3da55ec954","system_id":"levelo_inurba_marseille","lat":43.23192,"lon":5.35555,"is_reserved":false,"is_disabled":false,"rental_uris":{"android":"levelo://app?vid=13ece891-29b9-4ae9-a4c4-ae3da55ec954","ios":"levelo://app?vid=13ece891-29b9-4ae9-a4c4-ae3da55ec954"},"vehicle_type_id":"4","last_reported":1773962421,"current_range_meters":7200,"station_id":"ce4bhu92rcd13ifvqi70","pricing_plan_id":"cebpf4jnsgd1na2vs0mg"},{"bike_id":"92fded19-de99-42e5-8e2b-38526f48eef0","system_id":"levelo_inurba_marseille","lat":43.28447,"lon":5.3591,"is_reserved":false,"is_disabled":false,"rental_uris":{"android":"levelo://app?vid=92fded19-de99-42e5-8e2b-38526f48eef0","ios":"levelo://app?vid=92fded19-de99-42e5-8e2b-38526f48eef0"},"vehicle_type_id":"4","last_reported":1773962421,"current_range_meters":7200,"station_id":"ce4bhah2rcd13ifvqei0","pricing_plan_id":"cebpf4jnsgd1na2vs0mg"},{"bike_id":"addd9e53-bfde-4c2f-8c89-4a891b6a7add","system_id":"levelo_inurba_marseille","lat":43.3134,"lon":5.37916,"is_reserved":false,"is_disabled":false,"rental_uris":{"android":"levelo://app?vid=addd9e53-bfde-4c2f-8c89-4a891b6a7add","ios":"levelo://app?vid=addd9e53-bfde-4c2f-8c89-4a891b6a7add"},"vehicle_type_id":"4","last_reported":1773962421,"current_range_meters":7200,"station_id":"","pricing_plan_id":"cebpf4jnsgd1na2vs0mg"},{"bike_id":"bd60a6ec-18d4-4476-ab1b-f354043c4b72","system_id":"levelo_inurba_marseille","lat":43.29789,"lon":5.42573,"is_reserved":false,"is_disabled":false,"rental_uris":{"android":"levelo://app?vid=bd60a6ec-18d4-4476-ab1b-f354043c4b72","ios":"levelo://app?vid=bd60a6ec-18d4-4476-ab1b-f354043c4b72"},"vehicle_type_id":"4","last_reported":1773962421,"current_range_meters":7200,"station_id":"","pricing_plan_id":"cebpf4jnsgd1na2vs0mg"},{"bike_id":"52f6a6b9-7af9-4956-b458-baf5061e66bf","system_id":"levelo_inurba_marseille","lat":43.23349,"lon":5.44488,"is_reserved":false,"is_disabled":false,"rental_uris":{"android":"levelo://app?vid=52f6a6b9-7af9-4956-b458-baf5061e66bf","ios":"levelo://app?vid=52f6a6b9-7af9-4956-b458-baf5061e66bf"},"vehicle_type_id":"4","last_reported":1773962421,"current_range_meters":7200,"station_id":"","pricing_plan_id":"cebpf4jnsgd1na2vs0mg"},{"bike_id":"347a0133-45d3-4213-ae48-606f4453bbf3","system_id":"levelo_inurba_marseille","lat":43.23057,"lon":5.35493,"is_reserved":false,"is_disabled":false,"rental_uris":{"android":"levelo://app?vid=347a0133-45d3-4213-ae48-606f4453bbf3","ios":"levelo://app?vid=347a0133-45d3-4213-ae48-606f4453bbf3"},"vehicle_type_id":"4","last_reported":1773962421,"current_range_meters":7200,"station_id":"cpo3342slgdg3j2ifvpg","pricing_plan_id":"cebpf4jnsgd1na2vs0mg"},{"bike_id":"5b633a99-6e6c-40eb-b51a-c5e14db697a0","system_id":"levelo_inurba_marseille","lat":43.27122,"lon":5.42276,"is_reserved":false,"is_disabled":false,"rental_uris":{"android":"levelo://app?vid=5b633a99-6e6c-40eb-b51a-c5e14db697a0","ios":"levelo://app?vid=5b633a99-6e6c-40eb-b51a-c5e14db697a0"},"vehicle_type_id":"4","last_reported":1773962421,"current_range_meters":7200,"station_id":"ce4bhk92rcd13ifvqgb0","pricing_plan_id":"cebpf4jnsgd1na2vs0mg"},{"bike_id":"31de91b8-2554-4f66-8bc6-9dfb581be216","system_id":"levelo_inurba_marseille","lat":43.28854,"lon":5.39328,"is_reserved":false,"is_disabled":false,"rental_uris":{"android":"levelo://app?vid=31de91b8-2554-4f66-8bc6-9dfb581be216","ios":"levelo://app?vid=31de91b8-2554-4f66-8bc6-9dfb581be216"},"vehicle_type_id":"4","last_reported":1773962421,"current_range_meters":7200,"station_id":"ce4bh2p2rcd13ifvqdi0","pricing_plan_id":"cebpf4jnsgd1na2vs0mg"},{"bike_id":"9949bb18-8490-4f62-a48b-c7fe28a932c3","system_id":"levelo_inurba_marseille","lat":43.25859,"lon":5.39449,"is_reserved":false,"is_disabled":false,"rental_uris":{"android":"levelo://app?vid=9949bb18-8490-4f62-a48b-c7fe28a932c3","ios":"levelo://app?vid=9949bb18-8490-4f62-a48b-c7fe28a932c3"},"vehicle_type_id":"4","last_reported":1773962421,"current_range_meters":7200,"station_id":"ce4bhip2rcd13ifvqft0","pricing_plan_id":"cebpf4jnsgd1na2vs0mg"},{"bike_id":"dd83dbbe-152a-48a5-a9d8-8ef8abcaad9c","system_id":"levelo_inurba_marseille","lat":43.30788,"lon":5.38158,"is_reserved":false,"is_disabled":false,"rental_uris":{"android":"levelo://app?vid=dd83dbbe-152a-48a5-a9d8-8ef8abcaad9c","ios":"levelo://app?vid=dd83dbbe-152a-48a5-a9d8-8ef8abcaad9c"},"vehicle_type_id":"4","last_reported":1773962421,"current_range_meters":7200,"station_id":"ce4bgt12rcd13ifvqce0","pricing_plan_id":"cebpf4jnsgd1na2vs0mg"},{"bike_id":"8f912e77-86b6-4fbd-b3fe-647f78bdc68e","system_id":"levelo_inurba_marseille","lat":43.2953,"lon":5.39418,"is_reserved":false,"is_disabled":false,"rental_uris":{"android":"levelo://app?vid=8f912e77-86b6-4fbd-b3fe-647f78bdc68e","ios":"levelo://app?vid=8f912e77-86b6-4fbd-b3fe-647f78bdc68e"},"vehicle_type_id":"4","last_reported":1773962421,"current_range_meters":7200,"station_id":"ce4bh292rcd13ifvqdf0","pricing_plan_id":"cebpf4jnsgd1na2vs0mg"},{"bike_id":"9b15e990-a964-42e6-86de-69c5dc0befde","system_id":"levelo_inurba_marseille","lat":43.29194,"lon":5.3932,"is_reserved":false,"is_disabled":false,"rental_uris":{"android":"levelo://app?vid=9b15e990-a964-42e6-86de-69c5dc0befde","ios":"levelo://app?vid=9b15e990-a964-42e6-86de-69c5dc0befde"},"vehicle_type_id":"4","last_reported":1773962421,"current_range_meters":7200,"station_id":"ce4bh192rcd13ifvqdd0","pricing_plan_id":"cebpf4jnsgd1na2vs0mg"},{"bike_id":"7c3c850c-d941-46df-90f8-c540a86a8e1a","system_id":"levelo_inurba_marseille","lat":43.30129,"lon":5.43101,"is_reserved":false,"is_disabled":false,"rental_uris":{"android":"levelo://app?vid=7c3c850c-d941-46df-90f8-c540a86a8e1a","ios":"levelo://app?vid=7c3c850c-d941-46df-90f8-c540a86a8e1a"},"vehicle_type_id":"4","last_reported":1773962421,"current_range_meters":7200,"station_id":"st_d3js3co5814s73ftftug","pricing_plan_id":"cebpf4jnsgd1na2vs0mg"},{"bike_id":"15750178-4f9b-426f-bafa-493e04eb7e36","system_id":"levelo_inurba_marseille","lat":43.30818,"lon":5.40667,"is_reserved":false,"is_disabled":false,"rental_uris":{"android":"levelo://app?vid=15750178-4f9b-426f-bafa-493e04eb7e36","ios":"levelo://app?vid=15750178-4f9b-426f-bafa-493e04eb7e36"},"vehicle_type_id":"4","last_reported":1773962421,"current_range_meters":7200,"station_id":"","pricing_plan_id":"cebpf4jnsgd1na2vs0mg"},{"bike_id":"eabf4d2f-073c-41a2-a840-9f5f81a65f64","system_id":"levelo_inurba_marseille","lat":43.29098,"lon":5.42744,"is_reserved":false,"is_disabled":false,"rental_uris":{"android":"levelo://app?vid=eabf4d2f-073c-41a2-a840-9f5f81a65f64","ios":"levelo://app?vid=eabf4d2f-073c-41a2-a840-9f5f81a65f64"},"vehicle_type_id":"4","last_reported":1773962421,"current_range_meters":7200,"station_id":"","pricing_plan_id":"cebpf4jnsgd1na2vs0mg"},{"bike_id":"ab09d209-60f6-4303-8d09-86dc43261279","system_id":"levelo_inurba_marseille","lat":43.21191,"lon":5.35122,"is_reserved":false,"is_disabled":true,"rental_uris":{"android":"levelo://app?vid=ab09d209-60f6-4303-8d09-86dc43261279","ios":"levelo://app?vid=ab09d209-60f6-4303-8d09-86dc43261279"},"vehicle_type_id":"4","last_reported":1773962421,"current_range_meters":7200,"station_id":"st_cvj6sg6p6f1abm77japg","pricing_plan_id":"cebpf4jnsgd1na2vs0mg"},{"bike_id":"8388d5f1-b825-433a-9959-12e70906a3db","system_id":"levelo_inurba_marseille","lat":43.31002,"lon":5.41345,"is_reserved":false,"is_disabled":false,"rental_uris":{"android":"levelo://app?vid=8388d5f1-b825-433a-9959-12e70906a3db","ios":"levelo://app?vid=8388d5f1-b825-433a-9959-12e70906a3db"},"vehicle_type_id":"4","last_reported":1773962421,"current_range_meters":7200,"station_id":"","pricing_plan_id":"cebpf4jnsgd1na2vs0mg"},{"bike_id":"8f252525-35c5-4f44-ae60-aef6d2603d29","system_id":"levelo_inurba_marseille","lat":43.26375,"lon":5.41079,"is_reserved":false,"is_disabled":false,"rental_uris":{"android":"levelo://app?vid=8f252525-35c5-4f44-ae60-aef6d2603d29","ios":"levelo://app?vid=8f252525-35c5-4f44-ae60-aef6d2603d29"},"vehicle_type_id":"4","last_reported":1773962421,"current_range_meters":7200,"station_id":"st_d4e5ca6na9uc73bfl5fg","pricing_plan_id":"cebpf4jnsgd1na2vs0mg"},{"bike_id":"b656aabe-7c73-4de4-a3ab-51dc49496f82","system_id":"levelo_inurba_marseille","lat":43.29303,"lon":5.37153,"is_reserved":false,"is_disabled":true,"rental_uris":{"android":"levelo://app?vid=b656aabe-7c73-4de4-a3ab-51dc49496f82","ios":"levelo://app?vid=b656aabe-7c73-4de4-a3ab-51dc49496f82"},"vehicle_type_id":"4","last_reported":1773962421,"current_range_meters":8000,"station_id":"ce4bgh92rcd13ifvqb40","pricing_plan_id":"cebpf4jnsgd1na2vs0mg"},{"bike_id":"f166ec6d-40ed-451c-9dfa-0de819c12301","system_id":"levelo_inurba_marseille","lat":43.30243,"lon":5.4005,"is_reserved":false,"is_disabled":false,"rental_uris":{"android":"levelo://app?vid=f166ec6d-40ed-451c-9dfa-0de819c12301","ios":"levelo://app?vid=f166ec6d-40ed-451c-9dfa-0de819c12301"},"vehicle_type_id":"4","last_reported":1773962421,"current_range_meters":8000,"station_id":"ce4bgvh2rcd13ifvqcs0","pricing_plan_id":"cebpf4jnsgd1na2vs0mg"},{"bike_id":"4d9e23d5-bd87-4727-8d57-c47ef2bf36a8","system_id":"levelo_inurba_marseille","lat":43.29166,"lon":5.35852,"is_reserved":false,"is_disabled":false,"rental_uris":{"android":"levelo://app?vid=4d9e23d5-bd87-4727-8d57-c47ef2bf36a8","ios":"levelo://app?vid=4d9e23d5-bd87-4727-8d57-c47ef2bf36a8"},"vehicle_type_id":"4","last_reported":1773962421,"current_range_meters":8000,"station_id":"","pricing_plan_id":"cebpf4jnsgd1na2vs0mg"},{"bike_id":"b790cc6c-beda-4dcd-96dd-e541806c10fa","system_id":"levelo_inurba_marseille","lat":43.27505,"lon":5.41601,"is_reserved":false,"is_disabled":false,"rental_uris":{"android":"levelo://app?vid=b790cc6c-beda-4dcd-96dd-e541806c10fa","ios":"levelo://app?vid=b790cc6c-beda-4dcd-96dd-e541806c10fa"},"vehicle_type_id":"4","last_reported":1773962421,"current_range_meters":8000,"station_id":"st_d6im8g6chgec73a5pndg","pricing_plan_id":"cebpf4jnsgd1na2vs0mg"},{"bike_id":"9d868666-eaf2-4621-b905-f4e5ec720517","system_id":"levelo_inurba_marseille","lat":43.30333,"lon":5.40436,"is_reserved":false,"is_disabled":false,"rental_uris":{"android":"levelo://app?vid=9d868666-eaf2-4621-b905-f4e5ec720517","ios":"levelo://app?vid=9d868666-eaf2-4621-b905-f4e5ec720517"},"vehicle_type_id":"4","last_reported":1773962421,"current_range_meters":8000,"station_id":"ce4bh012rcd13ifvqd10","pricing_plan_id":"cebpf4jnsgd1na2vs0mg"},{"bike_id":"413d347b-04e3-4ee4-a48e-d84b46247dd8","system_id":"levelo_inurba_marseille","lat":43.30152,"lon":5.39832,"is_reserved":false,"is_disabled":false,"rental_uris":{"android":"levelo://app?vid=413d347b-04e3-4ee4-a48e-d84b46247dd8","ios":"levelo://app?vid=413d347b-04e3-4ee4-a48e-d84b46247dd8"},"vehicle_type_id":"4","last_reported":1773962421,"current_range_meters":8000,"station_id":"ce4bh0h2rcd13ifvqd40","pricing_plan_id":"cebpf4jnsgd1na2vs0mg"},{"bike_id":"88f62a4c-1dd5-4d07-a59a-902271acdb70","system_id":"levelo_inurba_marseille","lat":43.28147,"lon":5.42667,"is_reserved":false,"is_disabled":false,"rental_uris":{"android":"levelo://app?vid=88f62a4c-1dd5-4d07-a59a-902271acdb70","ios":"levelo://app?vid=88f62a4c-1dd5-4d07-a59a-902271acdb70"},"vehicle_type_id":"4","last_reported":1773962421,"current_range_meters":8000,"station_id":"ce4bhnh2rcd13ifvqgug","pricing_plan_id":"cebpf4jnsgd1na2vs0mg"},{"bike_id":"91754ca3-cd5e-47a5-b17b-b94faa181426","system_id":"levelo_inurba_marseille","lat":43.32017,"lon":5.36877,"is_reserved":false,"is_disabled":false,"rental_uris":{"android":"levelo://app?vid=91754ca3-cd5e-47a5-b17b-b94faa181426","ios":"levelo://app?vid=91754ca3-cd5e-47a5-b17b-b94faa181426"},"vehicle_type_id":"4","last_reported":1773962421,"current_range_meters":8000,"station_id":"ce4bhrh2rcd13ifvqhug","pricing_plan_id":"cebpf4jnsgd1na2vs0mg"},{"bike_id":"16ccec43-7801-40c2-afb5-8c23f5c16d42","system_id":"levelo_inurba_marseille","lat":43.31162,"lon":5.38729,"is_reserved":false,"is_disabled":false,"rental_uris":{"android":"levelo://app?vid=16ccec43-7801-40c2-afb5-8c23f5c16d42","ios":"levelo://app?vid=16ccec43-7801-40c2-afb5-8c23f5c16d42"},"vehicle_type_id":"4","last_reported":1773962421,"current_range_meters":8000,"station_id":"ce4bgv12rcd13ifvqcp0","pricing_plan_id":"cebpf4jnsgd1na2vs0mg"},{"bike_id":"28702845-3cf5-4a4d-8b42-ed9c9b540daf","system_id":"levelo_inurba_marseille","lat":43.29183,"lon":5.39315,"is_reserved":false,"is_disabled":false,"rental_uris":{"android":"levelo://app?vid=28702845-3cf5-4a4d-8b42-ed9c9b540daf","ios":"levelo://app?vid=28702845-3cf5-4a4d-8b42-ed9c9b540daf"},"vehicle_type_id":"4","last_reported":1773962421,"current_range_meters":8000,"station_id":"ce4bh192rcd13ifvqdd0","pricing_plan_id":"cebpf4jnsgd1na2vs0mg"},{"bike_id":"57d1ada9-1a9f-44a6-9752-b843732a3f40","system_id":"levelo_inurba_marseille","lat":43.29938,"lon":5.37129,"is_reserved":false,"is_disabled":false,"rental_uris":{"android":"levelo://app?vid=57d1ada9-1a9f-44a6-9752-b843732a3f40","ios":"levelo://app?vid=57d1ada9-1a9f-44a6-9752-b843732a3f40"},"vehicle_type_id":"4","last_reported":1773962421,"current_range_meters":8000,"station_id":"","pricing_plan_id":"cebpf4jnsgd1na2vs0mg"},{"bike_id":"92c88c59-2726-4c4d-909d-da02d7074c9c","system_id":"levelo_inurba_marseille","lat":43.31174,"lon":5.38718,"is_reserved":false,"is_disabled":false,"rental_uris":{"android":"levelo://app?vid=92c88c59-2726-4c4d-909d-da02d7074c9c","ios":"levelo://app?vid=92c88c59-2726-4c4d-909d-da02d7074c9c"},"vehicle_type_id":"4","last_reported":1773962421,"current_range_meters":8000,"station_id":"ce4bgv12rcd13ifvqcp0","pricing_plan_id":"cebpf4jnsgd1na2vs0mg"},{"bike_id":"35b98144-a8e9-4b84-b91d-3513211f7aa1","system_id":"levelo_inurba_marseille","lat":43.24799,"lon":5.37442,"is_reserved":false,"is_disabled":false,"rental_uris":{"android":"levelo://app?vid=35b98144-a8e9-4b84-b91d-3513211f7aa1","ios":"levelo://app?vid=35b98144-a8e9-4b84-b91d-3513211f7aa1"},"vehicle_type_id":"4","last_reported":1773962421,"current_range_meters":8000,"station_id":"ce4bhgh2rcd13ifvqfb0","pricing_plan_id":"cebpf4jnsgd1na2vs0mg"},{"bike_id":"cf025143-bb1e-4736-aae2-f535301f1e5e","system_id":"levelo_inurba_marseille","lat":43.30321,"lon":5.40435,"is_reserved":false,"is_disabled":false,"rental_uris":{"android":"levelo://app?vid=cf025143-bb1e-4736-aae2-f535301f1e5e","ios":"levelo://app?vid=cf025143-bb1e-4736-aae2-f535301f1e5e"},"vehicle_type_id":"4","last_reported":1773962421,"current_range_meters":8000,"station_id":"ce4bh012rcd13ifvqd10","pricing_plan_id":"cebpf4jnsgd1na2vs0mg"},{"bike_id":"22dbebf7-889c-4196-a90d-63fc97997096","system_id":"levelo_inurba_marseille","lat":43.2798,"lon":5.41653,"is_reserved":false,"is_disabled":false,"rental_uris":{"android":"levelo://app?vid=22dbebf7-889c-4196-a90d-63fc97997096","ios":"levelo://app?vid=22dbebf7-889c-4196-a90d-63fc97997096"},"vehicle_type_id":"4","last_reported":1773962421,"current_range_meters":8000,"station_id":"ce4bho12rcd13ifvqh1g","pricing_plan_id":"cebpf4jnsgd1na2vs0mg"},{"bike_id":"78bb54cf-5275-4554-9f53-8437367c33f2","system_id":"levelo_inurba_marseille","lat":43.232,"lon":5.35542,"is_reserved":false,"is_disabled":false,"rental_uris":{"android":"levelo://app?vid=78bb54cf-5275-4554-9f53-8437367c33f2","ios":"levelo://app?vid=78bb54cf-5275-4554-9f53-8437367c33f2"},"vehicle_type_id":"4","last_reported":1773962421,"current_range_meters":8000,"station_id":"ce4bhu92rcd13ifvqi70","pricing_plan_id":"cebpf4jnsgd1na2vs0mg"},{"bike_id":"ec154815-4332-4ea6-b0be-1525e5a6b5ed","system_id":"levelo_inurba_marseille","lat":43.30897,"lon":5.39637,"is_reserved":false,"is_disabled":false,"rental_uris":{"android":"levelo://app?vid=ec154815-4332-4ea6-b0be-1525e5a6b5ed","ios":"levelo://app?vid=ec154815-4332-4ea6-b0be-1525e5a6b5ed"},"vehicle_type_id":"4","last_reported":1773962421,"current_range_meters":8000,"station_id":"ce4bh012rcd13ifvqcv0","pricing_plan_id":"cebpf4jnsgd1na2vs0mg"},{"bike_id":"4ebc5a1c-fa8c-44d8-a7fc-38229c55eb9d","system_id":"levelo_inurba_marseille","lat":43.24652,"lon":5.3893,"is_reserved":false,"is_disabled":false,"rental_uris":{"android":"levelo://app?vid=4ebc5a1c-fa8c-44d8-a7fc-38229c55eb9d","ios":"levelo://app?vid=4ebc5a1c-fa8c-44d8-a7fc-38229c55eb9d"},"vehicle_type_id":"4","last_reported":1773962421,"current_range_meters":8000,"station_id":"ce4bhg12rcd13ifvqf60","pricing_plan_id":"cebpf4jnsgd1na2vs0mg"},{"bike_id":"2a46947c-d8af-4bbd-9279-06c678e5b3bf","system_id":"levelo_inurba_marseille","lat":43.3112,"lon":5.37763,"is_reserved":false,"is_disabled":false,"rental_uris":{"android":"levelo://app?vid=2a46947c-d8af-4bbd-9279-06c678e5b3bf","ios":"levelo://app?vid=2a46947c-d8af-4bbd-9279-06c678e5b3bf"},"vehicle_type_id":"4","last_reported":1773962421,"current_range_meters":8000,"station_id":"ce4bgt92rcd13ifvqcg0","pricing_plan_id":"cebpf4jnsgd1na2vs0mg"},{"bike_id":"15bf2f59-06a6-41bd-a43b-489e0ce4442c","system_id":"levelo_inurba_marseille","lat":43.32098,"lon":5.3675,"is_reserved":false,"is_disabled":false,"rental_uris":{"android":"levelo://app?vid=15bf2f59-06a6-41bd-a43b-489e0ce4442c","ios":"levelo://app?vid=15bf2f59-06a6-41bd-a43b-489e0ce4442c"},"vehicle_type_id":"4","last_reported":1773962421,"current_range_meters":8000,"station_id":"ce4bhrh2rcd13ifvqhug","pricing_plan_id":"cebpf4jnsgd1na2vs0mg"},{"bike_id":"df7eff20-286b-45ac-a5b8-bcb20423c9a0","system_id":"levelo_inurba_marseille","lat":43.31049,"lon":5.37158,"is_reserved":false,"is_disabled":false,"rental_uris":{"android":"levelo://app?vid=df7eff20-286b-45ac-a5b8-bcb20423c9a0","ios":"levelo://app?vid=df7eff20-286b-45ac-a5b8-bcb20423c9a0"},"vehicle_type_id":"4","last_reported":1773962421,"current_range_meters":8000,"station_id":"st_d4kl2rp97mjs73e7tdfg","pricing_plan_id":"cebpf4jnsgd1na2vs0mg"},{"bike_id":"b3c6ee7e-839e-47ca-8bd1-12618e78dd87","system_id":"levelo_inurba_marseille","lat":43.23955,"lon":5.36647,"is_reserved":false,"is_disabled":true,"rental_uris":{"android":"levelo://app?vid=b3c6ee7e-839e-47ca-8bd1-12618e78dd87","ios":"levelo://app?vid=b3c6ee7e-839e-47ca-8bd1-12618e78dd87"},"vehicle_type_id":"4","last_reported":1773962421,"current_range_meters":8000,"station_id":"ce4bhi12rcd13ifvqfp0","pricing_plan_id":"cebpf4jnsgd1na2vs0mg"},{"bike_id":"c7c6b6ce-e8f9-403f-99d4-29feed63b086","system_id":"levelo_inurba_marseille","lat":43.28853,"lon":5.39322,"is_reserved":false,"is_disabled":false,"rental_uris":{"android":"levelo://app?vid=c7c6b6ce-e8f9-403f-99d4-29feed63b086","ios":"levelo://app?vid=c7c6b6ce-e8f9-403f-99d4-29feed63b086"},"vehicle_type_id":"4","last_reported":1773962421,"current_range_meters":8000,"station_id":"ce4bh2p2rcd13ifvqdi0","pricing_plan_id":"cebpf4jnsgd1na2vs0mg"},{"bike_id":"ab4333b3-4a34-41e2-af7a-a9f91926a288","system_id":"levelo_inurba_marseille","lat":43.29578,"lon":5.39996,"is_reserved":false,"is_disabled":false,"rental_uris":{"android":"levelo://app?vid=ab4333b3-4a34-41e2-af7a-a9f91926a288","ios":"levelo://app?vid=ab4333b3-4a34-41e2-af7a-a9f91926a288"},"vehicle_type_id":"4","last_reported":1773962421,"current_range_meters":8000,"station_id":"ce4bh312rcd13ifvqdj0","pricing_plan_id":"cebpf4jnsgd1na2vs0mg"},{"bike_id":"1fc87fed-6040-40bc-99c6-6f694d257aa1","system_id":"levelo_inurba_marseille","lat":43.30932,"lon":5.40841,"is_reserved":false,"is_disabled":false,"rental_uris":{"android":"levelo://app?vid=1fc87fed-6040-40bc-99c6-6f694d257aa1","ios":"levelo://app?vid=1fc87fed-6040-40bc-99c6-6f694d257aa1"},"vehicle_type_id":"4","last_reported":1773962421,"current_range_meters":8000,"station_id":"","pricing_plan_id":"cebpf4jnsgd1na2vs0mg"},{"bike_id":"3bcd3f37-7909-4e8a-be03-a9562a2c0e45","system_id":"levelo_inurba_marseille","lat":43.2847,"lon":5.4839,"is_reserved":false,"is_disabled":false,"rental_uris":{"android":"levelo://app?vid=3bcd3f37-7909-4e8a-be03-a9562a2c0e45","ios":"levelo://app?vid=3bcd3f37-7909-4e8a-be03-a9562a2c0e45"},"vehicle_type_id":"4","last_reported":1773962421,"current_range_meters":8400,"station_id":"","pricing_plan_id":"cebpf4jnsgd1na2vs0mg"},{"bike_id":"320f3963-8b76-44c1-99a9-9a21ab101504","system_id":"levelo_inurba_marseille","lat":43.2872,"lon":5.39974,"is_reserved":false,"is_disabled":false,"rental_uris":{"android":"levelo://app?vid=320f3963-8b76-44c1-99a9-9a21ab101504","ios":"levelo://app?vid=320f3963-8b76-44c1-99a9-9a21ab101504"},"vehicle_type_id":"4","last_reported":1773962421,"current_range_meters":8400,"station_id":"ce4bho92rcd13ifvqh3g","pricing_plan_id":"cebpf4jnsgd1na2vs0mg"},{"bike_id":"0836c59c-4e19-4ca7-8410-a79df9dfcc6b","system_id":"levelo_inurba_marseille","lat":43.28534,"lon":5.44097,"is_reserved":false,"is_disabled":false,"rental_uris":{"android":"levelo://app?vid=0836c59c-4e19-4ca7-8410-a79df9dfcc6b","ios":"levelo://app?vid=0836c59c-4e19-4ca7-8410-a79df9dfcc6b"},"vehicle_type_id":"4","last_reported":1773962421,"current_range_meters":8400,"station_id":"st_d3j3df2ikq2c7380ej80","pricing_plan_id":"cebpf4jnsgd1na2vs0mg"},{"bike_id":"e2420c11-4646-4145-aa2e-baedb91a43dc","system_id":"levelo_inurba_marseille","lat":43.31611,"lon":5.38386,"is_reserved":false,"is_disabled":false,"rental_uris":{"android":"levelo://app?vid=e2420c11-4646-4145-aa2e-baedb91a43dc","ios":"levelo://app?vid=e2420c11-4646-4145-aa2e-baedb91a43dc"},"vehicle_type_id":"4","last_reported":1773962421,"current_range_meters":8400,"station_id":"","pricing_plan_id":"cebpf4jnsgd1na2vs0mg"},{"bike_id":"3072c2b7-499e-4858-9501-6070c7badbaf","system_id":"levelo_inurba_marseille","lat":43.23935,"lon":5.36645,"is_reserved":false,"is_disabled":false,"rental_uris":{"android":"levelo://app?vid=3072c2b7-499e-4858-9501-6070c7badbaf","ios":"levelo://app?vid=3072c2b7-499e-4858-9501-6070c7badbaf"},"vehicle_type_id":"4","last_reported":1773962421,"current_range_meters":8400,"station_id":"ce4bhi12rcd13ifvqfp0","pricing_plan_id":"cebpf4jnsgd1na2vs0mg"},{"bike_id":"8b699ea7-b22c-498f-80e0-9f808583494e","system_id":"levelo_inurba_marseille","lat":43.29568,"lon":5.42293,"is_reserved":false,"is_disabled":false,"rental_uris":{"android":"levelo://app?vid=8b699ea7-b22c-498f-80e0-9f808583494e","ios":"levelo://app?vid=8b699ea7-b22c-498f-80e0-9f808583494e"},"vehicle_type_id":"4","last_reported":1773962421,"current_range_meters":8400,"station_id":"ce4bhph2rcd13ifvqhdg","pricing_plan_id":"cebpf4jnsgd1na2vs0mg"},{"bike_id":"a7dd1c2f-1863-4db6-9064-755a90a3283b","system_id":"levelo_inurba_marseille","lat":43.29714,"lon":5.42598,"is_reserved":false,"is_disabled":false,"rental_uris":{"android":"levelo://app?vid=a7dd1c2f-1863-4db6-9064-755a90a3283b","ios":"levelo://app?vid=a7dd1c2f-1863-4db6-9064-755a90a3283b"},"vehicle_type_id":"4","last_reported":1773962421,"current_range_meters":8400,"station_id":"","pricing_plan_id":"cebpf4jnsgd1na2vs0mg"},{"bike_id":"0264288d-82fa-4432-8751-6c08c0e54bb7","system_id":"levelo_inurba_marseille","lat":43.30309,"lon":5.4248,"is_reserved":false,"is_disabled":false,"rental_uris":{"android":"levelo://app?vid=0264288d-82fa-4432-8751-6c08c0e54bb7","ios":"levelo://app?vid=0264288d-82fa-4432-8751-6c08c0e54bb7"},"vehicle_type_id":"4","last_reported":1773962421,"current_range_meters":8400,"station_id":"","pricing_plan_id":"cebpf4jnsgd1na2vs0mg"},{"bike_id":"69067704-4b9d-4067-8ddd-5b71f4ef1a8a","system_id":"levelo_inurba_marseille","lat":43.2593,"lon":5.40947,"is_reserved":false,"is_disabled":true,"rental_uris":{"android":"levelo://app?vid=69067704-4b9d-4067-8ddd-5b71f4ef1a8a","ios":"levelo://app?vid=69067704-4b9d-4067-8ddd-5b71f4ef1a8a"},"vehicle_type_id":"4","last_reported":1773962421,"current_range_meters":8400,"station_id":"ce4bhm92rcd13ifvqglg","pricing_plan_id":"cebpf4jnsgd1na2vs0mg"},{"bike_id":"f574368e-7d18-420a-9e2d-255a58427bfa","system_id":"levelo_inurba_marseille","lat":43.29603,"lon":5.3675,"is_reserved":false,"is_disabled":false,"rental_uris":{"android":"levelo://app?vid=f574368e-7d18-420a-9e2d-255a58427bfa","ios":"levelo://app?vid=f574368e-7d18-420a-9e2d-255a58427bfa"},"vehicle_type_id":"4","last_reported":1773962421,"current_range_meters":8400,"station_id":"ce4bgph2rcd13ifvqc2g","pricing_plan_id":"cebpf4jnsgd1na2vs0mg"},{"bike_id":"0a336611-2e2b-498c-910b-404accda51a6","system_id":"levelo_inurba_marseille","lat":43.29856,"lon":5.39745,"is_reserved":false,"is_disabled":false,"rental_uris":{"android":"levelo://app?vid=0a336611-2e2b-498c-910b-404accda51a6","ios":"levelo://app?vid=0a336611-2e2b-498c-910b-404accda51a6"},"vehicle_type_id":"4","last_reported":1773962421,"current_range_meters":8400,"station_id":"ce4bh0h2rcd13ifvqd50","pricing_plan_id":"cebpf4jnsgd1na2vs0mg"},{"bike_id":"434c0a59-19e9-43b3-915c-926869f4cfec","system_id":"levelo_inurba_marseille","lat":43.29934,"lon":5.36506,"is_reserved":false,"is_disabled":false,"rental_uris":{"android":"levelo://app?vid=434c0a59-19e9-43b3-915c-926869f4cfec","ios":"levelo://app?vid=434c0a59-19e9-43b3-915c-926869f4cfec"},"vehicle_type_id":"4","last_reported":1773962421,"current_range_meters":8400,"station_id":"ce4bgm92rcd13ifvqbr0","pricing_plan_id":"cebpf4jnsgd1na2vs0mg"},{"bike_id":"dd74091b-705a-4531-bc39-afff2195d9a1","system_id":"levelo_inurba_marseille","lat":43.24816,"lon":5.3744,"is_reserved":false,"is_disabled":false,"rental_uris":{"android":"levelo://app?vid=dd74091b-705a-4531-bc39-afff2195d9a1","ios":"levelo://app?vid=dd74091b-705a-4531-bc39-afff2195d9a1"},"vehicle_type_id":"4","last_reported":1773962421,"current_range_meters":8400,"station_id":"ce4bhgh2rcd13ifvqfb0","pricing_plan_id":"cebpf4jnsgd1na2vs0mg"},{"bike_id":"9a2a548a-e834-42b9-80e4-08550fb5959c","system_id":"levelo_inurba_marseille","lat":43.27425,"lon":5.39416,"is_reserved":false,"is_disabled":false,"rental_uris":{"android":"levelo://app?vid=9a2a548a-e834-42b9-80e4-08550fb5959c","ios":"levelo://app?vid=9a2a548a-e834-42b9-80e4-08550fb5959c"},"vehicle_type_id":"4","last_reported":1773962421,"current_range_meters":8400,"station_id":"ce4bhdp2rcd13ifvqf20","pricing_plan_id":"cebpf4jnsgd1na2vs0mg"},{"bike_id":"494e0838-28ca-44fb-890f-c882a6302e18","system_id":"levelo_inurba_marseille","lat":43.28609,"lon":5.3988,"is_reserved":false,"is_disabled":false,"rental_uris":{"android":"levelo://app?vid=494e0838-28ca-44fb-890f-c882a6302e18","ios":"levelo://app?vid=494e0838-28ca-44fb-890f-c882a6302e18"},"vehicle_type_id":"4","last_reported":1773962421,"current_range_meters":8400,"station_id":"st_d4a7ka997mjs738ck50g","pricing_plan_id":"cebpf4jnsgd1na2vs0mg"},{"bike_id":"d20fe808-e687-447e-bd57-e26f24a89071","system_id":"levelo_inurba_marseille","lat":43.24175,"lon":5.36399,"is_reserved":false,"is_disabled":false,"rental_uris":{"android":"levelo://app?vid=d20fe808-e687-447e-bd57-e26f24a89071","ios":"levelo://app?vid=d20fe808-e687-447e-bd57-e26f24a89071"},"vehicle_type_id":"4","last_reported":1773962421,"current_range_meters":8400,"station_id":"cpo36qri1sfpv3e86is0","pricing_plan_id":"cebpf4jnsgd1na2vs0mg"},{"bike_id":"7ef53374-9f12-4fa6-982c-f0d870b75443","system_id":"levelo_inurba_marseille","lat":43.27371,"lon":5.36258,"is_reserved":false,"is_disabled":false,"rental_uris":{"android":"levelo://app?vid=7ef53374-9f12-4fa6-982c-f0d870b75443","ios":"levelo://app?vid=7ef53374-9f12-4fa6-982c-f0d870b75443"},"vehicle_type_id":"4","last_reported":1773962421,"current_range_meters":8400,"station_id":"ce4bhbh2rcd13ifvqeo0","pricing_plan_id":"cebpf4jnsgd1na2vs0mg"},{"bike_id":"6ecc188e-1aea-4e7b-ada1-ac3e4966fd8b","system_id":"levelo_inurba_marseille","lat":43.28696,"lon":5.37403,"is_reserved":false,"is_disabled":false,"rental_uris":{"android":"levelo://app?vid=6ecc188e-1aea-4e7b-ada1-ac3e4966fd8b","ios":"levelo://app?vid=6ecc188e-1aea-4e7b-ada1-ac3e4966fd8b"},"vehicle_type_id":"4","last_reported":1773962421,"current_range_meters":8400,"station_id":"ce4bh3p2rcd13ifvqdq0","pricing_plan_id":"cebpf4jnsgd1na2vs0mg"},{"bike_id":"8911e592-806c-4ca2-9551-dc6022173986","system_id":"levelo_inurba_marseille","lat":43.32097,"lon":5.36787,"is_reserved":false,"is_disabled":true,"rental_uris":{"android":"levelo://app?vid=8911e592-806c-4ca2-9551-dc6022173986","ios":"levelo://app?vid=8911e592-806c-4ca2-9551-dc6022173986"},"vehicle_type_id":"4","last_reported":1773962421,"current_range_meters":8400,"station_id":"ce4bhrh2rcd13ifvqhug","pricing_plan_id":"cebpf4jnsgd1na2vs0mg"},{"bike_id":"33e015f6-34a2-44b9-a37e-fd5fd3630f6d","system_id":"levelo_inurba_marseille","lat":43.24138,"lon":5.36423,"is_reserved":false,"is_disabled":false,"rental_uris":{"android":"levelo://app?vid=33e015f6-34a2-44b9-a37e-fd5fd3630f6d","ios":"levelo://app?vid=33e015f6-34a2-44b9-a37e-fd5fd3630f6d"},"vehicle_type_id":"4","last_reported":1773962421,"current_range_meters":8400,"station_id":"cpo36qri1sfpv3e86is0","pricing_plan_id":"cebpf4jnsgd1na2vs0mg"},{"bike_id":"b19a626a-93cd-41bf-8d4f-8b63d7aeec08","system_id":"levelo_inurba_marseille","lat":43.301,"lon":5.43897,"is_reserved":false,"is_disabled":false,"rental_uris":{"android":"levelo://app?vid=b19a626a-93cd-41bf-8d4f-8b63d7aeec08","ios":"levelo://app?vid=b19a626a-93cd-41bf-8d4f-8b63d7aeec08"},"vehicle_type_id":"4","last_reported":1773962421,"current_range_meters":8400,"station_id":"","pricing_plan_id":"cebpf4jnsgd1na2vs0mg"},{"bike_id":"042d28d3-0a6e-4ec5-9610-697965251099","system_id":"levelo_inurba_marseille","lat":43.28156,"lon":5.42624,"is_reserved":false,"is_disabled":false,"rental_uris":{"android":"levelo://app?vid=042d28d3-0a6e-4ec5-9610-697965251099","ios":"levelo://app?vid=042d28d3-0a6e-4ec5-9610-697965251099"},"vehicle_type_id":"4","last_reported":1773962421,"current_range_meters":8400,"station_id":"ce4bhnh2rcd13ifvqgug","pricing_plan_id":"cebpf4jnsgd1na2vs0mg"},{"bike_id":"e08d225b-8f4a-4ce0-895d-d9f7f842408c","system_id":"levelo_inurba_marseille","lat":43.24167,"lon":5.36408,"is_reserved":false,"is_disabled":false,"rental_uris":{"android":"levelo://app?vid=e08d225b-8f4a-4ce0-895d-d9f7f842408c","ios":"levelo://app?vid=e08d225b-8f4a-4ce0-895d-d9f7f842408c"},"vehicle_type_id":"4","last_reported":1773962421,"current_range_meters":8400,"station_id":"cpo36qri1sfpv3e86is0","pricing_plan_id":"cebpf4jnsgd1na2vs0mg"},{"bike_id":"f76be1bf-b839-4363-b725-31a2cfaf3f32","system_id":"levelo_inurba_marseille","lat":43.23743,"lon":5.36679,"is_reserved":false,"is_disabled":false,"rental_uris":{"android":"levelo://app?vid=f76be1bf-b839-4363-b725-31a2cfaf3f32","ios":"levelo://app?vid=f76be1bf-b839-4363-b725-31a2cfaf3f32"},"vehicle_type_id":"4","last_reported":1773962421,"current_range_meters":8400,"station_id":"st_d3nk18o9ro0c73en2l3g","pricing_plan_id":"cebpf4jnsgd1na2vs0mg"},{"bike_id":"f2d4c0c2-780f-4ff3-ab99-2dad40289397","system_id":"levelo_inurba_marseille","lat":43.25262,"lon":5.42221,"is_reserved":false,"is_disabled":false,"rental_uris":{"android":"levelo://app?vid=f2d4c0c2-780f-4ff3-ab99-2dad40289397","ios":"levelo://app?vid=f2d4c0c2-780f-4ff3-ab99-2dad40289397"},"vehicle_type_id":"4","last_reported":1773962421,"current_range_meters":8400,"station_id":"","pricing_plan_id":"cebpf4jnsgd1na2vs0mg"},{"bike_id":"783f7f57-4b8f-4f75-b786-133a2fb2f668","system_id":"levelo_inurba_marseille","lat":43.22556,"lon":5.41628,"is_reserved":false,"is_disabled":false,"rental_uris":{"android":"levelo://app?vid=783f7f57-4b8f-4f75-b786-133a2fb2f668","ios":"levelo://app?vid=783f7f57-4b8f-4f75-b786-133a2fb2f668"},"vehicle_type_id":"4","last_reported":1773962421,"current_range_meters":8400,"station_id":"st_d2o4gvlbi1j2169b742g","pricing_plan_id":"cebpf4jnsgd1na2vs0mg"},{"bike_id":"8ba2e30d-db54-40b4-af13-9e0f77eea1db","system_id":"levelo_inurba_marseille","lat":43.27062,"lon":5.383,"is_reserved":false,"is_disabled":false,"rental_uris":{"android":"levelo://app?vid=8ba2e30d-db54-40b4-af13-9e0f77eea1db","ios":"levelo://app?vid=8ba2e30d-db54-40b4-af13-9e0f77eea1db"},"vehicle_type_id":"4","last_reported":1773962421,"current_range_meters":8400,"station_id":"st_d3n2fo6cfp8s73cte1j0","pricing_plan_id":"cebpf4jnsgd1na2vs0mg"},{"bike_id":"8721fee8-fce5-4528-8fb7-a9e8a2a6b808","system_id":"levelo_inurba_marseille","lat":43.31365,"lon":5.38491,"is_reserved":false,"is_disabled":false,"rental_uris":{"android":"levelo://app?vid=8721fee8-fce5-4528-8fb7-a9e8a2a6b808","ios":"levelo://app?vid=8721fee8-fce5-4528-8fb7-a9e8a2a6b808"},"vehicle_type_id":"4","last_reported":1773962421,"current_range_meters":8800,"station_id":"ce4bgt92rcd13ifvqcf0","pricing_plan_id":"cebpf4jnsgd1na2vs0mg"},{"bike_id":"96e89ea6-2246-4389-ba32-6e463a4ddf53","system_id":"levelo_inurba_marseille","lat":43.31354,"lon":5.38503,"is_reserved":false,"is_disabled":false,"rental_uris":{"android":"levelo://app?vid=96e89ea6-2246-4389-ba32-6e463a4ddf53","ios":"levelo://app?vid=96e89ea6-2246-4389-ba32-6e463a4ddf53"},"vehicle_type_id":"4","last_reported":1773962421,"current_range_meters":8800,"station_id":"ce4bgt92rcd13ifvqcf0","pricing_plan_id":"cebpf4jnsgd1na2vs0mg"},{"bike_id":"50d20805-558f-4824-9750-3226693b96fd","system_id":"levelo_inurba_marseille","lat":43.28234,"lon":5.3902,"is_reserved":false,"is_disabled":false,"rental_uris":{"android":"levelo://app?vid=50d20805-558f-4824-9750-3226693b96fd","ios":"levelo://app?vid=50d20805-558f-4824-9750-3226693b96fd"},"vehicle_type_id":"4","last_reported":1773962421,"current_range_meters":8800,"station_id":"ce4bhn92rcd13ifvqgsg","pricing_plan_id":"cebpf4jnsgd1na2vs0mg"},{"bike_id":"f328e3b6-a38c-49fe-80e0-c552630893a5","system_id":"levelo_inurba_marseille","lat":43.22922,"lon":5.35396,"is_reserved":false,"is_disabled":false,"rental_uris":{"android":"levelo://app?vid=f328e3b6-a38c-49fe-80e0-c552630893a5","ios":"levelo://app?vid=f328e3b6-a38c-49fe-80e0-c552630893a5"},"vehicle_type_id":"4","last_reported":1773962421,"current_range_meters":8800,"station_id":"cpo3532slgdg3j2ikp40","pricing_plan_id":"cebpf4jnsgd1na2vs0mg"},{"bike_id":"a775511c-9985-4a58-8c4c-775aad7f3e36","system_id":"levelo_inurba_marseille","lat":43.29908,"lon":5.43668,"is_reserved":false,"is_disabled":false,"rental_uris":{"android":"levelo://app?vid=a775511c-9985-4a58-8c4c-775aad7f3e36","ios":"levelo://app?vid=a775511c-9985-4a58-8c4c-775aad7f3e36"},"vehicle_type_id":"4","last_reported":1773962421,"current_range_meters":8800,"station_id":"ce4bhpp2rcd13ifvqhfg","pricing_plan_id":"cebpf4jnsgd1na2vs0mg"},{"bike_id":"12118d88-8157-4d76-ad00-12ce3bc20921","system_id":"levelo_inurba_marseille","lat":43.30859,"lon":5.37103,"is_reserved":false,"is_disabled":false,"rental_uris":{"android":"levelo://app?vid=12118d88-8157-4d76-ad00-12ce3bc20921","ios":"levelo://app?vid=12118d88-8157-4d76-ad00-12ce3bc20921"},"vehicle_type_id":"4","last_reported":1773962421,"current_range_meters":8800,"station_id":"","pricing_plan_id":"cebpf4jnsgd1na2vs0mg"},{"bike_id":"22fe735b-364e-4089-9798-d8b00c4df9e5","system_id":"levelo_inurba_marseille","lat":43.25576,"lon":5.38234,"is_reserved":false,"is_disabled":false,"rental_uris":{"android":"levelo://app?vid=22fe735b-364e-4089-9798-d8b00c4df9e5","ios":"levelo://app?vid=22fe735b-364e-4089-9798-d8b00c4df9e5"},"vehicle_type_id":"4","last_reported":1773962421,"current_range_meters":8800,"station_id":"ce4bhih2rcd13ifvqfs0","pricing_plan_id":"cebpf4jnsgd1na2vs0mg"},