{"last_updated":1749726575,"ttl":60,"version":"2.2","data":{"bikes":[{"bike_id":"b31f0139-170f-4194-984f-4386218a1e9d","system_id":"levelo_inurba_marseille","lat":43.33771,"lon":5.37424,"is_reserved":false,"is_disabled":true,"rental_uris":{"android":"levelo://app?vid=b31f0139-170f-4194-984f-4386218a1e9d","ios":"levelo://app?vid=b31f0139-170f-4194-984f-4386218a1e9d"},"vehicle_type_id":"4","last_reported":1749726575,"current_range_meters":0,"station_id":"","pricing_plan_id":"cebpf4jnsgd1na2vs0mg"},{"bike_id":"1acfb620-cad7-48c0-8901-d7a5b74a5b65","system_id":"levelo_inurba_marseille","lat":43.33751,"lon":5.37456,"is_reserved":false,"is_disabled":false,"rental_uris":{"android":"levelo://app?vid=1acfb620-cad7-48c0-8901-d7a5b74a5b65","ios":"levelo://app?vid=1acfb620-cad7-48c0-8901-d7a5b74a5b65"},"vehicle_type_id":"4","last_reported":1749726575,"current_range_meters":8800,"station_id":"","pricing_plan_id":"cebpf4jnsgd1na2vs0mg"},{"bike_id":"15642284-38bf-46a3-8429-b976f7e075a1","system_id":"levelo_inurba_marseille","lat":43.279245,"lon":5.382814,"is_reserved":false,"is_disabled":true,"rental_uris":{"android":"levelo://app?vid=15642284-38bf-46a3-8429-b976f7e075a1","ios":"levelo://app?vid=15642284-38bf-46a3-8429-b976f7e075a1"},"vehicle_type_id":"4","last_reported":1749726575,"current_range_meters":0,"station_id":"","pricing_plan_id":"cebpf4jnsgd1na2vs0mg"},{"bike_id":"f4a529c2-e076-4853-9434-aa931ab59680","system_id":"levelo_inurba_marseille","lat":43.31657,"lon":5.43713,"is_reserved":false,"is_disabled":true,"rental_uris":{"android":"levelo://app?vid=f4a529c2-e076-4853-9434-aa931ab59680","ios":"levelo://app?vid=f4a529c2-e076-4853-9434-aa931ab59680"},"vehicle_type_id":"4","last_reported":1749726575,"current_range_meters":0,"station_id":"","pricing_plan_id":"cebpf4jnsgd1na2vs0mg"},{"bike_id":"bf89d78c-eb96-40d5-beb0-f402ef102cc1","system_id":"levelo_inurba_marseille","lat":43.337444,"lon":5.374475,"is_reserved":false,"is_disabled":true,"rental_uris":{"android":"levelo://app?vid=bf89d78c-eb96-40d5-beb0-f402ef102cc1","ios":"levelo://app?vid=bf89d78c-eb96-40d5-beb0-f402ef102cc1"},"vehicle_type_id":"4","last_reported":1749726575,"current_range_meters":0,"station_id":"","pricing_plan_id":"cebpf4jnsgd1na2vs0mg"},{"bike_id":"6908bae8-72a3-4af1-871a-a204f93e7563","system_id":"levelo_inurba_marseille","lat":43.32389,"lon":5.39316,"is_reserved":false,"is_disabled":true,"rental_uris":{"android":"levelo://app?vid=6908bae8-72a3-4af1-871a-a204f93e7563","ios":"levelo://app?vid=6908bae8-72a3-4af1-871a-a204f93e7563"},"vehicle_type_id":"4","last_reported":1749726575,"current_range_meters":0,"station_id":"","pricing_plan_id":"cebpf4jnsgd1na2vs0mg"},{"bike_id":"7c6a9c32-3bbe-4d4c-8294-1969d0688a87","system_id":"levelo_inurba_marseille","lat":43.28499,"lon":5.42285,"is_reserved":false,"is_disabled":true,"rental_uris":{"android":"levelo://app?vid=7c6a9c32-3bbe-4d4c-8294-1969d0688a87","ios":"levelo://app?vid=7c6a9c32-3bbe-4d4c-8294-1969d0688a87"},"vehicle_type_id":"4","last_reported":1749726575,"current_range_meters":0,"station_id":"","pricing_plan_id":"cebpf4jnsgd1na2vs0mg"},{"bike_id":"18ab1fe6-a7e6-448a-9631-a8542cf8c56c","system_id":"levelo_inurba_marseille","lat":43.33233,"lon":5.37913,"is_reserved":false,"is_disabled":true,"rental_uris":{"android":"levelo://app?vid=18ab1fe6-a7e6-448a-9631-a8542cf8c56c","ios":"levelo://app?vid=18ab1fe6-a7e6-448a-9631-a8542cf8c56c"},"vehicle_type_id":"4","last_reported":1749726575,"current_range_meters":0,"station_id":"","pricing_plan_id":"cebpf4jnsgd1na2vs0mg"},{"bike_id":"9e55e93e-42c5-4c2c-9154-2d3c316cb5d9","system_id":"levelo_inurba_marseille","lat":43.31864,"lon":5.39371,"is_reserved":false,"is_disabled":true,"rental_uris":{"android":"levelo://app?vid=9e55e93e-42c5-4c2c-9154-2d3c316cb5d9","ios":"levelo://app?vid=9e55e93e-42c5-4c2c-9154-2d3c316cb5d9"},"vehicle_type_id":"4","last_reported":1749726575,"current_range_meters":0,"station_id":"","pricing_plan_id":"cebpf4jnsgd1na2vs0mg"},{"bike_id":"cd96cd79-aa07-429f-b6e9-37ba28885bbb","system_id":"levelo_inurba_marseille","lat":43.2792,"lon":5.38671,"is_reserved":false,"is_disabled":true,"rental_uris":{"android":"levelo://app?vid=cd96cd79-aa07-429f-b6e9-37ba28885bbb","ios":"levelo://app?vid=cd96cd79-aa07-429f-b6e9-37ba28885bbb"},"vehicle_type_id":"4","last_reported":1749726575,"current_range_meters":0,"station_id":"","pricing_plan_id":"cebpf4jnsgd1na2vs0mg"},{"bike_id":"78778bea-ee8d-4617-9940-e8d532761b1d","system_id":"levelo_inurba_marseille","lat":43.32398,"lon":5.42714,"is_reserved":false,"is_disabled":true,"rental_uris":{"android":"levelo://app?vid=78778bea-ee8d-4617-9940-e8d532761b1d","ios":"levelo://app?vid=78778bea-ee8d-4617-9940-e8d532761b1d"},"vehicle_type_id":"4","last_reported":1749726575,"current_range_meters":0,"station_id":"","pricing_plan_id":"cebpf4jnsgd1na2vs0mg"},{"bike_id":"15988eb6-4ac2-4228-b4b4-8767be95739e","system_id":"levelo_inurba_marseille","lat":43.31203,"lon":5.36492,"is_reserved":false,"is_disabled":true,"rental_uris":{"android":"levelo://app?vid=15988eb6-4ac2-4228-b4b4-8767be95739e","ios":"levelo://app?vid=15988eb6-4ac2-4228-b4b4-8767be95739e"},"vehicle_type_id":"4","last_reported":1749726575,"current_range_meters":0,"station_id":"","pricing_plan_id":"cebpf4jnsgd1na2vs0mg"},{"bike_id":"492f4bbd-1190-4ef2-b66a-479ffe91b09b","system_id":"levelo_inurba_marseille","lat":43.337444,"lon":5.374475,"is_reserved":false,"is_disabled":true,"rental_uris":{"android":"levelo://app?vid=492f4bbd-1190-4ef2-b66a-479ffe91b09b","ios":"levelo://app?vid=492f4bbd-1190-4ef2-b66a-479ffe91b09b"},"vehicle_type_id":"4","last_reported":1749726575,"current_range_meters":0,"station_id":"","pricing_plan_id":"cebpf4jnsgd1na2vs0mg"},{"bike_id":"ce526313-e4c7-47eb-856f-183916936663","system_id":"levelo_inurba_marseille","lat":43.26256,"lon":5.39524,"is_reserved":false,"is_disabled":true,"rental_uris":{"android":"levelo://app?vid=ce526313-e4c7-47eb-856f-183916936663","ios":"levelo://app?vid=ce526313-e4c7-47eb-856f-183916936663"},"vehicle_type_id":"4","last_reported":1749726575,"current_range_meters":0,"station_id":"","pricing_plan_id":"cebpf4jnsgd1na2vs0mg"},{"bike_id":"4dcd176a-acfc-494d-9b1d-008dbf913888","system_id":"levelo_inurba_marseille","lat":43.31073,"lon":5.3834,"is_reserved":false,"is_disabled":true,"rental_uris":{"android":"levelo://app?vid=4dcd176a-acfc-494d-9b1d-008dbf913888","ios":"levelo://app?vid=4dcd176a-acfc-494d-9b1d-008dbf913888"},"vehicle_type_id":"4","last_reported":1749726575,"current_range_meters":0,"station_id":"ce4bgv92rcd13ifvqcr0","pricing_plan_id":"cebpf4jnsgd1na2vs0mg"},{"bike_id":"0f81b15e-87bc-41ac-9ec3-a95439f69221","system_id":"levelo_inurba_marseille","lat":43.29023,"lon":5.38134,"is_reserved":false,"is_disabled":true,"rental_uris":{"android":"levelo://app?vid=0f81b15e-87bc-41ac-9ec3-a95439f69221","ios":"levelo://app?vid=0f81b15e-87bc-41ac-9ec3-a95439f69221"},"vehicle_type_id":"4","last_reported":1749726575,"current_range_meters":0,"station_id":"ce4bh4p2rcd13ifvqe1g","pricing_plan_id":"cebpf4jnsgd1na2vs0mg"},{"bike_id":"c06eec1a-b16f-444d-88ac-303ead5e0424","system_id":"levelo_inurba_marseille","lat":43.29272,"lon":5.38429,"is_reserved":false,"is_disabled":true,"rental_uris":{"android":"levelo://app?vid=c06eec1a-b16f-444d-88ac-303ead5e0424","ios":"levelo://app?vid=c06eec1a-b16f-444d-88ac-303ead5e0424"},"vehicle_type_id":"4","last_reported":1749726575,"current_range_meters":0,"station_id":"ce4bh692rcd13ifvqea0","pricing_plan_id":"cebpf4jnsgd1na2vs0mg"},{"bike_id":"f4bf13c4-657d-42c1-bd90-9128ce3626fb","system_id":"levelo_inurba_marseille","lat":43.28622,"lon":5.35107,"is_reserved":false,"is_disabled":true,"rental_uris":{"android":"levelo://app?vid=f4bf13c4-657d-42c1-bd90-9128ce3626fb","ios":"levelo://app?vid=f4bf13c4-657d-42c1-bd90-9128ce3626fb"},"vehicle_type_id":"4","last_reported":1749726575,"current_range_meters":0,"station_id":"ce4bhch2rcd13ifvqeug","pricing_plan_id":"cebpf4jnsgd1na2vs0mg"},{"bike_id":"e7fb3268-6b14-4b1c-8886-44d9e0b69fcb","system_id":"levelo_inurba_marseille","lat":43.26561,"lon":5.3901,"is_reserved":false,"is_disabled":true,"rental_uris":{"android":"levelo://app?vid=e7fb3268-6b14-4b1c-8886-44d9e0b69fcb","ios":"levelo://app?vid=e7fb3268-6b14-4b1c-8886-44d9e0b69fcb"},"vehicle_type_id":"4","last_reported":1749726575,"current_range_meters":0,"station_id":"ce4bhe12rcd13ifvqf30","pricing_plan_id":"cebpf4jnsgd1na2vs0mg"},{"bike_id":"0957761d-fa71-4312-9901-7b1b9a8b8955","system_id":"levelo_inurba_marseille","lat":43.2315,"lon":5.4371,"is_reserved":false,"is_disabled":true,"rental_uris":{"android":"levelo://app?vid=0957761d-fa71-4312-9901-7b1b9a8b8955","ios":"levelo://app?vid=0957761d-fa71-4312-9901-7b1b9a8b8955"},"vehicle_type_id":"4","last_reported":1749726575,"current_range_meters":0,"station_id":"ce4bhmp2rcd13ifvqgog","pricing_plan_id":"cebpf4jnsgd1na2vs0mg"},{"bike_id":"96121a41-a8be-4a0e-a973-85a52de51c7e","system_id":"levelo_inurba_marseille","lat":43.231827,"lon":5.399886,"is_reserved":false,"is_disabled":false,"rental_uris":{"android":"levelo://app?vid=96121a41-a8be-4a0e-a973-85a52de51c7e","ios":"levelo://app?vid=96121a41-a8be-4a0e-a973-85a52de51c7e"},"vehicle_type_id":"4","last_reported":1749726575,"current_range_meters":0,"station_id":"ce4bhn12rcd13ifvqgqg","pricing_plan_id":"cebpf4jnsgd1na2vs0mg"},{"bike_id":"34079f42-b9d3-4f05-b94e-8f5fac3bf6ca","system_id":"levelo_inurba_marseille","lat":43.32487,"lon":5.36563,"is_reserved":false,"is_disabled":true,"rental_uris":{"android":"levelo://app?vid=34079f42-b9d3-4f05-b94e-8f5fac3bf6ca","ios":"levelo://app?vid=34079f42-b9d3-4f05-b94e-8f5fac3bf6ca"},"vehicle_type_id":"4","last_reported":1749726575,"current_range_meters":0,"station_id":"ce4bhs12rcd13ifvqhvg","pricing_plan_id":"cebpf4jnsgd1na2vs0mg"},{"bike_id":"baa09194-63b5-4d5f-952b-05e25b553dc4","system_id":"levelo_inurba_marseille","lat":43.24166,"lon":5.36396,"is_reserved":false,"is_disabled":true,"rental_uris":{"android":"levelo://app?vid=baa09194-63b5-4d5f-952b-05e25b553dc4","ios":"levelo://app?vid=baa09194-63b5-4d5f-952b-05e25b553dc4"},"vehicle_type_id":"4","last_reported":1749726575,"current_range_meters":0,"station_id":"cpo36qri1sfpv3e86is0","pricing_plan_id":"cebpf4jnsgd1na2vs0mg"},{"bike_id":"a76bfa59-b731-46b4-a462-7fdbb44a5154","system_id":"levelo_inurba_marseille","lat":43.29774,"lon":5.42165,"is_reserved":false,"is_disabled":true,"rental_uris":{"android":"levelo://app?vid=a76bfa59-b731-46b4-a462-7fdbb44a5154","ios":"levelo://app?vid=a76bfa59-b731-46b4-a462-7fdbb44a5154"},"vehicle_type_id":"4","last_reported":1749726575,"current_range_meters":400,"station_id":"","pricing_plan_id":"cebpf4jnsgd1na2vs0mg"},{"bike_id":"37fe0c8d-87af-4346-9990-a25dd5a4d462","system_id":"levelo_inurba_marseille","lat":43.31561,"lon":5.38924,"is_reserved":false,"is_disabled":true,"rental_uris":{"android":"levelo://app?vid=37fe0c8d-87af-4346-9990-a25dd5a4d462","ios":"levelo://app?vid=37fe0c8d-87af-4346-9990-a25dd5a4d462"},"vehicle_type_id":"4","last_reported":1749726575,"current_range_meters":400,"station_id":"","pricing_plan_id":"cebpf4jnsgd1na2vs0mg"},{"bike_id":"a965e02c-ac2e-40bf-904b-b18e552a2277","system_id":"levelo_inurba_marseille","lat":43.29967,"lon":5.38493,"is_reserved":false,"is_disabled":true,"rental_uris":{"android":"levelo://app?vid=a965e02c-ac2e-40bf-904b-b18e552a2277","ios":"levelo://app?vid=a965e02c-ac2e-40bf-904b-b18e552a2277"},"vehicle_type_id":"4","last_reported":1749726575,"current_range_meters":800,"station_id":"ce4bgj92rcd13ifvqbd0","pricing_plan_id":"cebpf4jnsgd1na2vs0mg"},{"bike_id":"0d17d393-25ec-46e2-bc19-1807ae26d3b2","system_id":"levelo_inurba_marseille","lat":43.24169,"lon":5.36393,"is_reserved":false,"is_disabled":true,"rental_uris":{"android":"levelo://app?vid=0d17d393-25ec-46e2-bc19-1807ae26d3b2","ios":"levelo://app?vid=0d17d393-25ec-46e2-bc19-1807ae26d3b2"},"vehicle_type_id":"4","last_reported":1749726575,"current_range_meters":800,"station_id":"cpo36qri1sfpv3e86is0","pricing_plan_id":"cebpf4jnsgd1na2vs0mg"},{"bike_id":"87ad60d3-a8be-4537-b606-cf205dd555df","system_id":"levelo_inurba_marseille","lat":43.30971,"lon":5.40561,"is_reserved":false,"is_disabled":true,"rental_uris":{"android":"levelo://app?vid=87ad60d3-a8be-4537-b606-cf205dd555df","ios":"levelo://app?vid=87ad60d3-a8be-4537-b606-cf205dd555df"},"vehicle_type_id":"4","last_reported":1749726575,"current_range_meters":1600,"station_id":"","pricing_plan_id":"cebpf4jnsgd1na2vs0mg"},{"bike_id":"d6ada873-f0dd-4a7e-9bfc-6184a2baa4c2","system_id":"levelo_inurba_marseille","lat":43.2721,"lon":5.39186,"is_reserved":false,"is_disabled":true,"rental_uris":{"android":"levelo://app?vid=d6ada873-f0dd-4a7e-9bfc-6184a2baa4c2","ios":"levelo://app?vid=d6ada873-f0dd-4a7e-9bfc-6184a2baa4c2"},"vehicle_type_id":"4","last_reported":1749726575,"current_range_meters":1600,"station_id":"ce4bhhp2rcd13ifvqfm0","pricing_plan_id":"cebpf4jnsgd1na2vs0mg"},{"bike_id":"a9b6bf99-4070-4437-bb20-72962ae30b90","system_id":"levelo_inurba_marseille","lat":43.27475,"lon":5.36415,"is_reserved":false,"is_disabled":true,"rental_uris":{"android":"levelo://app?vid=a9b6bf99-4070-4437-bb20-72962ae30b90","ios":"levelo://app?vid=a9b6bf99-4070-4437-bb20-72962ae30b90"},"vehicle_type_id":"4","last_reported":1749726575,"current_range_meters":2000,"station_id":"","pricing_plan_id":"cebpf4jnsgd1na2vs0mg"},{"bike_id":"bd2485d7-c80c-441b-829c-ed7b67c649ce","system_id":"levelo_inurba_marseille","lat":43.29222,"lon":5.36058,"is_reserved":false,"is_disabled":false,"rental_uris":{"android":"levelo://app?vid=bd2485d7-c80c-441b-829c-ed7b67c649ce","ios":"levelo://app?vid=bd2485d7-c80c-441b-829c-ed7b67c649ce"},"vehicle_type_id":"4","last_reported":1749726575,"current_range_meters":3200,"station_id":"ce4bhbh2rcd13ifvqeqg","pricing_plan_id":"cebpf4jnsgd1na2vs0mg"},{"bike_id":"b09901fc-9128-479f-b387-40adbd782eb6","system_id":"levelo_inurba_marseille","lat":43.24069,"lon":5.37765,"is_reserved":false,"is_disabled":false,"rental_uris":{"android":"levelo://app?vid=b09901fc-9128-479f-b387-40adbd782eb6","ios":"levelo://app?vid=b09901fc-9128-479f-b387-40adbd782eb6"},"vehicle_type_id":"4","last_reported":1749726575,"current_range_meters":3200,"station_id":"ce4bhnp2rcd13ifvqgvg","pricing_plan_id":"cebpf4jnsgd1na2vs0mg"},{"bike_id":"f1bd47f9-87f1-4713-b514-46228d3da698","system_id":"levelo_inurba_marseille","lat":43.29038,"lon":5.39963,"is_reserved":false,"is_disabled":false,"rental_uris":{"android":"levelo://app?vid=f1bd47f9-87f1-4713-b514-46228d3da698","ios":"levelo://app?vid=f1bd47f9-87f1-4713-b514-46228d3da698"},"vehicle_type_id":"4","last_reported":1749726575,"current_range_meters":4000,"station_id":"ce4bh392rcd13ifvqdm0","pricing_plan_id":"cebpf4jnsgd1na2vs0mg"},{"bike_id":"5077581b-cebb-46fc-ba69-4fa8272d4810","system_id":"levelo_inurba_marseille","lat":43.21361,"lon":5.35509,"is_reserved":false,"is_disabled":false,"rental_uris":{"android":"levelo://app?vid=5077581b-cebb-46fc-ba69-4fa8272d4810","ios":"levelo://app?vid=5077581b-cebb-46fc-ba69-4fa8272d4810"},"vehicle_type_id":"4","last_reported":1749726575,"current_range_meters":4400,"station_id":"","pricing_plan_id":"cebpf4jnsgd1na2vs0mg"},{"bike_id":"66b1cbfb-c132-4ef4-922c-0beab9b5a350","system_id":"levelo_inurba_marseille","lat":43.29746,"lon":5.46002,"is_reserved":false,"is_disabled":false,"rental_uris":{"android":"levelo://app?vid=66b1cbfb-c132-4ef4-922c-0beab9b5a350","ios":"levelo://app?vid=66b1cbfb-c132-4ef4-922c-0beab9b5a350"},"vehicle_type_id":"4","last_reported":1749726575,"current_range_meters":4400,"station_id":"","pricing_plan_id":"cebpf4jnsgd1na2vs0mg"},{"bike_id":"853e9d90-8fb4-4c17-a762-9923b9fb02f0","system_id":"levelo_inurba_marseille","lat":43.25445,"lon":5.38099,"is_reserved":false,"is_disabled":false,"rental_uris":{"android":"levelo://app?vid=853e9d90-8fb4-4c17-a762-9923b9fb02f0","ios":"levelo://app?vid=853e9d90-8fb4-4c17-a762-9923b9fb02f0"},"vehicle_type_id":"4","last_reported":1749726575,"current_range_meters":4400,"station_id":"","pricing_plan_id":"cebpf4jnsgd1na2vs0mg"},{"bike_id":"1e20f032-0f6a-40b2-ad29-e4d2225496fa","system_id":"levelo_inurba_marseille","lat":43.30293,"lon":5.37054,"is_reserved":false,"is_disabled":false,"rental_uris":{"android":"levelo://app?vid=1e20f032-0f6a-40b2-ad29-e4d2225496fa","ios":"levelo://app?vid=1e20f032-0f6a-40b2-ad29-e4d2225496fa"},"vehicle_type_id":"4","last_reported":1749726575,"current_range_meters":5600,"station_id":"","pricing_plan_id":"cebpf4jnsgd1na2vs0mg"},{"bike_id":"165a6ce2-f806-45b2-bf82-39d7bdd011fc","system_id":"levelo_inurba_marseille","lat":43.29374,"lon":5.38541,"is_reserved":false,"is_disabled":false,"rental_uris":{"android":"levelo://app?vid=165a6ce2-f806-45b2-bf82-39d7bdd011fc","ios":"levelo://app?vid=165a6ce2-f806-45b2-bf82-39d7bdd011fc"},"vehicle_type_id":"4","last_reported":1749726575,"current_range_meters":5600,"station_id":"","pricing_plan_id":"cebpf4jnsgd1na2vs0mg"},{"bike_id":"1b73403c-ebd2-4ee0-ad35-b22356f04e6b","system_id":"levelo_inurba_marseille","lat":43.30136,"lon":5.38777,"is_reserved":false,"is_disabled":false,"rental_uris":{"android":"levelo://app?vid=1b73403c-ebd2-4ee0-ad35-b22356f04e6b","ios":"levelo://app?vid=1b73403c-ebd2-4ee0-ad35-b22356f04e6b"},"vehicle_type_id":"4","last_reported":1749726575,"current_range_meters":5600,"station_id":"ce4bghh2rcd13ifvqb60","pricing_plan_id":"cebpf4jnsgd1na2vs0mg"},{"bike_id":"bc39de67-0dda-409a-ad6b-1e833e94ee2d","system_id":"levelo_inurba_marseille","lat":43.26226,"lon":5.40447,"is_reserved":false,"is_disabled":false,"rental_uris":{"android":"levelo://app?vid=bc39de67-0dda-409a-ad6b-1e833e94ee2d","ios":"levelo://app?vid=bc39de67-0dda-409a-ad6b-1e833e94ee2d"},"vehicle_type_id":"4","last_reported":1749726575,"current_range_meters":5600,"station_id":"ce4bhmh2rcd13ifvqgmg","pricing_plan_id":"cebpf4jnsgd1na2vs0mg"},{"bike_id":"50d5a49f-d1e5-4724-b840-ef079febbb45","system_id":"levelo_inurba_marseille","lat":43.26494,"lon":5.39543,"is_reserved":false,"is_disabled":false,"rental_uris":{"android":"levelo://app?vid=50d5a49f-d1e5-4724-b840-ef079febbb45","ios":"levelo://app?vid=50d5a49f-d1e5-4724-b840-ef079febbb45"},"vehicle_type_id":"4","last_reported":1749726575,"current_range_meters":6000,"station_id":"ce4bhi12rcd13ifvqfq0","pricing_plan_id":"cebpf4jnsgd1na2vs0mg"},{"bike_id":"ddce35c9-18ea-4f00-823e-2102656ded82","system_id":"levelo_inurba_marseille","lat":43.29007,"lon":5.35606,"is_reserved":false,"is_disabled":false,"rental_uris":{"android":"levelo://app?vid=ddce35c9-18ea-4f00-823e-2102656ded82","ios":"levelo://app?vid=ddce35c9-18ea-4f00-823e-2102656ded82"},"vehicle_type_id":"4","last_reported":1749726575,"current_range_meters":6400,"station_id":"ce4bhb92rcd13ifvqen0","pricing_plan_id":"cebpf4jnsgd1na2vs0mg"},{"bike_id":"6dd7cdd9-bc33-4759-9ed8-bd7b20d20ee1","system_id":"levelo_inurba_marseille","lat":43.27371,"lon":5.36258,"is_reserved":false,"is_disabled":false,"rental_uris":{"android":"levelo://app?vid=6dd7cdd9-bc33-4759-9ed8-bd7b20d20ee1","ios":"levelo://app?vid=6dd7cdd9-bc33-4759-9ed8-bd7b20d20ee1"},"vehicle_type_id":"4","last_reported":1749726575,"current_range_meters":6400,"station_id":"ce4bhbh2rcd13ifvqeo0","pricing_plan_id":"cebpf4jnsgd1na2vs0mg"},{"bike_id":"66314ca9-30a7-4c0a-8507-6f89f4c9b4e1","system_id":"levelo_inurba_marseille","lat":43.26247,"lon":5.37101,"is_reserved":false,"is_disabled":false,"rental_uris":{"android":"levelo://app?vid=66314ca9-30a7-4c0a-8507-6f89f4c9b4e1","ios":"levelo://app?vid=66314ca9-30a7-4c0a-8507-6f89f4c9b4e1"},"vehicle_type_id":"4","last_reported":1749726575,"current_range_meters":6800,"station_id":"","pricing_plan_id":"cebpf4jnsgd1na2vs0mg"},{"bike_id":"c8ffed34-60f7-4898-8e19-4166d71b1195","system_id":"levelo_inurba_marseille","lat":43.29379,"lon":5.37841,"is_reserved":false,"is_disabled":false,"rental_uris":{"android":"levelo://app?vid=c8ffed34-60f7-4898-8e19-4166d71b1195","ios":"levelo://app?vid=c8ffed34-60f7-4898-8e19-4166d71b1195"},"vehicle_type_id":"4","last_reported":1749726575,"current_range_meters":6800,"station_id":"ce4bgjh2rcd13ifvqbf0","pricing_plan_id":"cebpf4jnsgd1na2vs0mg"},{"bike_id":"59a083b4-72f8-4d2f-aac2-b5f52834f0a2","system_id":"levelo_inurba_marseille","lat":43.30422,"lon":5.39748,"is_reserved":false,"is_disabled":false,"rental_uris":{"android":"levelo://app?vid=59a083b4-72f8-4d2f-aac2-b5f52834f0a2","ios":"levelo://app?vid=59a083b4-72f8-4d2f-aac2-b5f52834f0a2"},"vehicle_type_id":"4","last_reported":1749726575,"current_range_meters":7200,"station_id":"ce4bh092rcd13ifvqd20","pricing_plan_id":"cebpf4jnsgd1na2vs0mg"},{"bike_id":"01dd6945-6b81-4c3b-a60d-445f6ac93780","system_id":"levelo_inurba_marseille","lat":43.27941,"lon":5.41046,"is_reserved":false,"is_disabled":false,"rental_uris":{"android":"levelo://app?vid=01dd6945-6b81-4c3b-a60d-445f6ac93780","ios":"levelo://app?vid=01dd6945-6b81-4c3b-a60d-445f6ac93780"},"vehicle_type_id":"4","last_reported":1749726575,"current_range_meters":7200,"station_id":"ce4bhnp2rcd13ifvqh0g","pricing_plan_id":"cebpf4jnsgd1na2vs0mg"},{"bike_id":"3f8a3e1b-6bcc-42ce-a440-bc632601f5d1","system_id":"levelo_inurba_marseille","lat":43.32337,"lon":5.40621,"is_reserved":false,"is_disabled":false,"rental_uris":{"android":"levelo://app?vid=3f8a3e1b-6bcc-42ce-a440-bc632601f5d1","ios":"levelo://app?vid=3f8a3e1b-6bcc-42ce-a440-bc632601f5d1"},"vehicle_type_id":"4","last_reported":1749726575,"current_range_meters":7200,"station_id":"ce4bhq92rcd13ifvqhjg","pricing_plan_id":"cebpf4jnsgd1na2vs0mg"},{"bike_id":"97c80e50-374d-4a9c-a392-b48f5e60d283","system_id":"levelo_inurba_marseille","lat":43.29716,"lon":5.37696,"is_reserved":false,"is_disabled":false,"rental_uris":{"android":"levelo://app?vid=97c80e50-374d-4a9c-a392-b48f5e60d283","ios":"levelo://app?vid=97c80e50-374d-4a9c-a392-b48f5e60d283"},"vehicle_type_id":"4","last_reported":1749726575,"current_range_meters":8000,"station_id":"ce4bgkh2rcd13ifvqbl0","pricing_plan_id":"cebpf4jnsgd1na2vs0mg"},{"bike_id":"23b1c1d2-7f96-4822-be58-8ed5968de37a","system_id":"levelo_inurba_marseille","lat":43.28418,"lon":5.35019,"is_reserved":false,"is_disabled":false,"rental_uris":{"android":"levelo://app?vid=23b1c1d2-7f96-4822-be58-8ed5968de37a","ios":"levelo://app?vid=23b1c1d2-7f96-4822-be58-8ed5968de37a"},"vehicle_type_id":"4","last_reported":1749726575,"current_range_meters":8000,"station_id":"ce4bhbh2rcd13ifvqepg","pricing_plan_id":"cebpf4jnsgd1na2vs0mg"},{"bike_id":"51ee9347-0e07-4933-b337-e053abb69907","system_id":"levelo_inurba_marseille","lat":43.2407,"lon":5.37764,"is_reserved":false,"is_disabled":false,"rental_uris":{"android":"levelo://app?vid=51ee9347-0e07-4933-b337-e053abb69907","ios":"levelo://app?vid=51ee9347-0e07-4933-b337-e053abb69907"},"vehicle_type_id":"4","last_reported":1749726575,"current_range_meters":8000,"station_id":"ce4bhnp2rcd13ifvqgvg","pricing_plan_id":"cebpf4jnsgd1na2vs0mg"},{"bike_id":"361685fc-248e-45c6-b9e9-c9054f71b48b","system_id":"levelo_inurba_marseille","lat":43.25088,"lon":5.39525,"is_reserved":false,"is_disabled":false,"rental_uris":{"android":"levelo://app?vid=361685fc-248e-45c6-b9e9-c9054f71b48b","ios":"levelo://app?vid=361685fc-248e-45c6-b9e9-c9054f71b48b"},"vehicle_type_id":"4","last_reported":1749726575,"current_range_meters":8400,"station_id":"ce4bhm12rcd13ifvqgkg","pricing_plan_id":"cebpf4jnsgd1na2vs0mg"},{"bike_id":"fdf1e88a-7c80-4805-b5e7-5e32a5da1b90","system_id":"levelo_inurba_marseille","lat":43.23183,"lon":5.43725,"is_reserved":false,"is_disabled":false,"rental_uris":{"android":"levelo://app?vid=fdf1e88a-7c80-4805-b5e7-5e32a5da1b90","ios":"levelo://app?vid=fdf1e88a-7c80-4805-b5e7-5e32a5da1b90"},"vehicle_type_id":"4","last_reported":1749726575,"current_range_meters":8400,"station_id":"ce4bhmp2rcd13ifvqgog","pricing_plan_id":"cebpf4jnsgd1na2vs0mg"},{"bike_id":"84f5a926-1dd6-4535-b647-2764ce0ca103","system_id":"levelo_inurba_marseille","lat":43.321082,"lon":5.367736,"is_reserved":false,"is_disabled":false,"rental_uris":{"android":"levelo://app?vid=84f5a926-1dd6-4535-b647-2764ce0ca103","ios":"levelo://app?vid=84f5a926-1dd6-4535-b647-2764ce0ca103"},"vehicle_type_id":"4","last_reported":1749726575,"current_range_meters":8400,"station_id":"ce4bhrh2rcd13ifvqhug","pricing_plan_id":"cebpf4jnsgd1na2vs0mg"},{"bike_id":"35eed344-7433-474c-b395-8bafc962f66a","system_id":"levelo_inurba_marseille","lat":43.29791,"lon":5.38098,"is_reserved":false,"is_disabled":false,"rental_uris":{"android":"levelo://app?vid=35eed344-7433-474c-b395-8bafc962f66a","ios":"levelo://app?vid=35eed344-7433-474c-b395-8bafc962f66a"},"vehicle_type_id":"4","last_reported":1749726575,"current_range_meters":8800,"station_id":"ce4bgip2rcd13ifvqbb0","pricing_plan_id":"cebpf4jnsgd1na2vs0mg"},{"bike_id":"a6f95f88-74dd-485e-9df5-eb552097c95c","system_id":"levelo_inurba_marseille","lat":43.30931,"lon":5.40138,"is_reserved":false,"is_disabled":false,"rental_uris":{"android":"levelo://app?vid=a6f95f88-74dd-485e-9df5-eb552097c95c","ios":"levelo://app?vid=a6f95f88-74dd-485e-9df5-eb552097c95c"},"vehicle_type_id":"4","last_reported":1749726575,"current_range_meters":8800,"station_id":"ce4bgvp2rcd13ifvqct0","pricing_plan_id":"cebpf4jnsgd1na2vs0mg"},{"bike_id":"0fc47e0f-a480-462d-ba58-62eb17ccee71","system_id":"levelo_inurba_marseille","lat":43.30932,"lon":5.40136,"is_reserved":false,"is_disabled":false,"rental_uris":{"android":"levelo://app?vid=0fc47e0f-a480-462d-ba58-62eb17ccee71","ios":"levelo://app?vid=0fc47e0f-a480-462d-ba58-62eb17ccee71"},"vehicle_type_id":"4","last_reported":1749726575,"current_range_meters":8800,"station_id":"ce4bgvp2rcd13ifvqct0","pricing_plan_id":"cebpf4jnsgd1na2vs0mg"},{"bike_id":"d7c691dd-9b3f-4381-a765-382eb100545c","system_id":"levelo_inurba_marseille","lat":43.30437,"lon":5.39753,"is_reserved":false,"is_disabled":false,"rental_uris":{"android":"levelo://app?vid=d7c691dd-9b3f-4381-a765-382eb100545c","ios":"levelo://app?vid=d7c691dd-9b3f-4381-a765-382eb100545c"},"vehicle_type_id":"4","last_reported":1749726575,"current_range_meters":8800,"station_id":"ce4bh092rcd13ifvqd20","pricing_plan_id":"cebpf4jnsgd1na2vs0mg"},{"bike_id":"ee4d63dc-76f3-4428-bc84-b9ec61cc2319","system_id":"levelo_inurba_marseille","lat":43.3043,"lon":5.39746,"is_reserved":false,"is_disabled":false,"rental_uris":{"android":"levelo://app?vid=ee4d63dc-76f3-4428-bc84-b9ec61cc2319","ios":"levelo://app?vid=ee4d63dc-76f3-4428-bc84-b9ec61cc2319"},"vehicle_type_id":"4","last_reported":1749726575,"current_range_meters":8800,"station_id":"ce4bh092rcd13ifvqd20","pricing_plan_id":"cebpf4jnsgd1na2vs0mg"},{"bike_id":"f5b9eba1-e12f-4c80-960b-17499beeac62","system_id":"levelo_inurba_marseille","lat":43.27975,"lon":5.38739,"is_reserved":false,"is_disabled":false,"rental_uris":{"android":"levelo://app?vid=f5b9eba1-e12f-4c80-960b-17499beeac62","ios":"levelo://app?vid=f5b9eba1-e12f-4c80-960b-17499beeac62"},"vehicle_type_id":"4","last_reported":1749726575,"current_range_meters":8800,"station_id":"ce4bhg12rcd13ifvqf80","pricing_plan_id":"cebpf4jnsgd1na2vs0mg"},{"bike_id":"143067ac-e7b4-4862-92ff-a294c13b43db","system_id":"levelo_inurba_marseille","lat":43.26058,"lon":5.39398,"is_reserved":false,"is_disabled":false,"rental_uris":{"android":"levelo://app?vid=143067ac-e7b4-4862-92ff-a294c13b43db","ios":"levelo://app?vid=143067ac-e7b4-4862-92ff-a294c13b43db"},"vehicle_type_id":"4","last_reported":1749726575,"current_range_meters":8800,"station_id":"ce4bhh92rcd13ifvqfj0","pricing_plan_id":"cebpf4jnsgd1na2vs0mg"},{"bike_id":"4c7a7648-1697-41c2-b7e8-3e88dfe8686c","system_id":"levelo_inurba_marseille","lat":43.23153,"lon":5.43714,"is_reserved":false,"is_disabled":false,"rental_uris":{"android":"levelo://app?vid=4c7a7648-1697-41c2-b7e8-3e88dfe8686c","ios":"levelo://app?vid=4c7a7648-1697-41c2-b7e8-3e88dfe8686c"},"vehicle_type_id":"4","last_reported":1749726575,"current_range_meters":8800,"station_id":"ce4bhmp2rcd13ifvqgog","pricing_plan_id":"cebpf4jnsgd1na2vs0mg"},{"bike_id":"8105426e-eb6c-4b79-bfaa-254c1b037d55","system_id":"levelo_inurba_marseille","lat":43.323592,"lon":5.367586,"is_reserved":false,"is_disabled":false,"rental_uris":{"android":"levelo://app?vid=8105426e-eb6c-4b79-bfaa-254c1b037d55","ios":"levelo://app?vid=8105426e-eb6c-4b79-bfaa-254c1b037d55"},"vehicle_type_id":"4","last_reported":1749726575,"current_range_meters":8800,"station_id":"ce4bhsh2rcd13ifvqi2g","pricing_plan_id":"cebpf4jnsgd1na2vs0mg"},{"bike_id":"1cb59fb5-b7b6-4520-ae41-b1859c749e54","system_id":"levelo_inurba_marseille","lat":43.31169,"lon":5.38717,"is_reserved":false,"is_disabled":false,"rental_uris":{"android":"levelo://app?vid=1cb59fb5-b7b6-4520-ae41-b1859c749e54","ios":"levelo://app?vid=1cb59fb5-b7b6-4520-ae41-b1859c749e54"},"vehicle_type_id":"4","last_reported":1749726575,"current_range_meters":9200,"station_id":"ce4bgv12rcd13ifvqcp0","pricing_plan_id":"cebpf4jnsgd1na2vs0mg"},{"bike_id":"18ffc081-7183-47c6-82c9-919f65480f8c","system_id":"levelo_inurba_marseille","lat":43.3103,"lon":5.39628,"is_reserved":false,"is_disabled":false,"rental_uris":{"android":"levelo://app?vid=18ffc081-7183-47c6-82c9-919f65480f8c","ios":"levelo://app?vid=18ffc081-7183-47c6-82c9-919f65480f8c"},"vehicle_type_id":"4","last_reported":1749726575,"current_range_meters":9200,"station_id":"ce4bgvp2rcd13ifvqcu0","pricing_plan_id":"cebpf4jnsgd1na2vs0mg"},{"bike_id":"4f0b4d10-0d99-4cef-8ede-6c42c7262e5f","system_id":"levelo_inurba_marseille","lat":43.29018,"lon":5.38644,"is_reserved":false,"is_disabled":false,"rental_uris":{"android":"levelo://app?vid=4f0b4d10-0d99-4cef-8ede-6c42c7262e5f","ios":"levelo://app?vid=4f0b4d10-0d99-4cef-8ede-6c42c7262e5f"},"vehicle_type_id":"4","last_reported":1749726575,"current_range_meters":9200,"station_id":"ce4bh4p2rcd13ifvqe0g","pricing_plan_id":"cebpf4jnsgd1na2vs0mg"},{"bike_id":"840f8b33-0723-4225-b7ba-0fc46b3ae739","system_id":"levelo_inurba_marseille","lat":43.24054,"lon":5.3773,"is_reserved":false,"is_disabled":false,"rental_uris":{"android":"levelo://app?vid=840f8b33-0723-4225-b7ba-0fc46b3ae739","ios":"levelo://app?vid=840f8b33-0723-4225-b7ba-0fc46b3ae739"},"vehicle_type_id":"4","last_reported":1749726575,"current_range_meters":9200,"station_id":"ce4bhnp2rcd13ifvqgvg","pricing_plan_id":"cebpf4jnsgd1na2vs0mg"},{"bike_id":"985cff31-6c7f-411e-b5a9-8d8a23b42ed6","system_id":"levelo_inurba_marseille","lat":43.26805,"lon":5.40268,"is_reserved":false,"is_disabled":false,"rental_uris":{"android":"levelo://app?vid=985cff31-6c7f-411e-b5a9-8d8a23b42ed6","ios":"levelo://app?vid=985cff31-6c7f-411e-b5a9-8d8a23b42ed6"},"vehicle_type_id":"4","last_reported":1749726575,"current_range_meters":9200,"station_id":"ce501612rcd8frsf0b60","pricing_plan_id":"cebpf4jnsgd1na2vs0mg"},{"bike_id":"308cbf69-b866-4a48-b377-e4f7d5e7c70b","system_id":"levelo_inurba_marseille","lat":43.32962,"lon":5.39019,"is_reserved":false,"is_disabled":false,"rental_uris":{"android":"levelo://app?vid=308cbf69-b866-4a48-b377-e4f7d5e7c70b","ios":"levelo://app?vid=308cbf69-b866-4a48-b377-e4f7d5e7c70b"},"vehicle_type_id":"4","last_reported":1749726575,"current_range_meters":9600,"station_id":"","pricing_plan_id":"cebpf4jnsgd1na2vs0mg"},{"bike_id":"ca40aa0a-1965-4be2-a6b7-1fd193ec5e53","system_id":"levelo_inurba_marseille","lat":43.30143,"lon":5.381,"is_reserved":false,"is_disabled":false,"rental_uris":{"android":"levelo://app?vid=ca40aa0a-1965-4be2-a6b7-1fd193ec5e53","ios":"levelo://app?vid=ca40aa0a-1965-4be2-a6b7-1fd193ec5e53"},"vehicle_type_id":"4","last_reported":1749726575,"current_range_meters":9600,"station_id":"ce4bgjp2rcd13ifvqbh0","pricing_plan_id":"cebpf4jnsgd1na2vs0mg"},{"bike_id":"65f9a366-b93f-49ef-bd5e-2c77caa0d539","system_id":"levelo_inurba_marseille","lat":43.3054,"lon":5.36544,"is_reserved":false,"is_disabled":false,"rental_uris":{"android":"levelo://app?vid=65f9a366-b93f-49ef-bd5e-2c77caa0d539","ios":"levelo://app?vid=65f9a366-b93f-49ef-bd5e-2c77caa0d539"},"vehicle_type_id":"4","last_reported":1749726575,"current_range_meters":9600,"station_id":"ce4bgs12rcd13ifvqcag","pricing_plan_id":"cebpf4jnsgd1na2vs0mg"},{"bike_id":"06894864-ef44-45c7-b38a-9e654b60f033","system_id":"levelo_inurba_marseille","lat":43.30587,"lon":5.38931,"is_reserved":false,"is_disabled":false,"rental_uris":{"android":"levelo://app?vid=06894864-ef44-45c7-b38a-9e654b60f033","ios":"levelo://app?vid=06894864-ef44-45c7-b38a-9e654b60f033"},"vehicle_type_id":"4","last_reported":1749726575,"current_range_meters":10000,"station_id":"","pricing_plan_id":"cebpf4jnsgd1na2vs0mg"},{"bike_id":"e5ff82fd-cc37-4e1f-aade-050998fb0f61","system_id":"levelo_inurba_marseille","lat":43.26304,"lon":5.37103,"is_reserved":false,"is_disabled":false,"rental_uris":{"android":"levelo://app?vid=e5ff82fd-cc37-4e1f-aade-050998fb0f61","ios":"levelo://app?vid=e5ff82fd-cc37-4e1f-aade-050998fb0f61"},"vehicle_type_id":"4","last_reported":1749726575,"current_range_meters":10000,"station_id":"","pricing_plan_id":"cebpf4jnsgd1na2vs0mg"},{"bike_id":"5074afac-b9a8-452b-91b8-97809db7a88b","system_id":"levelo_inurba_marseille","lat":43.29608,"lon":5.38106,"is_reserved":false,"is_disabled":false,"rental_uris":{"android":"levelo://app?vid=5074afac-b9a8-452b-91b8-97809db7a88b","ios":"levelo://app?vid=5074afac-b9a8-452b-91b8-97809db7a88b"},"vehicle_type_id":"4","last_reported":1749726575,"current_range_meters":10000,"station_id":"ce4bgl12rcd13ifvqbo0","pricing_plan_id":"cebpf4jnsgd1na2vs0mg"},{"bike_id":"8fc55452-2d7e-4358-8d97-c18156cb5b45","system_id":"levelo_inurba_marseille","lat":43.29039,"lon":5.39943,"is_reserved":false,"is_disabled":false,"rental_uris":{"android":"levelo://app?vid=8fc55452-2d7e-4358-8d97-c18156cb5b45","ios":"levelo://app?vid=8fc55452-2d7e-4358-8d97-c18156cb5b45"},"vehicle_type_id":"4","last_reported":1749726575,"current_range_meters":10000,"station_id":"ce4bh392rcd13ifvqdm0","pricing_plan_id":"cebpf4jnsgd1na2vs0mg"},{"bike_id":"0923e79e-3960-4eec-9027-38089346fe3a","system_id":"levelo_inurba_marseille","lat":43.231916,"lon":5.355494,"is_reserved":false,"is_disabled":false,"rental_uris":{"android":"levelo://app?vid=0923e79e-3960-4eec-9027-38089346fe3a","ios":"levelo://app?vid=0923e79e-3960-4eec-9027-38089346fe3a"},"vehicle_type_id":"4","last_reported":1749726575,"current_range_meters":10000,"station_id":"ce4bhu92rcd13ifvqi70","pricing_plan_id":"cebpf4jnsgd1na2vs0mg"},{"bike_id":"1f9a6291-bf3f-4ad9-812c-4209bbc81fd6","system_id":"levelo_inurba_marseille","lat":43.27978,"lon":5.38735,"is_reserved":false,"is_disabled":false,"rental_uris":{"android":"levelo://app?vid=1f9a6291-bf3f-4ad9-812c-4209bbc81fd6","ios":"levelo://app?vid=1f9a6291-bf3f-4ad9-812c-4209bbc81fd6"},"vehicle_type_id":"4","last_reported":1749726575,"current_range_meters":10800,"station_id":"ce4bhg12rcd13ifvqf80","pricing_plan_id":"cebpf4jnsgd1na2vs0mg"},{"bike_id":"96cff9dc-6a2b-481d-b721-7bdc571475bc","system_id":"levelo_inurba_marseille","lat":43.24377,"lon":5.37045,"is_reserved":false,"is_disabled":false,"rental_uris":{"android":"levelo://app?vid=96cff9dc-6a2b-481d-b721-7bdc571475bc","ios":"levelo://app?vid=96cff9dc-6a2b-481d-b721-7bdc571475bc"},"vehicle_type_id":"4","last_reported":1749726575,"current_range_meters":10800,"station_id":"ce4bhhh2rcd13ifvqfk0","pricing_plan_id":"cebpf4jnsgd1na2vs0mg"},{"bike_id":"a2421370-e442-436f-a98a-844d44299694","system_id":"levelo_inurba_marseille","lat":43.32341,"lon":5.36725,"is_reserved":false,"is_disabled":false,"rental_uris":{"android":"levelo://app?vid=a2421370-e442-436f-a98a-844d44299694","ios":"levelo://app?vid=a2421370-e442-436f-a98a-844d44299694"},"vehicle_type_id":"4","last_reported":1749726575,"current_range_meters":10800,"station_id":"ce4bhsh2rcd13ifvqi2g","pricing_plan_id":"cebpf4jnsgd1na2vs0mg"},{"bike_id":"4a9ee61d-4970-4c20-a8b1-d35987682c6a","system_id":"levelo_inurba_marseille","lat":43.2954,"lon":5.38546,"is_reserved":false,"is_disabled":false,"rental_uris":{"android":"levelo://app?vid=4a9ee61d-4970-4c20-a8b1-d35987682c6a","ios":"levelo://app?vid=4a9ee61d-4970-4c20-a8b1-d35987682c6a"},"vehicle_type_id":"4","last_reported":1749726575,"current_range_meters":11200,"station_id":"ce4bgih2rcd13ifvqba0","pricing_plan_id":"cebpf4jnsgd1na2vs0mg"},{"bike_id":"ec6f669e-e6f6-43fb-98be-d58a9bc7cb1d","system_id":"levelo_inurba_marseille","lat":43.2958,"lon":5.36745,"is_reserved":false,"is_disabled":false,"rental_uris":{"android":"levelo://app?vid=ec6f669e-e6f6-43fb-98be-d58a9bc7cb1d","ios":"levelo://app?vid=ec6f669e-e6f6-43fb-98be-d58a9bc7cb1d"},"vehicle_type_id":"4","last_reported":1749726575,"current_range_meters":11200,"station_id":"ce4bgph2rcd13ifvqc2g","pricing_plan_id":"cebpf4jnsgd1na2vs0mg"},{"bike_id":"f4dd9759-2a63-4b43-a8bf-4ca204fe76c5","system_id":"levelo_inurba_marseille","lat":43.31499,"lon":5.37305,"is_reserved":false,"is_disabled":false,"rental_uris":{"android":"levelo://app?vid=f4dd9759-2a63-4b43-a8bf-4ca204fe76c5","ios":"levelo://app?vid=f4dd9759-2a63-4b43-a8bf-4ca204fe76c5"},"vehicle_type_id":"4","last_reported":1749726575,"current_range_meters":11200,"station_id":"ce4bgt12rcd13ifvqcd0","pricing_plan_id":"cebpf4jnsgd1na2vs0mg"},{"bike_id":"1beefbfa-ce98-4255-b03c-714822ef075b","system_id":"levelo_inurba_marseille","lat":43.30467,"lon":5.37911,"is_reserved":false,"is_disabled":false,"rental_uris":{"android":"levelo://app?vid=1beefbfa-ce98-4255-b03c-714822ef075b","ios":"levelo://app?vid=1beefbfa-ce98-4255-b03c-714822ef075b"},"vehicle_type_id":"4","last_reported":1749726575,"current_range_meters":11200,"station_id":"ce4bgup2rcd13ifvqcn0","pricing_plan_id":"cebpf4jnsgd1na2vs0mg"},{"bike_id":"73e85081-c6c5-4734-ba10-7ff55583b56e","system_id":"levelo_inurba_marseille","lat":43.31334,"lon":5.39689,"is_reserved":false,"is_disabled":false,"rental_uris":{"android":"levelo://app?vid=73e85081-c6c5-4734-ba10-7ff55583b56e","ios":"levelo://app?vid=73e85081-c6c5-4734-ba10-7ff55583b56e"},"vehicle_type_id":"4","last_reported":1749726575,"current_range_meters":11200,"station_id":"ce4bgvp2rcd13ifvqcu0","pricing_plan_id":"cebpf4jnsgd1na2vs0mg"},{"bike_id":"e25ce2fb-e96b-4a9c-a5ce-f0dc050bc70e","system_id":"levelo_inurba_marseille","lat":43.29009,"lon":5.35607,"is_reserved":false,"is_disabled":false,"rental_uris":{"android":"levelo://app?vid=e25ce2fb-e96b-4a9c-a5ce-f0dc050bc70e","ios":"levelo://app?vid=e25ce2fb-e96b-4a9c-a5ce-f0dc050bc70e"},"vehicle_type_id":"4","last_reported":1749726575,"current_range_meters":11200,"station_id":"ce4bhb92rcd13ifvqen0","pricing_plan_id":"cebpf4jnsgd1na2vs0mg"},{"bike_id":"83c5fc05-3258-4731-81a7-79181ec8616d","system_id":"levelo_inurba_marseille","lat":43.25,"lon":5.38929,"is_reserved":false,"is_disabled":false,"rental_uris":{"android":"levelo://app?vid=83c5fc05-3258-4731-81a7-79181ec8616d","ios":"levelo://app?vid=83c5fc05-3258-4731-81a7-79181ec8616d"},"vehicle_type_id":"4","last_reported":1749726575,"current_range_meters":11200,"station_id":"ce4bhgp2rcd13ifvqfd0","pricing_plan_id":"cebpf4jnsgd1na2vs0mg"},{"bike_id":"6dfd5595-654e-42ee-8e58-2a5c3df13ff8","system_id":"levelo_inurba_marseille","lat":43.30917,"lon":5.37244,"is_reserved":false,"is_disabled":false,"rental_uris":{"android":"levelo://app?vid=6dfd5595-654e-42ee-8e58-2a5c3df13ff8","ios":"levelo://app?vid=6dfd5595-654e-42ee-8e58-2a5c3df13ff8"},"vehicle_type_id":"4","last_reported":1749726575,"current_range_meters":11600,"station_id":"","pricing_plan_id":"cebpf4jnsgd1na2vs0mg"},{"bike_id":"e8d1c5bb-de92-4e6e-81e7-65c09aadd7ca","system_id":"levelo_inurba_marseille","lat":43.21189,"lon":5.35081,"is_reserved":false,"is_disabled":false,"rental_uris":{"android":"levelo://app?vid=e8d1c5bb-de92-4e6e-81e7-65c09aadd7ca","ios":"levelo://app?vid=e8d1c5bb-de92-4e6e-81e7-65c09aadd7ca"},"vehicle_type_id":"4","last_reported":1749726575,"current_range_meters":11600,"station_id":"st_cvj6sg6p6f1abm77japg","pricing_plan_id":"cebpf4jnsgd1na2vs0mg"},{"bike_id":"f6b56942-cc48-496c-b3a4-565b117a3dce","system_id":"levelo_inurba_marseille","lat":43.295318,"lon":5.385387,"is_reserved":false,"is_disabled":false,"rental_uris":{"android":"levelo://app?vid=f6b56942-cc48-496c-b3a4-565b117a3dce","ios":"levelo://app?vid=f6b56942-cc48-496c-b3a4-565b117a3dce"},"vehicle_type_id":"4","last_reported":1749726575,"current_range_meters":12000,"station_id":"ce4bgih2rcd13ifvqba0","pricing_plan_id":"cebpf4jnsgd1na2vs0mg"},{"bike_id":"608dbf53-4bd7-4842-92d3-6444e235738b","system_id":"levelo_inurba_marseille","lat":43.26685,"lon":5.38261,"is_reserved":false,"is_disabled":false,"rental_uris":{"android":"levelo://app?vid=608dbf53-4bd7-4842-92d3-6444e235738b","ios":"levelo://app?vid=608dbf53-4bd7-4842-92d3-6444e235738b"},"vehicle_type_id":"4","last_reported":1749726575,"current_range_meters":12000,"station_id":"ce4bhg92rcd13ifvqf90","pricing_plan_id":"cebpf4jnsgd1na2vs0mg"},{"bike_id":"743245d4-5457-49b9-9efc-d95c90d69b8e","system_id":"levelo_inurba_marseille","lat":43.314873,"lon":5.373081,"is_reserved":false,"is_disabled":false,"rental_uris":{"android":"levelo://app?vid=743245d4-5457-49b9-9efc-d95c90d69b8e","ios":"levelo://app?vid=743245d4-5457-49b9-9efc-d95c90d69b8e"},"vehicle_type_id":"4","last_reported":1749726575,"current_range_meters":12000,"station_id":"ce4bhip2rcd13ifvqft0","pricing_plan_id":"cebpf4jnsgd1na2vs0mg"},{"bike_id":"d47ffd9d-1cb4-439b-ae04-b9bdc2fe1971","system_id":"levelo_inurba_marseille","lat":43.24169,"lon":5.36388,"is_reserved":false,"is_disabled":false,"rental_uris":{"android":"levelo://app?vid=d47ffd9d-1cb4-439b-ae04-b9bdc2fe1971","ios":"levelo://app?vid=d47ffd9d-1cb4-439b-ae04-b9bdc2fe1971"},"vehicle_type_id":"4","last_reported":1749726575,"current_range_meters":12000,"station_id":"cpo36qri1sfpv3e86is0","pricing_plan_id":"cebpf4jnsgd1na2vs0mg"},{"bike_id":"500320f2-e4bb-4906-a414-ca67470055ab","system_id":"levelo_inurba_marseille","lat":43.25646,"lon":5.38592,"is_reserved":false,"is_disabled":false,"rental_uris":{"android":"levelo://app?vid=500320f2-e4bb-4906-a414-ca67470055ab","ios":"levelo://app?vid=500320f2-e4bb-4906-a414-ca67470055ab"},"vehicle_type_id":"4","last_reported":1749726575,"current_range_meters":12400,"station_id":"","pricing_plan_id":"cebpf4jnsgd1na2vs0mg"},{"bike_id":"51c9c3d1-050f-47d1-8726-c1814cd19d79","system_id":"levelo_inurba_marseille","lat":43.3128,"lon":5.38976,"is_reserved":false,"is_disabled":false,"rental_uris":{"android":"levelo://app?vid=51c9c3d1-050f-47d1-8726-c1814cd19d79","ios":"levelo://app?vid=51c9c3d1-050f-47d1-8726-c1814cd19d79"},"vehicle_type_id":"4","last_reported":1749726575,"current_range_meters":12400,"station_id":"","pricing_plan_id":"cebpf4jnsgd1na2vs0mg"},{"bike_id":"91252cb4-db98-4cff-ba49-0337a6eacf8f","system_id":"levelo_inurba_marseille","lat":43.31988,"lon":5.38786,"is_reserved":false,"is_disabled":false,"rental_uris":{"android":"levelo://app?vid=91252cb4-db98-4cff-ba49-0337a6eacf8f","ios":"levelo://app?vid=91252cb4-db98-4cff-ba49-0337a6eacf8f"},"vehicle_type_id":"4","last_reported":1749726575,"current_range_meters":12400,"station_id":"","pricing_plan_id":"cebpf4jnsgd1na2vs0mg"},{"bike_id":"37794e8c-2b5e-4e6b-904e-64ea0b68b96b","system_id":"levelo_inurba_marseille","lat":43.29991,"lon":5.3718,"is_reserved":false,"is_disabled":false,"rental_uris":{"android":"levelo://app?vid=37794e8c-2b5e-4e6b-904e-64ea0b68b96b","ios":"levelo://app?vid=37794e8c-2b5e-4e6b-904e-64ea0b68b96b"},"vehicle_type_id":"4","last_reported":1749726575,"current_range_meters":12400,"station_id":"ce4bgr92rcd13ifvqc7g","pricing_plan_id":"cebpf4jnsgd1na2vs0mg"},{"bike_id":"438f2c20-932d-4325-a2bd-db5d45abf5e6","system_id":"levelo_inurba_marseille","lat":43.30431,"lon":5.39779,"is_reserved":false,"is_disabled":false,"rental_uris":{"android":"levelo://app?vid=438f2c20-932d-4325-a2bd-db5d45abf5e6","ios":"levelo://app?vid=438f2c20-932d-4325-a2bd-db5d45abf5e6"},"vehicle_type_id":"4","last_reported":1749726575,"current_range_meters":12400,"station_id":"ce4bh092rcd13ifvqd20","pricing_plan_id":"cebpf4jnsgd1na2vs0mg"},{"bike_id":"17ef899a-2885-4ff0-9086-f0498fa46c16","system_id":"levelo_inurba_marseille","lat":43.27961,"lon":5.38756,"is_reserved":false,"is_disabled":false,"rental_uris":{"android":"levelo://app?vid=17ef899a-2885-4ff0-9086-f0498fa46c16","ios":"levelo://app?vid=17ef899a-2885-4ff0-9086-f0498fa46c16"},"vehicle_type_id":"4","last_reported":1749726575,"current_range_meters":12400,"station_id":"ce4bhg12rcd13ifvqf80","pricing_plan_id":"cebpf4jnsgd1na2vs0mg"},{"bike_id":"6d6a7ee5-eb4e-486a-a199-1c67f7b7ed5f","system_id":"levelo_inurba_marseille","lat":43.26015,"lon":5.37566,"is_reserved":false,"is_disabled":false,"rental_uris":{"android":"levelo://app?vid=6d6a7ee5-eb4e-486a-a199-1c67f7b7ed5f","ios":"levelo://app?vid=6d6a7ee5-eb4e-486a-a199-1c67f7b7ed5f"},"vehicle_type_id":"4","last_reported":1749726575,"current_range_meters":12400,"station_id":"ce4bhgh2rcd13ifvqfa0","pricing_plan_id":"cebpf4jnsgd1na2vs0mg"},{"bike_id":"f57da1de-1821-4d0c-a34e-6999c5262ffc","system_id":"levelo_inurba_marseille","lat":43.3234,"lon":5.36716,"is_reserved":false,"is_disabled":false,"rental_uris":{"android":"levelo://app?vid=f57da1de-1821-4d0c-a34e-6999c5262ffc","ios":"levelo://app?vid=f57da1de-1821-4d0c-a34e-6999c5262ffc"},"vehicle_type_id":"4","last_reported":1749726575,"current_range_meters":12400,"station_id":"ce4bhsh2rcd13ifvqi2g","pricing_plan_id":"cebpf4jnsgd1na2vs0mg"},{"bike_id":"501fe5cc-ec9f-4031-8e12-9c9a87dfd25d","system_id":"levelo_inurba_marseille","lat":43.317847,"lon":5.406143,"is_reserved":false,"is_disabled":false,"rental_uris":{"android":"levelo://app?vid=501fe5cc-ec9f-4031-8e12-9c9a87dfd25d","ios":"levelo://app?vid=501fe5cc-ec9f-4031-8e12-9c9a87dfd25d"},"vehicle_type_id":"4","last_reported":1749726575,"current_range_meters":12800,"station_id":"","pricing_plan_id":"cebpf4jnsgd1na2vs0mg"},{"bike_id":"8662d8ca-9267-46fa-8ee3-857818dfdf43","system_id":"levelo_inurba_marseille","lat":43.29729,"lon":5.37684,"is_reserved":false,"is_disabled":false,"rental_uris":{"android":"levelo://app?vid=8662d8ca-9267-46fa-8ee3-857818dfdf43","ios":"levelo://app?vid=8662d8ca-9267-46fa-8ee3-857818dfdf43"},"vehicle_type_id":"4","last_reported":1749726575,"current_range_meters":12800,"station_id":"ce4bgkh2rcd13ifvqbl0","pricing_plan_id":"cebpf4jnsgd1na2vs0mg"},{"bike_id":"0cecbf73-4d34-41f1-9e82-840301bd486c","system_id":"levelo_inurba_marseille","lat":43.30272,"lon":5.37722,"is_reserved":false,"is_disabled":false,"rental_uris":{"android":"levelo://app?vid=0cecbf73-4d34-41f1-9e82-840301bd486c","ios":"levelo://app?vid=0cecbf73-4d34-41f1-9e82-840301bd486c"},"vehicle_type_id":"4","last_reported":1749726575,"current_range_meters":12800,"station_id":"ce4bguh2rcd13ifvqcj0","pricing_plan_id":"cebpf4jnsgd1na2vs0mg"},{"bike_id":"ec017080-1013-4099-8a76-f85447bb719e","system_id":"levelo_inurba_marseille","lat":43.27314,"lon":5.39086,"is_reserved":false,"is_disabled":false,"rental_uris":{"android":"levelo://app?vid=ec017080-1013-4099-8a76-f85447bb719e","ios":"levelo://app?vid=ec017080-1013-4099-8a76-f85447bb719e"},"vehicle_type_id":"4","last_reported":1749726575,"current_range_meters":12800,"station_id":"ce4bhgp2rcd13ifvqfe0","pricing_plan_id":"cebpf4jnsgd1na2vs0mg"},{"bike_id":"37f28358-40ec-474a-bcb3-ca97240d396d","system_id":"levelo_inurba_marseille","lat":43.25122,"lon":5.40314,"is_reserved":false,"is_disabled":false,"rental_uris":{"android":"levelo://app?vid=37f28358-40ec-474a-bcb3-ca97240d396d","ios":"levelo://app?vid=37f28358-40ec-474a-bcb3-ca97240d396d"},"vehicle_type_id":"4","last_reported":1749726575,"current_range_meters":13600,"station_id":"ce4bhlh2rcd13ifvqgig","pricing_plan_id":"cebpf4jnsgd1na2vs0mg"},{"bike_id":"45cb9171-bb7e-418e-bf45-5916b7d21e5e","system_id":"levelo_inurba_marseille","lat":43.32101,"lon":5.36802,"is_reserved":false,"is_disabled":false,"rental_uris":{"android":"levelo://app?vid=45cb9171-bb7e-418e-bf45-5916b7d21e5e","ios":"levelo://app?vid=45cb9171-bb7e-418e-bf45-5916b7d21e5e"},"vehicle_type_id":"4","last_reported":1749726575,"current_range_meters":13600,"station_id":"ce4bhrh2rcd13ifvqhug","pricing_plan_id":"cebpf4jnsgd1na2vs0mg"},{"bike_id":"5d04c0c8-ca63-472b-b867-00b65bf24925","system_id":"levelo_inurba_marseille","lat":43.29272,"lon":5.38441,"is_reserved":false,"is_disabled":false,"rental_uris":{"android":"levelo://app?vid=5d04c0c8-ca63-472b-b867-00b65bf24925","ios":"levelo://app?vid=5d04c0c8-ca63-472b-b867-00b65bf24925"},"vehicle_type_id":"4","last_reported":1749726575,"current_range_meters":14000,"station_id":"ce4bh692rcd13ifvqea0","pricing_plan_id":"cebpf4jnsgd1na2vs0mg"},{"bike_id":"97f9a1ce-c251-4e55-af2e-0cbca4a800a7","system_id":"levelo_inurba_marseille","lat":43.23149,"lon":5.43698,"is_reserved":false,"is_disabled":false,"rental_uris":{"android":"levelo://app?vid=97f9a1ce-c251-4e55-af2e-0cbca4a800a7","ios":"levelo://app?vid=97f9a1ce-c251-4e55-af2e-0cbca4a800a7"},"vehicle_type_id":"4","last_reported":1749726575,"current_range_meters":14000,"station_id":"ce4bhmp2rcd13ifvqgog","pricing_plan_id":"cebpf4jnsgd1na2vs0mg"},{"bike_id":"ce81f804-a274-484f-a641-28706f036e77","system_id":"levelo_inurba_marseille","lat":43.31918,"lon":5.40778,"is_reserved":false,"is_disabled":false,"rental_uris":{"android":"levelo://app?vid=ce81f804-a274-484f-a641-28706f036e77","ios":"levelo://app?vid=ce81f804-a274-484f-a641-28706f036e77"},"vehicle_type_id":"4","last_reported":1749726575,"current_range_meters":14000,"station_id":"ce4bhq12rcd13ifvqhig","pricing_plan_id":"cebpf4jnsgd1na2vs0mg"},{"bike_id":"a63a44e1-3691-4845-8be6-9085725b266d","system_id":"levelo_inurba_marseille","lat":43.312921,"lon":5.375206,"is_reserved":false,"is_disabled":false,"rental_uris":{"android":"levelo://app?vid=a63a44e1-3691-4845-8be6-9085725b266d","ios":"levelo://app?vid=a63a44e1-3691-4845-8be6-9085725b266d"},"vehicle_type_id":"4","last_reported":1749726575,"current_range_meters":14400,"station_id":"","pricing_plan_id":"cebpf4jnsgd1na2vs0mg"},{"bike_id":"eeceabd6-b7b4-4fc3-9296-0e61126a80f4","system_id":"levelo_inurba_marseille","lat":43.303011,"lon":5.392152,"is_reserved":false,"is_disabled":false,"rental_uris":{"android":"levelo://app?vid=eeceabd6-b7b4-4fc3-9296-0e61126a80f4","ios":"levelo://app?vid=eeceabd6-b7b4-4fc3-9296-0e61126a80f4"},"vehicle_type_id":"4","last_reported":1749726575,"current_range_meters":14400,"station_id":"ce4bgkh2rcd13ifvqbk0","pricing_plan_id":"cebpf4jnsgd1na2vs0mg"},{"bike_id":"2877804c-1cf8-430c-b965-c24243618405","system_id":"levelo_inurba_marseille","lat":43.30957,"lon":5.39039,"is_reserved":false,"is_disabled":false,"rental_uris":{"android":"levelo://app?vid=2877804c-1cf8-430c-b965-c24243618405","ios":"levelo://app?vid=2877804c-1cf8-430c-b965-c24243618405"},"vehicle_type_id":"4","last_reported":1749726575,"current_range_meters":14400,"station_id":"ce4bgup2rcd13ifvqco0","pricing_plan_id":"cebpf4jnsgd1na2vs0mg"},{"bike_id":"46186c23-1d81-4d78-83f7-1cfbc90e845c","system_id":"levelo_inurba_marseille","lat":43.312185,"lon":5.368665,"is_reserved":false,"is_disabled":false,"rental_uris":{"android":"levelo://app?vid=46186c23-1d81-4d78-83f7-1cfbc90e845c","ios":"levelo://app?vid=46186c23-1d81-4d78-83f7-1cfbc90e845c"},"vehicle_type_id":"4","last_reported":1749726575,"current_range_meters":14800,"station_id":"ce4bgl92rcd13ifvqbq0","pricing_plan_id":"cebpf4jnsgd1na2vs0mg"},{"bike_id":"e4269b93-eff6-47f6-9de7-9d0cdac510ce","system_id":"levelo_inurba_marseille","lat":43.30602,"lon":5.37225,"is_reserved":false,"is_disabled":false,"rental_uris":{"android":"levelo://app?vid=e4269b93-eff6-47f6-9de7-9d0cdac510ce","ios":"levelo://app?vid=e4269b93-eff6-47f6-9de7-9d0cdac510ce"},"vehicle_type_id":"4","last_reported":1749726575,"current_range_meters":14800,"station_id":"ce4bgqh2rcd13ifvqc4g","pricing_plan_id":"cebpf4jnsgd1na2vs0mg"},{"bike_id":"193c7170-2ed2-4d7f-9bba-37cc0ae65454","system_id":"levelo_inurba_marseille","lat":43.25828,"lon":5.39438,"is_reserved":false,"is_disabled":false,"rental_uris":{"android":"levelo://app?vid=193c7170-2ed2-4d7f-9bba-37cc0ae65454","ios":"levelo://app?vid=193c7170-2ed2-4d7f-9bba-37cc0ae65454"},"vehicle_type_id":"4","last_reported":1749726575,"current_range_meters":14800,"station_id":"ce4bhip2rcd13ifvqft0","pricing_plan_id":"cebpf4jnsgd1na2vs0mg"},{"bike_id":"9cfb5991-2280-4230-b550-97760b380a10","system_id":"levelo_inurba_marseille","lat":43.24159,"lon":5.36402,"is_reserved":false,"is_disabled":false,"rental_uris":{"android":"levelo://app?vid=9cfb5991-2280-4230-b550-97760b380a10","ios":"levelo://app?vid=9cfb5991-2280-4230-b550-97760b380a10"},"vehicle_type_id":"4","last_reported":1749726575,"current_range_meters":14800,"station_id":"cpo36qri1sfpv3e86is0","pricing_plan_id":"cebpf4jnsgd1na2vs0mg"},{"bike_id":"a1cb9f3a-baac-4a2e-8a7d-8fa2b49afb45","system_id":"levelo_inurba_marseille","lat":43.279107,"lon":5.380119,"is_reserved":false,"is_disabled":false,"rental_uris":{"android":"levelo://app?vid=a1cb9f3a-baac-4a2e-8a7d-8fa2b49afb45","ios":"levelo://app?vid=a1cb9f3a-baac-4a2e-8a7d-8fa2b49afb45"},"vehicle_type_id":"4","last_reported":1749726575,"current_range_meters":15200,"station_id":"","pricing_plan_id":"cebpf4jnsgd1na2vs0mg"},{"bike_id":"c761a7f2-b7f9-4073-93b4-0656a4bab7a8","system_id":"levelo_inurba_marseille","lat":43.31115,"lon":5.37772,"is_reserved":false,"is_disabled":false,"rental_uris":{"android":"levelo://app?vid=c761a7f2-b7f9-4073-93b4-0656a4bab7a8","ios":"levelo://app?vid=c761a7f2-b7f9-4073-93b4-0656a4bab7a8"},"vehicle_type_id":"4","last_reported":1749726575,"current_range_meters":15200,"station_id":"ce4bgt92rcd13ifvqcg0","pricing_plan_id":"cebpf4jnsgd1na2vs0mg"},{"bike_id":"4c725a15-4a8c-4f29-9761-7302786f7b4f","system_id":"levelo_inurba_marseille","lat":43.30332,"lon":5.40433,"is_reserved":false,"is_disabled":false,"rental_uris":{"android":"levelo://app?vid=4c725a15-4a8c-4f29-9761-7302786f7b4f","ios":"levelo://app?vid=4c725a15-4a8c-4f29-9761-7302786f7b4f"},"vehicle_type_id":"4","last_reported":1749726575,"current_range_meters":15200,"station_id":"ce4bh012rcd13ifvqd10","pricing_plan_id":"cebpf4jnsgd1na2vs0mg"},{"bike_id":"a41b2ba3-a518-40e8-aa74-96af13920b2d","system_id":"levelo_inurba_marseille","lat":43.26561,"lon":5.39016,"is_reserved":false,"is_disabled":false,"rental_uris":{"android":"levelo://app?vid=a41b2ba3-a518-40e8-aa74-96af13920b2d","ios":"levelo://app?vid=a41b2ba3-a518-40e8-aa74-96af13920b2d"},"vehicle_type_id":"4","last_reported":1749726575,"current_range_meters":15200,"station_id":"ce4bhe12rcd13ifvqf30","pricing_plan_id":"cebpf4jnsgd1na2vs0mg"},{"bike_id":"8c31f4a5-033f-4dc1-acaa-6b626b1b7f90","system_id":"levelo_inurba_marseille","lat":43.23146,"lon":5.4372,"is_reserved":false,"is_disabled":false,"rental_uris":{"android":"levelo://app?vid=8c31f4a5-033f-4dc1-acaa-6b626b1b7f90","ios":"levelo://app?vid=8c31f4a5-033f-4dc1-acaa-6b626b1b7f90"},"vehicle_type_id":"4","last_reported":1749726575,"current_range_meters":15200,"station_id":"ce4bhmp2rcd13ifvqgog","pricing_plan_id":"cebpf4jnsgd1na2vs0mg"},{"bike_id":"1268e070-f02d-4537-93df-0bfd5c4daa05","system_id":"levelo_inurba_marseille","lat":43.32694,"lon":5.37675,"is_reserved":false,"is_disabled":false,"rental_uris":{"android":"levelo://app?vid=1268e070-f02d-4537-93df-0bfd5c4daa05","ios":"levelo://app?vid=1268e070-f02d-4537-93df-0bfd5c4daa05"},"vehicle_type_id":"4","last_reported":1749726575,"current_range_meters":16000,"station_id":"","pricing_plan_id":"cebpf4jnsgd1na2vs0mg"},{"bike_id":"7d7170dd-d55e-43db-a9c2-1ed74c433fd7","system_id":"levelo_inurba_marseille","lat":43.31001,"lon":5.42008,"is_reserved":false,"is_disabled":false,"rental_uris":{"android":"levelo://app?vid=7d7170dd-d55e-43db-a9c2-1ed74c433fd7","ios":"levelo://app?vid=7d7170dd-d55e-43db-a9c2-1ed74c433fd7"},"vehicle_type_id":"4","last_reported":1749726575,"current_range_meters":16000,"station_id":"","pricing_plan_id":"cebpf4jnsgd1na2vs0mg"},{"bike_id":"6e464720-93b0-4699-80fe-881649eb71cd","system_id":"levelo_inurba_marseille","lat":43.23256,"lon":5.35571,"is_reserved":false,"is_disabled":false,"rental_uris":{"android":"levelo://app?vid=6e464720-93b0-4699-80fe-881649eb71cd","ios":"levelo://app?vid=6e464720-93b0-4699-80fe-881649eb71cd"},"vehicle_type_id":"4","last_reported":1749726575,"current_range_meters":16000,"station_id":"","pricing_plan_id":"cebpf4jnsgd1na2vs0mg"},{"bike_id":"e5ef7447-82af-477b-846f-d44631249354","system_id":"levelo_inurba_marseille","lat":43.32522,"lon":5.38811,"is_reserved":false,"is_disabled":false,"rental_uris":{"android":"levelo://app?vid=e5ef7447-82af-477b-846f-d44631249354","ios":"levelo://app?vid=e5ef7447-82af-477b-846f-d44631249354"},"vehicle_type_id":"4","last_reported":1749726575,"current_range_meters":16000,"station_id":"","pricing_plan_id":"cebpf4jnsgd1na2vs0mg"},{"bike_id":"e1259bdc-2fca-4f0a-8c39-8cf9d1a28f2e","system_id":"levelo_inurba_marseille","lat":43.26691,"lon":5.38263,"is_reserved":false,"is_disabled":false,"rental_uris":{"android":"levelo://app?vid=e1259bdc-2fca-4f0a-8c39-8cf9d1a28f2e","ios":"levelo://app?vid=e1259bdc-2fca-4f0a-8c39-8cf9d1a28f2e"},"vehicle_type_id":"4","last_reported":1749726575,"current_range_meters":16000,"station_id":"ce4bhg92rcd13ifvqf90","pricing_plan_id":"cebpf4jnsgd1na2vs0mg"},{"bike_id":"1dfc6a02-d34f-4df0-bde2-0a3f34d2071e","system_id":"levelo_inurba_marseille","lat":43.231835,"lon":5.399851,"is_reserved":false,"is_disabled":false,"rental_uris":{"android":"levelo://app?vid=1dfc6a02-d34f-4df0-bde2-0a3f34d2071e","ios":"levelo://app?vid=1dfc6a02-d34f-4df0-bde2-0a3f34d2071e"},"vehicle_type_id":"4","last_reported":1749726575,"current_range_meters":16000,"station_id":"ce4bhn12rcd13ifvqgqg","pricing_plan_id":"cebpf4jnsgd1na2vs0mg"},{"bike_id":"b8786c95-3f62-4aae-a677-c450c7d4faeb","system_id":"levelo_inurba_marseille","lat":43.22933,"lon":5.35385,"is_reserved":false,"is_disabled":false,"rental_uris":{"android":"levelo://app?vid=b8786c95-3f62-4aae-a677-c450c7d4faeb","ios":"levelo://app?vid=b8786c95-3f62-4aae-a677-c450c7d4faeb"},"vehicle_type_id":"4","last_reported":1749726575,"current_range_meters":16000,"station_id":"cpo3532slgdg3j2ikp40","pricing_plan_id":"cebpf4jnsgd1na2vs0mg"},{"bike_id":"7003b93c-725d-412e-9127-fbade718cbc3","system_id":"levelo_inurba_marseille","lat":43.211921,"lon":5.350705,"is_reserved":false,"is_disabled":false,"rental_uris":{"android":"levelo://app?vid=7003b93c-725d-412e-9127-fbade718cbc3","ios":"levelo://app?vid=7003b93c-725d-412e-9127-fbade718cbc3"},"vehicle_type_id":"4","last_reported":1749726575,"current_range_meters":16000,"station_id":"st_cvj6sg6p6f1abm77japg","pricing_plan_id":"cebpf4jnsgd1na2vs0mg"},{"bike_id":"1989215c-378c-442b-a262-e4741c2e9de7","system_id":"levelo_inurba_marseille","lat":43.30236,"lon":5.40375,"is_reserved":false,"is_disabled":false,"rental_uris":{"android":"levelo://app?vid=1989215c-378c-442b-a262-e4741c2e9de7","ios":"levelo://app?vid=1989215c-378c-442b-a262-e4741c2e9de7"},"vehicle_type_id":"4","last_reported":1749726575,"current_range_meters":16400,"station_id":"","pricing_plan_id":"cebpf4jnsgd1na2vs0mg"},{"bike_id":"d24133ff-b3b7-4bc8-975b-6c012903b7dd","system_id":"levelo_inurba_marseille","lat":43.31242,"lon":5.36884,"is_reserved":false,"is_disabled":false,"rental_uris":{"android":"levelo://app?vid=d24133ff-b3b7-4bc8-975b-6c012903b7dd","ios":"levelo://app?vid=d24133ff-b3b7-4bc8-975b-6c012903b7dd"},"vehicle_type_id":"4","last_reported":1749726575,"current_range_meters":16400,"station_id":"ce4bgl92rcd13ifvqbq0","pricing_plan_id":"cebpf4jnsgd1na2vs0mg"},{"bike_id":"7624f930-8a29-453f-876b-d242de2c99f9","system_id":"levelo_inurba_marseille","lat":43.31234,"lon":5.36845,"is_reserved":false,"is_disabled":false,"rental_uris":{"android":"levelo://app?vid=7624f930-8a29-453f-876b-d242de2c99f9","ios":"levelo://app?vid=7624f930-8a29-453f-876b-d242de2c99f9"},"vehicle_type_id":"4","last_reported":1749726575,"current_range_meters":16400,"station_id":"ce4bgl92rcd13ifvqbq0","pricing_plan_id":"cebpf4jnsgd1na2vs0mg"},{"bike_id":"0a58445a-5386-4da9-9d42-570299d93bae","system_id":"levelo_inurba_marseille","lat":43.28362,"lon":5.3863,"is_reserved":false,"is_disabled":false,"rental_uris":{"android":"levelo://app?vid=0a58445a-5386-4da9-9d42-570299d93bae","ios":"levelo://app?vid=0a58445a-5386-4da9-9d42-570299d93bae"},"vehicle_type_id":"4","last_reported":1749726575,"current_range_meters":16400,"station_id":"ce4bh492rcd13ifvqdvg","pricing_plan_id":"cebpf4jnsgd1na2vs0mg"},{"bike_id":"bf16b420-005b-49ae-bdde-5bb8d665efa0","system_id":"levelo_inurba_marseille","lat":43.286079,"lon":5.370637,"is_reserved":false,"is_disabled":false,"rental_uris":{"android":"levelo://app?vid=bf16b420-005b-49ae-bdde-5bb8d665efa0","ios":"levelo://app?vid=bf16b420-005b-49ae-bdde-5bb8d665efa0"},"vehicle_type_id":"4","last_reported":1749726575,"current_range_meters":16400,"station_id":"ce4bht12rcd13ifvqi60","pricing_plan_id":"cebpf4jnsgd1na2vs0mg"},{"bike_id":"919a1753-2326-4fec-8743-0f0ba8fb75d2","system_id":"levelo_inurba_marseille","lat":43.217491,"lon":5.34599,"is_reserved":false,"is_disabled":false,"rental_uris":{"android":"levelo://app?vid=919a1753-2326-4fec-8743-0f0ba8fb75d2","ios":"levelo://app?vid=919a1753-2326-4fec-8743-0f0ba8fb75d2"},"vehicle_type_id":"4","last_reported":1749726575,"current_range_meters":16400,"station_id":"st_cvj6r9ubvosntc0bgbag","pricing_plan_id":"cebpf4jnsgd1na2vs0mg"},{"bike_id":"13c243cd-9cd7-41ad-a6fc-cb8f0f4eabf6","system_id":"levelo_inurba_marseille","lat":43.2175,"lon":5.34604,"is_reserved":false,"is_disabled":false,"rental_uris":{"android":"levelo://app?vid=13c243cd-9cd7-41ad-a6fc-cb8f0f4eabf6","ios":"levelo://app?vid=13c243cd-9cd7-41ad-a6fc-cb8f0f4eabf6"},"vehicle_type_id":"4","last_reported":1749726575,"current_range_meters":16400,"station_id":"st_cvj6r9ubvosntc0bgbag","pricing_plan_id":"cebpf4jnsgd1na2vs0mg"},{"bike_id":"c0bd4251-d527-48a7-9378-e4e80c1c274f","system_id":"levelo_inurba_marseille","lat":43.31816,"lon":5.37345,"is_reserved":false,"is_disabled":false,"rental_uris":{"android":"levelo://app?vid=c0bd4251-d527-48a7-9378-e4e80c1c274f","ios":"levelo://app?vid=c0bd4251-d527-48a7-9378-e4e80c1c274f"},"vehicle_type_id":"4","last_reported":1749726575,"current_range_meters":16800,"station_id":"","pricing_plan_id":"cebpf4jnsgd1na2vs0mg"},{"bike_id":"d29b68da-c5e6-447f-8dcb-1ab2cc9e6f96","system_id":"levelo_inurba_marseille","lat":43.26358,"lon":5.39632,"is_reserved":false,"is_disabled":false,"rental_uris":{"android":"levelo://app?vid=d29b68da-c5e6-447f-8dcb-1ab2cc9e6f96","ios":"levelo://app?vid=d29b68da-c5e6-447f-8dcb-1ab2cc9e6f96"},"vehicle_type_id":"4","last_reported":1749726575,"current_range_meters":16800,"station_id":"","pricing_plan_id":"cebpf4jnsgd1na2vs0mg"},{"bike_id":"fb8efe6b-a3ee-4969-be10-6eabeac34652","system_id":"levelo_inurba_marseille","lat":43.30582,"lon":5.36697,"is_reserved":false,"is_disabled":false,"rental_uris":{"android":"levelo://app?vid=fb8efe6b-a3ee-4969-be10-6eabeac34652","ios":"levelo://app?vid=fb8efe6b-a3ee-4969-be10-6eabeac34652"},"vehicle_type_id":"4","last_reported":1749726575,"current_range_meters":16800,"station_id":"","pricing_plan_id":"cebpf4jnsgd1na2vs0mg"},{"bike_id":"e1361eb6-0619-4f87-aa83-16d80584507c","system_id":"levelo_inurba_marseille","lat":43.2842,"lon":5.34976,"is_reserved":false,"is_disabled":false,"rental_uris":{"android":"levelo://app?vid=e1361eb6-0619-4f87-aa83-16d80584507c","ios":"levelo://app?vid=e1361eb6-0619-4f87-aa83-16d80584507c"},"vehicle_type_id":"4","last_reported":1749726575,"current_range_meters":16800,"station_id":"ce4bhbh2rcd13ifvqepg","pricing_plan_id":"cebpf4jnsgd1na2vs0mg"},{"bike_id":"07ebd14f-b6c9-4e69-8e25-e9bdc29da918","system_id":"levelo_inurba_marseille","lat":43.28273,"lon":5.3506,"is_reserved":false,"is_disabled":false,"rental_uris":{"android":"levelo://app?vid=07ebd14f-b6c9-4e69-8e25-e9bdc29da918","ios":"levelo://app?vid=07ebd14f-b6c9-4e69-8e25-e9bdc29da918"},"vehicle_type_id":"4","last_reported":1749726575,"current_range_meters":16800,"station_id":"ce4bhbp2rcd13ifvqerg","pricing_plan_id":"cebpf4jnsgd1na2vs0mg"},{"bike_id":"35733ac5-1a87-435f-bdd3-fb5ec7a34be5","system_id":"levelo_inurba_marseille","lat":43.29559,"lon":5.42287,"is_reserved":false,"is_disabled":false,"rental_uris":{"android":"levelo://app?vid=35733ac5-1a87-435f-bdd3-fb5ec7a34be5","ios":"levelo://app?vid=35733ac5-1a87-435f-bdd3-fb5ec7a34be5"},"vehicle_type_id":"4","last_reported":1749726575,"current_range_meters":16800,"station_id":"ce4bhph2rcd13ifvqhdg","pricing_plan_id":"cebpf4jnsgd1na2vs0mg"},{"bike_id":"e32c6d2f-e42b-4c65-862f-bdc477f673b8","system_id":"levelo_inurba_marseille","lat":43.33611,"lon":5.41032,"is_reserved":false,"is_disabled":false,"rental_uris":{"android":"levelo://app?vid=e32c6d2f-e42b-4c65-862f-bdc477f673b8","ios":"levelo://app?vid=e32c6d2f-e42b-4c65-862f-bdc477f673b8"},"vehicle_type_id":"4","last_reported":1749726575,"current_range_meters":16800,"station_id":"ce4bhqh2rcd13ifvqhmg","pricing_plan_id":"cebpf4jnsgd1na2vs0mg"},{"bike_id":"78e4331f-c67f-4812-a1cf-4af0acc5e2d6","system_id":"levelo_inurba_marseille","lat":43.323501,"lon":5.367351,"is_reserved":false,"is_disabled":false,"rental_uris":{"android":"levelo://app?vid=78e4331f-c67f-4812-a1cf-4af0acc5e2d6","ios":"levelo://app?vid=78e4331f-c67f-4812-a1cf-4af0acc5e2d6"},"vehicle_type_id":"4","last_reported":1749726575,"current_range_meters":16800,"station_id":"ce4bhsh2rcd13ifvqi2g","pricing_plan_id":"cebpf4jnsgd1na2vs0mg"},{"bike_id":"346f3f80-6b15-4406-b905-bb78596f5bac","system_id":"levelo_inurba_marseille","lat":43.32353,"lon":5.36766,"is_reserved":false,"is_disabled":false,"rental_uris":{"android":"levelo://app?vid=346f3f80-6b15-4406-b905-bb78596f5bac","ios":"levelo://app?vid=346f3f80-6b15-4406-b905-bb78596f5bac"},"vehicle_type_id":"4","last_reported":1749726575,"current_range_meters":16800,"station_id":"ce4bhsh2rcd13ifvqi2g","pricing_plan_id":"cebpf4jnsgd1na2vs0mg"},{"bike_id":"aa37c544-9991-4a7d-a891-d7b1c7f9a991","system_id":"levelo_inurba_marseille","lat":43.29037,"lon":5.38644,"is_reserved":false,"is_disabled":false,"rental_uris":{"android":"levelo://app?vid=aa37c544-9991-4a7d-a891-d7b1c7f9a991","ios":"levelo://app?vid=aa37c544-9991-4a7d-a891-d7b1c7f9a991"},"vehicle_type_id":"4","last_reported":1749726575,"current_range_meters":17200,"station_id":"ce4bh4p2rcd13ifvqe0g","pricing_plan_id":"cebpf4jnsgd1na2vs0mg"},{"bike_id":"b2798195-4fce-46b6-9218-5d7d2f4fa6a6","system_id":"levelo_inurba_marseille","lat":43.29569,"lon":5.42278,"is_reserved":false,"is_disabled":false,"rental_uris":{"android":"levelo://app?vid=b2798195-4fce-46b6-9218-5d7d2f4fa6a6","ios":"levelo://app?vid=b2798195-4fce-46b6-9218-5d7d2f4fa6a6"},"vehicle_type_id":"4","last_reported":1749726575,"current_range_meters":17200,"station_id":"ce4bhph2rcd13ifvqhdg","pricing_plan_id":"cebpf4jnsgd1na2vs0mg"},{"bike_id":"99e60434-491e-4f85-b8a2-3f97de608991","system_id":"levelo_inurba_marseille","lat":43.32367,"lon":5.38879,"is_reserved":false,"is_disabled":false,"rental_uris":{"android":"levelo://app?vid=99e60434-491e-4f85-b8a2-3f97de608991","ios":"levelo://app?vid=99e60434-491e-4f85-b8a2-3f97de608991"},"vehicle_type_id":"4","last_reported":1749726575,"current_range_meters":17200,"station_id":"ce4bhqp2rcd13ifvqhog","pricing_plan_id":"cebpf4jnsgd1na2vs0mg"},{"bike_id":"41902e46-3363-402b-89a9-77321257c96b","system_id":"levelo_inurba_marseille","lat":43.3233,"lon":5.36726,"is_reserved":false,"is_disabled":false,"rental_uris":{"android":"levelo://app?vid=41902e46-3363-402b-89a9-77321257c96b","ios":"levelo://app?vid=41902e46-3363-402b-89a9-77321257c96b"},"vehicle_type_id":"4","last_reported":1749726575,"current_range_meters":17200,"station_id":"ce4bhsh2rcd13ifvqi2g","pricing_plan_id":"cebpf4jnsgd1na2vs0mg"},{"bike_id":"32d03701-c86d-432d-b8c9-129528445c97","system_id":"levelo_inurba_marseille","lat":43.315004,"lon":5.373094,"is_reserved":false,"is_disabled":false,"rental_uris":{"android":"levelo://app?vid=32d03701-c86d-432d-b8c9-129528445c97","ios":"levelo://app?vid=32d03701-c86d-432d-b8c9-129528445c97"},"vehicle_type_id":"4","last_reported":1749726575,"current_range_meters":17600,"station_id":"ce4bgt12rcd13ifvqcd0","pricing_plan_id":"cebpf4jnsgd1na2vs0mg"},{"bike_id":"adc26b75-c481-484c-b5c7-74c0b92e76bf","system_id":"levelo_inurba_marseille","lat":43.27908,"lon":5.38003,"is_reserved":false,"is_disabled":false,"rental_uris":{"android":"levelo://app?vid=adc26b75-c481-484c-b5c7-74c0b92e76bf","ios":"levelo://app?vid=adc26b75-c481-484c-b5c7-74c0b92e76bf"},"vehicle_type_id":"4","last_reported":1749726575,"current_range_meters":17600,"station_id":"ce4bhf92rcd13ifvqf50","pricing_plan_id":"cebpf4jnsgd1na2vs0mg"},{"bike_id":"109d7f3e-5a29-4c3c-bef1-1a3aef1d64ab","system_id":"levelo_inurba_marseille","lat":43.2784,"lon":5.39206,"is_reserved":false,"is_disabled":false,"rental_uris":{"android":"levelo://app?vid=109d7f3e-5a29-4c3c-bef1-1a3aef1d64ab","ios":"levelo://app?vid=109d7f3e-5a29-4c3c-bef1-1a3aef1d64ab"},"vehicle_type_id":"4","last_reported":1749726575,"current_range_meters":17600,"station_id":"ce4bhjp2rcd13ifvqga0","pricing_plan_id":"cebpf4jnsgd1na2vs0mg"},{"bike_id":"2150c879-5a90-46ab-86ee-e819ae2292d5","system_id":"levelo_inurba_marseille","lat":43.30733,"lon":5.42447,"is_reserved":false,"is_disabled":false,"rental_uris":{"android":"levelo://app?vid=2150c879-5a90-46ab-86ee-e819ae2292d5","ios":"levelo://app?vid=2150c879-5a90-46ab-86ee-e819ae2292d5"},"vehicle_type_id":"4","last_reported":1749726575,"current_range_meters":17600,"station_id":"st_cvj6ca6bvosntc0bfgr0","pricing_plan_id":"cebpf4jnsgd1na2vs0mg"},{"bike_id":"2a618f63-9c70-425c-bef3-d84fbd509df8","system_id":"levelo_inurba_marseille","lat":43.305043,"lon":5.365593,"is_reserved":false,"is_disabled":false,"rental_uris":{"android":"levelo://app?vid=2a618f63-9c70-425c-bef3-d84fbd509df8","ios":"levelo://app?vid=2a618f63-9c70-425c-bef3-d84fbd509df8"},"vehicle_type_id":"4","last_reported":1749726575,"current_range_meters":18000,"station_id":"","pricing_plan_id":"cebpf4jnsgd1na2vs0mg"},{"bike_id":"11a7710f-084d-413d-abc1-c587a947a05e","system_id":"levelo_inurba_marseille","lat":43.26813,"lon":5.39063,"is_reserved":false,"is_disabled":false,"rental_uris":{"android":"levelo://app?vid=11a7710f-084d-413d-abc1-c587a947a05e","ios":"levelo://app?vid=11a7710f-084d-413d-abc1-c587a947a05e"},"vehicle_type_id":"4","last_reported":1749726575,"current_range_meters":18000,"station_id":"","pricing_plan_id":"cebpf4jnsgd1na2vs0mg"},{"bike_id":"cccd4297-637e-4f89-883f-36f382fc1ac5","system_id":"levelo_inurba_marseille","lat":43.30308,"lon":5.39205,"is_reserved":false,"is_disabled":false,"rental_uris":{"android":"levelo://app?vid=cccd4297-637e-4f89-883f-36f382fc1ac5","ios":"levelo://app?vid=cccd4297-637e-4f89-883f-36f382fc1ac5"},"vehicle_type_id":"4","last_reported":1749726575,"current_range_meters":18000,"station_id":"ce4bgkh2rcd13ifvqbk0","pricing_plan_id":"cebpf4jnsgd1na2vs0mg"},{"bike_id":"1c8ef337-bc2e-444e-8d7b-63163c35978e","system_id":"levelo_inurba_marseille","lat":43.30936,"lon":5.40142,"is_reserved":false,"is_disabled":false,"rental_uris":{"android":"levelo://app?vid=1c8ef337-bc2e-444e-8d7b-63163c35978e","ios":"levelo://app?vid=1c8ef337-bc2e-444e-8d7b-63163c35978e"},"vehicle_type_id":"4","last_reported":1749726575,"current_range_meters":18000,"station_id":"ce4bgvp2rcd13ifvqct0","pricing_plan_id":"cebpf4jnsgd1na2vs0mg"},{"bike_id":"8c4d2786-d3ae-4486-bcca-4a55469040e4","system_id":"levelo_inurba_marseille","lat":43.30139,"lon":5.39884,"is_reserved":false,"is_disabled":false,"rental_uris":{"android":"levelo://app?vid=8c4d2786-d3ae-4486-bcca-4a55469040e4","ios":"levelo://app?vid=8c4d2786-d3ae-4486-bcca-4a55469040e4"},"vehicle_type_id":"4","last_reported":1749726575,"current_range_meters":18000,"station_id":"ce4bh0h2rcd13ifvqd40","pricing_plan_id":"cebpf4jnsgd1na2vs0mg"},{"bike_id":"731b80d5-ec73-44aa-b0e9-c0bafa4f7c3c","system_id":"levelo_inurba_marseille","lat":43.28417,"lon":5.34987,"is_reserved":false,"is_disabled":false,"rental_uris":{"android":"levelo://app?vid=731b80d5-ec73-44aa-b0e9-c0bafa4f7c3c","ios":"levelo://app?vid=731b80d5-ec73-44aa-b0e9-c0bafa4f7c3c"},"vehicle_type_id":"4","last_reported":1749726575,"current_range_meters":18000,"station_id":"ce4bhbh2rcd13ifvqepg","pricing_plan_id":"cebpf4jnsgd1na2vs0mg"},{"bike_id":"9e29fb64-b28f-44fd-a0de-d5318cb133d8","system_id":"levelo_inurba_marseille","lat":43.28269,"lon":5.35069,"is_reserved":false,"is_disabled":false,"rental_uris":{"android":"levelo://app?vid=9e29fb64-b28f-44fd-a0de-d5318cb133d8","ios":"levelo://app?vid=9e29fb64-b28f-44fd-a0de-d5318cb133d8"},"vehicle_type_id":"4","last_reported":1749726575,"current_range_meters":18000,"station_id":"ce4bhbp2rcd13ifvqerg","pricing_plan_id":"cebpf4jnsgd1na2vs0mg"},{"bike_id":"838cd2a1-ff9b-4c6c-a689-050d2ba547a8","system_id":"levelo_inurba_marseille","lat":43.253829,"lon":5.376225,"is_reserved":false,"is_disabled":false,"rental_uris":{"android":"levelo://app?vid=838cd2a1-ff9b-4c6c-a689-050d2ba547a8","ios":"levelo://app?vid=838cd2a1-ff9b-4c6c-a689-050d2ba547a8"},"vehicle_type_id":"4","last_reported":1749726575,"current_range_meters":18000,"station_id":"ce4bhnp2rcd13ifvqgvg","pricing_plan_id":"cebpf4jnsgd1na2vs0mg"},{"bike_id":"6eac2101-bb0c-4a5f-9265-48a883b25661","system_id":"levelo_inurba_marseille","lat":43.26807,"lon":5.40256,"is_reserved":false,"is_disabled":false,"rental_uris":{"android":"levelo://app?vid=6eac2101-bb0c-4a5f-9265-48a883b25661","ios":"levelo://app?vid=6eac2101-bb0c-4a5f-9265-48a883b25661"},"vehicle_type_id":"4","last_reported":1749726575,"current_range_meters":18000,"station_id":"ce501612rcd8frsf0b60","pricing_plan_id":"cebpf4jnsgd1na2vs0mg"},{"bike_id":"62c0da7f-aff9-4ffa-86b8-6966d8f0e555","system_id":"levelo_inurba_marseille","lat":43.21201,"lon":5.35062,"is_reserved":false,"is_disabled":false,"rental_uris":{"android":"levelo://app?vid=62c0da7f-aff9-4ffa-86b8-6966d8f0e555","ios":"levelo://app?vid=62c0da7f-aff9-4ffa-86b8-6966d8f0e555"},"vehicle_type_id":"4","last_reported":1749726575,"current_range_meters":18000,"station_id":"st_cvj6sg6p6f1abm77japg","pricing_plan_id":"cebpf4jnsgd1na2vs0mg"},{"bike_id":"600da287-0374-4ee0-bea4-ba6902340b5e","system_id":"levelo_inurba_marseille","lat":43.27454,"lon":5.36016,"is_reserved":false,"is_disabled":false,"rental_uris":{"android":"levelo://app?vid=600da287-0374-4ee0-bea4-ba6902340b5e","ios":"levelo://app?vid=600da287-0374-4ee0-bea4-ba6902340b5e"},"vehicle_type_id":"4","last_reported":1749726575,"current_range_meters":18800,"station_id":"","pricing_plan_id":"cebpf4jnsgd1na2vs0mg"},{"bike_id":"2bae304d-06f7-450f-9c20-63d800e700e2","system_id":"levelo_inurba_marseille","lat":43.31636,"lon":5.38168,"is_reserved":false,"is_disabled":false,"rental_uris":{"android":"levelo://app?vid=2bae304d-06f7-450f-9c20-63d800e700e2","ios":"levelo://app?vid=2bae304d-06f7-450f-9c20-63d800e700e2"},"vehicle_type_id":"4","last_reported":1749726575,"current_range_meters":18800,"station_id":"","pricing_plan_id":"cebpf4jnsgd1na2vs0mg"},{"bike_id":"713f94e3-c67e-4836-bdd5-cfe7bb1b1281","system_id":"levelo_inurba_marseille","lat":43.22505,"lon":5.34782,"is_reserved":false,"is_disabled":false,"rental_uris":{"android":"levelo://app?vid=713f94e3-c67e-4836-bdd5-cfe7bb1b1281","ios":"levelo://app?vid=713f94e3-c67e-4836-bdd5-cfe7bb1b1281"},"vehicle_type_id":"4","last_reported":1749726575,"current_range_meters":18800,"station_id":"","pricing_plan_id":"cebpf4jnsgd1na2vs0mg"},{"bike_id":"6facbc0d-f1b5-4dc3-86d4-5c1204834925","system_id":"levelo_inurba_marseille","lat":43.28044,"lon":5.34816,"is_reserved":false,"is_disabled":false,"rental_uris":{"android":"levelo://app?vid=6facbc0d-f1b5-4dc3-86d4-5c1204834925","ios":"levelo://app?vid=6facbc0d-f1b5-4dc3-86d4-5c1204834925"},"vehicle_type_id":"4","last_reported":1749726575,"current_range_meters":18800,"station_id":"","pricing_plan_id":"cebpf4jnsgd1na2vs0mg"},{"bike_id":"cf2c9e61-4698-4859-8b55-a3ce10dc928a","system_id":"levelo_inurba_marseille","lat":43.2926,"lon":5.37614,"is_reserved":false,"is_disabled":false,"rental_uris":{"android":"levelo://app?vid=cf2c9e61-4698-4859-8b55-a3ce10dc928a","ios":"levelo://app?vid=cf2c9e61-4698-4859-8b55-a3ce10dc928a"},"vehicle_type_id":"4","last_reported":1749726575,"current_range_meters":18800,"station_id":"ce4bgi12rcd13ifvqb80","pricing_plan_id":"cebpf4jnsgd1na2vs0mg"},{"bike_id":"b7853579-d231-491b-9b4b-b5a98c5d9193","system_id":"levelo_inurba_marseille","lat":43.29513,"lon":5.37506,"is_reserved":false,"is_disabled":false,"rental_uris":{"android":"levelo://app?vid=b7853579-d231-491b-9b4b-b5a98c5d9193","ios":"levelo://app?vid=b7853579-d231-491b-9b4b-b5a98c5d9193"},"vehicle_type_id":"4","last_reported":1749726575,"current_range_meters":18800,"station_id":"ce4bgkp2rcd13ifvqbmg","pricing_plan_id":"cebpf4jnsgd1na2vs0mg"},{"bike_id":"0f1a965a-6e9d-4653-98f3-12fe99f77f57","system_id":"levelo_inurba_marseille","lat":43.27907,"lon":5.38017,"is_reserved":false,"is_disabled":false,"rental_uris":{"android":"levelo://app?vid=0f1a965a-6e9d-4653-98f3-12fe99f77f57","ios":"levelo://app?vid=0f1a965a-6e9d-4653-98f3-12fe99f77f57"},"vehicle_type_id":"4","last_reported":1749726575,"current_range_meters":18800,"station_id":"ce4bhf92rcd13ifvqf50","pricing_plan_id":"cebpf4jnsgd1na2vs0mg"},{"bike_id":"39d66366-3e40-42da-8083-b684f150e4bf","system_id":"levelo_inurba_marseille","lat":43.26209,"lon":5.37442,"is_reserved":false,"is_disabled":false,"rental_uris":{"android":"levelo://app?vid=39d66366-3e40-42da-8083-b684f150e4bf","ios":"levelo://app?vid=39d66366-3e40-42da-8083-b684f150e4bf"},"vehicle_type_id":"4","last_reported":1749726575,"current_range_meters":18800,"station_id":"ce4bhgp2rcd13ifvqfc0","pricing_plan_id":"cebpf4jnsgd1na2vs0mg"},{"bike_id":"3057921d-9351-4ef7-ac43-aaec417c0c7c","system_id":"levelo_inurba_marseille","lat":43.26216,"lon":5.37442,"is_reserved":false,"is_disabled":false,"rental_uris":{"android":"levelo://app?vid=3057921d-9351-4ef7-ac43-aaec417c0c7c","ios":"levelo://app?vid=3057921d-9351-4ef7-ac43-aaec417c0c7c"},"vehicle_type_id":"4","last_reported":1749726575,"current_range_meters":18800,"station_id":"ce4bhgp2rcd13ifvqfc0","pricing_plan_id":"cebpf4jnsgd1na2vs0mg"},{"bike_id":"ed182354-ae23-44c4-b19b-38194b43b11c","system_id":"levelo_inurba_marseille","lat":43.33036,"lon":5.39035,"is_reserved":false,"is_disabled":false,"rental_uris":{"android":"levelo://app?vid=ed182354-ae23-44c4-b19b-38194b43b11c","ios":"levelo://app?vid=ed182354-ae23-44c4-b19b-38194b43b11c"},"vehicle_type_id":"4","last_reported":1749726575,"current_range_meters":18800,"station_id":"ce4bhr92rcd13ifvqhrg","pricing_plan_id":"cebpf4jnsgd1na2vs0mg"},{"bike_id":"326cc913-bdbc-48c2-9a88-414846f09512","system_id":"levelo_inurba_marseille","lat":43.32364,"lon":5.36757,"is_reserved":false,"is_disabled":false,"rental_uris":{"android":"levelo://app?vid=326cc913-bdbc-48c2-9a88-414846f09512","ios":"levelo://app?vid=326cc913-bdbc-48c2-9a88-414846f09512"},"vehicle_type_id":"4","last_reported":1749726575,"current_range_meters":18800,"station_id":"ce4bhsh2rcd13ifvqi2g","pricing_plan_id":"cebpf4jnsgd1na2vs0mg"},{"bike_id":"eb033ce6-a585-4e6e-b61e-8ddb3c04724d","system_id":"levelo_inurba_marseille","lat":43.286128,"lon":5.351059,"is_reserved":false,"is_disabled":false,"rental_uris":{"android":"levelo://app?vid=eb033ce6-a585-4e6e-b61e-8ddb3c04724d","ios":"levelo://app?vid=eb033ce6-a585-4e6e-b61e-8ddb3c04724d"},"vehicle_type_id":"4","last_reported":1749726575,"current_range_meters":19200,"station_id":"","pricing_plan_id":"cebpf4jnsgd1na2vs0mg"},{"bike_id":"3d243e1c-a883-4bc3-9c15-b8da6e60785b","system_id":"levelo_inurba_marseille","lat":43.268562,"lon":5.428691,"is_reserved":false,"is_disabled":false,"rental_uris":{"android":"levelo://app?vid=3d243e1c-a883-4bc3-9c15-b8da6e60785b","ios":"levelo://app?vid=3d243e1c-a883-4bc3-9c15-b8da6e60785b"},"vehicle_type_id":"4","last_reported":1749726575,"current_range_meters":19200,"station_id":"","pricing_plan_id":"cebpf4jnsgd1na2vs0mg"},{"bike_id":"a2e9d20d-a78e-42e0-b2bf-7985db8e262e","system_id":"levelo_inurba_marseille","lat":43.29841,"lon":5.36257,"is_reserved":false,"is_disabled":false,"rental_uris":{"android":"levelo://app?vid=a2e9d20d-a78e-42e0-b2bf-7985db8e262e","ios":"levelo://app?vid=a2e9d20d-a78e-42e0-b2bf-7985db8e262e"},"vehicle_type_id":"4","last_reported":1749726575,"current_range_meters":19200,"station_id":"ce4bgpp2rcd13ifvqc3g","pricing_plan_id":"cebpf4jnsgd1na2vs0mg"},{"bike_id":"eb2ea40f-0358-457b-a598-2a2961c331f3","system_id":"levelo_inurba_marseille","lat":43.31358,"lon":5.36705,"is_reserved":false,"is_disabled":false,"rental_uris":{"android":"levelo://app?vid=eb2ea40f-0358-457b-a598-2a2961c331f3","ios":"levelo://app?vid=eb2ea40f-0358-457b-a598-2a2961c331f3"},"vehicle_type_id":"4","last_reported":1749726575,"current_range_meters":19200,"station_id":"ce4bgr92rcd13ifvqc6g","pricing_plan_id":"cebpf4jnsgd1na2vs0mg"},{"bike_id":"44b360f6-bded-45c0-8de1-d544a28a3495","system_id":"levelo_inurba_marseille","lat":43.29012,"lon":5.35622,"is_reserved":false,"is_disabled":false,"rental_uris":{"android":"levelo://app?vid=44b360f6-bded-45c0-8de1-d544a28a3495","ios":"levelo://app?vid=44b360f6-bded-45c0-8de1-d544a28a3495"},"vehicle_type_id":"4","last_reported":1749726575,"current_range_meters":19200,"station_id":"ce4bhb92rcd13ifvqen0","pricing_plan_id":"cebpf4jnsgd1na2vs0mg"},{"bike_id":"6a7a9967-c022-4c83-8d40-96f5cd35bbb0","system_id":"levelo_inurba_marseille","lat":43.25866,"lon":5.39895,"is_reserved":false,"is_disabled":false,"rental_uris":{"android":"levelo://app?vid=6a7a9967-c022-4c83-8d40-96f5cd35bbb0","ios":"levelo://app?vid=6a7a9967-c022-4c83-8d40-96f5cd35bbb0"},"vehicle_type_id":"4","last_reported":1749726575,"current_range_meters":19200,"station_id":"ce4bhl92rcd13ifvqghg","pricing_plan_id":"cebpf4jnsgd1na2vs0mg"},{"bike_id":"f4fd707f-494e-4f36-8fca-8e06f7694093","system_id":"levelo_inurba_marseille","lat":43.251187,"lon":5.403183,"is_reserved":false,"is_disabled":false,"rental_uris":{"android":"levelo://app?vid=f4fd707f-494e-4f36-8fca-8e06f7694093","ios":"levelo://app?vid=f4fd707f-494e-4f36-8fca-8e06f7694093"},"vehicle_type_id":"4","last_reported":1749726575,"current_range_meters":19200,"station_id":"ce4bhlh2rcd13ifvqgig","pricing_plan_id":"cebpf4jnsgd1na2vs0mg"},{"bike_id":"09f63c8a-a282-4cbe-8836-96dd728b16fa","system_id":"levelo_inurba_marseille","lat":43.24229,"lon":5.3973,"is_reserved":false,"is_disabled":false,"rental_uris":{"android":"levelo://app?vid=09f63c8a-a282-4cbe-8836-96dd728b16fa","ios":"levelo://app?vid=09f63c8a-a282-4cbe-8836-96dd728b16fa"},"vehicle_type_id":"4","last_reported":1749726575,"current_range_meters":19200,"station_id":"ce4bhn12rcd13ifvqgpg","pricing_plan_id":"cebpf4jnsgd1na2vs0mg"},{"bike_id":"ea037931-a903-4cb8-bea0-380a80d25f5f","system_id":"levelo_inurba_marseille","lat":43.2871,"lon":5.39963,"is_reserved":false,"is_disabled":false,"rental_uris":{"android":"levelo://app?vid=ea037931-a903-4cb8-bea0-380a80d25f5f","ios":"levelo://app?vid=ea037931-a903-4cb8-bea0-380a80d25f5f"},"vehicle_type_id":"4","last_reported":1749726575,"current_range_meters":19200,"station_id":"ce4bho92rcd13ifvqh3g","pricing_plan_id":"cebpf4jnsgd1na2vs0mg"},{"bike_id":"ef8f2924-50e0-41af-91d5-338d180db502","system_id":"levelo_inurba_marseille","lat":43.21774,"lon":5.34603,"is_reserved":false,"is_disabled":false,"rental_uris":{"android":"levelo://app?vid=ef8f2924-50e0-41af-91d5-338d180db502","ios":"levelo://app?vid=ef8f2924-50e0-41af-91d5-338d180db502"},"vehicle_type_id":"4","last_reported":1749726575,"current_range_meters":19200,"station_id":"st_cvj6r9ubvosntc0bgbag","pricing_plan_id":"cebpf4jnsgd1na2vs0mg"},{"bike_id":"075c05ec-b3c9-44c3-b57f-1083abf2ca61","system_id":"levelo_inurba_marseille","lat":43.271193,"lon":5.42621,"is_reserved":false,"is_disabled":false,"rental_uris":{"android":"levelo://app?vid=075c05ec-b3c9-44c3-b57f-1083abf2ca61","ios":"levelo://app?vid=075c05ec-b3c9-44c3-b57f-1083abf2ca61"},"vehicle_type_id":"4","last_reported":1749726575,"current_range_meters":19600,"station_id":"","pricing_plan_id":"cebpf4jnsgd1na2vs0mg"},{"bike_id":"4a5e5322-1ec3-4365-83b9-cece4c20f53c","system_id":"levelo_inurba_marseille","lat":43.29568,"lon":5.36745,"is_reserved":false,"is_disabled":false,"rental_uris":{"android":"levelo://app?vid=4a5e5322-1ec3-4365-83b9-cece4c20f53c","ios":"levelo://app?vid=4a5e5322-1ec3-4365-83b9-cece4c20f53c"},"vehicle_type_id":"4","last_reported":1749726575,"current_range_meters":19600,"station_id":"ce4bgph2rcd13ifvqc2g","pricing_plan_id":"cebpf4jnsgd1na2vs0mg"},{"bike_id":"113d2198-6af0-4bf2-9b8b-31e698083d53","system_id":"levelo_inurba_marseille","lat":43.30521,"lon":5.36537,"is_reserved":false,"is_disabled":false,"rental_uris":{"android":"levelo://app?vid=113d2198-6af0-4bf2-9b8b-31e698083d53","ios":"levelo://app?vid=113d2198-6af0-4bf2-9b8b-31e698083d53"},"vehicle_type_id":"4","last_reported":1749726575,"current_range_meters":19600,"station_id":"ce4bgs12rcd13ifvqcag","pricing_plan_id":"cebpf4jnsgd1na2vs0mg"},{"bike_id":"11effc80-b7ff-4f30-941b-d4e08c57374c","system_id":"levelo_inurba_marseille","lat":43.30651,"lon":5.40087,"is_reserved":false,"is_disabled":false,"rental_uris":{"android":"levelo://app?vid=11effc80-b7ff-4f30-941b-d4e08c57374c","ios":"levelo://app?vid=11effc80-b7ff-4f30-941b-d4e08c57374c"},"vehicle_type_id":"4","last_reported":1749726575,"current_range_meters":19600,"station_id":"ce4bh112rcd13ifvqda0","pricing_plan_id":"cebpf4jnsgd1na2vs0mg"},{"bike_id":"4a1ebb57-de4c-466d-8a5a-f3907adc6246","system_id":"levelo_inurba_marseille","lat":43.279416,"lon":5.410458,"is_reserved":false,"is_disabled":false,"rental_uris":{"android":"levelo://app?vid=4a1ebb57-de4c-466d-8a5a-f3907adc6246","ios":"levelo://app?vid=4a1ebb57-de4c-466d-8a5a-f3907adc6246"},"vehicle_type_id":"4","last_reported":1749726575,"current_range_meters":20000,"station_id":"","pricing_plan_id":"cebpf4jnsgd1na2vs0mg"},{"bike_id":"7d58884c-2414-4e4e-bb28-bcba8f687f64","system_id":"levelo_inurba_marseille","lat":43.28954,"lon":5.36402,"is_reserved":false,"is_disabled":false,"rental_uris":{"android":"levelo://app?vid=7d58884c-2414-4e4e-bb28-bcba8f687f64","ios":"levelo://app?vid=7d58884c-2414-4e4e-bb28-bcba8f687f64"},"vehicle_type_id":"4","last_reported":1749726575,"current_range_meters":20000,"station_id":"ce4bhc92rcd13ifvqetg","pricing_plan_id":"cebpf4jnsgd1na2vs0mg"},{"bike_id":"9d73d24a-f318-4641-ad5c-4d7c6d715740","system_id":"levelo_inurba_marseille","lat":43.23177,"lon":5.39992,"is_reserved":false,"is_disabled":false,"rental_uris":{"android":"levelo://app?vid=9d73d24a-f318-4641-ad5c-4d7c6d715740","ios":"levelo://app?vid=9d73d24a-f318-4641-ad5c-4d7c6d715740"},"vehicle_type_id":"4","last_reported":1749726575,"current_range_meters":20000,"station_id":"ce4bhn12rcd13ifvqgqg","pricing_plan_id":"cebpf4jnsgd1na2vs0mg"},{"bike_id":"39a59e0b-460d-45d1-beeb-d18d2be2599a","system_id":"levelo_inurba_marseille","lat":43.27998,"lon":5.41666,"is_reserved":false,"is_disabled":false,"rental_uris":{"android":"levelo://app?vid=39a59e0b-460d-45d1-beeb-d18d2be2599a","ios":"levelo://app?vid=39a59e0b-460d-45d1-beeb-d18d2be2599a"},"vehicle_type_id":"4","last_reported":1749726575,"current_range_meters":20000,"station_id":"ce4bho12rcd13ifvqh1g","pricing_plan_id":"cebpf4jnsgd1na2vs0mg"},{"bike_id":"b6b585d9-b62f-412d-9e38-046fddca082f","system_id":"levelo_inurba_marseille","lat":43.23193,"lon":5.3555,"is_reserved":false,"is_disabled":false,"rental_uris":{"android":"levelo://app?vid=b6b585d9-b62f-412d-9e38-046fddca082f","ios":"levelo://app?vid=b6b585d9-b62f-412d-9e38-046fddca082f"},"vehicle_type_id":"4","last_reported":1749726575,"current_range_meters":20000,"station_id":"ce4bhu92rcd13ifvqi70","pricing_plan_id":"cebpf4jnsgd1na2vs0mg"},{"bike_id":"ebde0757-a94a-4915-8c86-60ad7ee049c4","system_id":"levelo_inurba_marseille","lat":43.23196,"lon":5.35549,"is_reserved":false,"is_disabled":false,"rental_uris":{"android":"levelo://app?vid=ebde0757-a94a-4915-8c86-60ad7ee049c4","ios":"levelo://app?vid=ebde0757-a94a-4915-8c86-60ad7ee049c4"},"vehicle_type_id":"4","last_reported":1749726575,"current_range_meters":20000,"station_id":"ce4bhu92rcd13ifvqi70","pricing_plan_id":"cebpf4jnsgd1na2vs0mg"},{"bike_id":"2d9eb491-ef60-4c87-8fa5-c0a977f848da","system_id":"levelo_inurba_marseille","lat":43.21196,"lon":5.35076,"is_reserved":false,"is_disabled":false,"rental_uris":{"android":"levelo://app?vid=2d9eb491-ef60-4c87-8fa5-c0a977f848da","ios":"levelo://app?vid=2d9eb491-ef60-4c87-8fa5-c0a977f848da"},"vehicle_type_id":"4","last_reported":1749726575,"current_range_meters":20000,"station_id":"st_cvj6sg6p6f1abm77japg","pricing_plan_id":"cebpf4jnsgd1na2vs0mg"},{"bike_id":"3b2851dc-cdc3-4c74-bb7a-6b50ea5674bc","system_id":"levelo_inurba_marseille","lat":43.31615,"lon":5.38415,"is_reserved":false,"is_disabled":false,"rental_uris":{"android":"levelo://app?vid=3b2851dc-cdc3-4c74-bb7a-6b50ea5674bc","ios":"levelo://app?vid=3b2851dc-cdc3-4c74-bb7a-6b50ea5674bc"},"vehicle_type_id":"4","last_reported":1749726575,"current_range_meters":20400,"station_id":"","pricing_plan_id":"cebpf4jnsgd1na2vs0mg"},{"bike_id":"b43c265d-7588-4410-9780-c2983c3fb3ba","system_id":"levelo_inurba_marseille","lat":43.295236,"lon":5.375024,"is_reserved":false,"is_disabled":false,"rental_uris":{"android":"levelo://app?vid=b43c265d-7588-4410-9780-c2983c3fb3ba","ios":"levelo://app?vid=b43c265d-7588-4410-9780-c2983c3fb3ba"},"vehicle_type_id":"4","last_reported":1749726575,"current_range_meters":20400,"station_id":"ce4bgkp2rcd13ifvqbmg","pricing_plan_id":"cebpf4jnsgd1na2vs0mg"},{"bike_id":"cc8ae66b-bfc2-4516-92ba-35dfb202de51","system_id":"levelo_inurba_marseille","lat":43.29948,"lon":5.36534,"is_reserved":false,"is_disabled":false,"rental_uris":{"android":"levelo://app?vid=cc8ae66b-bfc2-4516-92ba-35dfb202de51","ios":"levelo://app?vid=cc8ae66b-bfc2-4516-92ba-35dfb202de51"},"vehicle_type_id":"4","last_reported":1749726575,"current_range_meters":20400,"station_id":"ce4bgm92rcd13ifvqbr0","pricing_plan_id":"cebpf4jnsgd1na2vs0mg"},{"bike_id":"5608cc7a-0251-4f8f-ab85-b5fd2ed92dd8","system_id":"levelo_inurba_marseille","lat":43.2919,"lon":5.39323,"is_reserved":false,"is_disabled":false,"rental_uris":{"android":"levelo://app?vid=5608cc7a-0251-4f8f-ab85-b5fd2ed92dd8","ios":"levelo://app?vid=5608cc7a-0251-4f8f-ab85-b5fd2ed92dd8"},"vehicle_type_id":"4","last_reported":1749726575,"current_range_meters":20400,"station_id":"ce4bh192rcd13ifvqdd0","pricing_plan_id":"cebpf4jnsgd1na2vs0mg"},{"bike_id":"f72536cf-7870-487b-9acd-a79c696a9b7a","system_id":"levelo_inurba_marseille","lat":43.27578,"lon":5.38412,"is_reserved":false,"is_disabled":false,"rental_uris":{"android":"levelo://app?vid=f72536cf-7870-487b-9acd-a79c696a9b7a","ios":"levelo://app?vid=f72536cf-7870-487b-9acd-a79c696a9b7a"},"vehicle_type_id":"4","last_reported":1749726575,"current_range_meters":20400,"station_id":"ce4bhh92rcd13ifvqfi0","pricing_plan_id":"cebpf4jnsgd1na2vs0mg"},{"bike_id":"6f3b5d2a-ffb8-4fa6-9c85-af89593bb0be","system_id":"levelo_inurba_marseille","lat":43.23153,"lon":5.43714,"is_reserved":false,"is_disabled":false,"rental_uris":{"android":"levelo://app?vid=6f3b5d2a-ffb8-4fa6-9c85-af89593bb0be","ios":"levelo://app?vid=6f3b5d2a-ffb8-4fa6-9c85-af89593bb0be"},"vehicle_type_id":"4","last_reported":1749726575,"current_range_meters":20400,"station_id":"ce4bhmp2rcd13ifvqgog","pricing_plan_id":"cebpf4jnsgd1na2vs0mg"},{"bike_id":"037d7197-b0d0-4879-8a59-ce3cea0b8597","system_id":"levelo_inurba_marseille","lat":43.337444,"lon":5.374475,"is_reserved":false,"is_disabled":false,"rental_uris":{"android":"levelo://app?vid=037d7197-b0d0-4879-8a59-ce3cea0b8597","ios":"levelo://app?vid=037d7197-b0d0-4879-8a59-ce3cea0b8597"},"vehicle_type_id":"4","last_reported":1749726575,"current_range_meters":20800,"station_id":"","pricing_plan_id":"cebpf4jnsgd1na2vs0mg"},{"bike_id":"34a5c3b9-af96-4bd7-b62e-e886766001ac","system_id":"levelo_inurba_marseille","lat":43.304277,"lon":5.397457,"is_reserved":false,"is_disabled":false,"rental_uris":{"android":"levelo://app?vid=34a5c3b9-af96-4bd7-b62e-e886766001ac","ios":"levelo://app?vid=34a5c3b9-af96-4bd7-b62e-e886766001ac"},"vehicle_type_id":"4","last_reported":1749726575,"current_range_meters":20800,"station_id":"ce4bgt92rcd13ifvqcf0","pricing_plan_id":"cebpf4jnsgd1na2vs0mg"},{"bike_id":"3eca1b86-3788-404b-9b00-173468170560","system_id":"levelo_inurba_marseille","lat":43.30095,"lon":5.39077,"is_reserved":false,"is_disabled":false,"rental_uris":{"android":"levelo://app?vid=3eca1b86-3788-404b-9b00-173468170560","ios":"levelo://app?vid=3eca1b86-3788-404b-9b00-173468170560"},"vehicle_type_id":"4","last_reported":1749726575,"current_range_meters":20800,"station_id":"ce4bh192rcd13ifvqdb0","pricing_plan_id":"cebpf4jnsgd1na2vs0mg"},{"bike_id":"90338aae-4a2b-4b77-bdbb-68f62b85f33c","system_id":"levelo_inurba_marseille","lat":43.28617,"lon":5.35102,"is_reserved":false,"is_disabled":false,"rental_uris":{"android":"levelo://app?vid=90338aae-4a2b-4b77-bdbb-68f62b85f33c","ios":"levelo://app?vid=90338aae-4a2b-4b77-bdbb-68f62b85f33c"},"vehicle_type_id":"4","last_reported":1749726575,"current_range_meters":20800,"station_id":"ce4bhch2rcd13ifvqeug","pricing_plan_id":"cebpf4jnsgd1na2vs0mg"},{"bike_id":"d4868a12-f1b8-4ae4-bfd4-4c9e7bc253e7","system_id":"levelo_inurba_marseille","lat":43.25086,"lon":5.39518,"is_reserved":false,"is_disabled":false,"rental_uris":{"android":"levelo://app?vid=d4868a12-f1b8-4ae4-bfd4-4c9e7bc253e7","ios":"levelo://app?vid=d4868a12-f1b8-4ae4-bfd4-4c9e7bc253e7"},"vehicle_type_id":"4","last_reported":1749726575,"current_range_meters":20800,"station_id":"ce4bhm12rcd13ifvqgkg","pricing_plan_id":"cebpf4jnsgd1na2vs0mg"},{"bike_id":"0212830b-02ba-440e-9e34-2702c55999a1","system_id":"levelo_inurba_marseille","lat":43.28465,"lon":5.38039,"is_reserved":false,"is_disabled":false,"rental_uris":{"android":"levelo://app?vid=0212830b-02ba-440e-9e34-2702c55999a1","ios":"levelo://app?vid=0212830b-02ba-440e-9e34-2702c55999a1"},"vehicle_type_id":"4","last_reported":1749726575,"current_range_meters":21600,"station_id":"","pricing_plan_id":"cebpf4jnsgd1na2vs0mg"},{"bike_id":"81fdf6c1-d3fa-4c39-9f7e-d07a03b6645e","system_id":"levelo_inurba_marseille","lat":43.29788,"lon":5.38082,"is_reserved":false,"is_disabled":false,"rental_uris":{"android":"levelo://app?vid=81fdf6c1-d3fa-4c39-9f7e-d07a03b6645e","ios":"levelo://app?vid=81fdf6c1-d3fa-4c39-9f7e-d07a03b6645e"},"vehicle_type_id":"4","last_reported":1749726575,"current_range_meters":21600,"station_id":"ce4bgip2rcd13ifvqbb0","pricing_plan_id":"cebpf4jnsgd1na2vs0mg"},{"bike_id":"3924b6b1-1577-4f33-97d9-fe4a220c1646","system_id":"levelo_inurba_marseille","lat":43.29265,"lon":5.38433,"is_reserved":false,"is_disabled":false,"rental_uris":{"android":"levelo://app?vid=3924b6b1-1577-4f33-97d9-fe4a220c1646","ios":"levelo://app?vid=3924b6b1-1577-4f33-97d9-fe4a220c1646"},"vehicle_type_id":"4","last_reported":1749726575,"current_range_meters":21600,"station_id":"ce4bh692rcd13ifvqea0","pricing_plan_id":"cebpf4jnsgd1na2vs0mg"},{"bike_id":"e70969c1-721b-41bb-a0a0-389bb00f07d3","system_id":"levelo_inurba_marseille","lat":43.28422,"lon":5.34987,"is_reserved":false,"is_disabled":false,"rental_uris":{"android":"levelo://app?vid=e70969c1-721b-41bb-a0a0-389bb00f07d3","ios":"levelo://app?vid=e70969c1-721b-41bb-a0a0-389bb00f07d3"},"vehicle_type_id":"4","last_reported":1749726575,"current_range_meters":21600,"station_id":"ce4bhbh2rcd13ifvqepg","pricing_plan_id":"cebpf4jnsgd1na2vs0mg"},{"bike_id":"ca77c680-6ecf-40b0-9d08-85310832afdb","system_id":"levelo_inurba_marseille","lat":43.33022,"lon":5.39041,"is_reserved":false,"is_disabled":false,"rental_uris":{"android":"levelo://app?vid=ca77c680-6ecf-40b0-9d08-85310832afdb","ios":"levelo://app?vid=ca77c680-6ecf-40b0-9d08-85310832afdb"},"vehicle_type_id":"4","last_reported":1749726575,"current_range_meters":21600,"station_id":"ce4bhr92rcd13ifvqhrg","pricing_plan_id":"cebpf4jnsgd1na2vs0mg"},{"bike_id":"a172b0cf-62c4-4c52-a818-ce564350df02","system_id":"levelo_inurba_marseille","lat":43.21198,"lon":5.35071,"is_reserved":false,"is_disabled":false,"rental_uris":{"android":"levelo://app?vid=a172b0cf-62c4-4c52-a818-ce564350df02","ios":"levelo://app?vid=a172b0cf-62c4-4c52-a818-ce564350df02"},"vehicle_type_id":"4","last_reported":1749726575,"current_range_meters":21600,"station_id":"st_cvj6sg6p6f1abm77japg","pricing_plan_id":"cebpf4jnsgd1na2vs0mg"},{"bike_id":"ba39af3b-814c-4482-83a9-1c502dd94552","system_id":"levelo_inurba_marseille","lat":43.31779,"lon":5.37445,"is_reserved":false,"is_disabled":false,"rental_uris":{"android":"levelo://app?vid=ba39af3b-814c-4482-83a9-1c502dd94552","ios":"levelo://app?vid=ba39af3b-814c-4482-83a9-1c502dd94552"},"vehicle_type_id":"4","last_reported":1749726575,"current_range_meters":22000,"station_id":"","pricing_plan_id":"cebpf4jnsgd1na2vs0mg"},{"bike_id":"586108a5-1879-4f6a-bb74-52c67d635e09","system_id":"levelo_inurba_marseille","lat":43.30127,"lon":5.38788,"is_reserved":false,"is_disabled":false,"rental_uris":{"android":"levelo://app?vid=586108a5-1879-4f6a-bb74-52c67d635e09","ios":"levelo://app?vid=586108a5-1879-4f6a-bb74-52c67d635e09"},"vehicle_type_id":"4","last_reported":1749726575,"current_range_meters":22000,"station_id":"ce4bghh2rcd13ifvqb60","pricing_plan_id":"cebpf4jnsgd1na2vs0mg"},{"bike_id":"72dea20e-10ac-4a59-bc30-23b3f4550495","system_id":"levelo_inurba_marseille","lat":43.30441,"lon":5.39754,"is_reserved":false,"is_disabled":false,"rental_uris":{"android":"levelo://app?vid=72dea20e-10ac-4a59-bc30-23b3f4550495","ios":"levelo://app?vid=72dea20e-10ac-4a59-bc30-23b3f4550495"},"vehicle_type_id":"4","last_reported":1749726575,"current_range_meters":22000,"station_id":"ce4bh092rcd13ifvqd20","pricing_plan_id":"cebpf4jnsgd1na2vs0mg"},{"bike_id":"0ffd1bbe-65d0-4686-9a5d-d02961568a05","system_id":"levelo_inurba_marseille","lat":43.29266,"lon":5.38443,"is_reserved":false,"is_disabled":false,"rental_uris":{"android":"levelo://app?vid=0ffd1bbe-65d0-4686-9a5d-d02961568a05","ios":"levelo://app?vid=0ffd1bbe-65d0-4686-9a5d-d02961568a05"},"vehicle_type_id":"4","last_reported":1749726575,"current_range_meters":22000,"station_id":"ce4bh692rcd13ifvqea0","pricing_plan_id":"cebpf4jnsgd1na2vs0mg"},{"bike_id":"0b08fc18-39d8-4d39-9120-99d3c4814649","system_id":"levelo_inurba_marseille","lat":43.2784,"lon":5.39207,"is_reserved":false,"is_disabled":false,"rental_uris":{"android":"levelo://app?vid=0b08fc18-39d8-4d39-9120-99d3c4814649","ios":"levelo://app?vid=0b08fc18-39d8-4d39-9120-99d3c4814649"},"vehicle_type_id":"4","last_reported":1749726575,"current_range_meters":22000,"station_id":"ce4bhjp2rcd13ifvqga0","pricing_plan_id":"cebpf4jnsgd1na2vs0mg"},{"bike_id":"5188f27d-71ef-472a-8cda-54673ff19d22","system_id":"levelo_inurba_marseille","lat":43.25111,"lon":5.40322,"is_reserved":false,"is_disabled":false,"rental_uris":{"android":"levelo://app?vid=5188f27d-71ef-472a-8cda-54673ff19d22","ios":"levelo://app?vid=5188f27d-71ef-472a-8cda-54673ff19d22"},"vehicle_type_id":"4","last_reported":1749726575,"current_range_meters":22000,"station_id":"ce4bhlh2rcd13ifvqgig","pricing_plan_id":"cebpf4jnsgd1na2vs0mg"},{"bike_id":"8b1c466d-b1d9-4d38-8f2a-fdf5c02301ca","system_id":"levelo_inurba_marseille","lat":43.25937,"lon":5.40915,"is_reserved":false,"is_disabled":false,"rental_uris":{"android":"levelo://app?vid=8b1c466d-b1d9-4d38-8f2a-fdf5c02301ca","ios":"levelo://app?vid=8b1c466d-b1d9-4d38-8f2a-fdf5c02301ca"},"vehicle_type_id":"4","last_reported":1749726575,"current_range_meters":22000,"station_id":"ce4bhm92rcd13ifvqglg","pricing_plan_id":"cebpf4jnsgd1na2vs0mg"},{"bike_id":"abd0d78f-a5d4-4339-93f7-6b3fc51d77c5","system_id":"levelo_inurba_marseille","lat":43.363829,"lon":5.351013,"is_reserved":false,"is_disabled":false,"rental_uris":{"android":"levelo://app?vid=abd0d78f-a5d4-4339-93f7-6b3fc51d77c5","ios":"levelo://app?vid=abd0d78f-a5d4-4339-93f7-6b3fc51d77c5"},"vehicle_type_id":"4","last_reported":1749726575,"current_range_meters":22400,"station_id":"","pricing_plan_id":"cebpf4jnsgd1na2vs0mg"},{"bike_id":"00733ea5-7810-4d90-bd98-16678bd7add5","system_id":"levelo_inurba_marseille","lat":43.29369,"lon":5.37851,"is_reserved":false,"is_disabled":false,"rental_uris":{"android":"levelo://app?vid=00733ea5-7810-4d90-bd98-16678bd7add5","ios":"levelo://app?vid=00733ea5-7810-4d90-bd98-16678bd7add5"},"vehicle_type_id":"4","last_reported":1749726575,"current_range_meters":22400,"station_id":"ce4bgjh2rcd13ifvqbf0","pricing_plan_id":"cebpf4jnsgd1na2vs0mg"},