{"last_updated":1758892828,"ttl":60,"version":"2.2","data":{"bikes":[{"bike_id":"dd07e0ee-cc53-43cf-a97e-9a58dbd464fb","system_id":"levelo_inurba_marseille","lat":43.29957,"lon":5.36562,"is_reserved":false,"is_disabled":false,"rental_uris":{"android":"levelo://app?vid=dd07e0ee-cc53-43cf-a97e-9a58dbd464fb","ios":"levelo://app?vid=dd07e0ee-cc53-43cf-a97e-9a58dbd464fb"},"vehicle_type_id":"4","last_reported":1758892828,"current_range_meters":2800,"station_id":"ce4bgm92rcd13ifvqbr0","pricing_plan_id":"cebpf4jnsgd1na2vs0mg"},{"bike_id":"0c8e7c8f-af0d-46a4-ab1d-f4d437f03358","system_id":"levelo_inurba_marseille","lat":43.24953,"lon":5.40507,"is_reserved":false,"is_disabled":false,"rental_uris":{"android":"levelo://app?vid=0c8e7c8f-af0d-46a4-ab1d-f4d437f03358","ios":"levelo://app?vid=0c8e7c8f-af0d-46a4-ab1d-f4d437f03358"},"vehicle_type_id":"4","last_reported":1758892828,"current_range_meters":2800,"station_id":"st_d2ngiaodas8pm72gd1h0","pricing_plan_id":"cebpf4jnsgd1na2vs0mg"},{"bike_id":"e89927f5-80c8-4d6c-9998-7ccfb80555b7","system_id":"levelo_inurba_marseille","lat":43.29866,"lon":5.39733,"is_reserved":false,"is_disabled":false,"rental_uris":{"android":"levelo://app?vid=e89927f5-80c8-4d6c-9998-7ccfb80555b7","ios":"levelo://app?vid=e89927f5-80c8-4d6c-9998-7ccfb80555b7"},"vehicle_type_id":"4","last_reported":1758892828,"current_range_meters":2800,"station_id":"ce4bh0h2rcd13ifvqd50","pricing_plan_id":"cebpf4jnsgd1na2vs0mg"},{"bike_id":"08ff2d90-a6fd-406e-a37d-c2c578368e74","system_id":"levelo_inurba_marseille","lat":43.26574,"lon":5.37321,"is_reserved":false,"is_disabled":false,"rental_uris":{"android":"levelo://app?vid=08ff2d90-a6fd-406e-a37d-c2c578368e74","ios":"levelo://app?vid=08ff2d90-a6fd-406e-a37d-c2c578368e74"},"vehicle_type_id":"4","last_reported":1758892828,"current_range_meters":3200,"station_id":"ce4bhg12rcd13ifvqf70","pricing_plan_id":"cebpf4jnsgd1na2vs0mg"},{"bike_id":"5ed383bd-9fff-48d2-910e-a12760085b5a","system_id":"levelo_inurba_marseille","lat":43.22943,"lon":5.35357,"is_reserved":false,"is_disabled":false,"rental_uris":{"android":"levelo://app?vid=5ed383bd-9fff-48d2-910e-a12760085b5a","ios":"levelo://app?vid=5ed383bd-9fff-48d2-910e-a12760085b5a"},"vehicle_type_id":"4","last_reported":1758892828,"current_range_meters":3200,"station_id":"cpo3532slgdg3j2ikp40","pricing_plan_id":"cebpf4jnsgd1na2vs0mg"},{"bike_id":"565a0112-5b88-4a6f-8df7-08b703407b4f","system_id":"levelo_inurba_marseille","lat":43.21188,"lon":5.35084,"is_reserved":false,"is_disabled":false,"rental_uris":{"android":"levelo://app?vid=565a0112-5b88-4a6f-8df7-08b703407b4f","ios":"levelo://app?vid=565a0112-5b88-4a6f-8df7-08b703407b4f"},"vehicle_type_id":"4","last_reported":1758892828,"current_range_meters":3200,"station_id":"","pricing_plan_id":"cebpf4jnsgd1na2vs0mg"},{"bike_id":"d5df9c51-baa7-4ced-aa22-810c0c1921af","system_id":"levelo_inurba_marseille","lat":43.27218,"lon":5.39178,"is_reserved":false,"is_disabled":false,"rental_uris":{"android":"levelo://app?vid=d5df9c51-baa7-4ced-aa22-810c0c1921af","ios":"levelo://app?vid=d5df9c51-baa7-4ced-aa22-810c0c1921af"},"vehicle_type_id":"4","last_reported":1758892828,"current_range_meters":3200,"station_id":"ce4bhhp2rcd13ifvqfm0","pricing_plan_id":"cebpf4jnsgd1na2vs0mg"},{"bike_id":"09c498dc-3058-400d-8e53-132c4b58eab0","system_id":"levelo_inurba_marseille","lat":43.270718,"lon":5.422825,"is_reserved":false,"is_disabled":false,"rental_uris":{"android":"levelo://app?vid=09c498dc-3058-400d-8e53-132c4b58eab0","ios":"levelo://app?vid=09c498dc-3058-400d-8e53-132c4b58eab0"},"vehicle_type_id":"4","last_reported":1758892828,"current_range_meters":3200,"station_id":"ce4bhk92rcd13ifvqgb0","pricing_plan_id":"cebpf4jnsgd1na2vs0mg"},{"bike_id":"6f359fc9-a8c2-4404-a3f6-4d7e619273b8","system_id":"levelo_inurba_marseille","lat":43.29014,"lon":5.38631,"is_reserved":false,"is_disabled":false,"rental_uris":{"android":"levelo://app?vid=6f359fc9-a8c2-4404-a3f6-4d7e619273b8","ios":"levelo://app?vid=6f359fc9-a8c2-4404-a3f6-4d7e619273b8"},"vehicle_type_id":"4","last_reported":1758892828,"current_range_meters":3600,"station_id":"ce4bh4p2rcd13ifvqe0g","pricing_plan_id":"cebpf4jnsgd1na2vs0mg"},{"bike_id":"35f43f0a-913e-4df8-8896-48a5e777ad40","system_id":"levelo_inurba_marseille","lat":43.30549,"lon":5.36538,"is_reserved":false,"is_disabled":false,"rental_uris":{"android":"levelo://app?vid=35f43f0a-913e-4df8-8896-48a5e777ad40","ios":"levelo://app?vid=35f43f0a-913e-4df8-8896-48a5e777ad40"},"vehicle_type_id":"4","last_reported":1758892828,"current_range_meters":3600,"station_id":"ce4bgs12rcd13ifvqcag","pricing_plan_id":"cebpf4jnsgd1na2vs0mg"},{"bike_id":"b06613d2-22f7-4ef1-b18e-2397b76837e1","system_id":"levelo_inurba_marseille","lat":43.305054,"lon":5.380705,"is_reserved":false,"is_disabled":false,"rental_uris":{"android":"levelo://app?vid=b06613d2-22f7-4ef1-b18e-2397b76837e1","ios":"levelo://app?vid=b06613d2-22f7-4ef1-b18e-2397b76837e1"},"vehicle_type_id":"4","last_reported":1758892828,"current_range_meters":3600,"station_id":"","pricing_plan_id":"cebpf4jnsgd1na2vs0mg"},{"bike_id":"2dcf266d-a037-4bb3-8ab9-c8fba2e5da78","system_id":"levelo_inurba_marseille","lat":43.31279,"lon":5.40173,"is_reserved":false,"is_disabled":false,"rental_uris":{"android":"levelo://app?vid=2dcf266d-a037-4bb3-8ab9-c8fba2e5da78","ios":"levelo://app?vid=2dcf266d-a037-4bb3-8ab9-c8fba2e5da78"},"vehicle_type_id":"4","last_reported":1758892828,"current_range_meters":3600,"station_id":"ce4bh092rcd13ifvqd30","pricing_plan_id":"cebpf4jnsgd1na2vs0mg"},{"bike_id":"438ead59-de14-4fa0-a61d-03a70a4122ae","system_id":"levelo_inurba_marseille","lat":43.97269,"lon":4.89111,"is_reserved":false,"is_disabled":true,"rental_uris":{"android":"levelo://app?vid=438ead59-de14-4fa0-a61d-03a70a4122ae","ios":"levelo://app?vid=438ead59-de14-4fa0-a61d-03a70a4122ae"},"vehicle_type_id":"4","last_reported":1758892828,"current_range_meters":3600,"station_id":"","pricing_plan_id":"cebpf4jnsgd1na2vs0mg"},{"bike_id":"c611a347-4cdc-48e5-afbd-740370356458","system_id":"levelo_inurba_marseille","lat":43.2407,"lon":5.37762,"is_reserved":false,"is_disabled":false,"rental_uris":{"android":"levelo://app?vid=c611a347-4cdc-48e5-afbd-740370356458","ios":"levelo://app?vid=c611a347-4cdc-48e5-afbd-740370356458"},"vehicle_type_id":"4","last_reported":1758892828,"current_range_meters":4000,"station_id":"ce4bhnp2rcd13ifvqgvg","pricing_plan_id":"cebpf4jnsgd1na2vs0mg"},{"bike_id":"3ed9ab93-3438-4c59-97da-29972b2f2b6f","system_id":"levelo_inurba_marseille","lat":43.31279,"lon":5.40172,"is_reserved":false,"is_disabled":false,"rental_uris":{"android":"levelo://app?vid=3ed9ab93-3438-4c59-97da-29972b2f2b6f","ios":"levelo://app?vid=3ed9ab93-3438-4c59-97da-29972b2f2b6f"},"vehicle_type_id":"4","last_reported":1758892828,"current_range_meters":4000,"station_id":"ce4bh092rcd13ifvqd30","pricing_plan_id":"cebpf4jnsgd1na2vs0mg"},{"bike_id":"0c81b40b-1c40-4984-9001-de11236803c2","system_id":"levelo_inurba_marseille","lat":43.25086,"lon":5.39498,"is_reserved":false,"is_disabled":false,"rental_uris":{"android":"levelo://app?vid=0c81b40b-1c40-4984-9001-de11236803c2","ios":"levelo://app?vid=0c81b40b-1c40-4984-9001-de11236803c2"},"vehicle_type_id":"4","last_reported":1758892828,"current_range_meters":4400,"station_id":"ce4bhm12rcd13ifvqgkg","pricing_plan_id":"cebpf4jnsgd1na2vs0mg"},{"bike_id":"76d93da8-398c-4d0b-84a3-c9bad6d6bd7b","system_id":"levelo_inurba_marseille","lat":43.24803,"lon":5.37452,"is_reserved":false,"is_disabled":false,"rental_uris":{"android":"levelo://app?vid=76d93da8-398c-4d0b-84a3-c9bad6d6bd7b","ios":"levelo://app?vid=76d93da8-398c-4d0b-84a3-c9bad6d6bd7b"},"vehicle_type_id":"4","last_reported":1758892828,"current_range_meters":4800,"station_id":"ce4bhgh2rcd13ifvqfb0","pricing_plan_id":"cebpf4jnsgd1na2vs0mg"},{"bike_id":"c471e286-b633-4bb3-8c50-2458af876450","system_id":"levelo_inurba_marseille","lat":43.2396,"lon":5.36632,"is_reserved":false,"is_disabled":false,"rental_uris":{"android":"levelo://app?vid=c471e286-b633-4bb3-8c50-2458af876450","ios":"levelo://app?vid=c471e286-b633-4bb3-8c50-2458af876450"},"vehicle_type_id":"4","last_reported":1758892828,"current_range_meters":4800,"station_id":"ce4bhi12rcd13ifvqfp0","pricing_plan_id":"cebpf4jnsgd1na2vs0mg"},{"bike_id":"ff162fe5-a935-4de7-a4bb-eeadac2884d7","system_id":"levelo_inurba_marseille","lat":43.282776,"lon":5.350532,"is_reserved":false,"is_disabled":false,"rental_uris":{"android":"levelo://app?vid=ff162fe5-a935-4de7-a4bb-eeadac2884d7","ios":"levelo://app?vid=ff162fe5-a935-4de7-a4bb-eeadac2884d7"},"vehicle_type_id":"4","last_reported":1758892828,"current_range_meters":4800,"station_id":"ce4bhbp2rcd13ifvqerg","pricing_plan_id":"cebpf4jnsgd1na2vs0mg"},{"bike_id":"1b2ddce9-f0ec-4cd6-bb66-f351e8a462cb","system_id":"levelo_inurba_marseille","lat":43.27491,"lon":5.42463,"is_reserved":false,"is_disabled":false,"rental_uris":{"android":"levelo://app?vid=1b2ddce9-f0ec-4cd6-bb66-f351e8a462cb","ios":"levelo://app?vid=1b2ddce9-f0ec-4cd6-bb66-f351e8a462cb"},"vehicle_type_id":"4","last_reported":1758892828,"current_range_meters":4800,"station_id":"ce4bhn92rcd13ifvqgrg","pricing_plan_id":"cebpf4jnsgd1na2vs0mg"},{"bike_id":"22aba0d8-1728-4048-b814-4e6c03eb48cd","system_id":"levelo_inurba_marseille","lat":43.28972,"lon":5.37838,"is_reserved":false,"is_disabled":false,"rental_uris":{"android":"levelo://app?vid=22aba0d8-1728-4048-b814-4e6c03eb48cd","ios":"levelo://app?vid=22aba0d8-1728-4048-b814-4e6c03eb48cd"},"vehicle_type_id":"4","last_reported":1758892828,"current_range_meters":5600,"station_id":"ce4bh9p2rcd13ifvqed0","pricing_plan_id":"cebpf4jnsgd1na2vs0mg"},{"bike_id":"aef011f5-8b93-403a-ae54-feedb4cabd28","system_id":"levelo_inurba_marseille","lat":43.30597,"lon":5.37225,"is_reserved":false,"is_disabled":true,"rental_uris":{"android":"levelo://app?vid=aef011f5-8b93-403a-ae54-feedb4cabd28","ios":"levelo://app?vid=aef011f5-8b93-403a-ae54-feedb4cabd28"},"vehicle_type_id":"4","last_reported":1758892828,"current_range_meters":5600,"station_id":"ce4bgqh2rcd13ifvqc4g","pricing_plan_id":"cebpf4jnsgd1na2vs0mg"},{"bike_id":"b0e65e99-3bb0-47ea-ac88-d8ae408a9133","system_id":"levelo_inurba_marseille","lat":43.27942,"lon":5.41034,"is_reserved":false,"is_disabled":false,"rental_uris":{"android":"levelo://app?vid=b0e65e99-3bb0-47ea-ac88-d8ae408a9133","ios":"levelo://app?vid=b0e65e99-3bb0-47ea-ac88-d8ae408a9133"},"vehicle_type_id":"4","last_reported":1758892828,"current_range_meters":5600,"station_id":"ce4bhnp2rcd13ifvqh0g","pricing_plan_id":"cebpf4jnsgd1na2vs0mg"},{"bike_id":"afb5f42c-bc92-4753-b8b5-463a6aed8244","system_id":"levelo_inurba_marseille","lat":43.29867,"lon":5.39727,"is_reserved":false,"is_disabled":false,"rental_uris":{"android":"levelo://app?vid=afb5f42c-bc92-4753-b8b5-463a6aed8244","ios":"levelo://app?vid=afb5f42c-bc92-4753-b8b5-463a6aed8244"},"vehicle_type_id":"4","last_reported":1758892828,"current_range_meters":5600,"station_id":"ce4bh0h2rcd13ifvqd50","pricing_plan_id":"cebpf4jnsgd1na2vs0mg"},{"bike_id":"080df55d-10bd-4355-9fb3-15a7f519c1e2","system_id":"levelo_inurba_marseille","lat":43.337444,"lon":5.374475,"is_reserved":false,"is_disabled":false,"rental_uris":{"android":"levelo://app?vid=080df55d-10bd-4355-9fb3-15a7f519c1e2","ios":"levelo://app?vid=080df55d-10bd-4355-9fb3-15a7f519c1e2"},"vehicle_type_id":"4","last_reported":1758892828,"current_range_meters":6000,"station_id":"","pricing_plan_id":"cebpf4jnsgd1na2vs0mg"},{"bike_id":"a92851e1-747a-40c6-896e-7a55b3a5a28d","system_id":"levelo_inurba_marseille","lat":43.307984,"lon":5.381528,"is_reserved":false,"is_disabled":false,"rental_uris":{"android":"levelo://app?vid=a92851e1-747a-40c6-896e-7a55b3a5a28d","ios":"levelo://app?vid=a92851e1-747a-40c6-896e-7a55b3a5a28d"},"vehicle_type_id":"4","last_reported":1758892828,"current_range_meters":6000,"station_id":"ce4bgt12rcd13ifvqce0","pricing_plan_id":"cebpf4jnsgd1na2vs0mg"},{"bike_id":"78864357-979a-4371-a9ef-728c8a2f7fe1","system_id":"levelo_inurba_marseille","lat":43.304226,"lon":5.38885,"is_reserved":false,"is_disabled":false,"rental_uris":{"android":"levelo://app?vid=78864357-979a-4371-a9ef-728c8a2f7fe1","ios":"levelo://app?vid=78864357-979a-4371-a9ef-728c8a2f7fe1"},"vehicle_type_id":"4","last_reported":1758892828,"current_range_meters":5600,"station_id":"ce4bgk12rcd13ifvqbi0","pricing_plan_id":"cebpf4jnsgd1na2vs0mg"},{"bike_id":"143fcc4c-713e-4da1-bd5c-ee89bd19db11","system_id":"levelo_inurba_marseille","lat":43.28265,"lon":5.35057,"is_reserved":false,"is_disabled":false,"rental_uris":{"android":"levelo://app?vid=143fcc4c-713e-4da1-bd5c-ee89bd19db11","ios":"levelo://app?vid=143fcc4c-713e-4da1-bd5c-ee89bd19db11"},"vehicle_type_id":"4","last_reported":1758892828,"current_range_meters":6000,"station_id":"ce4bhbp2rcd13ifvqerg","pricing_plan_id":"cebpf4jnsgd1na2vs0mg"},{"bike_id":"93f5b1ac-6888-4646-8274-239ba1b2e0b3","system_id":"levelo_inurba_marseille","lat":43.27623,"lon":5.36121,"is_reserved":false,"is_disabled":false,"rental_uris":{"android":"levelo://app?vid=93f5b1ac-6888-4646-8274-239ba1b2e0b3","ios":"levelo://app?vid=93f5b1ac-6888-4646-8274-239ba1b2e0b3"},"vehicle_type_id":"4","last_reported":1758892828,"current_range_meters":6400,"station_id":"ce4bgj92rcd13ifvqbe0","pricing_plan_id":"cebpf4jnsgd1na2vs0mg"},{"bike_id":"d006d835-7b9d-41cf-8a84-f44f3e37e16e","system_id":"levelo_inurba_marseille","lat":43.28274,"lon":5.35056,"is_reserved":false,"is_disabled":false,"rental_uris":{"android":"levelo://app?vid=d006d835-7b9d-41cf-8a84-f44f3e37e16e","ios":"levelo://app?vid=d006d835-7b9d-41cf-8a84-f44f3e37e16e"},"vehicle_type_id":"4","last_reported":1758892828,"current_range_meters":6400,"station_id":"ce4bhbp2rcd13ifvqerg","pricing_plan_id":"cebpf4jnsgd1na2vs0mg"},{"bike_id":"caa51b3e-8430-42e2-9087-718772373b47","system_id":"levelo_inurba_marseille","lat":43.29451,"lon":5.38145,"is_reserved":false,"is_disabled":false,"rental_uris":{"android":"levelo://app?vid=caa51b3e-8430-42e2-9087-718772373b47","ios":"levelo://app?vid=caa51b3e-8430-42e2-9087-718772373b47"},"vehicle_type_id":"4","last_reported":1758892828,"current_range_meters":6800,"station_id":"","pricing_plan_id":"cebpf4jnsgd1na2vs0mg"},{"bike_id":"de36a9c2-4a27-4dd3-a88f-875c1e234e70","system_id":"levelo_inurba_marseille","lat":43.2511,"lon":5.40321,"is_reserved":false,"is_disabled":false,"rental_uris":{"android":"levelo://app?vid=de36a9c2-4a27-4dd3-a88f-875c1e234e70","ios":"levelo://app?vid=de36a9c2-4a27-4dd3-a88f-875c1e234e70"},"vehicle_type_id":"4","last_reported":1758892828,"current_range_meters":6800,"station_id":"ce4bhlh2rcd13ifvqgig","pricing_plan_id":"cebpf4jnsgd1na2vs0mg"},{"bike_id":"ea9ff917-5957-46d9-b18d-35450f02503d","system_id":"levelo_inurba_marseille","lat":43.299773,"lon":5.371861,"is_reserved":false,"is_disabled":false,"rental_uris":{"android":"levelo://app?vid=ea9ff917-5957-46d9-b18d-35450f02503d","ios":"levelo://app?vid=ea9ff917-5957-46d9-b18d-35450f02503d"},"vehicle_type_id":"4","last_reported":1758892828,"current_range_meters":6800,"station_id":"ce4bgr92rcd13ifvqc7g","pricing_plan_id":"cebpf4jnsgd1na2vs0mg"},{"bike_id":"cc137555-ffe1-4e85-b39e-ffa7d37c1fa0","system_id":"levelo_inurba_marseille","lat":43.30928,"lon":5.40141,"is_reserved":false,"is_disabled":false,"rental_uris":{"android":"levelo://app?vid=cc137555-ffe1-4e85-b39e-ffa7d37c1fa0","ios":"levelo://app?vid=cc137555-ffe1-4e85-b39e-ffa7d37c1fa0"},"vehicle_type_id":"4","last_reported":1758892828,"current_range_meters":3600,"station_id":"ce4bgvp2rcd13ifvqct0","pricing_plan_id":"cebpf4jnsgd1na2vs0mg"},{"bike_id":"2e182951-8b10-4026-b924-3b67584f196b","system_id":"levelo_inurba_marseille","lat":43.30388,"lon":5.42488,"is_reserved":false,"is_disabled":false,"rental_uris":{"android":"levelo://app?vid=2e182951-8b10-4026-b924-3b67584f196b","ios":"levelo://app?vid=2e182951-8b10-4026-b924-3b67584f196b"},"vehicle_type_id":"4","last_reported":1758892828,"current_range_meters":6800,"station_id":"ce4bhoh2rcd13ifvqh6g","pricing_plan_id":"cebpf4jnsgd1na2vs0mg"},{"bike_id":"64b6bbe3-afe7-422a-b093-72c58591ac3b","system_id":"levelo_inurba_marseille","lat":43.30314,"lon":5.36899,"is_reserved":false,"is_disabled":false,"rental_uris":{"android":"levelo://app?vid=64b6bbe3-afe7-422a-b093-72c58591ac3b","ios":"levelo://app?vid=64b6bbe3-afe7-422a-b093-72c58591ac3b"},"vehicle_type_id":"4","last_reported":1758892828,"current_range_meters":6800,"station_id":"ce4bgqh2rcd13ifvqc5g","pricing_plan_id":"cebpf4jnsgd1na2vs0mg"},{"bike_id":"9d47db35-a66d-4162-a20e-461c0dd7c1a5","system_id":"levelo_inurba_marseille","lat":43.32336,"lon":5.40621,"is_reserved":false,"is_disabled":false,"rental_uris":{"android":"levelo://app?vid=9d47db35-a66d-4162-a20e-461c0dd7c1a5","ios":"levelo://app?vid=9d47db35-a66d-4162-a20e-461c0dd7c1a5"},"vehicle_type_id":"4","last_reported":1758892828,"current_range_meters":6800,"station_id":"ce4bhq92rcd13ifvqhjg","pricing_plan_id":"cebpf4jnsgd1na2vs0mg"},{"bike_id":"fc74987d-6853-469e-a7b4-e5212da2b197","system_id":"levelo_inurba_marseille","lat":43.2315,"lon":5.43716,"is_reserved":false,"is_disabled":false,"rental_uris":{"android":"levelo://app?vid=fc74987d-6853-469e-a7b4-e5212da2b197","ios":"levelo://app?vid=fc74987d-6853-469e-a7b4-e5212da2b197"},"vehicle_type_id":"4","last_reported":1758892828,"current_range_meters":6800,"station_id":"ce4bhmp2rcd13ifvqgog","pricing_plan_id":"cebpf4jnsgd1na2vs0mg"},{"bike_id":"ef732569-efe7-4bf3-8093-1917fd9bd759","system_id":"levelo_inurba_marseille","lat":43.30954,"lon":5.39037,"is_reserved":false,"is_disabled":false,"rental_uris":{"android":"levelo://app?vid=ef732569-efe7-4bf3-8093-1917fd9bd759","ios":"levelo://app?vid=ef732569-efe7-4bf3-8093-1917fd9bd759"},"vehicle_type_id":"4","last_reported":1758892828,"current_range_meters":7200,"station_id":"ce4bgup2rcd13ifvqco0","pricing_plan_id":"cebpf4jnsgd1na2vs0mg"},{"bike_id":"5044de83-462f-41f5-ba2d-b89e5c574f76","system_id":"levelo_inurba_marseille","lat":43.28407,"lon":5.34987,"is_reserved":false,"is_disabled":false,"rental_uris":{"android":"levelo://app?vid=5044de83-462f-41f5-ba2d-b89e5c574f76","ios":"levelo://app?vid=5044de83-462f-41f5-ba2d-b89e5c574f76"},"vehicle_type_id":"4","last_reported":1758892828,"current_range_meters":7200,"station_id":"ce4bhbh2rcd13ifvqepg","pricing_plan_id":"cebpf4jnsgd1na2vs0mg"},{"bike_id":"94a18063-b6c3-48e8-b21d-3423a00b2b08","system_id":"levelo_inurba_marseille","lat":43.246911,"lon":5.396028,"is_reserved":false,"is_disabled":false,"rental_uris":{"android":"levelo://app?vid=94a18063-b6c3-48e8-b21d-3423a00b2b08","ios":"levelo://app?vid=94a18063-b6c3-48e8-b21d-3423a00b2b08"},"vehicle_type_id":"4","last_reported":1758892828,"current_range_meters":12000,"station_id":"ce4bhlp2rcd13ifvqgjg","pricing_plan_id":"cebpf4jnsgd1na2vs0mg"},{"bike_id":"379911e0-a8b9-4b05-96ac-c75be54d3c45","system_id":"levelo_inurba_marseille","lat":43.28869,"lon":5.42509,"is_reserved":false,"is_disabled":false,"rental_uris":{"android":"levelo://app?vid=379911e0-a8b9-4b05-96ac-c75be54d3c45","ios":"levelo://app?vid=379911e0-a8b9-4b05-96ac-c75be54d3c45"},"vehicle_type_id":"4","last_reported":1758892828,"current_range_meters":7200,"station_id":"","pricing_plan_id":"cebpf4jnsgd1na2vs0mg"},{"bike_id":"09f62ba6-af65-412e-aa52-83df4d376991","system_id":"levelo_inurba_marseille","lat":43.31128,"lon":5.36688,"is_reserved":false,"is_disabled":false,"rental_uris":{"android":"levelo://app?vid=09f62ba6-af65-412e-aa52-83df4d376991","ios":"levelo://app?vid=09f62ba6-af65-412e-aa52-83df4d376991"},"vehicle_type_id":"4","last_reported":1758892828,"current_range_meters":8000,"station_id":"","pricing_plan_id":"cebpf4jnsgd1na2vs0mg"},{"bike_id":"234f9897-ca2f-4a17-807c-faef05729c1e","system_id":"levelo_inurba_marseille","lat":43.30553,"lon":5.36694,"is_reserved":false,"is_disabled":false,"rental_uris":{"android":"levelo://app?vid=234f9897-ca2f-4a17-807c-faef05729c1e","ios":"levelo://app?vid=234f9897-ca2f-4a17-807c-faef05729c1e"},"vehicle_type_id":"4","last_reported":1758892828,"current_range_meters":8000,"station_id":"ce4bgrp2rcd13ifvqc9g","pricing_plan_id":"cebpf4jnsgd1na2vs0mg"},{"bike_id":"dc876d59-9e1d-4cdc-9765-8b9f05c2d957","system_id":"levelo_inurba_marseille","lat":43.28699,"lon":5.37907,"is_reserved":false,"is_disabled":false,"rental_uris":{"android":"levelo://app?vid=dc876d59-9e1d-4cdc-9765-8b9f05c2d957","ios":"levelo://app?vid=dc876d59-9e1d-4cdc-9765-8b9f05c2d957"},"vehicle_type_id":"4","last_reported":1758892828,"current_range_meters":11600,"station_id":"ce4bh9p2rcd13ifvqec0","pricing_plan_id":"cebpf4jnsgd1na2vs0mg"},{"bike_id":"003515e8-8117-44bb-979d-5f47e8d50fda","system_id":"levelo_inurba_marseille","lat":43.30625,"lon":5.37574,"is_reserved":false,"is_disabled":false,"rental_uris":{"android":"levelo://app?vid=003515e8-8117-44bb-979d-5f47e8d50fda","ios":"levelo://app?vid=003515e8-8117-44bb-979d-5f47e8d50fda"},"vehicle_type_id":"4","last_reported":1758892828,"current_range_meters":8400,"station_id":"","pricing_plan_id":"cebpf4jnsgd1na2vs0mg"},{"bike_id":"9806e6b5-b0c2-4ff4-94e8-6b5cec5c47cb","system_id":"levelo_inurba_marseille","lat":43.31174,"lon":5.38727,"is_reserved":false,"is_disabled":false,"rental_uris":{"android":"levelo://app?vid=9806e6b5-b0c2-4ff4-94e8-6b5cec5c47cb","ios":"levelo://app?vid=9806e6b5-b0c2-4ff4-94e8-6b5cec5c47cb"},"vehicle_type_id":"4","last_reported":1758892828,"current_range_meters":8400,"station_id":"ce4bgv12rcd13ifvqcp0","pricing_plan_id":"cebpf4jnsgd1na2vs0mg"},{"bike_id":"4c7fc905-8c6d-4982-87be-d0ee1cef6245","system_id":"levelo_inurba_marseille","lat":43.29034,"lon":5.39965,"is_reserved":false,"is_disabled":false,"rental_uris":{"android":"levelo://app?vid=4c7fc905-8c6d-4982-87be-d0ee1cef6245","ios":"levelo://app?vid=4c7fc905-8c6d-4982-87be-d0ee1cef6245"},"vehicle_type_id":"4","last_reported":1758892828,"current_range_meters":8400,"station_id":"ce4bh392rcd13ifvqdm0","pricing_plan_id":"cebpf4jnsgd1na2vs0mg"},{"bike_id":"8eae954c-dab6-4303-94f5-569e1c483f62","system_id":"levelo_inurba_marseille","lat":43.294518,"lon":5.407539,"is_reserved":false,"is_disabled":false,"rental_uris":{"android":"levelo://app?vid=8eae954c-dab6-4303-94f5-569e1c483f62","ios":"levelo://app?vid=8eae954c-dab6-4303-94f5-569e1c483f62"},"vehicle_type_id":"4","last_reported":1758892828,"current_range_meters":8400,"station_id":"","pricing_plan_id":"cebpf4jnsgd1na2vs0mg"},{"bike_id":"f629f495-2802-4365-bee5-2b986911c2b6","system_id":"levelo_inurba_marseille","lat":43.24667,"lon":5.38165,"is_reserved":false,"is_disabled":false,"rental_uris":{"android":"levelo://app?vid=f629f495-2802-4365-bee5-2b986911c2b6","ios":"levelo://app?vid=f629f495-2802-4365-bee5-2b986911c2b6"},"vehicle_type_id":"4","last_reported":1758892828,"current_range_meters":8400,"station_id":"ce4bhih2rcd13ifvqfr0","pricing_plan_id":"cebpf4jnsgd1na2vs0mg"},{"bike_id":"fe8cd891-c323-4a29-b9ff-f8134a7d0a42","system_id":"levelo_inurba_marseille","lat":43.2465,"lon":5.38891,"is_reserved":false,"is_disabled":false,"rental_uris":{"android":"levelo://app?vid=fe8cd891-c323-4a29-b9ff-f8134a7d0a42","ios":"levelo://app?vid=fe8cd891-c323-4a29-b9ff-f8134a7d0a42"},"vehicle_type_id":"4","last_reported":1758892828,"current_range_meters":8400,"station_id":"ce4bhg12rcd13ifvqf60","pricing_plan_id":"cebpf4jnsgd1na2vs0mg"},{"bike_id":"659508e9-3806-4ee8-bfc1-6342c5fe257e","system_id":"levelo_inurba_marseille","lat":43.30944,"lon":5.39015,"is_reserved":false,"is_disabled":false,"rental_uris":{"android":"levelo://app?vid=659508e9-3806-4ee8-bfc1-6342c5fe257e","ios":"levelo://app?vid=659508e9-3806-4ee8-bfc1-6342c5fe257e"},"vehicle_type_id":"4","last_reported":1758892828,"current_range_meters":8000,"station_id":"ce4bgup2rcd13ifvqco0","pricing_plan_id":"cebpf4jnsgd1na2vs0mg"},{"bike_id":"8630d41a-68c7-4bd5-bc90-e9cdd4d06bd2","system_id":"levelo_inurba_marseille","lat":43.29097,"lon":5.38129,"is_reserved":false,"is_disabled":false,"rental_uris":{"android":"levelo://app?vid=8630d41a-68c7-4bd5-bc90-e9cdd4d06bd2","ios":"levelo://app?vid=8630d41a-68c7-4bd5-bc90-e9cdd4d06bd2"},"vehicle_type_id":"4","last_reported":1758892828,"current_range_meters":8400,"station_id":"ce4bh512rcd13ifvqe2g","pricing_plan_id":"cebpf4jnsgd1na2vs0mg"},{"bike_id":"212de2eb-8bbc-413c-b204-9fe1facd76e8","system_id":"levelo_inurba_marseille","lat":43.31306,"lon":5.37821,"is_reserved":false,"is_disabled":false,"rental_uris":{"android":"levelo://app?vid=212de2eb-8bbc-413c-b204-9fe1facd76e8","ios":"levelo://app?vid=212de2eb-8bbc-413c-b204-9fe1facd76e8"},"vehicle_type_id":"4","last_reported":1758892828,"current_range_meters":8400,"station_id":"","pricing_plan_id":"cebpf4jnsgd1na2vs0mg"},{"bike_id":"2080d052-fce8-4e58-a516-b81dd8095861","system_id":"levelo_inurba_marseille","lat":43.23147,"lon":5.4372,"is_reserved":false,"is_disabled":false,"rental_uris":{"android":"levelo://app?vid=2080d052-fce8-4e58-a516-b81dd8095861","ios":"levelo://app?vid=2080d052-fce8-4e58-a516-b81dd8095861"},"vehicle_type_id":"4","last_reported":1758892828,"current_range_meters":8400,"station_id":"ce4bhmp2rcd13ifvqgog","pricing_plan_id":"cebpf4jnsgd1na2vs0mg"},{"bike_id":"d3facdd2-126b-4a17-b4dd-030c05c43624","system_id":"levelo_inurba_marseille","lat":43.27211,"lon":5.3918,"is_reserved":false,"is_disabled":false,"rental_uris":{"android":"levelo://app?vid=d3facdd2-126b-4a17-b4dd-030c05c43624","ios":"levelo://app?vid=d3facdd2-126b-4a17-b4dd-030c05c43624"},"vehicle_type_id":"4","last_reported":1758892828,"current_range_meters":8800,"station_id":"ce4bhhp2rcd13ifvqfm0","pricing_plan_id":"cebpf4jnsgd1na2vs0mg"},{"bike_id":"d7f9e1df-8b0f-4a8d-ad58-d349030d8c25","system_id":"levelo_inurba_marseille","lat":43.29615,"lon":5.37809,"is_reserved":false,"is_disabled":false,"rental_uris":{"android":"levelo://app?vid=d7f9e1df-8b0f-4a8d-ad58-d349030d8c25","ios":"levelo://app?vid=d7f9e1df-8b0f-4a8d-ad58-d349030d8c25"},"vehicle_type_id":"4","last_reported":1758892828,"current_range_meters":8800,"station_id":"","pricing_plan_id":"cebpf4jnsgd1na2vs0mg"},{"bike_id":"de52dc89-6873-48bc-b0f4-b21d79fa0f4d","system_id":"levelo_inurba_marseille","lat":43.24181,"lon":5.39737,"is_reserved":false,"is_disabled":false,"rental_uris":{"android":"levelo://app?vid=de52dc89-6873-48bc-b0f4-b21d79fa0f4d","ios":"levelo://app?vid=de52dc89-6873-48bc-b0f4-b21d79fa0f4d"},"vehicle_type_id":"4","last_reported":1758892828,"current_range_meters":8800,"station_id":"ce4bhn12rcd13ifvqgpg","pricing_plan_id":"cebpf4jnsgd1na2vs0mg"},{"bike_id":"339534b4-d6ce-428f-97c9-087d1b58c7b3","system_id":"levelo_inurba_marseille","lat":43.3269,"lon":5.40284,"is_reserved":false,"is_disabled":false,"rental_uris":{"android":"levelo://app?vid=339534b4-d6ce-428f-97c9-087d1b58c7b3","ios":"levelo://app?vid=339534b4-d6ce-428f-97c9-087d1b58c7b3"},"vehicle_type_id":"4","last_reported":1758892828,"current_range_meters":8800,"station_id":"","pricing_plan_id":"cebpf4jnsgd1na2vs0mg"},{"bike_id":"90648e0d-c042-4487-8d49-e3c04af27ba4","system_id":"levelo_inurba_marseille","lat":43.29637,"lon":5.40598,"is_reserved":false,"is_disabled":false,"rental_uris":{"android":"levelo://app?vid=90648e0d-c042-4487-8d49-e3c04af27ba4","ios":"levelo://app?vid=90648e0d-c042-4487-8d49-e3c04af27ba4"},"vehicle_type_id":"4","last_reported":1758892828,"current_range_meters":9200,"station_id":"ce4bh0h2rcd13ifvqd60","pricing_plan_id":"cebpf4jnsgd1na2vs0mg"},{"bike_id":"f897d300-643c-4c7a-951b-f56d70ef23ca","system_id":"levelo_inurba_marseille","lat":43.30359,"lon":5.39084,"is_reserved":false,"is_disabled":false,"rental_uris":{"android":"levelo://app?vid=f897d300-643c-4c7a-951b-f56d70ef23ca","ios":"levelo://app?vid=f897d300-643c-4c7a-951b-f56d70ef23ca"},"vehicle_type_id":"4","last_reported":1758892828,"current_range_meters":9200,"station_id":"","pricing_plan_id":"cebpf4jnsgd1na2vs0mg"},{"bike_id":"7ee50924-32ed-4b9d-85c7-8a88294832f4","system_id":"levelo_inurba_marseille","lat":43.279997,"lon":5.416671,"is_reserved":false,"is_disabled":false,"rental_uris":{"android":"levelo://app?vid=7ee50924-32ed-4b9d-85c7-8a88294832f4","ios":"levelo://app?vid=7ee50924-32ed-4b9d-85c7-8a88294832f4"},"vehicle_type_id":"4","last_reported":1758892828,"current_range_meters":9200,"station_id":"ce4bho12rcd13ifvqh1g","pricing_plan_id":"cebpf4jnsgd1na2vs0mg"},{"bike_id":"60858087-ad19-450c-bd72-8283bb29074f","system_id":"levelo_inurba_marseille","lat":43.3055,"lon":5.36546,"is_reserved":false,"is_disabled":false,"rental_uris":{"android":"levelo://app?vid=60858087-ad19-450c-bd72-8283bb29074f","ios":"levelo://app?vid=60858087-ad19-450c-bd72-8283bb29074f"},"vehicle_type_id":"4","last_reported":1758892828,"current_range_meters":9200,"station_id":"ce4bgs12rcd13ifvqcag","pricing_plan_id":"cebpf4jnsgd1na2vs0mg"},{"bike_id":"ffefb0b5-ddb6-4fe4-8fa6-e9f16369162b","system_id":"levelo_inurba_marseille","lat":43.29683,"lon":5.37285,"is_reserved":false,"is_disabled":false,"rental_uris":{"android":"levelo://app?vid=ffefb0b5-ddb6-4fe4-8fa6-e9f16369162b","ios":"levelo://app?vid=ffefb0b5-ddb6-4fe4-8fa6-e9f16369162b"},"vehicle_type_id":"4","last_reported":1758892828,"current_range_meters":8800,"station_id":"ce4bgk12rcd13ifvqbj0","pricing_plan_id":"cebpf4jnsgd1na2vs0mg"},{"bike_id":"f22495e3-8942-481b-ab2f-9b8b51c632d8","system_id":"levelo_inurba_marseille","lat":43.21207,"lon":5.3507,"is_reserved":false,"is_disabled":false,"rental_uris":{"android":"levelo://app?vid=f22495e3-8942-481b-ab2f-9b8b51c632d8","ios":"levelo://app?vid=f22495e3-8942-481b-ab2f-9b8b51c632d8"},"vehicle_type_id":"4","last_reported":1758892828,"current_range_meters":9200,"station_id":"st_cvj6sg6p6f1abm77japg","pricing_plan_id":"cebpf4jnsgd1na2vs0mg"},{"bike_id":"31110532-a50e-442f-ae95-35e3edb03574","system_id":"levelo_inurba_marseille","lat":43.29006,"lon":5.3811,"is_reserved":false,"is_disabled":false,"rental_uris":{"android":"levelo://app?vid=31110532-a50e-442f-ae95-35e3edb03574","ios":"levelo://app?vid=31110532-a50e-442f-ae95-35e3edb03574"},"vehicle_type_id":"4","last_reported":1758892828,"current_range_meters":9600,"station_id":"ce4bh4p2rcd13ifvqe1g","pricing_plan_id":"cebpf4jnsgd1na2vs0mg"},{"bike_id":"795204bb-99a2-4e80-ba94-c718ee0bccc2","system_id":"levelo_inurba_marseille","lat":43.30955,"lon":5.3905,"is_reserved":false,"is_disabled":false,"rental_uris":{"android":"levelo://app?vid=795204bb-99a2-4e80-ba94-c718ee0bccc2","ios":"levelo://app?vid=795204bb-99a2-4e80-ba94-c718ee0bccc2"},"vehicle_type_id":"4","last_reported":1758892828,"current_range_meters":9600,"station_id":"ce4bgup2rcd13ifvqco0","pricing_plan_id":"cebpf4jnsgd1na2vs0mg"},{"bike_id":"cd21576b-094e-42b1-9cde-f8a064d4d610","system_id":"levelo_inurba_marseille","lat":43.292353,"lon":5.383602,"is_reserved":false,"is_disabled":false,"rental_uris":{"android":"levelo://app?vid=cd21576b-094e-42b1-9cde-f8a064d4d610","ios":"levelo://app?vid=cd21576b-094e-42b1-9cde-f8a064d4d610"},"vehicle_type_id":"4","last_reported":1758892828,"current_range_meters":9600,"station_id":"ce4bh692rcd13ifvqea0","pricing_plan_id":"cebpf4jnsgd1na2vs0mg"},{"bike_id":"b86bd8d1-2bab-4b4f-bd5a-edbe68dc3202","system_id":"levelo_inurba_marseille","lat":43.31123,"lon":5.36906,"is_reserved":false,"is_disabled":false,"rental_uris":{"android":"levelo://app?vid=b86bd8d1-2bab-4b4f-bd5a-edbe68dc3202","ios":"levelo://app?vid=b86bd8d1-2bab-4b4f-bd5a-edbe68dc3202"},"vehicle_type_id":"4","last_reported":1758892828,"current_range_meters":9600,"station_id":"ce4bgl92rcd13ifvqbq0","pricing_plan_id":"cebpf4jnsgd1na2vs0mg"},{"bike_id":"05261ff9-eea5-4b12-a2a4-4c99268e5f9a","system_id":"levelo_inurba_marseille","lat":43.29787,"lon":5.37095,"is_reserved":false,"is_disabled":false,"rental_uris":{"android":"levelo://app?vid=05261ff9-eea5-4b12-a2a4-4c99268e5f9a","ios":"levelo://app?vid=05261ff9-eea5-4b12-a2a4-4c99268e5f9a"},"vehicle_type_id":"4","last_reported":1758892828,"current_range_meters":9600,"station_id":"ce4bgop2rcd13ifvqc1g","pricing_plan_id":"cebpf4jnsgd1na2vs0mg"},{"bike_id":"e5303607-da03-4ac7-b81e-b332ede84cf7","system_id":"levelo_inurba_marseille","lat":43.31305,"lon":5.37817,"is_reserved":false,"is_disabled":false,"rental_uris":{"android":"levelo://app?vid=e5303607-da03-4ac7-b81e-b332ede84cf7","ios":"levelo://app?vid=e5303607-da03-4ac7-b81e-b332ede84cf7"},"vehicle_type_id":"4","last_reported":1758892828,"current_range_meters":9600,"station_id":"","pricing_plan_id":"cebpf4jnsgd1na2vs0mg"},{"bike_id":"a7f84364-3f80-4c3d-9493-893254659297","system_id":"levelo_inurba_marseille","lat":43.31074,"lon":5.38354,"is_reserved":false,"is_disabled":false,"rental_uris":{"android":"levelo://app?vid=a7f84364-3f80-4c3d-9493-893254659297","ios":"levelo://app?vid=a7f84364-3f80-4c3d-9493-893254659297"},"vehicle_type_id":"4","last_reported":1758892828,"current_range_meters":9600,"station_id":"ce4bgv92rcd13ifvqcr0","pricing_plan_id":"cebpf4jnsgd1na2vs0mg"},{"bike_id":"f2bda5c7-0340-40c5-9b4f-eeab8b60ac16","system_id":"levelo_inurba_marseille","lat":43.30132,"lon":5.38782,"is_reserved":false,"is_disabled":false,"rental_uris":{"android":"levelo://app?vid=f2bda5c7-0340-40c5-9b4f-eeab8b60ac16","ios":"levelo://app?vid=f2bda5c7-0340-40c5-9b4f-eeab8b60ac16"},"vehicle_type_id":"4","last_reported":1758892828,"current_range_meters":10000,"station_id":"ce4bghh2rcd13ifvqb60","pricing_plan_id":"cebpf4jnsgd1na2vs0mg"},{"bike_id":"d821448e-9efd-4c6c-b7db-d7db6a042bc1","system_id":"levelo_inurba_marseille","lat":43.240715,"lon":5.377648,"is_reserved":false,"is_disabled":false,"rental_uris":{"android":"levelo://app?vid=d821448e-9efd-4c6c-b7db-d7db6a042bc1","ios":"levelo://app?vid=d821448e-9efd-4c6c-b7db-d7db6a042bc1"},"vehicle_type_id":"4","last_reported":1758892828,"current_range_meters":10800,"station_id":"ce4bhnp2rcd13ifvqgvg","pricing_plan_id":"cebpf4jnsgd1na2vs0mg"},{"bike_id":"ece9a2c0-746f-4951-82a7-daa799441f3d","system_id":"levelo_inurba_marseille","lat":43.27308,"lon":5.39071,"is_reserved":false,"is_disabled":false,"rental_uris":{"android":"levelo://app?vid=ece9a2c0-746f-4951-82a7-daa799441f3d","ios":"levelo://app?vid=ece9a2c0-746f-4951-82a7-daa799441f3d"},"vehicle_type_id":"4","last_reported":1758892828,"current_range_meters":10000,"station_id":"ce4bhgp2rcd13ifvqfe0","pricing_plan_id":"cebpf4jnsgd1na2vs0mg"},{"bike_id":"c5a12c6f-a0a2-4249-a32b-379acf1b98a1","system_id":"levelo_inurba_marseille","lat":43.29884,"lon":5.39719,"is_reserved":false,"is_disabled":false,"rental_uris":{"android":"levelo://app?vid=c5a12c6f-a0a2-4249-a32b-379acf1b98a1","ios":"levelo://app?vid=c5a12c6f-a0a2-4249-a32b-379acf1b98a1"},"vehicle_type_id":"4","last_reported":1758892828,"current_range_meters":10000,"station_id":"ce4bh0h2rcd13ifvqd50","pricing_plan_id":"cebpf4jnsgd1na2vs0mg"},{"bike_id":"ce9eb6d8-db73-4de9-a02d-cee1df50253b","system_id":"levelo_inurba_marseille","lat":43.25368,"lon":5.38199,"is_reserved":false,"is_disabled":false,"rental_uris":{"android":"levelo://app?vid=ce9eb6d8-db73-4de9-a02d-cee1df50253b","ios":"levelo://app?vid=ce9eb6d8-db73-4de9-a02d-cee1df50253b"},"vehicle_type_id":"4","last_reported":1758892828,"current_range_meters":10800,"station_id":"","pricing_plan_id":"cebpf4jnsgd1na2vs0mg"},{"bike_id":"332d6867-ff96-478f-bd3e-880160196b1f","system_id":"levelo_inurba_marseille","lat":43.27825,"lon":5.40708,"is_reserved":false,"is_disabled":false,"rental_uris":{"android":"levelo://app?vid=332d6867-ff96-478f-bd3e-880160196b1f","ios":"levelo://app?vid=332d6867-ff96-478f-bd3e-880160196b1f"},"vehicle_type_id":"4","last_reported":1758892828,"current_range_meters":10000,"station_id":"ce4bhnh2rcd13ifvqgtg","pricing_plan_id":"cebpf4jnsgd1na2vs0mg"},{"bike_id":"ca9b3918-d64e-4ec2-8f73-30399900e62d","system_id":"levelo_inurba_marseille","lat":43.27049,"lon":5.40265,"is_reserved":false,"is_disabled":false,"rental_uris":{"android":"levelo://app?vid=ca9b3918-d64e-4ec2-8f73-30399900e62d","ios":"levelo://app?vid=ca9b3918-d64e-4ec2-8f73-30399900e62d"},"vehicle_type_id":"4","last_reported":1758892828,"current_range_meters":10000,"station_id":"ce4bhk92rcd13ifvqgc0","pricing_plan_id":"cebpf4jnsgd1na2vs0mg"},{"bike_id":"3d270bc8-f0d1-49b1-a0f6-9c812c10af3c","system_id":"levelo_inurba_marseille","lat":43.29679,"lon":5.37274,"is_reserved":false,"is_disabled":false,"rental_uris":{"android":"levelo://app?vid=3d270bc8-f0d1-49b1-a0f6-9c812c10af3c","ios":"levelo://app?vid=3d270bc8-f0d1-49b1-a0f6-9c812c10af3c"},"vehicle_type_id":"4","last_reported":1758892828,"current_range_meters":9600,"station_id":"ce4bgk12rcd13ifvqbj0","pricing_plan_id":"cebpf4jnsgd1na2vs0mg"},{"bike_id":"c7f6a08b-c655-4213-b2ba-7d02e7f382fe","system_id":"levelo_inurba_marseille","lat":43.27988,"lon":5.39483,"is_reserved":false,"is_disabled":false,"rental_uris":{"android":"levelo://app?vid=c7f6a08b-c655-4213-b2ba-7d02e7f382fe","ios":"levelo://app?vid=c7f6a08b-c655-4213-b2ba-7d02e7f382fe"},"vehicle_type_id":"4","last_reported":1758892828,"current_range_meters":10000,"station_id":"","pricing_plan_id":"cebpf4jnsgd1na2vs0mg"},{"bike_id":"22e1526a-5d94-480e-9eef-c281aa35345c","system_id":"levelo_inurba_marseille","lat":43.21209,"lon":5.35088,"is_reserved":false,"is_disabled":false,"rental_uris":{"android":"levelo://app?vid=22e1526a-5d94-480e-9eef-c281aa35345c","ios":"levelo://app?vid=22e1526a-5d94-480e-9eef-c281aa35345c"},"vehicle_type_id":"4","last_reported":1758892828,"current_range_meters":10800,"station_id":"","pricing_plan_id":"cebpf4jnsgd1na2vs0mg"},{"bike_id":"96d9d290-3482-406b-a187-2a8b12ccabb2","system_id":"levelo_inurba_marseille","lat":43.29006,"lon":5.37134,"is_reserved":false,"is_disabled":false,"rental_uris":{"android":"levelo://app?vid=96d9d290-3482-406b-a187-2a8b12ccabb2","ios":"levelo://app?vid=96d9d290-3482-406b-a187-2a8b12ccabb2"},"vehicle_type_id":"4","last_reported":1758892828,"current_range_meters":10800,"station_id":"","pricing_plan_id":"cebpf4jnsgd1na2vs0mg"},{"bike_id":"e89e76a5-4f75-41cf-bb04-02c40eb930ad","system_id":"levelo_inurba_marseille","lat":43.27834,"lon":5.39214,"is_reserved":false,"is_disabled":false,"rental_uris":{"android":"levelo://app?vid=e89e76a5-4f75-41cf-bb04-02c40eb930ad","ios":"levelo://app?vid=e89e76a5-4f75-41cf-bb04-02c40eb930ad"},"vehicle_type_id":"4","last_reported":1758892828,"current_range_meters":10800,"station_id":"ce4bhjp2rcd13ifvqga0","pricing_plan_id":"cebpf4jnsgd1na2vs0mg"},{"bike_id":"b4f692b9-223b-49c8-8830-027aed52bba6","system_id":"levelo_inurba_marseille","lat":43.23154,"lon":5.43707,"is_reserved":false,"is_disabled":false,"rental_uris":{"android":"levelo://app?vid=b4f692b9-223b-49c8-8830-027aed52bba6","ios":"levelo://app?vid=b4f692b9-223b-49c8-8830-027aed52bba6"},"vehicle_type_id":"4","last_reported":1758892828,"current_range_meters":10800,"station_id":"ce4bhmp2rcd13ifvqgog","pricing_plan_id":"cebpf4jnsgd1na2vs0mg"},{"bike_id":"041cd397-24ab-4e04-af23-07b961e161f4","system_id":"levelo_inurba_marseille","lat":43.337444,"lon":5.374475,"is_reserved":false,"is_disabled":false,"rental_uris":{"android":"levelo://app?vid=041cd397-24ab-4e04-af23-07b961e161f4","ios":"levelo://app?vid=041cd397-24ab-4e04-af23-07b961e161f4"},"vehicle_type_id":"4","last_reported":1758892828,"current_range_meters":10800,"station_id":"","pricing_plan_id":"cebpf4jnsgd1na2vs0mg"},{"bike_id":"530a2440-ca42-4fd8-96b3-bbb3aae3b9b5","system_id":"levelo_inurba_marseille","lat":43.30548,"lon":5.36552,"is_reserved":false,"is_disabled":false,"rental_uris":{"android":"levelo://app?vid=530a2440-ca42-4fd8-96b3-bbb3aae3b9b5","ios":"levelo://app?vid=530a2440-ca42-4fd8-96b3-bbb3aae3b9b5"},"vehicle_type_id":"4","last_reported":1758892828,"current_range_meters":10800,"station_id":"ce4bgs12rcd13ifvqcag","pricing_plan_id":"cebpf4jnsgd1na2vs0mg"},{"bike_id":"99aec3fd-38e8-433a-8b41-16e4e4589de6","system_id":"levelo_inurba_marseille","lat":43.337444,"lon":5.374475,"is_reserved":false,"is_disabled":false,"rental_uris":{"android":"levelo://app?vid=99aec3fd-38e8-433a-8b41-16e4e4589de6","ios":"levelo://app?vid=99aec3fd-38e8-433a-8b41-16e4e4589de6"},"vehicle_type_id":"4","last_reported":1758892828,"current_range_meters":11200,"station_id":"ce4bhih2rcd13ifvqfs0","pricing_plan_id":"cebpf4jnsgd1na2vs0mg"},{"bike_id":"0ba3eec9-097c-418a-a64e-98663c551269","system_id":"levelo_inurba_marseille","lat":43.2315,"lon":5.43722,"is_reserved":false,"is_disabled":false,"rental_uris":{"android":"levelo://app?vid=0ba3eec9-097c-418a-a64e-98663c551269","ios":"levelo://app?vid=0ba3eec9-097c-418a-a64e-98663c551269"},"vehicle_type_id":"4","last_reported":1758892828,"current_range_meters":11200,"station_id":"ce4bhmp2rcd13ifvqgog","pricing_plan_id":"cebpf4jnsgd1na2vs0mg"},{"bike_id":"2ca81d32-312a-4908-b518-ebae9c42c069","system_id":"levelo_inurba_marseille","lat":43.276671,"lon":5.388787,"is_reserved":false,"is_disabled":false,"rental_uris":{"android":"levelo://app?vid=2ca81d32-312a-4908-b518-ebae9c42c069","ios":"levelo://app?vid=2ca81d32-312a-4908-b518-ebae9c42c069"},"vehicle_type_id":"4","last_reported":1758892828,"current_range_meters":11200,"station_id":"ce4bhi12rcd13ifvqfo0","pricing_plan_id":"cebpf4jnsgd1na2vs0mg"},{"bike_id":"119ba8b1-67bb-409a-b326-17067ff8ecf7","system_id":"levelo_inurba_marseille","lat":43.30949,"lon":5.39031,"is_reserved":false,"is_disabled":false,"rental_uris":{"android":"levelo://app?vid=119ba8b1-67bb-409a-b326-17067ff8ecf7","ios":"levelo://app?vid=119ba8b1-67bb-409a-b326-17067ff8ecf7"},"vehicle_type_id":"4","last_reported":1758892828,"current_range_meters":11200,"station_id":"ce4bgup2rcd13ifvqco0","pricing_plan_id":"cebpf4jnsgd1na2vs0mg"},{"bike_id":"e750bdf8-9d97-4649-a5d6-1ed6cbd770b2","system_id":"levelo_inurba_marseille","lat":43.21183,"lon":5.35048,"is_reserved":false,"is_disabled":false,"rental_uris":{"android":"levelo://app?vid=e750bdf8-9d97-4649-a5d6-1ed6cbd770b2","ios":"levelo://app?vid=e750bdf8-9d97-4649-a5d6-1ed6cbd770b2"},"vehicle_type_id":"4","last_reported":1758892828,"current_range_meters":11200,"station_id":"st_cvj6sg6p6f1abm77japg","pricing_plan_id":"cebpf4jnsgd1na2vs0mg"},{"bike_id":"39e6b2d7-e7bc-4366-8a01-87bc46855564","system_id":"levelo_inurba_marseille","lat":43.32111,"lon":5.36794,"is_reserved":false,"is_disabled":false,"rental_uris":{"android":"levelo://app?vid=39e6b2d7-e7bc-4366-8a01-87bc46855564","ios":"levelo://app?vid=39e6b2d7-e7bc-4366-8a01-87bc46855564"},"vehicle_type_id":"4","last_reported":1758892828,"current_range_meters":11200,"station_id":"ce4bhrh2rcd13ifvqhug","pricing_plan_id":"cebpf4jnsgd1na2vs0mg"},{"bike_id":"6eac70c3-c895-4af4-9b8a-2812fb17bf33","system_id":"levelo_inurba_marseille","lat":43.29284,"lon":5.36853,"is_reserved":false,"is_disabled":false,"rental_uris":{"android":"levelo://app?vid=6eac70c3-c895-4af4-9b8a-2812fb17bf33","ios":"levelo://app?vid=6eac70c3-c895-4af4-9b8a-2812fb17bf33"},"vehicle_type_id":"4","last_reported":1758892828,"current_range_meters":11600,"station_id":"ce4bhbp2rcd13ifvqesg","pricing_plan_id":"cebpf4jnsgd1na2vs0mg"},{"bike_id":"e839fccc-3745-46e1-bb29-1e7b76ab5ef7","system_id":"levelo_inurba_marseille","lat":43.28705,"lon":5.39967,"is_reserved":false,"is_disabled":false,"rental_uris":{"android":"levelo://app?vid=e839fccc-3745-46e1-bb29-1e7b76ab5ef7","ios":"levelo://app?vid=e839fccc-3745-46e1-bb29-1e7b76ab5ef7"},"vehicle_type_id":"4","last_reported":1758892828,"current_range_meters":11600,"station_id":"ce4bho92rcd13ifvqh3g","pricing_plan_id":"cebpf4jnsgd1na2vs0mg"},{"bike_id":"7d353966-11f0-4dbb-9d4f-2471286bef42","system_id":"levelo_inurba_marseille","lat":43.24946,"lon":5.40479,"is_reserved":false,"is_disabled":false,"rental_uris":{"android":"levelo://app?vid=7d353966-11f0-4dbb-9d4f-2471286bef42","ios":"levelo://app?vid=7d353966-11f0-4dbb-9d4f-2471286bef42"},"vehicle_type_id":"4","last_reported":1758892828,"current_range_meters":11600,"station_id":"st_d2ngiaodas8pm72gd1h0","pricing_plan_id":"cebpf4jnsgd1na2vs0mg"},{"bike_id":"22391edf-c308-40bb-bf78-fa4ed5a59d91","system_id":"levelo_inurba_marseille","lat":43.31121,"lon":5.37767,"is_reserved":false,"is_disabled":false,"rental_uris":{"android":"levelo://app?vid=22391edf-c308-40bb-bf78-fa4ed5a59d91","ios":"levelo://app?vid=22391edf-c308-40bb-bf78-fa4ed5a59d91"},"vehicle_type_id":"4","last_reported":1758892828,"current_range_meters":11600,"station_id":"ce4bgt92rcd13ifvqcg0","pricing_plan_id":"cebpf4jnsgd1na2vs0mg"},{"bike_id":"ddc50483-8147-4271-816c-01de78c0783a","system_id":"levelo_inurba_marseille","lat":43.27999,"lon":5.40018,"is_reserved":false,"is_disabled":false,"rental_uris":{"android":"levelo://app?vid=ddc50483-8147-4271-816c-01de78c0783a","ios":"levelo://app?vid=ddc50483-8147-4271-816c-01de78c0783a"},"vehicle_type_id":"4","last_reported":1758892828,"current_range_meters":11200,"station_id":"ce4bho92rcd13ifvqh4g","pricing_plan_id":"cebpf4jnsgd1na2vs0mg"},{"bike_id":"4614cefb-8a94-4938-914f-0b0409b9d685","system_id":"levelo_inurba_marseille","lat":43.3088,"lon":5.39644,"is_reserved":false,"is_disabled":false,"rental_uris":{"android":"levelo://app?vid=4614cefb-8a94-4938-914f-0b0409b9d685","ios":"levelo://app?vid=4614cefb-8a94-4938-914f-0b0409b9d685"},"vehicle_type_id":"4","last_reported":1758892828,"current_range_meters":11200,"station_id":"ce4bh012rcd13ifvqcv0","pricing_plan_id":"cebpf4jnsgd1na2vs0mg"},{"bike_id":"fdeb08de-3d4c-48fc-b6a1-57f67e6cee80","system_id":"levelo_inurba_marseille","lat":43.30597,"lon":5.37221,"is_reserved":false,"is_disabled":false,"rental_uris":{"android":"levelo://app?vid=fdeb08de-3d4c-48fc-b6a1-57f67e6cee80","ios":"levelo://app?vid=fdeb08de-3d4c-48fc-b6a1-57f67e6cee80"},"vehicle_type_id":"4","last_reported":1758892828,"current_range_meters":11600,"station_id":"ce4bgqh2rcd13ifvqc4g","pricing_plan_id":"cebpf4jnsgd1na2vs0mg"},{"bike_id":"b0934032-3d3c-44e1-985e-e72b8cee3491","system_id":"levelo_inurba_marseille","lat":43.24651,"lon":5.43138,"is_reserved":false,"is_disabled":false,"rental_uris":{"android":"levelo://app?vid=b0934032-3d3c-44e1-985e-e72b8cee3491","ios":"levelo://app?vid=b0934032-3d3c-44e1-985e-e72b8cee3491"},"vehicle_type_id":"4","last_reported":1758892828,"current_range_meters":12000,"station_id":"st_d2m6c4gdas8pm72e190g","pricing_plan_id":"cebpf4jnsgd1na2vs0mg"},{"bike_id":"b01b5bc6-6834-41fb-be97-f5b6fb7e9ec8","system_id":"levelo_inurba_marseille","lat":43.26293,"lon":5.39809,"is_reserved":false,"is_disabled":false,"rental_uris":{"android":"levelo://app?vid=b01b5bc6-6834-41fb-be97-f5b6fb7e9ec8","ios":"levelo://app?vid=b01b5bc6-6834-41fb-be97-f5b6fb7e9ec8"},"vehicle_type_id":"4","last_reported":1758892828,"current_range_meters":12000,"station_id":"","pricing_plan_id":"cebpf4jnsgd1na2vs0mg"},{"bike_id":"0ebd7f72-8d55-4157-80b7-f9a3ecbf74da","system_id":"levelo_inurba_marseille","lat":43.267545,"lon":5.399949,"is_reserved":false,"is_disabled":false,"rental_uris":{"android":"levelo://app?vid=0ebd7f72-8d55-4157-80b7-f9a3ecbf74da","ios":"levelo://app?vid=0ebd7f72-8d55-4157-80b7-f9a3ecbf74da"},"vehicle_type_id":"4","last_reported":1758892828,"current_range_meters":11600,"station_id":"ce501612rcd8frsf0b60","pricing_plan_id":"cebpf4jnsgd1na2vs0mg"},{"bike_id":"a57b3feb-2354-42fe-87fd-e8fcee3a0260","system_id":"levelo_inurba_marseille","lat":43.26953,"lon":5.40241,"is_reserved":false,"is_disabled":false,"rental_uris":{"android":"levelo://app?vid=a57b3feb-2354-42fe-87fd-e8fcee3a0260","ios":"levelo://app?vid=a57b3feb-2354-42fe-87fd-e8fcee3a0260"},"vehicle_type_id":"4","last_reported":1758892828,"current_range_meters":12000,"station_id":"","pricing_plan_id":"cebpf4jnsgd1na2vs0mg"},{"bike_id":"75611fb7-df45-4d9f-9db0-a181136cc424","system_id":"levelo_inurba_marseille","lat":43.21776,"lon":5.34586,"is_reserved":false,"is_disabled":true,"rental_uris":{"android":"levelo://app?vid=75611fb7-df45-4d9f-9db0-a181136cc424","ios":"levelo://app?vid=75611fb7-df45-4d9f-9db0-a181136cc424"},"vehicle_type_id":"4","last_reported":1758892828,"current_range_meters":12400,"station_id":"st_cvj6r9ubvosntc0bgbag","pricing_plan_id":"cebpf4jnsgd1na2vs0mg"},{"bike_id":"ed9c1b6f-0cc7-47fb-a193-bb02351072ff","system_id":"levelo_inurba_marseille","lat":43.254958,"lon":5.376427,"is_reserved":false,"is_disabled":false,"rental_uris":{"android":"levelo://app?vid=ed9c1b6f-0cc7-47fb-a193-bb02351072ff","ios":"levelo://app?vid=ed9c1b6f-0cc7-47fb-a193-bb02351072ff"},"vehicle_type_id":"4","last_reported":1758892828,"current_range_meters":12400,"station_id":"","pricing_plan_id":"cebpf4jnsgd1na2vs0mg"},{"bike_id":"ede9cd09-f950-4ab4-922b-b26cfe1d5b86","system_id":"levelo_inurba_marseille","lat":43.23193,"lon":5.39993,"is_reserved":false,"is_disabled":false,"rental_uris":{"android":"levelo://app?vid=ede9cd09-f950-4ab4-922b-b26cfe1d5b86","ios":"levelo://app?vid=ede9cd09-f950-4ab4-922b-b26cfe1d5b86"},"vehicle_type_id":"4","last_reported":1758892828,"current_range_meters":14000,"station_id":"ce4bhn12rcd13ifvqgqg","pricing_plan_id":"cebpf4jnsgd1na2vs0mg"},{"bike_id":"25b46089-8745-467a-bece-96bee0e80385","system_id":"levelo_inurba_marseille","lat":43.27377,"lon":5.36249,"is_reserved":false,"is_disabled":false,"rental_uris":{"android":"levelo://app?vid=25b46089-8745-467a-bece-96bee0e80385","ios":"levelo://app?vid=25b46089-8745-467a-bece-96bee0e80385"},"vehicle_type_id":"4","last_reported":1758892828,"current_range_meters":12400,"station_id":"ce4bhbh2rcd13ifvqeo0","pricing_plan_id":"cebpf4jnsgd1na2vs0mg"},{"bike_id":"5d8e49df-fe0d-424d-8b3c-c9517ae799aa","system_id":"levelo_inurba_marseille","lat":43.2749,"lon":5.42474,"is_reserved":false,"is_disabled":false,"rental_uris":{"android":"levelo://app?vid=5d8e49df-fe0d-424d-8b3c-c9517ae799aa","ios":"levelo://app?vid=5d8e49df-fe0d-424d-8b3c-c9517ae799aa"},"vehicle_type_id":"4","last_reported":1758892828,"current_range_meters":12400,"station_id":"ce4bhn92rcd13ifvqgrg","pricing_plan_id":"cebpf4jnsgd1na2vs0mg"},{"bike_id":"0ef81889-2d7f-4e70-b480-0b08f55cbfba","system_id":"levelo_inurba_marseille","lat":43.3084,"lon":5.36817,"is_reserved":false,"is_disabled":false,"rental_uris":{"android":"levelo://app?vid=0ef81889-2d7f-4e70-b480-0b08f55cbfba","ios":"levelo://app?vid=0ef81889-2d7f-4e70-b480-0b08f55cbfba"},"vehicle_type_id":"4","last_reported":1758892828,"current_range_meters":12400,"station_id":"","pricing_plan_id":"cebpf4jnsgd1na2vs0mg"},{"bike_id":"280349c2-7d75-4732-844a-272770d12d07","system_id":"levelo_inurba_marseille","lat":43.24957,"lon":5.40511,"is_reserved":false,"is_disabled":false,"rental_uris":{"android":"levelo://app?vid=280349c2-7d75-4732-844a-272770d12d07","ios":"levelo://app?vid=280349c2-7d75-4732-844a-272770d12d07"},"vehicle_type_id":"4","last_reported":1758892828,"current_range_meters":12800,"station_id":"st_d2ngiaodas8pm72gd1h0","pricing_plan_id":"cebpf4jnsgd1na2vs0mg"},{"bike_id":"d5a574e9-f47d-4019-9761-b7ec56c5ceb3","system_id":"levelo_inurba_marseille","lat":43.2905,"lon":5.359119,"is_reserved":false,"is_disabled":false,"rental_uris":{"android":"levelo://app?vid=d5a574e9-f47d-4019-9761-b7ec56c5ceb3","ios":"levelo://app?vid=d5a574e9-f47d-4019-9761-b7ec56c5ceb3"},"vehicle_type_id":"4","last_reported":1758892828,"current_range_meters":12800,"station_id":"ce4bha92rcd13ifvqeg0","pricing_plan_id":"cebpf4jnsgd1na2vs0mg"},{"bike_id":"9b6f5cc4-4faa-492e-b8a7-7925a443845d","system_id":"levelo_inurba_marseille","lat":43.304,"lon":5.36503,"is_reserved":false,"is_disabled":false,"rental_uris":{"android":"levelo://app?vid=9b6f5cc4-4faa-492e-b8a7-7925a443845d","ios":"levelo://app?vid=9b6f5cc4-4faa-492e-b8a7-7925a443845d"},"vehicle_type_id":"4","last_reported":1758892828,"current_range_meters":12800,"station_id":"","pricing_plan_id":"cebpf4jnsgd1na2vs0mg"},{"bike_id":"52d60a51-4858-4bc2-9e16-e455713e0e3b","system_id":"levelo_inurba_marseille","lat":43.278487,"lon":5.392197,"is_reserved":false,"is_disabled":false,"rental_uris":{"android":"levelo://app?vid=52d60a51-4858-4bc2-9e16-e455713e0e3b","ios":"levelo://app?vid=52d60a51-4858-4bc2-9e16-e455713e0e3b"},"vehicle_type_id":"4","last_reported":1758892828,"current_range_meters":12800,"station_id":"ce4bhjp2rcd13ifvqga0","pricing_plan_id":"cebpf4jnsgd1na2vs0mg"},{"bike_id":"c975862c-3721-4ac1-a6a4-5b86cf0364aa","system_id":"levelo_inurba_marseille","lat":43.21193,"lon":5.35071,"is_reserved":false,"is_disabled":false,"rental_uris":{"android":"levelo://app?vid=c975862c-3721-4ac1-a6a4-5b86cf0364aa","ios":"levelo://app?vid=c975862c-3721-4ac1-a6a4-5b86cf0364aa"},"vehicle_type_id":"4","last_reported":1758892828,"current_range_meters":12800,"station_id":"st_cvj6sg6p6f1abm77japg","pricing_plan_id":"cebpf4jnsgd1na2vs0mg"},{"bike_id":"a639c491-c436-478a-8d5d-bd2c30b918ff","system_id":"levelo_inurba_marseille","lat":43.29748,"lon":5.37215,"is_reserved":false,"is_disabled":false,"rental_uris":{"android":"levelo://app?vid=a639c491-c436-478a-8d5d-bd2c30b918ff","ios":"levelo://app?vid=a639c491-c436-478a-8d5d-bd2c30b918ff"},"vehicle_type_id":"4","last_reported":1758892828,"current_range_meters":12800,"station_id":"","pricing_plan_id":"cebpf4jnsgd1na2vs0mg"},{"bike_id":"c8fb4f1c-09dc-4ba3-b9e8-17ffe43b4972","system_id":"levelo_inurba_marseille","lat":43.32372,"lon":5.36766,"is_reserved":false,"is_disabled":false,"rental_uris":{"android":"levelo://app?vid=c8fb4f1c-09dc-4ba3-b9e8-17ffe43b4972","ios":"levelo://app?vid=c8fb4f1c-09dc-4ba3-b9e8-17ffe43b4972"},"vehicle_type_id":"4","last_reported":1758892828,"current_range_meters":12800,"station_id":"ce4bhsh2rcd13ifvqi2g","pricing_plan_id":"cebpf4jnsgd1na2vs0mg"},{"bike_id":"8baeac13-7e80-456d-83aa-12e0372d0df5","system_id":"levelo_inurba_marseille","lat":43.32461,"lon":5.37531,"is_reserved":false,"is_disabled":false,"rental_uris":{"android":"levelo://app?vid=8baeac13-7e80-456d-83aa-12e0372d0df5","ios":"levelo://app?vid=8baeac13-7e80-456d-83aa-12e0372d0df5"},"vehicle_type_id":"4","last_reported":1758892828,"current_range_meters":12800,"station_id":"","pricing_plan_id":"cebpf4jnsgd1na2vs0mg"},{"bike_id":"df649d25-1f44-4471-8cdd-9566da8ef9b9","system_id":"levelo_inurba_marseille","lat":43.32167,"lon":5.38771,"is_reserved":false,"is_disabled":false,"rental_uris":{"android":"levelo://app?vid=df649d25-1f44-4471-8cdd-9566da8ef9b9","ios":"levelo://app?vid=df649d25-1f44-4471-8cdd-9566da8ef9b9"},"vehicle_type_id":"4","last_reported":1758892828,"current_range_meters":13600,"station_id":"","pricing_plan_id":"cebpf4jnsgd1na2vs0mg"},{"bike_id":"6f361db7-6108-4d30-94fd-0c422e05468a","system_id":"levelo_inurba_marseille","lat":43.30778,"lon":5.37651,"is_reserved":false,"is_disabled":false,"rental_uris":{"android":"levelo://app?vid=6f361db7-6108-4d30-94fd-0c422e05468a","ios":"levelo://app?vid=6f361db7-6108-4d30-94fd-0c422e05468a"},"vehicle_type_id":"4","last_reported":1758892828,"current_range_meters":13600,"station_id":"ce4bgv92rcd13ifvqcq0","pricing_plan_id":"cebpf4jnsgd1na2vs0mg"},{"bike_id":"62b48886-1b53-41a9-8cbd-9aeacbb8572e","system_id":"levelo_inurba_marseille","lat":43.29032,"lon":5.37556,"is_reserved":false,"is_disabled":false,"rental_uris":{"android":"levelo://app?vid=62b48886-1b53-41a9-8cbd-9aeacbb8572e","ios":"levelo://app?vid=62b48886-1b53-41a9-8cbd-9aeacbb8572e"},"vehicle_type_id":"4","last_reported":1758892828,"current_range_meters":13600,"station_id":"ce4bh692rcd13ifvqe90","pricing_plan_id":"cebpf4jnsgd1na2vs0mg"},{"bike_id":"e38f90b9-e710-4767-9db6-049ac0bd6f65","system_id":"levelo_inurba_marseille","lat":43.27204,"lon":5.39177,"is_reserved":false,"is_disabled":false,"rental_uris":{"android":"levelo://app?vid=e38f90b9-e710-4767-9db6-049ac0bd6f65","ios":"levelo://app?vid=e38f90b9-e710-4767-9db6-049ac0bd6f65"},"vehicle_type_id":"4","last_reported":1758892828,"current_range_meters":13600,"station_id":"ce4bhhp2rcd13ifvqfm0","pricing_plan_id":"cebpf4jnsgd1na2vs0mg"},{"bike_id":"22b2ceaa-b482-498f-adaf-5cf9950948d9","system_id":"levelo_inurba_marseille","lat":43.24082,"lon":5.37749,"is_reserved":false,"is_disabled":false,"rental_uris":{"android":"levelo://app?vid=22b2ceaa-b482-498f-adaf-5cf9950948d9","ios":"levelo://app?vid=22b2ceaa-b482-498f-adaf-5cf9950948d9"},"vehicle_type_id":"4","last_reported":1758892828,"current_range_meters":13600,"station_id":"ce4bhnp2rcd13ifvqgvg","pricing_plan_id":"cebpf4jnsgd1na2vs0mg"},{"bike_id":"46f9b484-6f08-4ebe-8cac-3f01deda53fc","system_id":"levelo_inurba_marseille","lat":43.32667,"lon":5.40979,"is_reserved":false,"is_disabled":false,"rental_uris":{"android":"levelo://app?vid=46f9b484-6f08-4ebe-8cac-3f01deda53fc","ios":"levelo://app?vid=46f9b484-6f08-4ebe-8cac-3f01deda53fc"},"vehicle_type_id":"4","last_reported":1758892828,"current_range_meters":13600,"station_id":"ce4bhpp2rcd13ifvqhgg","pricing_plan_id":"cebpf4jnsgd1na2vs0mg"},{"bike_id":"1d5d14cf-15e7-4470-bff9-613bb9abe120","system_id":"levelo_inurba_marseille","lat":43.33492,"lon":5.4206,"is_reserved":false,"is_disabled":false,"rental_uris":{"android":"levelo://app?vid=1d5d14cf-15e7-4470-bff9-613bb9abe120","ios":"levelo://app?vid=1d5d14cf-15e7-4470-bff9-613bb9abe120"},"vehicle_type_id":"4","last_reported":1758892828,"current_range_meters":13600,"station_id":"","pricing_plan_id":"cebpf4jnsgd1na2vs0mg"},{"bike_id":"5abf3714-8b30-4995-aeb7-7c5c99912349","system_id":"levelo_inurba_marseille","lat":43.30145,"lon":5.38066,"is_reserved":false,"is_disabled":false,"rental_uris":{"android":"levelo://app?vid=5abf3714-8b30-4995-aeb7-7c5c99912349","ios":"levelo://app?vid=5abf3714-8b30-4995-aeb7-7c5c99912349"},"vehicle_type_id":"4","last_reported":1758892828,"current_range_meters":13600,"station_id":"ce4bgjp2rcd13ifvqbh0","pricing_plan_id":"cebpf4jnsgd1na2vs0mg"},{"bike_id":"45e07bae-690f-4ff3-a8bd-511d32841972","system_id":"levelo_inurba_marseille","lat":43.253637,"lon":5.401851,"is_reserved":false,"is_disabled":false,"rental_uris":{"android":"levelo://app?vid=45e07bae-690f-4ff3-a8bd-511d32841972","ios":"levelo://app?vid=45e07bae-690f-4ff3-a8bd-511d32841972"},"vehicle_type_id":"4","last_reported":1758892828,"current_range_meters":14000,"station_id":"","pricing_plan_id":"cebpf4jnsgd1na2vs0mg"},{"bike_id":"7368a520-1958-4d28-99a0-89e3f6f0674a","system_id":"levelo_inurba_marseille","lat":43.30132,"lon":5.39872,"is_reserved":false,"is_disabled":false,"rental_uris":{"android":"levelo://app?vid=7368a520-1958-4d28-99a0-89e3f6f0674a","ios":"levelo://app?vid=7368a520-1958-4d28-99a0-89e3f6f0674a"},"vehicle_type_id":"4","last_reported":1758892828,"current_range_meters":13600,"station_id":"ce4bh0h2rcd13ifvqd40","pricing_plan_id":"cebpf4jnsgd1na2vs0mg"},{"bike_id":"c3a00880-7ea9-4231-a714-f2aa57eb7037","system_id":"levelo_inurba_marseille","lat":43.27384,"lon":5.3626,"is_reserved":false,"is_disabled":false,"rental_uris":{"android":"levelo://app?vid=c3a00880-7ea9-4231-a714-f2aa57eb7037","ios":"levelo://app?vid=c3a00880-7ea9-4231-a714-f2aa57eb7037"},"vehicle_type_id":"4","last_reported":1758892828,"current_range_meters":14000,"station_id":"ce4bhbh2rcd13ifvqeo0","pricing_plan_id":"cebpf4jnsgd1na2vs0mg"},{"bike_id":"08fe2b08-b3fa-43f8-ae73-04061f76318d","system_id":"levelo_inurba_marseille","lat":43.305552,"lon":5.365395,"is_reserved":false,"is_disabled":false,"rental_uris":{"android":"levelo://app?vid=08fe2b08-b3fa-43f8-ae73-04061f76318d","ios":"levelo://app?vid=08fe2b08-b3fa-43f8-ae73-04061f76318d"},"vehicle_type_id":"4","last_reported":1758892828,"current_range_meters":14000,"station_id":"","pricing_plan_id":"cebpf4jnsgd1na2vs0mg"},{"bike_id":"10b8d871-07e9-4114-9eb9-6bcce40e7beb","system_id":"levelo_inurba_marseille","lat":43.27045,"lon":5.392226,"is_reserved":false,"is_disabled":false,"rental_uris":{"android":"levelo://app?vid=10b8d871-07e9-4114-9eb9-6bcce40e7beb","ios":"levelo://app?vid=10b8d871-07e9-4114-9eb9-6bcce40e7beb"},"vehicle_type_id":"4","last_reported":1758892828,"current_range_meters":14000,"station_id":"ce4bhe12rcd13ifvqf30","pricing_plan_id":"cebpf4jnsgd1na2vs0mg"},{"bike_id":"4b28eb42-6566-45c0-bb06-eede757dfaad","system_id":"levelo_inurba_marseille","lat":43.25591,"lon":5.38222,"is_reserved":false,"is_disabled":false,"rental_uris":{"android":"levelo://app?vid=4b28eb42-6566-45c0-bb06-eede757dfaad","ios":"levelo://app?vid=4b28eb42-6566-45c0-bb06-eede757dfaad"},"vehicle_type_id":"4","last_reported":1758892828,"current_range_meters":14000,"station_id":"ce4bhih2rcd13ifvqfs0","pricing_plan_id":"cebpf4jnsgd1na2vs0mg"},{"bike_id":"f9e21fc1-be7d-42a8-9eff-6458e73f3db9","system_id":"levelo_inurba_marseille","lat":43.32377,"lon":5.36745,"is_reserved":false,"is_disabled":false,"rental_uris":{"android":"levelo://app?vid=f9e21fc1-be7d-42a8-9eff-6458e73f3db9","ios":"levelo://app?vid=f9e21fc1-be7d-42a8-9eff-6458e73f3db9"},"vehicle_type_id":"4","last_reported":1758892828,"current_range_meters":14000,"station_id":"ce4bhsh2rcd13ifvqi2g","pricing_plan_id":"cebpf4jnsgd1na2vs0mg"},{"bike_id":"5d944089-7d4d-485d-8e5e-fe9c9b3dd7de","system_id":"levelo_inurba_marseille","lat":43.2256,"lon":5.41622,"is_reserved":false,"is_disabled":false,"rental_uris":{"android":"levelo://app?vid=5d944089-7d4d-485d-8e5e-fe9c9b3dd7de","ios":"levelo://app?vid=5d944089-7d4d-485d-8e5e-fe9c9b3dd7de"},"vehicle_type_id":"4","last_reported":1758892828,"current_range_meters":14000,"station_id":"st_d2o4gvlbi1j2169b742g","pricing_plan_id":"cebpf4jnsgd1na2vs0mg"},{"bike_id":"08292ac0-f4a0-4778-9703-5ac015ee1e3a","system_id":"levelo_inurba_marseille","lat":43.24639,"lon":5.43143,"is_reserved":false,"is_disabled":false,"rental_uris":{"android":"levelo://app?vid=08292ac0-f4a0-4778-9703-5ac015ee1e3a","ios":"levelo://app?vid=08292ac0-f4a0-4778-9703-5ac015ee1e3a"},"vehicle_type_id":"4","last_reported":1758892828,"current_range_meters":14400,"station_id":"st_d2m6c4gdas8pm72e190g","pricing_plan_id":"cebpf4jnsgd1na2vs0mg"},{"bike_id":"09ba922d-52ef-49c8-a431-b42f5f220d72","system_id":"levelo_inurba_marseille","lat":43.28231,"lon":5.3906,"is_reserved":false,"is_disabled":false,"rental_uris":{"android":"levelo://app?vid=09ba922d-52ef-49c8-a431-b42f5f220d72","ios":"levelo://app?vid=09ba922d-52ef-49c8-a431-b42f5f220d72"},"vehicle_type_id":"4","last_reported":1758892828,"current_range_meters":14400,"station_id":"ce4bhn92rcd13ifvqgsg","pricing_plan_id":"cebpf4jnsgd1na2vs0mg"},{"bike_id":"9a4f92ed-e086-4038-a651-bbe0613f80bd","system_id":"levelo_inurba_marseille","lat":43.22572,"lon":5.41623,"is_reserved":false,"is_disabled":false,"rental_uris":{"android":"levelo://app?vid=9a4f92ed-e086-4038-a651-bbe0613f80bd","ios":"levelo://app?vid=9a4f92ed-e086-4038-a651-bbe0613f80bd"},"vehicle_type_id":"4","last_reported":1758892828,"current_range_meters":14400,"station_id":"st_d2o4gvlbi1j2169b742g","pricing_plan_id":"cebpf4jnsgd1na2vs0mg"},{"bike_id":"e4109886-64c1-4274-ba4f-ca443aaa4d82","system_id":"levelo_inurba_marseille","lat":43.24992,"lon":5.38942,"is_reserved":false,"is_disabled":false,"rental_uris":{"android":"levelo://app?vid=e4109886-64c1-4274-ba4f-ca443aaa4d82","ios":"levelo://app?vid=e4109886-64c1-4274-ba4f-ca443aaa4d82"},"vehicle_type_id":"4","last_reported":1758892828,"current_range_meters":14400,"station_id":"ce4bhgp2rcd13ifvqfd0","pricing_plan_id":"cebpf4jnsgd1na2vs0mg"},{"bike_id":"5b785971-eda6-402c-8c25-cddbda415c9d","system_id":"levelo_inurba_marseille","lat":43.33621,"lon":5.41026,"is_reserved":false,"is_disabled":false,"rental_uris":{"android":"levelo://app?vid=5b785971-eda6-402c-8c25-cddbda415c9d","ios":"levelo://app?vid=5b785971-eda6-402c-8c25-cddbda415c9d"},"vehicle_type_id":"4","last_reported":1758892828,"current_range_meters":14400,"station_id":"ce4bhqh2rcd13ifvqhmg","pricing_plan_id":"cebpf4jnsgd1na2vs0mg"},{"bike_id":"63464b8b-a8cc-4282-b21e-415e0ff5ab2a","system_id":"levelo_inurba_marseille","lat":43.2846,"lon":5.35893,"is_reserved":false,"is_disabled":false,"rental_uris":{"android":"levelo://app?vid=63464b8b-a8cc-4282-b21e-415e0ff5ab2a","ios":"levelo://app?vid=63464b8b-a8cc-4282-b21e-415e0ff5ab2a"},"vehicle_type_id":"4","last_reported":1758892828,"current_range_meters":14400,"station_id":"ce4bhah2rcd13ifvqei0","pricing_plan_id":"cebpf4jnsgd1na2vs0mg"},{"bike_id":"467b4306-5fd8-484e-9a4b-cf8eb50151ba","system_id":"levelo_inurba_marseille","lat":43.32299,"lon":5.38272,"is_reserved":false,"is_disabled":false,"rental_uris":{"android":"levelo://app?vid=467b4306-5fd8-484e-9a4b-cf8eb50151ba","ios":"levelo://app?vid=467b4306-5fd8-484e-9a4b-cf8eb50151ba"},"vehicle_type_id":"4","last_reported":1758892828,"current_range_meters":14800,"station_id":"ce4bhr12rcd13ifvqhqg","pricing_plan_id":"cebpf4jnsgd1na2vs0mg"},{"bike_id":"fd18a301-a9dd-4600-afce-c6b935fa8b40","system_id":"levelo_inurba_marseille","lat":43.26205,"lon":5.37453,"is_reserved":false,"is_disabled":false,"rental_uris":{"android":"levelo://app?vid=fd18a301-a9dd-4600-afce-c6b935fa8b40","ios":"levelo://app?vid=fd18a301-a9dd-4600-afce-c6b935fa8b40"},"vehicle_type_id":"4","last_reported":1758892828,"current_range_meters":14800,"station_id":"ce4bhgp2rcd13ifvqfc0","pricing_plan_id":"cebpf4jnsgd1na2vs0mg"},{"bike_id":"f88f8175-05dd-494e-b768-5ffb25015519","system_id":"levelo_inurba_marseille","lat":43.21192,"lon":5.35066,"is_reserved":false,"is_disabled":false,"rental_uris":{"android":"levelo://app?vid=f88f8175-05dd-494e-b768-5ffb25015519","ios":"levelo://app?vid=f88f8175-05dd-494e-b768-5ffb25015519"},"vehicle_type_id":"4","last_reported":1758892828,"current_range_meters":14800,"station_id":"st_cvj6sg6p6f1abm77japg","pricing_plan_id":"cebpf4jnsgd1na2vs0mg"},{"bike_id":"4407f0c7-f8f2-44c4-b16c-74d5984e3278","system_id":"levelo_inurba_marseille","lat":43.255817,"lon":5.38229,"is_reserved":false,"is_disabled":true,"rental_uris":{"android":"levelo://app?vid=4407f0c7-f8f2-44c4-b16c-74d5984e3278","ios":"levelo://app?vid=4407f0c7-f8f2-44c4-b16c-74d5984e3278"},"vehicle_type_id":"4","last_reported":1758892828,"current_range_meters":14800,"station_id":"ce4bhih2rcd13ifvqfs0","pricing_plan_id":"cebpf4jnsgd1na2vs0mg"},{"bike_id":"01b3a0cd-ff63-420e-a773-2a40be6d1ff1","system_id":"levelo_inurba_marseille","lat":43.30252,"lon":5.40055,"is_reserved":false,"is_disabled":false,"rental_uris":{"android":"levelo://app?vid=01b3a0cd-ff63-420e-a773-2a40be6d1ff1","ios":"levelo://app?vid=01b3a0cd-ff63-420e-a773-2a40be6d1ff1"},"vehicle_type_id":"4","last_reported":1758892828,"current_range_meters":14400,"station_id":"ce4bgvh2rcd13ifvqcs0","pricing_plan_id":"cebpf4jnsgd1na2vs0mg"},{"bike_id":"64ee13db-2355-4146-a2f2-432856fdb7e9","system_id":"levelo_inurba_marseille","lat":43.23064,"lon":5.35482,"is_reserved":false,"is_disabled":false,"rental_uris":{"android":"levelo://app?vid=64ee13db-2355-4146-a2f2-432856fdb7e9","ios":"levelo://app?vid=64ee13db-2355-4146-a2f2-432856fdb7e9"},"vehicle_type_id":"4","last_reported":1758892828,"current_range_meters":14800,"station_id":"cpo3342slgdg3j2ifvpg","pricing_plan_id":"cebpf4jnsgd1na2vs0mg"},{"bike_id":"9c6fdaba-29b1-4850-a090-7840bdd73847","system_id":"levelo_inurba_marseille","lat":43.23194,"lon":5.35551,"is_reserved":false,"is_disabled":false,"rental_uris":{"android":"levelo://app?vid=9c6fdaba-29b1-4850-a090-7840bdd73847","ios":"levelo://app?vid=9c6fdaba-29b1-4850-a090-7840bdd73847"},"vehicle_type_id":"4","last_reported":1758892828,"current_range_meters":14800,"station_id":"ce4bhu92rcd13ifvqi70","pricing_plan_id":"cebpf4jnsgd1na2vs0mg"},{"bike_id":"69e4afe8-96ae-486b-ac9a-70833bdf56d3","system_id":"levelo_inurba_marseille","lat":43.22931,"lon":5.35384,"is_reserved":false,"is_disabled":false,"rental_uris":{"android":"levelo://app?vid=69e4afe8-96ae-486b-ac9a-70833bdf56d3","ios":"levelo://app?vid=69e4afe8-96ae-486b-ac9a-70833bdf56d3"},"vehicle_type_id":"4","last_reported":1758892828,"current_range_meters":15200,"station_id":"cpo3532slgdg3j2ikp40","pricing_plan_id":"cebpf4jnsgd1na2vs0mg"},{"bike_id":"d3773891-5bcb-4fee-9c03-2a49d150d1e9","system_id":"levelo_inurba_marseille","lat":43.27994,"lon":5.41666,"is_reserved":false,"is_disabled":false,"rental_uris":{"android":"levelo://app?vid=d3773891-5bcb-4fee-9c03-2a49d150d1e9","ios":"levelo://app?vid=d3773891-5bcb-4fee-9c03-2a49d150d1e9"},"vehicle_type_id":"4","last_reported":1758892828,"current_range_meters":15200,"station_id":"ce4bho12rcd13ifvqh1g","pricing_plan_id":"cebpf4jnsgd1na2vs0mg"},{"bike_id":"8a9f3e35-5321-41fe-a408-321ef2d29638","system_id":"levelo_inurba_marseille","lat":43.299794,"lon":5.371784,"is_reserved":false,"is_disabled":false,"rental_uris":{"android":"levelo://app?vid=8a9f3e35-5321-41fe-a408-321ef2d29638","ios":"levelo://app?vid=8a9f3e35-5321-41fe-a408-321ef2d29638"},"vehicle_type_id":"4","last_reported":1758892828,"current_range_meters":15200,"station_id":"ce4bgr92rcd13ifvqc7g","pricing_plan_id":"cebpf4jnsgd1na2vs0mg"},{"bike_id":"92bd6db3-f643-470b-b75c-ba3c5abe4b01","system_id":"levelo_inurba_marseille","lat":43.29982,"lon":5.37177,"is_reserved":false,"is_disabled":false,"rental_uris":{"android":"levelo://app?vid=92bd6db3-f643-470b-b75c-ba3c5abe4b01","ios":"levelo://app?vid=92bd6db3-f643-470b-b75c-ba3c5abe4b01"},"vehicle_type_id":"4","last_reported":1758892828,"current_range_meters":14800,"station_id":"ce4bgr92rcd13ifvqc7g","pricing_plan_id":"cebpf4jnsgd1na2vs0mg"},{"bike_id":"0064974e-02bb-40bc-8149-ba249ea4de7d","system_id":"levelo_inurba_marseille","lat":43.30513,"lon":5.36518,"is_reserved":false,"is_disabled":false,"rental_uris":{"android":"levelo://app?vid=0064974e-02bb-40bc-8149-ba249ea4de7d","ios":"levelo://app?vid=0064974e-02bb-40bc-8149-ba249ea4de7d"},"vehicle_type_id":"4","last_reported":1758892828,"current_range_meters":15200,"station_id":"ce4bgs12rcd13ifvqcag","pricing_plan_id":"cebpf4jnsgd1na2vs0mg"},{"bike_id":"bdf98283-e040-4f5f-94a3-6c902d369273","system_id":"levelo_inurba_marseille","lat":43.297058,"lon":5.376816,"is_reserved":false,"is_disabled":true,"rental_uris":{"android":"levelo://app?vid=bdf98283-e040-4f5f-94a3-6c902d369273","ios":"levelo://app?vid=bdf98283-e040-4f5f-94a3-6c902d369273"},"vehicle_type_id":"4","last_reported":1758892828,"current_range_meters":15200,"station_id":"ce4bgkh2rcd13ifvqbl0","pricing_plan_id":"cebpf4jnsgd1na2vs0mg"},{"bike_id":"f626f457-0696-4e32-af9e-687030f53c6d","system_id":"levelo_inurba_marseille","lat":43.3376,"lon":5.374707,"is_reserved":false,"is_disabled":false,"rental_uris":{"android":"levelo://app?vid=f626f457-0696-4e32-af9e-687030f53c6d","ios":"levelo://app?vid=f626f457-0696-4e32-af9e-687030f53c6d"},"vehicle_type_id":"4","last_reported":1758892828,"current_range_meters":15200,"station_id":"","pricing_plan_id":"cebpf4jnsgd1na2vs0mg"},{"bike_id":"d797771b-18c2-46d0-8f08-8f540e16b982","system_id":"levelo_inurba_marseille","lat":43.24382,"lon":5.37062,"is_reserved":false,"is_disabled":false,"rental_uris":{"android":"levelo://app?vid=d797771b-18c2-46d0-8f08-8f540e16b982","ios":"levelo://app?vid=d797771b-18c2-46d0-8f08-8f540e16b982"},"vehicle_type_id":"4","last_reported":1758892828,"current_range_meters":15200,"station_id":"ce4bhhh2rcd13ifvqfk0","pricing_plan_id":"cebpf4jnsgd1na2vs0mg"},{"bike_id":"53149b9a-b2e9-40e5-92f6-198650587385","system_id":"levelo_inurba_marseille","lat":43.30781,"lon":5.3764,"is_reserved":false,"is_disabled":false,"rental_uris":{"android":"levelo://app?vid=53149b9a-b2e9-40e5-92f6-198650587385","ios":"levelo://app?vid=53149b9a-b2e9-40e5-92f6-198650587385"},"vehicle_type_id":"4","last_reported":1758892828,"current_range_meters":15200,"station_id":"ce4bgv92rcd13ifvqcq0","pricing_plan_id":"cebpf4jnsgd1na2vs0mg"},{"bike_id":"fee74e98-eb52-4f66-a612-109c75f34aa6","system_id":"levelo_inurba_marseille","lat":43.29599,"lon":5.37948,"is_reserved":false,"is_disabled":false,"rental_uris":{"android":"levelo://app?vid=fee74e98-eb52-4f66-a612-109c75f34aa6","ios":"levelo://app?vid=fee74e98-eb52-4f66-a612-109c75f34aa6"},"vehicle_type_id":"4","last_reported":1758892828,"current_range_meters":15200,"station_id":"","pricing_plan_id":"cebpf4jnsgd1na2vs0mg"},{"bike_id":"0d141c37-e392-454f-8234-05f8795fe938","system_id":"levelo_inurba_marseille","lat":43.318883,"lon":5.407358,"is_reserved":false,"is_disabled":false,"rental_uris":{"android":"levelo://app?vid=0d141c37-e392-454f-8234-05f8795fe938","ios":"levelo://app?vid=0d141c37-e392-454f-8234-05f8795fe938"},"vehicle_type_id":"4","last_reported":1758892828,"current_range_meters":15200,"station_id":"ce4bhq12rcd13ifvqhig","pricing_plan_id":"cebpf4jnsgd1na2vs0mg"},{"bike_id":"c75f3560-cfc1-4d1c-b4cc-8a24832dddf4","system_id":"levelo_inurba_marseille","lat":43.33608,"lon":5.4103,"is_reserved":false,"is_disabled":false,"rental_uris":{"android":"levelo://app?vid=c75f3560-cfc1-4d1c-b4cc-8a24832dddf4","ios":"levelo://app?vid=c75f3560-cfc1-4d1c-b4cc-8a24832dddf4"},"vehicle_type_id":"4","last_reported":1758892828,"current_range_meters":16000,"station_id":"ce4bhqh2rcd13ifvqhmg","pricing_plan_id":"cebpf4jnsgd1na2vs0mg"},{"bike_id":"2a416e7a-1803-402e-9523-74bfe690bd54","system_id":"levelo_inurba_marseille","lat":43.32365,"lon":5.36767,"is_reserved":false,"is_disabled":false,"rental_uris":{"android":"levelo://app?vid=2a416e7a-1803-402e-9523-74bfe690bd54","ios":"levelo://app?vid=2a416e7a-1803-402e-9523-74bfe690bd54"},"vehicle_type_id":"4","last_reported":1758892828,"current_range_meters":15200,"station_id":"ce4bhsh2rcd13ifvqi2g","pricing_plan_id":"cebpf4jnsgd1na2vs0mg"},{"bike_id":"1c4c4361-e2c2-4e24-bed8-29f2c83d502f","system_id":"levelo_inurba_marseille","lat":43.32476,"lon":5.36574,"is_reserved":false,"is_disabled":false,"rental_uris":{"android":"levelo://app?vid=1c4c4361-e2c2-4e24-bed8-29f2c83d502f","ios":"levelo://app?vid=1c4c4361-e2c2-4e24-bed8-29f2c83d502f"},"vehicle_type_id":"4","last_reported":1758892828,"current_range_meters":16000,"station_id":"ce4bhs12rcd13ifvqhvg","pricing_plan_id":"cebpf4jnsgd1na2vs0mg"},{"bike_id":"09ed5c47-fd80-47ea-871a-c48c4276df93","system_id":"levelo_inurba_marseille","lat":43.29871,"lon":5.39734,"is_reserved":false,"is_disabled":false,"rental_uris":{"android":"levelo://app?vid=09ed5c47-fd80-47ea-871a-c48c4276df93","ios":"levelo://app?vid=09ed5c47-fd80-47ea-871a-c48c4276df93"},"vehicle_type_id":"4","last_reported":1758892828,"current_range_meters":16000,"station_id":"ce4bh0h2rcd13ifvqd50","pricing_plan_id":"cebpf4jnsgd1na2vs0mg"},{"bike_id":"15b8abb9-1b82-439d-bef4-2444276aa7c3","system_id":"levelo_inurba_marseille","lat":43.31066,"lon":5.38343,"is_reserved":false,"is_disabled":true,"rental_uris":{"android":"levelo://app?vid=15b8abb9-1b82-439d-bef4-2444276aa7c3","ios":"levelo://app?vid=15b8abb9-1b82-439d-bef4-2444276aa7c3"},"vehicle_type_id":"4","last_reported":1758892828,"current_range_meters":16000,"station_id":"ce4bgv92rcd13ifvqcr0","pricing_plan_id":"cebpf4jnsgd1na2vs0mg"},{"bike_id":"63d52c35-c9c9-44eb-9780-1b2f9145123b","system_id":"levelo_inurba_marseille","lat":43.29627,"lon":5.377037,"is_reserved":false,"is_disabled":false,"rental_uris":{"android":"levelo://app?vid=63d52c35-c9c9-44eb-9780-1b2f9145123b","ios":"levelo://app?vid=63d52c35-c9c9-44eb-9780-1b2f9145123b"},"vehicle_type_id":"4","last_reported":1758892828,"current_range_meters":16000,"station_id":"","pricing_plan_id":"cebpf4jnsgd1na2vs0mg"},{"bike_id":"21147e85-29a3-4c9f-8feb-bbd6cc7b16ae","system_id":"levelo_inurba_marseille","lat":43.31997,"lon":5.38152,"is_reserved":false,"is_disabled":false,"rental_uris":{"android":"levelo://app?vid=21147e85-29a3-4c9f-8feb-bbd6cc7b16ae","ios":"levelo://app?vid=21147e85-29a3-4c9f-8feb-bbd6cc7b16ae"},"vehicle_type_id":"4","last_reported":1758892828,"current_range_meters":16000,"station_id":"ce4bhr12rcd13ifvqhpg","pricing_plan_id":"cebpf4jnsgd1na2vs0mg"},{"bike_id":"85782661-163d-4a8b-b5a4-1f0a766faaa2","system_id":"levelo_inurba_marseille","lat":43.24626,"lon":5.43155,"is_reserved":false,"is_disabled":false,"rental_uris":{"android":"levelo://app?vid=85782661-163d-4a8b-b5a4-1f0a766faaa2","ios":"levelo://app?vid=85782661-163d-4a8b-b5a4-1f0a766faaa2"},"vehicle_type_id":"4","last_reported":1758892828,"current_range_meters":16000,"station_id":"st_d2m6c4gdas8pm72e190g","pricing_plan_id":"cebpf4jnsgd1na2vs0mg"},{"bike_id":"b5b3cf7c-3cd2-468e-81f0-a3cad12404e6","system_id":"levelo_inurba_marseille","lat":43.25956,"lon":5.40902,"is_reserved":false,"is_disabled":false,"rental_uris":{"android":"levelo://app?vid=b5b3cf7c-3cd2-468e-81f0-a3cad12404e6","ios":"levelo://app?vid=b5b3cf7c-3cd2-468e-81f0-a3cad12404e6"},"vehicle_type_id":"4","last_reported":1758892828,"current_range_meters":16000,"station_id":"ce4bhm92rcd13ifvqglg","pricing_plan_id":"cebpf4jnsgd1na2vs0mg"},{"bike_id":"9bb4db31-0bf9-4171-bca1-76cb045f53a3","system_id":"levelo_inurba_marseille","lat":43.26924,"lon":5.389081,"is_reserved":false,"is_disabled":true,"rental_uris":{"android":"levelo://app?vid=9bb4db31-0bf9-4171-bca1-76cb045f53a3","ios":"levelo://app?vid=9bb4db31-0bf9-4171-bca1-76cb045f53a3"},"vehicle_type_id":"4","last_reported":1758892828,"current_range_meters":16000,"station_id":"ce4bhhh2rcd13ifvqfl0","pricing_plan_id":"cebpf4jnsgd1na2vs0mg"},{"bike_id":"e438f743-9525-44aa-8cda-c8be3486e464","system_id":"levelo_inurba_marseille","lat":43.336,"lon":5.41033,"is_reserved":false,"is_disabled":false,"rental_uris":{"android":"levelo://app?vid=e438f743-9525-44aa-8cda-c8be3486e464","ios":"levelo://app?vid=e438f743-9525-44aa-8cda-c8be3486e464"},"vehicle_type_id":"4","last_reported":1758892828,"current_range_meters":16000,"station_id":"ce4bhqh2rcd13ifvqhmg","pricing_plan_id":"cebpf4jnsgd1na2vs0mg"},{"bike_id":"01bf55f2-4ac6-46f6-8504-3267bf31e1a6","system_id":"levelo_inurba_marseille","lat":43.2973,"lon":5.381787,"is_reserved":false,"is_disabled":false,"rental_uris":{"android":"levelo://app?vid=01bf55f2-4ac6-46f6-8504-3267bf31e1a6","ios":"levelo://app?vid=01bf55f2-4ac6-46f6-8504-3267bf31e1a6"},"vehicle_type_id":"4","last_reported":1758892828,"current_range_meters":16000,"station_id":"","pricing_plan_id":"cebpf4jnsgd1na2vs0mg"},{"bike_id":"c91aa95c-ae83-4f8a-bef3-89f188e39bfa","system_id":"levelo_inurba_marseille","lat":43.22565,"lon":5.4163,"is_reserved":false,"is_disabled":false,"rental_uris":{"android":"levelo://app?vid=c91aa95c-ae83-4f8a-bef3-89f188e39bfa","ios":"levelo://app?vid=c91aa95c-ae83-4f8a-bef3-89f188e39bfa"},"vehicle_type_id":"4","last_reported":1758892828,"current_range_meters":16000,"station_id":"st_d2o4gvlbi1j2169b742g","pricing_plan_id":"cebpf4jnsgd1na2vs0mg"},{"bike_id":"3652de56-c611-41c6-aa03-7fef6136da9d","system_id":"levelo_inurba_marseille","lat":43.25004,"lon":5.38934,"is_reserved":false,"is_disabled":false,"rental_uris":{"android":"levelo://app?vid=3652de56-c611-41c6-aa03-7fef6136da9d","ios":"levelo://app?vid=3652de56-c611-41c6-aa03-7fef6136da9d"},"vehicle_type_id":"4","last_reported":1758892828,"current_range_meters":16400,"station_id":"ce4bhgp2rcd13ifvqfd0","pricing_plan_id":"cebpf4jnsgd1na2vs0mg"},{"bike_id":"4f0076de-6213-44bd-b240-3c89f2086722","system_id":"levelo_inurba_marseille","lat":43.23148,"lon":5.4372,"is_reserved":false,"is_disabled":false,"rental_uris":{"android":"levelo://app?vid=4f0076de-6213-44bd-b240-3c89f2086722","ios":"levelo://app?vid=4f0076de-6213-44bd-b240-3c89f2086722"},"vehicle_type_id":"4","last_reported":1758892828,"current_range_meters":16400,"station_id":"ce4bhmp2rcd13ifvqgog","pricing_plan_id":"cebpf4jnsgd1na2vs0mg"},{"bike_id":"3cca746f-fac4-450b-bb9c-94a2c2908362","system_id":"levelo_inurba_marseille","lat":43.29,"lon":5.37831,"is_reserved":false,"is_disabled":false,"rental_uris":{"android":"levelo://app?vid=3cca746f-fac4-450b-bb9c-94a2c2908362","ios":"levelo://app?vid=3cca746f-fac4-450b-bb9c-94a2c2908362"},"vehicle_type_id":"4","last_reported":1758892828,"current_range_meters":16400,"station_id":"ce4bh9p2rcd13ifvqed0","pricing_plan_id":"cebpf4jnsgd1na2vs0mg"},{"bike_id":"f6ce2558-6ff7-404a-9244-750d7ddcae29","system_id":"levelo_inurba_marseille","lat":43.30155,"lon":5.38087,"is_reserved":false,"is_disabled":false,"rental_uris":{"android":"levelo://app?vid=f6ce2558-6ff7-404a-9244-750d7ddcae29","ios":"levelo://app?vid=f6ce2558-6ff7-404a-9244-750d7ddcae29"},"vehicle_type_id":"4","last_reported":1758892828,"current_range_meters":16400,"station_id":"ce4bgjp2rcd13ifvqbh0","pricing_plan_id":"cebpf4jnsgd1na2vs0mg"},{"bike_id":"ce73786b-8784-49ed-9455-b8629dcc4347","system_id":"levelo_inurba_marseille","lat":43.231587,"lon":5.437146,"is_reserved":false,"is_disabled":false,"rental_uris":{"android":"levelo://app?vid=ce73786b-8784-49ed-9455-b8629dcc4347","ios":"levelo://app?vid=ce73786b-8784-49ed-9455-b8629dcc4347"},"vehicle_type_id":"4","last_reported":1758892828,"current_range_meters":16400,"station_id":"ce4bhmp2rcd13ifvqgog","pricing_plan_id":"cebpf4jnsgd1na2vs0mg"},{"bike_id":"e9965d7f-c60b-4fbd-96cd-93282f8867aa","system_id":"levelo_inurba_marseille","lat":43.25338,"lon":5.42173,"is_reserved":false,"is_disabled":false,"rental_uris":{"android":"levelo://app?vid=e9965d7f-c60b-4fbd-96cd-93282f8867aa","ios":"levelo://app?vid=e9965d7f-c60b-4fbd-96cd-93282f8867aa"},"vehicle_type_id":"4","last_reported":1758892828,"current_range_meters":16400,"station_id":"st_d2m65c5bi1j21697t3ng","pricing_plan_id":"cebpf4jnsgd1na2vs0mg"},{"bike_id":"41fbe864-b9c2-4b8a-a22b-e40ee788b52e","system_id":"levelo_inurba_marseille","lat":43.25084,"lon":5.39503,"is_reserved":false,"is_disabled":false,"rental_uris":{"android":"levelo://app?vid=41fbe864-b9c2-4b8a-a22b-e40ee788b52e","ios":"levelo://app?vid=41fbe864-b9c2-4b8a-a22b-e40ee788b52e"},"vehicle_type_id":"4","last_reported":1758892828,"current_range_meters":16400,"station_id":"ce4bhm12rcd13ifvqgkg","pricing_plan_id":"cebpf4jnsgd1na2vs0mg"},{"bike_id":"7e2bb8bb-5002-4cd7-a40d-147456bd24a6","system_id":"levelo_inurba_marseille","lat":43.29724,"lon":5.37693,"is_reserved":false,"is_disabled":false,"rental_uris":{"android":"levelo://app?vid=7e2bb8bb-5002-4cd7-a40d-147456bd24a6","ios":"levelo://app?vid=7e2bb8bb-5002-4cd7-a40d-147456bd24a6"},"vehicle_type_id":"4","last_reported":1758892828,"current_range_meters":16400,"station_id":"ce4bgkh2rcd13ifvqbl0","pricing_plan_id":"cebpf4jnsgd1na2vs0mg"},{"bike_id":"175ed984-4779-4b98-920a-039ca300eaa4","system_id":"levelo_inurba_marseille","lat":43.27283,"lon":5.40803,"is_reserved":false,"is_disabled":false,"rental_uris":{"android":"levelo://app?vid=175ed984-4779-4b98-920a-039ca300eaa4","ios":"levelo://app?vid=175ed984-4779-4b98-920a-039ca300eaa4"},"vehicle_type_id":"4","last_reported":1758892828,"current_range_meters":16800,"station_id":"","pricing_plan_id":"cebpf4jnsgd1na2vs0mg"},{"bike_id":"2662f6c4-a1ee-4b68-912c-8081764fade3","system_id":"levelo_inurba_marseille","lat":43.28664,"lon":5.36354,"is_reserved":false,"is_disabled":false,"rental_uris":{"android":"levelo://app?vid=2662f6c4-a1ee-4b68-912c-8081764fade3","ios":"levelo://app?vid=2662f6c4-a1ee-4b68-912c-8081764fade3"},"vehicle_type_id":"4","last_reported":1758892828,"current_range_meters":16800,"station_id":"ce4bhah2rcd13ifvqej0","pricing_plan_id":"cebpf4jnsgd1na2vs0mg"},{"bike_id":"7f7c18ad-2aef-4731-977f-1de73d3d9bba","system_id":"levelo_inurba_marseille","lat":43.27373,"lon":5.36259,"is_reserved":false,"is_disabled":false,"rental_uris":{"android":"levelo://app?vid=7f7c18ad-2aef-4731-977f-1de73d3d9bba","ios":"levelo://app?vid=7f7c18ad-2aef-4731-977f-1de73d3d9bba"},"vehicle_type_id":"4","last_reported":1758892828,"current_range_meters":16800,"station_id":"ce4bhbh2rcd13ifvqeo0","pricing_plan_id":"cebpf4jnsgd1na2vs0mg"},{"bike_id":"a6187c30-1c11-4309-be70-335b3ca8c646","system_id":"levelo_inurba_marseille","lat":43.21194,"lon":5.35072,"is_reserved":false,"is_disabled":false,"rental_uris":{"android":"levelo://app?vid=a6187c30-1c11-4309-be70-335b3ca8c646","ios":"levelo://app?vid=a6187c30-1c11-4309-be70-335b3ca8c646"},"vehicle_type_id":"4","last_reported":1758892828,"current_range_meters":16800,"station_id":"","pricing_plan_id":"cebpf4jnsgd1na2vs0mg"},{"bike_id":"aadc9511-a4d9-4aec-95b0-6640600900b1","system_id":"levelo_inurba_marseille","lat":43.28414,"lon":5.34975,"is_reserved":false,"is_disabled":false,"rental_uris":{"android":"levelo://app?vid=aadc9511-a4d9-4aec-95b0-6640600900b1","ios":"levelo://app?vid=aadc9511-a4d9-4aec-95b0-6640600900b1"},"vehicle_type_id":"4","last_reported":1758892828,"current_range_meters":16800,"station_id":"ce4bhbh2rcd13ifvqepg","pricing_plan_id":"cebpf4jnsgd1na2vs0mg"},{"bike_id":"f7d02cdd-1af8-489d-84e6-2169828dbac6","system_id":"levelo_inurba_marseille","lat":43.30543,"lon":5.36715,"is_reserved":false,"is_disabled":false,"rental_uris":{"android":"levelo://app?vid=f7d02cdd-1af8-489d-84e6-2169828dbac6","ios":"levelo://app?vid=f7d02cdd-1af8-489d-84e6-2169828dbac6"},"vehicle_type_id":"4","last_reported":1758892828,"current_range_meters":16800,"station_id":"ce4bgrp2rcd13ifvqc9g","pricing_plan_id":"cebpf4jnsgd1na2vs0mg"},{"bike_id":"66d7338f-5df2-47d3-9ca4-acf9a7aae8f8","system_id":"levelo_inurba_marseille","lat":43.3361,"lon":5.41014,"is_reserved":false,"is_disabled":false,"rental_uris":{"android":"levelo://app?vid=66d7338f-5df2-47d3-9ca4-acf9a7aae8f8","ios":"levelo://app?vid=66d7338f-5df2-47d3-9ca4-acf9a7aae8f8"},"vehicle_type_id":"4","last_reported":1758892828,"current_range_meters":16800,"station_id":"ce4bhqh2rcd13ifvqhmg","pricing_plan_id":"cebpf4jnsgd1na2vs0mg"},{"bike_id":"2f91b6fe-f0d2-4b04-b61f-3d19c69db796","system_id":"levelo_inurba_marseille","lat":43.31273,"lon":5.40171,"is_reserved":false,"is_disabled":false,"rental_uris":{"android":"levelo://app?vid=2f91b6fe-f0d2-4b04-b61f-3d19c69db796","ios":"levelo://app?vid=2f91b6fe-f0d2-4b04-b61f-3d19c69db796"},"vehicle_type_id":"4","last_reported":1758892828,"current_range_meters":16800,"station_id":"ce4bh092rcd13ifvqd30","pricing_plan_id":"cebpf4jnsgd1na2vs0mg"},{"bike_id":"ecde7416-5159-40e4-a639-87c55fad7fd9","system_id":"levelo_inurba_marseille","lat":43.23153,"lon":5.43676,"is_reserved":false,"is_disabled":false,"rental_uris":{"android":"levelo://app?vid=ecde7416-5159-40e4-a639-87c55fad7fd9","ios":"levelo://app?vid=ecde7416-5159-40e4-a639-87c55fad7fd9"},"vehicle_type_id":"4","last_reported":1758892828,"current_range_meters":16800,"station_id":"ce4bhmp2rcd13ifvqgog","pricing_plan_id":"cebpf4jnsgd1na2vs0mg"},{"bike_id":"052c59a7-1cc4-4bbc-97f5-180981a63118","system_id":"levelo_inurba_marseille","lat":43.2463,"lon":5.43151,"is_reserved":false,"is_disabled":false,"rental_uris":{"android":"levelo://app?vid=052c59a7-1cc4-4bbc-97f5-180981a63118","ios":"levelo://app?vid=052c59a7-1cc4-4bbc-97f5-180981a63118"},"vehicle_type_id":"4","last_reported":1758892828,"current_range_meters":16800,"station_id":"st_d2m6c4gdas8pm72e190g","pricing_plan_id":"cebpf4jnsgd1na2vs0mg"},{"bike_id":"fdb904a9-f09a-416c-90b8-5a9177c0db72","system_id":"levelo_inurba_marseille","lat":43.30139,"lon":5.38077,"is_reserved":false,"is_disabled":false,"rental_uris":{"android":"levelo://app?vid=fdb904a9-f09a-416c-90b8-5a9177c0db72","ios":"levelo://app?vid=fdb904a9-f09a-416c-90b8-5a9177c0db72"},"vehicle_type_id":"4","last_reported":1758892828,"current_range_meters":16800,"station_id":"ce4bgjp2rcd13ifvqbh0","pricing_plan_id":"cebpf4jnsgd1na2vs0mg"},{"bike_id":"ee925a9c-c600-454e-8837-0da5956fd25f","system_id":"levelo_inurba_marseille","lat":43.22951,"lon":5.35351,"is_reserved":false,"is_disabled":false,"rental_uris":{"android":"levelo://app?vid=ee925a9c-c600-454e-8837-0da5956fd25f","ios":"levelo://app?vid=ee925a9c-c600-454e-8837-0da5956fd25f"},"vehicle_type_id":"4","last_reported":1758892828,"current_range_meters":16800,"station_id":"cpo3532slgdg3j2ikp40","pricing_plan_id":"cebpf4jnsgd1na2vs0mg"},{"bike_id":"8cf842e4-76c1-4a82-ad31-66529da65dba","system_id":"levelo_inurba_marseille","lat":43.267004,"lon":5.402133,"is_reserved":false,"is_disabled":false,"rental_uris":{"android":"levelo://app?vid=8cf842e4-76c1-4a82-ad31-66529da65dba","ios":"levelo://app?vid=8cf842e4-76c1-4a82-ad31-66529da65dba"},"vehicle_type_id":"4","last_reported":1758892828,"current_range_meters":17200,"station_id":"","pricing_plan_id":"cebpf4jnsgd1na2vs0mg"},{"bike_id":"ff80ace9-5bb1-4400-92db-811f67417271","system_id":"levelo_inurba_marseille","lat":43.24955,"lon":5.40482,"is_reserved":false,"is_disabled":false,"rental_uris":{"android":"levelo://app?vid=ff80ace9-5bb1-4400-92db-811f67417271","ios":"levelo://app?vid=ff80ace9-5bb1-4400-92db-811f67417271"},"vehicle_type_id":"4","last_reported":1758892828,"current_range_meters":17200,"station_id":"st_d2ngiaodas8pm72gd1h0","pricing_plan_id":"cebpf4jnsgd1na2vs0mg"},{"bike_id":"934ea1ec-b7f6-49a1-9efa-287317d4eb22","system_id":"levelo_inurba_marseille","lat":43.29048,"lon":5.35914,"is_reserved":false,"is_disabled":false,"rental_uris":{"android":"levelo://app?vid=934ea1ec-b7f6-49a1-9efa-287317d4eb22","ios":"levelo://app?vid=934ea1ec-b7f6-49a1-9efa-287317d4eb22"},"vehicle_type_id":"4","last_reported":1758892828,"current_range_meters":17200,"station_id":"","pricing_plan_id":"cebpf4jnsgd1na2vs0mg"},{"bike_id":"125d05fd-36c5-4136-8dc6-de35773b79e7","system_id":"levelo_inurba_marseille","lat":43.27376,"lon":5.36252,"is_reserved":false,"is_disabled":false,"rental_uris":{"android":"levelo://app?vid=125d05fd-36c5-4136-8dc6-de35773b79e7","ios":"levelo://app?vid=125d05fd-36c5-4136-8dc6-de35773b79e7"},"vehicle_type_id":"4","last_reported":1758892828,"current_range_meters":17200,"station_id":"ce4bhbh2rcd13ifvqeo0","pricing_plan_id":"cebpf4jnsgd1na2vs0mg"},{"bike_id":"a30e7c7e-712a-493d-a355-25a532f135f0","system_id":"levelo_inurba_marseille","lat":43.30782,"lon":5.37656,"is_reserved":false,"is_disabled":false,"rental_uris":{"android":"levelo://app?vid=a30e7c7e-712a-493d-a355-25a532f135f0","ios":"levelo://app?vid=a30e7c7e-712a-493d-a355-25a532f135f0"},"vehicle_type_id":"4","last_reported":1758892828,"current_range_meters":17200,"station_id":"ce4bgv92rcd13ifvqcq0","pricing_plan_id":"cebpf4jnsgd1na2vs0mg"},{"bike_id":"7f249506-fe7f-4ad9-be64-67212f4f10f8","system_id":"levelo_inurba_marseille","lat":43.32475,"lon":5.3655,"is_reserved":false,"is_disabled":false,"rental_uris":{"android":"levelo://app?vid=7f249506-fe7f-4ad9-be64-67212f4f10f8","ios":"levelo://app?vid=7f249506-fe7f-4ad9-be64-67212f4f10f8"},"vehicle_type_id":"4","last_reported":1758892828,"current_range_meters":17200,"station_id":"ce4bhs12rcd13ifvqhvg","pricing_plan_id":"cebpf4jnsgd1na2vs0mg"},{"bike_id":"63c0879c-e69b-4e84-9806-c068fbaee754","system_id":"levelo_inurba_marseille","lat":43.22916,"lon":5.35352,"is_reserved":false,"is_disabled":false,"rental_uris":{"android":"levelo://app?vid=63c0879c-e69b-4e84-9806-c068fbaee754","ios":"levelo://app?vid=63c0879c-e69b-4e84-9806-c068fbaee754"},"vehicle_type_id":"4","last_reported":1758892828,"current_range_meters":17200,"station_id":"cpo3532slgdg3j2ikp40","pricing_plan_id":"cebpf4jnsgd1na2vs0mg"},{"bike_id":"c25b5e58-2bb3-4f67-bb24-f4543df82923","system_id":"levelo_inurba_marseille","lat":43.26061,"lon":5.39399,"is_reserved":false,"is_disabled":false,"rental_uris":{"android":"levelo://app?vid=c25b5e58-2bb3-4f67-bb24-f4543df82923","ios":"levelo://app?vid=c25b5e58-2bb3-4f67-bb24-f4543df82923"},"vehicle_type_id":"4","last_reported":1758892828,"current_range_meters":17200,"station_id":"ce4bhh92rcd13ifvqfj0","pricing_plan_id":"cebpf4jnsgd1na2vs0mg"},{"bike_id":"80bdba63-46f3-4274-b0d9-d9711409b6a8","system_id":"levelo_inurba_marseille","lat":43.270752,"lon":5.402497,"is_reserved":false,"is_disabled":false,"rental_uris":{"android":"levelo://app?vid=80bdba63-46f3-4274-b0d9-d9711409b6a8","ios":"levelo://app?vid=80bdba63-46f3-4274-b0d9-d9711409b6a8"},"vehicle_type_id":"4","last_reported":1758892828,"current_range_meters":17200,"station_id":"","pricing_plan_id":"cebpf4jnsgd1na2vs0mg"},{"bike_id":"589caa8f-c823-470f-8822-ea11b9e28989","system_id":"levelo_inurba_marseille","lat":43.29624,"lon":5.37149,"is_reserved":false,"is_disabled":false,"rental_uris":{"android":"levelo://app?vid=589caa8f-c823-470f-8822-ea11b9e28989","ios":"levelo://app?vid=589caa8f-c823-470f-8822-ea11b9e28989"},"vehicle_type_id":"4","last_reported":1758892828,"current_range_meters":17200,"station_id":"ce4bgnh2rcd13ifvqc0g","pricing_plan_id":"cebpf4jnsgd1na2vs0mg"},{"bike_id":"3a1b0aec-41fe-4fe4-a265-d1a9001d0607","system_id":"levelo_inurba_marseille","lat":43.27979,"lon":5.41587,"is_reserved":false,"is_disabled":false,"rental_uris":{"android":"levelo://app?vid=3a1b0aec-41fe-4fe4-a265-d1a9001d0607","ios":"levelo://app?vid=3a1b0aec-41fe-4fe4-a265-d1a9001d0607"},"vehicle_type_id":"4","last_reported":1758892828,"current_range_meters":17200,"station_id":"","pricing_plan_id":"cebpf4jnsgd1na2vs0mg"},{"bike_id":"90446091-6b57-4d07-9778-ae83816747e4","system_id":"levelo_inurba_marseille","lat":43.31074,"lon":5.38351,"is_reserved":false,"is_disabled":false,"rental_uris":{"android":"levelo://app?vid=90446091-6b57-4d07-9778-ae83816747e4","ios":"levelo://app?vid=90446091-6b57-4d07-9778-ae83816747e4"},"vehicle_type_id":"4","last_reported":1758892828,"current_range_meters":17200,"station_id":"ce4bgv92rcd13ifvqcr0","pricing_plan_id":"cebpf4jnsgd1na2vs0mg"},{"bike_id":"fad47459-1bb5-415f-b3d5-da1b62b6c421","system_id":"levelo_inurba_marseille","lat":43.29675,"lon":5.37284,"is_reserved":false,"is_disabled":false,"rental_uris":{"android":"levelo://app?vid=fad47459-1bb5-415f-b3d5-da1b62b6c421","ios":"levelo://app?vid=fad47459-1bb5-415f-b3d5-da1b62b6c421"},"vehicle_type_id":"4","last_reported":1758892828,"current_range_meters":17200,"station_id":"ce4bgk12rcd13ifvqbj0","pricing_plan_id":"cebpf4jnsgd1na2vs0mg"},{"bike_id":"73c20c43-bc61-43cb-87a1-f9ee0799dd60","system_id":"levelo_inurba_marseille","lat":43.28614,"lon":5.38444,"is_reserved":false,"is_disabled":false,"rental_uris":{"android":"levelo://app?vid=73c20c43-bc61-43cb-87a1-f9ee0799dd60","ios":"levelo://app?vid=73c20c43-bc61-43cb-87a1-f9ee0799dd60"},"vehicle_type_id":"4","last_reported":1758892828,"current_range_meters":17200,"station_id":"","pricing_plan_id":"cebpf4jnsgd1na2vs0mg"},{"bike_id":"82cf85ff-c9bc-4d34-9fba-817448bb3b6c","system_id":"levelo_inurba_marseille","lat":43.279965,"lon":5.416546,"is_reserved":false,"is_disabled":false,"rental_uris":{"android":"levelo://app?vid=82cf85ff-c9bc-4d34-9fba-817448bb3b6c","ios":"levelo://app?vid=82cf85ff-c9bc-4d34-9fba-817448bb3b6c"},"vehicle_type_id":"4","last_reported":1758892828,"current_range_meters":17600,"station_id":"ce4bho12rcd13ifvqh1g","pricing_plan_id":"cebpf4jnsgd1na2vs0mg"},{"bike_id":"7f09bc43-02a6-468a-9182-731c83281b4a","system_id":"levelo_inurba_marseille","lat":43.26358,"lon":5.37501,"is_reserved":false,"is_disabled":false,"rental_uris":{"android":"levelo://app?vid=7f09bc43-02a6-468a-9182-731c83281b4a","ios":"levelo://app?vid=7f09bc43-02a6-468a-9182-731c83281b4a"},"vehicle_type_id":"4","last_reported":1758892828,"current_range_meters":17600,"station_id":"","pricing_plan_id":"cebpf4jnsgd1na2vs0mg"},{"bike_id":"4b875ff3-e176-459e-a55f-218ed0dfcd71","system_id":"levelo_inurba_marseille","lat":43.27376,"lon":5.3625,"is_reserved":false,"is_disabled":false,"rental_uris":{"android":"levelo://app?vid=4b875ff3-e176-459e-a55f-218ed0dfcd71","ios":"levelo://app?vid=4b875ff3-e176-459e-a55f-218ed0dfcd71"},"vehicle_type_id":"4","last_reported":1758892828,"current_range_meters":17600,"station_id":"ce4bhbh2rcd13ifvqeo0","pricing_plan_id":"cebpf4jnsgd1na2vs0mg"},{"bike_id":"e6723372-c2bf-4d45-8833-13df2fdb3454","system_id":"levelo_inurba_marseille","lat":43.29003,"lon":5.3561,"is_reserved":false,"is_disabled":false,"rental_uris":{"android":"levelo://app?vid=e6723372-c2bf-4d45-8833-13df2fdb3454","ios":"levelo://app?vid=e6723372-c2bf-4d45-8833-13df2fdb3454"},"vehicle_type_id":"4","last_reported":1758892828,"current_range_meters":17600,"station_id":"ce4bhb92rcd13ifvqen0","pricing_plan_id":"cebpf4jnsgd1na2vs0mg"},{"bike_id":"371fd6e1-ff4a-4143-98fe-3368993b3f11","system_id":"levelo_inurba_marseille","lat":43.21191,"lon":5.35064,"is_reserved":false,"is_disabled":false,"rental_uris":{"android":"levelo://app?vid=371fd6e1-ff4a-4143-98fe-3368993b3f11","ios":"levelo://app?vid=371fd6e1-ff4a-4143-98fe-3368993b3f11"},"vehicle_type_id":"4","last_reported":1758892828,"current_range_meters":17600,"station_id":"st_cvj6sg6p6f1abm77japg","pricing_plan_id":"cebpf4jnsgd1na2vs0mg"},{"bike_id":"ac9d3204-6075-4372-a1c7-c680ded3bf74","system_id":"levelo_inurba_marseille","lat":43.23148,"lon":5.43695,"is_reserved":false,"is_disabled":false,"rental_uris":{"android":"levelo://app?vid=ac9d3204-6075-4372-a1c7-c680ded3bf74","ios":"levelo://app?vid=ac9d3204-6075-4372-a1c7-c680ded3bf74"},"vehicle_type_id":"4","last_reported":1758892828,"current_range_meters":17600,"station_id":"ce4bhmp2rcd13ifvqgog","pricing_plan_id":"cebpf4jnsgd1na2vs0mg"},{"bike_id":"c3aaf357-dacd-44ee-849c-77627935c404","system_id":"levelo_inurba_marseille","lat":43.31246,"lon":5.36887,"is_reserved":false,"is_disabled":false,"rental_uris":{"android":"levelo://app?vid=c3aaf357-dacd-44ee-849c-77627935c404","ios":"levelo://app?vid=c3aaf357-dacd-44ee-849c-77627935c404"},"vehicle_type_id":"4","last_reported":1758892828,"current_range_meters":18000,"station_id":"ce4bgl92rcd13ifvqbq0","pricing_plan_id":"cebpf4jnsgd1na2vs0mg"},{"bike_id":"c3e4eb6c-d62e-4131-be68-cf6a90ff81da","system_id":"levelo_inurba_marseille","lat":43.23191,"lon":5.3998,"is_reserved":false,"is_disabled":false,"rental_uris":{"android":"levelo://app?vid=c3e4eb6c-d62e-4131-be68-cf6a90ff81da","ios":"levelo://app?vid=c3e4eb6c-d62e-4131-be68-cf6a90ff81da"},"vehicle_type_id":"4","last_reported":1758892828,"current_range_meters":18000,"station_id":"ce4bhn12rcd13ifvqgqg","pricing_plan_id":"cebpf4jnsgd1na2vs0mg"},{"bike_id":"78cd9e3a-564f-407e-824a-b8730f4cc26c","system_id":"levelo_inurba_marseille","lat":43.27378,"lon":5.36256,"is_reserved":false,"is_disabled":false,"rental_uris":{"android":"levelo://app?vid=78cd9e3a-564f-407e-824a-b8730f4cc26c","ios":"levelo://app?vid=78cd9e3a-564f-407e-824a-b8730f4cc26c"},"vehicle_type_id":"4","last_reported":1758892828,"current_range_meters":18000,"station_id":"ce4bhbh2rcd13ifvqeo0","pricing_plan_id":"cebpf4jnsgd1na2vs0mg"},{"bike_id":"6400ee4f-9c0d-48fa-b782-78f71b37bf51","system_id":"levelo_inurba_marseille","lat":43.30155,"lon":5.40178,"is_reserved":false,"is_disabled":false,"rental_uris":{"android":"levelo://app?vid=6400ee4f-9c0d-48fa-b782-78f71b37bf51","ios":"levelo://app?vid=6400ee4f-9c0d-48fa-b782-78f71b37bf51"},"vehicle_type_id":"4","last_reported":1758892828,"current_range_meters":16800,"station_id":"","pricing_plan_id":"cebpf4jnsgd1na2vs0mg"},{"bike_id":"a37b6301-ce8a-4417-a546-371b033a4f94","system_id":"levelo_inurba_marseille","lat":43.31998,"lon":5.38148,"is_reserved":false,"is_disabled":false,"rental_uris":{"android":"levelo://app?vid=a37b6301-ce8a-4417-a546-371b033a4f94","ios":"levelo://app?vid=a37b6301-ce8a-4417-a546-371b033a4f94"},"vehicle_type_id":"4","last_reported":1758892828,"current_range_meters":18000,"station_id":"ce4bhr12rcd13ifvqhpg","pricing_plan_id":"cebpf4jnsgd1na2vs0mg"},{"bike_id":"a001b072-4856-43fd-b2e0-7ebae2d48f17","system_id":"levelo_inurba_marseille","lat":43.23059,"lon":5.35487,"is_reserved":false,"is_disabled":false,"rental_uris":{"android":"levelo://app?vid=a001b072-4856-43fd-b2e0-7ebae2d48f17","ios":"levelo://app?vid=a001b072-4856-43fd-b2e0-7ebae2d48f17"},"vehicle_type_id":"4","last_reported":1758892828,"current_range_meters":18000,"station_id":"cpo3342slgdg3j2ifvpg","pricing_plan_id":"cebpf4jnsgd1na2vs0mg"},{"bike_id":"00494059-65d2-4aa0-9e57-8baa3f33d16c","system_id":"levelo_inurba_marseille","lat":43.33147,"lon":5.38165,"is_reserved":false,"is_disabled":false,"rental_uris":{"android":"levelo://app?vid=00494059-65d2-4aa0-9e57-8baa3f33d16c","ios":"levelo://app?vid=00494059-65d2-4aa0-9e57-8baa3f33d16c"},"vehicle_type_id":"4","last_reported":1758892828,"current_range_meters":18000,"station_id":"","pricing_plan_id":"cebpf4jnsgd1na2vs0mg"},{"bike_id":"03350417-1098-4d6c-b8fe-9e64358744bf","system_id":"levelo_inurba_marseille","lat":43.31067,"lon":5.3758,"is_reserved":false,"is_disabled":false,"rental_uris":{"android":"levelo://app?vid=03350417-1098-4d6c-b8fe-9e64358744bf","ios":"levelo://app?vid=03350417-1098-4d6c-b8fe-9e64358744bf"},"vehicle_type_id":"4","last_reported":1758892828,"current_range_meters":18000,"station_id":"","pricing_plan_id":"cebpf4jnsgd1na2vs0mg"},{"bike_id":"b8d868b7-e6c2-46f2-80ea-96deb85a0e4a","system_id":"levelo_inurba_marseille","lat":43.32664,"lon":5.40991,"is_reserved":false,"is_disabled":false,"rental_uris":{"android":"levelo://app?vid=b8d868b7-e6c2-46f2-80ea-96deb85a0e4a","ios":"levelo://app?vid=b8d868b7-e6c2-46f2-80ea-96deb85a0e4a"},"vehicle_type_id":"4","last_reported":1758892828,"current_range_meters":18800,"station_id":"ce4bhpp2rcd13ifvqhgg","pricing_plan_id":"cebpf4jnsgd1na2vs0mg"},