{"last_updated":1759010869,"ttl":60,"version":"2.2","data":{"bikes":[{"bike_id":"98e3851a-385b-4d22-a5b2-866086846902","system_id":"levelo_inurba_marseille","lat":43.31894,"lon":5.37446,"is_reserved":false,"is_disabled":true,"rental_uris":{"android":"levelo://app?vid=98e3851a-385b-4d22-a5b2-866086846902","ios":"levelo://app?vid=98e3851a-385b-4d22-a5b2-866086846902"},"vehicle_type_id":"4","last_reported":1759010869,"current_range_meters":2800,"station_id":"","pricing_plan_id":"cebpf4jnsgd1na2vs0mg"},{"bike_id":"35fd29fb-7e61-4c16-b927-d28678d91714","system_id":"levelo_inurba_marseille","lat":43.25823,"lon":5.39432,"is_reserved":false,"is_disabled":false,"rental_uris":{"android":"levelo://app?vid=35fd29fb-7e61-4c16-b927-d28678d91714","ios":"levelo://app?vid=35fd29fb-7e61-4c16-b927-d28678d91714"},"vehicle_type_id":"4","last_reported":1759010869,"current_range_meters":3200,"station_id":"ce4bhip2rcd13ifvqft0","pricing_plan_id":"cebpf4jnsgd1na2vs0mg"},{"bike_id":"f480c1ec-ed72-4f41-9d99-7b312dbccc28","system_id":"levelo_inurba_marseille","lat":43.27073,"lon":5.40371,"is_reserved":false,"is_disabled":false,"rental_uris":{"android":"levelo://app?vid=f480c1ec-ed72-4f41-9d99-7b312dbccc28","ios":"levelo://app?vid=f480c1ec-ed72-4f41-9d99-7b312dbccc28"},"vehicle_type_id":"4","last_reported":1759010869,"current_range_meters":3200,"station_id":"","pricing_plan_id":"cebpf4jnsgd1na2vs0mg"},{"bike_id":"3cb7f8ee-eab9-4382-8fdf-31f6ef3eeb3e","system_id":"levelo_inurba_marseille","lat":43.2175,"lon":5.34601,"is_reserved":false,"is_disabled":false,"rental_uris":{"android":"levelo://app?vid=3cb7f8ee-eab9-4382-8fdf-31f6ef3eeb3e","ios":"levelo://app?vid=3cb7f8ee-eab9-4382-8fdf-31f6ef3eeb3e"},"vehicle_type_id":"4","last_reported":1759010869,"current_range_meters":3600,"station_id":"","pricing_plan_id":"cebpf4jnsgd1na2vs0mg"},{"bike_id":"f122ca82-b6cb-4c94-b172-38c3b17e2f3c","system_id":"levelo_inurba_marseille","lat":43.284175,"lon":5.375053,"is_reserved":false,"is_disabled":false,"rental_uris":{"android":"levelo://app?vid=f122ca82-b6cb-4c94-b172-38c3b17e2f3c","ios":"levelo://app?vid=f122ca82-b6cb-4c94-b172-38c3b17e2f3c"},"vehicle_type_id":"4","last_reported":1759010869,"current_range_meters":3600,"station_id":"","pricing_plan_id":"cebpf4jnsgd1na2vs0mg"},{"bike_id":"64275378-f11a-4ff4-ad54-087b91bd011e","system_id":"levelo_inurba_marseille","lat":43.29256,"lon":5.38431,"is_reserved":false,"is_disabled":true,"rental_uris":{"android":"levelo://app?vid=64275378-f11a-4ff4-ad54-087b91bd011e","ios":"levelo://app?vid=64275378-f11a-4ff4-ad54-087b91bd011e"},"vehicle_type_id":"4","last_reported":1759010869,"current_range_meters":3600,"station_id":"ce4bh692rcd13ifvqea0","pricing_plan_id":"cebpf4jnsgd1na2vs0mg"},{"bike_id":"9a819dc8-447d-4df7-8b5f-0b18332a26a7","system_id":"levelo_inurba_marseille","lat":43.329719,"lon":5.37482,"is_reserved":false,"is_disabled":false,"rental_uris":{"android":"levelo://app?vid=9a819dc8-447d-4df7-8b5f-0b18332a26a7","ios":"levelo://app?vid=9a819dc8-447d-4df7-8b5f-0b18332a26a7"},"vehicle_type_id":"4","last_reported":1759010869,"current_range_meters":3600,"station_id":"","pricing_plan_id":"cebpf4jnsgd1na2vs0mg"},{"bike_id":"23a79311-09c6-4058-b8c8-b1e6e9cb6d0b","system_id":"levelo_inurba_marseille","lat":43.29216,"lon":5.39135,"is_reserved":false,"is_disabled":false,"rental_uris":{"android":"levelo://app?vid=23a79311-09c6-4058-b8c8-b1e6e9cb6d0b","ios":"levelo://app?vid=23a79311-09c6-4058-b8c8-b1e6e9cb6d0b"},"vehicle_type_id":"4","last_reported":1759010869,"current_range_meters":4000,"station_id":"","pricing_plan_id":"cebpf4jnsgd1na2vs0mg"},{"bike_id":"c7f6a08b-c655-4213-b2ba-7d02e7f382fe","system_id":"levelo_inurba_marseille","lat":43.27988,"lon":5.39483,"is_reserved":false,"is_disabled":false,"rental_uris":{"android":"levelo://app?vid=c7f6a08b-c655-4213-b2ba-7d02e7f382fe","ios":"levelo://app?vid=c7f6a08b-c655-4213-b2ba-7d02e7f382fe"},"vehicle_type_id":"4","last_reported":1759010869,"current_range_meters":4000,"station_id":"","pricing_plan_id":"cebpf4jnsgd1na2vs0mg"},{"bike_id":"9de1ee1c-6b3e-40c8-b6c2-73130c5ae845","system_id":"levelo_inurba_marseille","lat":43.26963,"lon":5.36615,"is_reserved":false,"is_disabled":false,"rental_uris":{"android":"levelo://app?vid=9de1ee1c-6b3e-40c8-b6c2-73130c5ae845","ios":"levelo://app?vid=9de1ee1c-6b3e-40c8-b6c2-73130c5ae845"},"vehicle_type_id":"4","last_reported":1759010869,"current_range_meters":4000,"station_id":"","pricing_plan_id":"cebpf4jnsgd1na2vs0mg"},{"bike_id":"85a96c70-9fc6-4698-bb7a-8aae96de7260","system_id":"levelo_inurba_marseille","lat":43.31282,"lon":5.38683,"is_reserved":false,"is_disabled":false,"rental_uris":{"android":"levelo://app?vid=85a96c70-9fc6-4698-bb7a-8aae96de7260","ios":"levelo://app?vid=85a96c70-9fc6-4698-bb7a-8aae96de7260"},"vehicle_type_id":"4","last_reported":1759010869,"current_range_meters":4400,"station_id":"","pricing_plan_id":"cebpf4jnsgd1na2vs0mg"},{"bike_id":"69a56246-2281-4457-91e8-8fe23a573bf1","system_id":"levelo_inurba_marseille","lat":43.21742,"lon":5.34614,"is_reserved":false,"is_disabled":true,"rental_uris":{"android":"levelo://app?vid=69a56246-2281-4457-91e8-8fe23a573bf1","ios":"levelo://app?vid=69a56246-2281-4457-91e8-8fe23a573bf1"},"vehicle_type_id":"4","last_reported":1759010869,"current_range_meters":4400,"station_id":"","pricing_plan_id":"cebpf4jnsgd1na2vs0mg"},{"bike_id":"3ff019b4-f200-434f-bdbd-2de527b20d7e","system_id":"levelo_inurba_marseille","lat":43.21208,"lon":5.35077,"is_reserved":false,"is_disabled":false,"rental_uris":{"android":"levelo://app?vid=3ff019b4-f200-434f-bdbd-2de527b20d7e","ios":"levelo://app?vid=3ff019b4-f200-434f-bdbd-2de527b20d7e"},"vehicle_type_id":"4","last_reported":1759010869,"current_range_meters":4400,"station_id":"st_cvj6sg6p6f1abm77japg","pricing_plan_id":"cebpf4jnsgd1na2vs0mg"},{"bike_id":"041cd397-24ab-4e04-af23-07b961e161f4","system_id":"levelo_inurba_marseille","lat":43.337444,"lon":5.374475,"is_reserved":false,"is_disabled":false,"rental_uris":{"android":"levelo://app?vid=041cd397-24ab-4e04-af23-07b961e161f4","ios":"levelo://app?vid=041cd397-24ab-4e04-af23-07b961e161f4"},"vehicle_type_id":"4","last_reported":1759010869,"current_range_meters":4400,"station_id":"","pricing_plan_id":"cebpf4jnsgd1na2vs0mg"},{"bike_id":"a462cce2-9104-46a9-a432-ba7c3c35eb6a","system_id":"levelo_inurba_marseille","lat":43.27063,"lon":5.40262,"is_reserved":false,"is_disabled":true,"rental_uris":{"android":"levelo://app?vid=a462cce2-9104-46a9-a432-ba7c3c35eb6a","ios":"levelo://app?vid=a462cce2-9104-46a9-a432-ba7c3c35eb6a"},"vehicle_type_id":"4","last_reported":1759010869,"current_range_meters":4400,"station_id":"ce4bhk92rcd13ifvqgc0","pricing_plan_id":"cebpf4jnsgd1na2vs0mg"},{"bike_id":"3b6353fd-0bc4-4f9d-b0e2-e6c19e1ea339","system_id":"levelo_inurba_marseille","lat":43.290224,"lon":5.359162,"is_reserved":false,"is_disabled":false,"rental_uris":{"android":"levelo://app?vid=3b6353fd-0bc4-4f9d-b0e2-e6c19e1ea339","ios":"levelo://app?vid=3b6353fd-0bc4-4f9d-b0e2-e6c19e1ea339"},"vehicle_type_id":"4","last_reported":1759010869,"current_range_meters":4400,"station_id":"ce4bhb12rcd13ifvqel0","pricing_plan_id":"cebpf4jnsgd1na2vs0mg"},{"bike_id":"9b2a4166-4bf6-4740-b018-82f7f5312a3d","system_id":"levelo_inurba_marseille","lat":43.26959,"lon":5.40237,"is_reserved":false,"is_disabled":true,"rental_uris":{"android":"levelo://app?vid=9b2a4166-4bf6-4740-b018-82f7f5312a3d","ios":"levelo://app?vid=9b2a4166-4bf6-4740-b018-82f7f5312a3d"},"vehicle_type_id":"4","last_reported":1759010869,"current_range_meters":4800,"station_id":"cjm6bp8fraef2m0cb0m0","pricing_plan_id":"cebpf4jnsgd1na2vs0mg"},{"bike_id":"0bffa02d-eba3-4d8c-be19-7febdbd73a3b","system_id":"levelo_inurba_marseille","lat":43.29533,"lon":5.38545,"is_reserved":false,"is_disabled":false,"rental_uris":{"android":"levelo://app?vid=0bffa02d-eba3-4d8c-be19-7febdbd73a3b","ios":"levelo://app?vid=0bffa02d-eba3-4d8c-be19-7febdbd73a3b"},"vehicle_type_id":"4","last_reported":1759010869,"current_range_meters":4800,"station_id":"ce4bgih2rcd13ifvqba0","pricing_plan_id":"cebpf4jnsgd1na2vs0mg"},{"bike_id":"174dfb4f-f618-4c2f-be1c-ae0d6b405e94","system_id":"levelo_inurba_marseille","lat":43.297,"lon":5.38254,"is_reserved":false,"is_disabled":false,"rental_uris":{"android":"levelo://app?vid=174dfb4f-f618-4c2f-be1c-ae0d6b405e94","ios":"levelo://app?vid=174dfb4f-f618-4c2f-be1c-ae0d6b405e94"},"vehicle_type_id":"4","last_reported":1759010869,"current_range_meters":5600,"station_id":"","pricing_plan_id":"cebpf4jnsgd1na2vs0mg"},{"bike_id":"9afa0a43-aae1-4c30-a2d2-04c401c6d7bc","system_id":"levelo_inurba_marseille","lat":43.31731,"lon":5.42401,"is_reserved":false,"is_disabled":false,"rental_uris":{"android":"levelo://app?vid=9afa0a43-aae1-4c30-a2d2-04c401c6d7bc","ios":"levelo://app?vid=9afa0a43-aae1-4c30-a2d2-04c401c6d7bc"},"vehicle_type_id":"4","last_reported":1759010869,"current_range_meters":6400,"station_id":"ce4bhp92rcd13ifvqhbg","pricing_plan_id":"cebpf4jnsgd1na2vs0mg"},{"bike_id":"4ea066be-d5c0-4685-b39a-612a810bdfbb","system_id":"levelo_inurba_marseille","lat":43.33774,"lon":5.37487,"is_reserved":false,"is_disabled":true,"rental_uris":{"android":"levelo://app?vid=4ea066be-d5c0-4685-b39a-612a810bdfbb","ios":"levelo://app?vid=4ea066be-d5c0-4685-b39a-612a810bdfbb"},"vehicle_type_id":"4","last_reported":1759010869,"current_range_meters":6000,"station_id":"","pricing_plan_id":"cebpf4jnsgd1na2vs0mg"},{"bike_id":"e819b0de-88d2-44f5-a30c-ae43be28693e","system_id":"levelo_inurba_marseille","lat":43.29882,"lon":5.38903,"is_reserved":false,"is_disabled":false,"rental_uris":{"android":"levelo://app?vid=e819b0de-88d2-44f5-a30c-ae43be28693e","ios":"levelo://app?vid=e819b0de-88d2-44f5-a30c-ae43be28693e"},"vehicle_type_id":"4","last_reported":1759010869,"current_range_meters":6800,"station_id":"ce4bh392rcd13ifvqdl0","pricing_plan_id":"cebpf4jnsgd1na2vs0mg"},{"bike_id":"af5b7fdf-6b71-4411-b11f-406ea44ecb80","system_id":"levelo_inurba_marseille","lat":43.21753,"lon":5.34605,"is_reserved":false,"is_disabled":true,"rental_uris":{"android":"levelo://app?vid=af5b7fdf-6b71-4411-b11f-406ea44ecb80","ios":"levelo://app?vid=af5b7fdf-6b71-4411-b11f-406ea44ecb80"},"vehicle_type_id":"4","last_reported":1759010869,"current_range_meters":6400,"station_id":"st_cvj6r9ubvosntc0bgbag","pricing_plan_id":"cebpf4jnsgd1na2vs0mg"},{"bike_id":"a639c491-c436-478a-8d5d-bd2c30b918ff","system_id":"levelo_inurba_marseille","lat":43.29748,"lon":5.37217,"is_reserved":false,"is_disabled":false,"rental_uris":{"android":"levelo://app?vid=a639c491-c436-478a-8d5d-bd2c30b918ff","ios":"levelo://app?vid=a639c491-c436-478a-8d5d-bd2c30b918ff"},"vehicle_type_id":"4","last_reported":1759010869,"current_range_meters":6800,"station_id":"","pricing_plan_id":"cebpf4jnsgd1na2vs0mg"},{"bike_id":"cc10a393-c8ce-43fb-8334-7d6d68691d22","system_id":"levelo_inurba_marseille","lat":43.26925,"lon":5.36681,"is_reserved":false,"is_disabled":false,"rental_uris":{"android":"levelo://app?vid=cc10a393-c8ce-43fb-8334-7d6d68691d22","ios":"levelo://app?vid=cc10a393-c8ce-43fb-8334-7d6d68691d22"},"vehicle_type_id":"4","last_reported":1759010869,"current_range_meters":7200,"station_id":"","pricing_plan_id":"cebpf4jnsgd1na2vs0mg"},{"bike_id":"7c85c5a1-2698-44c9-9d7d-7cc317f28829","system_id":"levelo_inurba_marseille","lat":43.29963,"lon":5.38495,"is_reserved":false,"is_disabled":false,"rental_uris":{"android":"levelo://app?vid=7c85c5a1-2698-44c9-9d7d-7cc317f28829","ios":"levelo://app?vid=7c85c5a1-2698-44c9-9d7d-7cc317f28829"},"vehicle_type_id":"4","last_reported":1759010869,"current_range_meters":7200,"station_id":"ce4bgj92rcd13ifvqbd0","pricing_plan_id":"cebpf4jnsgd1na2vs0mg"},{"bike_id":"5365e873-98ea-45e2-9689-7e119051f22e","system_id":"levelo_inurba_marseille","lat":43.33008,"lon":5.39059,"is_reserved":false,"is_disabled":true,"rental_uris":{"android":"levelo://app?vid=5365e873-98ea-45e2-9689-7e119051f22e","ios":"levelo://app?vid=5365e873-98ea-45e2-9689-7e119051f22e"},"vehicle_type_id":"4","last_reported":1759010869,"current_range_meters":8000,"station_id":"ce4bhr92rcd13ifvqhrg","pricing_plan_id":"cebpf4jnsgd1na2vs0mg"},{"bike_id":"4bad090f-298a-43b3-9cd1-ff63ae5ac988","system_id":"levelo_inurba_marseille","lat":43.30781,"lon":5.43509,"is_reserved":false,"is_disabled":false,"rental_uris":{"android":"levelo://app?vid=4bad090f-298a-43b3-9cd1-ff63ae5ac988","ios":"levelo://app?vid=4bad090f-298a-43b3-9cd1-ff63ae5ac988"},"vehicle_type_id":"4","last_reported":1759010869,"current_range_meters":8000,"station_id":"ce4bhph2rcd13ifvqheg","pricing_plan_id":"cebpf4jnsgd1na2vs0mg"},{"bike_id":"d6f333a4-b4b1-4b54-af9b-0a70d9142109","system_id":"levelo_inurba_marseille","lat":43.28073,"lon":5.39659,"is_reserved":false,"is_disabled":false,"rental_uris":{"android":"levelo://app?vid=d6f333a4-b4b1-4b54-af9b-0a70d9142109","ios":"levelo://app?vid=d6f333a4-b4b1-4b54-af9b-0a70d9142109"},"vehicle_type_id":"4","last_reported":1759010869,"current_range_meters":7200,"station_id":"ce4bho12rcd13ifvqh2g","pricing_plan_id":"cebpf4jnsgd1na2vs0mg"},{"bike_id":"899ba919-86eb-44e6-af9e-ae2902894617","system_id":"levelo_inurba_marseille","lat":43.28669,"lon":5.38669,"is_reserved":false,"is_disabled":false,"rental_uris":{"android":"levelo://app?vid=899ba919-86eb-44e6-af9e-ae2902894617","ios":"levelo://app?vid=899ba919-86eb-44e6-af9e-ae2902894617"},"vehicle_type_id":"4","last_reported":1759010869,"current_range_meters":8000,"station_id":"ce4bh492rcd13ifvqdug","pricing_plan_id":"cebpf4jnsgd1na2vs0mg"},{"bike_id":"08fe2b08-b3fa-43f8-ae73-04061f76318d","system_id":"levelo_inurba_marseille","lat":43.305552,"lon":5.365395,"is_reserved":false,"is_disabled":false,"rental_uris":{"android":"levelo://app?vid=08fe2b08-b3fa-43f8-ae73-04061f76318d","ios":"levelo://app?vid=08fe2b08-b3fa-43f8-ae73-04061f76318d"},"vehicle_type_id":"4","last_reported":1759010869,"current_range_meters":8000,"station_id":"","pricing_plan_id":"cebpf4jnsgd1na2vs0mg"},{"bike_id":"f36cf738-ceec-44f3-810b-51c510ee1418","system_id":"levelo_inurba_marseille","lat":43.24812,"lon":5.37455,"is_reserved":false,"is_disabled":false,"rental_uris":{"android":"levelo://app?vid=f36cf738-ceec-44f3-810b-51c510ee1418","ios":"levelo://app?vid=f36cf738-ceec-44f3-810b-51c510ee1418"},"vehicle_type_id":"4","last_reported":1759010869,"current_range_meters":8000,"station_id":"ce4bhgh2rcd13ifvqfb0","pricing_plan_id":"cebpf4jnsgd1na2vs0mg"},{"bike_id":"fee74e98-eb52-4f66-a612-109c75f34aa6","system_id":"levelo_inurba_marseille","lat":43.296217,"lon":5.379482,"is_reserved":false,"is_disabled":false,"rental_uris":{"android":"levelo://app?vid=fee74e98-eb52-4f66-a612-109c75f34aa6","ios":"levelo://app?vid=fee74e98-eb52-4f66-a612-109c75f34aa6"},"vehicle_type_id":"4","last_reported":1759010869,"current_range_meters":8000,"station_id":"","pricing_plan_id":"cebpf4jnsgd1na2vs0mg"},{"bike_id":"907ed216-30a4-406f-ae2e-0197aba3ed23","system_id":"levelo_inurba_marseille","lat":43.21192,"lon":5.3507,"is_reserved":false,"is_disabled":false,"rental_uris":{"android":"levelo://app?vid=907ed216-30a4-406f-ae2e-0197aba3ed23","ios":"levelo://app?vid=907ed216-30a4-406f-ae2e-0197aba3ed23"},"vehicle_type_id":"4","last_reported":1759010869,"current_range_meters":8000,"station_id":"st_cvj6sg6p6f1abm77japg","pricing_plan_id":"cebpf4jnsgd1na2vs0mg"},{"bike_id":"ef88f0a7-0366-4b53-9b13-bfae39742dd8","system_id":"levelo_inurba_marseille","lat":43.29253,"lon":5.3844,"is_reserved":false,"is_disabled":false,"rental_uris":{"android":"levelo://app?vid=ef88f0a7-0366-4b53-9b13-bfae39742dd8","ios":"levelo://app?vid=ef88f0a7-0366-4b53-9b13-bfae39742dd8"},"vehicle_type_id":"4","last_reported":1759010869,"current_range_meters":8000,"station_id":"ce4bh692rcd13ifvqea0","pricing_plan_id":"cebpf4jnsgd1na2vs0mg"},{"bike_id":"6da3b581-015a-4cfb-9997-032be796abac","system_id":"levelo_inurba_marseille","lat":43.32655,"lon":5.40996,"is_reserved":false,"is_disabled":false,"rental_uris":{"android":"levelo://app?vid=6da3b581-015a-4cfb-9997-032be796abac","ios":"levelo://app?vid=6da3b581-015a-4cfb-9997-032be796abac"},"vehicle_type_id":"4","last_reported":1759010869,"current_range_meters":8400,"station_id":"ce4bhpp2rcd13ifvqhgg","pricing_plan_id":"cebpf4jnsgd1na2vs0mg"},{"bike_id":"efb70af7-3910-489d-83f9-425320e24d88","system_id":"levelo_inurba_marseille","lat":43.28227,"lon":5.39045,"is_reserved":false,"is_disabled":false,"rental_uris":{"android":"levelo://app?vid=efb70af7-3910-489d-83f9-425320e24d88","ios":"levelo://app?vid=efb70af7-3910-489d-83f9-425320e24d88"},"vehicle_type_id":"4","last_reported":1759010869,"current_range_meters":8400,"station_id":"ce4bhn92rcd13ifvqgsg","pricing_plan_id":"cebpf4jnsgd1na2vs0mg"},{"bike_id":"fd4b5ad5-2581-44dd-90b2-f4a8fbdc2423","system_id":"levelo_inurba_marseille","lat":43.296051,"lon":5.380644,"is_reserved":false,"is_disabled":false,"rental_uris":{"android":"levelo://app?vid=fd4b5ad5-2581-44dd-90b2-f4a8fbdc2423","ios":"levelo://app?vid=fd4b5ad5-2581-44dd-90b2-f4a8fbdc2423"},"vehicle_type_id":"4","last_reported":1759010869,"current_range_meters":8400,"station_id":"ce4bgl12rcd13ifvqbo0","pricing_plan_id":"cebpf4jnsgd1na2vs0mg"},{"bike_id":"443f7dc3-4c35-4975-a8f4-b6a0ee79874b","system_id":"levelo_inurba_marseille","lat":43.29245,"lon":5.37212,"is_reserved":false,"is_disabled":false,"rental_uris":{"android":"levelo://app?vid=443f7dc3-4c35-4975-a8f4-b6a0ee79874b","ios":"levelo://app?vid=443f7dc3-4c35-4975-a8f4-b6a0ee79874b"},"vehicle_type_id":"4","last_reported":1759010869,"current_range_meters":8400,"station_id":"","pricing_plan_id":"cebpf4jnsgd1na2vs0mg"},{"bike_id":"8e385f69-4a89-4bf0-86a4-c68fbcf7e1cb","system_id":"levelo_inurba_marseille","lat":43.225324,"lon":5.348325,"is_reserved":false,"is_disabled":false,"rental_uris":{"android":"levelo://app?vid=8e385f69-4a89-4bf0-86a4-c68fbcf7e1cb","ios":"levelo://app?vid=8e385f69-4a89-4bf0-86a4-c68fbcf7e1cb"},"vehicle_type_id":"4","last_reported":1759010869,"current_range_meters":8400,"station_id":"","pricing_plan_id":"cebpf4jnsgd1na2vs0mg"},{"bike_id":"712dddc4-ae95-4aaf-b4c6-16c01a2ce26f","system_id":"levelo_inurba_marseille","lat":43.30042,"lon":5.38077,"is_reserved":false,"is_disabled":false,"rental_uris":{"android":"levelo://app?vid=712dddc4-ae95-4aaf-b4c6-16c01a2ce26f","ios":"levelo://app?vid=712dddc4-ae95-4aaf-b4c6-16c01a2ce26f"},"vehicle_type_id":"4","last_reported":1759010869,"current_range_meters":8400,"station_id":"","pricing_plan_id":"cebpf4jnsgd1na2vs0mg"},{"bike_id":"9cda2628-6ead-451f-b1e8-5b8e2fff1a3b","system_id":"levelo_inurba_marseille","lat":43.2798,"lon":5.41662,"is_reserved":false,"is_disabled":false,"rental_uris":{"android":"levelo://app?vid=9cda2628-6ead-451f-b1e8-5b8e2fff1a3b","ios":"levelo://app?vid=9cda2628-6ead-451f-b1e8-5b8e2fff1a3b"},"vehicle_type_id":"4","last_reported":1759010869,"current_range_meters":8400,"station_id":"ce4bho12rcd13ifvqh1g","pricing_plan_id":"cebpf4jnsgd1na2vs0mg"},{"bike_id":"9743fd3d-b83a-49fe-b055-16ed840cdbf1","system_id":"levelo_inurba_marseille","lat":43.299411,"lon":5.385201,"is_reserved":false,"is_disabled":true,"rental_uris":{"android":"levelo://app?vid=9743fd3d-b83a-49fe-b055-16ed840cdbf1","ios":"levelo://app?vid=9743fd3d-b83a-49fe-b055-16ed840cdbf1"},"vehicle_type_id":"4","last_reported":1759010869,"current_range_meters":8800,"station_id":"","pricing_plan_id":"cebpf4jnsgd1na2vs0mg"},{"bike_id":"faafadcc-52fa-440d-945c-d207227e3bcc","system_id":"levelo_inurba_marseille","lat":43.24663,"lon":5.38167,"is_reserved":false,"is_disabled":false,"rental_uris":{"android":"levelo://app?vid=faafadcc-52fa-440d-945c-d207227e3bcc","ios":"levelo://app?vid=faafadcc-52fa-440d-945c-d207227e3bcc"},"vehicle_type_id":"4","last_reported":1759010869,"current_range_meters":8800,"station_id":"ce4bhih2rcd13ifvqfr0","pricing_plan_id":"cebpf4jnsgd1na2vs0mg"},{"bike_id":"b5e3d95c-d6ab-47a1-a565-d021b45ce728","system_id":"levelo_inurba_marseille","lat":43.21749,"lon":5.34605,"is_reserved":false,"is_disabled":true,"rental_uris":{"android":"levelo://app?vid=b5e3d95c-d6ab-47a1-a565-d021b45ce728","ios":"levelo://app?vid=b5e3d95c-d6ab-47a1-a565-d021b45ce728"},"vehicle_type_id":"4","last_reported":1759010869,"current_range_meters":9200,"station_id":"st_cvj6r9ubvosntc0bgbag","pricing_plan_id":"cebpf4jnsgd1na2vs0mg"},{"bike_id":"fbef676b-8f42-450e-b448-da45ad596c28","system_id":"levelo_inurba_marseille","lat":43.28372,"lon":5.36312,"is_reserved":false,"is_disabled":false,"rental_uris":{"android":"levelo://app?vid=fbef676b-8f42-450e-b448-da45ad596c28","ios":"levelo://app?vid=fbef676b-8f42-450e-b448-da45ad596c28"},"vehicle_type_id":"4","last_reported":1759010869,"current_range_meters":9200,"station_id":"","pricing_plan_id":"cebpf4jnsgd1na2vs0mg"},{"bike_id":"0228f67c-efbb-4924-8a3b-58a0a42994f9","system_id":"levelo_inurba_marseille","lat":43.29582,"lon":5.3997,"is_reserved":false,"is_disabled":false,"rental_uris":{"android":"levelo://app?vid=0228f67c-efbb-4924-8a3b-58a0a42994f9","ios":"levelo://app?vid=0228f67c-efbb-4924-8a3b-58a0a42994f9"},"vehicle_type_id":"4","last_reported":1759010869,"current_range_meters":9200,"station_id":"ce4bh312rcd13ifvqdj0","pricing_plan_id":"cebpf4jnsgd1na2vs0mg"},{"bike_id":"ee96a502-9b76-492e-840a-498b02aefe72","system_id":"levelo_inurba_marseille","lat":43.323585,"lon":5.392257,"is_reserved":false,"is_disabled":false,"rental_uris":{"android":"levelo://app?vid=ee96a502-9b76-492e-840a-498b02aefe72","ios":"levelo://app?vid=ee96a502-9b76-492e-840a-498b02aefe72"},"vehicle_type_id":"4","last_reported":1759010869,"current_range_meters":9200,"station_id":"","pricing_plan_id":"cebpf4jnsgd1na2vs0mg"},{"bike_id":"5592e1b1-8fd6-4d6f-a232-b30a4bd65aa2","system_id":"levelo_inurba_marseille","lat":43.2756,"lon":5.38435,"is_reserved":false,"is_disabled":false,"rental_uris":{"android":"levelo://app?vid=5592e1b1-8fd6-4d6f-a232-b30a4bd65aa2","ios":"levelo://app?vid=5592e1b1-8fd6-4d6f-a232-b30a4bd65aa2"},"vehicle_type_id":"4","last_reported":1759010869,"current_range_meters":9200,"station_id":"ce4bhh92rcd13ifvqfi0","pricing_plan_id":"cebpf4jnsgd1na2vs0mg"},{"bike_id":"81eb4ca5-8c84-4899-9c13-f43a5e9f7572","system_id":"levelo_inurba_marseille","lat":43.29844,"lon":5.3629,"is_reserved":false,"is_disabled":false,"rental_uris":{"android":"levelo://app?vid=81eb4ca5-8c84-4899-9c13-f43a5e9f7572","ios":"levelo://app?vid=81eb4ca5-8c84-4899-9c13-f43a5e9f7572"},"vehicle_type_id":"4","last_reported":1759010869,"current_range_meters":9200,"station_id":"ce4bgpp2rcd13ifvqc3g","pricing_plan_id":"cebpf4jnsgd1na2vs0mg"},{"bike_id":"a78302dc-aa43-437f-9030-51e4e7e137f4","system_id":"levelo_inurba_marseille","lat":43.21186,"lon":5.35067,"is_reserved":false,"is_disabled":false,"rental_uris":{"android":"levelo://app?vid=a78302dc-aa43-437f-9030-51e4e7e137f4","ios":"levelo://app?vid=a78302dc-aa43-437f-9030-51e4e7e137f4"},"vehicle_type_id":"4","last_reported":1759010869,"current_range_meters":9600,"station_id":"st_cvj6sg6p6f1abm77japg","pricing_plan_id":"cebpf4jnsgd1na2vs0mg"},{"bike_id":"40941a8c-7885-4321-a728-5be6396b87e8","system_id":"levelo_inurba_marseille","lat":43.33598,"lon":5.41011,"is_reserved":false,"is_disabled":false,"rental_uris":{"android":"levelo://app?vid=40941a8c-7885-4321-a728-5be6396b87e8","ios":"levelo://app?vid=40941a8c-7885-4321-a728-5be6396b87e8"},"vehicle_type_id":"4","last_reported":1759010869,"current_range_meters":9600,"station_id":"ce4bhqh2rcd13ifvqhmg","pricing_plan_id":"cebpf4jnsgd1na2vs0mg"},{"bike_id":"3d689bbb-3aad-403d-80a5-3a184aff6886","system_id":"levelo_inurba_marseille","lat":43.30537,"lon":5.36521,"is_reserved":false,"is_disabled":true,"rental_uris":{"android":"levelo://app?vid=3d689bbb-3aad-403d-80a5-3a184aff6886","ios":"levelo://app?vid=3d689bbb-3aad-403d-80a5-3a184aff6886"},"vehicle_type_id":"4","last_reported":1759010869,"current_range_meters":9600,"station_id":"ce4bgs12rcd13ifvqcag","pricing_plan_id":"cebpf4jnsgd1na2vs0mg"},{"bike_id":"0e41b157-e0f1-4a24-9297-0722a1189de7","system_id":"levelo_inurba_marseille","lat":43.28848,"lon":5.35847,"is_reserved":false,"is_disabled":false,"rental_uris":{"android":"levelo://app?vid=0e41b157-e0f1-4a24-9297-0722a1189de7","ios":"levelo://app?vid=0e41b157-e0f1-4a24-9297-0722a1189de7"},"vehicle_type_id":"4","last_reported":1759010869,"current_range_meters":9600,"station_id":"ce4bhb12rcd13ifvqem0","pricing_plan_id":"cebpf4jnsgd1na2vs0mg"},{"bike_id":"6768d9b9-446a-4157-99d1-87233de430ce","system_id":"levelo_inurba_marseille","lat":43.28943,"lon":5.38391,"is_reserved":false,"is_disabled":false,"rental_uris":{"android":"levelo://app?vid=6768d9b9-446a-4157-99d1-87233de430ce","ios":"levelo://app?vid=6768d9b9-446a-4157-99d1-87233de430ce"},"vehicle_type_id":"4","last_reported":1759010869,"current_range_meters":9200,"station_id":"ce4bh612rcd13ifvqe6g","pricing_plan_id":"cebpf4jnsgd1na2vs0mg"},{"bike_id":"9bb4db31-0bf9-4171-bca1-76cb045f53a3","system_id":"levelo_inurba_marseille","lat":43.26924,"lon":5.389081,"is_reserved":false,"is_disabled":true,"rental_uris":{"android":"levelo://app?vid=9bb4db31-0bf9-4171-bca1-76cb045f53a3","ios":"levelo://app?vid=9bb4db31-0bf9-4171-bca1-76cb045f53a3"},"vehicle_type_id":"4","last_reported":1759010869,"current_range_meters":9600,"station_id":"ce4bhhh2rcd13ifvqfl0","pricing_plan_id":"cebpf4jnsgd1na2vs0mg"},{"bike_id":"01bf55f2-4ac6-46f6-8504-3267bf31e1a6","system_id":"levelo_inurba_marseille","lat":43.2973,"lon":5.381787,"is_reserved":false,"is_disabled":false,"rental_uris":{"android":"levelo://app?vid=01bf55f2-4ac6-46f6-8504-3267bf31e1a6","ios":"levelo://app?vid=01bf55f2-4ac6-46f6-8504-3267bf31e1a6"},"vehicle_type_id":"4","last_reported":1759010869,"current_range_meters":9600,"station_id":"","pricing_plan_id":"cebpf4jnsgd1na2vs0mg"},{"bike_id":"8288441c-defe-43c7-9714-1ebfd89b3798","system_id":"levelo_inurba_marseille","lat":43.28855,"lon":5.39321,"is_reserved":false,"is_disabled":false,"rental_uris":{"android":"levelo://app?vid=8288441c-defe-43c7-9714-1ebfd89b3798","ios":"levelo://app?vid=8288441c-defe-43c7-9714-1ebfd89b3798"},"vehicle_type_id":"4","last_reported":1759010869,"current_range_meters":14400,"station_id":"ce4bh2p2rcd13ifvqdi0","pricing_plan_id":"cebpf4jnsgd1na2vs0mg"},{"bike_id":"8ad32f8c-0645-44a4-a74b-2197f54d05fc","system_id":"levelo_inurba_marseille","lat":43.31481,"lon":5.3731,"is_reserved":false,"is_disabled":false,"rental_uris":{"android":"levelo://app?vid=8ad32f8c-0645-44a4-a74b-2197f54d05fc","ios":"levelo://app?vid=8ad32f8c-0645-44a4-a74b-2197f54d05fc"},"vehicle_type_id":"4","last_reported":1759010869,"current_range_meters":10000,"station_id":"ce4bgt12rcd13ifvqcd0","pricing_plan_id":"cebpf4jnsgd1na2vs0mg"},{"bike_id":"927b022c-78be-488b-b2cb-8a24d3345f73","system_id":"levelo_inurba_marseille","lat":43.28732,"lon":5.37917,"is_reserved":false,"is_disabled":false,"rental_uris":{"android":"levelo://app?vid=927b022c-78be-488b-b2cb-8a24d3345f73","ios":"levelo://app?vid=927b022c-78be-488b-b2cb-8a24d3345f73"},"vehicle_type_id":"4","last_reported":1759010869,"current_range_meters":10000,"station_id":"ce4bh9p2rcd13ifvqec0","pricing_plan_id":"cebpf4jnsgd1na2vs0mg"},{"bike_id":"8360fe96-8a6b-4a67-9ba4-0ef948b002e1","system_id":"levelo_inurba_marseille","lat":43.25025,"lon":5.38915,"is_reserved":false,"is_disabled":true,"rental_uris":{"android":"levelo://app?vid=8360fe96-8a6b-4a67-9ba4-0ef948b002e1","ios":"levelo://app?vid=8360fe96-8a6b-4a67-9ba4-0ef948b002e1"},"vehicle_type_id":"4","last_reported":1759010869,"current_range_meters":10000,"station_id":"ce4bhgp2rcd13ifvqfd0","pricing_plan_id":"cebpf4jnsgd1na2vs0mg"},{"bike_id":"e114a3ae-0a89-4dac-83a7-a52236826763","system_id":"levelo_inurba_marseille","lat":43.21201,"lon":5.35086,"is_reserved":false,"is_disabled":false,"rental_uris":{"android":"levelo://app?vid=e114a3ae-0a89-4dac-83a7-a52236826763","ios":"levelo://app?vid=e114a3ae-0a89-4dac-83a7-a52236826763"},"vehicle_type_id":"4","last_reported":1759010869,"current_range_meters":10000,"station_id":"st_cvj6sg6p6f1abm77japg","pricing_plan_id":"cebpf4jnsgd1na2vs0mg"},{"bike_id":"bdcb2a94-d061-48e3-b55c-6989c8e7fc72","system_id":"levelo_inurba_marseille","lat":43.29798,"lon":5.36291,"is_reserved":false,"is_disabled":false,"rental_uris":{"android":"levelo://app?vid=bdcb2a94-d061-48e3-b55c-6989c8e7fc72","ios":"levelo://app?vid=bdcb2a94-d061-48e3-b55c-6989c8e7fc72"},"vehicle_type_id":"4","last_reported":1759010869,"current_range_meters":10000,"station_id":"","pricing_plan_id":"cebpf4jnsgd1na2vs0mg"},{"bike_id":"6ba46acf-6388-4bd2-98d0-9ed4eef9a32a","system_id":"levelo_inurba_marseille","lat":43.30937,"lon":5.40119,"is_reserved":false,"is_disabled":false,"rental_uris":{"android":"levelo://app?vid=6ba46acf-6388-4bd2-98d0-9ed4eef9a32a","ios":"levelo://app?vid=6ba46acf-6388-4bd2-98d0-9ed4eef9a32a"},"vehicle_type_id":"4","last_reported":1759010869,"current_range_meters":10000,"station_id":"ce4bgvp2rcd13ifvqct0","pricing_plan_id":"cebpf4jnsgd1na2vs0mg"},{"bike_id":"db8098eb-61f8-4094-88f1-dc02a14320f7","system_id":"levelo_inurba_marseille","lat":43.24627,"lon":5.43147,"is_reserved":false,"is_disabled":false,"rental_uris":{"android":"levelo://app?vid=db8098eb-61f8-4094-88f1-dc02a14320f7","ios":"levelo://app?vid=db8098eb-61f8-4094-88f1-dc02a14320f7"},"vehicle_type_id":"4","last_reported":1759010869,"current_range_meters":10000,"station_id":"st_d2m6c4gdas8pm72e190g","pricing_plan_id":"cebpf4jnsgd1na2vs0mg"},{"bike_id":"3f51e03c-3abb-4dde-8cdd-da596aa3252f","system_id":"levelo_inurba_marseille","lat":43.27723,"lon":5.38872,"is_reserved":false,"is_disabled":true,"rental_uris":{"android":"levelo://app?vid=3f51e03c-3abb-4dde-8cdd-da596aa3252f","ios":"levelo://app?vid=3f51e03c-3abb-4dde-8cdd-da596aa3252f"},"vehicle_type_id":"4","last_reported":1759010869,"current_range_meters":10800,"station_id":"","pricing_plan_id":"cebpf4jnsgd1na2vs0mg"},{"bike_id":"f2fd2284-837d-45c8-8a92-163c2aa30979","system_id":"levelo_inurba_marseille","lat":43.26937,"lon":5.38911,"is_reserved":false,"is_disabled":true,"rental_uris":{"android":"levelo://app?vid=f2fd2284-837d-45c8-8a92-163c2aa30979","ios":"levelo://app?vid=f2fd2284-837d-45c8-8a92-163c2aa30979"},"vehicle_type_id":"4","last_reported":1759010869,"current_range_meters":10800,"station_id":"ce4bhhh2rcd13ifvqfl0","pricing_plan_id":"cebpf4jnsgd1na2vs0mg"},{"bike_id":"3fa5fafa-f8e8-4995-aa96-d8ca94ae3fae","system_id":"levelo_inurba_marseille","lat":43.298004,"lon":5.380827,"is_reserved":false,"is_disabled":false,"rental_uris":{"android":"levelo://app?vid=3fa5fafa-f8e8-4995-aa96-d8ca94ae3fae","ios":"levelo://app?vid=3fa5fafa-f8e8-4995-aa96-d8ca94ae3fae"},"vehicle_type_id":"4","last_reported":1759010869,"current_range_meters":10800,"station_id":"ce4bgip2rcd13ifvqbb0","pricing_plan_id":"cebpf4jnsgd1na2vs0mg"},{"bike_id":"80bdba63-46f3-4274-b0d9-d9711409b6a8","system_id":"levelo_inurba_marseille","lat":43.270752,"lon":5.402497,"is_reserved":false,"is_disabled":false,"rental_uris":{"android":"levelo://app?vid=80bdba63-46f3-4274-b0d9-d9711409b6a8","ios":"levelo://app?vid=80bdba63-46f3-4274-b0d9-d9711409b6a8"},"vehicle_type_id":"4","last_reported":1759010869,"current_range_meters":10800,"station_id":"","pricing_plan_id":"cebpf4jnsgd1na2vs0mg"},{"bike_id":"46ac5fb6-ac2e-43e8-84c9-c4e46889ea29","system_id":"levelo_inurba_marseille","lat":43.21199,"lon":5.35071,"is_reserved":false,"is_disabled":false,"rental_uris":{"android":"levelo://app?vid=46ac5fb6-ac2e-43e8-84c9-c4e46889ea29","ios":"levelo://app?vid=46ac5fb6-ac2e-43e8-84c9-c4e46889ea29"},"vehicle_type_id":"4","last_reported":1759010869,"current_range_meters":10800,"station_id":"st_cvj6sg6p6f1abm77japg","pricing_plan_id":"cebpf4jnsgd1na2vs0mg"},{"bike_id":"3fd7c937-a838-4d6f-932e-9e3bccbc6d3b","system_id":"levelo_inurba_marseille","lat":43.299,"lon":5.382141,"is_reserved":false,"is_disabled":false,"rental_uris":{"android":"levelo://app?vid=3fd7c937-a838-4d6f-932e-9e3bccbc6d3b","ios":"levelo://app?vid=3fd7c937-a838-4d6f-932e-9e3bccbc6d3b"},"vehicle_type_id":"4","last_reported":1759010869,"current_range_meters":10800,"station_id":"","pricing_plan_id":"cebpf4jnsgd1na2vs0mg"},{"bike_id":"7ee12965-0fed-415c-8f08-8f986985cec6","system_id":"levelo_inurba_marseille","lat":43.21745,"lon":5.34597,"is_reserved":false,"is_disabled":true,"rental_uris":{"android":"levelo://app?vid=7ee12965-0fed-415c-8f08-8f986985cec6","ios":"levelo://app?vid=7ee12965-0fed-415c-8f08-8f986985cec6"},"vehicle_type_id":"4","last_reported":1759010869,"current_range_meters":10800,"station_id":"st_cvj6r9ubvosntc0bgbag","pricing_plan_id":"cebpf4jnsgd1na2vs0mg"},{"bike_id":"a3be4367-b937-47a5-9d04-17323934d0e4","system_id":"levelo_inurba_marseille","lat":43.28922,"lon":5.38399,"is_reserved":false,"is_disabled":false,"rental_uris":{"android":"levelo://app?vid=a3be4367-b937-47a5-9d04-17323934d0e4","ios":"levelo://app?vid=a3be4367-b937-47a5-9d04-17323934d0e4"},"vehicle_type_id":"4","last_reported":1759010869,"current_range_meters":11200,"station_id":"ce4bh612rcd13ifvqe6g","pricing_plan_id":"cebpf4jnsgd1na2vs0mg"},{"bike_id":"ab696285-d25e-4ca1-8096-ccd336596180","system_id":"levelo_inurba_marseille","lat":43.29034,"lon":5.39965,"is_reserved":false,"is_disabled":false,"rental_uris":{"android":"levelo://app?vid=ab696285-d25e-4ca1-8096-ccd336596180","ios":"levelo://app?vid=ab696285-d25e-4ca1-8096-ccd336596180"},"vehicle_type_id":"4","last_reported":1759010869,"current_range_meters":11200,"station_id":"ce4bh392rcd13ifvqdm0","pricing_plan_id":"cebpf4jnsgd1na2vs0mg"},{"bike_id":"934ea1ec-b7f6-49a1-9efa-287317d4eb22","system_id":"levelo_inurba_marseille","lat":43.29048,"lon":5.35914,"is_reserved":false,"is_disabled":false,"rental_uris":{"android":"levelo://app?vid=934ea1ec-b7f6-49a1-9efa-287317d4eb22","ios":"levelo://app?vid=934ea1ec-b7f6-49a1-9efa-287317d4eb22"},"vehicle_type_id":"4","last_reported":1759010869,"current_range_meters":11200,"station_id":"","pricing_plan_id":"cebpf4jnsgd1na2vs0mg"},{"bike_id":"31ad08df-2e9b-49d8-ae7e-84ffa71954ee","system_id":"levelo_inurba_marseille","lat":43.28619,"lon":5.3511,"is_reserved":false,"is_disabled":false,"rental_uris":{"android":"levelo://app?vid=31ad08df-2e9b-49d8-ae7e-84ffa71954ee","ios":"levelo://app?vid=31ad08df-2e9b-49d8-ae7e-84ffa71954ee"},"vehicle_type_id":"4","last_reported":1759010869,"current_range_meters":11200,"station_id":"ce4bhch2rcd13ifvqeug","pricing_plan_id":"cebpf4jnsgd1na2vs0mg"},{"bike_id":"af1bbfa7-4f08-432d-b768-e5e8815d1f3f","system_id":"levelo_inurba_marseille","lat":43.25641,"lon":5.38636,"is_reserved":false,"is_disabled":false,"rental_uris":{"android":"levelo://app?vid=af1bbfa7-4f08-432d-b768-e5e8815d1f3f","ios":"levelo://app?vid=af1bbfa7-4f08-432d-b768-e5e8815d1f3f"},"vehicle_type_id":"4","last_reported":1759010869,"current_range_meters":11200,"station_id":"","pricing_plan_id":"cebpf4jnsgd1na2vs0mg"},{"bike_id":"fce3e151-718e-4ae7-883d-1b5c7564afe0","system_id":"levelo_inurba_marseille","lat":43.3088,"lon":5.39658,"is_reserved":false,"is_disabled":false,"rental_uris":{"android":"levelo://app?vid=fce3e151-718e-4ae7-883d-1b5c7564afe0","ios":"levelo://app?vid=fce3e151-718e-4ae7-883d-1b5c7564afe0"},"vehicle_type_id":"4","last_reported":1759010869,"current_range_meters":14000,"station_id":"ce4bh012rcd13ifvqcv0","pricing_plan_id":"cebpf4jnsgd1na2vs0mg"},{"bike_id":"a4fed150-a105-40af-a338-cefbc14f3e94","system_id":"levelo_inurba_marseille","lat":43.27975,"lon":5.38696,"is_reserved":false,"is_disabled":false,"rental_uris":{"android":"levelo://app?vid=a4fed150-a105-40af-a338-cefbc14f3e94","ios":"levelo://app?vid=a4fed150-a105-40af-a338-cefbc14f3e94"},"vehicle_type_id":"4","last_reported":1759010869,"current_range_meters":11200,"station_id":"ce4bhg12rcd13ifvqf80","pricing_plan_id":"cebpf4jnsgd1na2vs0mg"},{"bike_id":"71649b2c-48f8-4b8a-b9c0-477bd83fa14b","system_id":"levelo_inurba_marseille","lat":43.28436,"lon":5.34976,"is_reserved":false,"is_disabled":false,"rental_uris":{"android":"levelo://app?vid=71649b2c-48f8-4b8a-b9c0-477bd83fa14b","ios":"levelo://app?vid=71649b2c-48f8-4b8a-b9c0-477bd83fa14b"},"vehicle_type_id":"4","last_reported":1759010869,"current_range_meters":11600,"station_id":"ce4bhbh2rcd13ifvqepg","pricing_plan_id":"cebpf4jnsgd1na2vs0mg"},{"bike_id":"dae9c579-f681-483a-a3fa-73504115eeb3","system_id":"levelo_inurba_marseille","lat":43.29249,"lon":5.3844,"is_reserved":false,"is_disabled":false,"rental_uris":{"android":"levelo://app?vid=dae9c579-f681-483a-a3fa-73504115eeb3","ios":"levelo://app?vid=dae9c579-f681-483a-a3fa-73504115eeb3"},"vehicle_type_id":"4","last_reported":1759010869,"current_range_meters":11600,"station_id":"ce4bh692rcd13ifvqea0","pricing_plan_id":"cebpf4jnsgd1na2vs0mg"},{"bike_id":"805ea802-474c-4f68-9c62-2da627ae8ed0","system_id":"levelo_inurba_marseille","lat":43.3093,"lon":5.40136,"is_reserved":false,"is_disabled":false,"rental_uris":{"android":"levelo://app?vid=805ea802-474c-4f68-9c62-2da627ae8ed0","ios":"levelo://app?vid=805ea802-474c-4f68-9c62-2da627ae8ed0"},"vehicle_type_id":"4","last_reported":1759010869,"current_range_meters":11600,"station_id":"ce4bgvp2rcd13ifvqct0","pricing_plan_id":"cebpf4jnsgd1na2vs0mg"},{"bike_id":"e35a0bdf-bd77-424b-84d2-f0ff692f3f86","system_id":"levelo_inurba_marseille","lat":43.28838,"lon":5.35841,"is_reserved":false,"is_disabled":true,"rental_uris":{"android":"levelo://app?vid=e35a0bdf-bd77-424b-84d2-f0ff692f3f86","ios":"levelo://app?vid=e35a0bdf-bd77-424b-84d2-f0ff692f3f86"},"vehicle_type_id":"4","last_reported":1759010869,"current_range_meters":11600,"station_id":"ce4bhb12rcd13ifvqem0","pricing_plan_id":"cebpf4jnsgd1na2vs0mg"},{"bike_id":"78600b27-aa8a-4460-a4f3-16f7f8d0b522","system_id":"levelo_inurba_marseille","lat":43.31757,"lon":5.39881,"is_reserved":false,"is_disabled":false,"rental_uris":{"android":"levelo://app?vid=78600b27-aa8a-4460-a4f3-16f7f8d0b522","ios":"levelo://app?vid=78600b27-aa8a-4460-a4f3-16f7f8d0b522"},"vehicle_type_id":"4","last_reported":1759010869,"current_range_meters":11600,"station_id":"","pricing_plan_id":"cebpf4jnsgd1na2vs0mg"},{"bike_id":"720623f7-9148-4a0e-ade4-a205c6fa44f0","system_id":"levelo_inurba_marseille","lat":43.28981,"lon":5.42916,"is_reserved":false,"is_disabled":false,"rental_uris":{"android":"levelo://app?vid=720623f7-9148-4a0e-ade4-a205c6fa44f0","ios":"levelo://app?vid=720623f7-9148-4a0e-ade4-a205c6fa44f0"},"vehicle_type_id":"4","last_reported":1759010869,"current_range_meters":11600,"station_id":"","pricing_plan_id":"cebpf4jnsgd1na2vs0mg"},{"bike_id":"996ecb29-9144-457e-9bff-8452a66a2e14","system_id":"levelo_inurba_marseille","lat":43.31089,"lon":5.42432,"is_reserved":false,"is_disabled":false,"rental_uris":{"android":"levelo://app?vid=996ecb29-9144-457e-9bff-8452a66a2e14","ios":"levelo://app?vid=996ecb29-9144-457e-9bff-8452a66a2e14"},"vehicle_type_id":"4","last_reported":1759010869,"current_range_meters":11600,"station_id":"ce4bhp92rcd13ifvqhag","pricing_plan_id":"cebpf4jnsgd1na2vs0mg"},{"bike_id":"e67d30c9-865a-4ee7-893d-2aad1e475f2b","system_id":"levelo_inurba_marseille","lat":43.26205,"lon":5.41556,"is_reserved":false,"is_disabled":false,"rental_uris":{"android":"levelo://app?vid=e67d30c9-865a-4ee7-893d-2aad1e475f2b","ios":"levelo://app?vid=e67d30c9-865a-4ee7-893d-2aad1e475f2b"},"vehicle_type_id":"4","last_reported":1759010869,"current_range_meters":11600,"station_id":"","pricing_plan_id":"cebpf4jnsgd1na2vs0mg"},{"bike_id":"695662ab-65fe-4c59-81b6-3dceb9f5066d","system_id":"levelo_inurba_marseille","lat":43.255737,"lon":5.382386,"is_reserved":false,"is_disabled":true,"rental_uris":{"android":"levelo://app?vid=695662ab-65fe-4c59-81b6-3dceb9f5066d","ios":"levelo://app?vid=695662ab-65fe-4c59-81b6-3dceb9f5066d"},"vehicle_type_id":"4","last_reported":1759010869,"current_range_meters":11600,"station_id":"ce4bhih2rcd13ifvqfs0","pricing_plan_id":"cebpf4jnsgd1na2vs0mg"},{"bike_id":"03350417-1098-4d6c-b8fe-9e64358744bf","system_id":"levelo_inurba_marseille","lat":43.3097,"lon":5.3763,"is_reserved":false,"is_disabled":false,"rental_uris":{"android":"levelo://app?vid=03350417-1098-4d6c-b8fe-9e64358744bf","ios":"levelo://app?vid=03350417-1098-4d6c-b8fe-9e64358744bf"},"vehicle_type_id":"4","last_reported":1759010869,"current_range_meters":11600,"station_id":"","pricing_plan_id":"cebpf4jnsgd1na2vs0mg"},{"bike_id":"9feae468-b8bd-422a-8fcb-2d68fc5ee82c","system_id":"levelo_inurba_marseille","lat":43.33376,"lon":5.41999,"is_reserved":false,"is_disabled":false,"rental_uris":{"android":"levelo://app?vid=9feae468-b8bd-422a-8fcb-2d68fc5ee82c","ios":"levelo://app?vid=9feae468-b8bd-422a-8fcb-2d68fc5ee82c"},"vehicle_type_id":"4","last_reported":1759010869,"current_range_meters":12000,"station_id":"","pricing_plan_id":"cebpf4jnsgd1na2vs0mg"},{"bike_id":"f03b792f-d9b3-4dee-ac63-50c5f35e3187","system_id":"levelo_inurba_marseille","lat":43.28398,"lon":5.34968,"is_reserved":false,"is_disabled":false,"rental_uris":{"android":"levelo://app?vid=f03b792f-d9b3-4dee-ac63-50c5f35e3187","ios":"levelo://app?vid=f03b792f-d9b3-4dee-ac63-50c5f35e3187"},"vehicle_type_id":"4","last_reported":1759010869,"current_range_meters":12000,"station_id":"ce4bhbh2rcd13ifvqepg","pricing_plan_id":"cebpf4jnsgd1na2vs0mg"},{"bike_id":"6710525e-93a7-4705-998d-082c92d30c55","system_id":"levelo_inurba_marseille","lat":43.23178,"lon":5.39985,"is_reserved":false,"is_disabled":false,"rental_uris":{"android":"levelo://app?vid=6710525e-93a7-4705-998d-082c92d30c55","ios":"levelo://app?vid=6710525e-93a7-4705-998d-082c92d30c55"},"vehicle_type_id":"4","last_reported":1759010869,"current_range_meters":12000,"station_id":"ce4bhn12rcd13ifvqgqg","pricing_plan_id":"cebpf4jnsgd1na2vs0mg"},{"bike_id":"349977c5-2efd-48ed-8dd8-9cfd0d464679","system_id":"levelo_inurba_marseille","lat":43.212,"lon":5.35073,"is_reserved":false,"is_disabled":false,"rental_uris":{"android":"levelo://app?vid=349977c5-2efd-48ed-8dd8-9cfd0d464679","ios":"levelo://app?vid=349977c5-2efd-48ed-8dd8-9cfd0d464679"},"vehicle_type_id":"4","last_reported":1759010869,"current_range_meters":12000,"station_id":"st_cvj6sg6p6f1abm77japg","pricing_plan_id":"cebpf4jnsgd1na2vs0mg"},{"bike_id":"360c0746-c854-4629-884f-7c911de53d9d","system_id":"levelo_inurba_marseille","lat":43.31756,"lon":5.39004,"is_reserved":false,"is_disabled":false,"rental_uris":{"android":"levelo://app?vid=360c0746-c854-4629-884f-7c911de53d9d","ios":"levelo://app?vid=360c0746-c854-4629-884f-7c911de53d9d"},"vehicle_type_id":"4","last_reported":1759010869,"current_range_meters":12000,"station_id":"ce4bhqp2rcd13ifvqhng","pricing_plan_id":"cebpf4jnsgd1na2vs0mg"},{"bike_id":"4db2886d-2ddb-433a-ae4b-2ba23e8f6040","system_id":"levelo_inurba_marseille","lat":43.33273,"lon":5.37456,"is_reserved":false,"is_disabled":false,"rental_uris":{"android":"levelo://app?vid=4db2886d-2ddb-433a-ae4b-2ba23e8f6040","ios":"levelo://app?vid=4db2886d-2ddb-433a-ae4b-2ba23e8f6040"},"vehicle_type_id":"4","last_reported":1759010869,"current_range_meters":12000,"station_id":"","pricing_plan_id":"cebpf4jnsgd1na2vs0mg"},{"bike_id":"db256f78-e25c-4b53-a598-0ac7b589dbeb","system_id":"levelo_inurba_marseille","lat":43.24175,"lon":5.39732,"is_reserved":false,"is_disabled":false,"rental_uris":{"android":"levelo://app?vid=db256f78-e25c-4b53-a598-0ac7b589dbeb","ios":"levelo://app?vid=db256f78-e25c-4b53-a598-0ac7b589dbeb"},"vehicle_type_id":"4","last_reported":1759010869,"current_range_meters":12000,"station_id":"ce4bhn12rcd13ifvqgpg","pricing_plan_id":"cebpf4jnsgd1na2vs0mg"},{"bike_id":"dfa6c4f0-d708-4c9e-a8fb-defb758645fd","system_id":"levelo_inurba_marseille","lat":43.241845,"lon":5.397229,"is_reserved":false,"is_disabled":false,"rental_uris":{"android":"levelo://app?vid=dfa6c4f0-d708-4c9e-a8fb-defb758645fd","ios":"levelo://app?vid=dfa6c4f0-d708-4c9e-a8fb-defb758645fd"},"vehicle_type_id":"4","last_reported":1759010869,"current_range_meters":12000,"station_id":"ce4bhn12rcd13ifvqgpg","pricing_plan_id":"cebpf4jnsgd1na2vs0mg"},{"bike_id":"5cb4465a-378c-492b-a18d-0c2187a62008","system_id":"levelo_inurba_marseille","lat":43.31072,"lon":5.38356,"is_reserved":false,"is_disabled":false,"rental_uris":{"android":"levelo://app?vid=5cb4465a-378c-492b-a18d-0c2187a62008","ios":"levelo://app?vid=5cb4465a-378c-492b-a18d-0c2187a62008"},"vehicle_type_id":"4","last_reported":1759010869,"current_range_meters":12400,"station_id":"ce4bgv92rcd13ifvqcr0","pricing_plan_id":"cebpf4jnsgd1na2vs0mg"},{"bike_id":"2ca205d7-ac55-4d7d-ae07-5f6058c9f252","system_id":"levelo_inurba_marseille","lat":43.29983,"lon":5.38484,"is_reserved":false,"is_disabled":false,"rental_uris":{"android":"levelo://app?vid=2ca205d7-ac55-4d7d-ae07-5f6058c9f252","ios":"levelo://app?vid=2ca205d7-ac55-4d7d-ae07-5f6058c9f252"},"vehicle_type_id":"4","last_reported":1759010869,"current_range_meters":12400,"station_id":"ce4bgj92rcd13ifvqbd0","pricing_plan_id":"cebpf4jnsgd1na2vs0mg"},{"bike_id":"0450df40-b2de-4014-8565-56d961cd8dad","system_id":"levelo_inurba_marseille","lat":43.26943,"lon":5.38634,"is_reserved":false,"is_disabled":false,"rental_uris":{"android":"levelo://app?vid=0450df40-b2de-4014-8565-56d961cd8dad","ios":"levelo://app?vid=0450df40-b2de-4014-8565-56d961cd8dad"},"vehicle_type_id":"4","last_reported":1759010869,"current_range_meters":12000,"station_id":"ce4bhh92rcd13ifvqfh0","pricing_plan_id":"cebpf4jnsgd1na2vs0mg"},{"bike_id":"2c7a5df4-d89b-4973-9af6-d651d62ac55e","system_id":"levelo_inurba_marseille","lat":43.28615,"lon":5.35109,"is_reserved":false,"is_disabled":false,"rental_uris":{"android":"levelo://app?vid=2c7a5df4-d89b-4973-9af6-d651d62ac55e","ios":"levelo://app?vid=2c7a5df4-d89b-4973-9af6-d651d62ac55e"},"vehicle_type_id":"4","last_reported":1759010869,"current_range_meters":12400,"station_id":"ce4bhch2rcd13ifvqeug","pricing_plan_id":"cebpf4jnsgd1na2vs0mg"},{"bike_id":"0b10856b-3dad-4052-bc3a-2c17e6f16e23","system_id":"levelo_inurba_marseille","lat":43.27567,"lon":5.38409,"is_reserved":false,"is_disabled":true,"rental_uris":{"android":"levelo://app?vid=0b10856b-3dad-4052-bc3a-2c17e6f16e23","ios":"levelo://app?vid=0b10856b-3dad-4052-bc3a-2c17e6f16e23"},"vehicle_type_id":"4","last_reported":1759010869,"current_range_meters":12400,"station_id":"ce4bhh92rcd13ifvqfi0","pricing_plan_id":"cebpf4jnsgd1na2vs0mg"},{"bike_id":"dc4883ea-8f06-44d1-8b3d-6660e39a87ec","system_id":"levelo_inurba_marseille","lat":43.22939,"lon":5.35372,"is_reserved":false,"is_disabled":true,"rental_uris":{"android":"levelo://app?vid=dc4883ea-8f06-44d1-8b3d-6660e39a87ec","ios":"levelo://app?vid=dc4883ea-8f06-44d1-8b3d-6660e39a87ec"},"vehicle_type_id":"4","last_reported":1759010869,"current_range_meters":12400,"station_id":"cpo3532slgdg3j2ikp40","pricing_plan_id":"cebpf4jnsgd1na2vs0mg"},{"bike_id":"3844788c-8449-45c2-bde4-b1676806f6a2","system_id":"levelo_inurba_marseille","lat":43.29173,"lon":5.37158,"is_reserved":false,"is_disabled":false,"rental_uris":{"android":"levelo://app?vid=3844788c-8449-45c2-bde4-b1676806f6a2","ios":"levelo://app?vid=3844788c-8449-45c2-bde4-b1676806f6a2"},"vehicle_type_id":"4","last_reported":1759010869,"current_range_meters":12000,"station_id":"ce4bha92rcd13ifvqeh0","pricing_plan_id":"cebpf4jnsgd1na2vs0mg"},{"bike_id":"5755c986-9c1f-4593-887c-fc59aede9f3c","system_id":"levelo_inurba_marseille","lat":43.29047,"lon":5.38109,"is_reserved":false,"is_disabled":false,"rental_uris":{"android":"levelo://app?vid=5755c986-9c1f-4593-887c-fc59aede9f3c","ios":"levelo://app?vid=5755c986-9c1f-4593-887c-fc59aede9f3c"},"vehicle_type_id":"4","last_reported":1759010869,"current_range_meters":12400,"station_id":"ce4bh4p2rcd13ifvqe1g","pricing_plan_id":"cebpf4jnsgd1na2vs0mg"},{"bike_id":"e863eb13-a40f-409e-ae03-80c63350785a","system_id":"levelo_inurba_marseille","lat":43.26514,"lon":5.39552,"is_reserved":false,"is_disabled":false,"rental_uris":{"android":"levelo://app?vid=e863eb13-a40f-409e-ae03-80c63350785a","ios":"levelo://app?vid=e863eb13-a40f-409e-ae03-80c63350785a"},"vehicle_type_id":"4","last_reported":1759010869,"current_range_meters":12800,"station_id":"ce4bhi12rcd13ifvqfq0","pricing_plan_id":"cebpf4jnsgd1na2vs0mg"},{"bike_id":"eedfbf61-711e-444c-88e3-b720ea74f76a","system_id":"levelo_inurba_marseille","lat":43.21233,"lon":5.35077,"is_reserved":false,"is_disabled":false,"rental_uris":{"android":"levelo://app?vid=eedfbf61-711e-444c-88e3-b720ea74f76a","ios":"levelo://app?vid=eedfbf61-711e-444c-88e3-b720ea74f76a"},"vehicle_type_id":"4","last_reported":1759010869,"current_range_meters":12800,"station_id":"","pricing_plan_id":"cebpf4jnsgd1na2vs0mg"},{"bike_id":"d21d1a0d-33e8-40f6-a7c9-4d986918ab66","system_id":"levelo_inurba_marseille","lat":43.30945,"lon":5.39042,"is_reserved":false,"is_disabled":false,"rental_uris":{"android":"levelo://app?vid=d21d1a0d-33e8-40f6-a7c9-4d986918ab66","ios":"levelo://app?vid=d21d1a0d-33e8-40f6-a7c9-4d986918ab66"},"vehicle_type_id":"4","last_reported":1759010869,"current_range_meters":12800,"station_id":"ce4bgup2rcd13ifvqco0","pricing_plan_id":"cebpf4jnsgd1na2vs0mg"},{"bike_id":"bcf0a638-3c6e-434d-92b8-dc25944d9c7b","system_id":"levelo_inurba_marseille","lat":43.28938,"lon":5.36632,"is_reserved":false,"is_disabled":false,"rental_uris":{"android":"levelo://app?vid=bcf0a638-3c6e-434d-92b8-dc25944d9c7b","ios":"levelo://app?vid=bcf0a638-3c6e-434d-92b8-dc25944d9c7b"},"vehicle_type_id":"4","last_reported":1759010869,"current_range_meters":10000,"station_id":"ce4bhap2rcd13ifvqek0","pricing_plan_id":"cebpf4jnsgd1na2vs0mg"},{"bike_id":"b12490fe-0dcd-47f9-b077-882bf0ed49d7","system_id":"levelo_inurba_marseille","lat":43.31269,"lon":5.38647,"is_reserved":false,"is_disabled":false,"rental_uris":{"android":"levelo://app?vid=b12490fe-0dcd-47f9-b077-882bf0ed49d7","ios":"levelo://app?vid=b12490fe-0dcd-47f9-b077-882bf0ed49d7"},"vehicle_type_id":"4","last_reported":1759010869,"current_range_meters":12800,"station_id":"","pricing_plan_id":"cebpf4jnsgd1na2vs0mg"},{"bike_id":"a141ba13-19f1-4f9e-9fa5-b678aae29a88","system_id":"levelo_inurba_marseille","lat":43.3113,"lon":5.3777,"is_reserved":false,"is_disabled":false,"rental_uris":{"android":"levelo://app?vid=a141ba13-19f1-4f9e-9fa5-b678aae29a88","ios":"levelo://app?vid=a141ba13-19f1-4f9e-9fa5-b678aae29a88"},"vehicle_type_id":"4","last_reported":1759010869,"current_range_meters":13600,"station_id":"ce4bgt92rcd13ifvqcg0","pricing_plan_id":"cebpf4jnsgd1na2vs0mg"},{"bike_id":"976fd36e-2f5c-424c-baa8-068b37f1eb42","system_id":"levelo_inurba_marseille","lat":43.27567,"lon":5.3841,"is_reserved":false,"is_disabled":false,"rental_uris":{"android":"levelo://app?vid=976fd36e-2f5c-424c-baa8-068b37f1eb42","ios":"levelo://app?vid=976fd36e-2f5c-424c-baa8-068b37f1eb42"},"vehicle_type_id":"4","last_reported":1759010869,"current_range_meters":13600,"station_id":"ce4bhh92rcd13ifvqfi0","pricing_plan_id":"cebpf4jnsgd1na2vs0mg"},{"bike_id":"096c311a-e31f-4e60-ab8c-de0b76354103","system_id":"levelo_inurba_marseille","lat":43.27189,"lon":5.41002,"is_reserved":false,"is_disabled":true,"rental_uris":{"android":"levelo://app?vid=096c311a-e31f-4e60-ab8c-de0b76354103","ios":"levelo://app?vid=096c311a-e31f-4e60-ab8c-de0b76354103"},"vehicle_type_id":"4","last_reported":1759010869,"current_range_meters":13600,"station_id":"ce4bhl12rcd13ifvqgf0","pricing_plan_id":"cebpf4jnsgd1na2vs0mg"},{"bike_id":"e8a00adf-cc3c-4eaa-bc99-7c5f03f75fb1","system_id":"levelo_inurba_marseille","lat":43.25867,"lon":5.39893,"is_reserved":false,"is_disabled":false,"rental_uris":{"android":"levelo://app?vid=e8a00adf-cc3c-4eaa-bc99-7c5f03f75fb1","ios":"levelo://app?vid=e8a00adf-cc3c-4eaa-bc99-7c5f03f75fb1"},"vehicle_type_id":"4","last_reported":1759010869,"current_range_meters":13600,"station_id":"ce4bhl92rcd13ifvqghg","pricing_plan_id":"cebpf4jnsgd1na2vs0mg"},{"bike_id":"85c7ac65-0172-4766-8977-f4ba34ed9c93","system_id":"levelo_inurba_marseille","lat":43.25332,"lon":5.42175,"is_reserved":false,"is_disabled":false,"rental_uris":{"android":"levelo://app?vid=85c7ac65-0172-4766-8977-f4ba34ed9c93","ios":"levelo://app?vid=85c7ac65-0172-4766-8977-f4ba34ed9c93"},"vehicle_type_id":"4","last_reported":1759010869,"current_range_meters":14000,"station_id":"st_d2m65c5bi1j21697t3ng","pricing_plan_id":"cebpf4jnsgd1na2vs0mg"},{"bike_id":"31d14509-f243-4db5-afcc-f77e9d3dbf05","system_id":"levelo_inurba_marseille","lat":43.310773,"lon":5.383487,"is_reserved":false,"is_disabled":true,"rental_uris":{"android":"levelo://app?vid=31d14509-f243-4db5-afcc-f77e9d3dbf05","ios":"levelo://app?vid=31d14509-f243-4db5-afcc-f77e9d3dbf05"},"vehicle_type_id":"4","last_reported":1759010869,"current_range_meters":14000,"station_id":"ce4bgv92rcd13ifvqcr0","pricing_plan_id":"cebpf4jnsgd1na2vs0mg"},{"bike_id":"a1e2b7f3-f53e-4b6a-b8f1-27b0fbf9634d","system_id":"levelo_inurba_marseille","lat":43.31582,"lon":5.37575,"is_reserved":false,"is_disabled":false,"rental_uris":{"android":"levelo://app?vid=a1e2b7f3-f53e-4b6a-b8f1-27b0fbf9634d","ios":"levelo://app?vid=a1e2b7f3-f53e-4b6a-b8f1-27b0fbf9634d"},"vehicle_type_id":"4","last_reported":1759010869,"current_range_meters":14400,"station_id":"","pricing_plan_id":"cebpf4jnsgd1na2vs0mg"},{"bike_id":"7fa78f63-17b2-4227-927a-964d52855466","system_id":"levelo_inurba_marseille","lat":43.28698,"lon":5.39986,"is_reserved":false,"is_disabled":false,"rental_uris":{"android":"levelo://app?vid=7fa78f63-17b2-4227-927a-964d52855466","ios":"levelo://app?vid=7fa78f63-17b2-4227-927a-964d52855466"},"vehicle_type_id":"4","last_reported":1759010869,"current_range_meters":14400,"station_id":"ce4bho92rcd13ifvqh3g","pricing_plan_id":"cebpf4jnsgd1na2vs0mg"},{"bike_id":"6d98ab21-1faa-4b15-97b2-a1dd6f53a5a7","system_id":"levelo_inurba_marseille","lat":43.27437,"lon":5.39376,"is_reserved":false,"is_disabled":true,"rental_uris":{"android":"levelo://app?vid=6d98ab21-1faa-4b15-97b2-a1dd6f53a5a7","ios":"levelo://app?vid=6d98ab21-1faa-4b15-97b2-a1dd6f53a5a7"},"vehicle_type_id":"4","last_reported":1759010869,"current_range_meters":14400,"station_id":"ce4bhdp2rcd13ifvqf20","pricing_plan_id":"cebpf4jnsgd1na2vs0mg"},{"bike_id":"4c02c545-ad59-45b1-9b9c-d3678a5922c7","system_id":"levelo_inurba_marseille","lat":43.337444,"lon":5.374475,"is_reserved":false,"is_disabled":false,"rental_uris":{"android":"levelo://app?vid=4c02c545-ad59-45b1-9b9c-d3678a5922c7","ios":"levelo://app?vid=4c02c545-ad59-45b1-9b9c-d3678a5922c7"},"vehicle_type_id":"4","last_reported":1759010869,"current_range_meters":14400,"station_id":"","pricing_plan_id":"cebpf4jnsgd1na2vs0mg"},{"bike_id":"c097f066-7651-435e-913f-a8a7838aba88","system_id":"levelo_inurba_marseille","lat":43.33722,"lon":5.37459,"is_reserved":false,"is_disabled":false,"rental_uris":{"android":"levelo://app?vid=c097f066-7651-435e-913f-a8a7838aba88","ios":"levelo://app?vid=c097f066-7651-435e-913f-a8a7838aba88"},"vehicle_type_id":"4","last_reported":1759010869,"current_range_meters":14400,"station_id":"","pricing_plan_id":"cebpf4jnsgd1na2vs0mg"},{"bike_id":"8f1e1232-1090-43b9-9e7e-296d71fbc242","system_id":"levelo_inurba_marseille","lat":43.27569,"lon":5.38431,"is_reserved":false,"is_disabled":false,"rental_uris":{"android":"levelo://app?vid=8f1e1232-1090-43b9-9e7e-296d71fbc242","ios":"levelo://app?vid=8f1e1232-1090-43b9-9e7e-296d71fbc242"},"vehicle_type_id":"4","last_reported":1759010869,"current_range_meters":14400,"station_id":"ce4bhh92rcd13ifvqfi0","pricing_plan_id":"cebpf4jnsgd1na2vs0mg"},{"bike_id":"d66cd03b-dbeb-4aa4-961e-bd97aeefe4a4","system_id":"levelo_inurba_marseille","lat":43.26018,"lon":5.41495,"is_reserved":false,"is_disabled":false,"rental_uris":{"android":"levelo://app?vid=d66cd03b-dbeb-4aa4-961e-bd97aeefe4a4","ios":"levelo://app?vid=d66cd03b-dbeb-4aa4-961e-bd97aeefe4a4"},"vehicle_type_id":"4","last_reported":1759010869,"current_range_meters":14400,"station_id":"","pricing_plan_id":"cebpf4jnsgd1na2vs0mg"},{"bike_id":"e54b8c9f-4f66-4c52-b603-24745fa68456","system_id":"levelo_inurba_marseille","lat":43.25727,"lon":5.41114,"is_reserved":false,"is_disabled":false,"rental_uris":{"android":"levelo://app?vid=e54b8c9f-4f66-4c52-b603-24745fa68456","ios":"levelo://app?vid=e54b8c9f-4f66-4c52-b603-24745fa68456"},"vehicle_type_id":"4","last_reported":1759010869,"current_range_meters":14800,"station_id":"ce4bhkp2rcd13ifvqgd0","pricing_plan_id":"cebpf4jnsgd1na2vs0mg"},{"bike_id":"ca04bb5a-1fa4-49fe-a5a7-ea9700fde220","system_id":"levelo_inurba_marseille","lat":43.30876,"lon":5.39655,"is_reserved":false,"is_disabled":false,"rental_uris":{"android":"levelo://app?vid=ca04bb5a-1fa4-49fe-a5a7-ea9700fde220","ios":"levelo://app?vid=ca04bb5a-1fa4-49fe-a5a7-ea9700fde220"},"vehicle_type_id":"4","last_reported":1759010869,"current_range_meters":14400,"station_id":"ce4bh012rcd13ifvqcv0","pricing_plan_id":"cebpf4jnsgd1na2vs0mg"},{"bike_id":"d66dffe7-ee54-414a-bcbe-39a7d360aa93","system_id":"levelo_inurba_marseille","lat":43.28099,"lon":5.37835,"is_reserved":false,"is_disabled":false,"rental_uris":{"android":"levelo://app?vid=d66dffe7-ee54-414a-bcbe-39a7d360aa93","ios":"levelo://app?vid=d66dffe7-ee54-414a-bcbe-39a7d360aa93"},"vehicle_type_id":"4","last_reported":1759010869,"current_range_meters":14400,"station_id":"ce4bha12rcd13ifvqee0","pricing_plan_id":"cebpf4jnsgd1na2vs0mg"},{"bike_id":"b219c086-dfbe-4625-9649-9c9028fcc568","system_id":"levelo_inurba_marseille","lat":43.24806,"lon":5.37457,"is_reserved":false,"is_disabled":false,"rental_uris":{"android":"levelo://app?vid=b219c086-dfbe-4625-9649-9c9028fcc568","ios":"levelo://app?vid=b219c086-dfbe-4625-9649-9c9028fcc568"},"vehicle_type_id":"4","last_reported":1759010869,"current_range_meters":14800,"station_id":"ce4bhgh2rcd13ifvqfb0","pricing_plan_id":"cebpf4jnsgd1na2vs0mg"},{"bike_id":"fd9f3d61-f02d-4c4f-9eb7-db8cc72f0c9e","system_id":"levelo_inurba_marseille","lat":43.298987,"lon":5.38153,"is_reserved":false,"is_disabled":false,"rental_uris":{"android":"levelo://app?vid=fd9f3d61-f02d-4c4f-9eb7-db8cc72f0c9e","ios":"levelo://app?vid=fd9f3d61-f02d-4c4f-9eb7-db8cc72f0c9e"},"vehicle_type_id":"4","last_reported":1759010869,"current_range_meters":14800,"station_id":"ce4bgj12rcd13ifvqbc0","pricing_plan_id":"cebpf4jnsgd1na2vs0mg"},{"bike_id":"a63cf9d7-ee5b-4a92-81f3-6dfba2a1e0ee","system_id":"levelo_inurba_marseille","lat":43.31167,"lon":5.38692,"is_reserved":false,"is_disabled":false,"rental_uris":{"android":"levelo://app?vid=a63cf9d7-ee5b-4a92-81f3-6dfba2a1e0ee","ios":"levelo://app?vid=a63cf9d7-ee5b-4a92-81f3-6dfba2a1e0ee"},"vehicle_type_id":"4","last_reported":1759010869,"current_range_meters":14800,"station_id":"ce4bgv12rcd13ifvqcp0","pricing_plan_id":"cebpf4jnsgd1na2vs0mg"},{"bike_id":"4118f6db-0b0e-46a1-b8bb-a7887ede9cb3","system_id":"levelo_inurba_marseille","lat":43.28114,"lon":5.37851,"is_reserved":false,"is_disabled":false,"rental_uris":{"android":"levelo://app?vid=4118f6db-0b0e-46a1-b8bb-a7887ede9cb3","ios":"levelo://app?vid=4118f6db-0b0e-46a1-b8bb-a7887ede9cb3"},"vehicle_type_id":"4","last_reported":1759010869,"current_range_meters":14400,"station_id":"ce4bha12rcd13ifvqee0","pricing_plan_id":"cebpf4jnsgd1na2vs0mg"},{"bike_id":"33ac03ed-dfbb-4aa1-aee0-f01e22e067d9","system_id":"levelo_inurba_marseille","lat":43.24637,"lon":5.43151,"is_reserved":false,"is_disabled":false,"rental_uris":{"android":"levelo://app?vid=33ac03ed-dfbb-4aa1-aee0-f01e22e067d9","ios":"levelo://app?vid=33ac03ed-dfbb-4aa1-aee0-f01e22e067d9"},"vehicle_type_id":"4","last_reported":1759010869,"current_range_meters":15200,"station_id":"st_d2m6c4gdas8pm72e190g","pricing_plan_id":"cebpf4jnsgd1na2vs0mg"},{"bike_id":"cffb76d0-d641-47dd-912d-8b7246cf4e57","system_id":"levelo_inurba_marseille","lat":43.30928,"lon":5.40154,"is_reserved":false,"is_disabled":false,"rental_uris":{"android":"levelo://app?vid=cffb76d0-d641-47dd-912d-8b7246cf4e57","ios":"levelo://app?vid=cffb76d0-d641-47dd-912d-8b7246cf4e57"},"vehicle_type_id":"4","last_reported":1759010869,"current_range_meters":15200,"station_id":"ce4bgvp2rcd13ifvqct0","pricing_plan_id":"cebpf4jnsgd1na2vs0mg"},{"bike_id":"1f2baef8-8285-417c-939e-3f973c12035d","system_id":"levelo_inurba_marseille","lat":43.2572,"lon":5.41112,"is_reserved":false,"is_disabled":false,"rental_uris":{"android":"levelo://app?vid=1f2baef8-8285-417c-939e-3f973c12035d","ios":"levelo://app?vid=1f2baef8-8285-417c-939e-3f973c12035d"},"vehicle_type_id":"4","last_reported":1759010869,"current_range_meters":14800,"station_id":"ce4bhkp2rcd13ifvqgd0","pricing_plan_id":"cebpf4jnsgd1na2vs0mg"},{"bike_id":"3d3bc9f8-a736-4546-bd01-0f811983a92b","system_id":"levelo_inurba_marseille","lat":43.3107,"lon":5.38346,"is_reserved":false,"is_disabled":false,"rental_uris":{"android":"levelo://app?vid=3d3bc9f8-a736-4546-bd01-0f811983a92b","ios":"levelo://app?vid=3d3bc9f8-a736-4546-bd01-0f811983a92b"},"vehicle_type_id":"4","last_reported":1759010869,"current_range_meters":15200,"station_id":"ce4bgv92rcd13ifvqcr0","pricing_plan_id":"cebpf4jnsgd1na2vs0mg"},{"bike_id":"6de60074-b3e5-4470-9347-38b77e41b7e1","system_id":"levelo_inurba_marseille","lat":43.32359,"lon":5.36761,"is_reserved":false,"is_disabled":false,"rental_uris":{"android":"levelo://app?vid=6de60074-b3e5-4470-9347-38b77e41b7e1","ios":"levelo://app?vid=6de60074-b3e5-4470-9347-38b77e41b7e1"},"vehicle_type_id":"4","last_reported":1759010869,"current_range_meters":15200,"station_id":"ce4bhsh2rcd13ifvqi2g","pricing_plan_id":"cebpf4jnsgd1na2vs0mg"},{"bike_id":"258ab053-1083-4ca9-a32a-1e85f085fc22","system_id":"levelo_inurba_marseille","lat":43.337444,"lon":5.374475,"is_reserved":false,"is_disabled":false,"rental_uris":{"android":"levelo://app?vid=258ab053-1083-4ca9-a32a-1e85f085fc22","ios":"levelo://app?vid=258ab053-1083-4ca9-a32a-1e85f085fc22"},"vehicle_type_id":"4","last_reported":1759010869,"current_range_meters":15200,"station_id":"","pricing_plan_id":"cebpf4jnsgd1na2vs0mg"},{"bike_id":"f62fe733-90ac-444a-a20a-73d227678ff7","system_id":"levelo_inurba_marseille","lat":43.29617,"lon":5.37729,"is_reserved":false,"is_disabled":true,"rental_uris":{"android":"levelo://app?vid=f62fe733-90ac-444a-a20a-73d227678ff7","ios":"levelo://app?vid=f62fe733-90ac-444a-a20a-73d227678ff7"},"vehicle_type_id":"4","last_reported":1759010869,"current_range_meters":16000,"station_id":"ce4bgi92rcd13ifvqb90","pricing_plan_id":"cebpf4jnsgd1na2vs0mg"},{"bike_id":"2ec3a6d6-ee34-4467-9229-490d40bcd0cf","system_id":"levelo_inurba_marseille","lat":43.27977,"lon":5.41664,"is_reserved":false,"is_disabled":false,"rental_uris":{"android":"levelo://app?vid=2ec3a6d6-ee34-4467-9229-490d40bcd0cf","ios":"levelo://app?vid=2ec3a6d6-ee34-4467-9229-490d40bcd0cf"},"vehicle_type_id":"4","last_reported":1759010869,"current_range_meters":16000,"station_id":"ce4bho12rcd13ifvqh1g","pricing_plan_id":"cebpf4jnsgd1na2vs0mg"},{"bike_id":"95bafeb0-6c7b-407a-a73b-a6569ff5cb66","system_id":"levelo_inurba_marseille","lat":43.33784,"lon":5.37449,"is_reserved":false,"is_disabled":false,"rental_uris":{"android":"levelo://app?vid=95bafeb0-6c7b-407a-a73b-a6569ff5cb66","ios":"levelo://app?vid=95bafeb0-6c7b-407a-a73b-a6569ff5cb66"},"vehicle_type_id":"4","last_reported":1759010869,"current_range_meters":16000,"station_id":"","pricing_plan_id":"cebpf4jnsgd1na2vs0mg"},{"bike_id":"e8d7a538-138e-45dc-91f9-0f4717e317ea","system_id":"levelo_inurba_marseille","lat":43.258234,"lon":5.394361,"is_reserved":false,"is_disabled":false,"rental_uris":{"android":"levelo://app?vid=e8d7a538-138e-45dc-91f9-0f4717e317ea","ios":"levelo://app?vid=e8d7a538-138e-45dc-91f9-0f4717e317ea"},"vehicle_type_id":"4","last_reported":1759010869,"current_range_meters":16000,"station_id":"ce4bhip2rcd13ifvqft0","pricing_plan_id":"cebpf4jnsgd1na2vs0mg"},{"bike_id":"ae17ab70-4248-4bb7-8c1b-d78473914a68","system_id":"levelo_inurba_marseille","lat":43.25018,"lon":5.38929,"is_reserved":false,"is_disabled":false,"rental_uris":{"android":"levelo://app?vid=ae17ab70-4248-4bb7-8c1b-d78473914a68","ios":"levelo://app?vid=ae17ab70-4248-4bb7-8c1b-d78473914a68"},"vehicle_type_id":"4","last_reported":1759010869,"current_range_meters":16000,"station_id":"ce4bhgp2rcd13ifvqfd0","pricing_plan_id":"cebpf4jnsgd1na2vs0mg"},{"bike_id":"2243febf-ebaf-474b-8e3e-799410e4c867","system_id":"levelo_inurba_marseille","lat":43.32568,"lon":5.36349,"is_reserved":false,"is_disabled":false,"rental_uris":{"android":"levelo://app?vid=2243febf-ebaf-474b-8e3e-799410e4c867","ios":"levelo://app?vid=2243febf-ebaf-474b-8e3e-799410e4c867"},"vehicle_type_id":"4","last_reported":1759010869,"current_range_meters":16000,"station_id":"","pricing_plan_id":"cebpf4jnsgd1na2vs0mg"},{"bike_id":"f4c53ff4-73a4-4134-bb3f-bbf464878afb","system_id":"levelo_inurba_marseille","lat":43.217556,"lon":5.346049,"is_reserved":false,"is_disabled":true,"rental_uris":{"android":"levelo://app?vid=f4c53ff4-73a4-4134-bb3f-bbf464878afb","ios":"levelo://app?vid=f4c53ff4-73a4-4134-bb3f-bbf464878afb"},"vehicle_type_id":"4","last_reported":1759010869,"current_range_meters":16000,"station_id":"st_cvj6r9ubvosntc0bgbag","pricing_plan_id":"cebpf4jnsgd1na2vs0mg"},{"bike_id":"aadf1ffc-e782-4192-8501-6a90fa9faf38","system_id":"levelo_inurba_marseille","lat":43.25723,"lon":5.41118,"is_reserved":false,"is_disabled":false,"rental_uris":{"android":"levelo://app?vid=aadf1ffc-e782-4192-8501-6a90fa9faf38","ios":"levelo://app?vid=aadf1ffc-e782-4192-8501-6a90fa9faf38"},"vehicle_type_id":"4","last_reported":1759010869,"current_range_meters":16000,"station_id":"ce4bhkp2rcd13ifvqgd0","pricing_plan_id":"cebpf4jnsgd1na2vs0mg"},{"bike_id":"e087385e-40a6-48bf-91fb-39f8dcd61d6b","system_id":"levelo_inurba_marseille","lat":43.30552,"lon":5.36536,"is_reserved":false,"is_disabled":false,"rental_uris":{"android":"levelo://app?vid=e087385e-40a6-48bf-91fb-39f8dcd61d6b","ios":"levelo://app?vid=e087385e-40a6-48bf-91fb-39f8dcd61d6b"},"vehicle_type_id":"4","last_reported":1759010869,"current_range_meters":16000,"station_id":"ce4bgs12rcd13ifvqcag","pricing_plan_id":"cebpf4jnsgd1na2vs0mg"},{"bike_id":"fd4966ea-3ba2-4444-8feb-9baf85c68048","system_id":"levelo_inurba_marseille","lat":43.30953,"lon":5.39044,"is_reserved":false,"is_disabled":false,"rental_uris":{"android":"levelo://app?vid=fd4966ea-3ba2-4444-8feb-9baf85c68048","ios":"levelo://app?vid=fd4966ea-3ba2-4444-8feb-9baf85c68048"},"vehicle_type_id":"4","last_reported":1759010869,"current_range_meters":16000,"station_id":"ce4bgup2rcd13ifvqco0","pricing_plan_id":"cebpf4jnsgd1na2vs0mg"},{"bike_id":"8ba5e33b-48f1-42b5-a531-76085f7229c8","system_id":"levelo_inurba_marseille","lat":43.2463,"lon":5.4314,"is_reserved":false,"is_disabled":false,"rental_uris":{"android":"levelo://app?vid=8ba5e33b-48f1-42b5-a531-76085f7229c8","ios":"levelo://app?vid=8ba5e33b-48f1-42b5-a531-76085f7229c8"},"vehicle_type_id":"4","last_reported":1759010869,"current_range_meters":16000,"station_id":"st_d2m6c4gdas8pm72e190g","pricing_plan_id":"cebpf4jnsgd1na2vs0mg"},{"bike_id":"a5411636-713e-4195-a6c9-4f7d84e639d4","system_id":"levelo_inurba_marseille","lat":43.30657,"lon":5.4007,"is_reserved":false,"is_disabled":false,"rental_uris":{"android":"levelo://app?vid=a5411636-713e-4195-a6c9-4f7d84e639d4","ios":"levelo://app?vid=a5411636-713e-4195-a6c9-4f7d84e639d4"},"vehicle_type_id":"4","last_reported":1759010869,"current_range_meters":16400,"station_id":"ce4bh112rcd13ifvqda0","pricing_plan_id":"cebpf4jnsgd1na2vs0mg"},{"bike_id":"2c6518be-b3f0-42d2-93c9-c1de9e54885f","system_id":"levelo_inurba_marseille","lat":43.29227,"lon":5.38219,"is_reserved":false,"is_disabled":false,"rental_uris":{"android":"levelo://app?vid=2c6518be-b3f0-42d2-93c9-c1de9e54885f","ios":"levelo://app?vid=2c6518be-b3f0-42d2-93c9-c1de9e54885f"},"vehicle_type_id":"4","last_reported":1759010869,"current_range_meters":16400,"station_id":"","pricing_plan_id":"cebpf4jnsgd1na2vs0mg"},{"bike_id":"c9916796-5f07-4d22-aceb-87882fb08ac5","system_id":"levelo_inurba_marseille","lat":43.30581,"lon":5.36557,"is_reserved":false,"is_disabled":false,"rental_uris":{"android":"levelo://app?vid=c9916796-5f07-4d22-aceb-87882fb08ac5","ios":"levelo://app?vid=c9916796-5f07-4d22-aceb-87882fb08ac5"},"vehicle_type_id":"4","last_reported":1759010869,"current_range_meters":16400,"station_id":"ce4bgs12rcd13ifvqcag","pricing_plan_id":"cebpf4jnsgd1na2vs0mg"},{"bike_id":"9c6a0a9d-f46f-4d0e-a5bc-e0713dd6d336","system_id":"levelo_inurba_marseille","lat":43.31323,"lon":5.39691,"is_reserved":false,"is_disabled":false,"rental_uris":{"android":"levelo://app?vid=9c6a0a9d-f46f-4d0e-a5bc-e0713dd6d336","ios":"levelo://app?vid=9c6a0a9d-f46f-4d0e-a5bc-e0713dd6d336"},"vehicle_type_id":"4","last_reported":1759010869,"current_range_meters":16400,"station_id":"ce4bgvp2rcd13ifvqcu0","pricing_plan_id":"cebpf4jnsgd1na2vs0mg"},{"bike_id":"7ac81eae-aed2-4f3f-a100-b35f399befc9","system_id":"levelo_inurba_marseille","lat":43.25105,"lon":5.40321,"is_reserved":false,"is_disabled":false,"rental_uris":{"android":"levelo://app?vid=7ac81eae-aed2-4f3f-a100-b35f399befc9","ios":"levelo://app?vid=7ac81eae-aed2-4f3f-a100-b35f399befc9"},"vehicle_type_id":"4","last_reported":1759010869,"current_range_meters":16400,"station_id":"ce4bhlh2rcd13ifvqgig","pricing_plan_id":"cebpf4jnsgd1na2vs0mg"},{"bike_id":"c8dab69c-fcb7-4b77-87a3-a80d030047c2","system_id":"levelo_inurba_marseille","lat":43.28857,"lon":5.35842,"is_reserved":false,"is_disabled":false,"rental_uris":{"android":"levelo://app?vid=c8dab69c-fcb7-4b77-87a3-a80d030047c2","ios":"levelo://app?vid=c8dab69c-fcb7-4b77-87a3-a80d030047c2"},"vehicle_type_id":"4","last_reported":1759010869,"current_range_meters":16400,"station_id":"ce4bhb12rcd13ifvqem0","pricing_plan_id":"cebpf4jnsgd1na2vs0mg"},{"bike_id":"ad08563b-9fa2-4201-ac5b-831247ae1890","system_id":"levelo_inurba_marseille","lat":43.21202,"lon":5.35077,"is_reserved":false,"is_disabled":false,"rental_uris":{"android":"levelo://app?vid=ad08563b-9fa2-4201-ac5b-831247ae1890","ios":"levelo://app?vid=ad08563b-9fa2-4201-ac5b-831247ae1890"},"vehicle_type_id":"4","last_reported":1759010869,"current_range_meters":16400,"station_id":"st_cvj6sg6p6f1abm77japg","pricing_plan_id":"cebpf4jnsgd1na2vs0mg"},{"bike_id":"6c3c1d7f-1f19-40b3-9c55-c47e689537fd","system_id":"levelo_inurba_marseille","lat":43.28873,"lon":5.37843,"is_reserved":false,"is_disabled":false,"rental_uris":{"android":"levelo://app?vid=6c3c1d7f-1f19-40b3-9c55-c47e689537fd","ios":"levelo://app?vid=6c3c1d7f-1f19-40b3-9c55-c47e689537fd"},"vehicle_type_id":"4","last_reported":1759010869,"current_range_meters":16400,"station_id":"","pricing_plan_id":"cebpf4jnsgd1na2vs0mg"},{"bike_id":"afb3a0b1-c807-4eff-8fb4-4964910f49c8","system_id":"levelo_inurba_marseille","lat":43.21745,"lon":5.34607,"is_reserved":false,"is_disabled":true,"rental_uris":{"android":"levelo://app?vid=afb3a0b1-c807-4eff-8fb4-4964910f49c8","ios":"levelo://app?vid=afb3a0b1-c807-4eff-8fb4-4964910f49c8"},"vehicle_type_id":"4","last_reported":1759010869,"current_range_meters":16400,"station_id":"","pricing_plan_id":"cebpf4jnsgd1na2vs0mg"},{"bike_id":"20b5a1ed-2def-4374-b8c1-61fc12964f2b","system_id":"levelo_inurba_marseille","lat":43.2482,"lon":5.37447,"is_reserved":false,"is_disabled":false,"rental_uris":{"android":"levelo://app?vid=20b5a1ed-2def-4374-b8c1-61fc12964f2b","ios":"levelo://app?vid=20b5a1ed-2def-4374-b8c1-61fc12964f2b"},"vehicle_type_id":"4","last_reported":1759010869,"current_range_meters":16400,"station_id":"ce4bhgh2rcd13ifvqfb0","pricing_plan_id":"cebpf4jnsgd1na2vs0mg"},{"bike_id":"1dad2113-89e2-44fc-a0b6-ddd6a09baff1","system_id":"levelo_inurba_marseille","lat":43.337444,"lon":5.374475,"is_reserved":false,"is_disabled":false,"rental_uris":{"android":"levelo://app?vid=1dad2113-89e2-44fc-a0b6-ddd6a09baff1","ios":"levelo://app?vid=1dad2113-89e2-44fc-a0b6-ddd6a09baff1"},"vehicle_type_id":"4","last_reported":1759010869,"current_range_meters":16400,"station_id":"","pricing_plan_id":"cebpf4jnsgd1na2vs0mg"},{"bike_id":"39dcfbd2-c068-4806-a491-ff990f7f3fcf","system_id":"levelo_inurba_marseille","lat":43.32364,"lon":5.38883,"is_reserved":false,"is_disabled":false,"rental_uris":{"android":"levelo://app?vid=39dcfbd2-c068-4806-a491-ff990f7f3fcf","ios":"levelo://app?vid=39dcfbd2-c068-4806-a491-ff990f7f3fcf"},"vehicle_type_id":"4","last_reported":1759010869,"current_range_meters":16800,"station_id":"ce4bhqp2rcd13ifvqhog","pricing_plan_id":"cebpf4jnsgd1na2vs0mg"},{"bike_id":"3cb1dae7-6bcd-41e5-b1b7-c1d25c751a99","system_id":"levelo_inurba_marseille","lat":43.337635,"lon":5.374385,"is_reserved":false,"is_disabled":false,"rental_uris":{"android":"levelo://app?vid=3cb1dae7-6bcd-41e5-b1b7-c1d25c751a99","ios":"levelo://app?vid=3cb1dae7-6bcd-41e5-b1b7-c1d25c751a99"},"vehicle_type_id":"4","last_reported":1759010869,"current_range_meters":16800,"station_id":"","pricing_plan_id":"cebpf4jnsgd1na2vs0mg"},{"bike_id":"9ca7e84c-77ff-4a19-8127-6101678aa138","system_id":"levelo_inurba_marseille","lat":43.27952,"lon":5.41035,"is_reserved":false,"is_disabled":false,"rental_uris":{"android":"levelo://app?vid=9ca7e84c-77ff-4a19-8127-6101678aa138","ios":"levelo://app?vid=9ca7e84c-77ff-4a19-8127-6101678aa138"},"vehicle_type_id":"4","last_reported":1759010869,"current_range_meters":16800,"station_id":"ce4bhnp2rcd13ifvqh0g","pricing_plan_id":"cebpf4jnsgd1na2vs0mg"},{"bike_id":"d58ddcbe-70d7-4259-abad-73cc43b8b8b9","system_id":"levelo_inurba_marseille","lat":43.23055,"lon":5.35484,"is_reserved":false,"is_disabled":true,"rental_uris":{"android":"levelo://app?vid=d58ddcbe-70d7-4259-abad-73cc43b8b8b9","ios":"levelo://app?vid=d58ddcbe-70d7-4259-abad-73cc43b8b8b9"},"vehicle_type_id":"4","last_reported":1759010869,"current_range_meters":16800,"station_id":"cpo3342slgdg3j2ifvpg","pricing_plan_id":"cebpf4jnsgd1na2vs0mg"},{"bike_id":"99f8e706-cfb0-4eb6-929e-527298f2a0db","system_id":"levelo_inurba_marseille","lat":43.28346,"lon":5.37644,"is_reserved":false,"is_disabled":false,"rental_uris":{"android":"levelo://app?vid=99f8e706-cfb0-4eb6-929e-527298f2a0db","ios":"levelo://app?vid=99f8e706-cfb0-4eb6-929e-527298f2a0db"},"vehicle_type_id":"4","last_reported":1759010869,"current_range_meters":16800,"station_id":"","pricing_plan_id":"cebpf4jnsgd1na2vs0mg"},{"bike_id":"5fe7f407-3191-4d84-bcf8-5bce6d58e56d","system_id":"levelo_inurba_marseille","lat":43.22938,"lon":5.35371,"is_reserved":false,"is_disabled":false,"rental_uris":{"android":"levelo://app?vid=5fe7f407-3191-4d84-bcf8-5bce6d58e56d","ios":"levelo://app?vid=5fe7f407-3191-4d84-bcf8-5bce6d58e56d"},"vehicle_type_id":"4","last_reported":1759010869,"current_range_meters":16800,"station_id":"cpo3532slgdg3j2ikp40","pricing_plan_id":"cebpf4jnsgd1na2vs0mg"},{"bike_id":"b6147252-edc0-4b9f-b095-d378f38ba47b","system_id":"levelo_inurba_marseille","lat":43.265691,"lon":5.390135,"is_reserved":false,"is_disabled":false,"rental_uris":{"android":"levelo://app?vid=b6147252-edc0-4b9f-b095-d378f38ba47b","ios":"levelo://app?vid=b6147252-edc0-4b9f-b095-d378f38ba47b"},"vehicle_type_id":"4","last_reported":1759010869,"current_range_meters":16800,"station_id":"ce4bhe12rcd13ifvqf30","pricing_plan_id":"cebpf4jnsgd1na2vs0mg"},{"bike_id":"ae6ae89a-12d4-4e8c-a853-04a1ec6cd7ec","system_id":"levelo_inurba_marseille","lat":43.28616,"lon":5.35098,"is_reserved":false,"is_disabled":false,"rental_uris":{"android":"levelo://app?vid=ae6ae89a-12d4-4e8c-a853-04a1ec6cd7ec","ios":"levelo://app?vid=ae6ae89a-12d4-4e8c-a853-04a1ec6cd7ec"},"vehicle_type_id":"4","last_reported":1759010869,"current_range_meters":16800,"station_id":"ce4bhch2rcd13ifvqeug","pricing_plan_id":"cebpf4jnsgd1na2vs0mg"},{"bike_id":"d25a98ac-776a-4a6e-b9e2-31e4eca0ba8c","system_id":"levelo_inurba_marseille","lat":43.29278,"lon":5.40122,"is_reserved":false,"is_disabled":false,"rental_uris":{"android":"levelo://app?vid=d25a98ac-776a-4a6e-b9e2-31e4eca0ba8c","ios":"levelo://app?vid=d25a98ac-776a-4a6e-b9e2-31e4eca0ba8c"},"vehicle_type_id":"4","last_reported":1759010869,"current_range_meters":16800,"station_id":"ce4bh312rcd13ifvqdk0","pricing_plan_id":"cebpf4jnsgd1na2vs0mg"},{"bike_id":"c10c865a-28f9-46f4-bda3-20484525f7d3","system_id":"levelo_inurba_marseille","lat":43.29652,"lon":5.37843,"is_reserved":false,"is_disabled":false,"rental_uris":{"android":"levelo://app?vid=c10c865a-28f9-46f4-bda3-20484525f7d3","ios":"levelo://app?vid=c10c865a-28f9-46f4-bda3-20484525f7d3"},"vehicle_type_id":"4","last_reported":1759010869,"current_range_meters":16800,"station_id":"","pricing_plan_id":"cebpf4jnsgd1na2vs0mg"},{"bike_id":"fcc15271-85da-48b1-92b1-6b093dd3a386","system_id":"levelo_inurba_marseille","lat":43.2953,"lon":5.38553,"is_reserved":false,"is_disabled":false,"rental_uris":{"android":"levelo://app?vid=fcc15271-85da-48b1-92b1-6b093dd3a386","ios":"levelo://app?vid=fcc15271-85da-48b1-92b1-6b093dd3a386"},"vehicle_type_id":"4","last_reported":1759010869,"current_range_meters":17200,"station_id":"ce4bgih2rcd13ifvqba0","pricing_plan_id":"cebpf4jnsgd1na2vs0mg"},{"bike_id":"6f0c1749-517c-4897-91c9-50c589e202de","system_id":"levelo_inurba_marseille","lat":43.34179,"lon":5.409,"is_reserved":false,"is_disabled":true,"rental_uris":{"android":"levelo://app?vid=6f0c1749-517c-4897-91c9-50c589e202de","ios":"levelo://app?vid=6f0c1749-517c-4897-91c9-50c589e202de"},"vehicle_type_id":"4","last_reported":1759010869,"current_range_meters":17200,"station_id":"ce4bhqh2rcd13ifvqhlg","pricing_plan_id":"cebpf4jnsgd1na2vs0mg"},{"bike_id":"258b2e09-7c4c-42f6-94e1-22674b9d8e2f","system_id":"levelo_inurba_marseille","lat":43.31994,"lon":5.38136,"is_reserved":false,"is_disabled":false,"rental_uris":{"android":"levelo://app?vid=258b2e09-7c4c-42f6-94e1-22674b9d8e2f","ios":"levelo://app?vid=258b2e09-7c4c-42f6-94e1-22674b9d8e2f"},"vehicle_type_id":"4","last_reported":1759010869,"current_range_meters":17200,"station_id":"ce4bhr12rcd13ifvqhpg","pricing_plan_id":"cebpf4jnsgd1na2vs0mg"},{"bike_id":"151d75a0-434c-41d6-a3a8-42bc6a9a604c","system_id":"levelo_inurba_marseille","lat":43.31757,"lon":5.39017,"is_reserved":false,"is_disabled":false,"rental_uris":{"android":"levelo://app?vid=151d75a0-434c-41d6-a3a8-42bc6a9a604c","ios":"levelo://app?vid=151d75a0-434c-41d6-a3a8-42bc6a9a604c"},"vehicle_type_id":"4","last_reported":1759010869,"current_range_meters":17200,"station_id":"ce4bgt92rcd13ifvqcf0","pricing_plan_id":"cebpf4jnsgd1na2vs0mg"},{"bike_id":"6c5dcae8-d4bd-4bd4-8d57-8db43b676f42","system_id":"levelo_inurba_marseille","lat":43.29034,"lon":5.38602,"is_reserved":false,"is_disabled":false,"rental_uris":{"android":"levelo://app?vid=6c5dcae8-d4bd-4bd4-8d57-8db43b676f42","ios":"levelo://app?vid=6c5dcae8-d4bd-4bd4-8d57-8db43b676f42"},"vehicle_type_id":"4","last_reported":1759010869,"current_range_meters":17200,"station_id":"ce4bh4p2rcd13ifvqe0g","pricing_plan_id":"cebpf4jnsgd1na2vs0mg"},{"bike_id":"d7d09523-34bb-44d2-9695-02f0abea9b47","system_id":"levelo_inurba_marseille","lat":43.29769,"lon":5.37904,"is_reserved":false,"is_disabled":false,"rental_uris":{"android":"levelo://app?vid=d7d09523-34bb-44d2-9695-02f0abea9b47","ios":"levelo://app?vid=d7d09523-34bb-44d2-9695-02f0abea9b47"},"vehicle_type_id":"4","last_reported":1759010869,"current_range_meters":17200,"station_id":"","pricing_plan_id":"cebpf4jnsgd1na2vs0mg"},{"bike_id":"9c24d650-1f38-4bbb-8c07-645ee4b0b1b2","system_id":"levelo_inurba_marseille","lat":43.29369,"lon":5.37807,"is_reserved":false,"is_disabled":false,"rental_uris":{"android":"levelo://app?vid=9c24d650-1f38-4bbb-8c07-645ee4b0b1b2","ios":"levelo://app?vid=9c24d650-1f38-4bbb-8c07-645ee4b0b1b2"},"vehicle_type_id":"4","last_reported":1759010869,"current_range_meters":17200,"station_id":"ce4bgjh2rcd13ifvqbf0","pricing_plan_id":"cebpf4jnsgd1na2vs0mg"},{"bike_id":"a2a842f6-fc46-40d7-b7a6-d9d5a8c99dfa","system_id":"levelo_inurba_marseille","lat":43.32003,"lon":5.38136,"is_reserved":false,"is_disabled":true,"rental_uris":{"android":"levelo://app?vid=a2a842f6-fc46-40d7-b7a6-d9d5a8c99dfa","ios":"levelo://app?vid=a2a842f6-fc46-40d7-b7a6-d9d5a8c99dfa"},"vehicle_type_id":"4","last_reported":1759010869,"current_range_meters":17200,"station_id":"ce4bhr12rcd13ifvqhpg","pricing_plan_id":"cebpf4jnsgd1na2vs0mg"},{"bike_id":"342aa4a8-2613-4079-ad39-b792bb12bc57","system_id":"levelo_inurba_marseille","lat":43.32116,"lon":5.36775,"is_reserved":false,"is_disabled":false,"rental_uris":{"android":"levelo://app?vid=342aa4a8-2613-4079-ad39-b792bb12bc57","ios":"levelo://app?vid=342aa4a8-2613-4079-ad39-b792bb12bc57"},"vehicle_type_id":"4","last_reported":1759010869,"current_range_meters":17200,"station_id":"ce4bhrh2rcd13ifvqhug","pricing_plan_id":"cebpf4jnsgd1na2vs0mg"},{"bike_id":"738df095-e2ed-4756-94ec-1bb463886de7","system_id":"levelo_inurba_marseille","lat":43.30805,"lon":5.38147,"is_reserved":false,"is_disabled":false,"rental_uris":{"android":"levelo://app?vid=738df095-e2ed-4756-94ec-1bb463886de7","ios":"levelo://app?vid=738df095-e2ed-4756-94ec-1bb463886de7"},"vehicle_type_id":"4","last_reported":1759010869,"current_range_meters":17200,"station_id":"ce4bgt12rcd13ifvqce0","pricing_plan_id":"cebpf4jnsgd1na2vs0mg"},{"bike_id":"e3fe1c25-77d6-4c99-a172-35c670f24da9","system_id":"levelo_inurba_marseille","lat":43.29002,"lon":5.35614,"is_reserved":false,"is_disabled":true,"rental_uris":{"android":"levelo://app?vid=e3fe1c25-77d6-4c99-a172-35c670f24da9","ios":"levelo://app?vid=e3fe1c25-77d6-4c99-a172-35c670f24da9"},"vehicle_type_id":"4","last_reported":1759010869,"current_range_meters":17200,"station_id":"ce4bhb92rcd13ifvqen0","pricing_plan_id":"cebpf4jnsgd1na2vs0mg"},{"bike_id":"8a725275-65d6-4f8c-a1e1-17559f853dd5","system_id":"levelo_inurba_marseille","lat":43.25578,"lon":5.38226,"is_reserved":false,"is_disabled":false,"rental_uris":{"android":"levelo://app?vid=8a725275-65d6-4f8c-a1e1-17559f853dd5","ios":"levelo://app?vid=8a725275-65d6-4f8c-a1e1-17559f853dd5"},"vehicle_type_id":"4","last_reported":1759010869,"current_range_meters":17600,"station_id":"ce4bhih2rcd13ifvqfs0","pricing_plan_id":"cebpf4jnsgd1na2vs0mg"},{"bike_id":"d8202551-11d6-47e5-83fc-d7c15a5fcc5b","system_id":"levelo_inurba_marseille","lat":43.3247,"lon":5.36575,"is_reserved":false,"is_disabled":false,"rental_uris":{"android":"levelo://app?vid=d8202551-11d6-47e5-83fc-d7c15a5fcc5b","ios":"levelo://app?vid=d8202551-11d6-47e5-83fc-d7c15a5fcc5b"},"vehicle_type_id":"4","last_reported":1759010869,"current_range_meters":17600,"station_id":"ce4bhs12rcd13ifvqhvg","pricing_plan_id":"cebpf4jnsgd1na2vs0mg"},{"bike_id":"4fb58689-967e-4abe-a0e6-912a768ddaef","system_id":"levelo_inurba_marseille","lat":43.29896,"lon":5.43667,"is_reserved":false,"is_disabled":false,"rental_uris":{"android":"levelo://app?vid=4fb58689-967e-4abe-a0e6-912a768ddaef","ios":"levelo://app?vid=4fb58689-967e-4abe-a0e6-912a768ddaef"},"vehicle_type_id":"4","last_reported":1759010869,"current_range_meters":17600,"station_id":"ce4bhpp2rcd13ifvqhfg","pricing_plan_id":"cebpf4jnsgd1na2vs0mg"},{"bike_id":"35e8f722-b82a-4247-beb8-7e2827829ce6","system_id":"levelo_inurba_marseille","lat":43.32405,"lon":5.3911,"is_reserved":false,"is_disabled":false,"rental_uris":{"android":"levelo://app?vid=35e8f722-b82a-4247-beb8-7e2827829ce6","ios":"levelo://app?vid=35e8f722-b82a-4247-beb8-7e2827829ce6"},"vehicle_type_id":"4","last_reported":1759010869,"current_range_meters":17600,"station_id":"","pricing_plan_id":"cebpf4jnsgd1na2vs0mg"},{"bike_id":"0656741e-4baa-4804-921b-3ed5233045aa","system_id":"levelo_inurba_marseille","lat":43.24628,"lon":5.43142,"is_reserved":false,"is_disabled":false,"rental_uris":{"android":"levelo://app?vid=0656741e-4baa-4804-921b-3ed5233045aa","ios":"levelo://app?vid=0656741e-4baa-4804-921b-3ed5233045aa"},"vehicle_type_id":"4","last_reported":1759010869,"current_range_meters":17600,"station_id":"st_d2m6c4gdas8pm72e190g","pricing_plan_id":"cebpf4jnsgd1na2vs0mg"},{"bike_id":"8ffac578-131d-4171-941b-d073a175c44c","system_id":"levelo_inurba_marseille","lat":43.26209,"lon":5.37445,"is_reserved":false,"is_disabled":true,"rental_uris":{"android":"levelo://app?vid=8ffac578-131d-4171-941b-d073a175c44c","ios":"levelo://app?vid=8ffac578-131d-4171-941b-d073a175c44c"},"vehicle_type_id":"4","last_reported":1759010869,"current_range_meters":17600,"station_id":"ce4bhgp2rcd13ifvqfc0","pricing_plan_id":"cebpf4jnsgd1na2vs0mg"},{"bike_id":"10f2d234-67b8-48d5-9edb-73e3e416f851","system_id":"levelo_inurba_marseille","lat":43.28696,"lon":5.38632,"is_reserved":false,"is_disabled":false,"rental_uris":{"android":"levelo://app?vid=10f2d234-67b8-48d5-9edb-73e3e416f851","ios":"levelo://app?vid=10f2d234-67b8-48d5-9edb-73e3e416f851"},"vehicle_type_id":"4","last_reported":1759010869,"current_range_meters":17600,"station_id":"","pricing_plan_id":"cebpf4jnsgd1na2vs0mg"},{"bike_id":"e5378695-fba9-432a-9cfb-3b5b05e40fec","system_id":"levelo_inurba_marseille","lat":43.337986,"lon":5.374304,"is_reserved":false,"is_disabled":false,"rental_uris":{"android":"levelo://app?vid=e5378695-fba9-432a-9cfb-3b5b05e40fec","ios":"levelo://app?vid=e5378695-fba9-432a-9cfb-3b5b05e40fec"},"vehicle_type_id":"4","last_reported":1759010869,"current_range_meters":17600,"station_id":"","pricing_plan_id":"cebpf4jnsgd1na2vs0mg"},{"bike_id":"430e073c-6574-4adb-b33a-dbb076ec3d24","system_id":"levelo_inurba_marseille","lat":43.3015,"lon":5.38095,"is_reserved":false,"is_disabled":false,"rental_uris":{"android":"levelo://app?vid=430e073c-6574-4adb-b33a-dbb076ec3d24","ios":"levelo://app?vid=430e073c-6574-4adb-b33a-dbb076ec3d24"},"vehicle_type_id":"4","last_reported":1759010869,"current_range_meters":18000,"station_id":"ce4bgjp2rcd13ifvqbh0","pricing_plan_id":"cebpf4jnsgd1na2vs0mg"},{"bike_id":"469a8e27-bbf4-4712-917e-b4c5e64ee82f","system_id":"levelo_inurba_marseille","lat":43.28838,"lon":5.39318,"is_reserved":false,"is_disabled":false,"rental_uris":{"android":"levelo://app?vid=469a8e27-bbf4-4712-917e-b4c5e64ee82f","ios":"levelo://app?vid=469a8e27-bbf4-4712-917e-b4c5e64ee82f"},"vehicle_type_id":"4","last_reported":1759010869,"current_range_meters":18000,"station_id":"ce4bh2p2rcd13ifvqdi0","pricing_plan_id":"cebpf4jnsgd1na2vs0mg"},{"bike_id":"04b3c815-f6b7-4f0d-b3bb-fc72e136b3d8","system_id":"levelo_inurba_marseille","lat":43.31662,"lon":5.42675,"is_reserved":false,"is_disabled":false,"rental_uris":{"android":"levelo://app?vid=04b3c815-f6b7-4f0d-b3bb-fc72e136b3d8","ios":"levelo://app?vid=04b3c815-f6b7-4f0d-b3bb-fc72e136b3d8"},"vehicle_type_id":"4","last_reported":1759010869,"current_range_meters":18000,"station_id":"","pricing_plan_id":"cebpf4jnsgd1na2vs0mg"},{"bike_id":"01e260f5-828c-4df2-9bc4-ca80e799f979","system_id":"levelo_inurba_marseille","lat":43.21752,"lon":5.34594,"is_reserved":false,"is_disabled":true,"rental_uris":{"android":"levelo://app?vid=01e260f5-828c-4df2-9bc4-ca80e799f979","ios":"levelo://app?vid=01e260f5-828c-4df2-9bc4-ca80e799f979"},"vehicle_type_id":"4","last_reported":1759010869,"current_range_meters":18000,"station_id":"st_cvj6r9ubvosntc0bgbag","pricing_plan_id":"cebpf4jnsgd1na2vs0mg"},{"bike_id":"898c8ae8-7917-46d3-bfff-751748e108e9","system_id":"levelo_inurba_marseille","lat":43.33605,"lon":5.41041,"is_reserved":false,"is_disabled":false,"rental_uris":{"android":"levelo://app?vid=898c8ae8-7917-46d3-bfff-751748e108e9","ios":"levelo://app?vid=898c8ae8-7917-46d3-bfff-751748e108e9"},"vehicle_type_id":"4","last_reported":1759010869,"current_range_meters":17600,"station_id":"ce4bhqh2rcd13ifvqhmg","pricing_plan_id":"cebpf4jnsgd1na2vs0mg"},{"bike_id":"d0baaa73-5748-433b-a652-8c71c29516c6","system_id":"levelo_inurba_marseille","lat":43.28957,"lon":5.36379,"is_reserved":false,"is_disabled":false,"rental_uris":{"android":"levelo://app?vid=d0baaa73-5748-433b-a652-8c71c29516c6","ios":"levelo://app?vid=d0baaa73-5748-433b-a652-8c71c29516c6"},"vehicle_type_id":"4","last_reported":1759010869,"current_range_meters":18000,"station_id":"ce4bhc92rcd13ifvqetg","pricing_plan_id":"cebpf4jnsgd1na2vs0mg"},{"bike_id":"1738176c-7baa-41bc-9f70-9de69eb4e417","system_id":"levelo_inurba_marseille","lat":43.24801,"lon":5.37459,"is_reserved":false,"is_disabled":false,"rental_uris":{"android":"levelo://app?vid=1738176c-7baa-41bc-9f70-9de69eb4e417","ios":"levelo://app?vid=1738176c-7baa-41bc-9f70-9de69eb4e417"},"vehicle_type_id":"4","last_reported":1759010869,"current_range_meters":18000,"station_id":"ce4bhgh2rcd13ifvqfb0","pricing_plan_id":"cebpf4jnsgd1na2vs0mg"},{"bike_id":"623e0f99-4c1b-4139-b14c-f8d85b86ddeb","system_id":"levelo_inurba_marseille","lat":43.28454,"lon":5.35891,"is_reserved":false,"is_disabled":false,"rental_uris":{"android":"levelo://app?vid=623e0f99-4c1b-4139-b14c-f8d85b86ddeb","ios":"levelo://app?vid=623e0f99-4c1b-4139-b14c-f8d85b86ddeb"},"vehicle_type_id":"4","last_reported":1759010869,"current_range_meters":18000,"station_id":"ce4bhah2rcd13ifvqei0","pricing_plan_id":"cebpf4jnsgd1na2vs0mg"},{"bike_id":"4822dd99-56ec-44f6-a9b9-ee0ae5dcc1bf","system_id":"levelo_inurba_marseille","lat":43.30009,"lon":5.39994,"is_reserved":false,"is_disabled":false,"rental_uris":{"android":"levelo://app?vid=4822dd99-56ec-44f6-a9b9-ee0ae5dcc1bf","ios":"levelo://app?vid=4822dd99-56ec-44f6-a9b9-ee0ae5dcc1bf"},"vehicle_type_id":"4","last_reported":1759010869,"current_range_meters":18000,"station_id":"ce4bh0h2rcd13ifvqd40","pricing_plan_id":"cebpf4jnsgd1na2vs0mg"},{"bike_id":"86df1d0e-8d01-4163-8b03-248398a72975","system_id":"levelo_inurba_marseille","lat":43.315257,"lon":5.372578,"is_reserved":false,"is_disabled":false,"rental_uris":{"android":"levelo://app?vid=86df1d0e-8d01-4163-8b03-248398a72975","ios":"levelo://app?vid=86df1d0e-8d01-4163-8b03-248398a72975"},"vehicle_type_id":"4","last_reported":1759010869,"current_range_meters":18000,"station_id":"ce4bgt12rcd13ifvqcd0","pricing_plan_id":"cebpf4jnsgd1na2vs0mg"},{"bike_id":"e42dbdfe-2859-49e9-84cc-1eff71387a5b","system_id":"levelo_inurba_marseille","lat":43.29282,"lon":5.38438,"is_reserved":false,"is_disabled":false,"rental_uris":{"android":"levelo://app?vid=e42dbdfe-2859-49e9-84cc-1eff71387a5b","ios":"levelo://app?vid=e42dbdfe-2859-49e9-84cc-1eff71387a5b"},"vehicle_type_id":"4","last_reported":1759010869,"current_range_meters":18000,"station_id":"ce4bh692rcd13ifvqea0","pricing_plan_id":"cebpf4jnsgd1na2vs0mg"},{"bike_id":"5141b754-bcb9-4806-acdd-e9f25d742767","system_id":"levelo_inurba_marseille","lat":43.29263,"lon":5.38446,"is_reserved":false,"is_disabled":false,"rental_uris":{"android":"levelo://app?vid=5141b754-bcb9-4806-acdd-e9f25d742767","ios":"levelo://app?vid=5141b754-bcb9-4806-acdd-e9f25d742767"},"vehicle_type_id":"4","last_reported":1759010869,"current_range_meters":18000,"station_id":"ce4bh692rcd13ifvqea0","pricing_plan_id":"cebpf4jnsgd1na2vs0mg"},{"bike_id":"d22a4f08-a089-4b29-8881-baf411a47c27","system_id":"levelo_inurba_marseille","lat":43.30896,"lon":5.3718,"is_reserved":false,"is_disabled":false,"rental_uris":{"android":"levelo://app?vid=d22a4f08-a089-4b29-8881-baf411a47c27","ios":"levelo://app?vid=d22a4f08-a089-4b29-8881-baf411a47c27"},"vehicle_type_id":"4","last_reported":1759010869,"current_range_meters":18000,"station_id":"ce4bguh2rcd13ifvqckg","pricing_plan_id":"cebpf4jnsgd1na2vs0mg"},{"bike_id":"7c65aae5-d2b4-4f56-b489-a4ee2c3e8afc","system_id":"levelo_inurba_marseille","lat":43.25012,"lon":5.38936,"is_reserved":false,"is_disabled":false,"rental_uris":{"android":"levelo://app?vid=7c65aae5-d2b4-4f56-b489-a4ee2c3e8afc","ios":"levelo://app?vid=7c65aae5-d2b4-4f56-b489-a4ee2c3e8afc"},"vehicle_type_id":"4","last_reported":1759010869,"current_range_meters":18000,"station_id":"ce4bhgp2rcd13ifvqfd0","pricing_plan_id":"cebpf4jnsgd1na2vs0mg"},{"bike_id":"51d66102-32e4-45d7-9855-11cacc48aa71","system_id":"levelo_inurba_marseille","lat":43.30945,"lon":5.39033,"is_reserved":false,"is_disabled":false,"rental_uris":{"android":"levelo://app?vid=51d66102-32e4-45d7-9855-11cacc48aa71","ios":"levelo://app?vid=51d66102-32e4-45d7-9855-11cacc48aa71"},"vehicle_type_id":"4","last_reported":1759010869,"current_range_meters":18800,"station_id":"ce4bgup2rcd13ifvqco0","pricing_plan_id":"cebpf4jnsgd1na2vs0mg"},{"bike_id":"327c041e-5c9e-4b0d-a97c-a2dbaab036ae","system_id":"levelo_inurba_marseille","lat":43.32813,"lon":5.4113,"is_reserved":false,"is_disabled":false,"rental_uris":{"android":"levelo://app?vid=327c041e-5c9e-4b0d-a97c-a2dbaab036ae","ios":"levelo://app?vid=327c041e-5c9e-4b0d-a97c-a2dbaab036ae"},"vehicle_type_id":"4","last_reported":1759010869,"current_range_meters":18800,"station_id":"","pricing_plan_id":"cebpf4jnsgd1na2vs0mg"},{"bike_id":"9f27a5b9-d27f-4581-bb32-994537018f4f","system_id":"levelo_inurba_marseille","lat":43.30253,"lon":5.40056,"is_reserved":false,"is_disabled":false,"rental_uris":{"android":"levelo://app?vid=9f27a5b9-d27f-4581-bb32-994537018f4f","ios":"levelo://app?vid=9f27a5b9-d27f-4581-bb32-994537018f4f"},"vehicle_type_id":"4","last_reported":1759010869,"current_range_meters":18000,"station_id":"ce4bgvh2rcd13ifvqcs0","pricing_plan_id":"cebpf4jnsgd1na2vs0mg"},{"bike_id":"d34300a7-1a7e-4fac-95c3-3b68a5ea0128","system_id":"levelo_inurba_marseille","lat":43.30942,"lon":5.40146,"is_reserved":false,"is_disabled":false,"rental_uris":{"android":"levelo://app?vid=d34300a7-1a7e-4fac-95c3-3b68a5ea0128","ios":"levelo://app?vid=d34300a7-1a7e-4fac-95c3-3b68a5ea0128"},"vehicle_type_id":"4","last_reported":1759010869,"current_range_meters":18800,"station_id":"ce4bgvp2rcd13ifvqct0","pricing_plan_id":"cebpf4jnsgd1na2vs0mg"},{"bike_id":"28926cb8-b4a6-4cfc-8124-d42e89e267cb","system_id":"levelo_inurba_marseille","lat":43.31994,"lon":5.3815,"is_reserved":false,"is_disabled":false,"rental_uris":{"android":"levelo://app?vid=28926cb8-b4a6-4cfc-8124-d42e89e267cb","ios":"levelo://app?vid=28926cb8-b4a6-4cfc-8124-d42e89e267cb"},"vehicle_type_id":"4","last_reported":1759010869,"current_range_meters":18800,"station_id":"ce4bhr12rcd13ifvqhpg","pricing_plan_id":"cebpf4jnsgd1na2vs0mg"},{"bike_id":"5cf6ad18-4f87-4c05-8515-52729d2548f8","system_id":"levelo_inurba_marseille","lat":43.27622,"lon":5.36107,"is_reserved":false,"is_disabled":false,"rental_uris":{"android":"levelo://app?vid=5cf6ad18-4f87-4c05-8515-52729d2548f8","ios":"levelo://app?vid=5cf6ad18-4f87-4c05-8515-52729d2548f8"},"vehicle_type_id":"4","last_reported":1759010869,"current_range_meters":18800,"station_id":"ce4bgj92rcd13ifvqbe0","pricing_plan_id":"cebpf4jnsgd1na2vs0mg"},{"bike_id":"e0e9194b-710d-4981-ad65-ba5929d7512b","system_id":"levelo_inurba_marseille","lat":43.306022,"lon":5.384559,"is_reserved":false,"is_disabled":false,"rental_uris":{"android":"levelo://app?vid=e0e9194b-710d-4981-ad65-ba5929d7512b","ios":"levelo://app?vid=e0e9194b-710d-4981-ad65-ba5929d7512b"},"vehicle_type_id":"4","last_reported":1759010869,"current_range_meters":18800,"station_id":"","pricing_plan_id":"cebpf4jnsgd1na2vs0mg"},{"bike_id":"7ed03729-1b9b-4a6a-9529-68e4006c8cf5","system_id":"levelo_inurba_marseille","lat":43.22956,"lon":5.35364,"is_reserved":false,"is_disabled":false,"rental_uris":{"android":"levelo://app?vid=7ed03729-1b9b-4a6a-9529-68e4006c8cf5","ios":"levelo://app?vid=7ed03729-1b9b-4a6a-9529-68e4006c8cf5"},"vehicle_type_id":"4","last_reported":1759010869,"current_range_meters":18800,"station_id":"cpo3532slgdg3j2ikp40","pricing_plan_id":"cebpf4jnsgd1na2vs0mg"},{"bike_id":"9353e269-fbc0-4680-ac92-7179d3cf36ce","system_id":"levelo_inurba_marseille","lat":43.31322,"lon":5.397,"is_reserved":false,"is_disabled":false,"rental_uris":{"android":"levelo://app?vid=9353e269-fbc0-4680-ac92-7179d3cf36ce","ios":"levelo://app?vid=9353e269-fbc0-4680-ac92-7179d3cf36ce"},"vehicle_type_id":"4","last_reported":1759010869,"current_range_meters":18800,"station_id":"ce4bgvp2rcd13ifvqcu0","pricing_plan_id":"cebpf4jnsgd1na2vs0mg"},{"bike_id":"c8eb7660-6046-4e9c-8c85-8306cbdbfdf8","system_id":"levelo_inurba_marseille","lat":43.24636,"lon":5.431492,"is_reserved":false,"is_disabled":false,"rental_uris":{"android":"levelo://app?vid=c8eb7660-6046-4e9c-8c85-8306cbdbfdf8","ios":"levelo://app?vid=c8eb7660-6046-4e9c-8c85-8306cbdbfdf8"},"vehicle_type_id":"4","last_reported":1759010869,"current_range_meters":18800,"station_id":"st_d2m6c4gdas8pm72e190g","pricing_plan_id":"cebpf4jnsgd1na2vs0mg"},{"bike_id":"0683580a-c4b8-4b6b-a1d7-d8659bb87ed8","system_id":"levelo_inurba_marseille","lat":43.29615,"lon":5.37155,"is_reserved":false,"is_disabled":false,"rental_uris":{"android":"levelo://app?vid=0683580a-c4b8-4b6b-a1d7-d8659bb87ed8","ios":"levelo://app?vid=0683580a-c4b8-4b6b-a1d7-d8659bb87ed8"},"vehicle_type_id":"4","last_reported":1759010869,"current_range_meters":18800,"station_id":"","pricing_plan_id":"cebpf4jnsgd1na2vs0mg"},{"bike_id":"80b98ce0-3233-47ce-84db-722943723d1e","system_id":"levelo_inurba_marseille","lat":43.269329,"lon":5.38928,"is_reserved":false,"is_disabled":false,"rental_uris":{"android":"levelo://app?vid=80b98ce0-3233-47ce-84db-722943723d1e","ios":"levelo://app?vid=80b98ce0-3233-47ce-84db-722943723d1e"},"vehicle_type_id":"4","last_reported":1759010869,"current_range_meters":18800,"station_id":"","pricing_plan_id":"cebpf4jnsgd1na2vs0mg"},{"bike_id":"3a5c1078-80f0-49df-aceb-f802aa344ba6","system_id":"levelo_inurba_marseille","lat":43.22927,"lon":5.35384,"is_reserved":false,"is_disabled":false,"rental_uris":{"android":"levelo://app?vid=3a5c1078-80f0-49df-aceb-f802aa344ba6","ios":"levelo://app?vid=3a5c1078-80f0-49df-aceb-f802aa344ba6"},"vehicle_type_id":"4","last_reported":1759010869,"current_range_meters":18800,"station_id":"cpo3532slgdg3j2ikp40","pricing_plan_id":"cebpf4jnsgd1na2vs0mg"},{"bike_id":"63627732-bdd6-46c6-b1d0-874b28dac6d4","system_id":"levelo_inurba_marseille","lat":43.32498,"lon":5.36567,"is_reserved":false,"is_disabled":false,"rental_uris":{"android":"levelo://app?vid=63627732-bdd6-46c6-b1d0-874b28dac6d4","ios":"levelo://app?vid=63627732-bdd6-46c6-b1d0-874b28dac6d4"},"vehicle_type_id":"4","last_reported":1759010869,"current_range_meters":18800,"station_id":"ce4bhs12rcd13ifvqhvg","pricing_plan_id":"cebpf4jnsgd1na2vs0mg"},{"bike_id":"a64c88ed-6a46-4073-9c9c-2f1735c72072","system_id":"levelo_inurba_marseille","lat":43.24669,"lon":5.38177,"is_reserved":false,"is_disabled":false,"rental_uris":{"android":"levelo://app?vid=a64c88ed-6a46-4073-9c9c-2f1735c72072","ios":"levelo://app?vid=a64c88ed-6a46-4073-9c9c-2f1735c72072"},"vehicle_type_id":"4","last_reported":1759010869,"current_range_meters":18800,"station_id":"ce4bhih2rcd13ifvqfr0","pricing_plan_id":"cebpf4jnsgd1na2vs0mg"},{"bike_id":"9fa6b289-f6ce-4c79-a064-742389e1d55d","system_id":"levelo_inurba_marseille","lat":43.324791,"lon":5.365681,"is_reserved":false,"is_disabled":false,"rental_uris":{"android":"levelo://app?vid=9fa6b289-f6ce-4c79-a064-742389e1d55d","ios":"levelo://app?vid=9fa6b289-f6ce-4c79-a064-742389e1d55d"},"vehicle_type_id":"4","last_reported":1759010869,"current_range_meters":18800,"station_id":"ce4bhs12rcd13ifvqhvg","pricing_plan_id":"cebpf4jnsgd1na2vs0mg"},{"bike_id":"6ebf1574-fe84-4483-a7b0-84450c83d7bd","system_id":"levelo_inurba_marseille","lat":43.29278,"lon":5.40114,"is_reserved":false,"is_disabled":false,"rental_uris":{"android":"levelo://app?vid=6ebf1574-fe84-4483-a7b0-84450c83d7bd","ios":"levelo://app?vid=6ebf1574-fe84-4483-a7b0-84450c83d7bd"},"vehicle_type_id":"4","last_reported":1759010869,"current_range_meters":18800,"station_id":"ce4bh312rcd13ifvqdk0","pricing_plan_id":"cebpf4jnsgd1na2vs0mg"},{"bike_id":"4645660a-d95f-4228-a6ce-beb703247887","system_id":"levelo_inurba_marseille","lat":43.24179,"lon":5.3973,"is_reserved":false,"is_disabled":false,"rental_uris":{"android":"levelo://app?vid=4645660a-d95f-4228-a6ce-beb703247887","ios":"levelo://app?vid=4645660a-d95f-4228-a6ce-beb703247887"},"vehicle_type_id":"4","last_reported":1759010869,"current_range_meters":19200,"station_id":"ce4bhn12rcd13ifvqgpg","pricing_plan_id":"cebpf4jnsgd1na2vs0mg"},{"bike_id":"f1bc0e3d-dbf3-4a42-8750-11abd2dd8aa3","system_id":"levelo_inurba_marseille","lat":43.25084,"lon":5.39515,"is_reserved":false,"is_disabled":false,"rental_uris":{"android":"levelo://app?vid=f1bc0e3d-dbf3-4a42-8750-11abd2dd8aa3","ios":"levelo://app?vid=f1bc0e3d-dbf3-4a42-8750-11abd2dd8aa3"},"vehicle_type_id":"4","last_reported":1759010869,"current_range_meters":19200,"station_id":"ce4bhm12rcd13ifvqgkg","pricing_plan_id":"cebpf4jnsgd1na2vs0mg"},{"bike_id":"cd599950-469a-4b80-a3b5-e3a82490c357","system_id":"levelo_inurba_marseille","lat":43.28357,"lon":5.38102,"is_reserved":false,"is_disabled":false,"rental_uris":{"android":"levelo://app?vid=cd599950-469a-4b80-a3b5-e3a82490c357","ios":"levelo://app?vid=cd599950-469a-4b80-a3b5-e3a82490c357"},"vehicle_type_id":"4","last_reported":1759010869,"current_range_meters":19200,"station_id":"ce4bh412rcd13ifvqdr0","pricing_plan_id":"cebpf4jnsgd1na2vs0mg"},