{"last_updated":1690131921,"ttl":30,"version":"2.2","data":{"bikes":[{"bike_id":"8637eab1-60eb-4e84-abf3-729c1b0e5f26","system_id":"levelo_inurba_marseille","lat":43.31332,"lon":5.36727,"is_reserved":false,"is_disabled":false,"rental_uris":{"android":"levelo://app?vid=8637eab1-60eb-4e84-abf3-729c1b0e5f26","ios":"levelo://app?vid=8637eab1-60eb-4e84-abf3-729c1b0e5f26"},"vehicle_type_id":"4","last_reported":1690131921,"current_range_meters":27200,"station_id":"ce4bgr92rcd13ifvqc6g","pricing_plan_id":"free"},{"bike_id":"35960fec-0a30-4ef0-aa8d-4fc339307d81","system_id":"levelo_inurba_marseille","lat":43.313391,"lon":5.36706,"is_reserved":false,"is_disabled":false,"rental_uris":{"android":"levelo://app?vid=35960fec-0a30-4ef0-aa8d-4fc339307d81","ios":"levelo://app?vid=35960fec-0a30-4ef0-aa8d-4fc339307d81"},"vehicle_type_id":"4","last_reported":1690131921,"current_range_meters":30400,"station_id":"ce4bgr92rcd13ifvqc6g","pricing_plan_id":"free"},{"bike_id":"988ac524-8564-4b73-bad9-b04d9c34cb4f","system_id":"levelo_inurba_marseille","lat":43.31224,"lon":5.36853,"is_reserved":false,"is_disabled":false,"rental_uris":{"android":"levelo://app?vid=988ac524-8564-4b73-bad9-b04d9c34cb4f","ios":"levelo://app?vid=988ac524-8564-4b73-bad9-b04d9c34cb4f"},"vehicle_type_id":"4","last_reported":1690131921,"current_range_meters":30000,"station_id":"ce4bgl92rcd13ifvqbq0","pricing_plan_id":"free"},{"bike_id":"aba2d936-f36c-4b9d-85c5-6b6664661152","system_id":"levelo_inurba_marseille","lat":43.312239,"lon":5.368562,"is_reserved":false,"is_disabled":false,"rental_uris":{"android":"levelo://app?vid=aba2d936-f36c-4b9d-85c5-6b6664661152","ios":"levelo://app?vid=aba2d936-f36c-4b9d-85c5-6b6664661152"},"vehicle_type_id":"4","last_reported":1690131921,"current_range_meters":12400,"station_id":"ce4bgl92rcd13ifvqbq0","pricing_plan_id":"free"},{"bike_id":"54211570-d1a3-4807-a17d-9ce189268781","system_id":"levelo_inurba_marseille","lat":43.31224,"lon":5.36859,"is_reserved":false,"is_disabled":false,"rental_uris":{"android":"levelo://app?vid=54211570-d1a3-4807-a17d-9ce189268781","ios":"levelo://app?vid=54211570-d1a3-4807-a17d-9ce189268781"},"vehicle_type_id":"4","last_reported":1690131921,"current_range_meters":19200,"station_id":"ce4bgl92rcd13ifvqbq0","pricing_plan_id":"free"},{"bike_id":"a69581b9-cc1b-434b-b690-c779ab0b2251","system_id":"levelo_inurba_marseille","lat":43.31217,"lon":5.36856,"is_reserved":false,"is_disabled":false,"rental_uris":{"android":"levelo://app?vid=a69581b9-cc1b-434b-b690-c779ab0b2251","ios":"levelo://app?vid=a69581b9-cc1b-434b-b690-c779ab0b2251"},"vehicle_type_id":"4","last_reported":1690131921,"current_range_meters":17200,"station_id":"ce4bgl92rcd13ifvqbq0","pricing_plan_id":"free"},{"bike_id":"cc8c60f0-aa84-42b5-a961-0c6e5412b9c4","system_id":"levelo_inurba_marseille","lat":43.31232,"lon":5.36865,"is_reserved":false,"is_disabled":false,"rental_uris":{"android":"levelo://app?vid=cc8c60f0-aa84-42b5-a961-0c6e5412b9c4","ios":"levelo://app?vid=cc8c60f0-aa84-42b5-a961-0c6e5412b9c4"},"vehicle_type_id":"4","last_reported":1690131921,"current_range_meters":31600,"station_id":"ce4bgl92rcd13ifvqbq0","pricing_plan_id":"free"},{"bike_id":"bffb3b87-8144-4886-9eb4-9cfee2a8c0c0","system_id":"levelo_inurba_marseille","lat":43.314811,"lon":5.373103,"is_reserved":false,"is_disabled":false,"rental_uris":{"android":"levelo://app?vid=bffb3b87-8144-4886-9eb4-9cfee2a8c0c0","ios":"levelo://app?vid=bffb3b87-8144-4886-9eb4-9cfee2a8c0c0"},"vehicle_type_id":"4","last_reported":1690131921,"current_range_meters":24800,"station_id":"ce4bgt12rcd13ifvqcd0","pricing_plan_id":"free"},{"bike_id":"828712dd-3489-4c74-b12c-c73e51c805a0","system_id":"levelo_inurba_marseille","lat":43.314811,"lon":5.373104,"is_reserved":false,"is_disabled":false,"rental_uris":{"android":"levelo://app?vid=828712dd-3489-4c74-b12c-c73e51c805a0","ios":"levelo://app?vid=828712dd-3489-4c74-b12c-c73e51c805a0"},"vehicle_type_id":"4","last_reported":1690131921,"current_range_meters":28000,"station_id":"ce4bgt12rcd13ifvqcd0","pricing_plan_id":"free"},{"bike_id":"0c56f6fe-8398-4e8a-806a-d999c9361bf5","system_id":"levelo_inurba_marseille","lat":43.309039,"lon":5.371797,"is_reserved":false,"is_disabled":false,"rental_uris":{"android":"levelo://app?vid=0c56f6fe-8398-4e8a-806a-d999c9361bf5","ios":"levelo://app?vid=0c56f6fe-8398-4e8a-806a-d999c9361bf5"},"vehicle_type_id":"4","last_reported":1690131921,"current_range_meters":30000,"station_id":"ce4bguh2rcd13ifvqckg","pricing_plan_id":"free"},{"bike_id":"9ebfdadf-eebb-4934-973d-55963c25c762","system_id":"levelo_inurba_marseille","lat":43.30672,"lon":5.37199,"is_reserved":false,"is_disabled":false,"rental_uris":{"android":"levelo://app?vid=9ebfdadf-eebb-4934-973d-55963c25c762","ios":"levelo://app?vid=9ebfdadf-eebb-4934-973d-55963c25c762"},"vehicle_type_id":"4","last_reported":1690131921,"current_range_meters":31200,"station_id":"","pricing_plan_id":"free"},{"bike_id":"b12be84a-5c3a-4756-abeb-6b08cb1669d3","system_id":"levelo_inurba_marseille","lat":43.30545,"lon":5.36717,"is_reserved":false,"is_disabled":false,"rental_uris":{"android":"levelo://app?vid=b12be84a-5c3a-4756-abeb-6b08cb1669d3","ios":"levelo://app?vid=b12be84a-5c3a-4756-abeb-6b08cb1669d3"},"vehicle_type_id":"4","last_reported":1690131921,"current_range_meters":12800,"station_id":"ce4bgrp2rcd13ifvqc9g","pricing_plan_id":"free"},{"bike_id":"b20a2e5a-95ab-412f-ace8-10adfd8e396a","system_id":"levelo_inurba_marseille","lat":43.305467,"lon":5.365726,"is_reserved":false,"is_disabled":false,"rental_uris":{"android":"levelo://app?vid=b20a2e5a-95ab-412f-ace8-10adfd8e396a","ios":"levelo://app?vid=b20a2e5a-95ab-412f-ace8-10adfd8e396a"},"vehicle_type_id":"4","last_reported":1690131921,"current_range_meters":12400,"station_id":"","pricing_plan_id":"free"},{"bike_id":"795dc4e8-44df-4f8a-bc4d-48836737f333","system_id":"levelo_inurba_marseille","lat":43.30541,"lon":5.36709,"is_reserved":false,"is_disabled":false,"rental_uris":{"android":"levelo://app?vid=795dc4e8-44df-4f8a-bc4d-48836737f333","ios":"levelo://app?vid=795dc4e8-44df-4f8a-bc4d-48836737f333"},"vehicle_type_id":"4","last_reported":1690131921,"current_range_meters":26000,"station_id":"ce4bgrp2rcd13ifvqc9g","pricing_plan_id":"free"},{"bike_id":"2af6811f-fa3e-495d-8f72-e0c51143ffd5","system_id":"levelo_inurba_marseille","lat":43.30541,"lon":5.36715,"is_reserved":false,"is_disabled":false,"rental_uris":{"android":"levelo://app?vid=2af6811f-fa3e-495d-8f72-e0c51143ffd5","ios":"levelo://app?vid=2af6811f-fa3e-495d-8f72-e0c51143ffd5"},"vehicle_type_id":"4","last_reported":1690131921,"current_range_meters":29600,"station_id":"ce4bgrp2rcd13ifvqc9g","pricing_plan_id":"free"},{"bike_id":"b8221e35-96e1-42f0-a533-26dc789a0612","system_id":"levelo_inurba_marseille","lat":43.30541,"lon":5.36718,"is_reserved":false,"is_disabled":false,"rental_uris":{"android":"levelo://app?vid=b8221e35-96e1-42f0-a533-26dc789a0612","ios":"levelo://app?vid=b8221e35-96e1-42f0-a533-26dc789a0612"},"vehicle_type_id":"4","last_reported":1690131921,"current_range_meters":23200,"station_id":"ce4bgrp2rcd13ifvqc9g","pricing_plan_id":"free"},{"bike_id":"22e20c8d-db43-4080-844b-2f8bcd14df6c","system_id":"levelo_inurba_marseille","lat":43.3054,"lon":5.3655,"is_reserved":false,"is_disabled":false,"rental_uris":{"android":"levelo://app?vid=22e20c8d-db43-4080-844b-2f8bcd14df6c","ios":"levelo://app?vid=22e20c8d-db43-4080-844b-2f8bcd14df6c"},"vehicle_type_id":"4","last_reported":1690131921,"current_range_meters":8400,"station_id":"ce4bgs12rcd13ifvqcag","pricing_plan_id":"free"},{"bike_id":"c1916e62-97dd-4f98-9594-034ec1142143","system_id":"levelo_inurba_marseille","lat":43.305989,"lon":5.37225,"is_reserved":false,"is_disabled":false,"rental_uris":{"android":"levelo://app?vid=c1916e62-97dd-4f98-9594-034ec1142143","ios":"levelo://app?vid=c1916e62-97dd-4f98-9594-034ec1142143"},"vehicle_type_id":"4","last_reported":1690131921,"current_range_meters":26800,"station_id":"ce4bgqh2rcd13ifvqc4g","pricing_plan_id":"free"},{"bike_id":"d9655d8c-1571-4be9-8c1b-fdc317d861f8","system_id":"levelo_inurba_marseille","lat":43.305989,"lon":5.37225,"is_reserved":false,"is_disabled":false,"rental_uris":{"android":"levelo://app?vid=d9655d8c-1571-4be9-8c1b-fdc317d861f8","ios":"levelo://app?vid=d9655d8c-1571-4be9-8c1b-fdc317d861f8"},"vehicle_type_id":"4","last_reported":1690131921,"current_range_meters":29200,"station_id":"ce4bgqh2rcd13ifvqc4g","pricing_plan_id":"free"},{"bike_id":"02821907-0092-44ab-82b0-127ea9041911","system_id":"levelo_inurba_marseille","lat":43.305989,"lon":5.37225,"is_reserved":false,"is_disabled":false,"rental_uris":{"android":"levelo://app?vid=02821907-0092-44ab-82b0-127ea9041911","ios":"levelo://app?vid=02821907-0092-44ab-82b0-127ea9041911"},"vehicle_type_id":"4","last_reported":1690131921,"current_range_meters":2800,"station_id":"ce4bgqh2rcd13ifvqc4g","pricing_plan_id":"free"},{"bike_id":"4f05de0e-fcc3-4fcc-9a45-8a35b6ca9de6","system_id":"levelo_inurba_marseille","lat":43.305989,"lon":5.37225,"is_reserved":false,"is_disabled":false,"rental_uris":{"android":"levelo://app?vid=4f05de0e-fcc3-4fcc-9a45-8a35b6ca9de6","ios":"levelo://app?vid=4f05de0e-fcc3-4fcc-9a45-8a35b6ca9de6"},"vehicle_type_id":"4","last_reported":1690131921,"current_range_meters":28400,"station_id":"ce4bgqh2rcd13ifvqc4g","pricing_plan_id":"free"},{"bike_id":"45b6afb6-32c0-4f41-a207-398c41733696","system_id":"levelo_inurba_marseille","lat":43.307945,"lon":5.376487,"is_reserved":false,"is_disabled":false,"rental_uris":{"android":"levelo://app?vid=45b6afb6-32c0-4f41-a207-398c41733696","ios":"levelo://app?vid=45b6afb6-32c0-4f41-a207-398c41733696"},"vehicle_type_id":"4","last_reported":1690131921,"current_range_meters":22800,"station_id":"ce4bgv92rcd13ifvqcq0","pricing_plan_id":"free"},{"bike_id":"cda8ff24-78cb-470e-8ab3-cc4705117163","system_id":"levelo_inurba_marseille","lat":43.307945,"lon":5.376487,"is_reserved":false,"is_disabled":false,"rental_uris":{"android":"levelo://app?vid=cda8ff24-78cb-470e-8ab3-cc4705117163","ios":"levelo://app?vid=cda8ff24-78cb-470e-8ab3-cc4705117163"},"vehicle_type_id":"4","last_reported":1690131921,"current_range_meters":4400,"station_id":"ce4bgv92rcd13ifvqcq0","pricing_plan_id":"free"},{"bike_id":"a2e136f1-c728-4018-88c2-a46aa30aa3c2","system_id":"levelo_inurba_marseille","lat":43.30311,"lon":5.369,"is_reserved":false,"is_disabled":false,"rental_uris":{"android":"levelo://app?vid=a2e136f1-c728-4018-88c2-a46aa30aa3c2","ios":"levelo://app?vid=a2e136f1-c728-4018-88c2-a46aa30aa3c2"},"vehicle_type_id":"4","last_reported":1690131921,"current_range_meters":14400,"station_id":"ce4bgqh2rcd13ifvqc5g","pricing_plan_id":"free"},{"bike_id":"7b462e12-e720-425d-a1ba-d99bfad85a42","system_id":"levelo_inurba_marseille","lat":43.315293,"lon":5.380349,"is_reserved":false,"is_disabled":false,"rental_uris":{"android":"levelo://app?vid=7b462e12-e720-425d-a1ba-d99bfad85a42","ios":"levelo://app?vid=7b462e12-e720-425d-a1ba-d99bfad85a42"},"vehicle_type_id":"4","last_reported":1690131921,"current_range_meters":14800,"station_id":"ce4bhsp2rcd13ifvqi50","pricing_plan_id":"free"},{"bike_id":"974b4303-9c17-4dd2-8025-6fdc4d431548","system_id":"levelo_inurba_marseille","lat":43.308079,"lon":5.38151,"is_reserved":false,"is_disabled":false,"rental_uris":{"android":"levelo://app?vid=974b4303-9c17-4dd2-8025-6fdc4d431548","ios":"levelo://app?vid=974b4303-9c17-4dd2-8025-6fdc4d431548"},"vehicle_type_id":"4","last_reported":1690131921,"current_range_meters":15600,"station_id":"","pricing_plan_id":"free"},{"bike_id":"075051ee-08ad-4a2f-9984-8c116e714296","system_id":"levelo_inurba_marseille","lat":43.308012,"lon":5.381511,"is_reserved":false,"is_disabled":false,"rental_uris":{"android":"levelo://app?vid=075051ee-08ad-4a2f-9984-8c116e714296","ios":"levelo://app?vid=075051ee-08ad-4a2f-9984-8c116e714296"},"vehicle_type_id":"4","last_reported":1690131921,"current_range_meters":30400,"station_id":"ce4bgt12rcd13ifvqce0","pricing_plan_id":"free"},{"bike_id":"9bc7c36e-6608-4488-bc75-cd3978f28783","system_id":"levelo_inurba_marseille","lat":43.30147,"lon":5.3742,"is_reserved":false,"is_disabled":false,"rental_uris":{"android":"levelo://app?vid=9bc7c36e-6608-4488-bc75-cd3978f28783","ios":"levelo://app?vid=9bc7c36e-6608-4488-bc75-cd3978f28783"},"vehicle_type_id":"4","last_reported":1690131921,"current_range_meters":0,"station_id":"ce4bgs92rcd13ifvqcc0","pricing_plan_id":"free"},{"bike_id":"39062a3f-a930-42a1-a29a-629c941870ae","system_id":"levelo_inurba_marseille","lat":43.313571,"lon":5.384829,"is_reserved":false,"is_disabled":false,"rental_uris":{"android":"levelo://app?vid=39062a3f-a930-42a1-a29a-629c941870ae","ios":"levelo://app?vid=39062a3f-a930-42a1-a29a-629c941870ae"},"vehicle_type_id":"4","last_reported":1690131921,"current_range_meters":19600,"station_id":"ce4bgt92rcd13ifvqcf0","pricing_plan_id":"free"},{"bike_id":"022d7149-d5f1-44fc-8b0b-932830fc221d","system_id":"levelo_inurba_marseille","lat":43.313571,"lon":5.384829,"is_reserved":false,"is_disabled":false,"rental_uris":{"android":"levelo://app?vid=022d7149-d5f1-44fc-8b0b-932830fc221d","ios":"levelo://app?vid=022d7149-d5f1-44fc-8b0b-932830fc221d"},"vehicle_type_id":"4","last_reported":1690131921,"current_range_meters":16800,"station_id":"ce4bgt92rcd13ifvqcf0","pricing_plan_id":"free"},{"bike_id":"2c05be27-5d2c-4393-93c1-e36a6c097c0a","system_id":"levelo_inurba_marseille","lat":43.299222,"lon":5.365554,"is_reserved":false,"is_disabled":false,"rental_uris":{"android":"levelo://app?vid=2c05be27-5d2c-4393-93c1-e36a6c097c0a","ios":"levelo://app?vid=2c05be27-5d2c-4393-93c1-e36a6c097c0a"},"vehicle_type_id":"4","last_reported":1690131921,"current_range_meters":24800,"station_id":"ce4bgm92rcd13ifvqbr0","pricing_plan_id":"free"},{"bike_id":"70ef318a-9269-4467-80f8-8496fb70a039","system_id":"levelo_inurba_marseille","lat":43.29936,"lon":5.3655,"is_reserved":false,"is_disabled":false,"rental_uris":{"android":"levelo://app?vid=70ef318a-9269-4467-80f8-8496fb70a039","ios":"levelo://app?vid=70ef318a-9269-4467-80f8-8496fb70a039"},"vehicle_type_id":"4","last_reported":1690131921,"current_range_meters":26000,"station_id":"ce4bgm92rcd13ifvqbr0","pricing_plan_id":"free"},{"bike_id":"bec51c7e-7e0b-4f34-ad5e-9328e0c38772","system_id":"levelo_inurba_marseille","lat":43.299222,"lon":5.365554,"is_reserved":false,"is_disabled":false,"rental_uris":{"android":"levelo://app?vid=bec51c7e-7e0b-4f34-ad5e-9328e0c38772","ios":"levelo://app?vid=bec51c7e-7e0b-4f34-ad5e-9328e0c38772"},"vehicle_type_id":"4","last_reported":1690131921,"current_range_meters":18000,"station_id":"ce4bgm92rcd13ifvqbr0","pricing_plan_id":"free"},{"bike_id":"9f38f2ab-66e2-4342-94ae-cfe4959156ff","system_id":"levelo_inurba_marseille","lat":43.3055,"lon":5.38427,"is_reserved":false,"is_disabled":false,"rental_uris":{"android":"levelo://app?vid=9f38f2ab-66e2-4342-94ae-cfe4959156ff","ios":"levelo://app?vid=9f38f2ab-66e2-4342-94ae-cfe4959156ff"},"vehicle_type_id":"4","last_reported":1690131921,"current_range_meters":20000,"station_id":"","pricing_plan_id":"free"},{"bike_id":"f7bfa242-c0bb-4593-8b0a-cc102b98673c","system_id":"levelo_inurba_marseille","lat":43.298433,"lon":5.362774,"is_reserved":false,"is_disabled":false,"rental_uris":{"android":"levelo://app?vid=f7bfa242-c0bb-4593-8b0a-cc102b98673c","ios":"levelo://app?vid=f7bfa242-c0bb-4593-8b0a-cc102b98673c"},"vehicle_type_id":"4","last_reported":1690131921,"current_range_meters":20000,"station_id":"ce4bgpp2rcd13ifvqc3g","pricing_plan_id":"free"},{"bike_id":"a37dc783-be6a-4b14-9dc2-1d0d460f54a7","system_id":"levelo_inurba_marseille","lat":43.298433,"lon":5.362774,"is_reserved":false,"is_disabled":false,"rental_uris":{"android":"levelo://app?vid=a37dc783-be6a-4b14-9dc2-1d0d460f54a7","ios":"levelo://app?vid=a37dc783-be6a-4b14-9dc2-1d0d460f54a7"},"vehicle_type_id":"4","last_reported":1690131921,"current_range_meters":15200,"station_id":"ce4bgpp2rcd13ifvqc3g","pricing_plan_id":"free"},{"bike_id":"37dc846c-e59e-478a-bb2b-23364594ebb7","system_id":"levelo_inurba_marseille","lat":43.299269,"lon":5.374753,"is_reserved":false,"is_disabled":false,"rental_uris":{"android":"levelo://app?vid=37dc846c-e59e-478a-bb2b-23364594ebb7","ios":"levelo://app?vid=37dc846c-e59e-478a-bb2b-23364594ebb7"},"vehicle_type_id":"4","last_reported":1690131921,"current_range_meters":21200,"station_id":"ce4bgjh2rcd13ifvqbg0","pricing_plan_id":"free"},{"bike_id":"d2c702c4-6407-45f6-a92c-d6d4ea379659","system_id":"levelo_inurba_marseille","lat":43.311722,"lon":5.387247,"is_reserved":false,"is_disabled":false,"rental_uris":{"android":"levelo://app?vid=d2c702c4-6407-45f6-a92c-d6d4ea379659","ios":"levelo://app?vid=d2c702c4-6407-45f6-a92c-d6d4ea379659"},"vehicle_type_id":"4","last_reported":1690131921,"current_range_meters":30400,"station_id":"ce4bgv12rcd13ifvqcp0","pricing_plan_id":"free"},{"bike_id":"9493214d-d847-4622-8a86-7c65893c5e5b","system_id":"levelo_inurba_marseille","lat":43.31178,"lon":5.38709,"is_reserved":false,"is_disabled":false,"rental_uris":{"android":"levelo://app?vid=9493214d-d847-4622-8a86-7c65893c5e5b","ios":"levelo://app?vid=9493214d-d847-4622-8a86-7c65893c5e5b"},"vehicle_type_id":"4","last_reported":1690131921,"current_range_meters":17600,"station_id":"ce4bgv12rcd13ifvqcp0","pricing_plan_id":"free"},{"bike_id":"91d47f80-8885-4095-afe8-f832b53e0363","system_id":"levelo_inurba_marseille","lat":43.31174,"lon":5.38709,"is_reserved":false,"is_disabled":false,"rental_uris":{"android":"levelo://app?vid=91d47f80-8885-4095-afe8-f832b53e0363","ios":"levelo://app?vid=91d47f80-8885-4095-afe8-f832b53e0363"},"vehicle_type_id":"4","last_reported":1690131921,"current_range_meters":17600,"station_id":"ce4bgv12rcd13ifvqcp0","pricing_plan_id":"free"},{"bike_id":"0ae65372-040a-4261-b007-8ff88a45e96e","system_id":"levelo_inurba_marseille","lat":43.311722,"lon":5.387247,"is_reserved":false,"is_disabled":false,"rental_uris":{"android":"levelo://app?vid=0ae65372-040a-4261-b007-8ff88a45e96e","ios":"levelo://app?vid=0ae65372-040a-4261-b007-8ff88a45e96e"},"vehicle_type_id":"4","last_reported":1690131921,"current_range_meters":25600,"station_id":"ce4bgv12rcd13ifvqcp0","pricing_plan_id":"free"},{"bike_id":"7c154cf1-be76-45ac-8f98-526cdbeb1a99","system_id":"levelo_inurba_marseille","lat":43.32288,"lon":5.38259,"is_reserved":false,"is_disabled":false,"rental_uris":{"android":"levelo://app?vid=7c154cf1-be76-45ac-8f98-526cdbeb1a99","ios":"levelo://app?vid=7c154cf1-be76-45ac-8f98-526cdbeb1a99"},"vehicle_type_id":"4","last_reported":1690131921,"current_range_meters":26000,"station_id":"ce4bhr12rcd13ifvqhqg","pricing_plan_id":"free"},{"bike_id":"78f253a6-db2d-47ef-bafb-4a15f979ff89","system_id":"levelo_inurba_marseille","lat":43.322924,"lon":5.382581,"is_reserved":false,"is_disabled":false,"rental_uris":{"android":"levelo://app?vid=78f253a6-db2d-47ef-bafb-4a15f979ff89","ios":"levelo://app?vid=78f253a6-db2d-47ef-bafb-4a15f979ff89"},"vehicle_type_id":"4","last_reported":1690131921,"current_range_meters":4400,"station_id":"","pricing_plan_id":"free"},{"bike_id":"2ed41945-cea8-4afa-87d0-4eb6bbef9c57","system_id":"levelo_inurba_marseille","lat":43.32285,"lon":5.3827,"is_reserved":false,"is_disabled":false,"rental_uris":{"android":"levelo://app?vid=2ed41945-cea8-4afa-87d0-4eb6bbef9c57","ios":"levelo://app?vid=2ed41945-cea8-4afa-87d0-4eb6bbef9c57"},"vehicle_type_id":"4","last_reported":1690131921,"current_range_meters":23600,"station_id":"ce4bhr12rcd13ifvqhqg","pricing_plan_id":"free"},{"bike_id":"5287824b-221e-4e76-a02f-d54b96737ad6","system_id":"levelo_inurba_marseille","lat":43.297774,"lon":5.370875,"is_reserved":false,"is_disabled":false,"rental_uris":{"android":"levelo://app?vid=5287824b-221e-4e76-a02f-d54b96737ad6","ios":"levelo://app?vid=5287824b-221e-4e76-a02f-d54b96737ad6"},"vehicle_type_id":"4","last_reported":1690131921,"current_range_meters":400,"station_id":"ce4bgop2rcd13ifvqc1g","pricing_plan_id":"free"},{"bike_id":"97ea72e1-b098-49f2-ba23-0e126269d8bc","system_id":"levelo_inurba_marseille","lat":43.322872,"lon":5.382756,"is_reserved":false,"is_disabled":false,"rental_uris":{"android":"levelo://app?vid=97ea72e1-b098-49f2-ba23-0e126269d8bc","ios":"levelo://app?vid=97ea72e1-b098-49f2-ba23-0e126269d8bc"},"vehicle_type_id":"4","last_reported":1690131921,"current_range_meters":30000,"station_id":"ce4bhr12rcd13ifvqhqg","pricing_plan_id":"free"},{"bike_id":"ba0dbccf-e97a-43e5-9c99-2f16dfe6de7b","system_id":"levelo_inurba_marseille","lat":43.328371,"lon":5.366909,"is_reserved":false,"is_disabled":false,"rental_uris":{"android":"levelo://app?vid=ba0dbccf-e97a-43e5-9c99-2f16dfe6de7b","ios":"levelo://app?vid=ba0dbccf-e97a-43e5-9c99-2f16dfe6de7b"},"vehicle_type_id":"4","last_reported":1690131921,"current_range_meters":11600,"station_id":"ce4bhs92rcd13ifvqi0g","pricing_plan_id":"free"},{"bike_id":"fb511930-d4e0-429d-9c00-32613454ee50","system_id":"levelo_inurba_marseille","lat":43.328371,"lon":5.366909,"is_reserved":false,"is_disabled":false,"rental_uris":{"android":"levelo://app?vid=fb511930-d4e0-429d-9c00-32613454ee50","ios":"levelo://app?vid=fb511930-d4e0-429d-9c00-32613454ee50"},"vehicle_type_id":"4","last_reported":1690131921,"current_range_meters":21200,"station_id":"ce4bhs92rcd13ifvqi0g","pricing_plan_id":"free"},{"bike_id":"3916e407-8c11-4a2b-8e00-1d25f7bfdca8","system_id":"levelo_inurba_marseille","lat":43.297163,"lon":5.365866,"is_reserved":false,"is_disabled":false,"rental_uris":{"android":"levelo://app?vid=3916e407-8c11-4a2b-8e00-1d25f7bfdca8","ios":"levelo://app?vid=3916e407-8c11-4a2b-8e00-1d25f7bfdca8"},"vehicle_type_id":"4","last_reported":1690131921,"current_range_meters":31200,"station_id":"ce4bgn12rcd13ifvqbt0","pricing_plan_id":"free"},{"bike_id":"f437dca4-380b-4e0b-af2e-9f662258a860","system_id":"levelo_inurba_marseille","lat":43.32833,"lon":5.3668,"is_reserved":false,"is_disabled":false,"rental_uris":{"android":"levelo://app?vid=f437dca4-380b-4e0b-af2e-9f662258a860","ios":"levelo://app?vid=f437dca4-380b-4e0b-af2e-9f662258a860"},"vehicle_type_id":"4","last_reported":1690131921,"current_range_meters":26800,"station_id":"ce4bhs92rcd13ifvqi0g","pricing_plan_id":"free"},{"bike_id":"2a54389f-c81d-46cb-b1ad-53ed4ca814ae","system_id":"levelo_inurba_marseille","lat":43.32792,"lon":5.37419,"is_reserved":false,"is_disabled":false,"rental_uris":{"android":"levelo://app?vid=2a54389f-c81d-46cb-b1ad-53ed4ca814ae","ios":"levelo://app?vid=2a54389f-c81d-46cb-b1ad-53ed4ca814ae"},"vehicle_type_id":"4","last_reported":1690131921,"current_range_meters":26400,"station_id":"","pricing_plan_id":"free"},{"bike_id":"4d853ffd-507a-4a54-acd1-e1cd987af018","system_id":"levelo_inurba_marseille","lat":43.296129,"lon":5.370777,"is_reserved":false,"is_disabled":false,"rental_uris":{"android":"levelo://app?vid=4d853ffd-507a-4a54-acd1-e1cd987af018","ios":"levelo://app?vid=4d853ffd-507a-4a54-acd1-e1cd987af018"},"vehicle_type_id":"4","last_reported":1690131921,"current_range_meters":19600,"station_id":"ce4bgnh2rcd13ifvqc0g","pricing_plan_id":"free"},{"bike_id":"1dfb35b6-84e1-43c6-84b2-45cefc2bb060","system_id":"levelo_inurba_marseille","lat":43.296131,"lon":5.370773,"is_reserved":false,"is_disabled":false,"rental_uris":{"android":"levelo://app?vid=1dfb35b6-84e1-43c6-84b2-45cefc2bb060","ios":"levelo://app?vid=1dfb35b6-84e1-43c6-84b2-45cefc2bb060"},"vehicle_type_id":"4","last_reported":1690131921,"current_range_meters":11600,"station_id":"ce4bgnh2rcd13ifvqc0g","pricing_plan_id":"free"},{"bike_id":"ac371328-19d5-4dd2-95bd-afb8dae2865b","system_id":"levelo_inurba_marseille","lat":43.299028,"lon":5.381509,"is_reserved":false,"is_disabled":false,"rental_uris":{"android":"levelo://app?vid=ac371328-19d5-4dd2-95bd-afb8dae2865b","ios":"levelo://app?vid=ac371328-19d5-4dd2-95bd-afb8dae2865b"},"vehicle_type_id":"4","last_reported":1690131921,"current_range_meters":30000,"station_id":"ce4bgj12rcd13ifvqbc0","pricing_plan_id":"free"},{"bike_id":"39d0d5d5-dfcf-4b89-a223-651c7497fb91","system_id":"levelo_inurba_marseille","lat":43.29711,"lon":5.37696,"is_reserved":false,"is_disabled":false,"rental_uris":{"android":"levelo://app?vid=39d0d5d5-dfcf-4b89-a223-651c7497fb91","ios":"levelo://app?vid=39d0d5d5-dfcf-4b89-a223-651c7497fb91"},"vehicle_type_id":"4","last_reported":1690131921,"current_range_meters":30000,"station_id":"ce4bgkh2rcd13ifvqbl0","pricing_plan_id":"free"},{"bike_id":"56f8f64c-d218-4b7f-934b-d5589d6f2eec","system_id":"levelo_inurba_marseille","lat":43.296935,"lon":5.376544,"is_reserved":false,"is_disabled":false,"rental_uris":{"android":"levelo://app?vid=56f8f64c-d218-4b7f-934b-d5589d6f2eec","ios":"levelo://app?vid=56f8f64c-d218-4b7f-934b-d5589d6f2eec"},"vehicle_type_id":"4","last_reported":1690131921,"current_range_meters":14000,"station_id":"ce4bgkh2rcd13ifvqbl0","pricing_plan_id":"free"},{"bike_id":"b6c35da9-9231-412b-a9a7-bbf5fcb63d77","system_id":"levelo_inurba_marseille","lat":43.296921,"lon":5.376579,"is_reserved":false,"is_disabled":false,"rental_uris":{"android":"levelo://app?vid=b6c35da9-9231-412b-a9a7-bbf5fcb63d77","ios":"levelo://app?vid=b6c35da9-9231-412b-a9a7-bbf5fcb63d77"},"vehicle_type_id":"4","last_reported":1690131921,"current_range_meters":14000,"station_id":"ce4bgkh2rcd13ifvqbl0","pricing_plan_id":"free"},{"bike_id":"7f1a47b9-6b44-40e2-b5c8-38a1e14fb348","system_id":"levelo_inurba_marseille","lat":43.30963,"lon":5.39031,"is_reserved":false,"is_disabled":false,"rental_uris":{"android":"levelo://app?vid=7f1a47b9-6b44-40e2-b5c8-38a1e14fb348","ios":"levelo://app?vid=7f1a47b9-6b44-40e2-b5c8-38a1e14fb348"},"vehicle_type_id":"4","last_reported":1690131921,"current_range_meters":22400,"station_id":"ce4bgup2rcd13ifvqco0","pricing_plan_id":"free"},{"bike_id":"2f75ef36-40f6-4577-afd7-b6c5346b5f69","system_id":"levelo_inurba_marseille","lat":43.29708,"lon":5.37702,"is_reserved":false,"is_disabled":false,"rental_uris":{"android":"levelo://app?vid=2f75ef36-40f6-4577-afd7-b6c5346b5f69","ios":"levelo://app?vid=2f75ef36-40f6-4577-afd7-b6c5346b5f69"},"vehicle_type_id":"4","last_reported":1690131921,"current_range_meters":15600,"station_id":"ce4bgkh2rcd13ifvqbl0","pricing_plan_id":"free"},{"bike_id":"7ac03dcf-34f8-47f3-abb9-9906c24b103c","system_id":"levelo_inurba_marseille","lat":43.309589,"lon":5.390258,"is_reserved":false,"is_disabled":false,"rental_uris":{"android":"levelo://app?vid=7ac03dcf-34f8-47f3-abb9-9906c24b103c","ios":"levelo://app?vid=7ac03dcf-34f8-47f3-abb9-9906c24b103c"},"vehicle_type_id":"4","last_reported":1690131921,"current_range_meters":27200,"station_id":"ce4bgup2rcd13ifvqco0","pricing_plan_id":"free"},{"bike_id":"99c422af-4eed-42fe-a45d-5065ef05dbe9","system_id":"levelo_inurba_marseille","lat":43.30946,"lon":5.39037,"is_reserved":false,"is_disabled":false,"rental_uris":{"android":"levelo://app?vid=99c422af-4eed-42fe-a45d-5065ef05dbe9","ios":"levelo://app?vid=99c422af-4eed-42fe-a45d-5065ef05dbe9"},"vehicle_type_id":"4","last_reported":1690131921,"current_range_meters":31200,"station_id":"ce4bgup2rcd13ifvqco0","pricing_plan_id":"free"},{"bike_id":"359eaf3c-6ad0-4bbe-9005-8c1c1f10f22f","system_id":"levelo_inurba_marseille","lat":43.309589,"lon":5.390258,"is_reserved":false,"is_disabled":false,"rental_uris":{"android":"levelo://app?vid=359eaf3c-6ad0-4bbe-9005-8c1c1f10f22f","ios":"levelo://app?vid=359eaf3c-6ad0-4bbe-9005-8c1c1f10f22f"},"vehicle_type_id":"4","last_reported":1690131921,"current_range_meters":8800,"station_id":"ce4bgup2rcd13ifvqco0","pricing_plan_id":"free"},{"bike_id":"4c7a08c4-98b8-428e-9367-a654c1b9da3c","system_id":"levelo_inurba_marseille","lat":43.31764,"lon":5.39018,"is_reserved":false,"is_disabled":false,"rental_uris":{"android":"levelo://app?vid=4c7a08c4-98b8-428e-9367-a654c1b9da3c","ios":"levelo://app?vid=4c7a08c4-98b8-428e-9367-a654c1b9da3c"},"vehicle_type_id":"4","last_reported":1690131921,"current_range_meters":30400,"station_id":"ce4bhqp2rcd13ifvqhng","pricing_plan_id":"free"},{"bike_id":"b88a46aa-c2a5-489b-91fc-9e56e91428b5","system_id":"levelo_inurba_marseille","lat":43.295748,"lon":5.37522,"is_reserved":false,"is_disabled":false,"rental_uris":{"android":"levelo://app?vid=b88a46aa-c2a5-489b-91fc-9e56e91428b5","ios":"levelo://app?vid=b88a46aa-c2a5-489b-91fc-9e56e91428b5"},"vehicle_type_id":"4","last_reported":1690131921,"current_range_meters":20800,"station_id":"ce4bgh92rcd13ifvqb50","pricing_plan_id":"free"},{"bike_id":"71d31686-5927-4c4a-ba8f-b04eddf7be29","system_id":"levelo_inurba_marseille","lat":43.295748,"lon":5.37522,"is_reserved":false,"is_disabled":false,"rental_uris":{"android":"levelo://app?vid=71d31686-5927-4c4a-ba8f-b04eddf7be29","ios":"levelo://app?vid=71d31686-5927-4c4a-ba8f-b04eddf7be29"},"vehicle_type_id":"4","last_reported":1690131921,"current_range_meters":11200,"station_id":"ce4bgh92rcd13ifvqb50","pricing_plan_id":"free"},{"bike_id":"94ece483-8582-45a9-9ecc-a0d01485c6de","system_id":"levelo_inurba_marseille","lat":43.295279,"lon":5.375048,"is_reserved":false,"is_disabled":false,"rental_uris":{"android":"levelo://app?vid=94ece483-8582-45a9-9ecc-a0d01485c6de","ios":"levelo://app?vid=94ece483-8582-45a9-9ecc-a0d01485c6de"},"vehicle_type_id":"4","last_reported":1690131921,"current_range_meters":26800,"station_id":"ce4bgkp2rcd13ifvqbmg","pricing_plan_id":"free"},{"bike_id":"786f0850-2cee-4a27-bf45-793413a36fd1","system_id":"levelo_inurba_marseille","lat":43.295279,"lon":5.375048,"is_reserved":false,"is_disabled":false,"rental_uris":{"android":"levelo://app?vid=786f0850-2cee-4a27-bf45-793413a36fd1","ios":"levelo://app?vid=786f0850-2cee-4a27-bf45-793413a36fd1"},"vehicle_type_id":"4","last_reported":1690131921,"current_range_meters":24000,"station_id":"ce4bgkp2rcd13ifvqbmg","pricing_plan_id":"free"},{"bike_id":"3cd4d462-8ef5-4151-a816-d3c4ce551331","system_id":"levelo_inurba_marseille","lat":43.293009,"lon":5.374584,"is_reserved":false,"is_disabled":false,"rental_uris":{"android":"levelo://app?vid=3cd4d462-8ef5-4151-a816-d3c4ce551331","ios":"levelo://app?vid=3cd4d462-8ef5-4151-a816-d3c4ce551331"},"vehicle_type_id":"4","last_reported":1690131921,"current_range_meters":30400,"station_id":"ce4bgi12rcd13ifvqb70","pricing_plan_id":"free"},{"bike_id":"97178189-0ce7-4b8f-a260-4d393ee5573a","system_id":"levelo_inurba_marseille","lat":43.29536,"lon":5.37503,"is_reserved":false,"is_disabled":false,"rental_uris":{"android":"levelo://app?vid=97178189-0ce7-4b8f-a260-4d393ee5573a","ios":"levelo://app?vid=97178189-0ce7-4b8f-a260-4d393ee5573a"},"vehicle_type_id":"4","last_reported":1690131921,"current_range_meters":13200,"station_id":"ce4bgkp2rcd13ifvqbmg","pricing_plan_id":"free"},{"bike_id":"a8c3b14c-6f00-4dad-93f5-32d6cd6668c1","system_id":"levelo_inurba_marseille","lat":43.295279,"lon":5.375048,"is_reserved":false,"is_disabled":false,"rental_uris":{"android":"levelo://app?vid=a8c3b14c-6f00-4dad-93f5-32d6cd6668c1","ios":"levelo://app?vid=a8c3b14c-6f00-4dad-93f5-32d6cd6668c1"},"vehicle_type_id":"4","last_reported":1690131921,"current_range_meters":14400,"station_id":"ce4bgkp2rcd13ifvqbmg","pricing_plan_id":"free"},{"bike_id":"87d4f65a-3950-4ec8-990d-46e12b2e3126","system_id":"levelo_inurba_marseille","lat":43.295279,"lon":5.375048,"is_reserved":false,"is_disabled":false,"rental_uris":{"android":"levelo://app?vid=87d4f65a-3950-4ec8-990d-46e12b2e3126","ios":"levelo://app?vid=87d4f65a-3950-4ec8-990d-46e12b2e3126"},"vehicle_type_id":"4","last_reported":1690131921,"current_range_meters":8800,"station_id":"ce4bgkp2rcd13ifvqbmg","pricing_plan_id":"free"},{"bike_id":"becce830-f4f5-452e-810c-92238aa7ab80","system_id":"levelo_inurba_marseille","lat":43.295279,"lon":5.375048,"is_reserved":false,"is_disabled":false,"rental_uris":{"android":"levelo://app?vid=becce830-f4f5-452e-810c-92238aa7ab80","ios":"levelo://app?vid=becce830-f4f5-452e-810c-92238aa7ab80"},"vehicle_type_id":"4","last_reported":1690131921,"current_range_meters":6000,"station_id":"ce4bgkp2rcd13ifvqbmg","pricing_plan_id":"free"},{"bike_id":"b8a9fd55-0fe3-42d3-9f91-765fe0c857f8","system_id":"levelo_inurba_marseille","lat":43.29507,"lon":5.37517,"is_reserved":false,"is_disabled":false,"rental_uris":{"android":"levelo://app?vid=b8a9fd55-0fe3-42d3-9f91-765fe0c857f8","ios":"levelo://app?vid=b8a9fd55-0fe3-42d3-9f91-765fe0c857f8"},"vehicle_type_id":"4","last_reported":1690131921,"current_range_meters":12000,"station_id":"ce4bgkp2rcd13ifvqbmg","pricing_plan_id":"free"},{"bike_id":"e9f98804-aebf-44ad-b21f-ff78bc13ed72","system_id":"levelo_inurba_marseille","lat":43.29602,"lon":5.381084,"is_reserved":false,"is_disabled":false,"rental_uris":{"android":"levelo://app?vid=e9f98804-aebf-44ad-b21f-ff78bc13ed72","ios":"levelo://app?vid=e9f98804-aebf-44ad-b21f-ff78bc13ed72"},"vehicle_type_id":"4","last_reported":1690131921,"current_range_meters":12800,"station_id":"ce4bgl12rcd13ifvqbo0","pricing_plan_id":"free"},{"bike_id":"0007a9c3-3969-4843-86e4-044564822198","system_id":"levelo_inurba_marseille","lat":43.29602,"lon":5.381084,"is_reserved":false,"is_disabled":false,"rental_uris":{"android":"levelo://app?vid=0007a9c3-3969-4843-86e4-044564822198","ios":"levelo://app?vid=0007a9c3-3969-4843-86e4-044564822198"},"vehicle_type_id":"4","last_reported":1690131921,"current_range_meters":24800,"station_id":"ce4bgl12rcd13ifvqbo0","pricing_plan_id":"free"},{"bike_id":"099e1e90-4a94-4afc-ab1e-0f3a2fc0d1ea","system_id":"levelo_inurba_marseille","lat":43.29601,"lon":5.381084,"is_reserved":false,"is_disabled":false,"rental_uris":{"android":"levelo://app?vid=099e1e90-4a94-4afc-ab1e-0f3a2fc0d1ea","ios":"levelo://app?vid=099e1e90-4a94-4afc-ab1e-0f3a2fc0d1ea"},"vehicle_type_id":"4","last_reported":1690131921,"current_range_meters":9200,"station_id":"ce4bgl12rcd13ifvqbo0","pricing_plan_id":"free"},{"bike_id":"235de78f-90ac-4167-a7a0-88dc357b61ff","system_id":"levelo_inurba_marseille","lat":43.29598,"lon":5.38114,"is_reserved":false,"is_disabled":false,"rental_uris":{"android":"levelo://app?vid=235de78f-90ac-4167-a7a0-88dc357b61ff","ios":"levelo://app?vid=235de78f-90ac-4167-a7a0-88dc357b61ff"},"vehicle_type_id":"4","last_reported":1690131921,"current_range_meters":22000,"station_id":"ce4bgl12rcd13ifvqbo0","pricing_plan_id":"free"},{"bike_id":"b7eb1ae2-49c8-4adb-8883-1d813874bf57","system_id":"levelo_inurba_marseille","lat":43.29314,"lon":5.37177,"is_reserved":false,"is_disabled":false,"rental_uris":{"android":"levelo://app?vid=b7eb1ae2-49c8-4adb-8883-1d813874bf57","ios":"levelo://app?vid=b7eb1ae2-49c8-4adb-8883-1d813874bf57"},"vehicle_type_id":"4","last_reported":1690131921,"current_range_meters":17200,"station_id":"ce4bgh92rcd13ifvqb40","pricing_plan_id":"free"},{"bike_id":"2c9dca0f-e5f4-4db2-9822-3b51473bdcec","system_id":"levelo_inurba_marseille","lat":43.293249,"lon":5.371578,"is_reserved":false,"is_disabled":false,"rental_uris":{"android":"levelo://app?vid=2c9dca0f-e5f4-4db2-9822-3b51473bdcec","ios":"levelo://app?vid=2c9dca0f-e5f4-4db2-9822-3b51473bdcec"},"vehicle_type_id":"4","last_reported":1690131921,"current_range_meters":28800,"station_id":"ce4bgh92rcd13ifvqb40","pricing_plan_id":"free"},{"bike_id":"77bea47e-ef67-46d6-9162-05efe6e2d949","system_id":"levelo_inurba_marseille","lat":43.29306,"lon":5.37459,"is_reserved":false,"is_disabled":false,"rental_uris":{"android":"levelo://app?vid=77bea47e-ef67-46d6-9162-05efe6e2d949","ios":"levelo://app?vid=77bea47e-ef67-46d6-9162-05efe6e2d949"},"vehicle_type_id":"4","last_reported":1690131921,"current_range_meters":0,"station_id":"ce4bgi12rcd13ifvqb70","pricing_plan_id":"free"},{"bike_id":"b3d783e2-58ad-4f09-b457-3bfea5c762f5","system_id":"levelo_inurba_marseille","lat":43.29307,"lon":5.37465,"is_reserved":false,"is_disabled":false,"rental_uris":{"android":"levelo://app?vid=b3d783e2-58ad-4f09-b457-3bfea5c762f5","ios":"levelo://app?vid=b3d783e2-58ad-4f09-b457-3bfea5c762f5"},"vehicle_type_id":"4","last_reported":1690131921,"current_range_meters":18000,"station_id":"ce4bgi12rcd13ifvqb70","pricing_plan_id":"free"},{"bike_id":"c53a86dd-329b-4528-b7c5-05689c5971dd","system_id":"levelo_inurba_marseille","lat":43.293009,"lon":5.374584,"is_reserved":false,"is_disabled":false,"rental_uris":{"android":"levelo://app?vid=c53a86dd-329b-4528-b7c5-05689c5971dd","ios":"levelo://app?vid=c53a86dd-329b-4528-b7c5-05689c5971dd"},"vehicle_type_id":"4","last_reported":1690131921,"current_range_meters":28400,"station_id":"ce4bgi12rcd13ifvqb70","pricing_plan_id":"free"},{"bike_id":"6345b3d2-da11-4fe2-a3c2-88aab5ad8003","system_id":"levelo_inurba_marseille","lat":43.293009,"lon":5.374584,"is_reserved":false,"is_disabled":false,"rental_uris":{"android":"levelo://app?vid=6345b3d2-da11-4fe2-a3c2-88aab5ad8003","ios":"levelo://app?vid=6345b3d2-da11-4fe2-a3c2-88aab5ad8003"},"vehicle_type_id":"4","last_reported":1690131921,"current_range_meters":26400,"station_id":"ce4bgi12rcd13ifvqb70","pricing_plan_id":"free"},{"bike_id":"d80ec144-23c0-4592-94ad-dafd5a6ed836","system_id":"levelo_inurba_marseille","lat":43.293009,"lon":5.374584,"is_reserved":false,"is_disabled":false,"rental_uris":{"android":"levelo://app?vid=d80ec144-23c0-4592-94ad-dafd5a6ed836","ios":"levelo://app?vid=d80ec144-23c0-4592-94ad-dafd5a6ed836"},"vehicle_type_id":"4","last_reported":1690131921,"current_range_meters":0,"station_id":"ce4bgi12rcd13ifvqb70","pricing_plan_id":"free"},{"bike_id":"1e664639-2350-4ae3-b900-e5937bb8e57d","system_id":"levelo_inurba_marseille","lat":43.293,"lon":5.37454,"is_reserved":false,"is_disabled":false,"rental_uris":{"android":"levelo://app?vid=1e664639-2350-4ae3-b900-e5937bb8e57d","ios":"levelo://app?vid=1e664639-2350-4ae3-b900-e5937bb8e57d"},"vehicle_type_id":"4","last_reported":1690131921,"current_range_meters":8400,"station_id":"ce4bgi12rcd13ifvqb70","pricing_plan_id":"free"},{"bike_id":"a4b29549-e1c4-4a22-a239-34fb596b1717","system_id":"levelo_inurba_marseille","lat":43.30601,"lon":5.39356,"is_reserved":false,"is_disabled":false,"rental_uris":{"android":"levelo://app?vid=a4b29549-e1c4-4a22-a239-34fb596b1717","ios":"levelo://app?vid=a4b29549-e1c4-4a22-a239-34fb596b1717"},"vehicle_type_id":"4","last_reported":1690131921,"current_range_meters":24000,"station_id":"ce4bh0p2rcd13ifvqd80","pricing_plan_id":"free"},{"bike_id":"a0ab0184-e0fa-44f1-83cb-1c2f395810fd","system_id":"levelo_inurba_marseille","lat":43.293009,"lon":5.374584,"is_reserved":false,"is_disabled":false,"rental_uris":{"android":"levelo://app?vid=a0ab0184-e0fa-44f1-83cb-1c2f395810fd","ios":"levelo://app?vid=a0ab0184-e0fa-44f1-83cb-1c2f395810fd"},"vehicle_type_id":"4","last_reported":1690131921,"current_range_meters":30400,"station_id":"ce4bgi12rcd13ifvqb70","pricing_plan_id":"free"},{"bike_id":"70f5a32c-a2a3-45ee-8b2a-6c5af3f11f17","system_id":"levelo_inurba_marseille","lat":43.29298,"lon":5.37469,"is_reserved":false,"is_disabled":false,"rental_uris":{"android":"levelo://app?vid=70f5a32c-a2a3-45ee-8b2a-6c5af3f11f17","ios":"levelo://app?vid=70f5a32c-a2a3-45ee-8b2a-6c5af3f11f17"},"vehicle_type_id":"4","last_reported":1690131921,"current_range_meters":0,"station_id":"ce4bgi12rcd13ifvqb70","pricing_plan_id":"free"},{"bike_id":"6ca29d78-32d6-4147-a62c-4b900cfb0066","system_id":"levelo_inurba_marseille","lat":43.293009,"lon":5.374584,"is_reserved":false,"is_disabled":false,"rental_uris":{"android":"levelo://app?vid=6ca29d78-32d6-4147-a62c-4b900cfb0066","ios":"levelo://app?vid=6ca29d78-32d6-4147-a62c-4b900cfb0066"},"vehicle_type_id":"4","last_reported":1690131921,"current_range_meters":30000,"station_id":"ce4bgi12rcd13ifvqb70","pricing_plan_id":"free"},{"bike_id":"4af7a5a5-fdbe-4063-87c7-b988eba1eb40","system_id":"levelo_inurba_marseille","lat":43.293009,"lon":5.374584,"is_reserved":false,"is_disabled":false,"rental_uris":{"android":"levelo://app?vid=4af7a5a5-fdbe-4063-87c7-b988eba1eb40","ios":"levelo://app?vid=4af7a5a5-fdbe-4063-87c7-b988eba1eb40"},"vehicle_type_id":"4","last_reported":1690131921,"current_range_meters":23200,"station_id":"ce4bgi12rcd13ifvqb70","pricing_plan_id":"free"},{"bike_id":"ed269e65-bb50-41b8-82a2-f178175a79e8","system_id":"levelo_inurba_marseille","lat":43.2936,"lon":5.37835,"is_reserved":false,"is_disabled":false,"rental_uris":{"android":"levelo://app?vid=ed269e65-bb50-41b8-82a2-f178175a79e8","ios":"levelo://app?vid=ed269e65-bb50-41b8-82a2-f178175a79e8"},"vehicle_type_id":"4","last_reported":1690131921,"current_range_meters":0,"station_id":"ce4bgjh2rcd13ifvqbf0","pricing_plan_id":"free"},{"bike_id":"983048bc-31ae-41e7-b0cc-b6afe2882549","system_id":"levelo_inurba_marseille","lat":43.292351,"lon":5.360894,"is_reserved":false,"is_disabled":false,"rental_uris":{"android":"levelo://app?vid=983048bc-31ae-41e7-b0cc-b6afe2882549","ios":"levelo://app?vid=983048bc-31ae-41e7-b0cc-b6afe2882549"},"vehicle_type_id":"4","last_reported":1690131921,"current_range_meters":0,"station_id":"ce4bhbh2rcd13ifvqeqg","pricing_plan_id":"free"},{"bike_id":"dd5a8cd1-c8be-4f57-aa38-f3bb1cc0d397","system_id":"levelo_inurba_marseille","lat":43.2922,"lon":5.36066,"is_reserved":false,"is_disabled":false,"rental_uris":{"android":"levelo://app?vid=dd5a8cd1-c8be-4f57-aa38-f3bb1cc0d397","ios":"levelo://app?vid=dd5a8cd1-c8be-4f57-aa38-f3bb1cc0d397"},"vehicle_type_id":"4","last_reported":1690131921,"current_range_meters":22800,"station_id":"ce4bhbh2rcd13ifvqeqg","pricing_plan_id":"free"},{"bike_id":"97c72262-d975-4d75-ae70-18b79514f46e","system_id":"levelo_inurba_marseille","lat":43.29894,"lon":5.38893,"is_reserved":false,"is_disabled":false,"rental_uris":{"android":"levelo://app?vid=97c72262-d975-4d75-ae70-18b79514f46e","ios":"levelo://app?vid=97c72262-d975-4d75-ae70-18b79514f46e"},"vehicle_type_id":"4","last_reported":1690131921,"current_range_meters":20000,"station_id":"ce4bh392rcd13ifvqdl0","pricing_plan_id":"free"},{"bike_id":"4baf1dcb-2f87-43c2-acbd-3070f5529e31","system_id":"levelo_inurba_marseille","lat":43.29268,"lon":5.37625,"is_reserved":false,"is_disabled":false,"rental_uris":{"android":"levelo://app?vid=4baf1dcb-2f87-43c2-acbd-3070f5529e31","ios":"levelo://app?vid=4baf1dcb-2f87-43c2-acbd-3070f5529e31"},"vehicle_type_id":"4","last_reported":1690131921,"current_range_meters":26400,"station_id":"ce4bgi12rcd13ifvqb80","pricing_plan_id":"free"},{"bike_id":"e88cc49b-deb9-4180-8cf5-8bf828cdccb8","system_id":"levelo_inurba_marseille","lat":43.292663,"lon":5.376389,"is_reserved":false,"is_disabled":false,"rental_uris":{"android":"levelo://app?vid=e88cc49b-deb9-4180-8cf5-8bf828cdccb8","ios":"levelo://app?vid=e88cc49b-deb9-4180-8cf5-8bf828cdccb8"},"vehicle_type_id":"4","last_reported":1690131921,"current_range_meters":31600,"station_id":"ce4bgi12rcd13ifvqb80","pricing_plan_id":"free"},{"bike_id":"4d12d138-a7c6-43be-8f01-f2effcad0015","system_id":"levelo_inurba_marseille","lat":43.292663,"lon":5.376389,"is_reserved":false,"is_disabled":false,"rental_uris":{"android":"levelo://app?vid=4d12d138-a7c6-43be-8f01-f2effcad0015","ios":"levelo://app?vid=4d12d138-a7c6-43be-8f01-f2effcad0015"},"vehicle_type_id":"4","last_reported":1690131921,"current_range_meters":12400,"station_id":"ce4bgi12rcd13ifvqb80","pricing_plan_id":"free"},{"bike_id":"580883ed-12f4-43c7-8d51-39e334f37b1e","system_id":"levelo_inurba_marseille","lat":43.298835,"lon":5.388967,"is_reserved":false,"is_disabled":false,"rental_uris":{"android":"levelo://app?vid=580883ed-12f4-43c7-8d51-39e334f37b1e","ios":"levelo://app?vid=580883ed-12f4-43c7-8d51-39e334f37b1e"},"vehicle_type_id":"4","last_reported":1690131921,"current_range_meters":8800,"station_id":"ce4bh392rcd13ifvqdl0","pricing_plan_id":"free"},{"bike_id":"184dc64e-15a6-4af9-831b-b2ecce1cf35e","system_id":"levelo_inurba_marseille","lat":43.29172,"lon":5.37149,"is_reserved":false,"is_disabled":false,"rental_uris":{"android":"levelo://app?vid=184dc64e-15a6-4af9-831b-b2ecce1cf35e","ios":"levelo://app?vid=184dc64e-15a6-4af9-831b-b2ecce1cf35e"},"vehicle_type_id":"4","last_reported":1690131921,"current_range_meters":22000,"station_id":"ce4bha92rcd13ifvqeh0","pricing_plan_id":"free"},{"bike_id":"221c4edf-1622-45c5-b663-e3c5aa310628","system_id":"levelo_inurba_marseille","lat":43.292663,"lon":5.376389,"is_reserved":false,"is_disabled":false,"rental_uris":{"android":"levelo://app?vid=221c4edf-1622-45c5-b663-e3c5aa310628","ios":"levelo://app?vid=221c4edf-1622-45c5-b663-e3c5aa310628"},"vehicle_type_id":"4","last_reported":1690131921,"current_range_meters":29600,"station_id":"ce4bgi12rcd13ifvqb80","pricing_plan_id":"free"},{"bike_id":"fa5072ea-49f9-4d1c-978d-b5a2f6123878","system_id":"levelo_inurba_marseille","lat":43.291675,"lon":5.371583,"is_reserved":false,"is_disabled":false,"rental_uris":{"android":"levelo://app?vid=fa5072ea-49f9-4d1c-978d-b5a2f6123878","ios":"levelo://app?vid=fa5072ea-49f9-4d1c-978d-b5a2f6123878"},"vehicle_type_id":"4","last_reported":1690131921,"current_range_meters":400,"station_id":"ce4bha92rcd13ifvqeh0","pricing_plan_id":"free"},{"bike_id":"20a57dea-3f07-4ab6-908f-d0a50c791870","system_id":"levelo_inurba_marseille","lat":43.29166,"lon":5.37149,"is_reserved":false,"is_disabled":false,"rental_uris":{"android":"levelo://app?vid=20a57dea-3f07-4ab6-908f-d0a50c791870","ios":"levelo://app?vid=20a57dea-3f07-4ab6-908f-d0a50c791870"},"vehicle_type_id":"4","last_reported":1690131921,"current_range_meters":17600,"station_id":"ce4bha92rcd13ifvqeh0","pricing_plan_id":"free"},{"bike_id":"8bc7bf4a-56b4-4442-accd-59d36a5c1464","system_id":"levelo_inurba_marseille","lat":43.29859,"lon":5.38905,"is_reserved":false,"is_disabled":false,"rental_uris":{"android":"levelo://app?vid=8bc7bf4a-56b4-4442-accd-59d36a5c1464","ios":"levelo://app?vid=8bc7bf4a-56b4-4442-accd-59d36a5c1464"},"vehicle_type_id":"4","last_reported":1690131921,"current_range_meters":21600,"station_id":"ce4bh392rcd13ifvqdl0","pricing_plan_id":"free"},{"bike_id":"85295d15-ca74-46ec-a064-44905d591cbb","system_id":"levelo_inurba_marseille","lat":43.313291,"lon":5.396838,"is_reserved":false,"is_disabled":false,"rental_uris":{"android":"levelo://app?vid=85295d15-ca74-46ec-a064-44905d591cbb","ios":"levelo://app?vid=85295d15-ca74-46ec-a064-44905d591cbb"},"vehicle_type_id":"4","last_reported":1690131921,"current_range_meters":6800,"station_id":"ce4bgvp2rcd13ifvqcu0","pricing_plan_id":"free"},{"bike_id":"4012d955-768f-4ec8-aea0-90589608dd1d","system_id":"levelo_inurba_marseille","lat":43.30887,"lon":5.39655,"is_reserved":false,"is_disabled":false,"rental_uris":{"android":"levelo://app?vid=4012d955-768f-4ec8-aea0-90589608dd1d","ios":"levelo://app?vid=4012d955-768f-4ec8-aea0-90589608dd1d"},"vehicle_type_id":"4","last_reported":1690131921,"current_range_meters":11200,"station_id":"ce4bh012rcd13ifvqcv0","pricing_plan_id":"free"},{"bike_id":"9b94b402-576f-4f51-8cd3-11570723deb0","system_id":"levelo_inurba_marseille","lat":43.29529,"lon":5.385581,"is_reserved":false,"is_disabled":false,"rental_uris":{"android":"levelo://app?vid=9b94b402-576f-4f51-8cd3-11570723deb0","ios":"levelo://app?vid=9b94b402-576f-4f51-8cd3-11570723deb0"},"vehicle_type_id":"4","last_reported":1690131921,"current_range_meters":8400,"station_id":"ce4bgih2rcd13ifvqba0","pricing_plan_id":"free"},{"bike_id":"8b3ea427-60da-4b3c-bfe6-414bc619faa9","system_id":"levelo_inurba_marseille","lat":43.29529,"lon":5.385581,"is_reserved":false,"is_disabled":false,"rental_uris":{"android":"levelo://app?vid=8b3ea427-60da-4b3c-bfe6-414bc619faa9","ios":"levelo://app?vid=8b3ea427-60da-4b3c-bfe6-414bc619faa9"},"vehicle_type_id":"4","last_reported":1690131921,"current_range_meters":3200,"station_id":"ce4bgih2rcd13ifvqba0","pricing_plan_id":"free"},{"bike_id":"7af385c5-6a52-4f1f-a419-00e59238f4b0","system_id":"levelo_inurba_marseille","lat":43.290396,"lon":5.375628,"is_reserved":false,"is_disabled":false,"rental_uris":{"android":"levelo://app?vid=7af385c5-6a52-4f1f-a419-00e59238f4b0","ios":"levelo://app?vid=7af385c5-6a52-4f1f-a419-00e59238f4b0"},"vehicle_type_id":"4","last_reported":1690131921,"current_range_meters":6000,"station_id":"ce4bh692rcd13ifvqe90","pricing_plan_id":"free"},{"bike_id":"0592bdd9-5479-4e3d-bd8e-fdac12eba186","system_id":"levelo_inurba_marseille","lat":43.2942,"lon":5.3862,"is_reserved":false,"is_disabled":false,"rental_uris":{"android":"levelo://app?vid=0592bdd9-5479-4e3d-bd8e-fdac12eba186","ios":"levelo://app?vid=0592bdd9-5479-4e3d-bd8e-fdac12eba186"},"vehicle_type_id":"4","last_reported":1690131921,"current_range_meters":29600,"station_id":"ce4bh2h2rcd13ifvqdh0","pricing_plan_id":"free"},{"bike_id":"dbb5274d-e199-4d6a-b898-e80d5492568c","system_id":"levelo_inurba_marseille","lat":43.294192,"lon":5.386199,"is_reserved":false,"is_disabled":false,"rental_uris":{"android":"levelo://app?vid=dbb5274d-e199-4d6a-b898-e80d5492568c","ios":"levelo://app?vid=dbb5274d-e199-4d6a-b898-e80d5492568c"},"vehicle_type_id":"4","last_reported":1690131921,"current_range_meters":0,"station_id":"ce4bh2h2rcd13ifvqdh0","pricing_plan_id":"free"},{"bike_id":"643bff88-bfa6-4d8b-a67e-a074d21a9aad","system_id":"levelo_inurba_marseille","lat":43.294162,"lon":5.386292,"is_reserved":false,"is_disabled":false,"rental_uris":{"android":"levelo://app?vid=643bff88-bfa6-4d8b-a67e-a074d21a9aad","ios":"levelo://app?vid=643bff88-bfa6-4d8b-a67e-a074d21a9aad"},"vehicle_type_id":"4","last_reported":1690131921,"current_range_meters":15200,"station_id":"ce4bh2h2rcd13ifvqdh0","pricing_plan_id":"free"},{"bike_id":"c7b3044e-05fd-4000-a4bd-784d0632bf9c","system_id":"levelo_inurba_marseille","lat":43.294153,"lon":5.386305,"is_reserved":false,"is_disabled":false,"rental_uris":{"android":"levelo://app?vid=c7b3044e-05fd-4000-a4bd-784d0632bf9c","ios":"levelo://app?vid=c7b3044e-05fd-4000-a4bd-784d0632bf9c"},"vehicle_type_id":"4","last_reported":1690131921,"current_range_meters":9200,"station_id":"ce4bh2h2rcd13ifvqdh0","pricing_plan_id":"free"},{"bike_id":"be896e39-1235-4641-88c0-818bea501fb4","system_id":"levelo_inurba_marseille","lat":43.28942,"lon":5.36637,"is_reserved":false,"is_disabled":false,"rental_uris":{"android":"levelo://app?vid=be896e39-1235-4641-88c0-818bea501fb4","ios":"levelo://app?vid=be896e39-1235-4641-88c0-818bea501fb4"},"vehicle_type_id":"4","last_reported":1690131921,"current_range_meters":14400,"station_id":"ce4bhap2rcd13ifvqek0","pricing_plan_id":"free"},{"bike_id":"29e2e50d-aa62-4e3b-b9e9-58ccbabde00f","system_id":"levelo_inurba_marseille","lat":43.289184,"lon":5.366408,"is_reserved":false,"is_disabled":false,"rental_uris":{"android":"levelo://app?vid=29e2e50d-aa62-4e3b-b9e9-58ccbabde00f","ios":"levelo://app?vid=29e2e50d-aa62-4e3b-b9e9-58ccbabde00f"},"vehicle_type_id":"4","last_reported":1690131921,"current_range_meters":26800,"station_id":"ce4bhap2rcd13ifvqek0","pricing_plan_id":"free"},{"bike_id":"061ccb9d-650a-4e1e-bd79-1fdfd89dea25","system_id":"levelo_inurba_marseille","lat":43.289184,"lon":5.366408,"is_reserved":false,"is_disabled":false,"rental_uris":{"android":"levelo://app?vid=061ccb9d-650a-4e1e-bd79-1fdfd89dea25","ios":"levelo://app?vid=061ccb9d-650a-4e1e-bd79-1fdfd89dea25"},"vehicle_type_id":"4","last_reported":1690131921,"current_range_meters":0,"station_id":"ce4bhap2rcd13ifvqek0","pricing_plan_id":"free"},{"bike_id":"1061f2c4-cb20-4e33-be59-5b33faf8ecb3","system_id":"levelo_inurba_marseille","lat":43.28949,"lon":5.36362,"is_reserved":false,"is_disabled":false,"rental_uris":{"android":"levelo://app?vid=1061f2c4-cb20-4e33-be59-5b33faf8ecb3","ios":"levelo://app?vid=1061f2c4-cb20-4e33-be59-5b33faf8ecb3"},"vehicle_type_id":"4","last_reported":1690131921,"current_range_meters":21200,"station_id":"ce4bhc92rcd13ifvqetg","pricing_plan_id":"free"},{"bike_id":"dbf74ee7-6439-4bfa-8f85-d98ae57d27e5","system_id":"levelo_inurba_marseille","lat":43.289468,"lon":5.363719,"is_reserved":false,"is_disabled":false,"rental_uris":{"android":"levelo://app?vid=dbf74ee7-6439-4bfa-8f85-d98ae57d27e5","ios":"levelo://app?vid=dbf74ee7-6439-4bfa-8f85-d98ae57d27e5"},"vehicle_type_id":"4","last_reported":1690131921,"current_range_meters":12800,"station_id":"ce4bhc92rcd13ifvqetg","pricing_plan_id":"free"},{"bike_id":"e3e2121c-38f4-4805-84ac-bf42e1773c3b","system_id":"levelo_inurba_marseille","lat":43.28935,"lon":5.3664,"is_reserved":false,"is_disabled":false,"rental_uris":{"android":"levelo://app?vid=e3e2121c-38f4-4805-84ac-bf42e1773c3b","ios":"levelo://app?vid=e3e2121c-38f4-4805-84ac-bf42e1773c3b"},"vehicle_type_id":"4","last_reported":1690131921,"current_range_meters":2400,"station_id":"ce4bhap2rcd13ifvqek0","pricing_plan_id":"free"},{"bike_id":"105857b4-b1a7-4238-8f8d-2d04799da12a","system_id":"levelo_inurba_marseille","lat":43.289184,"lon":5.366408,"is_reserved":false,"is_disabled":false,"rental_uris":{"android":"levelo://app?vid=105857b4-b1a7-4238-8f8d-2d04799da12a","ios":"levelo://app?vid=105857b4-b1a7-4238-8f8d-2d04799da12a"},"vehicle_type_id":"4","last_reported":1690131921,"current_range_meters":19600,"station_id":"ce4bhap2rcd13ifvqek0","pricing_plan_id":"free"},{"bike_id":"dbff3c76-72b2-4ce0-bc65-252fe863042f","system_id":"levelo_inurba_marseille","lat":43.28942,"lon":5.36403,"is_reserved":false,"is_disabled":false,"rental_uris":{"android":"levelo://app?vid=dbff3c76-72b2-4ce0-bc65-252fe863042f","ios":"levelo://app?vid=dbff3c76-72b2-4ce0-bc65-252fe863042f"},"vehicle_type_id":"4","last_reported":1690131921,"current_range_meters":28400,"station_id":"ce4bhc92rcd13ifvqetg","pricing_plan_id":"free"},{"bike_id":"16e2144f-0a89-4244-b52b-4a154e9863ef","system_id":"levelo_inurba_marseille","lat":43.294153,"lon":5.386305,"is_reserved":false,"is_disabled":false,"rental_uris":{"android":"levelo://app?vid=16e2144f-0a89-4244-b52b-4a154e9863ef","ios":"levelo://app?vid=16e2144f-0a89-4244-b52b-4a154e9863ef"},"vehicle_type_id":"4","last_reported":1690131921,"current_range_meters":0,"station_id":"ce4bh2h2rcd13ifvqdh0","pricing_plan_id":"free"},{"bike_id":"ac1d323a-5cb5-47d0-ac3d-9b2f5c34347d","system_id":"levelo_inurba_marseille","lat":43.292644,"lon":5.384257,"is_reserved":false,"is_disabled":false,"rental_uris":{"android":"levelo://app?vid=ac1d323a-5cb5-47d0-ac3d-9b2f5c34347d","ios":"levelo://app?vid=ac1d323a-5cb5-47d0-ac3d-9b2f5c34347d"},"vehicle_type_id":"4","last_reported":1690131921,"current_range_meters":25600,"station_id":"ce4bh692rcd13ifvqea0","pricing_plan_id":"free"},{"bike_id":"42f9367e-1ab7-4605-98eb-79343ea7d4d8","system_id":"levelo_inurba_marseille","lat":43.29271,"lon":5.38439,"is_reserved":false,"is_disabled":false,"rental_uris":{"android":"levelo://app?vid=42f9367e-1ab7-4605-98eb-79343ea7d4d8","ios":"levelo://app?vid=42f9367e-1ab7-4605-98eb-79343ea7d4d8"},"vehicle_type_id":"4","last_reported":1690131921,"current_range_meters":4400,"station_id":"ce4bh692rcd13ifvqea0","pricing_plan_id":"free"},{"bike_id":"ec91807a-e0ab-4da3-bbd3-98e78aa53710","system_id":"levelo_inurba_marseille","lat":43.29268,"lon":5.38433,"is_reserved":false,"is_disabled":false,"rental_uris":{"android":"levelo://app?vid=ec91807a-e0ab-4da3-bbd3-98e78aa53710","ios":"levelo://app?vid=ec91807a-e0ab-4da3-bbd3-98e78aa53710"},"vehicle_type_id":"4","last_reported":1690131921,"current_range_meters":16000,"station_id":"ce4bh692rcd13ifvqea0","pricing_plan_id":"free"},{"bike_id":"7b732603-e694-4f02-bdaa-3116951373eb","system_id":"levelo_inurba_marseille","lat":43.292644,"lon":5.384257,"is_reserved":false,"is_disabled":false,"rental_uris":{"android":"levelo://app?vid=7b732603-e694-4f02-bdaa-3116951373eb","ios":"levelo://app?vid=7b732603-e694-4f02-bdaa-3116951373eb"},"vehicle_type_id":"4","last_reported":1690131921,"current_range_meters":20800,"station_id":"ce4bh692rcd13ifvqea0","pricing_plan_id":"free"},{"bike_id":"d2d8a502-61cc-4ce3-ad7f-7e1e91d5f552","system_id":"levelo_inurba_marseille","lat":43.2927,"lon":5.38441,"is_reserved":false,"is_disabled":false,"rental_uris":{"android":"levelo://app?vid=d2d8a502-61cc-4ce3-ad7f-7e1e91d5f552","ios":"levelo://app?vid=d2d8a502-61cc-4ce3-ad7f-7e1e91d5f552"},"vehicle_type_id":"4","last_reported":1690131921,"current_range_meters":6000,"station_id":"ce4bh692rcd13ifvqea0","pricing_plan_id":"free"},{"bike_id":"5bf6bdd0-5bd2-44f9-877a-d86a7214f35d","system_id":"levelo_inurba_marseille","lat":43.292644,"lon":5.384257,"is_reserved":false,"is_disabled":false,"rental_uris":{"android":"levelo://app?vid=5bf6bdd0-5bd2-44f9-877a-d86a7214f35d","ios":"levelo://app?vid=5bf6bdd0-5bd2-44f9-877a-d86a7214f35d"},"vehicle_type_id":"4","last_reported":1690131921,"current_range_meters":12400,"station_id":"ce4bh692rcd13ifvqea0","pricing_plan_id":"free"},{"bike_id":"ca234256-6038-4948-8acf-e74a991f3082","system_id":"levelo_inurba_marseille","lat":43.292725,"lon":5.384504,"is_reserved":false,"is_disabled":false,"rental_uris":{"android":"levelo://app?vid=ca234256-6038-4948-8acf-e74a991f3082","ios":"levelo://app?vid=ca234256-6038-4948-8acf-e74a991f3082"},"vehicle_type_id":"4","last_reported":1690131921,"current_range_meters":6000,"station_id":"ce4bh692rcd13ifvqea0","pricing_plan_id":"free"},{"bike_id":"1f4744f3-2024-4dd4-acab-3cd75c811ac0","system_id":"levelo_inurba_marseille","lat":43.292719,"lon":5.384501,"is_reserved":false,"is_disabled":false,"rental_uris":{"android":"levelo://app?vid=1f4744f3-2024-4dd4-acab-3cd75c811ac0","ios":"levelo://app?vid=1f4744f3-2024-4dd4-acab-3cd75c811ac0"},"vehicle_type_id":"4","last_reported":1690131921,"current_range_meters":12400,"station_id":"ce4bh692rcd13ifvqea0","pricing_plan_id":"free"},{"bike_id":"cb0e9881-e0c0-4225-bc0a-8185accc6b8b","system_id":"levelo_inurba_marseille","lat":43.292642,"lon":5.384254,"is_reserved":false,"is_disabled":false,"rental_uris":{"android":"levelo://app?vid=cb0e9881-e0c0-4225-bc0a-8185accc6b8b","ios":"levelo://app?vid=cb0e9881-e0c0-4225-bc0a-8185accc6b8b"},"vehicle_type_id":"4","last_reported":1690131921,"current_range_meters":21200,"station_id":"ce4bh692rcd13ifvqea0","pricing_plan_id":"free"},{"bike_id":"c5218996-ce60-412d-8667-8bca1955c616","system_id":"levelo_inurba_marseille","lat":43.30423,"lon":5.39747,"is_reserved":false,"is_disabled":false,"rental_uris":{"android":"levelo://app?vid=c5218996-ce60-412d-8667-8bca1955c616","ios":"levelo://app?vid=c5218996-ce60-412d-8667-8bca1955c616"},"vehicle_type_id":"4","last_reported":1690131921,"current_range_meters":18000,"station_id":"ce4bh092rcd13ifvqd20","pricing_plan_id":"free"},{"bike_id":"9151ab88-c2a6-4111-b6c6-6b1be74cb10e","system_id":"levelo_inurba_marseille","lat":43.292644,"lon":5.384257,"is_reserved":false,"is_disabled":false,"rental_uris":{"android":"levelo://app?vid=9151ab88-c2a6-4111-b6c6-6b1be74cb10e","ios":"levelo://app?vid=9151ab88-c2a6-4111-b6c6-6b1be74cb10e"},"vehicle_type_id":"4","last_reported":1690131921,"current_range_meters":27200,"station_id":"ce4bh692rcd13ifvqea0","pricing_plan_id":"free"},{"bike_id":"1d38e6f1-732b-4ffe-8ef6-42eb07346d42","system_id":"levelo_inurba_marseille","lat":43.292642,"lon":5.384254,"is_reserved":false,"is_disabled":false,"rental_uris":{"android":"levelo://app?vid=1d38e6f1-732b-4ffe-8ef6-42eb07346d42","ios":"levelo://app?vid=1d38e6f1-732b-4ffe-8ef6-42eb07346d42"},"vehicle_type_id":"4","last_reported":1690131921,"current_range_meters":24000,"station_id":"ce4bh692rcd13ifvqea0","pricing_plan_id":"free"},{"bike_id":"b03a0114-1ea0-4fdd-b1d7-9d07cfcb4dcd","system_id":"levelo_inurba_marseille","lat":43.292642,"lon":5.384254,"is_reserved":false,"is_disabled":false,"rental_uris":{"android":"levelo://app?vid=b03a0114-1ea0-4fdd-b1d7-9d07cfcb4dcd","ios":"levelo://app?vid=b03a0114-1ea0-4fdd-b1d7-9d07cfcb4dcd"},"vehicle_type_id":"4","last_reported":1690131921,"current_range_meters":16400,"station_id":"ce4bh692rcd13ifvqea0","pricing_plan_id":"free"},{"bike_id":"55197894-269b-431d-84ba-b0ef52b25016","system_id":"levelo_inurba_marseille","lat":43.304198,"lon":5.397513,"is_reserved":false,"is_disabled":false,"rental_uris":{"android":"levelo://app?vid=55197894-269b-431d-84ba-b0ef52b25016","ios":"levelo://app?vid=55197894-269b-431d-84ba-b0ef52b25016"},"vehicle_type_id":"4","last_reported":1690131921,"current_range_meters":4000,"station_id":"","pricing_plan_id":"free"},{"bike_id":"6ffd9f21-770f-4a66-a90f-c6b7d139146d","system_id":"levelo_inurba_marseille","lat":43.290103,"lon":5.356114,"is_reserved":false,"is_disabled":false,"rental_uris":{"android":"levelo://app?vid=6ffd9f21-770f-4a66-a90f-c6b7d139146d","ios":"levelo://app?vid=6ffd9f21-770f-4a66-a90f-c6b7d139146d"},"vehicle_type_id":"4","last_reported":1690131921,"current_range_meters":18000,"station_id":"ce4bhb92rcd13ifvqen0","pricing_plan_id":"free"},{"bike_id":"6cf33c74-75d0-4432-87b5-f7166b56a257","system_id":"levelo_inurba_marseille","lat":43.33042,"lon":5.38916,"is_reserved":false,"is_disabled":false,"rental_uris":{"android":"levelo://app?vid=6cf33c74-75d0-4432-87b5-f7166b56a257","ios":"levelo://app?vid=6cf33c74-75d0-4432-87b5-f7166b56a257"},"vehicle_type_id":"4","last_reported":1690131921,"current_range_meters":27200,"station_id":"ce4bhr92rcd13ifvqhrg","pricing_plan_id":"free"},{"bike_id":"eaa62204-01f1-40ab-8115-13c978e20378","system_id":"levelo_inurba_marseille","lat":43.290103,"lon":5.356114,"is_reserved":false,"is_disabled":false,"rental_uris":{"android":"levelo://app?vid=eaa62204-01f1-40ab-8115-13c978e20378","ios":"levelo://app?vid=eaa62204-01f1-40ab-8115-13c978e20378"},"vehicle_type_id":"4","last_reported":1690131921,"current_range_meters":0,"station_id":"ce4bhb92rcd13ifvqen0","pricing_plan_id":"free"},{"bike_id":"9ad32861-5076-4df9-b94a-9c57b0cea395","system_id":"levelo_inurba_marseille","lat":43.29009,"lon":5.35614,"is_reserved":false,"is_disabled":false,"rental_uris":{"android":"levelo://app?vid=9ad32861-5076-4df9-b94a-9c57b0cea395","ios":"levelo://app?vid=9ad32861-5076-4df9-b94a-9c57b0cea395"},"vehicle_type_id":"4","last_reported":1690131921,"current_range_meters":14800,"station_id":"ce4bhb92rcd13ifvqen0","pricing_plan_id":"free"},{"bike_id":"8c9c7308-e1d9-45e2-8b3a-176fe3bb52a0","system_id":"levelo_inurba_marseille","lat":43.290103,"lon":5.356114,"is_reserved":false,"is_disabled":false,"rental_uris":{"android":"levelo://app?vid=8c9c7308-e1d9-45e2-8b3a-176fe3bb52a0","ios":"levelo://app?vid=8c9c7308-e1d9-45e2-8b3a-176fe3bb52a0"},"vehicle_type_id":"4","last_reported":1690131921,"current_range_meters":12400,"station_id":"ce4bhb92rcd13ifvqen0","pricing_plan_id":"free"},{"bike_id":"678ff8f7-4f62-43c5-b608-f5f7bfc08461","system_id":"levelo_inurba_marseille","lat":43.29006,"lon":5.35613,"is_reserved":false,"is_disabled":false,"rental_uris":{"android":"levelo://app?vid=678ff8f7-4f62-43c5-b608-f5f7bfc08461","ios":"levelo://app?vid=678ff8f7-4f62-43c5-b608-f5f7bfc08461"},"vehicle_type_id":"4","last_reported":1690131921,"current_range_meters":0,"station_id":"ce4bhb92rcd13ifvqen0","pricing_plan_id":"free"},{"bike_id":"5ed667e0-c0e0-4779-b4ba-ddae1260b548","system_id":"levelo_inurba_marseille","lat":43.290995,"lon":5.381361,"is_reserved":false,"is_disabled":false,"rental_uris":{"android":"levelo://app?vid=5ed667e0-c0e0-4779-b4ba-ddae1260b548","ios":"levelo://app?vid=5ed667e0-c0e0-4779-b4ba-ddae1260b548"},"vehicle_type_id":"4","last_reported":1690131921,"current_range_meters":28400,"station_id":"ce4bh512rcd13ifvqe2g","pricing_plan_id":"free"},{"bike_id":"73b0cc66-5f9c-4725-9af2-d17fc75e6b41","system_id":"levelo_inurba_marseille","lat":43.297923,"lon":5.393425,"is_reserved":false,"is_disabled":false,"rental_uris":{"android":"levelo://app?vid=73b0cc66-5f9c-4725-9af2-d17fc75e6b41","ios":"levelo://app?vid=73b0cc66-5f9c-4725-9af2-d17fc75e6b41"},"vehicle_type_id":"4","last_reported":1690131921,"current_range_meters":6400,"station_id":"chh1huq6cuj3fo74tm60","pricing_plan_id":"free"},{"bike_id":"22a88602-6661-4687-bc05-102231cfb59a","system_id":"levelo_inurba_marseille","lat":43.289741,"lon":5.378306,"is_reserved":false,"is_disabled":false,"rental_uris":{"android":"levelo://app?vid=22a88602-6661-4687-bc05-102231cfb59a","ios":"levelo://app?vid=22a88602-6661-4687-bc05-102231cfb59a"},"vehicle_type_id":"4","last_reported":1690131921,"current_range_meters":27200,"station_id":"ce4bh9p2rcd13ifvqed0","pricing_plan_id":"free"},{"bike_id":"5a997457-ccdc-4561-b722-9c489cc1a619","system_id":"levelo_inurba_marseille","lat":43.28861,"lon":5.35865,"is_reserved":false,"is_disabled":false,"rental_uris":{"android":"levelo://app?vid=5a997457-ccdc-4561-b722-9c489cc1a619","ios":"levelo://app?vid=5a997457-ccdc-4561-b722-9c489cc1a619"},"vehicle_type_id":"4","last_reported":1690131921,"current_range_meters":15200,"station_id":"ce4bhb12rcd13ifvqem0","pricing_plan_id":"free"},{"bike_id":"5332792a-fbf1-4717-a53d-a4c6709ce167","system_id":"levelo_inurba_marseille","lat":43.309371,"lon":5.401449,"is_reserved":false,"is_disabled":false,"rental_uris":{"android":"levelo://app?vid=5332792a-fbf1-4717-a53d-a4c6709ce167","ios":"levelo://app?vid=5332792a-fbf1-4717-a53d-a4c6709ce167"},"vehicle_type_id":"4","last_reported":1690131921,"current_range_meters":14000,"station_id":"ce4bgvp2rcd13ifvqct0","pricing_plan_id":"free"},{"bike_id":"a44e50ba-20e9-433a-a0df-9459cba32955","system_id":"levelo_inurba_marseille","lat":43.28754,"lon":5.36241,"is_reserved":false,"is_disabled":false,"rental_uris":{"android":"levelo://app?vid=a44e50ba-20e9-433a-a0df-9459cba32955","ios":"levelo://app?vid=a44e50ba-20e9-433a-a0df-9459cba32955"},"vehicle_type_id":"4","last_reported":1690131921,"current_range_meters":23200,"station_id":"","pricing_plan_id":"free"},{"bike_id":"bd66e17b-f432-4384-8c39-0e7f663dbfd6","system_id":"levelo_inurba_marseille","lat":43.33774,"lon":5.37425,"is_reserved":false,"is_disabled":false,"rental_uris":{"android":"levelo://app?vid=bd66e17b-f432-4384-8c39-0e7f663dbfd6","ios":"levelo://app?vid=bd66e17b-f432-4384-8c39-0e7f663dbfd6"},"vehicle_type_id":"4","last_reported":1690131921,"current_range_meters":27200,"station_id":"","pricing_plan_id":"free"},{"bike_id":"4fec375a-af2a-423c-b3f5-7af6e7dbaa0d","system_id":"levelo_inurba_marseille","lat":43.295383,"lon":5.392834,"is_reserved":false,"is_disabled":false,"rental_uris":{"android":"levelo://app?vid=4fec375a-af2a-423c-b3f5-7af6e7dbaa0d","ios":"levelo://app?vid=4fec375a-af2a-423c-b3f5-7af6e7dbaa0d"},"vehicle_type_id":"4","last_reported":1690131921,"current_range_meters":10800,"station_id":"ce4bh3p2rcd13ifvqdp0","pricing_plan_id":"free"},{"bike_id":"2a338951-f934-4b15-927a-e839b2d1bdea","system_id":"levelo_inurba_marseille","lat":43.301117,"lon":5.398795,"is_reserved":false,"is_disabled":false,"rental_uris":{"android":"levelo://app?vid=2a338951-f934-4b15-927a-e839b2d1bdea","ios":"levelo://app?vid=2a338951-f934-4b15-927a-e839b2d1bdea"},"vehicle_type_id":"4","last_reported":1690131921,"current_range_meters":6800,"station_id":"ce4bh0h2rcd13ifvqd40","pricing_plan_id":"free"},{"bike_id":"cd447821-1904-43d4-9e95-9fe834d92323","system_id":"levelo_inurba_marseille","lat":43.28667,"lon":5.36355,"is_reserved":false,"is_disabled":false,"rental_uris":{"android":"levelo://app?vid=cd447821-1904-43d4-9e95-9fe834d92323","ios":"levelo://app?vid=cd447821-1904-43d4-9e95-9fe834d92323"},"vehicle_type_id":"4","last_reported":1690131921,"current_range_meters":24400,"station_id":"ce4bhah2rcd13ifvqej0","pricing_plan_id":"free"},{"bike_id":"87c0e329-79ce-444d-a531-0796840d817b","system_id":"levelo_inurba_marseille","lat":43.28695,"lon":5.37388,"is_reserved":false,"is_disabled":false,"rental_uris":{"android":"levelo://app?vid=87c0e329-79ce-444d-a531-0796840d817b","ios":"levelo://app?vid=87c0e329-79ce-444d-a531-0796840d817b"},"vehicle_type_id":"4","last_reported":1690131921,"current_range_meters":21600,"station_id":"ce4bh3p2rcd13ifvqdq0","pricing_plan_id":"free"},{"bike_id":"794dcee4-a576-482c-a795-fcaeeeb100d8","system_id":"levelo_inurba_marseille","lat":43.295194,"lon":5.39397,"is_reserved":false,"is_disabled":false,"rental_uris":{"android":"levelo://app?vid=794dcee4-a576-482c-a795-fcaeeeb100d8","ios":"levelo://app?vid=794dcee4-a576-482c-a795-fcaeeeb100d8"},"vehicle_type_id":"4","last_reported":1690131921,"current_range_meters":4400,"station_id":"ce4bh292rcd13ifvqdf0","pricing_plan_id":"free"},{"bike_id":"54de8109-7aa9-45c3-968e-2bf6dbccf25c","system_id":"levelo_inurba_marseille","lat":43.29519,"lon":5.39405,"is_reserved":false,"is_disabled":false,"rental_uris":{"android":"levelo://app?vid=54de8109-7aa9-45c3-968e-2bf6dbccf25c","ios":"levelo://app?vid=54de8109-7aa9-45c3-968e-2bf6dbccf25c"},"vehicle_type_id":"4","last_reported":1690131921,"current_range_meters":12400,"station_id":"ce4bh292rcd13ifvqdf0","pricing_plan_id":"free"},{"bike_id":"7c2df707-c176-40d4-859d-8359321d8b0d","system_id":"levelo_inurba_marseille","lat":43.295194,"lon":5.39397,"is_reserved":false,"is_disabled":false,"rental_uris":{"android":"levelo://app?vid=7c2df707-c176-40d4-859d-8359321d8b0d","ios":"levelo://app?vid=7c2df707-c176-40d4-859d-8359321d8b0d"},"vehicle_type_id":"4","last_reported":1690131921,"current_range_meters":10000,"station_id":"ce4bh292rcd13ifvqdf0","pricing_plan_id":"free"},{"bike_id":"10b2e244-de43-4e09-b2dc-154fa8325ab3","system_id":"levelo_inurba_marseille","lat":43.30253,"lon":5.40049,"is_reserved":false,"is_disabled":false,"rental_uris":{"android":"levelo://app?vid=10b2e244-de43-4e09-b2dc-154fa8325ab3","ios":"levelo://app?vid=10b2e244-de43-4e09-b2dc-154fa8325ab3"},"vehicle_type_id":"4","last_reported":1690131921,"current_range_meters":11600,"station_id":"ce4bgvh2rcd13ifvqcs0","pricing_plan_id":"free"},{"bike_id":"f7b64da0-c2be-4b34-87b2-5aadc359e970","system_id":"levelo_inurba_marseille","lat":43.290345,"lon":5.38646,"is_reserved":false,"is_disabled":false,"rental_uris":{"android":"levelo://app?vid=f7b64da0-c2be-4b34-87b2-5aadc359e970","ios":"levelo://app?vid=f7b64da0-c2be-4b34-87b2-5aadc359e970"},"vehicle_type_id":"4","last_reported":1690131921,"current_range_meters":30400,"station_id":"ce4bh4p2rcd13ifvqe0g","pricing_plan_id":"free"},{"bike_id":"1d6434e8-363d-487d-946f-eb581647c97c","system_id":"levelo_inurba_marseille","lat":43.290336,"lon":5.386425,"is_reserved":false,"is_disabled":false,"rental_uris":{"android":"levelo://app?vid=1d6434e8-363d-487d-946f-eb581647c97c","ios":"levelo://app?vid=1d6434e8-363d-487d-946f-eb581647c97c"},"vehicle_type_id":"4","last_reported":1690131921,"current_range_meters":10000,"station_id":"ce4bh4p2rcd13ifvqe0g","pricing_plan_id":"free"},{"bike_id":"80e833f5-a9bc-462c-ada8-40d990b7cc40","system_id":"levelo_inurba_marseille","lat":43.29026,"lon":5.38645,"is_reserved":false,"is_disabled":false,"rental_uris":{"android":"levelo://app?vid=80e833f5-a9bc-462c-ada8-40d990b7cc40","ios":"levelo://app?vid=80e833f5-a9bc-462c-ada8-40d990b7cc40"},"vehicle_type_id":"4","last_reported":1690131921,"current_range_meters":29600,"station_id":"ce4bh4p2rcd13ifvqe0g","pricing_plan_id":"free"},{"bike_id":"3f9bf9ad-9eef-429b-937e-856a9a89575e","system_id":"levelo_inurba_marseille","lat":43.3026,"lon":5.40089,"is_reserved":false,"is_disabled":false,"rental_uris":{"android":"levelo://app?vid=3f9bf9ad-9eef-429b-937e-856a9a89575e","ios":"levelo://app?vid=3f9bf9ad-9eef-429b-937e-856a9a89575e"},"vehicle_type_id":"4","last_reported":1690131921,"current_range_meters":9200,"station_id":"ce4bgvh2rcd13ifvqcs0","pricing_plan_id":"free"},{"bike_id":"b9a7a2e6-ba04-4080-b496-d71f8c19dae7","system_id":"levelo_inurba_marseille","lat":43.286039,"lon":5.370681,"is_reserved":false,"is_disabled":false,"rental_uris":{"android":"levelo://app?vid=b9a7a2e6-ba04-4080-b496-d71f8c19dae7","ios":"levelo://app?vid=b9a7a2e6-ba04-4080-b496-d71f8c19dae7"},"vehicle_type_id":"4","last_reported":1690131921,"current_range_meters":20000,"station_id":"ce4bht12rcd13ifvqi60","pricing_plan_id":"free"},{"bike_id":"591f0baa-e76b-4c53-8942-b4555a87e491","system_id":"levelo_inurba_marseille","lat":43.286039,"lon":5.370681,"is_reserved":false,"is_disabled":false,"rental_uris":{"android":"levelo://app?vid=591f0baa-e76b-4c53-8942-b4555a87e491","ios":"levelo://app?vid=591f0baa-e76b-4c53-8942-b4555a87e491"},"vehicle_type_id":"4","last_reported":1690131921,"current_range_meters":17200,"station_id":"ce4bht12rcd13ifvqi60","pricing_plan_id":"free"},{"bike_id":"b1d8c94e-5cbb-461c-9708-6b9a2557e2d4","system_id":"levelo_inurba_marseille","lat":43.286039,"lon":5.370681,"is_reserved":false,"is_disabled":false,"rental_uris":{"android":"levelo://app?vid=b1d8c94e-5cbb-461c-9708-6b9a2557e2d4","ios":"levelo://app?vid=b1d8c94e-5cbb-461c-9708-6b9a2557e2d4"},"vehicle_type_id":"4","last_reported":1690131921,"current_range_meters":11200,"station_id":"ce4bht12rcd13ifvqi60","pricing_plan_id":"free"},{"bike_id":"faeccc9b-6820-4ff8-8511-87dbbe9837cf","system_id":"levelo_inurba_marseille","lat":43.287184,"lon":5.37937,"is_reserved":false,"is_disabled":false,"rental_uris":{"android":"levelo://app?vid=faeccc9b-6820-4ff8-8511-87dbbe9837cf","ios":"levelo://app?vid=faeccc9b-6820-4ff8-8511-87dbbe9837cf"},"vehicle_type_id":"4","last_reported":1690131921,"current_range_meters":30000,"station_id":"ce4bh9p2rcd13ifvqec0","pricing_plan_id":"free"},{"bike_id":"f446be90-9ce1-4cf7-ab97-7e61d1da1b64","system_id":"levelo_inurba_marseille","lat":43.287185,"lon":5.379373,"is_reserved":false,"is_disabled":false,"rental_uris":{"android":"levelo://app?vid=f446be90-9ce1-4cf7-ab97-7e61d1da1b64","ios":"levelo://app?vid=f446be90-9ce1-4cf7-ab97-7e61d1da1b64"},"vehicle_type_id":"4","last_reported":1690131921,"current_range_meters":16400,"station_id":"ce4bh9p2rcd13ifvqec0","pricing_plan_id":"free"},{"bike_id":"3f9ff790-314e-48d4-97e6-08ebf07c27f0","system_id":"levelo_inurba_marseille","lat":43.31625,"lon":5.40608,"is_reserved":false,"is_disabled":false,"rental_uris":{"android":"levelo://app?vid=3f9ff790-314e-48d4-97e6-08ebf07c27f0","ios":"levelo://app?vid=3f9ff790-314e-48d4-97e6-08ebf07c27f0"},"vehicle_type_id":"4","last_reported":1690131921,"current_range_meters":26000,"station_id":"","pricing_plan_id":"free"},{"bike_id":"8dfc5aad-d8aa-4578-b5fd-0fe16d8e14e8","system_id":"levelo_inurba_marseille","lat":43.28463,"lon":5.35894,"is_reserved":false,"is_disabled":false,"rental_uris":{"android":"levelo://app?vid=8dfc5aad-d8aa-4578-b5fd-0fe16d8e14e8","ios":"levelo://app?vid=8dfc5aad-d8aa-4578-b5fd-0fe16d8e14e8"},"vehicle_type_id":"4","last_reported":1690131921,"current_range_meters":31600,"station_id":"ce4bhah2rcd13ifvqei0","pricing_plan_id":"free"},{"bike_id":"a857ce48-5ae4-4d77-9ac7-33bed0c63c33","system_id":"levelo_inurba_marseille","lat":43.28462,"lon":5.35893,"is_reserved":false,"is_disabled":false,"rental_uris":{"android":"levelo://app?vid=a857ce48-5ae4-4d77-9ac7-33bed0c63c33","ios":"levelo://app?vid=a857ce48-5ae4-4d77-9ac7-33bed0c63c33"},"vehicle_type_id":"4","last_reported":1690131921,"current_range_meters":7200,"station_id":"ce4bhah2rcd13ifvqei0","pricing_plan_id":"free"},{"bike_id":"1b288b7f-0a37-4bbc-802a-181e1680ecbc","system_id":"levelo_inurba_marseille","lat":43.29435,"lon":5.39751,"is_reserved":false,"is_disabled":false,"rental_uris":{"android":"levelo://app?vid=1b288b7f-0a37-4bbc-802a-181e1680ecbc","ios":"levelo://app?vid=1b288b7f-0a37-4bbc-802a-181e1680ecbc"},"vehicle_type_id":"4","last_reported":1690131921,"current_range_meters":20800,"station_id":"ce4bh3h2rcd13ifvqdo0","pricing_plan_id":"free"},{"bike_id":"564bd46c-4dc9-4e64-bd46-bb48e2526ce0","system_id":"levelo_inurba_marseille","lat":43.294314,"lon":5.397498,"is_reserved":false,"is_disabled":false,"rental_uris":{"android":"levelo://app?vid=564bd46c-4dc9-4e64-bd46-bb48e2526ce0","ios":"levelo://app?vid=564bd46c-4dc9-4e64-bd46-bb48e2526ce0"},"vehicle_type_id":"4","last_reported":1690131921,"current_range_meters":26800,"station_id":"ce4bh3h2rcd13ifvqdo0","pricing_plan_id":"free"},{"bike_id":"7d8f146d-2061-4566-b125-abdfa8ee06dd","system_id":"levelo_inurba_marseille","lat":43.28616,"lon":5.35102,"is_reserved":false,"is_disabled":false,"rental_uris":{"android":"levelo://app?vid=7d8f146d-2061-4566-b125-abdfa8ee06dd","ios":"levelo://app?vid=7d8f146d-2061-4566-b125-abdfa8ee06dd"},"vehicle_type_id":"4","last_reported":1690131921,"current_range_meters":10400,"station_id":"ce4bhch2rcd13ifvqeug","pricing_plan_id":"free"},{"bike_id":"e52fe765-498e-42de-904d-dc0cd4ce179a","system_id":"levelo_inurba_marseille","lat":43.283998,"lon":5.375062,"is_reserved":false,"is_disabled":false,"rental_uris":{"android":"levelo://app?vid=e52fe765-498e-42de-904d-dc0cd4ce179a","ios":"levelo://app?vid=e52fe765-498e-42de-904d-dc0cd4ce179a"},"vehicle_type_id":"4","last_reported":1690131921,"current_range_meters":26000,"station_id":"ce4bh412rcd13ifvqds0","pricing_plan_id":"free"},{"bike_id":"d0539f5d-e607-47d3-838c-fd4f836cf93d","system_id":"levelo_inurba_marseille","lat":43.295713,"lon":5.399639,"is_reserved":false,"is_disabled":false,"rental_uris":{"android":"levelo://app?vid=d0539f5d-e607-47d3-838c-fd4f836cf93d","ios":"levelo://app?vid=d0539f5d-e607-47d3-838c-fd4f836cf93d"},"vehicle_type_id":"4","last_reported":1690131921,"current_range_meters":3600,"station_id":"ce4bh312rcd13ifvqdj0","pricing_plan_id":"free"},{"bike_id":"9ede9cee-6dce-4918-8f1b-68610f35042f","system_id":"levelo_inurba_marseille","lat":43.286595,"lon":5.386795,"is_reserved":false,"is_disabled":false,"rental_uris":{"android":"levelo://app?vid=9ede9cee-6dce-4918-8f1b-68610f35042f","ios":"levelo://app?vid=9ede9cee-6dce-4918-8f1b-68610f35042f"},"vehicle_type_id":"4","last_reported":1690131921,"current_range_meters":20800,"station_id":"ce4bh492rcd13ifvqdug","pricing_plan_id":"free"},{"bike_id":"0316ca44-13f8-44a9-9d92-f7ebd0ede98d","system_id":"levelo_inurba_marseille","lat":43.319179,"lon":5.407725,"is_reserved":false,"is_disabled":false,"rental_uris":{"android":"levelo://app?vid=0316ca44-13f8-44a9-9d92-f7ebd0ede98d","ios":"levelo://app?vid=0316ca44-13f8-44a9-9d92-f7ebd0ede98d"},"vehicle_type_id":"4","last_reported":1690131921,"current_range_meters":4000,"station_id":"ce4bhq12rcd13ifvqhig","pricing_plan_id":"free"},{"bike_id":"ec5ebb72-31b8-4586-a556-cb147094de52","system_id":"levelo_inurba_marseille","lat":43.33725,"lon":5.39174,"is_reserved":false,"is_disabled":false,"rental_uris":{"android":"levelo://app?vid=ec5ebb72-31b8-4586-a556-cb147094de52","ios":"levelo://app?vid=ec5ebb72-31b8-4586-a556-cb147094de52"},"vehicle_type_id":"4","last_reported":1690131921,"current_range_meters":20400,"station_id":"ce4bhr92rcd13ifvqhsg","pricing_plan_id":"free"},{"bike_id":"c9061477-688e-4985-8482-5d95746c99b4","system_id":"levelo_inurba_marseille","lat":43.33721,"lon":5.39182,"is_reserved":false,"is_disabled":false,"rental_uris":{"android":"levelo://app?vid=c9061477-688e-4985-8482-5d95746c99b4","ios":"levelo://app?vid=c9061477-688e-4985-8482-5d95746c99b4"},"vehicle_type_id":"4","last_reported":1690131921,"current_range_meters":21600,"station_id":"ce4bhr92rcd13ifvqhsg","pricing_plan_id":"free"},{"bike_id":"31982114-9003-4fcd-8719-b9a9d81bb46f","system_id":"levelo_inurba_marseille","lat":43.337168,"lon":5.391825,"is_reserved":false,"is_disabled":false,"rental_uris":{"android":"levelo://app?vid=31982114-9003-4fcd-8719-b9a9d81bb46f","ios":"levelo://app?vid=31982114-9003-4fcd-8719-b9a9d81bb46f"},"vehicle_type_id":"4","last_reported":1690131921,"current_range_meters":30400,"station_id":"ce4bhr92rcd13ifvqhsg","pricing_plan_id":"free"},{"bike_id":"3f8a9c4e-9406-48b9-919a-fab891aa54b8","system_id":"levelo_inurba_marseille","lat":43.33729,"lon":5.39178,"is_reserved":false,"is_disabled":false,"rental_uris":{"android":"levelo://app?vid=3f8a9c4e-9406-48b9-919a-fab891aa54b8","ios":"levelo://app?vid=3f8a9c4e-9406-48b9-919a-fab891aa54b8"},"vehicle_type_id":"4","last_reported":1690131921,"current_range_meters":30800,"station_id":"ce4bhr92rcd13ifvqhsg","pricing_plan_id":"free"},{"bike_id":"4e1b1388-df66-4180-9580-88d3cf4d2a87","system_id":"levelo_inurba_marseille","lat":43.337168,"lon":5.391825,"is_reserved":false,"is_disabled":false,"rental_uris":{"android":"levelo://app?vid=4e1b1388-df66-4180-9580-88d3cf4d2a87","ios":"levelo://app?vid=4e1b1388-df66-4180-9580-88d3cf4d2a87"},"vehicle_type_id":"4","last_reported":1690131921,"current_range_meters":17200,"station_id":"ce4bhr92rcd13ifvqhsg","pricing_plan_id":"free"},{"bike_id":"d3773a31-66c0-4b46-b6e0-7f775cabef9a","system_id":"levelo_inurba_marseille","lat":43.33733,"lon":5.39184,"is_reserved":false,"is_disabled":false,"rental_uris":{"android":"levelo://app?vid=d3773a31-66c0-4b46-b6e0-7f775cabef9a","ios":"levelo://app?vid=d3773a31-66c0-4b46-b6e0-7f775cabef9a"},"vehicle_type_id":"4","last_reported":1690131921,"current_range_meters":31200,"station_id":"ce4bhr92rcd13ifvqhsg","pricing_plan_id":"free"},{"bike_id":"7e009174-75da-47e5-b6fa-554857bea855","system_id":"levelo_inurba_marseille","lat":43.33738,"lon":5.3919,"is_reserved":false,"is_disabled":false,"rental_uris":{"android":"levelo://app?vid=7e009174-75da-47e5-b6fa-554857bea855","ios":"levelo://app?vid=7e009174-75da-47e5-b6fa-554857bea855"},"vehicle_type_id":"4","last_reported":1690131921,"current_range_meters":17600,"station_id":"ce4bhr92rcd13ifvqhsg","pricing_plan_id":"free"},{"bike_id":"3184d728-8ea4-4aa8-8507-33e29eadc2e0","system_id":"levelo_inurba_marseille","lat":43.284811,"lon":5.38417,"is_reserved":false,"is_disabled":false,"rental_uris":{"android":"levelo://app?vid=3184d728-8ea4-4aa8-8507-33e29eadc2e0","ios":"levelo://app?vid=3184d728-8ea4-4aa8-8507-33e29eadc2e0"},"vehicle_type_id":"4","last_reported":1690131921,"current_range_meters":0,"station_id":"ce4bh512rcd13ifvqe3g","pricing_plan_id":"free"},{"bike_id":"7aceb125-e754-40d4-bbbc-d84117cdecbf","system_id":"levelo_inurba_marseille","lat":43.284783,"lon":5.384206,"is_reserved":false,"is_disabled":false,"rental_uris":{"android":"levelo://app?vid=7aceb125-e754-40d4-bbbc-d84117cdecbf","ios":"levelo://app?vid=7aceb125-e754-40d4-bbbc-d84117cdecbf"},"vehicle_type_id":"4","last_reported":1690131921,"current_range_meters":15600,"station_id":"ce4bh512rcd13ifvqe3g","pricing_plan_id":"free"},{"bike_id":"b394b7a1-51c1-42ab-8a5c-a3c10cb7bea5","system_id":"levelo_inurba_marseille","lat":43.28865,"lon":5.39305,"is_reserved":false,"is_disabled":false,"rental_uris":{"android":"levelo://app?vid=b394b7a1-51c1-42ab-8a5c-a3c10cb7bea5","ios":"levelo://app?vid=b394b7a1-51c1-42ab-8a5c-a3c10cb7bea5"},"vehicle_type_id":"4","last_reported":1690131921,"current_range_meters":3600,"station_id":"","pricing_plan_id":"free"},{"bike_id":"1a2a3232-be13-478f-8fc8-c6809fa6cd01","system_id":"levelo_inurba_marseille","lat":43.284711,"lon":5.384113,"is_reserved":false,"is_disabled":false,"rental_uris":{"android":"levelo://app?vid=1a2a3232-be13-478f-8fc8-c6809fa6cd01","ios":"levelo://app?vid=1a2a3232-be13-478f-8fc8-c6809fa6cd01"},"vehicle_type_id":"4","last_reported":1690131921,"current_range_meters":28400,"station_id":"ce4bgj92rcd13ifvqbe0","pricing_plan_id":"free"},{"bike_id":"85b17f99-f214-4af6-85f8-1269a0919635","system_id":"levelo_inurba_marseille","lat":43.29807,"lon":5.40415,"is_reserved":false,"is_disabled":false,"rental_uris":{"android":"levelo://app?vid=85b17f99-f214-4af6-85f8-1269a0919635","ios":"levelo://app?vid=85b17f99-f214-4af6-85f8-1269a0919635"},"vehicle_type_id":"4","last_reported":1690131921,"current_range_meters":1200,"station_id":"","pricing_plan_id":"free"},{"bike_id":"44ddbfd0-82ec-402b-8904-87dc3315cce4","system_id":"levelo_inurba_marseille","lat":43.288497,"lon":5.393089,"is_reserved":false,"is_disabled":false,"rental_uris":{"android":"levelo://app?vid=44ddbfd0-82ec-402b-8904-87dc3315cce4","ios":"levelo://app?vid=44ddbfd0-82ec-402b-8904-87dc3315cce4"},"vehicle_type_id":"4","last_reported":1690131921,"current_range_meters":11600,"station_id":"ce4bh2p2rcd13ifvqdi0","pricing_plan_id":"free"},{"bike_id":"68244704-3b55-41a2-9829-acc612cbbb75","system_id":"levelo_inurba_marseille","lat":43.29789,"lon":5.40416,"is_reserved":false,"is_disabled":false,"rental_uris":{"android":"levelo://app?vid=68244704-3b55-41a2-9829-acc612cbbb75","ios":"levelo://app?vid=68244704-3b55-41a2-9829-acc612cbbb75"},"vehicle_type_id":"4","last_reported":1690131921,"current_range_meters":7600,"station_id":"","pricing_plan_id":"free"},{"bike_id":"c78d3df0-ed07-4f23-a7e5-451b92df82f8","system_id":"levelo_inurba_marseille","lat":43.28439,"lon":5.34987,"is_reserved":false,"is_disabled":false,"rental_uris":{"android":"levelo://app?vid=c78d3df0-ed07-4f23-a7e5-451b92df82f8","ios":"levelo://app?vid=c78d3df0-ed07-4f23-a7e5-451b92df82f8"},"vehicle_type_id":"4","last_reported":1690131921,"current_range_meters":19600,"station_id":"ce4bhbh2rcd13ifvqepg","pricing_plan_id":"free"},{"bike_id":"4b763ae0-0c8e-4f71-9ca6-066a143dd9da","system_id":"levelo_inurba_marseille","lat":43.284219,"lon":5.3497,"is_reserved":false,"is_disabled":false,"rental_uris":{"android":"levelo://app?vid=4b763ae0-0c8e-4f71-9ca6-066a143dd9da","ios":"levelo://app?vid=4b763ae0-0c8e-4f71-9ca6-066a143dd9da"},"vehicle_type_id":"4","last_reported":1690131921,"current_range_meters":20800,"station_id":"ce4bhbh2rcd13ifvqepg","pricing_plan_id":"free"},{"bike_id":"a9877c12-663c-4728-b9c1-77da0ba7af4a","system_id":"levelo_inurba_marseille","lat":43.284219,"lon":5.3497,"is_reserved":false,"is_disabled":false,"rental_uris":{"android":"levelo://app?vid=a9877c12-663c-4728-b9c1-77da0ba7af4a","ios":"levelo://app?vid=a9877c12-663c-4728-b9c1-77da0ba7af4a"},"vehicle_type_id":"4","last_reported":1690131921,"current_range_meters":31200,"station_id":"ce4bhbh2rcd13ifvqepg","pricing_plan_id":"free"},{"bike_id":"6daa6543-9900-49f4-8dd1-c6e1ce2b147f","system_id":"levelo_inurba_marseille","lat":43.28426,"lon":5.34995,"is_reserved":false,"is_disabled":false,"rental_uris":{"android":"levelo://app?vid=6daa6543-9900-49f4-8dd1-c6e1ce2b147f","ios":"levelo://app?vid=6daa6543-9900-49f4-8dd1-c6e1ce2b147f"},"vehicle_type_id":"4","last_reported":1690131921,"current_range_meters":31200,"station_id":"ce4bhbh2rcd13ifvqepg","pricing_plan_id":"free"},{"bike_id":"3ebcf2d2-ff06-4a7e-8991-8ef0a9c0734b","system_id":"levelo_inurba_marseille","lat":43.28426,"lon":5.34992,"is_reserved":false,"is_disabled":false,"rental_uris":{"android":"levelo://app?vid=3ebcf2d2-ff06-4a7e-8991-8ef0a9c0734b","ios":"levelo://app?vid=3ebcf2d2-ff06-4a7e-8991-8ef0a9c0734b"},"vehicle_type_id":"4","last_reported":1690131921,"current_range_meters":23600,"station_id":"ce4bhbh2rcd13ifvqepg","pricing_plan_id":"free"},{"bike_id":"b1288ee5-a3ab-447b-8e69-89235fc32e22","system_id":"levelo_inurba_marseille","lat":43.284217,"lon":5.349697,"is_reserved":false,"is_disabled":false,"rental_uris":{"android":"levelo://app?vid=b1288ee5-a3ab-447b-8e69-89235fc32e22","ios":"levelo://app?vid=b1288ee5-a3ab-447b-8e69-89235fc32e22"},"vehicle_type_id":"4","last_reported":1690131921,"current_range_meters":31200,"station_id":"ce4bhbh2rcd13ifvqepg","pricing_plan_id":"free"},{"bike_id":"8b86bf15-6cbb-4262-82a1-daee1f102e73","system_id":"levelo_inurba_marseille","lat":43.28426,"lon":5.34986,"is_reserved":false,"is_disabled":false,"rental_uris":{"android":"levelo://app?vid=8b86bf15-6cbb-4262-82a1-daee1f102e73","ios":"levelo://app?vid=8b86bf15-6cbb-4262-82a1-daee1f102e73"},"vehicle_type_id":"4","last_reported":1690131921,"current_range_meters":29200,"station_id":"ce4bhbh2rcd13ifvqepg","pricing_plan_id":"free"},{"bike_id":"3569042b-592f-4911-b7f0-3fb1b4390f77","system_id":"levelo_inurba_marseille","lat":43.284219,"lon":5.3497,"is_reserved":false,"is_disabled":false,"rental_uris":{"android":"levelo://app?vid=3569042b-592f-4911-b7f0-3fb1b4390f77","ios":"levelo://app?vid=3569042b-592f-4911-b7f0-3fb1b4390f77"},"vehicle_type_id":"4","last_reported":1690131921,"current_range_meters":4000,"station_id":"ce4bhbh2rcd13ifvqepg","pricing_plan_id":"free"},{"bike_id":"aca3d2fd-56e6-4c27-9105-f7095e02869d","system_id":"levelo_inurba_marseille","lat":43.28425,"lon":5.34985,"is_reserved":false,"is_disabled":false,"rental_uris":{"android":"levelo://app?vid=aca3d2fd-56e6-4c27-9105-f7095e02869d","ios":"levelo://app?vid=aca3d2fd-56e6-4c27-9105-f7095e02869d"},"vehicle_type_id":"4","last_reported":1690131921,"current_range_meters":20800,"station_id":"ce4bhbh2rcd13ifvqepg","pricing_plan_id":"free"},{"bike_id":"429d607b-9096-4ebb-b686-7ceb0a4c6c01","system_id":"levelo_inurba_marseille","lat":43.284219,"lon":5.3497,"is_reserved":false,"is_disabled":false,"rental_uris":{"android":"levelo://app?vid=429d607b-9096-4ebb-b686-7ceb0a4c6c01","ios":"levelo://app?vid=429d607b-9096-4ebb-b686-7ceb0a4c6c01"},"vehicle_type_id":"4","last_reported":1690131921,"current_range_meters":22000,"station_id":"ce4bhbh2rcd13ifvqepg","pricing_plan_id":"free"},{"bike_id":"7cd12e20-11d1-4f81-85f3-50fa4b8eec82","system_id":"levelo_inurba_marseille","lat":43.2842,"lon":5.34991,"is_reserved":false,"is_disabled":false,"rental_uris":{"android":"levelo://app?vid=7cd12e20-11d1-4f81-85f3-50fa4b8eec82","ios":"levelo://app?vid=7cd12e20-11d1-4f81-85f3-50fa4b8eec82"},"vehicle_type_id":"4","last_reported":1690131921,"current_range_meters":20000,"station_id":"ce4bhbh2rcd13ifvqepg","pricing_plan_id":"free"},{"bike_id":"ffa95a6d-a472-421e-84ba-b2b4415e093e","system_id":"levelo_inurba_marseille","lat":43.284219,"lon":5.3497,"is_reserved":false,"is_disabled":false,"rental_uris":{"android":"levelo://app?vid=ffa95a6d-a472-421e-84ba-b2b4415e093e","ios":"levelo://app?vid=ffa95a6d-a472-421e-84ba-b2b4415e093e"},"vehicle_type_id":"4","last_reported":1690131921,"current_range_meters":31200,"station_id":"ce4bhbh2rcd13ifvqepg","pricing_plan_id":"free"},{"bike_id":"932973a7-380e-4921-bdc1-d09e2444a5b7","system_id":"levelo_inurba_marseille","lat":43.284219,"lon":5.349778,"is_reserved":false,"is_disabled":false,"rental_uris":{"android":"levelo://app?vid=932973a7-380e-4921-bdc1-d09e2444a5b7","ios":"levelo://app?vid=932973a7-380e-4921-bdc1-d09e2444a5b7"},"vehicle_type_id":"4","last_reported":1690131921,"current_range_meters":31200,"station_id":"ce4bhbh2rcd13ifvqepg","pricing_plan_id":"free"},{"bike_id":"6fba5612-2a96-464b-8329-e3c913316fa6","system_id":"levelo_inurba_marseille","lat":43.284219,"lon":5.3497,"is_reserved":false,"is_disabled":false,"rental_uris":{"android":"levelo://app?vid=6fba5612-2a96-464b-8329-e3c913316fa6","ios":"levelo://app?vid=6fba5612-2a96-464b-8329-e3c913316fa6"},"vehicle_type_id":"4","last_reported":1690131921,"current_range_meters":31200,"station_id":"ce4bhbh2rcd13ifvqepg","pricing_plan_id":"free"},{"bike_id":"6f7d01a8-0c76-4376-9711-bfafd8bfc70c","system_id":"levelo_inurba_marseille","lat":43.28418,"lon":5.34984,"is_reserved":false,"is_disabled":false,"rental_uris":{"android":"levelo://app?vid=6f7d01a8-0c76-4376-9711-bfafd8bfc70c","ios":"levelo://app?vid=6f7d01a8-0c76-4376-9711-bfafd8bfc70c"},"vehicle_type_id":"4","last_reported":1690131921,"current_range_meters":31200,"station_id":"ce4bhbh2rcd13ifvqepg","pricing_plan_id":"free"},{"bike_id":"19556d19-5ab0-4b3e-9b78-af2979399177","system_id":"levelo_inurba_marseille","lat":43.28419,"lon":5.349803,"is_reserved":false,"is_disabled":false,"rental_uris":{"android":"levelo://app?vid=19556d19-5ab0-4b3e-9b78-af2979399177","ios":"levelo://app?vid=19556d19-5ab0-4b3e-9b78-af2979399177"},"vehicle_type_id":"4","last_reported":1690131921,"current_range_meters":20400,"station_id":"ce4bhbh2rcd13ifvqepg","pricing_plan_id":"free"},{"bike_id":"bce9ebfb-d250-4af0-abe1-12a9e798eb03","system_id":"levelo_inurba_marseille","lat":43.284217,"lon":5.349697,"is_reserved":false,"is_disabled":false,"rental_uris":{"android":"levelo://app?vid=bce9ebfb-d250-4af0-abe1-12a9e798eb03","ios":"levelo://app?vid=bce9ebfb-d250-4af0-abe1-12a9e798eb03"},"vehicle_type_id":"4","last_reported":1690131921,"current_range_meters":31200,"station_id":"ce4bhbh2rcd13ifvqepg","pricing_plan_id":"free"},{"bike_id":"c2f61870-f015-4f8a-bc41-22f839141b13","system_id":"levelo_inurba_marseille","lat":43.32172,"lon":5.40794,"is_reserved":false,"is_disabled":false,"rental_uris":{"android":"levelo://app?vid=c2f61870-f015-4f8a-bc41-22f839141b13","ios":"levelo://app?vid=c2f61870-f015-4f8a-bc41-22f839141b13"},"vehicle_type_id":"4","last_reported":1690131921,"current_range_meters":8800,"station_id":"","pricing_plan_id":"free"},{"bike_id":"e495c308-9a22-4ea0-b690-36f3c4c0813a","system_id":"levelo_inurba_marseille","lat":43.28417,"lon":5.34982,"is_reserved":false,"is_disabled":false,"rental_uris":{"android":"levelo://app?vid=e495c308-9a22-4ea0-b690-36f3c4c0813a","ios":"levelo://app?vid=e495c308-9a22-4ea0-b690-36f3c4c0813a"},"vehicle_type_id":"4","last_reported":1690131921,"current_range_meters":30800,"station_id":"ce4bhbh2rcd13ifvqepg","pricing_plan_id":"free"},{"bike_id":"0e685eac-264a-46c8-b2c3-c0112802042a","system_id":"levelo_inurba_marseille","lat":43.28415,"lon":5.34986,"is_reserved":false,"is_disabled":false,"rental_uris":{"android":"levelo://app?vid=0e685eac-264a-46c8-b2c3-c0112802042a","ios":"levelo://app?vid=0e685eac-264a-46c8-b2c3-c0112802042a"},"vehicle_type_id":"4","last_reported":1690131921,"current_range_meters":31200,"station_id":"ce4bhbh2rcd13ifvqepg","pricing_plan_id":"free"},{"bike_id":"18a72432-4679-4430-8bb5-1adf08e3a694","system_id":"levelo_inurba_marseille","lat":43.292724,"lon":5.401131,"is_reserved":false,"is_disabled":false,"rental_uris":{"android":"levelo://app?vid=18a72432-4679-4430-8bb5-1adf08e3a694","ios":"levelo://app?vid=18a72432-4679-4430-8bb5-1adf08e3a694"},"vehicle_type_id":"4","last_reported":1690131921,"current_range_meters":20400,"station_id":"ce4bh312rcd13ifvqdk0","pricing_plan_id":"free"},{"bike_id":"a7fd1ed6-3aa0-4b89-b05c-a9b48c46f874","system_id":"levelo_inurba_marseille","lat":43.282754,"lon":5.350519,"is_reserved":false,"is_disabled":false,"rental_uris":{"android":"levelo://app?vid=a7fd1ed6-3aa0-4b89-b05c-a9b48c46f874","ios":"levelo://app?vid=a7fd1ed6-3aa0-4b89-b05c-a9b48c46f874"},"vehicle_type_id":"4","last_reported":1690131921,"current_range_meters":3200,"station_id":"ce4bhbp2rcd13ifvqerg","pricing_plan_id":"free"},{"bike_id":"d29d56c1-3ec7-4f4a-b459-74ee61f6361d","system_id":"levelo_inurba_marseille","lat":43.28375,"lon":5.38632,"is_reserved":false,"is_disabled":false,"rental_uris":{"android":"levelo://app?vid=d29d56c1-3ec7-4f4a-b459-74ee61f6361d","ios":"levelo://app?vid=d29d56c1-3ec7-4f4a-b459-74ee61f6361d"},"vehicle_type_id":"4","last_reported":1690131921,"current_range_meters":26400,"station_id":"ce4bh492rcd13ifvqdvg","pricing_plan_id":"free"},{"bike_id":"abb0ef33-c239-408c-94a0-414dbe9be538","system_id":"levelo_inurba_marseille","lat":43.28276,"lon":5.35057,"is_reserved":false,"is_disabled":false,"rental_uris":{"android":"levelo://app?vid=abb0ef33-c239-408c-94a0-414dbe9be538","ios":"levelo://app?vid=abb0ef33-c239-408c-94a0-414dbe9be538"},"vehicle_type_id":"4","last_reported":1690131921,"current_range_meters":15200,"station_id":"ce4bhbp2rcd13ifvqerg","pricing_plan_id":"free"},{"bike_id":"8032af32-13fd-4a8c-8e35-4cb0b032f5bb","system_id":"levelo_inurba_marseille","lat":43.28368,"lon":5.38633,"is_reserved":false,"is_disabled":false,"rental_uris":{"android":"levelo://app?vid=8032af32-13fd-4a8c-8e35-4cb0b032f5bb","ios":"levelo://app?vid=8032af32-13fd-4a8c-8e35-4cb0b032f5bb"},"vehicle_type_id":"4","last_reported":1690131921,"current_range_meters":21600,"station_id":"ce4bh492rcd13ifvqdvg","pricing_plan_id":"free"},{"bike_id":"c69df4cd-4615-42d5-b466-3ad54a0ef464","system_id":"levelo_inurba_marseille","lat":43.280454,"lon":5.369399,"is_reserved":false,"is_disabled":false,"rental_uris":{"android":"levelo://app?vid=c69df4cd-4615-42d5-b466-3ad54a0ef464","ios":"levelo://app?vid=c69df4cd-4615-42d5-b466-3ad54a0ef464"},"vehicle_type_id":"4","last_reported":1690131921,"current_range_meters":23200,"station_id":"","pricing_plan_id":"free"},{"bike_id":"da780cd8-47ce-411f-89fd-65bc5a99e827","system_id":"levelo_inurba_marseille","lat":43.28042,"lon":5.36947,"is_reserved":false,"is_disabled":false,"rental_uris":{"android":"levelo://app?vid=da780cd8-47ce-411f-89fd-65bc5a99e827","ios":"levelo://app?vid=da780cd8-47ce-411f-89fd-65bc5a99e827"},"vehicle_type_id":"4","last_reported":1690131921,"current_range_meters":16800,"station_id":"ce4bha12rcd13ifvqef0","pricing_plan_id":"free"},{"bike_id":"5b62a13c-82df-4ad6-b93e-0f99253efad1","system_id":"levelo_inurba_marseille","lat":43.28039,"lon":5.369297,"is_reserved":false,"is_disabled":false,"rental_uris":{"android":"levelo://app?vid=5b62a13c-82df-4ad6-b93e-0f99253efad1","ios":"levelo://app?vid=5b62a13c-82df-4ad6-b93e-0f99253efad1"},"vehicle_type_id":"4","last_reported":1690131921,"current_range_meters":0,"station_id":"ce4bha12rcd13ifvqef0","pricing_plan_id":"free"},{"bike_id":"59f61a6b-8eb1-492c-9d05-5e5b9601166a","system_id":"levelo_inurba_marseille","lat":43.283502,"lon":5.386471,"is_reserved":false,"is_disabled":false,"rental_uris":{"android":"levelo://app?vid=59f61a6b-8eb1-492c-9d05-5e5b9601166a","ios":"levelo://app?vid=59f61a6b-8eb1-492c-9d05-5e5b9601166a"},"vehicle_type_id":"4","last_reported":1690131921,"current_range_meters":5200,"station_id":"ce4bh492rcd13ifvqdvg","pricing_plan_id":"free"},{"bike_id":"412d24a4-c7bd-4285-9503-5d3eff13d3ca","system_id":"levelo_inurba_marseille","lat":43.290412,"lon":5.399633,"is_reserved":false,"is_disabled":false,"rental_uris":{"android":"levelo://app?vid=412d24a4-c7bd-4285-9503-5d3eff13d3ca","ios":"levelo://app?vid=412d24a4-c7bd-4285-9503-5d3eff13d3ca"},"vehicle_type_id":"4","last_reported":1690131921,"current_range_meters":26800,"station_id":"ce4bh392rcd13ifvqdm0","pricing_plan_id":"free"},{"bike_id":"cdee63c1-3b8b-4d04-9b97-f7973b992146","system_id":"levelo_inurba_marseille","lat":43.290412,"lon":5.399633,"is_reserved":false,"is_disabled":false,"rental_uris":{"android":"levelo://app?vid=cdee63c1-3b8b-4d04-9b97-f7973b992146","ios":"levelo://app?vid=cdee63c1-3b8b-4d04-9b97-f7973b992146"},"vehicle_type_id":"4","last_reported":1690131921,"current_range_meters":0,"station_id":"ce4bh392rcd13ifvqdm0","pricing_plan_id":"free"},{"bike_id":"508589fe-e3ab-421f-ac3e-18eabae8ee02","system_id":"levelo_inurba_marseille","lat":43.28103,"lon":5.3785,"is_reserved":false,"is_disabled":false,"rental_uris":{"android":"levelo://app?vid=508589fe-e3ab-421f-ac3e-18eabae8ee02","ios":"levelo://app?vid=508589fe-e3ab-421f-ac3e-18eabae8ee02"},"vehicle_type_id":"4","last_reported":1690131921,"current_range_meters":25600,"station_id":"ce4bha12rcd13ifvqee0","pricing_plan_id":"free"},{"bike_id":"df18471d-c8a5-45f8-90f2-0467fd4fbddc","system_id":"levelo_inurba_marseille","lat":43.29631,"lon":5.40599,"is_reserved":false,"is_disabled":false,"rental_uris":{"android":"levelo://app?vid=df18471d-c8a5-45f8-90f2-0467fd4fbddc","ios":"levelo://app?vid=df18471d-c8a5-45f8-90f2-0467fd4fbddc"},"vehicle_type_id":"4","last_reported":1690131921,"current_range_meters":0,"station_id":"ce4bh0h2rcd13ifvqd60","pricing_plan_id":"free"},{"bike_id":"5b3a0cc2-494b-47d0-a65a-54d2dd3ad235","system_id":"levelo_inurba_marseille","lat":43.29626,"lon":5.40597,"is_reserved":false,"is_disabled":false,"rental_uris":{"android":"levelo://app?vid=5b3a0cc2-494b-47d0-a65a-54d2dd3ad235","ios":"levelo://app?vid=5b3a0cc2-494b-47d0-a65a-54d2dd3ad235"},"vehicle_type_id":"4","last_reported":1690131921,"current_range_meters":14000,"station_id":"ce4bh0h2rcd13ifvqd60","pricing_plan_id":"free"},{"bike_id":"a82a1095-ba3d-416d-ac26-84d2201dde20","system_id":"levelo_inurba_marseille","lat":43.284462,"lon":5.392121,"is_reserved":false,"is_disabled":false,"rental_uris":{"android":"levelo://app?vid=a82a1095-ba3d-416d-ac26-84d2201dde20","ios":"levelo://app?vid=a82a1095-ba3d-416d-ac26-84d2201dde20"},"vehicle_type_id":"4","last_reported":1690131921,"current_range_meters":29600,"station_id":"ce4bhoh2rcd13ifvqh5g","pricing_plan_id":"free"},{"bike_id":"0727a143-7cf3-4115-8bea-7c84cc5a9719","system_id":"levelo_inurba_marseille","lat":43.28445,"lon":5.39206,"is_reserved":false,"is_disabled":false,"rental_uris":{"android":"levelo://app?vid=0727a143-7cf3-4115-8bea-7c84cc5a9719","ios":"levelo://app?vid=0727a143-7cf3-4115-8bea-7c84cc5a9719"},"vehicle_type_id":"4","last_reported":1690131921,"current_range_meters":0,"station_id":"ce4bhoh2rcd13ifvqh5g","pricing_plan_id":"free"},{"bike_id":"b07c874d-0cc2-4584-b1bd-124419cea48b","system_id":"levelo_inurba_marseille","lat":43.30419,"lon":5.41282,"is_reserved":false,"is_disabled":false,"rental_uris":{"android":"levelo://app?vid=b07c874d-0cc2-4584-b1bd-124419cea48b","ios":"levelo://app?vid=b07c874d-0cc2-4584-b1bd-124419cea48b"},"vehicle_type_id":"4","last_reported":1690131921,"current_range_meters":15200,"station_id":"ce4bhop2rcd13ifvqh8g","pricing_plan_id":"free"},{"bike_id":"b23297f0-2d9a-4db9-9154-64dc30fc47e9","system_id":"levelo_inurba_marseille","lat":43.30419,"lon":5.41284,"is_reserved":false,"is_disabled":false,"rental_uris":{"android":"levelo://app?vid=b23297f0-2d9a-4db9-9154-64dc30fc47e9","ios":"levelo://app?vid=b23297f0-2d9a-4db9-9154-64dc30fc47e9"},"vehicle_type_id":"4","last_reported":1690131921,"current_range_meters":31200,"station_id":"ce4bhop2rcd13ifvqh8g","pricing_plan_id":"free"},