{"last_updated":1731849335,"ttl":60,"version":"2.2","data":{"bikes":[{"bike_id":"73806b4b-3409-4fe7-9bac-cc9da7355bda","system_id":"levelo_inurba_marseille","lat":43.31046,"lon":5.39998,"is_reserved":false,"is_disabled":false,"rental_uris":{"android":"levelo://app?vid=73806b4b-3409-4fe7-9bac-cc9da7355bda","ios":"levelo://app?vid=73806b4b-3409-4fe7-9bac-cc9da7355bda"},"vehicle_type_id":"4","last_reported":1731849335,"current_range_meters":28800,"station_id":"","pricing_plan_id":"cebpf4jnsgd1na2vs0mg"},{"bike_id":"9c319bd8-1c7c-46bb-824e-2a1d218223bc","system_id":"levelo_inurba_marseille","lat":43.30532,"lon":5.3672,"is_reserved":false,"is_disabled":false,"rental_uris":{"android":"levelo://app?vid=9c319bd8-1c7c-46bb-824e-2a1d218223bc","ios":"levelo://app?vid=9c319bd8-1c7c-46bb-824e-2a1d218223bc"},"vehicle_type_id":"4","last_reported":1731849335,"current_range_meters":31200,"station_id":"ce4bgrp2rcd13ifvqc9g","pricing_plan_id":"cebpf4jnsgd1na2vs0mg"},{"bike_id":"8f64f783-a592-44e3-bbda-2c129afa1260","system_id":"levelo_inurba_marseille","lat":43.24653,"lon":5.38895,"is_reserved":false,"is_disabled":false,"rental_uris":{"android":"levelo://app?vid=8f64f783-a592-44e3-bbda-2c129afa1260","ios":"levelo://app?vid=8f64f783-a592-44e3-bbda-2c129afa1260"},"vehicle_type_id":"4","last_reported":1731849335,"current_range_meters":38800,"station_id":"ce4bhg12rcd13ifvqf60","pricing_plan_id":"cebpf4jnsgd1na2vs0mg"},{"bike_id":"0672d165-d197-4474-bbec-2df95543fd2f","system_id":"levelo_inurba_marseille","lat":43.299,"lon":5.43662,"is_reserved":false,"is_disabled":false,"rental_uris":{"android":"levelo://app?vid=0672d165-d197-4474-bbec-2df95543fd2f","ios":"levelo://app?vid=0672d165-d197-4474-bbec-2df95543fd2f"},"vehicle_type_id":"4","last_reported":1731849335,"current_range_meters":8000,"station_id":"ce4bhpp2rcd13ifvqhfg","pricing_plan_id":"cebpf4jnsgd1na2vs0mg"},{"bike_id":"52e5f23d-efbc-4e02-9aac-54a752c00a7a","system_id":"levelo_inurba_marseille","lat":43.27965,"lon":5.38738,"is_reserved":false,"is_disabled":false,"rental_uris":{"android":"levelo://app?vid=52e5f23d-efbc-4e02-9aac-54a752c00a7a","ios":"levelo://app?vid=52e5f23d-efbc-4e02-9aac-54a752c00a7a"},"vehicle_type_id":"4","last_reported":1731849335,"current_range_meters":6800,"station_id":"ce4bhg12rcd13ifvqf80","pricing_plan_id":"cebpf4jnsgd1na2vs0mg"},{"bike_id":"8fe39cc9-83c3-424c-a33e-22ca5f2aa318","system_id":"levelo_inurba_marseille","lat":43.22926,"lon":5.3538,"is_reserved":false,"is_disabled":false,"rental_uris":{"android":"levelo://app?vid=8fe39cc9-83c3-424c-a33e-22ca5f2aa318","ios":"levelo://app?vid=8fe39cc9-83c3-424c-a33e-22ca5f2aa318"},"vehicle_type_id":"4","last_reported":1731849335,"current_range_meters":39200,"station_id":"cpo3532slgdg3j2ikp40","pricing_plan_id":"cebpf4jnsgd1na2vs0mg"},{"bike_id":"b361c1fc-f63b-4883-ac7d-1a695da9acca","system_id":"levelo_inurba_marseille","lat":43.24173,"lon":5.39731,"is_reserved":false,"is_disabled":false,"rental_uris":{"android":"levelo://app?vid=b361c1fc-f63b-4883-ac7d-1a695da9acca","ios":"levelo://app?vid=b361c1fc-f63b-4883-ac7d-1a695da9acca"},"vehicle_type_id":"4","last_reported":1731849335,"current_range_meters":32400,"station_id":"ce4bhn12rcd13ifvqgpg","pricing_plan_id":"cebpf4jnsgd1na2vs0mg"},{"bike_id":"313dfc76-e5ff-4fdb-a6ce-11cb6d4ff689","system_id":"levelo_inurba_marseille","lat":43.22928,"lon":5.35372,"is_reserved":false,"is_disabled":false,"rental_uris":{"android":"levelo://app?vid=313dfc76-e5ff-4fdb-a6ce-11cb6d4ff689","ios":"levelo://app?vid=313dfc76-e5ff-4fdb-a6ce-11cb6d4ff689"},"vehicle_type_id":"4","last_reported":1731849335,"current_range_meters":6400,"station_id":"cpo3532slgdg3j2ikp40","pricing_plan_id":"cebpf4jnsgd1na2vs0mg"},{"bike_id":"4c167bc3-2964-4625-adc0-c92e539ad80f","system_id":"levelo_inurba_marseille","lat":43.28282,"lon":5.40814,"is_reserved":false,"is_disabled":false,"rental_uris":{"android":"levelo://app?vid=4c167bc3-2964-4625-adc0-c92e539ad80f","ios":"levelo://app?vid=4c167bc3-2964-4625-adc0-c92e539ad80f"},"vehicle_type_id":"4","last_reported":1731849335,"current_range_meters":35200,"station_id":"","pricing_plan_id":"cebpf4jnsgd1na2vs0mg"},{"bike_id":"ebece2e7-cd1b-4190-b52a-8a13152f9205","system_id":"levelo_inurba_marseille","lat":43.28614,"lon":5.37066,"is_reserved":false,"is_disabled":false,"rental_uris":{"android":"levelo://app?vid=ebece2e7-cd1b-4190-b52a-8a13152f9205","ios":"levelo://app?vid=ebece2e7-cd1b-4190-b52a-8a13152f9205"},"vehicle_type_id":"4","last_reported":1731849335,"current_range_meters":24400,"station_id":"ce4bht12rcd13ifvqi60","pricing_plan_id":"cebpf4jnsgd1na2vs0mg"},{"bike_id":"44a253fe-0c31-4482-bf7d-eed3349505cd","system_id":"levelo_inurba_marseille","lat":43.27489,"lon":5.42458,"is_reserved":false,"is_disabled":false,"rental_uris":{"android":"levelo://app?vid=44a253fe-0c31-4482-bf7d-eed3349505cd","ios":"levelo://app?vid=44a253fe-0c31-4482-bf7d-eed3349505cd"},"vehicle_type_id":"4","last_reported":1731849335,"current_range_meters":19600,"station_id":"ce4bhn92rcd13ifvqgrg","pricing_plan_id":"cebpf4jnsgd1na2vs0mg"},{"bike_id":"6b0ea79e-cb12-4a50-9845-e4686b3cacc8","system_id":"levelo_inurba_marseille","lat":43.295751,"lon":5.399791,"is_reserved":false,"is_disabled":false,"rental_uris":{"android":"levelo://app?vid=6b0ea79e-cb12-4a50-9845-e4686b3cacc8","ios":"levelo://app?vid=6b0ea79e-cb12-4a50-9845-e4686b3cacc8"},"vehicle_type_id":"4","last_reported":1731849335,"current_range_meters":9600,"station_id":"","pricing_plan_id":"cebpf4jnsgd1na2vs0mg"},{"bike_id":"7b9410a5-4539-436c-80ee-712b941ee81b","system_id":"levelo_inurba_marseille","lat":43.26555,"lon":5.39003,"is_reserved":false,"is_disabled":false,"rental_uris":{"android":"levelo://app?vid=7b9410a5-4539-436c-80ee-712b941ee81b","ios":"levelo://app?vid=7b9410a5-4539-436c-80ee-712b941ee81b"},"vehicle_type_id":"4","last_reported":1731849335,"current_range_meters":24400,"station_id":"ce4bhhp2rcd13ifvqfm0","pricing_plan_id":"cebpf4jnsgd1na2vs0mg"},{"bike_id":"88422a58-7641-427b-871d-07dd27a46e36","system_id":"levelo_inurba_marseille","lat":43.27422,"lon":5.39419,"is_reserved":false,"is_disabled":false,"rental_uris":{"android":"levelo://app?vid=88422a58-7641-427b-871d-07dd27a46e36","ios":"levelo://app?vid=88422a58-7641-427b-871d-07dd27a46e36"},"vehicle_type_id":"4","last_reported":1731849335,"current_range_meters":14800,"station_id":"ce4bhdp2rcd13ifvqf20","pricing_plan_id":"cebpf4jnsgd1na2vs0mg"},{"bike_id":"4219ad56-dda8-41bd-bd6c-f8959bc256b9","system_id":"levelo_inurba_marseille","lat":43.23061,"lon":5.35493,"is_reserved":false,"is_disabled":false,"rental_uris":{"android":"levelo://app?vid=4219ad56-dda8-41bd-bd6c-f8959bc256b9","ios":"levelo://app?vid=4219ad56-dda8-41bd-bd6c-f8959bc256b9"},"vehicle_type_id":"4","last_reported":1731849335,"current_range_meters":4000,"station_id":"cpo3342slgdg3j2ifvpg","pricing_plan_id":"cebpf4jnsgd1na2vs0mg"},{"bike_id":"50ae9b5e-ee0d-4840-a17d-7fb0a1567903","system_id":"levelo_inurba_marseille","lat":43.24803,"lon":5.37454,"is_reserved":false,"is_disabled":false,"rental_uris":{"android":"levelo://app?vid=50ae9b5e-ee0d-4840-a17d-7fb0a1567903","ios":"levelo://app?vid=50ae9b5e-ee0d-4840-a17d-7fb0a1567903"},"vehicle_type_id":"4","last_reported":1731849335,"current_range_meters":24400,"station_id":"ce4bhgh2rcd13ifvqfb0","pricing_plan_id":"cebpf4jnsgd1na2vs0mg"},{"bike_id":"b14a61f4-4282-4cf4-bb23-56f2108f0e14","system_id":"levelo_inurba_marseille","lat":43.28154,"lon":5.42638,"is_reserved":false,"is_disabled":false,"rental_uris":{"android":"levelo://app?vid=b14a61f4-4282-4cf4-bb23-56f2108f0e14","ios":"levelo://app?vid=b14a61f4-4282-4cf4-bb23-56f2108f0e14"},"vehicle_type_id":"4","last_reported":1731849335,"current_range_meters":26000,"station_id":"ce4bhnh2rcd13ifvqgug","pricing_plan_id":"cebpf4jnsgd1na2vs0mg"},{"bike_id":"22537730-3b52-4654-b2d3-671313bb54cd","system_id":"levelo_inurba_marseille","lat":43.27373,"lon":5.36258,"is_reserved":false,"is_disabled":false,"rental_uris":{"android":"levelo://app?vid=22537730-3b52-4654-b2d3-671313bb54cd","ios":"levelo://app?vid=22537730-3b52-4654-b2d3-671313bb54cd"},"vehicle_type_id":"4","last_reported":1731849335,"current_range_meters":36400,"station_id":"ce4bhbh2rcd13ifvqeo0","pricing_plan_id":"cebpf4jnsgd1na2vs0mg"},{"bike_id":"0e1d2e7a-8318-45fe-af1b-31857eb1aac8","system_id":"levelo_inurba_marseille","lat":43.23963,"lon":5.36609,"is_reserved":false,"is_disabled":false,"rental_uris":{"android":"levelo://app?vid=0e1d2e7a-8318-45fe-af1b-31857eb1aac8","ios":"levelo://app?vid=0e1d2e7a-8318-45fe-af1b-31857eb1aac8"},"vehicle_type_id":"4","last_reported":1731849335,"current_range_meters":24400,"station_id":"ce4bhi12rcd13ifvqfp0","pricing_plan_id":"cebpf4jnsgd1na2vs0mg"},{"bike_id":"96a1e210-c58d-4d4a-9d52-27a4b3a50ccf","system_id":"levelo_inurba_marseille","lat":43.23151,"lon":5.43714,"is_reserved":false,"is_disabled":false,"rental_uris":{"android":"levelo://app?vid=96a1e210-c58d-4d4a-9d52-27a4b3a50ccf","ios":"levelo://app?vid=96a1e210-c58d-4d4a-9d52-27a4b3a50ccf"},"vehicle_type_id":"4","last_reported":1731849335,"current_range_meters":16400,"station_id":"ce4bhmp2rcd13ifvqgog","pricing_plan_id":"cebpf4jnsgd1na2vs0mg"},{"bike_id":"2bd3ae1c-22d2-4b0f-9fd7-42d6b84fc3a3","system_id":"levelo_inurba_marseille","lat":43.33601,"lon":5.41028,"is_reserved":false,"is_disabled":false,"rental_uris":{"android":"levelo://app?vid=2bd3ae1c-22d2-4b0f-9fd7-42d6b84fc3a3","ios":"levelo://app?vid=2bd3ae1c-22d2-4b0f-9fd7-42d6b84fc3a3"},"vehicle_type_id":"4","last_reported":1731849335,"current_range_meters":18800,"station_id":"ce4bhqh2rcd13ifvqhmg","pricing_plan_id":"cebpf4jnsgd1na2vs0mg"},{"bike_id":"79b76398-f4aa-422b-b325-2360d07a8784","system_id":"levelo_inurba_marseille","lat":43.33722,"lon":5.39181,"is_reserved":false,"is_disabled":false,"rental_uris":{"android":"levelo://app?vid=79b76398-f4aa-422b-b325-2360d07a8784","ios":"levelo://app?vid=79b76398-f4aa-422b-b325-2360d07a8784"},"vehicle_type_id":"4","last_reported":1731849335,"current_range_meters":38800,"station_id":"ce4bhr92rcd13ifvqhsg","pricing_plan_id":"cebpf4jnsgd1na2vs0mg"},{"bike_id":"db6ae46a-aac6-491d-bafb-4af2e2a9615f","system_id":"levelo_inurba_marseille","lat":43.28704,"lon":5.39994,"is_reserved":false,"is_disabled":false,"rental_uris":{"android":"levelo://app?vid=db6ae46a-aac6-491d-bafb-4af2e2a9615f","ios":"levelo://app?vid=db6ae46a-aac6-491d-bafb-4af2e2a9615f"},"vehicle_type_id":"4","last_reported":1731849335,"current_range_meters":36000,"station_id":"ce4bho92rcd13ifvqh3g","pricing_plan_id":"cebpf4jnsgd1na2vs0mg"},{"bike_id":"9c601093-fd04-4d74-8d86-a54aa07b1baf","system_id":"levelo_inurba_marseille","lat":43.22932,"lon":5.35376,"is_reserved":false,"is_disabled":false,"rental_uris":{"android":"levelo://app?vid=9c601093-fd04-4d74-8d86-a54aa07b1baf","ios":"levelo://app?vid=9c601093-fd04-4d74-8d86-a54aa07b1baf"},"vehicle_type_id":"4","last_reported":1731849335,"current_range_meters":12000,"station_id":"cpo3532slgdg3j2ikp40","pricing_plan_id":"cebpf4jnsgd1na2vs0mg"},{"bike_id":"4ee5d56f-aefb-4679-8c62-4b56996aa250","system_id":"levelo_inurba_marseille","lat":43.266785,"lon":5.382746,"is_reserved":false,"is_disabled":false,"rental_uris":{"android":"levelo://app?vid=4ee5d56f-aefb-4679-8c62-4b56996aa250","ios":"levelo://app?vid=4ee5d56f-aefb-4679-8c62-4b56996aa250"},"vehicle_type_id":"4","last_reported":1731849335,"current_range_meters":38400,"station_id":"ce4bhg92rcd13ifvqf90","pricing_plan_id":"cebpf4jnsgd1na2vs0mg"},{"bike_id":"b4c800fc-c954-45c7-a98d-14436c535dfe","system_id":"levelo_inurba_marseille","lat":43.27386,"lon":5.36259,"is_reserved":false,"is_disabled":false,"rental_uris":{"android":"levelo://app?vid=b4c800fc-c954-45c7-a98d-14436c535dfe","ios":"levelo://app?vid=b4c800fc-c954-45c7-a98d-14436c535dfe"},"vehicle_type_id":"4","last_reported":1731849335,"current_range_meters":38800,"station_id":"ce4bhbh2rcd13ifvqeo0","pricing_plan_id":"cebpf4jnsgd1na2vs0mg"},{"bike_id":"a14fa574-a22c-4737-8303-cf5d536f7e4a","system_id":"levelo_inurba_marseille","lat":43.31892,"lon":5.4074,"is_reserved":false,"is_disabled":false,"rental_uris":{"android":"levelo://app?vid=a14fa574-a22c-4737-8303-cf5d536f7e4a","ios":"levelo://app?vid=a14fa574-a22c-4737-8303-cf5d536f7e4a"},"vehicle_type_id":"4","last_reported":1731849335,"current_range_meters":30000,"station_id":"ce4bhq12rcd13ifvqhig","pricing_plan_id":"cebpf4jnsgd1na2vs0mg"},{"bike_id":"02334991-4a02-4455-b155-9bf3e19178c9","system_id":"levelo_inurba_marseille","lat":43.28461,"lon":5.35883,"is_reserved":false,"is_disabled":false,"rental_uris":{"android":"levelo://app?vid=02334991-4a02-4455-b155-9bf3e19178c9","ios":"levelo://app?vid=02334991-4a02-4455-b155-9bf3e19178c9"},"vehicle_type_id":"4","last_reported":1731849335,"current_range_meters":16800,"station_id":"ce4bhah2rcd13ifvqei0","pricing_plan_id":"cebpf4jnsgd1na2vs0mg"},{"bike_id":"08d1c97a-0d58-4d3f-8bbf-f12ad9f284a1","system_id":"levelo_inurba_marseille","lat":43.24387,"lon":5.37057,"is_reserved":false,"is_disabled":false,"rental_uris":{"android":"levelo://app?vid=08d1c97a-0d58-4d3f-8bbf-f12ad9f284a1","ios":"levelo://app?vid=08d1c97a-0d58-4d3f-8bbf-f12ad9f284a1"},"vehicle_type_id":"4","last_reported":1731849335,"current_range_meters":34800,"station_id":"ce4bhhh2rcd13ifvqfk0","pricing_plan_id":"cebpf4jnsgd1na2vs0mg"},{"bike_id":"ef70b705-45b3-4614-b7cc-8482f398b820","system_id":"levelo_inurba_marseille","lat":43.27379,"lon":5.36249,"is_reserved":false,"is_disabled":false,"rental_uris":{"android":"levelo://app?vid=ef70b705-45b3-4614-b7cc-8482f398b820","ios":"levelo://app?vid=ef70b705-45b3-4614-b7cc-8482f398b820"},"vehicle_type_id":"4","last_reported":1731849335,"current_range_meters":24000,"station_id":"ce4bhbh2rcd13ifvqeo0","pricing_plan_id":"cebpf4jnsgd1na2vs0mg"},{"bike_id":"b128a8d7-7942-4d37-9966-cfc17584ff0d","system_id":"levelo_inurba_marseille","lat":43.280658,"lon":5.407776,"is_reserved":false,"is_disabled":false,"rental_uris":{"android":"levelo://app?vid=b128a8d7-7942-4d37-9966-cfc17584ff0d","ios":"levelo://app?vid=b128a8d7-7942-4d37-9966-cfc17584ff0d"},"vehicle_type_id":"4","last_reported":1731849335,"current_range_meters":13600,"station_id":"","pricing_plan_id":"cebpf4jnsgd1na2vs0mg"},{"bike_id":"78f7063c-01cd-4514-96f5-e9c548d4aba9","system_id":"levelo_inurba_marseille","lat":43.25585,"lon":5.3823,"is_reserved":false,"is_disabled":false,"rental_uris":{"android":"levelo://app?vid=78f7063c-01cd-4514-96f5-e9c548d4aba9","ios":"levelo://app?vid=78f7063c-01cd-4514-96f5-e9c548d4aba9"},"vehicle_type_id":"4","last_reported":1731849335,"current_range_meters":29600,"station_id":"ce4bhih2rcd13ifvqfs0","pricing_plan_id":"cebpf4jnsgd1na2vs0mg"},{"bike_id":"98e8f116-8e6d-44de-aa8d-307238c5688c","system_id":"levelo_inurba_marseille","lat":43.30806,"lon":5.43522,"is_reserved":false,"is_disabled":false,"rental_uris":{"android":"levelo://app?vid=98e8f116-8e6d-44de-aa8d-307238c5688c","ios":"levelo://app?vid=98e8f116-8e6d-44de-aa8d-307238c5688c"},"vehicle_type_id":"4","last_reported":1731849335,"current_range_meters":38800,"station_id":"ce4bhph2rcd13ifvqheg","pricing_plan_id":"cebpf4jnsgd1na2vs0mg"},{"bike_id":"8b8091d9-8831-4b6c-ad12-201ff8e72ec6","system_id":"levelo_inurba_marseille","lat":43.27912,"lon":5.41429,"is_reserved":false,"is_disabled":false,"rental_uris":{"android":"levelo://app?vid=8b8091d9-8831-4b6c-ad12-201ff8e72ec6","ios":"levelo://app?vid=8b8091d9-8831-4b6c-ad12-201ff8e72ec6"},"vehicle_type_id":"4","last_reported":1731849335,"current_range_meters":33600,"station_id":"","pricing_plan_id":"cebpf4jnsgd1na2vs0mg"},{"bike_id":"4218e25f-b589-4585-9802-2be2a1418d47","system_id":"levelo_inurba_marseille","lat":43.34147,"lon":5.40893,"is_reserved":false,"is_disabled":false,"rental_uris":{"android":"levelo://app?vid=4218e25f-b589-4585-9802-2be2a1418d47","ios":"levelo://app?vid=4218e25f-b589-4585-9802-2be2a1418d47"},"vehicle_type_id":"4","last_reported":1731849335,"current_range_meters":6400,"station_id":"ce4bhqh2rcd13ifvqhlg","pricing_plan_id":"cebpf4jnsgd1na2vs0mg"},{"bike_id":"80ecc7a3-56f2-48e5-8d19-ae08faabcab1","system_id":"levelo_inurba_marseille","lat":43.27617,"lon":5.36112,"is_reserved":false,"is_disabled":false,"rental_uris":{"android":"levelo://app?vid=80ecc7a3-56f2-48e5-8d19-ae08faabcab1","ios":"levelo://app?vid=80ecc7a3-56f2-48e5-8d19-ae08faabcab1"},"vehicle_type_id":"4","last_reported":1731849335,"current_range_meters":3600,"station_id":"ce4bgj92rcd13ifvqbe0","pricing_plan_id":"cebpf4jnsgd1na2vs0mg"},{"bike_id":"d2cf9a9c-293c-428b-9dee-fcd94c7df634","system_id":"levelo_inurba_marseille","lat":43.24382,"lon":5.37059,"is_reserved":false,"is_disabled":false,"rental_uris":{"android":"levelo://app?vid=d2cf9a9c-293c-428b-9dee-fcd94c7df634","ios":"levelo://app?vid=d2cf9a9c-293c-428b-9dee-fcd94c7df634"},"vehicle_type_id":"4","last_reported":1731849335,"current_range_meters":24400,"station_id":"ce4bhhh2rcd13ifvqfk0","pricing_plan_id":"cebpf4jnsgd1na2vs0mg"},{"bike_id":"75920a68-20af-4e25-8f9a-eebdafdde0c1","system_id":"levelo_inurba_marseille","lat":43.32346,"lon":5.40622,"is_reserved":false,"is_disabled":false,"rental_uris":{"android":"levelo://app?vid=75920a68-20af-4e25-8f9a-eebdafdde0c1","ios":"levelo://app?vid=75920a68-20af-4e25-8f9a-eebdafdde0c1"},"vehicle_type_id":"4","last_reported":1731849335,"current_range_meters":38000,"station_id":"ce4bhq92rcd13ifvqhjg","pricing_plan_id":"cebpf4jnsgd1na2vs0mg"},{"bike_id":"c4a638ca-4926-4626-b1a4-bc0bebd80ea1","system_id":"levelo_inurba_marseille","lat":43.25175,"lon":5.40286,"is_reserved":false,"is_disabled":false,"rental_uris":{"android":"levelo://app?vid=c4a638ca-4926-4626-b1a4-bc0bebd80ea1","ios":"levelo://app?vid=c4a638ca-4926-4626-b1a4-bc0bebd80ea1"},"vehicle_type_id":"4","last_reported":1731849335,"current_range_meters":8000,"station_id":"ce4bhlh2rcd13ifvqgig","pricing_plan_id":"cebpf4jnsgd1na2vs0mg"},{"bike_id":"23e5e119-83f6-4211-ade1-a250a82ab7db","system_id":"levelo_inurba_marseille","lat":43.22934,"lon":5.35371,"is_reserved":false,"is_disabled":false,"rental_uris":{"android":"levelo://app?vid=23e5e119-83f6-4211-ade1-a250a82ab7db","ios":"levelo://app?vid=23e5e119-83f6-4211-ade1-a250a82ab7db"},"vehicle_type_id":"4","last_reported":1731849335,"current_range_meters":16400,"station_id":"cpo3532slgdg3j2ikp40","pricing_plan_id":"cebpf4jnsgd1na2vs0mg"},{"bike_id":"0b580216-b07f-4821-a19d-686462be0488","system_id":"levelo_inurba_marseille","lat":43.22935,"lon":5.35378,"is_reserved":false,"is_disabled":false,"rental_uris":{"android":"levelo://app?vid=0b580216-b07f-4821-a19d-686462be0488","ios":"levelo://app?vid=0b580216-b07f-4821-a19d-686462be0488"},"vehicle_type_id":"4","last_reported":1731849335,"current_range_meters":36000,"station_id":"cpo3532slgdg3j2ikp40","pricing_plan_id":"cebpf4jnsgd1na2vs0mg"},{"bike_id":"01272bd5-a2c0-44b6-b76e-87cd305d9451","system_id":"levelo_inurba_marseille","lat":43.33023,"lon":5.39047,"is_reserved":false,"is_disabled":false,"rental_uris":{"android":"levelo://app?vid=01272bd5-a2c0-44b6-b76e-87cd305d9451","ios":"levelo://app?vid=01272bd5-a2c0-44b6-b76e-87cd305d9451"},"vehicle_type_id":"4","last_reported":1731849335,"current_range_meters":16000,"station_id":"ce4bhr92rcd13ifvqhrg","pricing_plan_id":"cebpf4jnsgd1na2vs0mg"},{"bike_id":"1cb51c47-9458-4994-9723-e06390aa92af","system_id":"levelo_inurba_marseille","lat":43.24805,"lon":5.37457,"is_reserved":false,"is_disabled":false,"rental_uris":{"android":"levelo://app?vid=1cb51c47-9458-4994-9723-e06390aa92af","ios":"levelo://app?vid=1cb51c47-9458-4994-9723-e06390aa92af"},"vehicle_type_id":"4","last_reported":1731849335,"current_range_meters":38400,"station_id":"ce4bhgh2rcd13ifvqfb0","pricing_plan_id":"cebpf4jnsgd1na2vs0mg"},{"bike_id":"4138345b-cc1d-40b0-8916-e8013770729a","system_id":"levelo_inurba_marseille","lat":43.24644,"lon":5.3889,"is_reserved":false,"is_disabled":false,"rental_uris":{"android":"levelo://app?vid=4138345b-cc1d-40b0-8916-e8013770729a","ios":"levelo://app?vid=4138345b-cc1d-40b0-8916-e8013770729a"},"vehicle_type_id":"4","last_reported":1731849335,"current_range_meters":36400,"station_id":"ce4bhg12rcd13ifvqf60","pricing_plan_id":"cebpf4jnsgd1na2vs0mg"},{"bike_id":"8c3d8b37-bf53-4950-b9f2-d06c5a20a81d","system_id":"levelo_inurba_marseille","lat":43.27561,"lon":5.38423,"is_reserved":false,"is_disabled":false,"rental_uris":{"android":"levelo://app?vid=8c3d8b37-bf53-4950-b9f2-d06c5a20a81d","ios":"levelo://app?vid=8c3d8b37-bf53-4950-b9f2-d06c5a20a81d"},"vehicle_type_id":"4","last_reported":1731849335,"current_range_meters":36000,"station_id":"","pricing_plan_id":"cebpf4jnsgd1na2vs0mg"},{"bike_id":"d332e933-cded-40f1-a449-8f27d433e53d","system_id":"levelo_inurba_marseille","lat":43.28412,"lon":5.34994,"is_reserved":false,"is_disabled":false,"rental_uris":{"android":"levelo://app?vid=d332e933-cded-40f1-a449-8f27d433e53d","ios":"levelo://app?vid=d332e933-cded-40f1-a449-8f27d433e53d"},"vehicle_type_id":"4","last_reported":1731849335,"current_range_meters":39200,"station_id":"ce4bhbh2rcd13ifvqepg","pricing_plan_id":"cebpf4jnsgd1na2vs0mg"},{"bike_id":"10473ae9-343a-42a2-916b-9f1475a0a3bc","system_id":"levelo_inurba_marseille","lat":43.23962,"lon":5.36626,"is_reserved":false,"is_disabled":false,"rental_uris":{"android":"levelo://app?vid=10473ae9-343a-42a2-916b-9f1475a0a3bc","ios":"levelo://app?vid=10473ae9-343a-42a2-916b-9f1475a0a3bc"},"vehicle_type_id":"4","last_reported":1731849335,"current_range_meters":28000,"station_id":"ce4bhi12rcd13ifvqfp0","pricing_plan_id":"cebpf4jnsgd1na2vs0mg"},{"bike_id":"e917a3de-9938-4eb3-a3a9-f706fe2dbd78","system_id":"levelo_inurba_marseille","lat":43.2937,"lon":5.37854,"is_reserved":false,"is_disabled":false,"rental_uris":{"android":"levelo://app?vid=e917a3de-9938-4eb3-a3a9-f706fe2dbd78","ios":"levelo://app?vid=e917a3de-9938-4eb3-a3a9-f706fe2dbd78"},"vehicle_type_id":"4","last_reported":1731849335,"current_range_meters":3600,"station_id":"ce4bgjh2rcd13ifvqbf0","pricing_plan_id":"cebpf4jnsgd1na2vs0mg"},{"bike_id":"87119aad-ad8b-4504-8d03-d8d8d5751481","system_id":"levelo_inurba_marseille","lat":43.27911,"lon":5.41218,"is_reserved":false,"is_disabled":false,"rental_uris":{"android":"levelo://app?vid=87119aad-ad8b-4504-8d03-d8d8d5751481","ios":"levelo://app?vid=87119aad-ad8b-4504-8d03-d8d8d5751481"},"vehicle_type_id":"4","last_reported":1731849335,"current_range_meters":23200,"station_id":"","pricing_plan_id":"cebpf4jnsgd1na2vs0mg"},{"bike_id":"e46885b8-a6d7-44d2-85c2-281015e687a1","system_id":"levelo_inurba_marseille","lat":43.29832,"lon":5.38112,"is_reserved":false,"is_disabled":false,"rental_uris":{"android":"levelo://app?vid=e46885b8-a6d7-44d2-85c2-281015e687a1","ios":"levelo://app?vid=e46885b8-a6d7-44d2-85c2-281015e687a1"},"vehicle_type_id":"4","last_reported":1731849335,"current_range_meters":27200,"station_id":"","pricing_plan_id":"cebpf4jnsgd1na2vs0mg"},{"bike_id":"ba57f1ef-3fbb-4816-9e62-2e0737689f5e","system_id":"levelo_inurba_marseille","lat":43.33615,"lon":5.41028,"is_reserved":false,"is_disabled":false,"rental_uris":{"android":"levelo://app?vid=ba57f1ef-3fbb-4816-9e62-2e0737689f5e","ios":"levelo://app?vid=ba57f1ef-3fbb-4816-9e62-2e0737689f5e"},"vehicle_type_id":"4","last_reported":1731849335,"current_range_meters":40000,"station_id":"ce4bhqh2rcd13ifvqhmg","pricing_plan_id":"cebpf4jnsgd1na2vs0mg"},{"bike_id":"ead56c92-86d0-4466-a013-d436366a0175","system_id":"levelo_inurba_marseille","lat":43.306,"lon":5.37233,"is_reserved":false,"is_disabled":false,"rental_uris":{"android":"levelo://app?vid=ead56c92-86d0-4466-a013-d436366a0175","ios":"levelo://app?vid=ead56c92-86d0-4466-a013-d436366a0175"},"vehicle_type_id":"4","last_reported":1731849335,"current_range_meters":38400,"station_id":"ce4bgqh2rcd13ifvqc4g","pricing_plan_id":"cebpf4jnsgd1na2vs0mg"},{"bike_id":"6da298a1-b1e6-4ba8-a57a-5400211d4b87","system_id":"levelo_inurba_marseille","lat":43.27997,"lon":5.41662,"is_reserved":false,"is_disabled":false,"rental_uris":{"android":"levelo://app?vid=6da298a1-b1e6-4ba8-a57a-5400211d4b87","ios":"levelo://app?vid=6da298a1-b1e6-4ba8-a57a-5400211d4b87"},"vehicle_type_id":"4","last_reported":1731849335,"current_range_meters":28400,"station_id":"ce4bho12rcd13ifvqh1g","pricing_plan_id":"cebpf4jnsgd1na2vs0mg"},{"bike_id":"db8f4ac6-fe2e-4e4a-9624-3e1abce0303f","system_id":"levelo_inurba_marseille","lat":43.23151,"lon":5.43714,"is_reserved":false,"is_disabled":false,"rental_uris":{"android":"levelo://app?vid=db8f4ac6-fe2e-4e4a-9624-3e1abce0303f","ios":"levelo://app?vid=db8f4ac6-fe2e-4e4a-9624-3e1abce0303f"},"vehicle_type_id":"4","last_reported":1731849335,"current_range_meters":23200,"station_id":"ce4bhmp2rcd13ifvqgog","pricing_plan_id":"cebpf4jnsgd1na2vs0mg"},{"bike_id":"65f5fc28-b4d5-45b2-8d39-7757b215f8c8","system_id":"levelo_inurba_marseille","lat":43.2319,"lon":5.39982,"is_reserved":false,"is_disabled":false,"rental_uris":{"android":"levelo://app?vid=65f5fc28-b4d5-45b2-8d39-7757b215f8c8","ios":"levelo://app?vid=65f5fc28-b4d5-45b2-8d39-7757b215f8c8"},"vehicle_type_id":"4","last_reported":1731849335,"current_range_meters":21600,"station_id":"ce4bhn12rcd13ifvqgqg","pricing_plan_id":"cebpf4jnsgd1na2vs0mg"},{"bike_id":"12867844-fa2a-41b2-8d74-706d4ef15909","system_id":"levelo_inurba_marseille","lat":43.33761,"lon":5.37441,"is_reserved":false,"is_disabled":false,"rental_uris":{"android":"levelo://app?vid=12867844-fa2a-41b2-8d74-706d4ef15909","ios":"levelo://app?vid=12867844-fa2a-41b2-8d74-706d4ef15909"},"vehicle_type_id":"4","last_reported":1731849335,"current_range_meters":33200,"station_id":"","pricing_plan_id":"cebpf4jnsgd1na2vs0mg"},{"bike_id":"3455c789-2e35-4152-8de0-fa613ba872df","system_id":"levelo_inurba_marseille","lat":43.32363,"lon":5.3888,"is_reserved":false,"is_disabled":false,"rental_uris":{"android":"levelo://app?vid=3455c789-2e35-4152-8de0-fa613ba872df","ios":"levelo://app?vid=3455c789-2e35-4152-8de0-fa613ba872df"},"vehicle_type_id":"4","last_reported":1731849335,"current_range_meters":32800,"station_id":"ce4bhqp2rcd13ifvqhog","pricing_plan_id":"cebpf4jnsgd1na2vs0mg"},{"bike_id":"54285122-6848-4a83-b51c-60074ddf050b","system_id":"levelo_inurba_marseille","lat":43.27379,"lon":5.36263,"is_reserved":false,"is_disabled":false,"rental_uris":{"android":"levelo://app?vid=54285122-6848-4a83-b51c-60074ddf050b","ios":"levelo://app?vid=54285122-6848-4a83-b51c-60074ddf050b"},"vehicle_type_id":"4","last_reported":1731849335,"current_range_meters":6800,"station_id":"ce4bhbh2rcd13ifvqeo0","pricing_plan_id":"cebpf4jnsgd1na2vs0mg"},{"bike_id":"a85a1cb0-a65a-4395-8fe1-d1e99257c7f5","system_id":"levelo_inurba_marseille","lat":43.2886,"lon":5.35855,"is_reserved":false,"is_disabled":false,"rental_uris":{"android":"levelo://app?vid=a85a1cb0-a65a-4395-8fe1-d1e99257c7f5","ios":"levelo://app?vid=a85a1cb0-a65a-4395-8fe1-d1e99257c7f5"},"vehicle_type_id":"4","last_reported":1731849335,"current_range_meters":14400,"station_id":"ce4bhb12rcd13ifvqem0","pricing_plan_id":"cebpf4jnsgd1na2vs0mg"},{"bike_id":"08556236-18aa-48b5-821c-02152b23fea2","system_id":"levelo_inurba_marseille","lat":43.27066,"lon":5.42275,"is_reserved":false,"is_disabled":false,"rental_uris":{"android":"levelo://app?vid=08556236-18aa-48b5-821c-02152b23fea2","ios":"levelo://app?vid=08556236-18aa-48b5-821c-02152b23fea2"},"vehicle_type_id":"4","last_reported":1731849335,"current_range_meters":16000,"station_id":"ce4bhk92rcd13ifvqgb0","pricing_plan_id":"cebpf4jnsgd1na2vs0mg"},{"bike_id":"256d5192-c2d2-4ea6-8bd0-122e7d99c9c6","system_id":"levelo_inurba_marseille","lat":43.24821,"lon":5.37456,"is_reserved":false,"is_disabled":false,"rental_uris":{"android":"levelo://app?vid=256d5192-c2d2-4ea6-8bd0-122e7d99c9c6","ios":"levelo://app?vid=256d5192-c2d2-4ea6-8bd0-122e7d99c9c6"},"vehicle_type_id":"4","last_reported":1731849335,"current_range_meters":38800,"station_id":"ce4bhgh2rcd13ifvqfb0","pricing_plan_id":"cebpf4jnsgd1na2vs0mg"},{"bike_id":"10808265-c82e-4663-ad34-00454e769817","system_id":"levelo_inurba_marseille","lat":43.23195,"lon":5.39988,"is_reserved":false,"is_disabled":false,"rental_uris":{"android":"levelo://app?vid=10808265-c82e-4663-ad34-00454e769817","ios":"levelo://app?vid=10808265-c82e-4663-ad34-00454e769817"},"vehicle_type_id":"4","last_reported":1731849335,"current_range_meters":30800,"station_id":"ce4bhn12rcd13ifvqgqg","pricing_plan_id":"cebpf4jnsgd1na2vs0mg"},{"bike_id":"92b70b63-9f66-4c95-94f3-3cec1871b5d3","system_id":"levelo_inurba_marseille","lat":43.2314,"lon":5.43699,"is_reserved":false,"is_disabled":false,"rental_uris":{"android":"levelo://app?vid=92b70b63-9f66-4c95-94f3-3cec1871b5d3","ios":"levelo://app?vid=92b70b63-9f66-4c95-94f3-3cec1871b5d3"},"vehicle_type_id":"4","last_reported":1731849335,"current_range_meters":32400,"station_id":"ce4bhmp2rcd13ifvqgog","pricing_plan_id":"cebpf4jnsgd1na2vs0mg"},{"bike_id":"a2ee7dbc-d1b6-4413-9a11-2a8b055874d2","system_id":"levelo_inurba_marseille","lat":43.30145,"lon":5.37426,"is_reserved":false,"is_disabled":false,"rental_uris":{"android":"levelo://app?vid=a2ee7dbc-d1b6-4413-9a11-2a8b055874d2","ios":"levelo://app?vid=a2ee7dbc-d1b6-4413-9a11-2a8b055874d2"},"vehicle_type_id":"4","last_reported":1731849335,"current_range_meters":24000,"station_id":"ce4bgs92rcd13ifvqcc0","pricing_plan_id":"cebpf4jnsgd1na2vs0mg"},{"bike_id":"ef14df2e-76a6-4463-9e17-7726d237e6a7","system_id":"levelo_inurba_marseille","lat":43.336096,"lon":5.410298,"is_reserved":false,"is_disabled":false,"rental_uris":{"android":"levelo://app?vid=ef14df2e-76a6-4463-9e17-7726d237e6a7","ios":"levelo://app?vid=ef14df2e-76a6-4463-9e17-7726d237e6a7"},"vehicle_type_id":"4","last_reported":1731849335,"current_range_meters":40000,"station_id":"ce4bhqh2rcd13ifvqhmg","pricing_plan_id":"cebpf4jnsgd1na2vs0mg"},{"bike_id":"d19bbd7c-673f-4ee0-ab8c-9882f30f2ec9","system_id":"levelo_inurba_marseille","lat":43.24804,"lon":5.37454,"is_reserved":false,"is_disabled":false,"rental_uris":{"android":"levelo://app?vid=d19bbd7c-673f-4ee0-ab8c-9882f30f2ec9","ios":"levelo://app?vid=d19bbd7c-673f-4ee0-ab8c-9882f30f2ec9"},"vehicle_type_id":"4","last_reported":1731849335,"current_range_meters":38800,"station_id":"ce4bhgh2rcd13ifvqfb0","pricing_plan_id":"cebpf4jnsgd1na2vs0mg"},{"bike_id":"993343aa-e73c-48de-b7e9-d56262a76d1d","system_id":"levelo_inurba_marseille","lat":43.29898,"lon":5.43663,"is_reserved":false,"is_disabled":false,"rental_uris":{"android":"levelo://app?vid=993343aa-e73c-48de-b7e9-d56262a76d1d","ios":"levelo://app?vid=993343aa-e73c-48de-b7e9-d56262a76d1d"},"vehicle_type_id":"4","last_reported":1731849335,"current_range_meters":32000,"station_id":"ce4bhpp2rcd13ifvqhfg","pricing_plan_id":"cebpf4jnsgd1na2vs0mg"},{"bike_id":"f3c2c3fe-2caa-4c62-a831-2cfeca2e0124","system_id":"levelo_inurba_marseille","lat":43.22935,"lon":5.35376,"is_reserved":false,"is_disabled":false,"rental_uris":{"android":"levelo://app?vid=f3c2c3fe-2caa-4c62-a831-2cfeca2e0124","ios":"levelo://app?vid=f3c2c3fe-2caa-4c62-a831-2cfeca2e0124"},"vehicle_type_id":"4","last_reported":1731849335,"current_range_meters":14000,"station_id":"cpo3532slgdg3j2ikp40","pricing_plan_id":"cebpf4jnsgd1na2vs0mg"},{"bike_id":"38e33bd0-0e14-412a-a4d9-b42be319fb38","system_id":"levelo_inurba_marseille","lat":43.23965,"lon":5.36628,"is_reserved":false,"is_disabled":false,"rental_uris":{"android":"levelo://app?vid=38e33bd0-0e14-412a-a4d9-b42be319fb38","ios":"levelo://app?vid=38e33bd0-0e14-412a-a4d9-b42be319fb38"},"vehicle_type_id":"4","last_reported":1731849335,"current_range_meters":38000,"station_id":"ce4bhi12rcd13ifvqfp0","pricing_plan_id":"cebpf4jnsgd1na2vs0mg"},{"bike_id":"6a00dd81-f496-4486-aae9-67ff1cc715bf","system_id":"levelo_inurba_marseille","lat":43.28425,"lon":5.34992,"is_reserved":false,"is_disabled":false,"rental_uris":{"android":"levelo://app?vid=6a00dd81-f496-4486-aae9-67ff1cc715bf","ios":"levelo://app?vid=6a00dd81-f496-4486-aae9-67ff1cc715bf"},"vehicle_type_id":"4","last_reported":1731849335,"current_range_meters":30000,"station_id":"ce4bhbh2rcd13ifvqepg","pricing_plan_id":"cebpf4jnsgd1na2vs0mg"},{"bike_id":"d3d1a021-8d34-46bf-991f-81a9d4ee1d5f","system_id":"levelo_inurba_marseille","lat":43.28272,"lon":5.35078,"is_reserved":false,"is_disabled":false,"rental_uris":{"android":"levelo://app?vid=d3d1a021-8d34-46bf-991f-81a9d4ee1d5f","ios":"levelo://app?vid=d3d1a021-8d34-46bf-991f-81a9d4ee1d5f"},"vehicle_type_id":"4","last_reported":1731849335,"current_range_meters":19200,"station_id":"ce4bhbp2rcd13ifvqerg","pricing_plan_id":"cebpf4jnsgd1na2vs0mg"},{"bike_id":"4ee2f4a1-7fd4-4370-8853-b466e57cd77c","system_id":"levelo_inurba_marseille","lat":43.280365,"lon":5.369381,"is_reserved":false,"is_disabled":false,"rental_uris":{"android":"levelo://app?vid=4ee2f4a1-7fd4-4370-8853-b466e57cd77c","ios":"levelo://app?vid=4ee2f4a1-7fd4-4370-8853-b466e57cd77c"},"vehicle_type_id":"4","last_reported":1731849335,"current_range_meters":31200,"station_id":"","pricing_plan_id":"cebpf4jnsgd1na2vs0mg"},{"bike_id":"4d1d3d38-991e-4c17-8584-7855e989ce14","system_id":"levelo_inurba_marseille","lat":43.22933,"lon":5.35375,"is_reserved":false,"is_disabled":false,"rental_uris":{"android":"levelo://app?vid=4d1d3d38-991e-4c17-8584-7855e989ce14","ios":"levelo://app?vid=4d1d3d38-991e-4c17-8584-7855e989ce14"},"vehicle_type_id":"4","last_reported":1731849335,"current_range_meters":8000,"station_id":"cpo3532slgdg3j2ikp40","pricing_plan_id":"cebpf4jnsgd1na2vs0mg"},{"bike_id":"5b3faca4-d3aa-4f9a-a2df-bca962917db3","system_id":"levelo_inurba_marseille","lat":43.23964,"lon":5.3663,"is_reserved":false,"is_disabled":false,"rental_uris":{"android":"levelo://app?vid=5b3faca4-d3aa-4f9a-a2df-bca962917db3","ios":"levelo://app?vid=5b3faca4-d3aa-4f9a-a2df-bca962917db3"},"vehicle_type_id":"4","last_reported":1731849335,"current_range_meters":18800,"station_id":"ce4bhi12rcd13ifvqfp0","pricing_plan_id":"cebpf4jnsgd1na2vs0mg"},{"bike_id":"da510949-3fab-4748-9c86-243b588791a3","system_id":"levelo_inurba_marseille","lat":43.2842,"lon":5.34997,"is_reserved":false,"is_disabled":false,"rental_uris":{"android":"levelo://app?vid=da510949-3fab-4748-9c86-243b588791a3","ios":"levelo://app?vid=da510949-3fab-4748-9c86-243b588791a3"},"vehicle_type_id":"4","last_reported":1731849335,"current_range_meters":38800,"station_id":"ce4bhbh2rcd13ifvqepg","pricing_plan_id":"cebpf4jnsgd1na2vs0mg"},{"bike_id":"9f92a7ac-738d-40f9-93b9-933c1f0ff525","system_id":"levelo_inurba_marseille","lat":43.32361,"lon":5.38885,"is_reserved":false,"is_disabled":false,"rental_uris":{"android":"levelo://app?vid=9f92a7ac-738d-40f9-93b9-933c1f0ff525","ios":"levelo://app?vid=9f92a7ac-738d-40f9-93b9-933c1f0ff525"},"vehicle_type_id":"4","last_reported":1731849335,"current_range_meters":19200,"station_id":"ce4bhqp2rcd13ifvqhog","pricing_plan_id":"cebpf4jnsgd1na2vs0mg"},{"bike_id":"718e2867-8f79-439a-9f4c-954662430a38","system_id":"levelo_inurba_marseille","lat":43.28248,"lon":5.35076,"is_reserved":false,"is_disabled":false,"rental_uris":{"android":"levelo://app?vid=718e2867-8f79-439a-9f4c-954662430a38","ios":"levelo://app?vid=718e2867-8f79-439a-9f4c-954662430a38"},"vehicle_type_id":"4","last_reported":1731849335,"current_range_meters":29600,"station_id":"ce4bhbp2rcd13ifvqerg","pricing_plan_id":"cebpf4jnsgd1na2vs0mg"},{"bike_id":"4b65d93a-a2e2-4e4e-a517-b94c00e506f8","system_id":"levelo_inurba_marseille","lat":43.30804,"lon":5.43529,"is_reserved":false,"is_disabled":false,"rental_uris":{"android":"levelo://app?vid=4b65d93a-a2e2-4e4e-a517-b94c00e506f8","ios":"levelo://app?vid=4b65d93a-a2e2-4e4e-a517-b94c00e506f8"},"vehicle_type_id":"4","last_reported":1731849335,"current_range_meters":6000,"station_id":"ce4bhph2rcd13ifvqheg","pricing_plan_id":"cebpf4jnsgd1na2vs0mg"},{"bike_id":"b117ce81-ae91-4466-bc7d-09a9b54c6f00","system_id":"levelo_inurba_marseille","lat":43.23185,"lon":5.39984,"is_reserved":false,"is_disabled":false,"rental_uris":{"android":"levelo://app?vid=b117ce81-ae91-4466-bc7d-09a9b54c6f00","ios":"levelo://app?vid=b117ce81-ae91-4466-bc7d-09a9b54c6f00"},"vehicle_type_id":"4","last_reported":1731849335,"current_range_meters":11200,"station_id":"ce4bhn12rcd13ifvqgqg","pricing_plan_id":"cebpf4jnsgd1na2vs0mg"},{"bike_id":"045653a8-c6fa-46ea-8e61-dd2aa7e11e12","system_id":"levelo_inurba_marseille","lat":43.28415,"lon":5.34985,"is_reserved":false,"is_disabled":false,"rental_uris":{"android":"levelo://app?vid=045653a8-c6fa-46ea-8e61-dd2aa7e11e12","ios":"levelo://app?vid=045653a8-c6fa-46ea-8e61-dd2aa7e11e12"},"vehicle_type_id":"4","last_reported":1731849335,"current_range_meters":38800,"station_id":"ce4bhbh2rcd13ifvqepg","pricing_plan_id":"cebpf4jnsgd1na2vs0mg"},{"bike_id":"b3d1a019-11b3-49b1-bcbc-3424559a09cf","system_id":"levelo_inurba_marseille","lat":43.24798,"lon":5.37461,"is_reserved":false,"is_disabled":false,"rental_uris":{"android":"levelo://app?vid=b3d1a019-11b3-49b1-bcbc-3424559a09cf","ios":"levelo://app?vid=b3d1a019-11b3-49b1-bcbc-3424559a09cf"},"vehicle_type_id":"4","last_reported":1731849335,"current_range_meters":14000,"station_id":"ce4bhgh2rcd13ifvqfb0","pricing_plan_id":"cebpf4jnsgd1na2vs0mg"},{"bike_id":"8ececd69-9dd7-4454-8800-2ed6cafdfac6","system_id":"levelo_inurba_marseille","lat":43.28424,"lon":5.34991,"is_reserved":false,"is_disabled":false,"rental_uris":{"android":"levelo://app?vid=8ececd69-9dd7-4454-8800-2ed6cafdfac6","ios":"levelo://app?vid=8ececd69-9dd7-4454-8800-2ed6cafdfac6"},"vehicle_type_id":"4","last_reported":1731849335,"current_range_meters":32800,"station_id":"ce4bhbh2rcd13ifvqepg","pricing_plan_id":"cebpf4jnsgd1na2vs0mg"},{"bike_id":"d05cb25d-5cda-4578-b514-7abfed72eee5","system_id":"levelo_inurba_marseille","lat":43.30272,"lon":5.37717,"is_reserved":false,"is_disabled":false,"rental_uris":{"android":"levelo://app?vid=d05cb25d-5cda-4578-b514-7abfed72eee5","ios":"levelo://app?vid=d05cb25d-5cda-4578-b514-7abfed72eee5"},"vehicle_type_id":"4","last_reported":1731849335,"current_range_meters":10800,"station_id":"ce4bguh2rcd13ifvqcj0","pricing_plan_id":"cebpf4jnsgd1na2vs0mg"},{"bike_id":"4f01fa73-c9c0-4fc0-986b-b2a94d270e4a","system_id":"levelo_inurba_marseille","lat":43.302519,"lon":5.400883,"is_reserved":false,"is_disabled":false,"rental_uris":{"android":"levelo://app?vid=4f01fa73-c9c0-4fc0-986b-b2a94d270e4a","ios":"levelo://app?vid=4f01fa73-c9c0-4fc0-986b-b2a94d270e4a"},"vehicle_type_id":"4","last_reported":1731849335,"current_range_meters":9600,"station_id":"ce4bgvh2rcd13ifvqcs0","pricing_plan_id":"cebpf4jnsgd1na2vs0mg"},{"bike_id":"6d757fef-4f26-43f9-ac2c-ffab39bf7dae","system_id":"levelo_inurba_marseille","lat":43.32249,"lon":5.36901,"is_reserved":false,"is_disabled":false,"rental_uris":{"android":"levelo://app?vid=6d757fef-4f26-43f9-ac2c-ffab39bf7dae","ios":"levelo://app?vid=6d757fef-4f26-43f9-ac2c-ffab39bf7dae"},"vehicle_type_id":"4","last_reported":1731849335,"current_range_meters":15200,"station_id":"","pricing_plan_id":"cebpf4jnsgd1na2vs0mg"},{"bike_id":"2067b9ef-baf9-43eb-a135-d35fd1d7d2c0","system_id":"levelo_inurba_marseille","lat":43.29558,"lon":5.4229,"is_reserved":false,"is_disabled":false,"rental_uris":{"android":"levelo://app?vid=2067b9ef-baf9-43eb-a135-d35fd1d7d2c0","ios":"levelo://app?vid=2067b9ef-baf9-43eb-a135-d35fd1d7d2c0"},"vehicle_type_id":"4","last_reported":1731849335,"current_range_meters":38800,"station_id":"ce4bhph2rcd13ifvqhdg","pricing_plan_id":"cebpf4jnsgd1na2vs0mg"},{"bike_id":"714946d8-c55b-43da-bca7-7fe6c4b9a169","system_id":"levelo_inurba_marseille","lat":43.28279,"lon":5.35084,"is_reserved":false,"is_disabled":false,"rental_uris":{"android":"levelo://app?vid=714946d8-c55b-43da-bca7-7fe6c4b9a169","ios":"levelo://app?vid=714946d8-c55b-43da-bca7-7fe6c4b9a169"},"vehicle_type_id":"4","last_reported":1731849335,"current_range_meters":24000,"station_id":"ce4bhbp2rcd13ifvqerg","pricing_plan_id":"cebpf4jnsgd1na2vs0mg"},{"bike_id":"f0a0534f-534d-42ab-a141-f3c88cf1bf12","system_id":"levelo_inurba_marseille","lat":43.27069,"lon":5.42285,"is_reserved":false,"is_disabled":false,"rental_uris":{"android":"levelo://app?vid=f0a0534f-534d-42ab-a141-f3c88cf1bf12","ios":"levelo://app?vid=f0a0534f-534d-42ab-a141-f3c88cf1bf12"},"vehicle_type_id":"4","last_reported":1731849335,"current_range_meters":30400,"station_id":"ce4bhk92rcd13ifvqgb0","pricing_plan_id":"cebpf4jnsgd1na2vs0mg"},{"bike_id":"9019691b-44d5-45db-bab4-7844df315a59","system_id":"levelo_inurba_marseille","lat":43.31082,"lon":5.4243,"is_reserved":false,"is_disabled":false,"rental_uris":{"android":"levelo://app?vid=9019691b-44d5-45db-bab4-7844df315a59","ios":"levelo://app?vid=9019691b-44d5-45db-bab4-7844df315a59"},"vehicle_type_id":"4","last_reported":1731849335,"current_range_meters":28800,"station_id":"ce4bhp92rcd13ifvqhag","pricing_plan_id":"cebpf4jnsgd1na2vs0mg"},{"bike_id":"7853a95f-d80e-4606-aec7-c21851e6c388","system_id":"levelo_inurba_marseille","lat":43.24648,"lon":5.38893,"is_reserved":false,"is_disabled":false,"rental_uris":{"android":"levelo://app?vid=7853a95f-d80e-4606-aec7-c21851e6c388","ios":"levelo://app?vid=7853a95f-d80e-4606-aec7-c21851e6c388"},"vehicle_type_id":"4","last_reported":1731849335,"current_range_meters":3600,"station_id":"ce4bhg12rcd13ifvqf60","pricing_plan_id":"cebpf4jnsgd1na2vs0mg"},{"bike_id":"176dfcf1-dbb1-46ba-bb5a-0e8c5c06d0fe","system_id":"levelo_inurba_marseille","lat":43.23961,"lon":5.36635,"is_reserved":false,"is_disabled":false,"rental_uris":{"android":"levelo://app?vid=176dfcf1-dbb1-46ba-bb5a-0e8c5c06d0fe","ios":"levelo://app?vid=176dfcf1-dbb1-46ba-bb5a-0e8c5c06d0fe"},"vehicle_type_id":"4","last_reported":1731849335,"current_range_meters":6400,"station_id":"ce4bhi12rcd13ifvqfp0","pricing_plan_id":"cebpf4jnsgd1na2vs0mg"},{"bike_id":"d12d8022-b6ff-43a1-aeec-958267421e03","system_id":"levelo_inurba_marseille","lat":43.33026,"lon":5.39042,"is_reserved":false,"is_disabled":false,"rental_uris":{"android":"levelo://app?vid=d12d8022-b6ff-43a1-aeec-958267421e03","ios":"levelo://app?vid=d12d8022-b6ff-43a1-aeec-958267421e03"},"vehicle_type_id":"4","last_reported":1731849335,"current_range_meters":17200,"station_id":"ce4bhr92rcd13ifvqhrg","pricing_plan_id":"cebpf4jnsgd1na2vs0mg"},{"bike_id":"710598eb-e828-44dd-8989-d114ed0e0d04","system_id":"levelo_inurba_marseille","lat":43.27383,"lon":5.36259,"is_reserved":false,"is_disabled":false,"rental_uris":{"android":"levelo://app?vid=710598eb-e828-44dd-8989-d114ed0e0d04","ios":"levelo://app?vid=710598eb-e828-44dd-8989-d114ed0e0d04"},"vehicle_type_id":"4","last_reported":1731849335,"current_range_meters":32800,"station_id":"ce4bhbh2rcd13ifvqeo0","pricing_plan_id":"cebpf4jnsgd1na2vs0mg"},{"bike_id":"7cbc0d0c-ebbf-4c98-9d9d-f671d4f3cf07","system_id":"levelo_inurba_marseille","lat":43.292758,"lon":5.368494,"is_reserved":false,"is_disabled":false,"rental_uris":{"android":"levelo://app?vid=7cbc0d0c-ebbf-4c98-9d9d-f671d4f3cf07","ios":"levelo://app?vid=7cbc0d0c-ebbf-4c98-9d9d-f671d4f3cf07"},"vehicle_type_id":"4","last_reported":1731849335,"current_range_meters":6800,"station_id":"ce4bhbp2rcd13ifvqesg","pricing_plan_id":"cebpf4jnsgd1na2vs0mg"},{"bike_id":"9b255d94-ee94-41ce-968c-16898d9f52f3","system_id":"levelo_inurba_marseille","lat":43.23962,"lon":5.36632,"is_reserved":false,"is_disabled":false,"rental_uris":{"android":"levelo://app?vid=9b255d94-ee94-41ce-968c-16898d9f52f3","ios":"levelo://app?vid=9b255d94-ee94-41ce-968c-16898d9f52f3"},"vehicle_type_id":"4","last_reported":1731849335,"current_range_meters":38400,"station_id":"ce4bhi12rcd13ifvqfp0","pricing_plan_id":"cebpf4jnsgd1na2vs0mg"},{"bike_id":"b2d76ad7-2c5e-4a33-90f7-d80d4b37e1b3","system_id":"levelo_inurba_marseille","lat":43.2481,"lon":5.37461,"is_reserved":false,"is_disabled":false,"rental_uris":{"android":"levelo://app?vid=b2d76ad7-2c5e-4a33-90f7-d80d4b37e1b3","ios":"levelo://app?vid=b2d76ad7-2c5e-4a33-90f7-d80d4b37e1b3"},"vehicle_type_id":"4","last_reported":1731849335,"current_range_meters":19200,"station_id":"ce4bhgh2rcd13ifvqfb0","pricing_plan_id":"cebpf4jnsgd1na2vs0mg"},{"bike_id":"e71534c5-e937-41b4-81f3-4d7c6197ead1","system_id":"levelo_inurba_marseille","lat":43.33618,"lon":5.41025,"is_reserved":false,"is_disabled":false,"rental_uris":{"android":"levelo://app?vid=e71534c5-e937-41b4-81f3-4d7c6197ead1","ios":"levelo://app?vid=e71534c5-e937-41b4-81f3-4d7c6197ead1"},"vehicle_type_id":"4","last_reported":1731849335,"current_range_meters":32000,"station_id":"ce4bhqh2rcd13ifvqhmg","pricing_plan_id":"cebpf4jnsgd1na2vs0mg"},{"bike_id":"ae335726-259a-4375-8971-887bdf305583","system_id":"levelo_inurba_marseille","lat":43.27479,"lon":5.4246,"is_reserved":false,"is_disabled":false,"rental_uris":{"android":"levelo://app?vid=ae335726-259a-4375-8971-887bdf305583","ios":"levelo://app?vid=ae335726-259a-4375-8971-887bdf305583"},"vehicle_type_id":"4","last_reported":1731849335,"current_range_meters":28400,"station_id":"ce4bhn92rcd13ifvqgrg","pricing_plan_id":"cebpf4jnsgd1na2vs0mg"},{"bike_id":"55de28cf-e37c-4724-b81f-8a648780c5b9","system_id":"levelo_inurba_marseille","lat":43.23192,"lon":5.35555,"is_reserved":false,"is_disabled":false,"rental_uris":{"android":"levelo://app?vid=55de28cf-e37c-4724-b81f-8a648780c5b9","ios":"levelo://app?vid=55de28cf-e37c-4724-b81f-8a648780c5b9"},"vehicle_type_id":"4","last_reported":1731849335,"current_range_meters":36000,"station_id":"ce4bhu92rcd13ifvqi70","pricing_plan_id":"cebpf4jnsgd1na2vs0mg"},{"bike_id":"38b6686b-9d25-4d61-9dcd-68673686b18e","system_id":"levelo_inurba_marseille","lat":43.28156,"lon":5.42645,"is_reserved":false,"is_disabled":false,"rental_uris":{"android":"levelo://app?vid=38b6686b-9d25-4d61-9dcd-68673686b18e","ios":"levelo://app?vid=38b6686b-9d25-4d61-9dcd-68673686b18e"},"vehicle_type_id":"4","last_reported":1731849335,"current_range_meters":33200,"station_id":"ce4bhnh2rcd13ifvqgug","pricing_plan_id":"cebpf4jnsgd1na2vs0mg"},{"bike_id":"7245d2c8-9d9b-4dd8-8250-17f59054ed97","system_id":"levelo_inurba_marseille","lat":43.29895,"lon":5.43666,"is_reserved":false,"is_disabled":false,"rental_uris":{"android":"levelo://app?vid=7245d2c8-9d9b-4dd8-8250-17f59054ed97","ios":"levelo://app?vid=7245d2c8-9d9b-4dd8-8250-17f59054ed97"},"vehicle_type_id":"4","last_reported":1731849335,"current_range_meters":36800,"station_id":"ce4bhpp2rcd13ifvqhfg","pricing_plan_id":"cebpf4jnsgd1na2vs0mg"},{"bike_id":"4f657f8c-73f3-4511-b588-be266ac1a927","system_id":"levelo_inurba_marseille","lat":43.22933,"lon":5.35376,"is_reserved":false,"is_disabled":false,"rental_uris":{"android":"levelo://app?vid=4f657f8c-73f3-4511-b588-be266ac1a927","ios":"levelo://app?vid=4f657f8c-73f3-4511-b588-be266ac1a927"},"vehicle_type_id":"4","last_reported":1731849335,"current_range_meters":7200,"station_id":"cpo3532slgdg3j2ikp40","pricing_plan_id":"cebpf4jnsgd1na2vs0mg"},{"bike_id":"eff533c6-cb04-492d-bdb1-a2fd7e805724","system_id":"levelo_inurba_marseille","lat":43.27373,"lon":5.36257,"is_reserved":false,"is_disabled":false,"rental_uris":{"android":"levelo://app?vid=eff533c6-cb04-492d-bdb1-a2fd7e805724","ios":"levelo://app?vid=eff533c6-cb04-492d-bdb1-a2fd7e805724"},"vehicle_type_id":"4","last_reported":1731849335,"current_range_meters":35600,"station_id":"ce4bhbh2rcd13ifvqeo0","pricing_plan_id":"cebpf4jnsgd1na2vs0mg"},{"bike_id":"eb9a84f5-6092-4dc4-a3c0-a07efb437c77","system_id":"levelo_inurba_marseille","lat":43.33758,"lon":5.37444,"is_reserved":false,"is_disabled":false,"rental_uris":{"android":"levelo://app?vid=eb9a84f5-6092-4dc4-a3c0-a07efb437c77","ios":"levelo://app?vid=eb9a84f5-6092-4dc4-a3c0-a07efb437c77"},"vehicle_type_id":"4","last_reported":1731849335,"current_range_meters":6400,"station_id":"","pricing_plan_id":"cebpf4jnsgd1na2vs0mg"},{"bike_id":"667ffedb-2531-4f12-8101-313bb4bc8c26","system_id":"levelo_inurba_marseille","lat":43.23964,"lon":5.36632,"is_reserved":false,"is_disabled":false,"rental_uris":{"android":"levelo://app?vid=667ffedb-2531-4f12-8101-313bb4bc8c26","ios":"levelo://app?vid=667ffedb-2531-4f12-8101-313bb4bc8c26"},"vehicle_type_id":"4","last_reported":1731849335,"current_range_meters":19600,"station_id":"ce4bhi12rcd13ifvqfp0","pricing_plan_id":"cebpf4jnsgd1na2vs0mg"},{"bike_id":"22ea48db-755d-43c3-a7d2-0beff01815d8","system_id":"levelo_inurba_marseille","lat":43.337662,"lon":5.374366,"is_reserved":false,"is_disabled":false,"rental_uris":{"android":"levelo://app?vid=22ea48db-755d-43c3-a7d2-0beff01815d8","ios":"levelo://app?vid=22ea48db-755d-43c3-a7d2-0beff01815d8"},"vehicle_type_id":"4","last_reported":1731849335,"current_range_meters":8400,"station_id":"","pricing_plan_id":"cebpf4jnsgd1na2vs0mg"},{"bike_id":"e572c8c8-2c29-468a-9de9-47bf2d2e9b00","system_id":"levelo_inurba_marseille","lat":43.27489,"lon":5.42458,"is_reserved":false,"is_disabled":false,"rental_uris":{"android":"levelo://app?vid=e572c8c8-2c29-468a-9de9-47bf2d2e9b00","ios":"levelo://app?vid=e572c8c8-2c29-468a-9de9-47bf2d2e9b00"},"vehicle_type_id":"4","last_reported":1731849335,"current_range_meters":28400,"station_id":"ce4bhn92rcd13ifvqgrg","pricing_plan_id":"cebpf4jnsgd1na2vs0mg"},{"bike_id":"55f34b64-80a8-49aa-b93f-cbb31c5849b8","system_id":"levelo_inurba_marseille","lat":43.257065,"lon":5.410014,"is_reserved":false,"is_disabled":false,"rental_uris":{"android":"levelo://app?vid=55f34b64-80a8-49aa-b93f-cbb31c5849b8","ios":"levelo://app?vid=55f34b64-80a8-49aa-b93f-cbb31c5849b8"},"vehicle_type_id":"4","last_reported":1731849335,"current_range_meters":28800,"station_id":"ce4bhkp2rcd13ifvqgd0","pricing_plan_id":"cebpf4jnsgd1na2vs0mg"},{"bike_id":"a1862017-f597-4949-a306-4d7c53cc8b86","system_id":"levelo_inurba_marseille","lat":43.2417,"lon":5.364,"is_reserved":false,"is_disabled":false,"rental_uris":{"android":"levelo://app?vid=a1862017-f597-4949-a306-4d7c53cc8b86","ios":"levelo://app?vid=a1862017-f597-4949-a306-4d7c53cc8b86"},"vehicle_type_id":"4","last_reported":1731849335,"current_range_meters":8400,"station_id":"cpo36qri1sfpv3e86is0","pricing_plan_id":"cebpf4jnsgd1na2vs0mg"},{"bike_id":"4479601b-ff99-4b83-a19a-ed57665281b2","system_id":"levelo_inurba_marseille","lat":43.23061,"lon":5.35493,"is_reserved":false,"is_disabled":false,"rental_uris":{"android":"levelo://app?vid=4479601b-ff99-4b83-a19a-ed57665281b2","ios":"levelo://app?vid=4479601b-ff99-4b83-a19a-ed57665281b2"},"vehicle_type_id":"4","last_reported":1731849335,"current_range_meters":9200,"station_id":"cpo3342slgdg3j2ifvpg","pricing_plan_id":"cebpf4jnsgd1na2vs0mg"},{"bike_id":"e0b183ac-ece9-4773-9332-22fb41bebded","system_id":"levelo_inurba_marseille","lat":43.33025,"lon":5.39048,"is_reserved":false,"is_disabled":false,"rental_uris":{"android":"levelo://app?vid=e0b183ac-ece9-4773-9332-22fb41bebded","ios":"levelo://app?vid=e0b183ac-ece9-4773-9332-22fb41bebded"},"vehicle_type_id":"4","last_reported":1731849335,"current_range_meters":9200,"station_id":"ce4bhr92rcd13ifvqhrg","pricing_plan_id":"cebpf4jnsgd1na2vs0mg"},{"bike_id":"ca655f3b-8380-4045-b3f8-8acaa0e83ede","system_id":"levelo_inurba_marseille","lat":43.33739,"lon":5.37423,"is_reserved":false,"is_disabled":false,"rental_uris":{"android":"levelo://app?vid=ca655f3b-8380-4045-b3f8-8acaa0e83ede","ios":"levelo://app?vid=ca655f3b-8380-4045-b3f8-8acaa0e83ede"},"vehicle_type_id":"4","last_reported":1731849335,"current_range_meters":32800,"station_id":"","pricing_plan_id":"cebpf4jnsgd1na2vs0mg"},{"bike_id":"fc0465e7-a912-43c7-9d2b-88cb8f48d861","system_id":"levelo_inurba_marseille","lat":43.2738,"lon":5.3626,"is_reserved":false,"is_disabled":false,"rental_uris":{"android":"levelo://app?vid=fc0465e7-a912-43c7-9d2b-88cb8f48d861","ios":"levelo://app?vid=fc0465e7-a912-43c7-9d2b-88cb8f48d861"},"vehicle_type_id":"4","last_reported":1731849335,"current_range_meters":11200,"station_id":"ce4bhbh2rcd13ifvqeo0","pricing_plan_id":"cebpf4jnsgd1na2vs0mg"},{"bike_id":"a6b8c285-acc9-4039-9531-1aae39136a33","system_id":"levelo_inurba_marseille","lat":43.312042,"lon":5.367348,"is_reserved":false,"is_disabled":false,"rental_uris":{"android":"levelo://app?vid=a6b8c285-acc9-4039-9531-1aae39136a33","ios":"levelo://app?vid=a6b8c285-acc9-4039-9531-1aae39136a33"},"vehicle_type_id":"4","last_reported":1731849335,"current_range_meters":10000,"station_id":"","pricing_plan_id":"cebpf4jnsgd1na2vs0mg"},{"bike_id":"04e579be-d930-46e5-bb29-40fdc45896e1","system_id":"levelo_inurba_marseille","lat":43.32627,"lon":5.36237,"is_reserved":false,"is_disabled":false,"rental_uris":{"android":"levelo://app?vid=04e579be-d930-46e5-bb29-40fdc45896e1","ios":"levelo://app?vid=04e579be-d930-46e5-bb29-40fdc45896e1"},"vehicle_type_id":"4","last_reported":1731849335,"current_range_meters":6400,"station_id":"","pricing_plan_id":"cebpf4jnsgd1na2vs0mg"},{"bike_id":"37b940f2-53f1-40b3-bcdc-a092eab2c248","system_id":"levelo_inurba_marseille","lat":43.23957,"lon":5.36632,"is_reserved":false,"is_disabled":false,"rental_uris":{"android":"levelo://app?vid=37b940f2-53f1-40b3-bcdc-a092eab2c248","ios":"levelo://app?vid=37b940f2-53f1-40b3-bcdc-a092eab2c248"},"vehicle_type_id":"4","last_reported":1731849335,"current_range_meters":20000,"station_id":"ce4bhi12rcd13ifvqfp0","pricing_plan_id":"cebpf4jnsgd1na2vs0mg"},{"bike_id":"44feb4e5-5c87-47f5-8ecd-701b1396f673","system_id":"levelo_inurba_marseille","lat":43.26551,"lon":5.37288,"is_reserved":false,"is_disabled":false,"rental_uris":{"android":"levelo://app?vid=44feb4e5-5c87-47f5-8ecd-701b1396f673","ios":"levelo://app?vid=44feb4e5-5c87-47f5-8ecd-701b1396f673"},"vehicle_type_id":"4","last_reported":1731849335,"current_range_meters":32800,"station_id":"ce4bhg12rcd13ifvqf70","pricing_plan_id":"cebpf4jnsgd1na2vs0mg"},{"bike_id":"dcacde25-e453-47f8-a9f4-cb2b85c99fd4","system_id":"levelo_inurba_marseille","lat":43.26588,"lon":5.39008,"is_reserved":false,"is_disabled":false,"rental_uris":{"android":"levelo://app?vid=dcacde25-e453-47f8-a9f4-cb2b85c99fd4","ios":"levelo://app?vid=dcacde25-e453-47f8-a9f4-cb2b85c99fd4"},"vehicle_type_id":"4","last_reported":1731849335,"current_range_meters":37600,"station_id":"ce4bhe12rcd13ifvqf30","pricing_plan_id":"cebpf4jnsgd1na2vs0mg"},{"bike_id":"1aff4968-e5c4-46ac-a2e1-c4c49c330360","system_id":"levelo_inurba_marseille","lat":43.284149,"lon":5.349753,"is_reserved":false,"is_disabled":false,"rental_uris":{"android":"levelo://app?vid=1aff4968-e5c4-46ac-a2e1-c4c49c330360","ios":"levelo://app?vid=1aff4968-e5c4-46ac-a2e1-c4c49c330360"},"vehicle_type_id":"4","last_reported":1731849335,"current_range_meters":38800,"station_id":"ce4bhbh2rcd13ifvqepg","pricing_plan_id":"cebpf4jnsgd1na2vs0mg"},{"bike_id":"776c19bb-9271-4d1b-b450-71b28ade05f5","system_id":"levelo_inurba_marseille","lat":43.23192,"lon":5.35558,"is_reserved":false,"is_disabled":false,"rental_uris":{"android":"levelo://app?vid=776c19bb-9271-4d1b-b450-71b28ade05f5","ios":"levelo://app?vid=776c19bb-9271-4d1b-b450-71b28ade05f5"},"vehicle_type_id":"4","last_reported":1731849335,"current_range_meters":36000,"station_id":"ce4bhu92rcd13ifvqi70","pricing_plan_id":"cebpf4jnsgd1na2vs0mg"},{"bike_id":"3731846e-2218-45f1-ac96-76a41185ff9d","system_id":"levelo_inurba_marseille","lat":43.24167,"lon":5.36396,"is_reserved":false,"is_disabled":false,"rental_uris":{"android":"levelo://app?vid=3731846e-2218-45f1-ac96-76a41185ff9d","ios":"levelo://app?vid=3731846e-2218-45f1-ac96-76a41185ff9d"},"vehicle_type_id":"4","last_reported":1731849335,"current_range_meters":36400,"station_id":"cpo36qri1sfpv3e86is0","pricing_plan_id":"cebpf4jnsgd1na2vs0mg"},{"bike_id":"14471b0b-f241-446d-ba5b-8a94d9ac3b68","system_id":"levelo_inurba_marseille","lat":43.22932,"lon":5.35375,"is_reserved":false,"is_disabled":false,"rental_uris":{"android":"levelo://app?vid=14471b0b-f241-446d-ba5b-8a94d9ac3b68","ios":"levelo://app?vid=14471b0b-f241-446d-ba5b-8a94d9ac3b68"},"vehicle_type_id":"4","last_reported":1731849335,"current_range_meters":27200,"station_id":"cpo3532slgdg3j2ikp40","pricing_plan_id":"cebpf4jnsgd1na2vs0mg"},{"bike_id":"92ac4858-87d6-4ceb-8f6e-004635a816a8","system_id":"levelo_inurba_marseille","lat":43.27789,"lon":5.40731,"is_reserved":false,"is_disabled":false,"rental_uris":{"android":"levelo://app?vid=92ac4858-87d6-4ceb-8f6e-004635a816a8","ios":"levelo://app?vid=92ac4858-87d6-4ceb-8f6e-004635a816a8"},"vehicle_type_id":"4","last_reported":1731849335,"current_range_meters":27200,"station_id":"ce4bhnh2rcd13ifvqgtg","pricing_plan_id":"cebpf4jnsgd1na2vs0mg"},{"bike_id":"6fec559a-2b3b-4f1a-9c20-1a2347d89940","system_id":"levelo_inurba_marseille","lat":43.2875,"lon":5.4331,"is_reserved":false,"is_disabled":false,"rental_uris":{"android":"levelo://app?vid=6fec559a-2b3b-4f1a-9c20-1a2347d89940","ios":"levelo://app?vid=6fec559a-2b3b-4f1a-9c20-1a2347d89940"},"vehicle_type_id":"4","last_reported":1731849335,"current_range_meters":6400,"station_id":"","pricing_plan_id":"cebpf4jnsgd1na2vs0mg"},{"bike_id":"1396ab55-0e44-4ee6-a17e-86cf36813da1","system_id":"levelo_inurba_marseille","lat":43.24178,"lon":5.39735,"is_reserved":false,"is_disabled":false,"rental_uris":{"android":"levelo://app?vid=1396ab55-0e44-4ee6-a17e-86cf36813da1","ios":"levelo://app?vid=1396ab55-0e44-4ee6-a17e-86cf36813da1"},"vehicle_type_id":"4","last_reported":1731849335,"current_range_meters":28000,"station_id":"ce4bhn12rcd13ifvqgpg","pricing_plan_id":"cebpf4jnsgd1na2vs0mg"},{"bike_id":"2412fd48-7071-4437-8fb4-820ded7fd014","system_id":"levelo_inurba_marseille","lat":43.22929,"lon":5.35374,"is_reserved":false,"is_disabled":false,"rental_uris":{"android":"levelo://app?vid=2412fd48-7071-4437-8fb4-820ded7fd014","ios":"levelo://app?vid=2412fd48-7071-4437-8fb4-820ded7fd014"},"vehicle_type_id":"4","last_reported":1731849335,"current_range_meters":17200,"station_id":"cpo3532slgdg3j2ikp40","pricing_plan_id":"cebpf4jnsgd1na2vs0mg"},{"bike_id":"5d02f3a2-cd92-4c52-ac02-b7683d0b1862","system_id":"levelo_inurba_marseille","lat":43.31256,"lon":5.40451,"is_reserved":false,"is_disabled":false,"rental_uris":{"android":"levelo://app?vid=5d02f3a2-cd92-4c52-ac02-b7683d0b1862","ios":"levelo://app?vid=5d02f3a2-cd92-4c52-ac02-b7683d0b1862"},"vehicle_type_id":"4","last_reported":1731849335,"current_range_meters":19600,"station_id":"","pricing_plan_id":"cebpf4jnsgd1na2vs0mg"},{"bike_id":"779fa6ce-9f3f-4591-9fae-9604a28585e1","system_id":"levelo_inurba_marseille","lat":43.28048,"lon":5.35335,"is_reserved":false,"is_disabled":false,"rental_uris":{"android":"levelo://app?vid=779fa6ce-9f3f-4591-9fae-9604a28585e1","ios":"levelo://app?vid=779fa6ce-9f3f-4591-9fae-9604a28585e1"},"vehicle_type_id":"4","last_reported":1731849335,"current_range_meters":8000,"station_id":"","pricing_plan_id":"cebpf4jnsgd1na2vs0mg"},{"bike_id":"49cbcdee-bed9-4d90-b646-e780e133e676","system_id":"levelo_inurba_marseille","lat":43.28271,"lon":5.35069,"is_reserved":false,"is_disabled":false,"rental_uris":{"android":"levelo://app?vid=49cbcdee-bed9-4d90-b646-e780e133e676","ios":"levelo://app?vid=49cbcdee-bed9-4d90-b646-e780e133e676"},"vehicle_type_id":"4","last_reported":1731849335,"current_range_meters":2000,"station_id":"ce4bhbp2rcd13ifvqerg","pricing_plan_id":"cebpf4jnsgd1na2vs0mg"},{"bike_id":"58b880ee-ba7b-4c7c-a799-0696aaf6e3d9","system_id":"levelo_inurba_marseille","lat":43.23967,"lon":5.3663,"is_reserved":false,"is_disabled":false,"rental_uris":{"android":"levelo://app?vid=58b880ee-ba7b-4c7c-a799-0696aaf6e3d9","ios":"levelo://app?vid=58b880ee-ba7b-4c7c-a799-0696aaf6e3d9"},"vehicle_type_id":"4","last_reported":1731849335,"current_range_meters":32800,"station_id":"ce4bhi12rcd13ifvqfp0","pricing_plan_id":"cebpf4jnsgd1na2vs0mg"},{"bike_id":"a84f5389-258d-4508-9c0f-32ee5d326b43","system_id":"levelo_inurba_marseille","lat":43.33767,"lon":5.37475,"is_reserved":false,"is_disabled":false,"rental_uris":{"android":"levelo://app?vid=a84f5389-258d-4508-9c0f-32ee5d326b43","ios":"levelo://app?vid=a84f5389-258d-4508-9c0f-32ee5d326b43"},"vehicle_type_id":"4","last_reported":1731849335,"current_range_meters":29600,"station_id":"","pricing_plan_id":"cebpf4jnsgd1na2vs0mg"},{"bike_id":"f43163a1-c37b-4fa9-83c0-c660b4c6ad8f","system_id":"levelo_inurba_marseille","lat":43.26563,"lon":5.39011,"is_reserved":false,"is_disabled":false,"rental_uris":{"android":"levelo://app?vid=f43163a1-c37b-4fa9-83c0-c660b4c6ad8f","ios":"levelo://app?vid=f43163a1-c37b-4fa9-83c0-c660b4c6ad8f"},"vehicle_type_id":"4","last_reported":1731849335,"current_range_meters":24800,"station_id":"ce4bhe12rcd13ifvqf30","pricing_plan_id":"cebpf4jnsgd1na2vs0mg"},{"bike_id":"ed8cfcce-fcd3-4866-b7bb-3032e5fedbfd","system_id":"levelo_inurba_marseille","lat":43.32349,"lon":5.40626,"is_reserved":false,"is_disabled":false,"rental_uris":{"android":"levelo://app?vid=ed8cfcce-fcd3-4866-b7bb-3032e5fedbfd","ios":"levelo://app?vid=ed8cfcce-fcd3-4866-b7bb-3032e5fedbfd"},"vehicle_type_id":"4","last_reported":1731849335,"current_range_meters":26800,"station_id":"ce4bhq92rcd13ifvqhjg","pricing_plan_id":"cebpf4jnsgd1na2vs0mg"},{"bike_id":"38b9d065-5d33-4dbc-aa67-935538a8640d","system_id":"levelo_inurba_marseille","lat":43.3013,"lon":5.374724,"is_reserved":false,"is_disabled":false,"rental_uris":{"android":"levelo://app?vid=38b9d065-5d33-4dbc-aa67-935538a8640d","ios":"levelo://app?vid=38b9d065-5d33-4dbc-aa67-935538a8640d"},"vehicle_type_id":"4","last_reported":1731849335,"current_range_meters":28000,"station_id":"ce4bgs92rcd13ifvqcc0","pricing_plan_id":"cebpf4jnsgd1na2vs0mg"},{"bike_id":"fd1d8b84-8086-4963-8d32-479282152e76","system_id":"levelo_inurba_marseille","lat":43.25086,"lon":5.39525,"is_reserved":false,"is_disabled":false,"rental_uris":{"android":"levelo://app?vid=fd1d8b84-8086-4963-8d32-479282152e76","ios":"levelo://app?vid=fd1d8b84-8086-4963-8d32-479282152e76"},"vehicle_type_id":"4","last_reported":1731849335,"current_range_meters":6000,"station_id":"ce4bhm12rcd13ifvqgkg","pricing_plan_id":"cebpf4jnsgd1na2vs0mg"},{"bike_id":"d6ea0d18-09c5-4a16-8d92-16497ecc1e85","system_id":"levelo_inurba_marseille","lat":43.27495,"lon":5.42452,"is_reserved":false,"is_disabled":false,"rental_uris":{"android":"levelo://app?vid=d6ea0d18-09c5-4a16-8d92-16497ecc1e85","ios":"levelo://app?vid=d6ea0d18-09c5-4a16-8d92-16497ecc1e85"},"vehicle_type_id":"4","last_reported":1731849335,"current_range_meters":9200,"station_id":"ce4bhn92rcd13ifvqgrg","pricing_plan_id":"cebpf4jnsgd1na2vs0mg"},{"bike_id":"15e4525f-b41b-481d-bfe3-99cf741f5a72","system_id":"levelo_inurba_marseille","lat":43.268971,"lon":5.38572,"is_reserved":false,"is_disabled":false,"rental_uris":{"android":"levelo://app?vid=15e4525f-b41b-481d-bfe3-99cf741f5a72","ios":"levelo://app?vid=15e4525f-b41b-481d-bfe3-99cf741f5a72"},"vehicle_type_id":"4","last_reported":1731849335,"current_range_meters":17600,"station_id":"ce4bhhh2rcd13ifvqfk0","pricing_plan_id":"cebpf4jnsgd1na2vs0mg"},{"bike_id":"0698a5a2-0072-4cb5-b814-9e841707fc5d","system_id":"levelo_inurba_marseille","lat":43.28002,"lon":5.40003,"is_reserved":false,"is_disabled":false,"rental_uris":{"android":"levelo://app?vid=0698a5a2-0072-4cb5-b814-9e841707fc5d","ios":"levelo://app?vid=0698a5a2-0072-4cb5-b814-9e841707fc5d"},"vehicle_type_id":"4","last_reported":1731849335,"current_range_meters":11600,"station_id":"ce4bho92rcd13ifvqh4g","pricing_plan_id":"cebpf4jnsgd1na2vs0mg"},{"bike_id":"6d6992bf-ade3-4a22-a168-306dafdc4544","system_id":"levelo_inurba_marseille","lat":43.24172,"lon":5.36391,"is_reserved":false,"is_disabled":false,"rental_uris":{"android":"levelo://app?vid=6d6992bf-ade3-4a22-a168-306dafdc4544","ios":"levelo://app?vid=6d6992bf-ade3-4a22-a168-306dafdc4544"},"vehicle_type_id":"4","last_reported":1731849335,"current_range_meters":28800,"station_id":"cpo36qri1sfpv3e86is0","pricing_plan_id":"cebpf4jnsgd1na2vs0mg"},{"bike_id":"827cb70a-2af5-4466-b9f8-88c61ae18f3d","system_id":"levelo_inurba_marseille","lat":43.281616,"lon":5.426458,"is_reserved":false,"is_disabled":false,"rental_uris":{"android":"levelo://app?vid=827cb70a-2af5-4466-b9f8-88c61ae18f3d","ios":"levelo://app?vid=827cb70a-2af5-4466-b9f8-88c61ae18f3d"},"vehicle_type_id":"4","last_reported":1731849335,"current_range_meters":4800,"station_id":"ce4bhnh2rcd13ifvqgug","pricing_plan_id":"cebpf4jnsgd1na2vs0mg"},{"bike_id":"4c893280-d9aa-4a10-acac-46930aeeb70f","system_id":"levelo_inurba_marseille","lat":43.24536,"lon":5.39521,"is_reserved":false,"is_disabled":false,"rental_uris":{"android":"levelo://app?vid=4c893280-d9aa-4a10-acac-46930aeeb70f","ios":"levelo://app?vid=4c893280-d9aa-4a10-acac-46930aeeb70f"},"vehicle_type_id":"4","last_reported":1731849335,"current_range_meters":28000,"station_id":"ce4bhlp2rcd13ifvqgjg","pricing_plan_id":"cebpf4jnsgd1na2vs0mg"},{"bike_id":"5ba13b48-6557-4d70-934a-3f709a6c09a7","system_id":"levelo_inurba_marseille","lat":43.299408,"lon":5.365563,"is_reserved":false,"is_disabled":false,"rental_uris":{"android":"levelo://app?vid=5ba13b48-6557-4d70-934a-3f709a6c09a7","ios":"levelo://app?vid=5ba13b48-6557-4d70-934a-3f709a6c09a7"},"vehicle_type_id":"4","last_reported":1731849335,"current_range_meters":34000,"station_id":"ce4bgm92rcd13ifvqbr0","pricing_plan_id":"cebpf4jnsgd1na2vs0mg"},{"bike_id":"fca868f5-9fd0-45d8-90bd-4e6ce3d8eb68","system_id":"levelo_inurba_marseille","lat":43.23188,"lon":5.39979,"is_reserved":false,"is_disabled":false,"rental_uris":{"android":"levelo://app?vid=fca868f5-9fd0-45d8-90bd-4e6ce3d8eb68","ios":"levelo://app?vid=fca868f5-9fd0-45d8-90bd-4e6ce3d8eb68"},"vehicle_type_id":"4","last_reported":1731849335,"current_range_meters":16400,"station_id":"ce4bhn12rcd13ifvqgqg","pricing_plan_id":"cebpf4jnsgd1na2vs0mg"},{"bike_id":"da128f47-f9a9-40db-a073-d87c19f70d07","system_id":"levelo_inurba_marseille","lat":43.29619,"lon":5.37171,"is_reserved":false,"is_disabled":false,"rental_uris":{"android":"levelo://app?vid=da128f47-f9a9-40db-a073-d87c19f70d07","ios":"levelo://app?vid=da128f47-f9a9-40db-a073-d87c19f70d07"},"vehicle_type_id":"4","last_reported":1731849335,"current_range_meters":38800,"station_id":"","pricing_plan_id":"cebpf4jnsgd1na2vs0mg"},{"bike_id":"4ee4605c-22f2-4532-b44d-f5fb03fd5142","system_id":"levelo_inurba_marseille","lat":43.30804,"lon":5.43523,"is_reserved":false,"is_disabled":false,"rental_uris":{"android":"levelo://app?vid=4ee4605c-22f2-4532-b44d-f5fb03fd5142","ios":"levelo://app?vid=4ee4605c-22f2-4532-b44d-f5fb03fd5142"},"vehicle_type_id":"4","last_reported":1731849335,"current_range_meters":8400,"station_id":"ce4bhph2rcd13ifvqheg","pricing_plan_id":"cebpf4jnsgd1na2vs0mg"},{"bike_id":"87c6772f-5c88-4d20-99e7-0fab985857cc","system_id":"levelo_inurba_marseille","lat":43.28153,"lon":5.4265,"is_reserved":false,"is_disabled":false,"rental_uris":{"android":"levelo://app?vid=87c6772f-5c88-4d20-99e7-0fab985857cc","ios":"levelo://app?vid=87c6772f-5c88-4d20-99e7-0fab985857cc"},"vehicle_type_id":"4","last_reported":1731849335,"current_range_meters":25600,"station_id":"ce4bhnh2rcd13ifvqgug","pricing_plan_id":"cebpf4jnsgd1na2vs0mg"},{"bike_id":"c179181d-d0b5-4f1d-9b63-5141f74c83be","system_id":"levelo_inurba_marseille","lat":43.30931,"lon":5.40141,"is_reserved":false,"is_disabled":false,"rental_uris":{"android":"levelo://app?vid=c179181d-d0b5-4f1d-9b63-5141f74c83be","ios":"levelo://app?vid=c179181d-d0b5-4f1d-9b63-5141f74c83be"},"vehicle_type_id":"4","last_reported":1731849335,"current_range_meters":38800,"station_id":"ce4bgvp2rcd13ifvqct0","pricing_plan_id":"cebpf4jnsgd1na2vs0mg"},{"bike_id":"ca8394d0-4c3b-4d07-81d7-5d53ca5c19ca","system_id":"levelo_inurba_marseille","lat":43.29448,"lon":5.39757,"is_reserved":false,"is_disabled":false,"rental_uris":{"android":"levelo://app?vid=ca8394d0-4c3b-4d07-81d7-5d53ca5c19ca","ios":"levelo://app?vid=ca8394d0-4c3b-4d07-81d7-5d53ca5c19ca"},"vehicle_type_id":"4","last_reported":1731849335,"current_range_meters":19600,"station_id":"ce4bh3h2rcd13ifvqdo0","pricing_plan_id":"cebpf4jnsgd1na2vs0mg"},{"bike_id":"91f1c44f-3790-4ba5-8d3d-4b0e6663ab00","system_id":"levelo_inurba_marseille","lat":43.33611,"lon":5.41027,"is_reserved":false,"is_disabled":false,"rental_uris":{"android":"levelo://app?vid=91f1c44f-3790-4ba5-8d3d-4b0e6663ab00","ios":"levelo://app?vid=91f1c44f-3790-4ba5-8d3d-4b0e6663ab00"},"vehicle_type_id":"4","last_reported":1731849335,"current_range_meters":28400,"station_id":"ce4bhqh2rcd13ifvqhmg","pricing_plan_id":"cebpf4jnsgd1na2vs0mg"},{"bike_id":"1e730ee4-2d8d-4021-979d-8e8d2bbc3bcb","system_id":"levelo_inurba_marseille","lat":43.27072,"lon":5.42287,"is_reserved":false,"is_disabled":false,"rental_uris":{"android":"levelo://app?vid=1e730ee4-2d8d-4021-979d-8e8d2bbc3bcb","ios":"levelo://app?vid=1e730ee4-2d8d-4021-979d-8e8d2bbc3bcb"},"vehicle_type_id":"4","last_reported":1731849335,"current_range_meters":15200,"station_id":"ce4bhk92rcd13ifvqgb0","pricing_plan_id":"cebpf4jnsgd1na2vs0mg"},{"bike_id":"022f478e-da93-4eda-9d1b-2d0e36905c07","system_id":"levelo_inurba_marseille","lat":43.33761,"lon":5.37433,"is_reserved":false,"is_disabled":false,"rental_uris":{"android":"levelo://app?vid=022f478e-da93-4eda-9d1b-2d0e36905c07","ios":"levelo://app?vid=022f478e-da93-4eda-9d1b-2d0e36905c07"},"vehicle_type_id":"4","last_reported":1731849335,"current_range_meters":10800,"station_id":"","pricing_plan_id":"cebpf4jnsgd1na2vs0mg"},{"bike_id":"3c7108fb-85fe-43b6-95ce-e6a5e6d34b1a","system_id":"levelo_inurba_marseille","lat":43.337269,"lon":5.391834,"is_reserved":false,"is_disabled":false,"rental_uris":{"android":"levelo://app?vid=3c7108fb-85fe-43b6-95ce-e6a5e6d34b1a","ios":"levelo://app?vid=3c7108fb-85fe-43b6-95ce-e6a5e6d34b1a"},"vehicle_type_id":"4","last_reported":1731849335,"current_range_meters":28400,"station_id":"ce4bhr92rcd13ifvqhsg","pricing_plan_id":"cebpf4jnsgd1na2vs0mg"},{"bike_id":"b8045429-8045-4f41-9417-0ac86ebeba95","system_id":"levelo_inurba_marseille","lat":43.28272,"lon":5.35076,"is_reserved":false,"is_disabled":false,"rental_uris":{"android":"levelo://app?vid=b8045429-8045-4f41-9417-0ac86ebeba95","ios":"levelo://app?vid=b8045429-8045-4f41-9417-0ac86ebeba95"},"vehicle_type_id":"4","last_reported":1731849335,"current_range_meters":20800,"station_id":"ce4bhbp2rcd13ifvqerg","pricing_plan_id":"cebpf4jnsgd1na2vs0mg"},{"bike_id":"a11ba5b7-a020-4411-8c81-74182ce13f38","system_id":"levelo_inurba_marseille","lat":43.29094,"lon":5.38128,"is_reserved":false,"is_disabled":false,"rental_uris":{"android":"levelo://app?vid=a11ba5b7-a020-4411-8c81-74182ce13f38","ios":"levelo://app?vid=a11ba5b7-a020-4411-8c81-74182ce13f38"},"vehicle_type_id":"4","last_reported":1731849335,"current_range_meters":16400,"station_id":"ce4bh512rcd13ifvqe2g","pricing_plan_id":"cebpf4jnsgd1na2vs0mg"},{"bike_id":"251d8918-1250-4853-9293-89ee39d3be92","system_id":"levelo_inurba_marseille","lat":43.33021,"lon":5.39036,"is_reserved":false,"is_disabled":false,"rental_uris":{"android":"levelo://app?vid=251d8918-1250-4853-9293-89ee39d3be92","ios":"levelo://app?vid=251d8918-1250-4853-9293-89ee39d3be92"},"vehicle_type_id":"4","last_reported":1731849335,"current_range_meters":30800,"station_id":"ce4bhr92rcd13ifvqhrg","pricing_plan_id":"cebpf4jnsgd1na2vs0mg"},{"bike_id":"f85788ac-1845-4b90-bdc7-3568d3036554","system_id":"levelo_inurba_marseille","lat":43.28269,"lon":5.35077,"is_reserved":false,"is_disabled":false,"rental_uris":{"android":"levelo://app?vid=f85788ac-1845-4b90-bdc7-3568d3036554","ios":"levelo://app?vid=f85788ac-1845-4b90-bdc7-3568d3036554"},"vehicle_type_id":"4","last_reported":1731849335,"current_range_meters":14400,"station_id":"ce4bhbp2rcd13ifvqerg","pricing_plan_id":"cebpf4jnsgd1na2vs0mg"},{"bike_id":"b08da4e1-b94e-4066-8ef9-c8474a7cdf7b","system_id":"levelo_inurba_marseille","lat":43.273834,"lon":5.362664,"is_reserved":false,"is_disabled":false,"rental_uris":{"android":"levelo://app?vid=b08da4e1-b94e-4066-8ef9-c8474a7cdf7b","ios":"levelo://app?vid=b08da4e1-b94e-4066-8ef9-c8474a7cdf7b"},"vehicle_type_id":"4","last_reported":1731849335,"current_range_meters":20400,"station_id":"ce4bhbh2rcd13ifvqeo0","pricing_plan_id":"cebpf4jnsgd1na2vs0mg"},{"bike_id":"1c82718e-0ac2-4eb0-8cd0-0ea3213ba454","system_id":"levelo_inurba_marseille","lat":43.27613,"lon":5.36107,"is_reserved":false,"is_disabled":false,"rental_uris":{"android":"levelo://app?vid=1c82718e-0ac2-4eb0-8cd0-0ea3213ba454","ios":"levelo://app?vid=1c82718e-0ac2-4eb0-8cd0-0ea3213ba454"},"vehicle_type_id":"4","last_reported":1731849335,"current_range_meters":38800,"station_id":"ce4bgj92rcd13ifvqbe0","pricing_plan_id":"cebpf4jnsgd1na2vs0mg"},{"bike_id":"bb83ca96-b8e6-4d38-8da0-61243a06413f","system_id":"levelo_inurba_marseille","lat":43.23196,"lon":5.35539,"is_reserved":false,"is_disabled":false,"rental_uris":{"android":"levelo://app?vid=bb83ca96-b8e6-4d38-8da0-61243a06413f","ios":"levelo://app?vid=bb83ca96-b8e6-4d38-8da0-61243a06413f"},"vehicle_type_id":"4","last_reported":1731849335,"current_range_meters":29600,"station_id":"ce4bhu92rcd13ifvqi70","pricing_plan_id":"cebpf4jnsgd1na2vs0mg"},{"bike_id":"87231f0c-74f4-4be6-8f56-3b1979c576f6","system_id":"levelo_inurba_marseille","lat":43.22931,"lon":5.35378,"is_reserved":false,"is_disabled":false,"rental_uris":{"android":"levelo://app?vid=87231f0c-74f4-4be6-8f56-3b1979c576f6","ios":"levelo://app?vid=87231f0c-74f4-4be6-8f56-3b1979c576f6"},"vehicle_type_id":"4","last_reported":1731849335,"current_range_meters":26000,"station_id":"cpo3532slgdg3j2ikp40","pricing_plan_id":"cebpf4jnsgd1na2vs0mg"},{"bike_id":"9fb2788e-9868-4c0b-8da9-9f2766f506b0","system_id":"levelo_inurba_marseille","lat":43.30425,"lon":5.41287,"is_reserved":false,"is_disabled":false,"rental_uris":{"android":"levelo://app?vid=9fb2788e-9868-4c0b-8da9-9f2766f506b0","ios":"levelo://app?vid=9fb2788e-9868-4c0b-8da9-9f2766f506b0"},"vehicle_type_id":"4","last_reported":1731849335,"current_range_meters":19600,"station_id":"ce4bhop2rcd13ifvqh8g","pricing_plan_id":"cebpf4jnsgd1na2vs0mg"},{"bike_id":"958ea377-08cc-4d36-8aa1-6c0102764bc2","system_id":"levelo_inurba_marseille","lat":43.28616,"lon":5.35108,"is_reserved":false,"is_disabled":false,"rental_uris":{"android":"levelo://app?vid=958ea377-08cc-4d36-8aa1-6c0102764bc2","ios":"levelo://app?vid=958ea377-08cc-4d36-8aa1-6c0102764bc2"},"vehicle_type_id":"4","last_reported":1731849335,"current_range_meters":18800,"station_id":"ce4bhch2rcd13ifvqeug","pricing_plan_id":"cebpf4jnsgd1na2vs0mg"},{"bike_id":"c9cc63f8-5c96-438e-a74a-e28131399ade","system_id":"levelo_inurba_marseille","lat":43.28003,"lon":5.40024,"is_reserved":false,"is_disabled":false,"rental_uris":{"android":"levelo://app?vid=c9cc63f8-5c96-438e-a74a-e28131399ade","ios":"levelo://app?vid=c9cc63f8-5c96-438e-a74a-e28131399ade"},"vehicle_type_id":"4","last_reported":1731849335,"current_range_meters":36000,"station_id":"ce4bho92rcd13ifvqh4g","pricing_plan_id":"cebpf4jnsgd1na2vs0mg"},{"bike_id":"442c0903-f40e-4bdf-be0d-6587cc076f59","system_id":"levelo_inurba_marseille","lat":43.23191,"lon":5.3555,"is_reserved":false,"is_disabled":false,"rental_uris":{"android":"levelo://app?vid=442c0903-f40e-4bdf-be0d-6587cc076f59","ios":"levelo://app?vid=442c0903-f40e-4bdf-be0d-6587cc076f59"},"vehicle_type_id":"4","last_reported":1731849335,"current_range_meters":35600,"station_id":"ce4bhu92rcd13ifvqi70","pricing_plan_id":"cebpf4jnsgd1na2vs0mg"},{"bike_id":"2c80e31d-2bb8-41ae-ba44-3e7368b895f5","system_id":"levelo_inurba_marseille","lat":43.28417,"lon":5.34993,"is_reserved":false,"is_disabled":false,"rental_uris":{"android":"levelo://app?vid=2c80e31d-2bb8-41ae-ba44-3e7368b895f5","ios":"levelo://app?vid=2c80e31d-2bb8-41ae-ba44-3e7368b895f5"},"vehicle_type_id":"4","last_reported":1731849335,"current_range_meters":28400,"station_id":"ce4bhbh2rcd13ifvqepg","pricing_plan_id":"cebpf4jnsgd1na2vs0mg"},{"bike_id":"1c4774a7-a2d4-4020-9a1a-c36e307e75d8","system_id":"levelo_inurba_marseille","lat":43.32366,"lon":5.38881,"is_reserved":false,"is_disabled":false,"rental_uris":{"android":"levelo://app?vid=1c4774a7-a2d4-4020-9a1a-c36e307e75d8","ios":"levelo://app?vid=1c4774a7-a2d4-4020-9a1a-c36e307e75d8"},"vehicle_type_id":"4","last_reported":1731849335,"current_range_meters":22400,"station_id":"ce4bhqp2rcd13ifvqhog","pricing_plan_id":"cebpf4jnsgd1na2vs0mg"},{"bike_id":"09f437b1-93f6-44ee-a17d-bac073b5aa1a","system_id":"levelo_inurba_marseille","lat":43.23963,"lon":5.36633,"is_reserved":false,"is_disabled":false,"rental_uris":{"android":"levelo://app?vid=09f437b1-93f6-44ee-a17d-bac073b5aa1a","ios":"levelo://app?vid=09f437b1-93f6-44ee-a17d-bac073b5aa1a"},"vehicle_type_id":"4","last_reported":1731849335,"current_range_meters":27600,"station_id":"ce4bhi12rcd13ifvqfp0","pricing_plan_id":"cebpf4jnsgd1na2vs0mg"},{"bike_id":"90bb2cae-4339-46de-973d-1d239b082c40","system_id":"levelo_inurba_marseille","lat":43.23185,"lon":5.39997,"is_reserved":false,"is_disabled":false,"rental_uris":{"android":"levelo://app?vid=90bb2cae-4339-46de-973d-1d239b082c40","ios":"levelo://app?vid=90bb2cae-4339-46de-973d-1d239b082c40"},"vehicle_type_id":"4","last_reported":1731849335,"current_range_meters":19200,"station_id":"ce4bhn12rcd13ifvqgqg","pricing_plan_id":"cebpf4jnsgd1na2vs0mg"},{"bike_id":"e99762a4-0301-4b4d-a9ed-f5814d001c47","system_id":"levelo_inurba_marseille","lat":43.28565,"lon":5.39496,"is_reserved":false,"is_disabled":false,"rental_uris":{"android":"levelo://app?vid=e99762a4-0301-4b4d-a9ed-f5814d001c47","ios":"levelo://app?vid=e99762a4-0301-4b4d-a9ed-f5814d001c47"},"vehicle_type_id":"4","last_reported":1731849335,"current_range_meters":26000,"station_id":"ce4bh292rcd13ifvqdg0","pricing_plan_id":"cebpf4jnsgd1na2vs0mg"},{"bike_id":"d37453dc-579c-4f2c-8202-d745f1e705a8","system_id":"levelo_inurba_marseille","lat":43.25937,"lon":5.40907,"is_reserved":false,"is_disabled":false,"rental_uris":{"android":"levelo://app?vid=d37453dc-579c-4f2c-8202-d745f1e705a8","ios":"levelo://app?vid=d37453dc-579c-4f2c-8202-d745f1e705a8"},"vehicle_type_id":"4","last_reported":1731849335,"current_range_meters":8800,"station_id":"ce4bhm92rcd13ifvqglg","pricing_plan_id":"cebpf4jnsgd1na2vs0mg"},{"bike_id":"f99b8f87-b1c6-4ef1-828d-d82783f73fde","system_id":"levelo_inurba_marseille","lat":43.27487,"lon":5.42458,"is_reserved":false,"is_disabled":false,"rental_uris":{"android":"levelo://app?vid=f99b8f87-b1c6-4ef1-828d-d82783f73fde","ios":"levelo://app?vid=f99b8f87-b1c6-4ef1-828d-d82783f73fde"},"vehicle_type_id":"4","last_reported":1731849335,"current_range_meters":32400,"station_id":"ce4bhn92rcd13ifvqgrg","pricing_plan_id":"cebpf4jnsgd1na2vs0mg"},{"bike_id":"2fc8f02c-e5f3-4e56-9038-45f0a5217743","system_id":"levelo_inurba_marseille","lat":43.27075,"lon":5.42273,"is_reserved":false,"is_disabled":false,"rental_uris":{"android":"levelo://app?vid=2fc8f02c-e5f3-4e56-9038-45f0a5217743","ios":"levelo://app?vid=2fc8f02c-e5f3-4e56-9038-45f0a5217743"},"vehicle_type_id":"4","last_reported":1731849335,"current_range_meters":8400,"station_id":"ce4bhk92rcd13ifvqgb0","pricing_plan_id":"cebpf4jnsgd1na2vs0mg"},{"bike_id":"4c4a13a7-cd09-400c-9dd6-9bcb25be4ec9","system_id":"levelo_inurba_marseille","lat":43.24809,"lon":5.37456,"is_reserved":false,"is_disabled":false,"rental_uris":{"android":"levelo://app?vid=4c4a13a7-cd09-400c-9dd6-9bcb25be4ec9","ios":"levelo://app?vid=4c4a13a7-cd09-400c-9dd6-9bcb25be4ec9"},"vehicle_type_id":"4","last_reported":1731849335,"current_range_meters":3200,"station_id":"ce4bhgh2rcd13ifvqfb0","pricing_plan_id":"cebpf4jnsgd1na2vs0mg"},{"bike_id":"96b70189-c350-4090-8b3e-b6427d1e6fed","system_id":"levelo_inurba_marseille","lat":43.29037,"lon":5.39966,"is_reserved":false,"is_disabled":false,"rental_uris":{"android":"levelo://app?vid=96b70189-c350-4090-8b3e-b6427d1e6fed","ios":"levelo://app?vid=96b70189-c350-4090-8b3e-b6427d1e6fed"},"vehicle_type_id":"4","last_reported":1731849335,"current_range_meters":9600,"station_id":"ce4bh392rcd13ifvqdm0","pricing_plan_id":"cebpf4jnsgd1na2vs0mg"},{"bike_id":"8a995bfc-176b-47ec-9581-d7f852780e2d","system_id":"levelo_inurba_marseille","lat":43.24805,"lon":5.37455,"is_reserved":false,"is_disabled":false,"rental_uris":{"android":"levelo://app?vid=8a995bfc-176b-47ec-9581-d7f852780e2d","ios":"levelo://app?vid=8a995bfc-176b-47ec-9581-d7f852780e2d"},"vehicle_type_id":"4","last_reported":1731849335,"current_range_meters":10800,"station_id":"ce4bhgh2rcd13ifvqfb0","pricing_plan_id":"cebpf4jnsgd1na2vs0mg"},{"bike_id":"e658ed34-19f5-4e16-989c-2ad3f3074189","system_id":"levelo_inurba_marseille","lat":43.29522,"lon":5.39052,"is_reserved":false,"is_disabled":false,"rental_uris":{"android":"levelo://app?vid=e658ed34-19f5-4e16-989c-2ad3f3074189","ios":"levelo://app?vid=e658ed34-19f5-4e16-989c-2ad3f3074189"},"vehicle_type_id":"4","last_reported":1731849335,"current_range_meters":6800,"station_id":"ce4bh3p2rcd13ifvqdp0","pricing_plan_id":"cebpf4jnsgd1na2vs0mg"},{"bike_id":"a274fbeb-be46-4e34-a07b-2a6c028989c7","system_id":"levelo_inurba_marseille","lat":43.3095,"lon":5.39031,"is_reserved":false,"is_disabled":false,"rental_uris":{"android":"levelo://app?vid=a274fbeb-be46-4e34-a07b-2a6c028989c7","ios":"levelo://app?vid=a274fbeb-be46-4e34-a07b-2a6c028989c7"},"vehicle_type_id":"4","last_reported":1731849335,"current_range_meters":8400,"station_id":"ce4bgup2rcd13ifvqco0","pricing_plan_id":"cebpf4jnsgd1na2vs0mg"},{"bike_id":"8ca14fad-3429-41cb-b5ce-543921a167af","system_id":"levelo_inurba_marseille","lat":43.23193,"lon":5.39988,"is_reserved":false,"is_disabled":false,"rental_uris":{"android":"levelo://app?vid=8ca14fad-3429-41cb-b5ce-543921a167af","ios":"levelo://app?vid=8ca14fad-3429-41cb-b5ce-543921a167af"},"vehicle_type_id":"4","last_reported":1731849335,"current_range_meters":15200,"station_id":"ce4bhn12rcd13ifvqgqg","pricing_plan_id":"cebpf4jnsgd1na2vs0mg"},{"bike_id":"968e4fd0-483a-48d3-8102-c167991502be","system_id":"levelo_inurba_marseille","lat":43.24995,"lon":5.38933,"is_reserved":false,"is_disabled":false,"rental_uris":{"android":"levelo://app?vid=968e4fd0-483a-48d3-8102-c167991502be","ios":"levelo://app?vid=968e4fd0-483a-48d3-8102-c167991502be"},"vehicle_type_id":"4","last_reported":1731849335,"current_range_meters":22000,"station_id":"ce4bhgp2rcd13ifvqfd0","pricing_plan_id":"cebpf4jnsgd1na2vs0mg"},{"bike_id":"62012020-0bdb-4e2e-9987-a6dd714f8796","system_id":"levelo_inurba_marseille","lat":43.22928,"lon":5.35373,"is_reserved":false,"is_disabled":false,"rental_uris":{"android":"levelo://app?vid=62012020-0bdb-4e2e-9987-a6dd714f8796","ios":"levelo://app?vid=62012020-0bdb-4e2e-9987-a6dd714f8796"},"vehicle_type_id":"4","last_reported":1731849335,"current_range_meters":24800,"station_id":"cpo3532slgdg3j2ikp40","pricing_plan_id":"cebpf4jnsgd1na2vs0mg"},{"bike_id":"cbd063e8-9d4f-409c-b0f5-a388846ed74a","system_id":"levelo_inurba_marseille","lat":43.24179,"lon":5.39724,"is_reserved":false,"is_disabled":false,"rental_uris":{"android":"levelo://app?vid=cbd063e8-9d4f-409c-b0f5-a388846ed74a","ios":"levelo://app?vid=cbd063e8-9d4f-409c-b0f5-a388846ed74a"},"vehicle_type_id":"4","last_reported":1731849335,"current_range_meters":6000,"station_id":"ce4bhn12rcd13ifvqgpg","pricing_plan_id":"cebpf4jnsgd1na2vs0mg"},{"bike_id":"45d958bc-6479-4387-967f-b60b90be7f68","system_id":"levelo_inurba_marseille","lat":43.27055,"lon":5.40261,"is_reserved":false,"is_disabled":false,"rental_uris":{"android":"levelo://app?vid=45d958bc-6479-4387-967f-b60b90be7f68","ios":"levelo://app?vid=45d958bc-6479-4387-967f-b60b90be7f68"},"vehicle_type_id":"4","last_reported":1731849335,"current_range_meters":32000,"station_id":"ce4bhk92rcd13ifvqgc0","pricing_plan_id":"cebpf4jnsgd1na2vs0mg"},{"bike_id":"7b76f7eb-5990-4745-bfda-68fbe5b47b7f","system_id":"levelo_inurba_marseille","lat":43.24175,"lon":5.3973,"is_reserved":false,"is_disabled":false,"rental_uris":{"android":"levelo://app?vid=7b76f7eb-5990-4745-bfda-68fbe5b47b7f","ios":"levelo://app?vid=7b76f7eb-5990-4745-bfda-68fbe5b47b7f"},"vehicle_type_id":"4","last_reported":1731849335,"current_range_meters":12000,"station_id":"ce4bhn12rcd13ifvqgpg","pricing_plan_id":"cebpf4jnsgd1na2vs0mg"},{"bike_id":"cf94f5a7-ceec-43e3-9011-d0a85f3482b4","system_id":"levelo_inurba_marseille","lat":43.302,"lon":5.36627,"is_reserved":false,"is_disabled":false,"rental_uris":{"android":"levelo://app?vid=cf94f5a7-ceec-43e3-9011-d0a85f3482b4","ios":"levelo://app?vid=cf94f5a7-ceec-43e3-9011-d0a85f3482b4"},"vehicle_type_id":"4","last_reported":1731849335,"current_range_meters":9200,"station_id":"ce4bgrh2rcd13ifvqc8g","pricing_plan_id":"cebpf4jnsgd1na2vs0mg"},{"bike_id":"f96d9e30-2347-483d-81f5-9ed8692d01f7","system_id":"levelo_inurba_marseille","lat":43.31131,"lon":5.37782,"is_reserved":false,"is_disabled":false,"rental_uris":{"android":"levelo://app?vid=f96d9e30-2347-483d-81f5-9ed8692d01f7","ios":"levelo://app?vid=f96d9e30-2347-483d-81f5-9ed8692d01f7"},"vehicle_type_id":"4","last_reported":1731849335,"current_range_meters":13600,"station_id":"ce4bgt92rcd13ifvqcg0","pricing_plan_id":"cebpf4jnsgd1na2vs0mg"},{"bike_id":"63cfe210-b1b7-4369-81a4-d305c4e3ae51","system_id":"levelo_inurba_marseille","lat":43.23187,"lon":5.40024,"is_reserved":false,"is_disabled":false,"rental_uris":{"android":"levelo://app?vid=63cfe210-b1b7-4369-81a4-d305c4e3ae51","ios":"levelo://app?vid=63cfe210-b1b7-4369-81a4-d305c4e3ae51"},"vehicle_type_id":"4","last_reported":1731849335,"current_range_meters":33200,"station_id":"ce4bhn12rcd13ifvqgqg","pricing_plan_id":"cebpf4jnsgd1na2vs0mg"},{"bike_id":"a91f23f7-f251-46d3-97a2-effb836fb255","system_id":"levelo_inurba_marseille","lat":43.24165,"lon":5.36395,"is_reserved":false,"is_disabled":false,"rental_uris":{"android":"levelo://app?vid=a91f23f7-f251-46d3-97a2-effb836fb255","ios":"levelo://app?vid=a91f23f7-f251-46d3-97a2-effb836fb255"},"vehicle_type_id":"4","last_reported":1731849335,"current_range_meters":16000,"station_id":"cpo36qri1sfpv3e86is0","pricing_plan_id":"cebpf4jnsgd1na2vs0mg"},{"bike_id":"a9b024ea-19cd-4c75-80ad-29a80616d84d","system_id":"levelo_inurba_marseille","lat":43.27379,"lon":5.3626,"is_reserved":false,"is_disabled":false,"rental_uris":{"android":"levelo://app?vid=a9b024ea-19cd-4c75-80ad-29a80616d84d","ios":"levelo://app?vid=a9b024ea-19cd-4c75-80ad-29a80616d84d"},"vehicle_type_id":"4","last_reported":1731849335,"current_range_meters":15200,"station_id":"ce4bhbh2rcd13ifvqeo0","pricing_plan_id":"cebpf4jnsgd1na2vs0mg"},{"bike_id":"3e0559a2-ab28-4130-8c3b-ed8e9d0ac1df","system_id":"levelo_inurba_marseille","lat":43.23151,"lon":5.43717,"is_reserved":false,"is_disabled":false,"rental_uris":{"android":"levelo://app?vid=3e0559a2-ab28-4130-8c3b-ed8e9d0ac1df","ios":"levelo://app?vid=3e0559a2-ab28-4130-8c3b-ed8e9d0ac1df"},"vehicle_type_id":"4","last_reported":1731849335,"current_range_meters":16000,"station_id":"ce4bhmp2rcd13ifvqgog","pricing_plan_id":"cebpf4jnsgd1na2vs0mg"},{"bike_id":"fa4639a1-63b5-4626-a5c2-1622b8abab6b","system_id":"levelo_inurba_marseille","lat":43.23055,"lon":5.35494,"is_reserved":false,"is_disabled":false,"rental_uris":{"android":"levelo://app?vid=fa4639a1-63b5-4626-a5c2-1622b8abab6b","ios":"levelo://app?vid=fa4639a1-63b5-4626-a5c2-1622b8abab6b"},"vehicle_type_id":"4","last_reported":1731849335,"current_range_meters":16800,"station_id":"cpo3342slgdg3j2ifvpg","pricing_plan_id":"cebpf4jnsgd1na2vs0mg"},{"bike_id":"e0f97405-687a-47d5-9f85-0e2ea6fafff8","system_id":"levelo_inurba_marseille","lat":43.28426,"lon":5.34991,"is_reserved":false,"is_disabled":false,"rental_uris":{"android":"levelo://app?vid=e0f97405-687a-47d5-9f85-0e2ea6fafff8","ios":"levelo://app?vid=e0f97405-687a-47d5-9f85-0e2ea6fafff8"},"vehicle_type_id":"4","last_reported":1731849335,"current_range_meters":26800,"station_id":"ce4bhbh2rcd13ifvqepg","pricing_plan_id":"cebpf4jnsgd1na2vs0mg"},{"bike_id":"0d84feb5-1b95-49ab-bf91-c474041a34ca","system_id":"levelo_inurba_marseille","lat":43.33025,"lon":5.39034,"is_reserved":false,"is_disabled":false,"rental_uris":{"android":"levelo://app?vid=0d84feb5-1b95-49ab-bf91-c474041a34ca","ios":"levelo://app?vid=0d84feb5-1b95-49ab-bf91-c474041a34ca"},"vehicle_type_id":"4","last_reported":1731849335,"current_range_meters":24800,"station_id":"ce4bhr92rcd13ifvqhrg","pricing_plan_id":"cebpf4jnsgd1na2vs0mg"},{"bike_id":"3463e504-7a7c-4e0c-9c9f-278ebebb8c52","system_id":"levelo_inurba_marseille","lat":43.22932,"lon":5.35378,"is_reserved":false,"is_disabled":false,"rental_uris":{"android":"levelo://app?vid=3463e504-7a7c-4e0c-9c9f-278ebebb8c52","ios":"levelo://app?vid=3463e504-7a7c-4e0c-9c9f-278ebebb8c52"},"vehicle_type_id":"4","last_reported":1731849335,"current_range_meters":33200,"station_id":"cpo3532slgdg3j2ikp40","pricing_plan_id":"cebpf4jnsgd1na2vs0mg"},{"bike_id":"211e51e8-dbf7-4d22-b6f1-8020f0c8fa6e","system_id":"levelo_inurba_marseille","lat":43.24174,"lon":5.36403,"is_reserved":false,"is_disabled":false,"rental_uris":{"android":"levelo://app?vid=211e51e8-dbf7-4d22-b6f1-8020f0c8fa6e","ios":"levelo://app?vid=211e51e8-dbf7-4d22-b6f1-8020f0c8fa6e"},"vehicle_type_id":"4","last_reported":1731849335,"current_range_meters":20000,"station_id":"cpo36qri1sfpv3e86is0","pricing_plan_id":"cebpf4jnsgd1na2vs0mg"},{"bike_id":"14b0dd5d-fb7f-4337-812d-2efd5b171e81","system_id":"levelo_inurba_marseille","lat":43.230569,"lon":5.354884,"is_reserved":false,"is_disabled":false,"rental_uris":{"android":"levelo://app?vid=14b0dd5d-fb7f-4337-812d-2efd5b171e81","ios":"levelo://app?vid=14b0dd5d-fb7f-4337-812d-2efd5b171e81"},"vehicle_type_id":"4","last_reported":1731849335,"current_range_meters":37600,"station_id":"cpo3342slgdg3j2ifvpg","pricing_plan_id":"cebpf4jnsgd1na2vs0mg"},{"bike_id":"01278896-bcc3-4115-9488-dd4acb3e5847","system_id":"levelo_inurba_marseille","lat":43.23196,"lon":5.35549,"is_reserved":false,"is_disabled":false,"rental_uris":{"android":"levelo://app?vid=01278896-bcc3-4115-9488-dd4acb3e5847","ios":"levelo://app?vid=01278896-bcc3-4115-9488-dd4acb3e5847"},"vehicle_type_id":"4","last_reported":1731849335,"current_range_meters":39200,"station_id":"ce4bhu92rcd13ifvqi70","pricing_plan_id":"cebpf4jnsgd1na2vs0mg"},{"bike_id":"41975fed-4f1c-44bf-9a3c-4e2efb2e8769","system_id":"levelo_inurba_marseille","lat":43.25573,"lon":5.38258,"is_reserved":false,"is_disabled":false,"rental_uris":{"android":"levelo://app?vid=41975fed-4f1c-44bf-9a3c-4e2efb2e8769","ios":"levelo://app?vid=41975fed-4f1c-44bf-9a3c-4e2efb2e8769"},"vehicle_type_id":"4","last_reported":1731849335,"current_range_meters":23200,"station_id":"ce4bhih2rcd13ifvqfs0","pricing_plan_id":"cebpf4jnsgd1na2vs0mg"},{"bike_id":"2df1fc99-67d3-4962-a043-2d989720685b","system_id":"levelo_inurba_marseille","lat":43.24542,"lon":5.39524,"is_reserved":false,"is_disabled":false,"rental_uris":{"android":"levelo://app?vid=2df1fc99-67d3-4962-a043-2d989720685b","ios":"levelo://app?vid=2df1fc99-67d3-4962-a043-2d989720685b"},"vehicle_type_id":"4","last_reported":1731849335,"current_range_meters":12800,"station_id":"ce4bhlp2rcd13ifvqgjg","pricing_plan_id":"cebpf4jnsgd1na2vs0mg"},{"bike_id":"5bbb81c5-6b74-41e3-bf2a-091bbcb4cd5f","system_id":"levelo_inurba_marseille","lat":43.23204,"lon":5.35551,"is_reserved":false,"is_disabled":false,"rental_uris":{"android":"levelo://app?vid=5bbb81c5-6b74-41e3-bf2a-091bbcb4cd5f","ios":"levelo://app?vid=5bbb81c5-6b74-41e3-bf2a-091bbcb4cd5f"},"vehicle_type_id":"4","last_reported":1731849335,"current_range_meters":2800,"station_id":"ce4bhu92rcd13ifvqi70","pricing_plan_id":"cebpf4jnsgd1na2vs0mg"},{"bike_id":"2c7aec1c-bb64-4e82-b5ea-8bd5a4351dd5","system_id":"levelo_inurba_marseille","lat":43.28153,"lon":5.42652,"is_reserved":false,"is_disabled":false,"rental_uris":{"android":"levelo://app?vid=2c7aec1c-bb64-4e82-b5ea-8bd5a4351dd5","ios":"levelo://app?vid=2c7aec1c-bb64-4e82-b5ea-8bd5a4351dd5"},"vehicle_type_id":"4","last_reported":1731849335,"current_range_meters":22800,"station_id":"ce4bhnh2rcd13ifvqgug","pricing_plan_id":"cebpf4jnsgd1na2vs0mg"},{"bike_id":"69e9ae08-66a5-4df3-9d54-b49a7613df9b","system_id":"levelo_inurba_marseille","lat":43.29939,"lon":5.36552,"is_reserved":false,"is_disabled":false,"rental_uris":{"android":"levelo://app?vid=69e9ae08-66a5-4df3-9d54-b49a7613df9b","ios":"levelo://app?vid=69e9ae08-66a5-4df3-9d54-b49a7613df9b"},"vehicle_type_id":"4","last_reported":1731849335,"current_range_meters":19200,"station_id":"ce4bgm92rcd13ifvqbr0","pricing_plan_id":"cebpf4jnsgd1na2vs0mg"},{"bike_id":"e85bd2b8-0d4f-4e4a-8c8d-fb74238bbf47","system_id":"levelo_inurba_marseille","lat":43.29193,"lon":5.3581,"is_reserved":false,"is_disabled":false,"rental_uris":{"android":"levelo://app?vid=e85bd2b8-0d4f-4e4a-8c8d-fb74238bbf47","ios":"levelo://app?vid=e85bd2b8-0d4f-4e4a-8c8d-fb74238bbf47"},"vehicle_type_id":"4","last_reported":1731849335,"current_range_meters":24800,"station_id":"ce4bhb12rcd13ifvqel0","pricing_plan_id":"cebpf4jnsgd1na2vs0mg"},{"bike_id":"29f2ab28-d801-45c3-b12f-52e9beb283b6","system_id":"levelo_inurba_marseille","lat":43.30141,"lon":5.38089,"is_reserved":false,"is_disabled":false,"rental_uris":{"android":"levelo://app?vid=29f2ab28-d801-45c3-b12f-52e9beb283b6","ios":"levelo://app?vid=29f2ab28-d801-45c3-b12f-52e9beb283b6"},"vehicle_type_id":"4","last_reported":1731849335,"current_range_meters":6800,"station_id":"ce4bgjp2rcd13ifvqbh0","pricing_plan_id":"cebpf4jnsgd1na2vs0mg"},{"bike_id":"a235fa93-4fac-4e30-b632-588855b912dd","system_id":"levelo_inurba_marseille","lat":43.31159,"lon":5.38721,"is_reserved":false,"is_disabled":false,"rental_uris":{"android":"levelo://app?vid=a235fa93-4fac-4e30-b632-588855b912dd","ios":"levelo://app?vid=a235fa93-4fac-4e30-b632-588855b912dd"},"vehicle_type_id":"4","last_reported":1731849335,"current_range_meters":9600,"station_id":"ce4bgv12rcd13ifvqcp0","pricing_plan_id":"cebpf4jnsgd1na2vs0mg"},{"bike_id":"56d63780-a530-46d4-9dc6-f2c81403ae7e","system_id":"levelo_inurba_marseille","lat":43.27374,"lon":5.36257,"is_reserved":false,"is_disabled":false,"rental_uris":{"android":"levelo://app?vid=56d63780-a530-46d4-9dc6-f2c81403ae7e","ios":"levelo://app?vid=56d63780-a530-46d4-9dc6-f2c81403ae7e"},"vehicle_type_id":"4","last_reported":1731849335,"current_range_meters":26800,"station_id":"ce4bhbh2rcd13ifvqeo0","pricing_plan_id":"cebpf4jnsgd1na2vs0mg"},{"bike_id":"a9850f2d-6feb-4d31-b456-0b115c79e22d","system_id":"levelo_inurba_marseille","lat":43.28152,"lon":5.42643,"is_reserved":false,"is_disabled":false,"rental_uris":{"android":"levelo://app?vid=a9850f2d-6feb-4d31-b456-0b115c79e22d","ios":"levelo://app?vid=a9850f2d-6feb-4d31-b456-0b115c79e22d"},"vehicle_type_id":"4","last_reported":1731849335,"current_range_meters":32800,"station_id":"ce4bhnh2rcd13ifvqgug","pricing_plan_id":"cebpf4jnsgd1na2vs0mg"},{"bike_id":"afcc3c36-da48-4cf9-b254-141c221314e0","system_id":"levelo_inurba_marseille","lat":43.26556,"lon":5.37284,"is_reserved":false,"is_disabled":false,"rental_uris":{"android":"levelo://app?vid=afcc3c36-da48-4cf9-b254-141c221314e0","ios":"levelo://app?vid=afcc3c36-da48-4cf9-b254-141c221314e0"},"vehicle_type_id":"4","last_reported":1731849335,"current_range_meters":26800,"station_id":"ce4bhg12rcd13ifvqf70","pricing_plan_id":"cebpf4jnsgd1na2vs0mg"},{"bike_id":"dd037030-9b27-4f90-b391-d949eb334827","system_id":"levelo_inurba_marseille","lat":43.24163,"lon":5.36396,"is_reserved":false,"is_disabled":false,"rental_uris":{"android":"levelo://app?vid=dd037030-9b27-4f90-b391-d949eb334827","ios":"levelo://app?vid=dd037030-9b27-4f90-b391-d949eb334827"},"vehicle_type_id":"4","last_reported":1731849335,"current_range_meters":11600,"station_id":"cpo36qri1sfpv3e86is0","pricing_plan_id":"cebpf4jnsgd1na2vs0mg"},{"bike_id":"acbf8b6b-bee3-4e63-b8bc-3c4923404364","system_id":"levelo_inurba_marseille","lat":43.28271,"lon":5.35061,"is_reserved":false,"is_disabled":false,"rental_uris":{"android":"levelo://app?vid=acbf8b6b-bee3-4e63-b8bc-3c4923404364","ios":"levelo://app?vid=acbf8b6b-bee3-4e63-b8bc-3c4923404364"},"vehicle_type_id":"4","last_reported":1731849335,"current_range_meters":28000,"station_id":"ce4bhbp2rcd13ifvqerg","pricing_plan_id":"cebpf4jnsgd1na2vs0mg"},{"bike_id":"eb1e3dd4-44e1-447b-b6e5-227b1f23dd28","system_id":"levelo_inurba_marseille","lat":43.2749,"lon":5.42457,"is_reserved":false,"is_disabled":false,"rental_uris":{"android":"levelo://app?vid=eb1e3dd4-44e1-447b-b6e5-227b1f23dd28","ios":"levelo://app?vid=eb1e3dd4-44e1-447b-b6e5-227b1f23dd28"},"vehicle_type_id":"4","last_reported":1731849335,"current_range_meters":6000,"station_id":"ce4bhn92rcd13ifvqgrg","pricing_plan_id":"cebpf4jnsgd1na2vs0mg"},{"bike_id":"397a27a8-7d0e-473e-97bb-6bb558d56364","system_id":"levelo_inurba_marseille","lat":43.28418,"lon":5.34978,"is_reserved":false,"is_disabled":false,"rental_uris":{"android":"levelo://app?vid=397a27a8-7d0e-473e-97bb-6bb558d56364","ios":"levelo://app?vid=397a27a8-7d0e-473e-97bb-6bb558d56364"},"vehicle_type_id":"4","last_reported":1731849335,"current_range_meters":17200,"station_id":"ce4bhbh2rcd13ifvqepg","pricing_plan_id":"cebpf4jnsgd1na2vs0mg"},{"bike_id":"455f0f8e-e0f0-4971-96ba-1127bc5fff2b","system_id":"levelo_inurba_marseille","lat":43.27385,"lon":5.36262,"is_reserved":false,"is_disabled":false,"rental_uris":{"android":"levelo://app?vid=455f0f8e-e0f0-4971-96ba-1127bc5fff2b","ios":"levelo://app?vid=455f0f8e-e0f0-4971-96ba-1127bc5fff2b"},"vehicle_type_id":"4","last_reported":1731849335,"current_range_meters":5600,"station_id":"ce4bhbh2rcd13ifvqeo0","pricing_plan_id":"cebpf4jnsgd1na2vs0mg"},{"bike_id":"eb6b9959-6b45-427d-97d5-f7d23964971b","system_id":"levelo_inurba_marseille","lat":43.30397,"lon":5.41311,"is_reserved":false,"is_disabled":false,"rental_uris":{"android":"levelo://app?vid=eb6b9959-6b45-427d-97d5-f7d23964971b","ios":"levelo://app?vid=eb6b9959-6b45-427d-97d5-f7d23964971b"},"vehicle_type_id":"4","last_reported":1731849335,"current_range_meters":38800,"station_id":"ce4bhop2rcd13ifvqh8g","pricing_plan_id":"cebpf4jnsgd1na2vs0mg"},{"bike_id":"904b8ebc-6b39-4ffa-9daf-f77e00a33524","system_id":"levelo_inurba_marseille","lat":43.28267,"lon":5.35071,"is_reserved":false,"is_disabled":false,"rental_uris":{"android":"levelo://app?vid=904b8ebc-6b39-4ffa-9daf-f77e00a33524","ios":"levelo://app?vid=904b8ebc-6b39-4ffa-9daf-f77e00a33524"},"vehicle_type_id":"4","last_reported":1731849335,"current_range_meters":38800,"station_id":"ce4bhbp2rcd13ifvqerg","pricing_plan_id":"cebpf4jnsgd1na2vs0mg"},{"bike_id":"329ada41-c8fd-4ad3-b560-792ac74e688c","system_id":"levelo_inurba_marseille","lat":43.27383,"lon":5.36261,"is_reserved":false,"is_disabled":false,"rental_uris":{"android":"levelo://app?vid=329ada41-c8fd-4ad3-b560-792ac74e688c","ios":"levelo://app?vid=329ada41-c8fd-4ad3-b560-792ac74e688c"},"vehicle_type_id":"4","last_reported":1731849335,"current_range_meters":4400,"station_id":"ce4bhbh2rcd13ifvqeo0","pricing_plan_id":"cebpf4jnsgd1na2vs0mg"},{"bike_id":"b1faf515-7fa1-41a5-9722-3df1585fe8c0","system_id":"levelo_inurba_marseille","lat":43.30305,"lon":5.39218,"is_reserved":false,"is_disabled":false,"rental_uris":{"android":"levelo://app?vid=b1faf515-7fa1-41a5-9722-3df1585fe8c0","ios":"levelo://app?vid=b1faf515-7fa1-41a5-9722-3df1585fe8c0"},"vehicle_type_id":"4","last_reported":1731849335,"current_range_meters":8000,"station_id":"ce4bgkh2rcd13ifvqbk0","pricing_plan_id":"cebpf4jnsgd1na2vs0mg"},{"bike_id":"05d1a99e-a602-43d6-8c91-67ccc902e3f4","system_id":"levelo_inurba_marseille","lat":43.27379,"lon":5.36246,"is_reserved":false,"is_disabled":false,"rental_uris":{"android":"levelo://app?vid=05d1a99e-a602-43d6-8c91-67ccc902e3f4","ios":"levelo://app?vid=05d1a99e-a602-43d6-8c91-67ccc902e3f4"},"vehicle_type_id":"4","last_reported":1731849335,"current_range_meters":12800,"station_id":"ce4bhbh2rcd13ifvqeo0","pricing_plan_id":"cebpf4jnsgd1na2vs0mg"},{"bike_id":"39fa075a-f1b0-47f6-9b15-a5040e7b4a5c","system_id":"levelo_inurba_marseille","lat":43.2827,"lon":5.35077,"is_reserved":false,"is_disabled":false,"rental_uris":{"android":"levelo://app?vid=39fa075a-f1b0-47f6-9b15-a5040e7b4a5c","ios":"levelo://app?vid=39fa075a-f1b0-47f6-9b15-a5040e7b4a5c"},"vehicle_type_id":"4","last_reported":1731849335,"current_range_meters":38800,"station_id":"ce4bhbp2rcd13ifvqerg","pricing_plan_id":"cebpf4jnsgd1na2vs0mg"},{"bike_id":"562ba9a5-bc29-431f-8c48-91d95e9e48ba","system_id":"levelo_inurba_marseille","lat":43.32474,"lon":5.3657,"is_reserved":false,"is_disabled":false,"rental_uris":{"android":"levelo://app?vid=562ba9a5-bc29-431f-8c48-91d95e9e48ba","ios":"levelo://app?vid=562ba9a5-bc29-431f-8c48-91d95e9e48ba"},"vehicle_type_id":"4","last_reported":1731849335,"current_range_meters":22800,"station_id":"ce4bhs12rcd13ifvqhvg","pricing_plan_id":"cebpf4jnsgd1na2vs0mg"},{"bike_id":"b0d72eb4-b88c-4990-b470-857aff18d899","system_id":"levelo_inurba_marseille","lat":43.29259,"lon":5.40904,"is_reserved":false,"is_disabled":false,"rental_uris":{"android":"levelo://app?vid=b0d72eb4-b88c-4990-b470-857aff18d899","ios":"levelo://app?vid=b0d72eb4-b88c-4990-b470-857aff18d899"},