{"last_updated":1736500206,"ttl":60,"version":"2.2","data":{"bikes":[{"bike_id":"6ba3023b-e160-451a-a11e-7a2f288a6f7b","system_id":"levelo_inurba_marseille","lat":43.30299,"lon":5.37702,"is_reserved":false,"is_disabled":false,"rental_uris":{"android":"levelo://app?vid=6ba3023b-e160-451a-a11e-7a2f288a6f7b","ios":"levelo://app?vid=6ba3023b-e160-451a-a11e-7a2f288a6f7b"},"vehicle_type_id":"4","last_reported":1736500206,"current_range_meters":38800,"station_id":"ce4bguh2rcd13ifvqcj0","pricing_plan_id":"cebpf4jnsgd1na2vs0mg"},{"bike_id":"b1d526b2-fd99-49c8-9834-2443cece1e71","system_id":"levelo_inurba_marseille","lat":43.32508,"lon":5.4149,"is_reserved":false,"is_disabled":false,"rental_uris":{"android":"levelo://app?vid=b1d526b2-fd99-49c8-9834-2443cece1e71","ios":"levelo://app?vid=b1d526b2-fd99-49c8-9834-2443cece1e71"},"vehicle_type_id":"4","last_reported":1736500206,"current_range_meters":19600,"station_id":"ce4bhq12rcd13ifvqhhg","pricing_plan_id":"cebpf4jnsgd1na2vs0mg"},{"bike_id":"08c3061d-9748-41a9-a3ad-a860e966d4d9","system_id":"levelo_inurba_marseille","lat":43.33582,"lon":5.41048,"is_reserved":false,"is_disabled":true,"rental_uris":{"android":"levelo://app?vid=08c3061d-9748-41a9-a3ad-a860e966d4d9","ios":"levelo://app?vid=08c3061d-9748-41a9-a3ad-a860e966d4d9"},"vehicle_type_id":"4","last_reported":1736500206,"current_range_meters":38800,"station_id":"ce4bhqh2rcd13ifvqhmg","pricing_plan_id":"cebpf4jnsgd1na2vs0mg"},{"bike_id":"87c59741-1f05-4e3d-8c14-38f01f8816a9","system_id":"levelo_inurba_marseille","lat":43.23166,"lon":5.35564,"is_reserved":false,"is_disabled":false,"rental_uris":{"android":"levelo://app?vid=87c59741-1f05-4e3d-8c14-38f01f8816a9","ios":"levelo://app?vid=87c59741-1f05-4e3d-8c14-38f01f8816a9"},"vehicle_type_id":"4","last_reported":1736500206,"current_range_meters":10800,"station_id":"ce4bhu92rcd13ifvqi70","pricing_plan_id":"cebpf4jnsgd1na2vs0mg"},{"bike_id":"307ee6d6-3d00-4916-8cba-c6bba6b05e89","system_id":"levelo_inurba_marseille","lat":43.325378,"lon":5.414242,"is_reserved":false,"is_disabled":false,"rental_uris":{"android":"levelo://app?vid=307ee6d6-3d00-4916-8cba-c6bba6b05e89","ios":"levelo://app?vid=307ee6d6-3d00-4916-8cba-c6bba6b05e89"},"vehicle_type_id":"4","last_reported":1736500206,"current_range_meters":34000,"station_id":"ce4bhq12rcd13ifvqhhg","pricing_plan_id":"cebpf4jnsgd1na2vs0mg"},{"bike_id":"bbabd9f4-0056-40a8-881b-b14292dbcb52","system_id":"levelo_inurba_marseille","lat":43.29257,"lon":5.40905,"is_reserved":false,"is_disabled":false,"rental_uris":{"android":"levelo://app?vid=bbabd9f4-0056-40a8-881b-b14292dbcb52","ios":"levelo://app?vid=bbabd9f4-0056-40a8-881b-b14292dbcb52"},"vehicle_type_id":"4","last_reported":1736500206,"current_range_meters":8400,"station_id":"ce4bh192rcd13ifvqdc0","pricing_plan_id":"cebpf4jnsgd1na2vs0mg"},{"bike_id":"6369c140-3323-465a-a3e4-b9f4b2637437","system_id":"levelo_inurba_marseille","lat":43.25903,"lon":5.40951,"is_reserved":false,"is_disabled":false,"rental_uris":{"android":"levelo://app?vid=6369c140-3323-465a-a3e4-b9f4b2637437","ios":"levelo://app?vid=6369c140-3323-465a-a3e4-b9f4b2637437"},"vehicle_type_id":"4","last_reported":1736500206,"current_range_meters":30800,"station_id":"ce4bhm92rcd13ifvqglg","pricing_plan_id":"cebpf4jnsgd1na2vs0mg"},{"bike_id":"c41c948e-ec41-4193-aa46-37aca070655a","system_id":"levelo_inurba_marseille","lat":43.29616,"lon":5.37152,"is_reserved":false,"is_disabled":false,"rental_uris":{"android":"levelo://app?vid=c41c948e-ec41-4193-aa46-37aca070655a","ios":"levelo://app?vid=c41c948e-ec41-4193-aa46-37aca070655a"},"vehicle_type_id":"4","last_reported":1736500206,"current_range_meters":29600,"station_id":"ce4bgnh2rcd13ifvqc0g","pricing_plan_id":"cebpf4jnsgd1na2vs0mg"},{"bike_id":"47532ca9-10bb-4fb6-9e01-8331536a997f","system_id":"levelo_inurba_marseille","lat":43.30543,"lon":5.36535,"is_reserved":false,"is_disabled":false,"rental_uris":{"android":"levelo://app?vid=47532ca9-10bb-4fb6-9e01-8331536a997f","ios":"levelo://app?vid=47532ca9-10bb-4fb6-9e01-8331536a997f"},"vehicle_type_id":"4","last_reported":1736500206,"current_range_meters":19600,"station_id":"ce4bgs12rcd13ifvqcag","pricing_plan_id":"cebpf4jnsgd1na2vs0mg"},{"bike_id":"afb718d5-7872-4a14-a7c2-32d8aa426d2d","system_id":"levelo_inurba_marseille","lat":43.29014,"lon":5.39988,"is_reserved":false,"is_disabled":false,"rental_uris":{"android":"levelo://app?vid=afb718d5-7872-4a14-a7c2-32d8aa426d2d","ios":"levelo://app?vid=afb718d5-7872-4a14-a7c2-32d8aa426d2d"},"vehicle_type_id":"4","last_reported":1736500206,"current_range_meters":35600,"station_id":"ce4bh392rcd13ifvqdm0","pricing_plan_id":"cebpf4jnsgd1na2vs0mg"},{"bike_id":"6727a1a4-fd3a-4415-a389-697df82e67ba","system_id":"levelo_inurba_marseille","lat":43.27976,"lon":5.41669,"is_reserved":false,"is_disabled":true,"rental_uris":{"android":"levelo://app?vid=6727a1a4-fd3a-4415-a389-697df82e67ba","ios":"levelo://app?vid=6727a1a4-fd3a-4415-a389-697df82e67ba"},"vehicle_type_id":"4","last_reported":1736500206,"current_range_meters":24400,"station_id":"ce4bho12rcd13ifvqh1g","pricing_plan_id":"cebpf4jnsgd1na2vs0mg"},{"bike_id":"cc31367b-3625-4ae2-9534-f66aae460308","system_id":"levelo_inurba_marseille","lat":43.24077,"lon":5.37752,"is_reserved":false,"is_disabled":false,"rental_uris":{"android":"levelo://app?vid=cc31367b-3625-4ae2-9534-f66aae460308","ios":"levelo://app?vid=cc31367b-3625-4ae2-9534-f66aae460308"},"vehicle_type_id":"4","last_reported":1736500206,"current_range_meters":38800,"station_id":"ce4bhnp2rcd13ifvqgvg","pricing_plan_id":"cebpf4jnsgd1na2vs0mg"},{"bike_id":"7df73f52-8199-4a3f-b0e9-424d028349bf","system_id":"levelo_inurba_marseille","lat":43.31371,"lon":5.36756,"is_reserved":false,"is_disabled":false,"rental_uris":{"android":"levelo://app?vid=7df73f52-8199-4a3f-b0e9-424d028349bf","ios":"levelo://app?vid=7df73f52-8199-4a3f-b0e9-424d028349bf"},"vehicle_type_id":"4","last_reported":1736500206,"current_range_meters":39200,"station_id":"ce4bgr92rcd13ifvqc6g","pricing_plan_id":"cebpf4jnsgd1na2vs0mg"},{"bike_id":"13256e87-fce7-4b99-bf5e-620659eb80be","system_id":"levelo_inurba_marseille","lat":43.26783,"lon":5.39417,"is_reserved":false,"is_disabled":false,"rental_uris":{"android":"levelo://app?vid=13256e87-fce7-4b99-bf5e-620659eb80be","ios":"levelo://app?vid=13256e87-fce7-4b99-bf5e-620659eb80be"},"vehicle_type_id":"4","last_reported":1736500206,"current_range_meters":30400,"station_id":"ce4bhh12rcd13ifvqfg0","pricing_plan_id":"cebpf4jnsgd1na2vs0mg"},{"bike_id":"0545e156-ef09-4ac6-ad67-04baadd28fa9","system_id":"levelo_inurba_marseille","lat":43.29074,"lon":5.37183,"is_reserved":false,"is_disabled":false,"rental_uris":{"android":"levelo://app?vid=0545e156-ef09-4ac6-ad67-04baadd28fa9","ios":"levelo://app?vid=0545e156-ef09-4ac6-ad67-04baadd28fa9"},"vehicle_type_id":"4","last_reported":1736500206,"current_range_meters":24400,"station_id":"ce4bh5p2rcd13ifvqe4g","pricing_plan_id":"cebpf4jnsgd1na2vs0mg"},{"bike_id":"ece82557-6569-4215-9027-5b44a37fe52e","system_id":"levelo_inurba_marseille","lat":43.291,"lon":5.37986,"is_reserved":false,"is_disabled":true,"rental_uris":{"android":"levelo://app?vid=ece82557-6569-4215-9027-5b44a37fe52e","ios":"levelo://app?vid=ece82557-6569-4215-9027-5b44a37fe52e"},"vehicle_type_id":"4","last_reported":1736500206,"current_range_meters":0,"station_id":"","pricing_plan_id":"cebpf4jnsgd1na2vs0mg"},{"bike_id":"977d354c-6379-4f84-914f-6ff8717c00ed","system_id":"levelo_inurba_marseille","lat":43.29584,"lon":5.38109,"is_reserved":false,"is_disabled":false,"rental_uris":{"android":"levelo://app?vid=977d354c-6379-4f84-914f-6ff8717c00ed","ios":"levelo://app?vid=977d354c-6379-4f84-914f-6ff8717c00ed"},"vehicle_type_id":"4","last_reported":1736500206,"current_range_meters":33200,"station_id":"ce4bgl12rcd13ifvqbo0","pricing_plan_id":"cebpf4jnsgd1na2vs0mg"},{"bike_id":"c360d990-dcc5-4611-9114-4b1e79e3aa74","system_id":"levelo_inurba_marseille","lat":43.30501,"lon":5.36579,"is_reserved":false,"is_disabled":false,"rental_uris":{"android":"levelo://app?vid=c360d990-dcc5-4611-9114-4b1e79e3aa74","ios":"levelo://app?vid=c360d990-dcc5-4611-9114-4b1e79e3aa74"},"vehicle_type_id":"4","last_reported":1736500206,"current_range_meters":37600,"station_id":"","pricing_plan_id":"cebpf4jnsgd1na2vs0mg"},{"bike_id":"0cf38007-2c23-4b91-914b-33859bf6f7a7","system_id":"levelo_inurba_marseille","lat":43.27352,"lon":5.39419,"is_reserved":false,"is_disabled":false,"rental_uris":{"android":"levelo://app?vid=0cf38007-2c23-4b91-914b-33859bf6f7a7","ios":"levelo://app?vid=0cf38007-2c23-4b91-914b-33859bf6f7a7"},"vehicle_type_id":"4","last_reported":1736500206,"current_range_meters":36800,"station_id":"","pricing_plan_id":"cebpf4jnsgd1na2vs0mg"},{"bike_id":"04745ce5-c863-4d05-a4b1-70a293af40c0","system_id":"levelo_inurba_marseille","lat":43.29255,"lon":5.40898,"is_reserved":false,"is_disabled":false,"rental_uris":{"android":"levelo://app?vid=04745ce5-c863-4d05-a4b1-70a293af40c0","ios":"levelo://app?vid=04745ce5-c863-4d05-a4b1-70a293af40c0"},"vehicle_type_id":"4","last_reported":1736500206,"current_range_meters":10000,"station_id":"ce4bh192rcd13ifvqdc0","pricing_plan_id":"cebpf4jnsgd1na2vs0mg"},{"bike_id":"b5d13eb4-41de-422c-9a48-b438cf019f5b","system_id":"levelo_inurba_marseille","lat":43.30947,"lon":5.39038,"is_reserved":false,"is_disabled":false,"rental_uris":{"android":"levelo://app?vid=b5d13eb4-41de-422c-9a48-b438cf019f5b","ios":"levelo://app?vid=b5d13eb4-41de-422c-9a48-b438cf019f5b"},"vehicle_type_id":"4","last_reported":1736500206,"current_range_meters":6000,"station_id":"ce4bgup2rcd13ifvqco0","pricing_plan_id":"cebpf4jnsgd1na2vs0mg"},{"bike_id":"004c2ac5-7f25-4e48-8a80-9a02537f6ba6","system_id":"levelo_inurba_marseille","lat":43.32097,"lon":5.36758,"is_reserved":false,"is_disabled":false,"rental_uris":{"android":"levelo://app?vid=004c2ac5-7f25-4e48-8a80-9a02537f6ba6","ios":"levelo://app?vid=004c2ac5-7f25-4e48-8a80-9a02537f6ba6"},"vehicle_type_id":"4","last_reported":1736500206,"current_range_meters":36400,"station_id":"ce4bhrh2rcd13ifvqhug","pricing_plan_id":"cebpf4jnsgd1na2vs0mg"},{"bike_id":"1d7eed34-26a7-4525-a746-95fc01d85a12","system_id":"levelo_inurba_marseille","lat":43.26948,"lon":5.38639,"is_reserved":false,"is_disabled":false,"rental_uris":{"android":"levelo://app?vid=1d7eed34-26a7-4525-a746-95fc01d85a12","ios":"levelo://app?vid=1d7eed34-26a7-4525-a746-95fc01d85a12"},"vehicle_type_id":"4","last_reported":1736500206,"current_range_meters":39200,"station_id":"ce4bhh92rcd13ifvqfh0","pricing_plan_id":"cebpf4jnsgd1na2vs0mg"},{"bike_id":"49d154ab-b066-4a04-b00a-22a27742a39e","system_id":"levelo_inurba_marseille","lat":43.24173,"lon":5.39746,"is_reserved":false,"is_disabled":false,"rental_uris":{"android":"levelo://app?vid=49d154ab-b066-4a04-b00a-22a27742a39e","ios":"levelo://app?vid=49d154ab-b066-4a04-b00a-22a27742a39e"},"vehicle_type_id":"4","last_reported":1736500206,"current_range_meters":39200,"station_id":"ce4bhn12rcd13ifvqgpg","pricing_plan_id":"cebpf4jnsgd1na2vs0mg"},{"bike_id":"c8d5983d-a6ce-4633-b65a-3ebb322784f5","system_id":"levelo_inurba_marseille","lat":43.28944,"lon":5.36625,"is_reserved":false,"is_disabled":false,"rental_uris":{"android":"levelo://app?vid=c8d5983d-a6ce-4633-b65a-3ebb322784f5","ios":"levelo://app?vid=c8d5983d-a6ce-4633-b65a-3ebb322784f5"},"vehicle_type_id":"4","last_reported":1736500206,"current_range_meters":29600,"station_id":"ce4bhap2rcd13ifvqek0","pricing_plan_id":"cebpf4jnsgd1na2vs0mg"},{"bike_id":"50b71c1b-b2a4-447e-ad41-1105966bb345","system_id":"levelo_inurba_marseille","lat":43.24077,"lon":5.37755,"is_reserved":false,"is_disabled":false,"rental_uris":{"android":"levelo://app?vid=50b71c1b-b2a4-447e-ad41-1105966bb345","ios":"levelo://app?vid=50b71c1b-b2a4-447e-ad41-1105966bb345"},"vehicle_type_id":"4","last_reported":1736500206,"current_range_meters":2800,"station_id":"","pricing_plan_id":"cebpf4jnsgd1na2vs0mg"},{"bike_id":"71b27858-056a-414e-87d9-627821b4bf18","system_id":"levelo_inurba_marseille","lat":43.24165,"lon":5.36392,"is_reserved":false,"is_disabled":false,"rental_uris":{"android":"levelo://app?vid=71b27858-056a-414e-87d9-627821b4bf18","ios":"levelo://app?vid=71b27858-056a-414e-87d9-627821b4bf18"},"vehicle_type_id":"4","last_reported":1736500206,"current_range_meters":20000,"station_id":"cpo36qri1sfpv3e86is0","pricing_plan_id":"cebpf4jnsgd1na2vs0mg"},{"bike_id":"8a0df70f-3b60-4510-bdf9-1eb41a2abb80","system_id":"levelo_inurba_marseille","lat":43.33613,"lon":5.410048,"is_reserved":false,"is_disabled":false,"rental_uris":{"android":"levelo://app?vid=8a0df70f-3b60-4510-bdf9-1eb41a2abb80","ios":"levelo://app?vid=8a0df70f-3b60-4510-bdf9-1eb41a2abb80"},"vehicle_type_id":"4","last_reported":1736500206,"current_range_meters":38000,"station_id":"ce4bhqh2rcd13ifvqhmg","pricing_plan_id":"cebpf4jnsgd1na2vs0mg"},{"bike_id":"f25d3969-ce28-48df-a2d5-3fe5435fc78e","system_id":"levelo_inurba_marseille","lat":43.26566,"lon":5.3902,"is_reserved":false,"is_disabled":false,"rental_uris":{"android":"levelo://app?vid=f25d3969-ce28-48df-a2d5-3fe5435fc78e","ios":"levelo://app?vid=f25d3969-ce28-48df-a2d5-3fe5435fc78e"},"vehicle_type_id":"4","last_reported":1736500206,"current_range_meters":3200,"station_id":"ce4bhe12rcd13ifvqf30","pricing_plan_id":"cebpf4jnsgd1na2vs0mg"},{"bike_id":"dff344b0-dfb0-4b54-8781-d1e2a440f582","system_id":"levelo_inurba_marseille","lat":43.33562,"lon":5.40992,"is_reserved":false,"is_disabled":false,"rental_uris":{"android":"levelo://app?vid=dff344b0-dfb0-4b54-8781-d1e2a440f582","ios":"levelo://app?vid=dff344b0-dfb0-4b54-8781-d1e2a440f582"},"vehicle_type_id":"4","last_reported":1736500206,"current_range_meters":25600,"station_id":"","pricing_plan_id":"cebpf4jnsgd1na2vs0mg"},{"bike_id":"e1d410c6-22be-4056-903b-af42d8b54faa","system_id":"levelo_inurba_marseille","lat":43.24995,"lon":5.38921,"is_reserved":false,"is_disabled":false,"rental_uris":{"android":"levelo://app?vid=e1d410c6-22be-4056-903b-af42d8b54faa","ios":"levelo://app?vid=e1d410c6-22be-4056-903b-af42d8b54faa"},"vehicle_type_id":"4","last_reported":1736500206,"current_range_meters":27600,"station_id":"ce4bhgp2rcd13ifvqfd0","pricing_plan_id":"cebpf4jnsgd1na2vs0mg"},{"bike_id":"a05149ba-2329-47dd-8d6f-ddf95775e6c7","system_id":"levelo_inurba_marseille","lat":43.29168,"lon":5.35799,"is_reserved":false,"is_disabled":true,"rental_uris":{"android":"levelo://app?vid=a05149ba-2329-47dd-8d6f-ddf95775e6c7","ios":"levelo://app?vid=a05149ba-2329-47dd-8d6f-ddf95775e6c7"},"vehicle_type_id":"4","last_reported":1736500206,"current_range_meters":37600,"station_id":"ce4bhb12rcd13ifvqel0","pricing_plan_id":"cebpf4jnsgd1na2vs0mg"},{"bike_id":"01eb461a-cee0-4c1b-a46e-5caeaa77ac9a","system_id":"levelo_inurba_marseille","lat":43.2801,"lon":5.41732,"is_reserved":false,"is_disabled":true,"rental_uris":{"android":"levelo://app?vid=01eb461a-cee0-4c1b-a46e-5caeaa77ac9a","ios":"levelo://app?vid=01eb461a-cee0-4c1b-a46e-5caeaa77ac9a"},"vehicle_type_id":"4","last_reported":1736500206,"current_range_meters":36800,"station_id":"","pricing_plan_id":"cebpf4jnsgd1na2vs0mg"},{"bike_id":"678ecc6a-68b8-4782-ab6d-14117fed5936","system_id":"levelo_inurba_marseille","lat":43.30906,"lon":5.36865,"is_reserved":false,"is_disabled":false,"rental_uris":{"android":"levelo://app?vid=678ecc6a-68b8-4782-ab6d-14117fed5936","ios":"levelo://app?vid=678ecc6a-68b8-4782-ab6d-14117fed5936"},"vehicle_type_id":"4","last_reported":1736500206,"current_range_meters":24400,"station_id":"ce4bgn92rcd13ifvqbvg","pricing_plan_id":"cebpf4jnsgd1na2vs0mg"},{"bike_id":"9d5535df-7edb-47f9-ac14-54793dd626e0","system_id":"levelo_inurba_marseille","lat":43.22929,"lon":5.35379,"is_reserved":false,"is_disabled":false,"rental_uris":{"android":"levelo://app?vid=9d5535df-7edb-47f9-ac14-54793dd626e0","ios":"levelo://app?vid=9d5535df-7edb-47f9-ac14-54793dd626e0"},"vehicle_type_id":"4","last_reported":1736500206,"current_range_meters":25200,"station_id":"cpo3532slgdg3j2ikp40","pricing_plan_id":"cebpf4jnsgd1na2vs0mg"},{"bike_id":"6a37db2e-c575-4bb3-b858-7fc08de43543","system_id":"levelo_inurba_marseille","lat":43.26556,"lon":5.37285,"is_reserved":false,"is_disabled":false,"rental_uris":{"android":"levelo://app?vid=6a37db2e-c575-4bb3-b858-7fc08de43543","ios":"levelo://app?vid=6a37db2e-c575-4bb3-b858-7fc08de43543"},"vehicle_type_id":"4","last_reported":1736500206,"current_range_meters":8400,"station_id":"ce4bhg12rcd13ifvqf70","pricing_plan_id":"cebpf4jnsgd1na2vs0mg"},{"bike_id":"0617fde0-97c2-4716-8570-25581d6a6543","system_id":"levelo_inurba_marseille","lat":43.2749,"lon":5.42456,"is_reserved":false,"is_disabled":false,"rental_uris":{"android":"levelo://app?vid=0617fde0-97c2-4716-8570-25581d6a6543","ios":"levelo://app?vid=0617fde0-97c2-4716-8570-25581d6a6543"},"vehicle_type_id":"4","last_reported":1736500206,"current_range_meters":38400,"station_id":"ce4bhn92rcd13ifvqgrg","pricing_plan_id":"cebpf4jnsgd1na2vs0mg"},{"bike_id":"a04eea75-bc55-434f-8652-cb91ea72decf","system_id":"levelo_inurba_marseille","lat":43.28934,"lon":5.3963,"is_reserved":false,"is_disabled":false,"rental_uris":{"android":"levelo://app?vid=a04eea75-bc55-434f-8652-cb91ea72decf","ios":"levelo://app?vid=a04eea75-bc55-434f-8652-cb91ea72decf"},"vehicle_type_id":"4","last_reported":1736500206,"current_range_meters":36800,"station_id":"ce4bh3h2rcd13ifvqdn0","pricing_plan_id":"cebpf4jnsgd1na2vs0mg"},{"bike_id":"d8bac2ef-8be8-4228-a077-ac9ccb738de3","system_id":"levelo_inurba_marseille","lat":43.30592,"lon":5.39342,"is_reserved":false,"is_disabled":false,"rental_uris":{"android":"levelo://app?vid=d8bac2ef-8be8-4228-a077-ac9ccb738de3","ios":"levelo://app?vid=d8bac2ef-8be8-4228-a077-ac9ccb738de3"},"vehicle_type_id":"4","last_reported":1736500206,"current_range_meters":35600,"station_id":"ce4bh0p2rcd13ifvqd80","pricing_plan_id":"cebpf4jnsgd1na2vs0mg"},{"bike_id":"584a1406-b996-4bcf-9561-a734ba7423ac","system_id":"levelo_inurba_marseille","lat":43.30572,"lon":5.39317,"is_reserved":false,"is_disabled":false,"rental_uris":{"android":"levelo://app?vid=584a1406-b996-4bcf-9561-a734ba7423ac","ios":"levelo://app?vid=584a1406-b996-4bcf-9561-a734ba7423ac"},"vehicle_type_id":"4","last_reported":1736500206,"current_range_meters":23200,"station_id":"","pricing_plan_id":"cebpf4jnsgd1na2vs0mg"},{"bike_id":"c6b699bc-7dbc-4db9-bcd4-adcc1854b939","system_id":"levelo_inurba_marseille","lat":43.30535,"lon":5.367112,"is_reserved":false,"is_disabled":false,"rental_uris":{"android":"levelo://app?vid=c6b699bc-7dbc-4db9-bcd4-adcc1854b939","ios":"levelo://app?vid=c6b699bc-7dbc-4db9-bcd4-adcc1854b939"},"vehicle_type_id":"4","last_reported":1736500206,"current_range_meters":35600,"station_id":"ce4bgrp2rcd13ifvqc9g","pricing_plan_id":"cebpf4jnsgd1na2vs0mg"},{"bike_id":"dbe4d7d2-95f9-4a28-b000-f9ac7c3f52eb","system_id":"levelo_inurba_marseille","lat":43.29186,"lon":5.39314,"is_reserved":false,"is_disabled":true,"rental_uris":{"android":"levelo://app?vid=dbe4d7d2-95f9-4a28-b000-f9ac7c3f52eb","ios":"levelo://app?vid=dbe4d7d2-95f9-4a28-b000-f9ac7c3f52eb"},"vehicle_type_id":"4","last_reported":1736500206,"current_range_meters":0,"station_id":"ce4bh192rcd13ifvqdd0","pricing_plan_id":"cebpf4jnsgd1na2vs0mg"},{"bike_id":"2dc66654-3021-43ef-bbb3-3e8b62333eb6","system_id":"levelo_inurba_marseille","lat":43.2961,"lon":5.40628,"is_reserved":false,"is_disabled":true,"rental_uris":{"android":"levelo://app?vid=2dc66654-3021-43ef-bbb3-3e8b62333eb6","ios":"levelo://app?vid=2dc66654-3021-43ef-bbb3-3e8b62333eb6"},"vehicle_type_id":"4","last_reported":1736500206,"current_range_meters":0,"station_id":"","pricing_plan_id":"cebpf4jnsgd1na2vs0mg"},{"bike_id":"ba934327-f06a-4136-9118-297313cf32de","system_id":"levelo_inurba_marseille","lat":43.30506,"lon":5.39937,"is_reserved":false,"is_disabled":false,"rental_uris":{"android":"levelo://app?vid=ba934327-f06a-4136-9118-297313cf32de","ios":"levelo://app?vid=ba934327-f06a-4136-9118-297313cf32de"},"vehicle_type_id":"4","last_reported":1736500206,"current_range_meters":22800,"station_id":"","pricing_plan_id":"cebpf4jnsgd1na2vs0mg"},{"bike_id":"89e50c5b-d589-4e92-acc7-729a00809e13","system_id":"levelo_inurba_marseille","lat":43.30171,"lon":5.37418,"is_reserved":false,"is_disabled":false,"rental_uris":{"android":"levelo://app?vid=89e50c5b-d589-4e92-acc7-729a00809e13","ios":"levelo://app?vid=89e50c5b-d589-4e92-acc7-729a00809e13"},"vehicle_type_id":"4","last_reported":1736500206,"current_range_meters":28400,"station_id":"ce4bgs92rcd13ifvqcc0","pricing_plan_id":"cebpf4jnsgd1na2vs0mg"},{"bike_id":"159aaf1c-63cd-4e19-9746-2cd772ea40a2","system_id":"levelo_inurba_marseille","lat":43.299153,"lon":5.37468,"is_reserved":false,"is_disabled":false,"rental_uris":{"android":"levelo://app?vid=159aaf1c-63cd-4e19-9746-2cd772ea40a2","ios":"levelo://app?vid=159aaf1c-63cd-4e19-9746-2cd772ea40a2"},"vehicle_type_id":"4","last_reported":1736500206,"current_range_meters":39200,"station_id":"ce4bgjh2rcd13ifvqbg0","pricing_plan_id":"cebpf4jnsgd1na2vs0mg"},{"bike_id":"6d907632-b7a4-409f-98d5-031bae93ab87","system_id":"levelo_inurba_marseille","lat":43.23952,"lon":5.36636,"is_reserved":false,"is_disabled":false,"rental_uris":{"android":"levelo://app?vid=6d907632-b7a4-409f-98d5-031bae93ab87","ios":"levelo://app?vid=6d907632-b7a4-409f-98d5-031bae93ab87"},"vehicle_type_id":"4","last_reported":1736500206,"current_range_meters":8400,"station_id":"ce4bhi12rcd13ifvqfp0","pricing_plan_id":"cebpf4jnsgd1na2vs0mg"},{"bike_id":"168d3300-3ab5-4f6d-8373-dfdf5d1f123f","system_id":"levelo_inurba_marseille","lat":43.28926,"lon":5.36395,"is_reserved":false,"is_disabled":true,"rental_uris":{"android":"levelo://app?vid=168d3300-3ab5-4f6d-8373-dfdf5d1f123f","ios":"levelo://app?vid=168d3300-3ab5-4f6d-8373-dfdf5d1f123f"},"vehicle_type_id":"4","last_reported":1736500206,"current_range_meters":17200,"station_id":"ce4bhc92rcd13ifvqetg","pricing_plan_id":"cebpf4jnsgd1na2vs0mg"},{"bike_id":"a83eb06c-df38-42e7-91d1-36fdbc816855","system_id":"levelo_inurba_marseille","lat":43.30468,"lon":5.3793,"is_reserved":false,"is_disabled":false,"rental_uris":{"android":"levelo://app?vid=a83eb06c-df38-42e7-91d1-36fdbc816855","ios":"levelo://app?vid=a83eb06c-df38-42e7-91d1-36fdbc816855"},"vehicle_type_id":"4","last_reported":1736500206,"current_range_meters":35200,"station_id":"ce4bgup2rcd13ifvqcn0","pricing_plan_id":"cebpf4jnsgd1na2vs0mg"},{"bike_id":"eb00741f-b31b-4237-8d18-44c6283bc4aa","system_id":"levelo_inurba_marseille","lat":43.28977,"lon":5.3784,"is_reserved":false,"is_disabled":false,"rental_uris":{"android":"levelo://app?vid=eb00741f-b31b-4237-8d18-44c6283bc4aa","ios":"levelo://app?vid=eb00741f-b31b-4237-8d18-44c6283bc4aa"},"vehicle_type_id":"4","last_reported":1736500206,"current_range_meters":37600,"station_id":"ce4bh9p2rcd13ifvqed0","pricing_plan_id":"cebpf4jnsgd1na2vs0mg"},{"bike_id":"723ecdfd-ec11-4544-a21b-4b0b18fff10c","system_id":"levelo_inurba_marseille","lat":43.24064,"lon":5.37756,"is_reserved":false,"is_disabled":false,"rental_uris":{"android":"levelo://app?vid=723ecdfd-ec11-4544-a21b-4b0b18fff10c","ios":"levelo://app?vid=723ecdfd-ec11-4544-a21b-4b0b18fff10c"},"vehicle_type_id":"4","last_reported":1736500206,"current_range_meters":30000,"station_id":"ce4bhnp2rcd13ifvqgvg","pricing_plan_id":"cebpf4jnsgd1na2vs0mg"},{"bike_id":"1c4af67f-8fa5-48f1-8a74-50fb1828db9d","system_id":"levelo_inurba_marseille","lat":43.24173,"lon":5.3972,"is_reserved":false,"is_disabled":false,"rental_uris":{"android":"levelo://app?vid=1c4af67f-8fa5-48f1-8a74-50fb1828db9d","ios":"levelo://app?vid=1c4af67f-8fa5-48f1-8a74-50fb1828db9d"},"vehicle_type_id":"4","last_reported":1736500206,"current_range_meters":34800,"station_id":"ce4bhn12rcd13ifvqgpg","pricing_plan_id":"cebpf4jnsgd1na2vs0mg"},{"bike_id":"b7349972-0b13-497f-91f6-6865ff7be1ea","system_id":"levelo_inurba_marseille","lat":43.28478,"lon":5.3847,"is_reserved":false,"is_disabled":true,"rental_uris":{"android":"levelo://app?vid=b7349972-0b13-497f-91f6-6865ff7be1ea","ios":"levelo://app?vid=b7349972-0b13-497f-91f6-6865ff7be1ea"},"vehicle_type_id":"4","last_reported":1736500206,"current_range_meters":36800,"station_id":"ce4bh512rcd13ifvqe3g","pricing_plan_id":"cebpf4jnsgd1na2vs0mg"},{"bike_id":"dafa00c8-aa63-4e9a-b090-bc223ab75b71","system_id":"levelo_inurba_marseille","lat":43.25911,"lon":5.40911,"is_reserved":false,"is_disabled":false,"rental_uris":{"android":"levelo://app?vid=dafa00c8-aa63-4e9a-b090-bc223ab75b71","ios":"levelo://app?vid=dafa00c8-aa63-4e9a-b090-bc223ab75b71"},"vehicle_type_id":"4","last_reported":1736500206,"current_range_meters":9200,"station_id":"ce4bhm92rcd13ifvqglg","pricing_plan_id":"cebpf4jnsgd1na2vs0mg"},{"bike_id":"530a0c23-abb9-4f85-9e84-b5f6f2cd2fb6","system_id":"levelo_inurba_marseille","lat":43.2408,"lon":5.37744,"is_reserved":false,"is_disabled":false,"rental_uris":{"android":"levelo://app?vid=530a0c23-abb9-4f85-9e84-b5f6f2cd2fb6","ios":"levelo://app?vid=530a0c23-abb9-4f85-9e84-b5f6f2cd2fb6"},"vehicle_type_id":"4","last_reported":1736500206,"current_range_meters":12000,"station_id":"ce4bhnp2rcd13ifvqgvg","pricing_plan_id":"cebpf4jnsgd1na2vs0mg"},{"bike_id":"93694bdf-a7cf-41e9-8e25-ebd0fa2079cb","system_id":"levelo_inurba_marseille","lat":43.23189,"lon":5.39989,"is_reserved":false,"is_disabled":false,"rental_uris":{"android":"levelo://app?vid=93694bdf-a7cf-41e9-8e25-ebd0fa2079cb","ios":"levelo://app?vid=93694bdf-a7cf-41e9-8e25-ebd0fa2079cb"},"vehicle_type_id":"4","last_reported":1736500206,"current_range_meters":38800,"station_id":"ce4bhn12rcd13ifvqgqg","pricing_plan_id":"cebpf4jnsgd1na2vs0mg"},{"bike_id":"1b4587cd-457c-43a2-92e0-249106938ab1","system_id":"levelo_inurba_marseille","lat":43.26197,"lon":5.379243,"is_reserved":false,"is_disabled":false,"rental_uris":{"android":"levelo://app?vid=1b4587cd-457c-43a2-92e0-249106938ab1","ios":"levelo://app?vid=1b4587cd-457c-43a2-92e0-249106938ab1"},"vehicle_type_id":"4","last_reported":1736500206,"current_range_meters":26000,"station_id":"ce4bhjp2rcd13ifvqg90","pricing_plan_id":"cebpf4jnsgd1na2vs0mg"},{"bike_id":"c6f45082-4f52-43c4-af86-c1fa309fdcc4","system_id":"levelo_inurba_marseille","lat":43.28697,"lon":5.37953,"is_reserved":false,"is_disabled":false,"rental_uris":{"android":"levelo://app?vid=c6f45082-4f52-43c4-af86-c1fa309fdcc4","ios":"levelo://app?vid=c6f45082-4f52-43c4-af86-c1fa309fdcc4"},"vehicle_type_id":"4","last_reported":1736500206,"current_range_meters":38000,"station_id":"ce4bh9p2rcd13ifvqec0","pricing_plan_id":"cebpf4jnsgd1na2vs0mg"},{"bike_id":"dc7c3254-8743-46e0-83e6-a66225f60699","system_id":"levelo_inurba_marseille","lat":43.31243,"lon":5.36856,"is_reserved":false,"is_disabled":false,"rental_uris":{"android":"levelo://app?vid=dc7c3254-8743-46e0-83e6-a66225f60699","ios":"levelo://app?vid=dc7c3254-8743-46e0-83e6-a66225f60699"},"vehicle_type_id":"4","last_reported":1736500206,"current_range_meters":24000,"station_id":"ce4bgl92rcd13ifvqbq0","pricing_plan_id":"cebpf4jnsgd1na2vs0mg"},{"bike_id":"dd13f0c4-e690-4768-ad18-228a6675454f","system_id":"levelo_inurba_marseille","lat":43.29303,"lon":5.37451,"is_reserved":false,"is_disabled":true,"rental_uris":{"android":"levelo://app?vid=dd13f0c4-e690-4768-ad18-228a6675454f","ios":"levelo://app?vid=dd13f0c4-e690-4768-ad18-228a6675454f"},"vehicle_type_id":"4","last_reported":1736500206,"current_range_meters":37600,"station_id":"ce4bgi12rcd13ifvqb70","pricing_plan_id":"cebpf4jnsgd1na2vs0mg"},{"bike_id":"426ee80e-06b0-4d0f-86a5-ea8ad64aaa11","system_id":"levelo_inurba_marseille","lat":43.289165,"lon":5.437796,"is_reserved":false,"is_disabled":false,"rental_uris":{"android":"levelo://app?vid=426ee80e-06b0-4d0f-86a5-ea8ad64aaa11","ios":"levelo://app?vid=426ee80e-06b0-4d0f-86a5-ea8ad64aaa11"},"vehicle_type_id":"4","last_reported":1736500206,"current_range_meters":22400,"station_id":"","pricing_plan_id":"cebpf4jnsgd1na2vs0mg"},{"bike_id":"d3d06299-8188-4708-962a-74ee86887ea9","system_id":"levelo_inurba_marseille","lat":43.29847,"lon":5.36274,"is_reserved":false,"is_disabled":false,"rental_uris":{"android":"levelo://app?vid=d3d06299-8188-4708-962a-74ee86887ea9","ios":"levelo://app?vid=d3d06299-8188-4708-962a-74ee86887ea9"},"vehicle_type_id":"4","last_reported":1736500206,"current_range_meters":39200,"station_id":"ce4bgpp2rcd13ifvqc3g","pricing_plan_id":"cebpf4jnsgd1na2vs0mg"},{"bike_id":"dd09464b-fe43-4093-9a53-c76c5a13fb7a","system_id":"levelo_inurba_marseille","lat":43.30945,"lon":5.39032,"is_reserved":false,"is_disabled":false,"rental_uris":{"android":"levelo://app?vid=dd09464b-fe43-4093-9a53-c76c5a13fb7a","ios":"levelo://app?vid=dd09464b-fe43-4093-9a53-c76c5a13fb7a"},"vehicle_type_id":"4","last_reported":1736500206,"current_range_meters":14800,"station_id":"ce4bgup2rcd13ifvqco0","pricing_plan_id":"cebpf4jnsgd1na2vs0mg"},{"bike_id":"f5ca1267-8796-4e04-ae34-eb0613d65667","system_id":"levelo_inurba_marseille","lat":43.29587,"lon":5.37711,"is_reserved":false,"is_disabled":true,"rental_uris":{"android":"levelo://app?vid=f5ca1267-8796-4e04-ae34-eb0613d65667","ios":"levelo://app?vid=f5ca1267-8796-4e04-ae34-eb0613d65667"},"vehicle_type_id":"4","last_reported":1736500206,"current_range_meters":16000,"station_id":"ce4bgi92rcd13ifvqb90","pricing_plan_id":"cebpf4jnsgd1na2vs0mg"},{"bike_id":"d0f76416-28d4-47d3-8578-496ee2780c97","system_id":"levelo_inurba_marseille","lat":43.30945,"lon":5.39059,"is_reserved":false,"is_disabled":false,"rental_uris":{"android":"levelo://app?vid=d0f76416-28d4-47d3-8578-496ee2780c97","ios":"levelo://app?vid=d0f76416-28d4-47d3-8578-496ee2780c97"},"vehicle_type_id":"4","last_reported":1736500206,"current_range_meters":26800,"station_id":"ce4bgup2rcd13ifvqco0","pricing_plan_id":"cebpf4jnsgd1na2vs0mg"},{"bike_id":"3b61a1b4-ad9a-4a04-a490-9fef0ae39b8c","system_id":"levelo_inurba_marseille","lat":43.27964,"lon":5.38701,"is_reserved":false,"is_disabled":false,"rental_uris":{"android":"levelo://app?vid=3b61a1b4-ad9a-4a04-a490-9fef0ae39b8c","ios":"levelo://app?vid=3b61a1b4-ad9a-4a04-a490-9fef0ae39b8c"},"vehicle_type_id":"4","last_reported":1736500206,"current_range_meters":38800,"station_id":"ce4bhg12rcd13ifvqf80","pricing_plan_id":"cebpf4jnsgd1na2vs0mg"},{"bike_id":"3bdfcce7-7876-47ca-903e-7ecd52c14ace","system_id":"levelo_inurba_marseille","lat":43.29036,"lon":5.40015,"is_reserved":false,"is_disabled":false,"rental_uris":{"android":"levelo://app?vid=3bdfcce7-7876-47ca-903e-7ecd52c14ace","ios":"levelo://app?vid=3bdfcce7-7876-47ca-903e-7ecd52c14ace"},"vehicle_type_id":"4","last_reported":1736500206,"current_range_meters":38800,"station_id":"ce4bh392rcd13ifvqdm0","pricing_plan_id":"cebpf4jnsgd1na2vs0mg"},{"bike_id":"0224d198-8f68-449e-af8f-320da499ea5f","system_id":"levelo_inurba_marseille","lat":43.30953,"lon":5.39059,"is_reserved":false,"is_disabled":false,"rental_uris":{"android":"levelo://app?vid=0224d198-8f68-449e-af8f-320da499ea5f","ios":"levelo://app?vid=0224d198-8f68-449e-af8f-320da499ea5f"},"vehicle_type_id":"4","last_reported":1736500206,"current_range_meters":4400,"station_id":"ce4bgup2rcd13ifvqco0","pricing_plan_id":"cebpf4jnsgd1na2vs0mg"},{"bike_id":"aeb5c1e7-80b3-4264-b4dd-27292493ad7b","system_id":"levelo_inurba_marseille","lat":43.27491,"lon":5.42454,"is_reserved":false,"is_disabled":false,"rental_uris":{"android":"levelo://app?vid=aeb5c1e7-80b3-4264-b4dd-27292493ad7b","ios":"levelo://app?vid=aeb5c1e7-80b3-4264-b4dd-27292493ad7b"},"vehicle_type_id":"4","last_reported":1736500206,"current_range_meters":12400,"station_id":"ce4bhn92rcd13ifvqgrg","pricing_plan_id":"cebpf4jnsgd1na2vs0mg"},{"bike_id":"4b38882c-ba9d-4741-88fd-5a0cd2a690f7","system_id":"levelo_inurba_marseille","lat":43.28444,"lon":5.39203,"is_reserved":false,"is_disabled":true,"rental_uris":{"android":"levelo://app?vid=4b38882c-ba9d-4741-88fd-5a0cd2a690f7","ios":"levelo://app?vid=4b38882c-ba9d-4741-88fd-5a0cd2a690f7"},"vehicle_type_id":"4","last_reported":1736500206,"current_range_meters":9200,"station_id":"ce4bhoh2rcd13ifvqh5g","pricing_plan_id":"cebpf4jnsgd1na2vs0mg"},{"bike_id":"91f32c84-4c54-4718-bd8d-8f7ac1521b7a","system_id":"levelo_inurba_marseille","lat":43.28932,"lon":5.36631,"is_reserved":false,"is_disabled":false,"rental_uris":{"android":"levelo://app?vid=91f32c84-4c54-4718-bd8d-8f7ac1521b7a","ios":"levelo://app?vid=91f32c84-4c54-4718-bd8d-8f7ac1521b7a"},"vehicle_type_id":"4","last_reported":1736500206,"current_range_meters":21600,"station_id":"ce4bhap2rcd13ifvqek0","pricing_plan_id":"cebpf4jnsgd1na2vs0mg"},{"bike_id":"a8c7ad2f-4ead-4783-9594-954940a5e54a","system_id":"levelo_inurba_marseille","lat":43.3045,"lon":5.37925,"is_reserved":false,"is_disabled":false,"rental_uris":{"android":"levelo://app?vid=a8c7ad2f-4ead-4783-9594-954940a5e54a","ios":"levelo://app?vid=a8c7ad2f-4ead-4783-9594-954940a5e54a"},"vehicle_type_id":"4","last_reported":1736500206,"current_range_meters":28400,"station_id":"ce4bgup2rcd13ifvqcn0","pricing_plan_id":"cebpf4jnsgd1na2vs0mg"},{"bike_id":"e51b2d29-f6fd-4ba7-80e0-f85ab68cc69e","system_id":"levelo_inurba_marseille","lat":43.27048,"lon":5.42363,"is_reserved":false,"is_disabled":false,"rental_uris":{"android":"levelo://app?vid=e51b2d29-f6fd-4ba7-80e0-f85ab68cc69e","ios":"levelo://app?vid=e51b2d29-f6fd-4ba7-80e0-f85ab68cc69e"},"vehicle_type_id":"4","last_reported":1736500206,"current_range_meters":39200,"station_id":"ce4bhk92rcd13ifvqgb0","pricing_plan_id":"cebpf4jnsgd1na2vs0mg"},{"bike_id":"94fb4a5f-a6ea-4a1f-9bc1-2c2817e24934","system_id":"levelo_inurba_marseille","lat":43.28153,"lon":5.42645,"is_reserved":false,"is_disabled":false,"rental_uris":{"android":"levelo://app?vid=94fb4a5f-a6ea-4a1f-9bc1-2c2817e24934","ios":"levelo://app?vid=94fb4a5f-a6ea-4a1f-9bc1-2c2817e24934"},"vehicle_type_id":"4","last_reported":1736500206,"current_range_meters":39200,"station_id":"ce4bhnh2rcd13ifvqgug","pricing_plan_id":"cebpf4jnsgd1na2vs0mg"},{"bike_id":"c603c76e-af9c-449d-bf09-0700cc0eea19","system_id":"levelo_inurba_marseille","lat":43.29577,"lon":5.39988,"is_reserved":false,"is_disabled":true,"rental_uris":{"android":"levelo://app?vid=c603c76e-af9c-449d-bf09-0700cc0eea19","ios":"levelo://app?vid=c603c76e-af9c-449d-bf09-0700cc0eea19"},"vehicle_type_id":"4","last_reported":1736500206,"current_range_meters":30400,"station_id":"ce4bh312rcd13ifvqdj0","pricing_plan_id":"cebpf4jnsgd1na2vs0mg"},{"bike_id":"2c9f87a8-522f-432b-ba2f-20b0bd1c694f","system_id":"levelo_inurba_marseille","lat":43.30894,"lon":5.36878,"is_reserved":false,"is_disabled":false,"rental_uris":{"android":"levelo://app?vid=2c9f87a8-522f-432b-ba2f-20b0bd1c694f","ios":"levelo://app?vid=2c9f87a8-522f-432b-ba2f-20b0bd1c694f"},"vehicle_type_id":"4","last_reported":1736500206,"current_range_meters":39200,"station_id":"ce4bgn92rcd13ifvqbvg","pricing_plan_id":"cebpf4jnsgd1na2vs0mg"},{"bike_id":"e318d08d-f558-4db8-aac3-636bd0473228","system_id":"levelo_inurba_marseille","lat":43.2731,"lon":5.39082,"is_reserved":false,"is_disabled":false,"rental_uris":{"android":"levelo://app?vid=e318d08d-f558-4db8-aac3-636bd0473228","ios":"levelo://app?vid=e318d08d-f558-4db8-aac3-636bd0473228"},"vehicle_type_id":"4","last_reported":1736500206,"current_range_meters":27200,"station_id":"ce4bhgp2rcd13ifvqfe0","pricing_plan_id":"cebpf4jnsgd1na2vs0mg"},{"bike_id":"d1dfdd5b-7c77-4eb7-b4b4-c8880890dbb4","system_id":"levelo_inurba_marseille","lat":43.336084,"lon":5.410273,"is_reserved":false,"is_disabled":false,"rental_uris":{"android":"levelo://app?vid=d1dfdd5b-7c77-4eb7-b4b4-c8880890dbb4","ios":"levelo://app?vid=d1dfdd5b-7c77-4eb7-b4b4-c8880890dbb4"},"vehicle_type_id":"4","last_reported":1736500206,"current_range_meters":19200,"station_id":"ce4bhqh2rcd13ifvqhmg","pricing_plan_id":"cebpf4jnsgd1na2vs0mg"},{"bike_id":"f4d35d94-341f-499d-bbad-429bed32756d","system_id":"levelo_inurba_marseille","lat":43.28617,"lon":5.35106,"is_reserved":false,"is_disabled":false,"rental_uris":{"android":"levelo://app?vid=f4d35d94-341f-499d-bbad-429bed32756d","ios":"levelo://app?vid=f4d35d94-341f-499d-bbad-429bed32756d"},"vehicle_type_id":"4","last_reported":1736500206,"current_range_meters":23200,"station_id":"ce4bhch2rcd13ifvqeug","pricing_plan_id":"cebpf4jnsgd1na2vs0mg"},{"bike_id":"6d0e52d5-171f-4142-95ad-661bb82f8fd1","system_id":"levelo_inurba_marseille","lat":43.26565,"lon":5.37309,"is_reserved":false,"is_disabled":false,"rental_uris":{"android":"levelo://app?vid=6d0e52d5-171f-4142-95ad-661bb82f8fd1","ios":"levelo://app?vid=6d0e52d5-171f-4142-95ad-661bb82f8fd1"},"vehicle_type_id":"4","last_reported":1736500206,"current_range_meters":32400,"station_id":"ce4bhg12rcd13ifvqf70","pricing_plan_id":"cebpf4jnsgd1na2vs0mg"},{"bike_id":"ab8c3cac-e770-43bf-af7c-a639635f95f0","system_id":"levelo_inurba_marseille","lat":43.24076,"lon":5.37754,"is_reserved":false,"is_disabled":false,"rental_uris":{"android":"levelo://app?vid=ab8c3cac-e770-43bf-af7c-a639635f95f0","ios":"levelo://app?vid=ab8c3cac-e770-43bf-af7c-a639635f95f0"},"vehicle_type_id":"4","last_reported":1736500206,"current_range_meters":38800,"station_id":"ce4bhnp2rcd13ifvqgvg","pricing_plan_id":"cebpf4jnsgd1na2vs0mg"},{"bike_id":"d3e3137c-b817-431e-b9e2-d48abf244e86","system_id":"levelo_inurba_marseille","lat":43.24032,"lon":5.37802,"is_reserved":false,"is_disabled":false,"rental_uris":{"android":"levelo://app?vid=d3e3137c-b817-431e-b9e2-d48abf244e86","ios":"levelo://app?vid=d3e3137c-b817-431e-b9e2-d48abf244e86"},"vehicle_type_id":"4","last_reported":1736500206,"current_range_meters":38800,"station_id":"ce4bhnp2rcd13ifvqgvg","pricing_plan_id":"cebpf4jnsgd1na2vs0mg"},{"bike_id":"6c16b955-c13c-49a6-a5bb-29559922d02c","system_id":"levelo_inurba_marseille","lat":43.239588,"lon":5.366258,"is_reserved":false,"is_disabled":false,"rental_uris":{"android":"levelo://app?vid=6c16b955-c13c-49a6-a5bb-29559922d02c","ios":"levelo://app?vid=6c16b955-c13c-49a6-a5bb-29559922d02c"},"vehicle_type_id":"4","last_reported":1736500206,"current_range_meters":25600,"station_id":"ce4bhi12rcd13ifvqfp0","pricing_plan_id":"cebpf4jnsgd1na2vs0mg"},{"bike_id":"e5b661c0-5639-40a4-90a1-dcef1f99f698","system_id":"levelo_inurba_marseille","lat":43.30446,"lon":5.37902,"is_reserved":false,"is_disabled":false,"rental_uris":{"android":"levelo://app?vid=e5b661c0-5639-40a4-90a1-dcef1f99f698","ios":"levelo://app?vid=e5b661c0-5639-40a4-90a1-dcef1f99f698"},"vehicle_type_id":"4","last_reported":1736500206,"current_range_meters":34800,"station_id":"ce4bgup2rcd13ifvqcn0","pricing_plan_id":"cebpf4jnsgd1na2vs0mg"},{"bike_id":"dd95b172-24fd-4056-9bb1-1ba37d74b460","system_id":"levelo_inurba_marseille","lat":43.25573,"lon":5.3825,"is_reserved":false,"is_disabled":false,"rental_uris":{"android":"levelo://app?vid=dd95b172-24fd-4056-9bb1-1ba37d74b460","ios":"levelo://app?vid=dd95b172-24fd-4056-9bb1-1ba37d74b460"},"vehicle_type_id":"4","last_reported":1736500206,"current_range_meters":16800,"station_id":"ce4bhih2rcd13ifvqfs0","pricing_plan_id":"cebpf4jnsgd1na2vs0mg"},{"bike_id":"12323eec-1433-4883-aa92-3c35327b329a","system_id":"levelo_inurba_marseille","lat":43.24677,"lon":5.38164,"is_reserved":false,"is_disabled":false,"rental_uris":{"android":"levelo://app?vid=12323eec-1433-4883-aa92-3c35327b329a","ios":"levelo://app?vid=12323eec-1433-4883-aa92-3c35327b329a"},"vehicle_type_id":"4","last_reported":1736500206,"current_range_meters":38800,"station_id":"ce4bhih2rcd13ifvqfr0","pricing_plan_id":"cebpf4jnsgd1na2vs0mg"},{"bike_id":"1310b0a7-2d92-48eb-8ea3-50e68c13d411","system_id":"levelo_inurba_marseille","lat":43.30342,"lon":5.3769,"is_reserved":false,"is_disabled":false,"rental_uris":{"android":"levelo://app?vid=1310b0a7-2d92-48eb-8ea3-50e68c13d411","ios":"levelo://app?vid=1310b0a7-2d92-48eb-8ea3-50e68c13d411"},"vehicle_type_id":"4","last_reported":1736500206,"current_range_meters":38800,"station_id":"ce4bguh2rcd13ifvqcj0","pricing_plan_id":"cebpf4jnsgd1na2vs0mg"},{"bike_id":"8ccc8e97-74da-4804-b3b2-b8d5b6a142cb","system_id":"levelo_inurba_marseille","lat":43.27965,"lon":5.38731,"is_reserved":false,"is_disabled":false,"rental_uris":{"android":"levelo://app?vid=8ccc8e97-74da-4804-b3b2-b8d5b6a142cb","ios":"levelo://app?vid=8ccc8e97-74da-4804-b3b2-b8d5b6a142cb"},"vehicle_type_id":"4","last_reported":1736500206,"current_range_meters":24800,"station_id":"ce4bhg12rcd13ifvqf80","pricing_plan_id":"cebpf4jnsgd1na2vs0mg"},{"bike_id":"7437d4a8-be52-4a7e-ae40-a6077fad1b67","system_id":"levelo_inurba_marseille","lat":43.26497,"lon":5.39568,"is_reserved":false,"is_disabled":false,"rental_uris":{"android":"levelo://app?vid=7437d4a8-be52-4a7e-ae40-a6077fad1b67","ios":"levelo://app?vid=7437d4a8-be52-4a7e-ae40-a6077fad1b67"},"vehicle_type_id":"4","last_reported":1736500206,"current_range_meters":38800,"station_id":"ce4bhi12rcd13ifvqfq0","pricing_plan_id":"cebpf4jnsgd1na2vs0mg"},{"bike_id":"c6c08f57-1b2b-4d53-aabf-26763484169b","system_id":"levelo_inurba_marseille","lat":43.26564,"lon":5.38985,"is_reserved":false,"is_disabled":true,"rental_uris":{"android":"levelo://app?vid=c6c08f57-1b2b-4d53-aabf-26763484169b","ios":"levelo://app?vid=c6c08f57-1b2b-4d53-aabf-26763484169b"},"vehicle_type_id":"4","last_reported":1736500206,"current_range_meters":0,"station_id":"ce4bhe12rcd13ifvqf30","pricing_plan_id":"cebpf4jnsgd1na2vs0mg"},{"bike_id":"4128a329-9f92-4942-845a-f8bcda68ed73","system_id":"levelo_inurba_marseille","lat":43.30186,"lon":5.38091,"is_reserved":false,"is_disabled":false,"rental_uris":{"android":"levelo://app?vid=4128a329-9f92-4942-845a-f8bcda68ed73","ios":"levelo://app?vid=4128a329-9f92-4942-845a-f8bcda68ed73"},"vehicle_type_id":"4","last_reported":1736500206,"current_range_meters":32800,"station_id":"ce4bgjp2rcd13ifvqbh0","pricing_plan_id":"cebpf4jnsgd1na2vs0mg"},{"bike_id":"13c9ffd1-0571-4a01-b1c4-cdbe934dff2a","system_id":"levelo_inurba_marseille","lat":43.24995,"lon":5.38934,"is_reserved":false,"is_disabled":false,"rental_uris":{"android":"levelo://app?vid=13c9ffd1-0571-4a01-b1c4-cdbe934dff2a","ios":"levelo://app?vid=13c9ffd1-0571-4a01-b1c4-cdbe934dff2a"},"vehicle_type_id":"4","last_reported":1736500206,"current_range_meters":32800,"station_id":"ce4bhgp2rcd13ifvqfd0","pricing_plan_id":"cebpf4jnsgd1na2vs0mg"},{"bike_id":"7deebc6a-c3bb-42dc-b263-dc89a7b2b1a2","system_id":"levelo_inurba_marseille","lat":43.313197,"lon":5.386197,"is_reserved":false,"is_disabled":false,"rental_uris":{"android":"levelo://app?vid=7deebc6a-c3bb-42dc-b263-dc89a7b2b1a2","ios":"levelo://app?vid=7deebc6a-c3bb-42dc-b263-dc89a7b2b1a2"},"vehicle_type_id":"4","last_reported":1736500206,"current_range_meters":35600,"station_id":"ce4bgt92rcd13ifvqcf0","pricing_plan_id":"cebpf4jnsgd1na2vs0mg"},{"bike_id":"db2bb327-84ca-49b3-a980-9c69d6ef41a2","system_id":"levelo_inurba_marseille","lat":43.23184,"lon":5.35552,"is_reserved":false,"is_disabled":false,"rental_uris":{"android":"levelo://app?vid=db2bb327-84ca-49b3-a980-9c69d6ef41a2","ios":"levelo://app?vid=db2bb327-84ca-49b3-a980-9c69d6ef41a2"},"vehicle_type_id":"4","last_reported":1736500206,"current_range_meters":38400,"station_id":"ce4bhu92rcd13ifvqi70","pricing_plan_id":"cebpf4jnsgd1na2vs0mg"},{"bike_id":"b1cd05bd-cc6d-452b-8b8c-f24ee7fb627f","system_id":"levelo_inurba_marseille","lat":43.25836,"lon":5.39422,"is_reserved":false,"is_disabled":false,"rental_uris":{"android":"levelo://app?vid=b1cd05bd-cc6d-452b-8b8c-f24ee7fb627f","ios":"levelo://app?vid=b1cd05bd-cc6d-452b-8b8c-f24ee7fb627f"},"vehicle_type_id":"4","last_reported":1736500206,"current_range_meters":36800,"station_id":"ce4bhip2rcd13ifvqft0","pricing_plan_id":"cebpf4jnsgd1na2vs0mg"},{"bike_id":"0efc64bf-284f-4e33-b1df-0d37f1b904ea","system_id":"levelo_inurba_marseille","lat":43.33601,"lon":5.41049,"is_reserved":false,"is_disabled":false,"rental_uris":{"android":"levelo://app?vid=0efc64bf-284f-4e33-b1df-0d37f1b904ea","ios":"levelo://app?vid=0efc64bf-284f-4e33-b1df-0d37f1b904ea"},"vehicle_type_id":"4","last_reported":1736500206,"current_range_meters":38800,"station_id":"ce4bhqh2rcd13ifvqhmg","pricing_plan_id":"cebpf4jnsgd1na2vs0mg"},{"bike_id":"9d27d288-9638-4ffa-a41f-98c9e72676c0","system_id":"levelo_inurba_marseille","lat":43.23168,"lon":5.35574,"is_reserved":false,"is_disabled":false,"rental_uris":{"android":"levelo://app?vid=9d27d288-9638-4ffa-a41f-98c9e72676c0","ios":"levelo://app?vid=9d27d288-9638-4ffa-a41f-98c9e72676c0"},"vehicle_type_id":"4","last_reported":1736500206,"current_range_meters":8800,"station_id":"ce4bhu92rcd13ifvqi70","pricing_plan_id":"cebpf4jnsgd1na2vs0mg"},{"bike_id":"5aee579e-4d1a-4cdd-b13b-286ee35e83d9","system_id":"levelo_inurba_marseille","lat":43.25915,"lon":5.4092,"is_reserved":false,"is_disabled":false,"rental_uris":{"android":"levelo://app?vid=5aee579e-4d1a-4cdd-b13b-286ee35e83d9","ios":"levelo://app?vid=5aee579e-4d1a-4cdd-b13b-286ee35e83d9"},"vehicle_type_id":"4","last_reported":1736500206,"current_range_meters":36800,"station_id":"ce4bhm92rcd13ifvqglg","pricing_plan_id":"cebpf4jnsgd1na2vs0mg"},{"bike_id":"d7c65588-4135-45ba-a72e-ee6776949c5a","system_id":"levelo_inurba_marseille","lat":43.29985,"lon":5.38503,"is_reserved":false,"is_disabled":true,"rental_uris":{"android":"levelo://app?vid=d7c65588-4135-45ba-a72e-ee6776949c5a","ios":"levelo://app?vid=d7c65588-4135-45ba-a72e-ee6776949c5a"},"vehicle_type_id":"4","last_reported":1736500206,"current_range_meters":27200,"station_id":"ce4bgj92rcd13ifvqbd0","pricing_plan_id":"cebpf4jnsgd1na2vs0mg"},{"bike_id":"195b1819-19b9-466c-af34-125b7d608721","system_id":"levelo_inurba_marseille","lat":43.29439,"lon":5.3975,"is_reserved":false,"is_disabled":false,"rental_uris":{"android":"levelo://app?vid=195b1819-19b9-466c-af34-125b7d608721","ios":"levelo://app?vid=195b1819-19b9-466c-af34-125b7d608721"},"vehicle_type_id":"4","last_reported":1736500206,"current_range_meters":12400,"station_id":"ce4bh3h2rcd13ifvqdo0","pricing_plan_id":"cebpf4jnsgd1na2vs0mg"},{"bike_id":"a023b9e2-2413-4b3d-a218-b9727e7097b5","system_id":"levelo_inurba_marseille","lat":43.292991,"lon":5.374633,"is_reserved":false,"is_disabled":true,"rental_uris":{"android":"levelo://app?vid=a023b9e2-2413-4b3d-a218-b9727e7097b5","ios":"levelo://app?vid=a023b9e2-2413-4b3d-a218-b9727e7097b5"},"vehicle_type_id":"4","last_reported":1736500206,"current_range_meters":25600,"station_id":"ce4bgi12rcd13ifvqb70","pricing_plan_id":"cebpf4jnsgd1na2vs0mg"},{"bike_id":"2c56569d-ff0b-4284-ba64-74611e7006a4","system_id":"levelo_inurba_marseille","lat":43.25,"lon":5.38935,"is_reserved":false,"is_disabled":false,"rental_uris":{"android":"levelo://app?vid=2c56569d-ff0b-4284-ba64-74611e7006a4","ios":"levelo://app?vid=2c56569d-ff0b-4284-ba64-74611e7006a4"},"vehicle_type_id":"4","last_reported":1736500206,"current_range_meters":20400,"station_id":"ce4bhgp2rcd13ifvqfd0","pricing_plan_id":"cebpf4jnsgd1na2vs0mg"},{"bike_id":"b7a9af4a-f050-47c0-8298-26fae1024e10","system_id":"levelo_inurba_marseille","lat":43.2669,"lon":5.38252,"is_reserved":false,"is_disabled":false,"rental_uris":{"android":"levelo://app?vid=b7a9af4a-f050-47c0-8298-26fae1024e10","ios":"levelo://app?vid=b7a9af4a-f050-47c0-8298-26fae1024e10"},"vehicle_type_id":"4","last_reported":1736500206,"current_range_meters":25600,"station_id":"ce4bhg92rcd13ifvqf90","pricing_plan_id":"cebpf4jnsgd1na2vs0mg"},{"bike_id":"6db24be0-87cf-4437-9d32-a18bcf76ec30","system_id":"levelo_inurba_marseille","lat":43.28707,"lon":5.37935,"is_reserved":false,"is_disabled":false,"rental_uris":{"android":"levelo://app?vid=6db24be0-87cf-4437-9d32-a18bcf76ec30","ios":"levelo://app?vid=6db24be0-87cf-4437-9d32-a18bcf76ec30"},"vehicle_type_id":"4","last_reported":1736500206,"current_range_meters":16800,"station_id":"ce4bh9p2rcd13ifvqec0","pricing_plan_id":"cebpf4jnsgd1na2vs0mg"},{"bike_id":"45916835-983b-455c-9865-3f21f46b155f","system_id":"levelo_inurba_marseille","lat":43.31367,"lon":5.38505,"is_reserved":false,"is_disabled":false,"rental_uris":{"android":"levelo://app?vid=45916835-983b-455c-9865-3f21f46b155f","ios":"levelo://app?vid=45916835-983b-455c-9865-3f21f46b155f"},"vehicle_type_id":"4","last_reported":1736500206,"current_range_meters":34000,"station_id":"ce4bgt92rcd13ifvqcf0","pricing_plan_id":"cebpf4jnsgd1na2vs0mg"},{"bike_id":"9ed1c0a7-5035-4dde-954f-378a0451f32a","system_id":"levelo_inurba_marseille","lat":43.2396,"lon":5.3663,"is_reserved":false,"is_disabled":true,"rental_uris":{"android":"levelo://app?vid=9ed1c0a7-5035-4dde-954f-378a0451f32a","ios":"levelo://app?vid=9ed1c0a7-5035-4dde-954f-378a0451f32a"},"vehicle_type_id":"4","last_reported":1736500206,"current_range_meters":1200,"station_id":"ce4bhi12rcd13ifvqfp0","pricing_plan_id":"cebpf4jnsgd1na2vs0mg"},{"bike_id":"5e52071d-7890-4e3f-bbd9-fed138027d4b","system_id":"levelo_inurba_marseille","lat":43.29866,"lon":5.38934,"is_reserved":false,"is_disabled":true,"rental_uris":{"android":"levelo://app?vid=5e52071d-7890-4e3f-bbd9-fed138027d4b","ios":"levelo://app?vid=5e52071d-7890-4e3f-bbd9-fed138027d4b"},"vehicle_type_id":"4","last_reported":1736500206,"current_range_meters":38000,"station_id":"ce4bh392rcd13ifvqdl0","pricing_plan_id":"cebpf4jnsgd1na2vs0mg"},{"bike_id":"0a153024-f69a-4c58-8fc8-2506f6a399c0","system_id":"levelo_inurba_marseille","lat":43.25722,"lon":5.37669,"is_reserved":false,"is_disabled":false,"rental_uris":{"android":"levelo://app?vid=0a153024-f69a-4c58-8fc8-2506f6a399c0","ios":"levelo://app?vid=0a153024-f69a-4c58-8fc8-2506f6a399c0"},"vehicle_type_id":"4","last_reported":1736500206,"current_range_meters":36800,"station_id":"","pricing_plan_id":"cebpf4jnsgd1na2vs0mg"},{"bike_id":"1f04e43e-ad27-41d8-af08-5001240149b3","system_id":"levelo_inurba_marseille","lat":43.30202,"lon":5.39468,"is_reserved":false,"is_disabled":true,"rental_uris":{"android":"levelo://app?vid=1f04e43e-ad27-41d8-af08-5001240149b3","ios":"levelo://app?vid=1f04e43e-ad27-41d8-af08-5001240149b3"},"vehicle_type_id":"4","last_reported":1736500206,"current_range_meters":2000,"station_id":"ce4bh0p2rcd13ifvqd70","pricing_plan_id":"cebpf4jnsgd1na2vs0mg"},{"bike_id":"185e258a-94ee-4bc0-a518-8b2443039ff9","system_id":"levelo_inurba_marseille","lat":43.325367,"lon":5.414457,"is_reserved":false,"is_disabled":false,"rental_uris":{"android":"levelo://app?vid=185e258a-94ee-4bc0-a518-8b2443039ff9","ios":"levelo://app?vid=185e258a-94ee-4bc0-a518-8b2443039ff9"},"vehicle_type_id":"4","last_reported":1736500206,"current_range_meters":8400,"station_id":"ce4bhq12rcd13ifvqhhg","pricing_plan_id":"cebpf4jnsgd1na2vs0mg"},{"bike_id":"8db5fe11-9a23-4823-9585-81307487bf01","system_id":"levelo_inurba_marseille","lat":43.28936,"lon":5.39629,"is_reserved":false,"is_disabled":false,"rental_uris":{"android":"levelo://app?vid=8db5fe11-9a23-4823-9585-81307487bf01","ios":"levelo://app?vid=8db5fe11-9a23-4823-9585-81307487bf01"},"vehicle_type_id":"4","last_reported":1736500206,"current_range_meters":39200,"station_id":"ce4bh3h2rcd13ifvqdn0","pricing_plan_id":"cebpf4jnsgd1na2vs0mg"},{"bike_id":"e32f0dad-8adc-457b-9717-fb6302d98a0d","system_id":"levelo_inurba_marseille","lat":43.30141,"lon":5.37402,"is_reserved":false,"is_disabled":false,"rental_uris":{"android":"levelo://app?vid=e32f0dad-8adc-457b-9717-fb6302d98a0d","ios":"levelo://app?vid=e32f0dad-8adc-457b-9717-fb6302d98a0d"},"vehicle_type_id":"4","last_reported":1736500206,"current_range_meters":25200,"station_id":"ce4bgs92rcd13ifvqcc0","pricing_plan_id":"cebpf4jnsgd1na2vs0mg"},{"bike_id":"42f80fe0-86fa-4580-b212-cc05dc66ee8c","system_id":"levelo_inurba_marseille","lat":43.33608,"lon":5.41038,"is_reserved":false,"is_disabled":false,"rental_uris":{"android":"levelo://app?vid=42f80fe0-86fa-4580-b212-cc05dc66ee8c","ios":"levelo://app?vid=42f80fe0-86fa-4580-b212-cc05dc66ee8c"},"vehicle_type_id":"4","last_reported":1736500206,"current_range_meters":25200,"station_id":"ce4bhqh2rcd13ifvqhmg","pricing_plan_id":"cebpf4jnsgd1na2vs0mg"},{"bike_id":"afb824a9-d724-4c30-9d92-132653926f1a","system_id":"levelo_inurba_marseille","lat":43.30136,"lon":5.37397,"is_reserved":false,"is_disabled":false,"rental_uris":{"android":"levelo://app?vid=afb824a9-d724-4c30-9d92-132653926f1a","ios":"levelo://app?vid=afb824a9-d724-4c30-9d92-132653926f1a"},"vehicle_type_id":"4","last_reported":1736500206,"current_range_meters":28000,"station_id":"ce4bgs92rcd13ifvqcc0","pricing_plan_id":"cebpf4jnsgd1na2vs0mg"},{"bike_id":"0ad127f9-28cc-43ab-a6c5-ce481825f12a","system_id":"levelo_inurba_marseille","lat":43.28934,"lon":5.38396,"is_reserved":false,"is_disabled":false,"rental_uris":{"android":"levelo://app?vid=0ad127f9-28cc-43ab-a6c5-ce481825f12a","ios":"levelo://app?vid=0ad127f9-28cc-43ab-a6c5-ce481825f12a"},"vehicle_type_id":"4","last_reported":1736500206,"current_range_meters":36800,"station_id":"ce4bh612rcd13ifvqe6g","pricing_plan_id":"cebpf4jnsgd1na2vs0mg"},{"bike_id":"7a0a8a69-615c-43f3-a001-073b74f4a57b","system_id":"levelo_inurba_marseille","lat":43.25558,"lon":5.38255,"is_reserved":false,"is_disabled":false,"rental_uris":{"android":"levelo://app?vid=7a0a8a69-615c-43f3-a001-073b74f4a57b","ios":"levelo://app?vid=7a0a8a69-615c-43f3-a001-073b74f4a57b"},"vehicle_type_id":"4","last_reported":1736500206,"current_range_meters":27600,"station_id":"ce4bhih2rcd13ifvqfs0","pricing_plan_id":"cebpf4jnsgd1na2vs0mg"},{"bike_id":"74811a05-8b9e-4d4e-840c-5698bd31c27f","system_id":"levelo_inurba_marseille","lat":43.29019,"lon":5.38148,"is_reserved":false,"is_disabled":false,"rental_uris":{"android":"levelo://app?vid=74811a05-8b9e-4d4e-840c-5698bd31c27f","ios":"levelo://app?vid=74811a05-8b9e-4d4e-840c-5698bd31c27f"},"vehicle_type_id":"4","last_reported":1736500206,"current_range_meters":34800,"station_id":"ce4bh4p2rcd13ifvqe1g","pricing_plan_id":"cebpf4jnsgd1na2vs0mg"},{"bike_id":"04b99ebe-7927-40e6-9554-a7aa6d8ff5da","system_id":"levelo_inurba_marseille","lat":43.33014,"lon":5.39041,"is_reserved":false,"is_disabled":false,"rental_uris":{"android":"levelo://app?vid=04b99ebe-7927-40e6-9554-a7aa6d8ff5da","ios":"levelo://app?vid=04b99ebe-7927-40e6-9554-a7aa6d8ff5da"},"vehicle_type_id":"4","last_reported":1736500206,"current_range_meters":36800,"station_id":"ce4bhr92rcd13ifvqhrg","pricing_plan_id":"cebpf4jnsgd1na2vs0mg"},{"bike_id":"284e1831-9922-4f3c-809c-0f802c9ef2e6","system_id":"levelo_inurba_marseille","lat":43.29541,"lon":5.4231,"is_reserved":false,"is_disabled":false,"rental_uris":{"android":"levelo://app?vid=284e1831-9922-4f3c-809c-0f802c9ef2e6","ios":"levelo://app?vid=284e1831-9922-4f3c-809c-0f802c9ef2e6"},"vehicle_type_id":"4","last_reported":1736500206,"current_range_meters":16000,"station_id":"ce4bhph2rcd13ifvqhdg","pricing_plan_id":"cebpf4jnsgd1na2vs0mg"},{"bike_id":"ad744619-fbc5-4026-9541-81b1adebd4d3","system_id":"levelo_inurba_marseille","lat":43.26032,"lon":5.37557,"is_reserved":false,"is_disabled":true,"rental_uris":{"android":"levelo://app?vid=ad744619-fbc5-4026-9541-81b1adebd4d3","ios":"levelo://app?vid=ad744619-fbc5-4026-9541-81b1adebd4d3"},"vehicle_type_id":"4","last_reported":1736500206,"current_range_meters":38000,"station_id":"ce4bhgh2rcd13ifvqfa0","pricing_plan_id":"cebpf4jnsgd1na2vs0mg"},{"bike_id":"2b68127b-8c99-46f9-b65f-98bf288dc9b7","system_id":"levelo_inurba_marseille","lat":43.25582,"lon":5.38227,"is_reserved":false,"is_disabled":false,"rental_uris":{"android":"levelo://app?vid=2b68127b-8c99-46f9-b65f-98bf288dc9b7","ios":"levelo://app?vid=2b68127b-8c99-46f9-b65f-98bf288dc9b7"},"vehicle_type_id":"4","last_reported":1736500206,"current_range_meters":7200,"station_id":"ce4bhih2rcd13ifvqfs0","pricing_plan_id":"cebpf4jnsgd1na2vs0mg"},{"bike_id":"8b56ba0c-6f64-4e26-9e53-0dd1f2c9805b","system_id":"levelo_inurba_marseille","lat":43.292606,"lon":5.408498,"is_reserved":false,"is_disabled":false,"rental_uris":{"android":"levelo://app?vid=8b56ba0c-6f64-4e26-9e53-0dd1f2c9805b","ios":"levelo://app?vid=8b56ba0c-6f64-4e26-9e53-0dd1f2c9805b"},"vehicle_type_id":"4","last_reported":1736500206,"current_range_meters":25600,"station_id":"ce4bh0p2rcd13ifvqd70","pricing_plan_id":"cebpf4jnsgd1na2vs0mg"},{"bike_id":"8dab9b90-c2e8-427f-9aec-8a3c6b8b8e5c","system_id":"levelo_inurba_marseille","lat":43.290447,"lon":5.399522,"is_reserved":false,"is_disabled":false,"rental_uris":{"android":"levelo://app?vid=8dab9b90-c2e8-427f-9aec-8a3c6b8b8e5c","ios":"levelo://app?vid=8dab9b90-c2e8-427f-9aec-8a3c6b8b8e5c"},"vehicle_type_id":"4","last_reported":1736500206,"current_range_meters":25600,"station_id":"ce4bh392rcd13ifvqdm0","pricing_plan_id":"cebpf4jnsgd1na2vs0mg"},{"bike_id":"98603835-c276-4568-8361-2f6bf3011cde","system_id":"levelo_inurba_marseille","lat":43.28103,"lon":5.39668,"is_reserved":false,"is_disabled":false,"rental_uris":{"android":"levelo://app?vid=98603835-c276-4568-8361-2f6bf3011cde","ios":"levelo://app?vid=98603835-c276-4568-8361-2f6bf3011cde"},"vehicle_type_id":"4","last_reported":1736500206,"current_range_meters":16000,"station_id":"ce4bho12rcd13ifvqh2g","pricing_plan_id":"cebpf4jnsgd1na2vs0mg"},{"bike_id":"8e393cb8-13c9-426f-9945-40fb35f8392b","system_id":"levelo_inurba_marseille","lat":43.32533,"lon":5.4146,"is_reserved":false,"is_disabled":false,"rental_uris":{"android":"levelo://app?vid=8e393cb8-13c9-426f-9945-40fb35f8392b","ios":"levelo://app?vid=8e393cb8-13c9-426f-9945-40fb35f8392b"},"vehicle_type_id":"4","last_reported":1736500206,"current_range_meters":10800,"station_id":"ce4bhq12rcd13ifvqhhg","pricing_plan_id":"cebpf4jnsgd1na2vs0mg"},{"bike_id":"5aeb46ee-158e-4222-b203-0611ea9c8e72","system_id":"levelo_inurba_marseille","lat":43.28347,"lon":5.38104,"is_reserved":false,"is_disabled":false,"rental_uris":{"android":"levelo://app?vid=5aeb46ee-158e-4222-b203-0611ea9c8e72","ios":"levelo://app?vid=5aeb46ee-158e-4222-b203-0611ea9c8e72"},"vehicle_type_id":"4","last_reported":1736500206,"current_range_meters":26800,"station_id":"ce4bh412rcd13ifvqdr0","pricing_plan_id":"cebpf4jnsgd1na2vs0mg"},{"bike_id":"f175c158-7f3d-4b67-b29d-e129d95a0c6c","system_id":"levelo_inurba_marseille","lat":43.296,"lon":5.38105,"is_reserved":false,"is_disabled":false,"rental_uris":{"android":"levelo://app?vid=f175c158-7f3d-4b67-b29d-e129d95a0c6c","ios":"levelo://app?vid=f175c158-7f3d-4b67-b29d-e129d95a0c6c"},"vehicle_type_id":"4","last_reported":1736500206,"current_range_meters":27200,"station_id":"ce4bgl12rcd13ifvqbo0","pricing_plan_id":"cebpf4jnsgd1na2vs0mg"},{"bike_id":"53ef6ef5-15b1-4f44-b81e-36d25b2a4906","system_id":"levelo_inurba_marseille","lat":43.29912,"lon":5.38137,"is_reserved":false,"is_disabled":false,"rental_uris":{"android":"levelo://app?vid=53ef6ef5-15b1-4f44-b81e-36d25b2a4906","ios":"levelo://app?vid=53ef6ef5-15b1-4f44-b81e-36d25b2a4906"},"vehicle_type_id":"4","last_reported":1736500206,"current_range_meters":28800,"station_id":"ce4bgj12rcd13ifvqbc0","pricing_plan_id":"cebpf4jnsgd1na2vs0mg"},{"bike_id":"1d04601f-61f4-4c54-b9f6-01fcfddc4c1c","system_id":"levelo_inurba_marseille","lat":43.281507,"lon":5.426427,"is_reserved":false,"is_disabled":false,"rental_uris":{"android":"levelo://app?vid=1d04601f-61f4-4c54-b9f6-01fcfddc4c1c","ios":"levelo://app?vid=1d04601f-61f4-4c54-b9f6-01fcfddc4c1c"},"vehicle_type_id":"4","last_reported":1736500206,"current_range_meters":37600,"station_id":"ce4bhnh2rcd13ifvqgug","pricing_plan_id":"cebpf4jnsgd1na2vs0mg"},{"bike_id":"c56c6211-abc5-418e-afed-c2428f450b2d","system_id":"levelo_inurba_marseille","lat":43.28703,"lon":5.37932,"is_reserved":false,"is_disabled":false,"rental_uris":{"android":"levelo://app?vid=c56c6211-abc5-418e-afed-c2428f450b2d","ios":"levelo://app?vid=c56c6211-abc5-418e-afed-c2428f450b2d"},"vehicle_type_id":"4","last_reported":1736500206,"current_range_meters":31200,"station_id":"ce4bh9p2rcd13ifvqec0","pricing_plan_id":"cebpf4jnsgd1na2vs0mg"},{"bike_id":"78ccac9a-f5e4-490f-841f-cd6ed2c22949","system_id":"levelo_inurba_marseille","lat":43.32539,"lon":5.41437,"is_reserved":false,"is_disabled":false,"rental_uris":{"android":"levelo://app?vid=78ccac9a-f5e4-490f-841f-cd6ed2c22949","ios":"levelo://app?vid=78ccac9a-f5e4-490f-841f-cd6ed2c22949"},"vehicle_type_id":"4","last_reported":1736500206,"current_range_meters":38800,"station_id":"ce4bhq12rcd13ifvqhhg","pricing_plan_id":"cebpf4jnsgd1na2vs0mg"},{"bike_id":"285c5ba4-19e9-4cfa-99ed-77581e9fbda4","system_id":"levelo_inurba_marseille","lat":43.264958,"lon":5.39543,"is_reserved":false,"is_disabled":false,"rental_uris":{"android":"levelo://app?vid=285c5ba4-19e9-4cfa-99ed-77581e9fbda4","ios":"levelo://app?vid=285c5ba4-19e9-4cfa-99ed-77581e9fbda4"},"vehicle_type_id":"4","last_reported":1736500206,"current_range_meters":28400,"station_id":"ce4bhi12rcd13ifvqfq0","pricing_plan_id":"cebpf4jnsgd1na2vs0mg"},{"bike_id":"59d2689e-3c6c-4d93-9a20-1e44af4ed51d","system_id":"levelo_inurba_marseille","lat":43.29043,"lon":5.37576,"is_reserved":false,"is_disabled":false,"rental_uris":{"android":"levelo://app?vid=59d2689e-3c6c-4d93-9a20-1e44af4ed51d","ios":"levelo://app?vid=59d2689e-3c6c-4d93-9a20-1e44af4ed51d"},"vehicle_type_id":"4","last_reported":1736500206,"current_range_meters":37600,"station_id":"ce4bh692rcd13ifvqe90","pricing_plan_id":"cebpf4jnsgd1na2vs0mg"},{"bike_id":"7f439d40-2da9-45be-ba34-558f928f9dba","system_id":"levelo_inurba_marseille","lat":43.30464,"lon":5.37881,"is_reserved":false,"is_disabled":false,"rental_uris":{"android":"levelo://app?vid=7f439d40-2da9-45be-ba34-558f928f9dba","ios":"levelo://app?vid=7f439d40-2da9-45be-ba34-558f928f9dba"},"vehicle_type_id":"4","last_reported":1736500206,"current_range_meters":18800,"station_id":"ce4bgup2rcd13ifvqcn0","pricing_plan_id":"cebpf4jnsgd1na2vs0mg"},{"bike_id":"780493d4-89a9-4cb8-8c11-206c98688626","system_id":"levelo_inurba_marseille","lat":43.2408,"lon":5.37753,"is_reserved":false,"is_disabled":false,"rental_uris":{"android":"levelo://app?vid=780493d4-89a9-4cb8-8c11-206c98688626","ios":"levelo://app?vid=780493d4-89a9-4cb8-8c11-206c98688626"},"vehicle_type_id":"4","last_reported":1736500206,"current_range_meters":38800,"station_id":"","pricing_plan_id":"cebpf4jnsgd1na2vs0mg"},{"bike_id":"9196395b-caa3-4c4e-b20e-5e513ffaa848","system_id":"levelo_inurba_marseille","lat":43.30157,"lon":5.37403,"is_reserved":false,"is_disabled":false,"rental_uris":{"android":"levelo://app?vid=9196395b-caa3-4c4e-b20e-5e513ffaa848","ios":"levelo://app?vid=9196395b-caa3-4c4e-b20e-5e513ffaa848"},"vehicle_type_id":"4","last_reported":1736500206,"current_range_meters":39200,"station_id":"ce4bgs92rcd13ifvqcc0","pricing_plan_id":"cebpf4jnsgd1na2vs0mg"},{"bike_id":"d1421a4e-0311-41ea-87e7-14f15f3d9509","system_id":"levelo_inurba_marseille","lat":43.29012,"lon":5.37853,"is_reserved":false,"is_disabled":false,"rental_uris":{"android":"levelo://app?vid=d1421a4e-0311-41ea-87e7-14f15f3d9509","ios":"levelo://app?vid=d1421a4e-0311-41ea-87e7-14f15f3d9509"},"vehicle_type_id":"4","last_reported":1736500206,"current_range_meters":27600,"station_id":"ce4bh9p2rcd13ifvqed0","pricing_plan_id":"cebpf4jnsgd1na2vs0mg"},{"bike_id":"127b6a36-b0a6-44f1-8fd9-e3ebf727897c","system_id":"levelo_inurba_marseille","lat":43.27472,"lon":5.4247,"is_reserved":false,"is_disabled":false,"rental_uris":{"android":"levelo://app?vid=127b6a36-b0a6-44f1-8fd9-e3ebf727897c","ios":"levelo://app?vid=127b6a36-b0a6-44f1-8fd9-e3ebf727897c"},"vehicle_type_id":"4","last_reported":1736500206,"current_range_meters":23200,"station_id":"ce4bhn92rcd13ifvqgrg","pricing_plan_id":"cebpf4jnsgd1na2vs0mg"},{"bike_id":"7e225827-041a-42b6-bee9-05b9aaf89e59","system_id":"levelo_inurba_marseille","lat":43.32538,"lon":5.41471,"is_reserved":false,"is_disabled":true,"rental_uris":{"android":"levelo://app?vid=7e225827-041a-42b6-bee9-05b9aaf89e59","ios":"levelo://app?vid=7e225827-041a-42b6-bee9-05b9aaf89e59"},"vehicle_type_id":"4","last_reported":1736500206,"current_range_meters":39200,"station_id":"ce4bhq12rcd13ifvqhhg","pricing_plan_id":"cebpf4jnsgd1na2vs0mg"},{"bike_id":"dab217a0-b2df-4ca9-a812-c80195b1fbf4","system_id":"levelo_inurba_marseille","lat":43.31323,"lon":5.36758,"is_reserved":false,"is_disabled":false,"rental_uris":{"android":"levelo://app?vid=dab217a0-b2df-4ca9-a812-c80195b1fbf4","ios":"levelo://app?vid=dab217a0-b2df-4ca9-a812-c80195b1fbf4"},"vehicle_type_id":"4","last_reported":1736500206,"current_range_meters":24400,"station_id":"ce4bgr92rcd13ifvqc6g","pricing_plan_id":"cebpf4jnsgd1na2vs0mg"},{"bike_id":"d4b9ec52-492e-41b6-8dae-be3aec56cf81","system_id":"levelo_inurba_marseille","lat":43.28601,"lon":5.35133,"is_reserved":false,"is_disabled":false,"rental_uris":{"android":"levelo://app?vid=d4b9ec52-492e-41b6-8dae-be3aec56cf81","ios":"levelo://app?vid=d4b9ec52-492e-41b6-8dae-be3aec56cf81"},"vehicle_type_id":"4","last_reported":1736500206,"current_range_meters":10800,"station_id":"ce4bhch2rcd13ifvqeug","pricing_plan_id":"cebpf4jnsgd1na2vs0mg"},{"bike_id":"37d8e1ef-d932-49d7-b893-49542cf44d13","system_id":"levelo_inurba_marseille","lat":43.32345,"lon":5.40629,"is_reserved":false,"is_disabled":true,"rental_uris":{"android":"levelo://app?vid=37d8e1ef-d932-49d7-b893-49542cf44d13","ios":"levelo://app?vid=37d8e1ef-d932-49d7-b893-49542cf44d13"},"vehicle_type_id":"4","last_reported":1736500206,"current_range_meters":0,"station_id":"ce4bhq92rcd13ifvqhjg","pricing_plan_id":"cebpf4jnsgd1na2vs0mg"},{"bike_id":"458c3d58-e6a5-4d1a-8df2-05d9cb3e0072","system_id":"levelo_inurba_marseille","lat":43.2558,"lon":5.38257,"is_reserved":false,"is_disabled":false,"rental_uris":{"android":"levelo://app?vid=458c3d58-e6a5-4d1a-8df2-05d9cb3e0072","ios":"levelo://app?vid=458c3d58-e6a5-4d1a-8df2-05d9cb3e0072"},"vehicle_type_id":"4","last_reported":1736500206,"current_range_meters":17200,"station_id":"ce4bhih2rcd13ifvqfs0","pricing_plan_id":"cebpf4jnsgd1na2vs0mg"},{"bike_id":"10f7d31a-ef8d-4e8a-acbf-8aa9a8c72143","system_id":"levelo_inurba_marseille","lat":43.24385,"lon":5.37044,"is_reserved":false,"is_disabled":false,"rental_uris":{"android":"levelo://app?vid=10f7d31a-ef8d-4e8a-acbf-8aa9a8c72143","ios":"levelo://app?vid=10f7d31a-ef8d-4e8a-acbf-8aa9a8c72143"},"vehicle_type_id":"4","last_reported":1736500206,"current_range_meters":24400,"station_id":"ce4bhhh2rcd13ifvqfk0","pricing_plan_id":"cebpf4jnsgd1na2vs0mg"},{"bike_id":"ee2b80ba-60fd-42a0-a0bc-cad7ada6e704","system_id":"levelo_inurba_marseille","lat":43.297935,"lon":5.404045,"is_reserved":false,"is_disabled":false,"rental_uris":{"android":"levelo://app?vid=ee2b80ba-60fd-42a0-a0bc-cad7ada6e704","ios":"levelo://app?vid=ee2b80ba-60fd-42a0-a0bc-cad7ada6e704"},"vehicle_type_id":"4","last_reported":1736500206,"current_range_meters":31200,"station_id":"ce4bh112rcd13ifvqd90","pricing_plan_id":"cebpf4jnsgd1na2vs0mg"},{"bike_id":"26f3a69d-c9fe-49b1-a3fd-c493e367d263","system_id":"levelo_inurba_marseille","lat":43.28341,"lon":5.38099,"is_reserved":false,"is_disabled":true,"rental_uris":{"android":"levelo://app?vid=26f3a69d-c9fe-49b1-a3fd-c493e367d263","ios":"levelo://app?vid=26f3a69d-c9fe-49b1-a3fd-c493e367d263"},"vehicle_type_id":"4","last_reported":1736500206,"current_range_meters":22000,"station_id":"ce4bh412rcd13ifvqdr0","pricing_plan_id":"cebpf4jnsgd1na2vs0mg"},{"bike_id":"a2b8733f-18d3-4c7f-a699-4ad1eee082fe","system_id":"levelo_inurba_marseille","lat":43.317196,"lon":5.424096,"is_reserved":false,"is_disabled":false,"rental_uris":{"android":"levelo://app?vid=a2b8733f-18d3-4c7f-a699-4ad1eee082fe","ios":"levelo://app?vid=a2b8733f-18d3-4c7f-a699-4ad1eee082fe"},"vehicle_type_id":"4","last_reported":1736500206,"current_range_meters":38800,"station_id":"ce4bhp92rcd13ifvqhbg","pricing_plan_id":"cebpf4jnsgd1na2vs0mg"},{"bike_id":"5dec9a86-4547-4207-8ebf-1361e0e301a5","system_id":"levelo_inurba_marseille","lat":43.27488,"lon":5.42466,"is_reserved":false,"is_disabled":false,"rental_uris":{"android":"levelo://app?vid=5dec9a86-4547-4207-8ebf-1361e0e301a5","ios":"levelo://app?vid=5dec9a86-4547-4207-8ebf-1361e0e301a5"},"vehicle_type_id":"4","last_reported":1736500206,"current_range_meters":8400,"station_id":"ce4bhn92rcd13ifvqgrg","pricing_plan_id":"cebpf4jnsgd1na2vs0mg"},{"bike_id":"c0206d3b-e2e9-423c-9056-fc2381d7e8b1","system_id":"levelo_inurba_marseille","lat":43.29585,"lon":5.38113,"is_reserved":false,"is_disabled":true,"rental_uris":{"android":"levelo://app?vid=c0206d3b-e2e9-423c-9056-fc2381d7e8b1","ios":"levelo://app?vid=c0206d3b-e2e9-423c-9056-fc2381d7e8b1"},"vehicle_type_id":"4","last_reported":1736500206,"current_range_meters":26800,"station_id":"ce4bgl12rcd13ifvqbo0","pricing_plan_id":"cebpf4jnsgd1na2vs0mg"},{"bike_id":"972bb94f-4946-45b8-9f8f-d0eaa257ba59","system_id":"levelo_inurba_marseille","lat":43.30317,"lon":5.36918,"is_reserved":false,"is_disabled":false,"rental_uris":{"android":"levelo://app?vid=972bb94f-4946-45b8-9f8f-d0eaa257ba59","ios":"levelo://app?vid=972bb94f-4946-45b8-9f8f-d0eaa257ba59"},"vehicle_type_id":"4","last_reported":1736500206,"current_range_meters":39200,"station_id":"ce4bgqh2rcd13ifvqc5g","pricing_plan_id":"cebpf4jnsgd1na2vs0mg"},{"bike_id":"9af8b054-2bb4-408f-a11e-d70174570d56","system_id":"levelo_inurba_marseille","lat":43.27493,"lon":5.42456,"is_reserved":false,"is_disabled":false,"rental_uris":{"android":"levelo://app?vid=9af8b054-2bb4-408f-a11e-d70174570d56","ios":"levelo://app?vid=9af8b054-2bb4-408f-a11e-d70174570d56"},"vehicle_type_id":"4","last_reported":1736500206,"current_range_meters":34800,"station_id":"ce4bhn92rcd13ifvqgrg","pricing_plan_id":"cebpf4jnsgd1na2vs0mg"},{"bike_id":"c150f8af-fc8f-4eb5-ac98-0b06dadf4ce0","system_id":"levelo_inurba_marseille","lat":43.25565,"lon":5.38249,"is_reserved":false,"is_disabled":false,"rental_uris":{"android":"levelo://app?vid=c150f8af-fc8f-4eb5-ac98-0b06dadf4ce0","ios":"levelo://app?vid=c150f8af-fc8f-4eb5-ac98-0b06dadf4ce0"},"vehicle_type_id":"4","last_reported":1736500206,"current_range_meters":34000,"station_id":"ce4bhih2rcd13ifvqfs0","pricing_plan_id":"cebpf4jnsgd1na2vs0mg"},{"bike_id":"89dccbee-4f78-4128-8db2-ecf16469cc8a","system_id":"levelo_inurba_marseille","lat":43.28949,"lon":5.36395,"is_reserved":false,"is_disabled":false,"rental_uris":{"android":"levelo://app?vid=89dccbee-4f78-4128-8db2-ecf16469cc8a","ios":"levelo://app?vid=89dccbee-4f78-4128-8db2-ecf16469cc8a"},"vehicle_type_id":"4","last_reported":1736500206,"current_range_meters":37600,"station_id":"ce4bhc92rcd13ifvqetg","pricing_plan_id":"cebpf4jnsgd1na2vs0mg"},{"bike_id":"ff45e7b0-f7ac-4438-a41c-45b74df8aef7","system_id":"levelo_inurba_marseille","lat":43.28872,"lon":5.39324,"is_reserved":false,"is_disabled":false,"rental_uris":{"android":"levelo://app?vid=ff45e7b0-f7ac-4438-a41c-45b74df8aef7","ios":"levelo://app?vid=ff45e7b0-f7ac-4438-a41c-45b74df8aef7"},"vehicle_type_id":"4","last_reported":1736500206,"current_range_meters":22800,"station_id":"ce4bh2p2rcd13ifvqdi0","pricing_plan_id":"cebpf4jnsgd1na2vs0mg"},{"bike_id":"80e6d864-209b-44fb-bebb-aeae347160a6","system_id":"levelo_inurba_marseille","lat":43.240477,"lon":5.377807,"is_reserved":false,"is_disabled":false,"rental_uris":{"android":"levelo://app?vid=80e6d864-209b-44fb-bebb-aeae347160a6","ios":"levelo://app?vid=80e6d864-209b-44fb-bebb-aeae347160a6"},"vehicle_type_id":"4","last_reported":1736500206,"current_range_meters":24000,"station_id":"ce4bhnp2rcd13ifvqgvg","pricing_plan_id":"cebpf4jnsgd1na2vs0mg"},{"bike_id":"e4a4e065-0de4-4b4a-a84c-e7ac4a96d30b","system_id":"levelo_inurba_marseille","lat":43.26803,"lon":5.39415,"is_reserved":false,"is_disabled":false,"rental_uris":{"android":"levelo://app?vid=e4a4e065-0de4-4b4a-a84c-e7ac4a96d30b","ios":"levelo://app?vid=e4a4e065-0de4-4b4a-a84c-e7ac4a96d30b"},"vehicle_type_id":"4","last_reported":1736500206,"current_range_meters":30400,"station_id":"ce4bhh12rcd13ifvqfg0","pricing_plan_id":"cebpf4jnsgd1na2vs0mg"},{"bike_id":"1a2f0ab1-f66c-49a5-8317-c823c5c59ec8","system_id":"levelo_inurba_marseille","lat":43.28265,"lon":5.35087,"is_reserved":false,"is_disabled":false,"rental_uris":{"android":"levelo://app?vid=1a2f0ab1-f66c-49a5-8317-c823c5c59ec8","ios":"levelo://app?vid=1a2f0ab1-f66c-49a5-8317-c823c5c59ec8"},"vehicle_type_id":"4","last_reported":1736500206,"current_range_meters":39200,"station_id":"ce4bhbp2rcd13ifvqerg","pricing_plan_id":"cebpf4jnsgd1na2vs0mg"},{"bike_id":"60ce1b70-e47d-4caf-abee-52e7d5bfe299","system_id":"levelo_inurba_marseille","lat":43.24645,"lon":5.38885,"is_reserved":false,"is_disabled":false,"rental_uris":{"android":"levelo://app?vid=60ce1b70-e47d-4caf-abee-52e7d5bfe299","ios":"levelo://app?vid=60ce1b70-e47d-4caf-abee-52e7d5bfe299"},"vehicle_type_id":"4","last_reported":1736500206,"current_range_meters":35600,"station_id":"ce4bhg12rcd13ifvqf60","pricing_plan_id":"cebpf4jnsgd1na2vs0mg"},{"bike_id":"7627c0f8-e30b-4018-a991-3dd21750fc78","system_id":"levelo_inurba_marseille","lat":43.28713,"lon":5.3796,"is_reserved":false,"is_disabled":true,"rental_uris":{"android":"levelo://app?vid=7627c0f8-e30b-4018-a991-3dd21750fc78","ios":"levelo://app?vid=7627c0f8-e30b-4018-a991-3dd21750fc78"},"vehicle_type_id":"4","last_reported":1736500206,"current_range_meters":38000,"station_id":"","pricing_plan_id":"cebpf4jnsgd1na2vs0mg"},{"bike_id":"408554f9-e938-4c8d-b712-51774be7b111","system_id":"levelo_inurba_marseille","lat":43.3053,"lon":5.36542,"is_reserved":false,"is_disabled":false,"rental_uris":{"android":"levelo://app?vid=408554f9-e938-4c8d-b712-51774be7b111","ios":"levelo://app?vid=408554f9-e938-4c8d-b712-51774be7b111"},"vehicle_type_id":"4","last_reported":1736500206,"current_range_meters":39200,"station_id":"ce4bgs12rcd13ifvqcag","pricing_plan_id":"cebpf4jnsgd1na2vs0mg"},{"bike_id":"4bd2d558-3ea3-4d16-a9d7-ed5de55b4505","system_id":"levelo_inurba_marseille","lat":43.29314,"lon":5.37457,"is_reserved":false,"is_disabled":true,"rental_uris":{"android":"levelo://app?vid=4bd2d558-3ea3-4d16-a9d7-ed5de55b4505","ios":"levelo://app?vid=4bd2d558-3ea3-4d16-a9d7-ed5de55b4505"},"vehicle_type_id":"4","last_reported":1736500206,"current_range_meters":1600,"station_id":"ce4bgi12rcd13ifvqb70","pricing_plan_id":"cebpf4jnsgd1na2vs0mg"},{"bike_id":"43ca53ad-1361-4182-ad24-d29d94056868","system_id":"levelo_inurba_marseille","lat":43.27479,"lon":5.4246,"is_reserved":false,"is_disabled":false,"rental_uris":{"android":"levelo://app?vid=43ca53ad-1361-4182-ad24-d29d94056868","ios":"levelo://app?vid=43ca53ad-1361-4182-ad24-d29d94056868"},"vehicle_type_id":"4","last_reported":1736500206,"current_range_meters":10000,"station_id":"ce4bhn92rcd13ifvqgrg","pricing_plan_id":"cebpf4jnsgd1na2vs0mg"},{"bike_id":"08caf81c-b258-48c3-aadb-0e8164fd6904","system_id":"levelo_inurba_marseille","lat":43.29092,"lon":5.38136,"is_reserved":false,"is_disabled":false,"rental_uris":{"android":"levelo://app?vid=08caf81c-b258-48c3-aadb-0e8164fd6904","ios":"levelo://app?vid=08caf81c-b258-48c3-aadb-0e8164fd6904"},"vehicle_type_id":"4","last_reported":1736500206,"current_range_meters":24000,"station_id":"ce4bh512rcd13ifvqe2g","pricing_plan_id":"cebpf4jnsgd1na2vs0mg"},{"bike_id":"48998462-e2fe-4046-8dbf-a3db091ad704","system_id":"levelo_inurba_marseille","lat":43.25561,"lon":5.38244,"is_reserved":false,"is_disabled":true,"rental_uris":{"android":"levelo://app?vid=48998462-e2fe-4046-8dbf-a3db091ad704","ios":"levelo://app?vid=48998462-e2fe-4046-8dbf-a3db091ad704"},"vehicle_type_id":"4","last_reported":1736500206,"current_range_meters":24400,"station_id":"ce4bhih2rcd13ifvqfs0","pricing_plan_id":"cebpf4jnsgd1na2vs0mg"},{"bike_id":"cad4a6a5-5208-47dd-a17d-ca38efa63f22","system_id":"levelo_inurba_marseille","lat":43.310605,"lon":5.383524,"is_reserved":false,"is_disabled":true,"rental_uris":{"android":"levelo://app?vid=cad4a6a5-5208-47dd-a17d-ca38efa63f22","ios":"levelo://app?vid=cad4a6a5-5208-47dd-a17d-ca38efa63f22"},"vehicle_type_id":"4","last_reported":1736500206,"current_range_meters":26800,"station_id":"ce4bgv92rcd13ifvqcr0","pricing_plan_id":"cebpf4jnsgd1na2vs0mg"},{"bike_id":"59680959-993e-49d5-827b-d5b17bfefc71","system_id":"levelo_inurba_marseille","lat":43.2783,"lon":5.39198,"is_reserved":false,"is_disabled":true,"rental_uris":{"android":"levelo://app?vid=59680959-993e-49d5-827b-d5b17bfefc71","ios":"levelo://app?vid=59680959-993e-49d5-827b-d5b17bfefc71"},"vehicle_type_id":"4","last_reported":1736500206,"current_range_meters":0,"station_id":"ce4bhjp2rcd13ifvqga0","pricing_plan_id":"cebpf4jnsgd1na2vs0mg"},{"bike_id":"7666c1b3-9780-48bd-be23-de5cae67e9ee","system_id":"levelo_inurba_marseille","lat":43.28127,"lon":5.42647,"is_reserved":false,"is_disabled":false,"rental_uris":{"android":"levelo://app?vid=7666c1b3-9780-48bd-be23-de5cae67e9ee","ios":"levelo://app?vid=7666c1b3-9780-48bd-be23-de5cae67e9ee"},"vehicle_type_id":"4","last_reported":1736500206,"current_range_meters":32800,"station_id":"ce4bhnh2rcd13ifvqgug","pricing_plan_id":"cebpf4jnsgd1na2vs0mg"},{"bike_id":"04c144bb-885d-4367-8bc8-e2ccfca26ca3","system_id":"levelo_inurba_marseille","lat":43.31324,"lon":5.39698,"is_reserved":false,"is_disabled":true,"rental_uris":{"android":"levelo://app?vid=04c144bb-885d-4367-8bc8-e2ccfca26ca3","ios":"levelo://app?vid=04c144bb-885d-4367-8bc8-e2ccfca26ca3"},"vehicle_type_id":"4","last_reported":1736500206,"current_range_meters":26800,"station_id":"ce4bgvp2rcd13ifvqcu0","pricing_plan_id":"cebpf4jnsgd1na2vs0mg"},{"bike_id":"fc1057d4-90a1-4917-8219-50abd6b84da3","system_id":"levelo_inurba_marseille","lat":43.32116,"lon":5.36753,"is_reserved":false,"is_disabled":false,"rental_uris":{"android":"levelo://app?vid=fc1057d4-90a1-4917-8219-50abd6b84da3","ios":"levelo://app?vid=fc1057d4-90a1-4917-8219-50abd6b84da3"},"vehicle_type_id":"4","last_reported":1736500206,"current_range_meters":24000,"station_id":"ce4bhrh2rcd13ifvqhug","pricing_plan_id":"cebpf4jnsgd1na2vs0mg"},{"bike_id":"de578c6b-8808-4a17-94e0-097394607eee","system_id":"levelo_inurba_marseille","lat":43.2836,"lon":5.38107,"is_reserved":false,"is_disabled":false,"rental_uris":{"android":"levelo://app?vid=de578c6b-8808-4a17-94e0-097394607eee","ios":"levelo://app?vid=de578c6b-8808-4a17-94e0-097394607eee"},"vehicle_type_id":"4","last_reported":1736500206,"current_range_meters":2800,"station_id":"ce4bh412rcd13ifvqdr0","pricing_plan_id":"cebpf4jnsgd1na2vs0mg"},{"bike_id":"aa637afa-5dab-4e4f-a5b1-a846e41a59b6","system_id":"levelo_inurba_marseille","lat":43.2409,"lon":5.37767,"is_reserved":false,"is_disabled":true,"rental_uris":{"android":"levelo://app?vid=aa637afa-5dab-4e4f-a5b1-a846e41a59b6","ios":"levelo://app?vid=aa637afa-5dab-4e4f-a5b1-a846e41a59b6"},"vehicle_type_id":"4","last_reported":1736500206,"current_range_meters":39200,"station_id":"ce4bhnp2rcd13ifvqgvg","pricing_plan_id":"cebpf4jnsgd1na2vs0mg"},{"bike_id":"7606fbbb-9d18-407e-be5f-454c60e1e61c","system_id":"levelo_inurba_marseille","lat":43.30588,"lon":5.393715,"is_reserved":false,"is_disabled":false,"rental_uris":{"android":"levelo://app?vid=7606fbbb-9d18-407e-be5f-454c60e1e61c","ios":"levelo://app?vid=7606fbbb-9d18-407e-be5f-454c60e1e61c"},"vehicle_type_id":"4","last_reported":1736500206,"current_range_meters":30000,"station_id":"ce4bh0p2rcd13ifvqd80","pricing_plan_id":"cebpf4jnsgd1na2vs0mg"},{"bike_id":"7475f743-fa68-4b23-ab37-60e01b01184f","system_id":"levelo_inurba_marseille","lat":43.320969,"lon":5.367866,"is_reserved":false,"is_disabled":false,"rental_uris":{"android":"levelo://app?vid=7475f743-fa68-4b23-ab37-60e01b01184f","ios":"levelo://app?vid=7475f743-fa68-4b23-ab37-60e01b01184f"},"vehicle_type_id":"4","last_reported":1736500206,"current_range_meters":32800,"station_id":"ce4bhrh2rcd13ifvqhug","pricing_plan_id":"cebpf4jnsgd1na2vs0mg"},{"bike_id":"e0a4dae8-888a-40c8-b265-39af7fe412bd","system_id":"levelo_inurba_marseille","lat":43.26676,"lon":5.38264,"is_reserved":false,"is_disabled":false,"rental_uris":{"android":"levelo://app?vid=e0a4dae8-888a-40c8-b265-39af7fe412bd","ios":"levelo://app?vid=e0a4dae8-888a-40c8-b265-39af7fe412bd"},"vehicle_type_id":"4","last_reported":1736500206,"current_range_meters":39200,"station_id":"ce4bhg92rcd13ifvqf90","pricing_plan_id":"cebpf4jnsgd1na2vs0mg"},{"bike_id":"4e415297-1651-4007-b5da-4923f3ed2b98","system_id":"levelo_inurba_marseille","lat":43.30159,"lon":5.38078,"is_reserved":false,"is_disabled":false,"rental_uris":{"android":"levelo://app?vid=4e415297-1651-4007-b5da-4923f3ed2b98","ios":"levelo://app?vid=4e415297-1651-4007-b5da-4923f3ed2b98"},"vehicle_type_id":"4","last_reported":1736500206,"current_range_meters":26000,"station_id":"ce4bgjp2rcd13ifvqbh0","pricing_plan_id":"cebpf4jnsgd1na2vs0mg"},{"bike_id":"692ef622-3431-4570-a237-38f78790f257","system_id":"levelo_inurba_marseille","lat":43.2843,"lon":5.39195,"is_reserved":false,"is_disabled":false,"rental_uris":{"android":"levelo://app?vid=692ef622-3431-4570-a237-38f78790f257","ios":"levelo://app?vid=692ef622-3431-4570-a237-38f78790f257"},"vehicle_type_id":"4","last_reported":1736500206,"current_range_meters":24000,"station_id":"ce4bhoh2rcd13ifvqh5g","pricing_plan_id":"cebpf4jnsgd1na2vs0mg"},{"bike_id":"9a317132-64ac-46cf-a22f-3828debffdf3","system_id":"levelo_inurba_marseille","lat":43.33599,"lon":5.41047,"is_reserved":false,"is_disabled":false,"rental_uris":{"android":"levelo://app?vid=9a317132-64ac-46cf-a22f-3828debffdf3","ios":"levelo://app?vid=9a317132-64ac-46cf-a22f-3828debffdf3"},"vehicle_type_id":"4","last_reported":1736500206,"current_range_meters":38800,"station_id":"ce4bhqh2rcd13ifvqhmg","pricing_plan_id":"cebpf4jnsgd1na2vs0mg"},{"bike_id":"3d97d3e0-d45c-47c2-9a56-3b2182dc5b15","system_id":"levelo_inurba_marseille","lat":43.27961,"lon":5.3872,"is_reserved":false,"is_disabled":true,"rental_uris":{"android":"levelo://app?vid=3d97d3e0-d45c-47c2-9a56-3b2182dc5b15","ios":"levelo://app?vid=3d97d3e0-d45c-47c2-9a56-3b2182dc5b15"},"vehicle_type_id":"4","last_reported":1736500206,"current_range_meters":0,"station_id":"ce4bhg12rcd13ifvqf80","pricing_plan_id":"cebpf4jnsgd1na2vs0mg"},{"bike_id":"c917a299-72e2-4ca0-85ea-c83ac620306b","system_id":"levelo_inurba_marseille","lat":43.29581,"lon":5.381,"is_reserved":false,"is_disabled":false,"rental_uris":{"android":"levelo://app?vid=c917a299-72e2-4ca0-85ea-c83ac620306b","ios":"levelo://app?vid=c917a299-72e2-4ca0-85ea-c83ac620306b"},"vehicle_type_id":"4","last_reported":1736500206,"current_range_meters":38000,"station_id":"ce4bgl12rcd13ifvqbo0","pricing_plan_id":"cebpf4jnsgd1na2vs0mg"},{"bike_id":"8741d6b7-0e35-4f57-9567-4b3718dffc5b","system_id":"levelo_inurba_marseille","lat":43.30457,"lon":5.37931,"is_reserved":false,"is_disabled":false,"rental_uris":{"android":"levelo://app?vid=8741d6b7-0e35-4f57-9567-4b3718dffc5b","ios":"levelo://app?vid=8741d6b7-0e35-4f57-9567-4b3718dffc5b"},"vehicle_type_id":"4","last_reported":1736500206,"current_range_meters":24000,"station_id":"ce4bgup2rcd13ifvqcn0","pricing_plan_id":"cebpf4jnsgd1na2vs0mg"},{"bike_id":"94660457-dd96-477b-878e-e5dc489ef763","system_id":"levelo_inurba_marseille","lat":43.28036,"lon":5.36938,"is_reserved":false,"is_disabled":false,"rental_uris":{"android":"levelo://app?vid=94660457-dd96-477b-878e-e5dc489ef763","ios":"levelo://app?vid=94660457-dd96-477b-878e-e5dc489ef763"},"vehicle_type_id":"4","last_reported":1736500206,"current_range_meters":30000,"station_id":"ce4bha12rcd13ifvqef0","pricing_plan_id":"cebpf4jnsgd1na2vs0mg"},{"bike_id":"87ce24d1-2898-442b-8045-27ec953b3ea6","system_id":"levelo_inurba_marseille","lat":43.33593,"lon":5.41042,"is_reserved":false,"is_disabled":false,"rental_uris":{"android":"levelo://app?vid=87ce24d1-2898-442b-8045-27ec953b3ea6","ios":"levelo://app?vid=87ce24d1-2898-442b-8045-27ec953b3ea6"},"vehicle_type_id":"4","last_reported":1736500206,"current_range_meters":38800,"station_id":"ce4bhqh2rcd13ifvqhmg","pricing_plan_id":"cebpf4jnsgd1na2vs0mg"},{"bike_id":"2eb264c8-1e8d-4f17-a831-3cda07857865","system_id":"levelo_inurba_marseille","lat":43.321102,"lon":5.367733,"is_reserved":false,"is_disabled":false,"rental_uris":{"android":"levelo://app?vid=2eb264c8-1e8d-4f17-a831-3cda07857865","ios":"levelo://app?vid=2eb264c8-1e8d-4f17-a831-3cda07857865"},"vehicle_type_id":"4","last_reported":1736500206,"current_range_meters":35600,"station_id":"ce4bhrh2rcd13ifvqhug","pricing_plan_id":"cebpf4jnsgd1na2vs0mg"},{"bike_id":"db47ce1b-334f-4144-badd-ad21dd456e49","system_id":"levelo_inurba_marseille","lat":43.29911,"lon":5.38133,"is_reserved":false,"is_disabled":false,"rental_uris":{"android":"levelo://app?vid=db47ce1b-334f-4144-badd-ad21dd456e49","ios":"levelo://app?vid=db47ce1b-334f-4144-badd-ad21dd456e49"},"vehicle_type_id":"4","last_reported":1736500206,"current_range_meters":38800,"station_id":"ce4bgj12rcd13ifvqbc0","pricing_plan_id":"cebpf4jnsgd1na2vs0mg"},{"bike_id":"1e2223a2-c032-49e7-8dbf-982df86a0520","system_id":"levelo_inurba_marseille","lat":43.229177,"lon":5.353751,"is_reserved":false,"is_disabled":false,"rental_uris":{"android":"levelo://app?vid=1e2223a2-c032-49e7-8dbf-982df86a0520","ios":"levelo://app?vid=1e2223a2-c032-49e7-8dbf-982df86a0520"},"vehicle_type_id":"4","last_reported":1736500206,"current_range_meters":32800,"station_id":"cpo3532slgdg3j2ikp40","pricing_plan_id":"cebpf4jnsgd1na2vs0mg"},{"bike_id":"5bc018ab-7f75-4181-b8d3-9b66ab0e5f53","system_id":"levelo_inurba_marseille","lat":43.28677,"lon":5.38653,"is_reserved":false,"is_disabled":true,"rental_uris":{"android":"levelo://app?vid=5bc018ab-7f75-4181-b8d3-9b66ab0e5f53","ios":"levelo://app?vid=5bc018ab-7f75-4181-b8d3-9b66ab0e5f53"},"vehicle_type_id":"4","last_reported":1736500206,"current_range_meters":37600,"station_id":"ce4bh492rcd13ifvqdug","pricing_plan_id":"cebpf4jnsgd1na2vs0mg"},{"bike_id":"acbde243-e4f3-46d9-ba57-5dca67292636","system_id":"levelo_inurba_marseille","lat":43.27323,"lon":5.3907,"is_reserved":false,"is_disabled":false,"rental_uris":{"android":"levelo://app?vid=acbde243-e4f3-46d9-ba57-5dca67292636","ios":"levelo://app?vid=acbde243-e4f3-46d9-ba57-5dca67292636"},"vehicle_type_id":"4","last_reported":1736500206,"current_range_meters":33600,"station_id":"ce4bhgp2rcd13ifvqfe0","pricing_plan_id":"cebpf4jnsgd1na2vs0mg"},{"bike_id":"be8a233f-ad85-41b2-af03-bfa1e3033438","system_id":"levelo_inurba_marseille","lat":43.23209,"lon":5.35558,"is_reserved":false,"is_disabled":false,"rental_uris":{"android":"levelo://app?vid=be8a233f-ad85-41b2-af03-bfa1e3033438","ios":"levelo://app?vid=be8a233f-ad85-41b2-af03-bfa1e3033438"},"vehicle_type_id":"4","last_reported":1736500206,"current_range_meters":25200,"station_id":"ce4bhu92rcd13ifvqi70","pricing_plan_id":"cebpf4jnsgd1na2vs0mg"},{"bike_id":"b124ca2f-2fd0-4c56-960f-1b8a90949c3b","system_id":"levelo_inurba_marseille","lat":43.2954,"lon":5.37525,"is_reserved":false,"is_disabled":true,"rental_uris":{"android":"levelo://app?vid=b124ca2f-2fd0-4c56-960f-1b8a90949c3b","ios":"levelo://app?vid=b124ca2f-2fd0-4c56-960f-1b8a90949c3b"},"vehicle_type_id":"4","last_reported":1736500206,"current_range_meters":26000,"station_id":"ce4bgkp2rcd13ifvqbmg","pricing_plan_id":"cebpf4jnsgd1na2vs0mg"},{"bike_id":"093d9ce3-4d12-4d1d-bdcc-8d78ef369464","system_id":"levelo_inurba_marseille","lat":43.29881,"lon":5.40389,"is_reserved":false,"is_disabled":false,"rental_uris":{"android":"levelo://app?vid=093d9ce3-4d12-4d1d-bdcc-8d78ef369464","ios":"levelo://app?vid=093d9ce3-4d12-4d1d-bdcc-8d78ef369464"},"vehicle_type_id":"4","last_reported":1736500206,"current_range_meters":17200,"station_id":"","pricing_plan_id":"cebpf4jnsgd1na2vs0mg"},{"bike_id":"3011ad8d-603e-437c-bc22-04c85f4631bf","system_id":"levelo_inurba_marseille","lat":43.30541,"lon":5.38436,"is_reserved":false,"is_disabled":false,"rental_uris":{"android":"levelo://app?vid=3011ad8d-603e-437c-bc22-04c85f4631bf","ios":"levelo://app?vid=3011ad8d-603e-437c-bc22-04c85f4631bf"},"vehicle_type_id":"4","last_reported":1736500206,"current_range_meters":32800,"station_id":"ce4bgg92rcd13ifvqb30","pricing_plan_id":"cebpf4jnsgd1na2vs0mg"},{"bike_id":"5d3bf06a-a6f7-4641-af93-d780e27467b6","system_id":"levelo_inurba_marseille","lat":43.308083,"lon":5.381718,"is_reserved":false,"is_disabled":true,"rental_uris":{"android":"levelo://app?vid=5d3bf06a-a6f7-4641-af93-d780e27467b6","ios":"levelo://app?vid=5d3bf06a-a6f7-4641-af93-d780e27467b6"},"vehicle_type_id":"4","last_reported":1736500206,"current_range_meters":32400,"station_id":"ce4bgt12rcd13ifvqce0","pricing_plan_id":"cebpf4jnsgd1na2vs0mg"},{"bike_id":"7c6b4ab8-094c-4fb3-b826-f64ede01dc18","system_id":"levelo_inurba_marseille","lat":43.29305,"lon":5.37166,"is_reserved":false,"is_disabled":false,"rental_uris":{"android":"levelo://app?vid=7c6b4ab8-094c-4fb3-b826-f64ede01dc18","ios":"levelo://app?vid=7c6b4ab8-094c-4fb3-b826-f64ede01dc18"},"vehicle_type_id":"4","last_reported":1736500206,"current_range_meters":22800,"station_id":"ce4bgh92rcd13ifvqb40","pricing_plan_id":"cebpf4jnsgd1na2vs0mg"},{"bike_id":"ad0e7292-654a-46d5-bfb8-99ecd1833b5f","system_id":"levelo_inurba_marseille","lat":43.24075,"lon":5.3776,"is_reserved":false,"is_disabled":false,"rental_uris":{"android":"levelo://app?vid=ad0e7292-654a-46d5-bfb8-99ecd1833b5f","ios":"levelo://app?vid=ad0e7292-654a-46d5-bfb8-99ecd1833b5f"},"vehicle_type_id":"4","last_reported":1736500206,"current_range_meters":17600,"station_id":"ce4bhnp2rcd13ifvqgvg","pricing_plan_id":"cebpf4jnsgd1na2vs0mg"},{"bike_id":"7863d40f-5fee-4d3d-ba6f-99d8c77e1e5e","system_id":"levelo_inurba_marseille","lat":43.27501,"lon":5.42435,"is_reserved":false,"is_disabled":false,"rental_uris":{"android":"levelo://app?vid=7863d40f-5fee-4d3d-ba6f-99d8c77e1e5e","ios":"levelo://app?vid=7863d40f-5fee-4d3d-ba6f-99d8c77e1e5e"},"vehicle_type_id":"4","last_reported":1736500206,"current_range_meters":16000,"station_id":"ce4bhn92rcd13ifvqgrg","pricing_plan_id":"cebpf4jnsgd1na2vs0mg"},{"bike_id":"0751221b-37bf-4486-a78f-e3467767c553","system_id":"levelo_inurba_marseille","lat":43.25579,"lon":5.3823,"is_reserved":false,"is_disabled":false,"rental_uris":{"android":"levelo://app?vid=0751221b-37bf-4486-a78f-e3467767c553","ios":"levelo://app?vid=0751221b-37bf-4486-a78f-e3467767c553"},"vehicle_type_id":"4","last_reported":1736500206,"current_range_meters":31200,"station_id":"ce4bhih2rcd13ifvqfs0","pricing_plan_id":"cebpf4jnsgd1na2vs0mg"},{"bike_id":"fd1791cc-d513-46aa-86f5-45066a889da9","system_id":"levelo_inurba_marseille","lat":43.317209,"lon":5.424044,"is_reserved":false,"is_disabled":false,"rental_uris":{"android":"levelo://app?vid=fd1791cc-d513-46aa-86f5-45066a889da9","ios":"levelo://app?vid=fd1791cc-d513-46aa-86f5-45066a889da9"},"vehicle_type_id":"4","last_reported":1736500206,"current_range_meters":35600,"station_id":"ce4bhp92rcd13ifvqhbg","pricing_plan_id":"cebpf4jnsgd1na2vs0mg"},{"bike_id":"ce2cca2d-f10c-4078-a6c6-e3331fe38940","system_id":"levelo_inurba_marseille","lat":43.301354,"lon":5.387806,"is_reserved":false,"is_disabled":true,"rental_uris":{"android":"levelo://app?vid=ce2cca2d-f10c-4078-a6c6-e3331fe38940","ios":"levelo://app?vid=ce2cca2d-f10c-4078-a6c6-e3331fe38940"},"vehicle_type_id":"4","last_reported":1736500206,"current_range_meters":38000,"station_id":"ce4bghh2rcd13ifvqb60","pricing_plan_id":"cebpf4jnsgd1na2vs0mg"},{"bike_id":"2118f603-61e8-4314-829f-9caed67936e0","system_id":"levelo_inurba_marseille","lat":43.30883,"lon":5.3963,"is_reserved":false,"is_disabled":false,"rental_uris":{"android":"levelo://app?vid=2118f603-61e8-4314-829f-9caed67936e0","ios":"levelo://app?vid=2118f603-61e8-4314-829f-9caed67936e0"},"vehicle_type_id":"4","last_reported":1736500206,"current_range_meters":17600,"station_id":"ce4bh012rcd13ifvqcv0","pricing_plan_id":"cebpf4jnsgd1na2vs0mg"},{"bike_id":"fc9288ed-9da0-4c7f-9aba-d64070cdbf51","system_id":"levelo_inurba_marseille","lat":43.23137,"lon":5.43698,"is_reserved":false,"is_disabled":false,"rental_uris":{"android":"levelo://app?vid=fc9288ed-9da0-4c7f-9aba-d64070cdbf51","ios":"levelo://app?vid=fc9288ed-9da0-4c7f-9aba-d64070cdbf51"},"vehicle_type_id":"4","last_reported":1736500206,"current_range_meters":38000,"station_id":"ce4bhmp2rcd13ifvqgog","pricing_plan_id":"cebpf4jnsgd1na2vs0mg"},{"bike_id":"8a6f4d7f-46c0-49d2-bc52-16be49ce98d5","system_id":"levelo_inurba_marseille","lat":43.26953,"lon":5.38647,"is_reserved":false,"is_disabled":false,"rental_uris":{"android":"levelo://app?vid=8a6f4d7f-46c0-49d2-bc52-16be49ce98d5","ios":"levelo://app?vid=8a6f4d7f-46c0-49d2-bc52-16be49ce98d5"},"vehicle_type_id":"4","last_reported":1736500206,"current_range_meters":22400,"station_id":"ce4bhh92rcd13ifvqfh0","pricing_plan_id":"cebpf4jnsgd1na2vs0mg"},{"bike_id":"ad28bd53-1c8c-44ea-9a1c-1e5a5b2498fe","system_id":"levelo_inurba_marseille","lat":43.24142,"lon":5.36409,"is_reserved":false,"is_disabled":false,"rental_uris":{"android":"levelo://app?vid=ad28bd53-1c8c-44ea-9a1c-1e5a5b2498fe","ios":"levelo://app?vid=ad28bd53-1c8c-44ea-9a1c-1e5a5b2498fe"},"vehicle_type_id":"4","last_reported":1736500206,"current_range_meters":10800,"station_id":"cpo36qri1sfpv3e86is0","pricing_plan_id":"cebpf4jnsgd1na2vs0mg"},{"bike_id":"81c8b139-2d6b-4abf-8588-b1a290f8b7c3","system_id":"levelo_inurba_marseille","lat":43.32298,"lon":5.38276,"is_reserved":false,"is_disabled":false,"rental_uris":{"android":"levelo://app?vid=81c8b139-2d6b-4abf-8588-b1a290f8b7c3","ios":"levelo://app?vid=81c8b139-2d6b-4abf-8588-b1a290f8b7c3"},"vehicle_type_id":"4","last_reported":1736500206,"current_range_meters":38800,"station_id":"ce4bhr12rcd13ifvqhqg","pricing_plan_id":"cebpf4jnsgd1na2vs0mg"},{"bike_id":"ed5f8f9c-24db-4495-ba73-b7cea4b154a2","system_id":"levelo_inurba_marseille","lat":43.24073,"lon":5.37773,"is_reserved":false,"is_disabled":false,"rental_uris":{"android":"levelo://app?vid=ed5f8f9c-24db-4495-ba73-b7cea4b154a2","ios":"levelo://app?vid=ed5f8f9c-24db-4495-ba73-b7cea4b154a2"},"vehicle_type_id":"4","last_reported":1736500206,"current_range_meters":38800,"station_id":"ce4bhnp2rcd13ifvqgvg","pricing_plan_id":"cebpf4jnsgd1na2vs0mg"},{"bike_id":"18742113-615b-4ae2-8c5a-d564ccae4548","system_id":"levelo_inurba_marseille","lat":43.3094,"lon":5.39036,"is_reserved":false,"is_disabled":false,"rental_uris":{"android":"levelo://app?vid=18742113-615b-4ae2-8c5a-d564ccae4548","ios":"levelo://app?vid=18742113-615b-4ae2-8c5a-d564ccae4548"},"vehicle_type_id":"4","last_reported":1736500206,"current_range_meters":36800,"station_id":"ce4bgup2rcd13ifvqco0","pricing_plan_id":"cebpf4jnsgd1na2vs0mg"},{"bike_id":"06bc23f9-1449-4ecb-8815-1bd5e784d3da","system_id":"levelo_inurba_marseille","lat":43.30154,"lon":5.38081,"is_reserved":false,"is_disabled":false,"rental_uris":{"android":"levelo://app?vid=06bc23f9-1449-4ecb-8815-1bd5e784d3da","ios":"levelo://app?vid=06bc23f9-1449-4ecb-8815-1bd5e784d3da"},"vehicle_type_id":"4","last_reported":1736500206,"current_range_meters":38800,"station_id":"ce4bgjp2rcd13ifvqbh0","pricing_plan_id":"cebpf4jnsgd1na2vs0mg"},{"bike_id":"e3dc1723-c304-42fb-b1ea-ebc3611aa765","system_id":"levelo_inurba_marseille","lat":43.25933,"lon":5.40898,"is_reserved":false,"is_disabled":false,"rental_uris":{"android":"levelo://app?vid=e3dc1723-c304-42fb-b1ea-ebc3611aa765","ios":"levelo://app?vid=e3dc1723-c304-42fb-b1ea-ebc3611aa765"},"vehicle_type_id":"4","last_reported":1736500206,"current_range_meters":38400,"station_id":"ce4bhm92rcd13ifvqglg","pricing_plan_id":"cebpf4jnsgd1na2vs0mg"},{"bike_id":"4637e4d7-73bb-4d21-b77b-6b2088a62998","system_id":"levelo_inurba_marseille","lat":43.297986,"lon":5.380826,"is_reserved":false,"is_disabled":false,"rental_uris":{"android":"levelo://app?vid=4637e4d7-73bb-4d21-b77b-6b2088a62998","ios":"levelo://app?vid=4637e4d7-73bb-4d21-b77b-6b2088a62998"},"vehicle_type_id":"4","last_reported":1736500206,"current_range_meters":21600,"station_id":"ce4bh2h2rcd13ifvqdh0","pricing_plan_id":"cebpf4jnsgd1na2vs0mg"},{"bike_id":"7cc324a9-304a-4a9d-933c-9a915149f8fc","system_id":"levelo_inurba_marseille","lat":43.26691,"lon":5.38253,"is_reserved":false,"is_disabled":true,"rental_uris":{"android":"levelo://app?vid=7cc324a9-304a-4a9d-933c-9a915149f8fc","ios":"levelo://app?vid=7cc324a9-304a-4a9d-933c-9a915149f8fc"},"vehicle_type_id":"4","last_reported":1736500206,"current_range_meters":38000,"station_id":"ce4bhg92rcd13ifvqf90","pricing_plan_id":"cebpf4jnsgd1na2vs0mg"},{"bike_id":"0ef5788c-699c-45e4-8754-99ac79e4cfe6","system_id":"levelo_inurba_marseille","lat":43.26677,"lon":5.3827,"is_reserved":false,"is_disabled":false,"rental_uris":{"android":"levelo://app?vid=0ef5788c-699c-45e4-8754-99ac79e4cfe6","ios":"levelo://app?vid=0ef5788c-699c-45e4-8754-99ac79e4cfe6"},"vehicle_type_id":"4","last_reported":1736500206,"current_range_meters":25200,"station_id":"ce4bhg92rcd13ifvqf90","pricing_plan_id":"cebpf4jnsgd1na2vs0mg"},{"bike_id":"d0b6ff55-db5f-4cee-96e9-7ad0b40415e3","system_id":"levelo_inurba_marseille","lat":43.27671,"lon":5.38921,"is_reserved":false,"is_disabled":true,"rental_uris":{"android":"levelo://app?vid=d0b6ff55-db5f-4cee-96e9-7ad0b40415e3","ios":"levelo://app?vid=d0b6ff55-db5f-4cee-96e9-7ad0b40415e3"},"vehicle_type_id":"4","last_reported":1736500206,"current_range_meters":38800,"station_id":"ce4bhi12rcd13ifvqfo0","pricing_plan_id":"cebpf4jnsgd1na2vs0mg"},{"bike_id":"b8acbba0-a715-4ced-a2aa-0517db10ac9d","system_id":"levelo_inurba_marseille","lat":43.22913,"lon":5.35395,"is_reserved":false,"is_disabled":false,"rental_uris":{"android":"levelo://app?vid=b8acbba0-a715-4ced-a2aa-0517db10ac9d","ios":"levelo://app?vid=b8acbba0-a715-4ced-a2aa-0517db10ac9d"},"vehicle_type_id":"4","last_reported":1736500206,"current_range_meters":8400,"station_id":"cpo3532slgdg3j2ikp40","pricing_plan_id":"cebpf4jnsgd1na2vs0mg"},{"bike_id":"f8ef526e-e28d-4834-a1f4-3b9c20771d97","system_id":"levelo_inurba_marseille","lat":43.28847,"lon":5.35867,"is_reserved":false,"is_disabled":false,"rental_uris":{"android":"levelo://app?vid=f8ef526e-e28d-4834-a1f4-3b9c20771d97","ios":"levelo://app?vid=f8ef526e-e28d-4834-a1f4-3b9c20771d97"},"vehicle_type_id":"4","last_reported":1736500206,"current_range_meters":11200,"station_id":"ce4bhb12rcd13ifvqem0","pricing_plan_id":"cebpf4jnsgd1na2vs0mg"},{"bike_id":"5a173ea0-4611-4766-882b-d81deb475ed2","system_id":"levelo_inurba_marseille","lat":43.24068,"lon":5.37766,"is_reserved":false,"is_disabled":false,"rental_uris":{"android":"levelo://app?vid=5a173ea0-4611-4766-882b-d81deb475ed2","ios":"levelo://app?vid=5a173ea0-4611-4766-882b-d81deb475ed2"},"vehicle_type_id":"4","last_reported":1736500206,"current_range_meters":39200,"station_id":"ce4bhnp2rcd13ifvqgvg","pricing_plan_id":"cebpf4jnsgd1na2vs0mg"},{"bike_id":"6c961443-c9f1-4472-88ca-50d68b66f75b","system_id":"levelo_inurba_marseille","lat":43.26687,"lon":5.3827,"is_reserved":false,"is_disabled":false,"rental_uris":{"android":"levelo://app?vid=6c961443-c9f1-4472-88ca-50d68b66f75b","ios":"levelo://app?vid=6c961443-c9f1-4472-88ca-50d68b66f75b"},"vehicle_type_id":"4","last_reported":1736500206,"current_range_meters":36400,"station_id":"ce4bhg92rcd13ifvqf90","pricing_plan_id":"cebpf4jnsgd1na2vs0mg"},{"bike_id":"62f87a94-556e-4521-8c9a-cb113eefc874","system_id":"levelo_inurba_marseille","lat":43.28929,"lon":5.38392,"is_reserved":false,"is_disabled":true,"rental_uris":{"android":"levelo://app?vid=62f87a94-556e-4521-8c9a-cb113eefc874","ios":"levelo://app?vid=62f87a94-556e-4521-8c9a-cb113eefc874"},"vehicle_type_id":"4","last_reported":1736500206,"current_range_meters":2800,"station_id":"ce4bh612rcd13ifvqe6g","pricing_plan_id":"cebpf4jnsgd1na2vs0mg"},{"bike_id":"ad113f76-a766-497a-90be-d1902352af36","system_id":"levelo_inurba_marseille","lat":43.32112,"lon":5.36775,"is_reserved":false,"is_disabled":false,"rental_uris":{"android":"levelo://app?vid=ad113f76-a766-497a-90be-d1902352af36","ios":"levelo://app?vid=ad113f76-a766-497a-90be-d1902352af36"},"vehicle_type_id":"4","last_reported":1736500206,"current_range_meters":38800,"station_id":"ce4bhrh2rcd13ifvqhug","pricing_plan_id":"cebpf4jnsgd1na2vs0mg"},{"bike_id":"9f45806b-0439-44e8-9147-35b59088d5f3","system_id":"levelo_inurba_marseille","lat":43.24161,"lon":5.36402,"is_reserved":false,"is_disabled":false,"rental_uris":{"android":"levelo://app?vid=9f45806b-0439-44e8-9147-35b59088d5f3","ios":"levelo://app?vid=9f45806b-0439-44e8-9147-35b59088d5f3"},"vehicle_type_id":"4","last_reported":1736500206,"current_range_meters":14800,"station_id":"cpo36qri1sfpv3e86is0","pricing_plan_id":"cebpf4jnsgd1na2vs0mg"},{"bike_id":"3054b8d8-a40e-44e5-b43b-9e4f221dd0b0","system_id":"levelo_inurba_marseille","lat":43.27391,"lon":5.39423,"is_reserved":false,"is_disabled":true,"rental_uris":{"android":"levelo://app?vid=3054b8d8-a40e-44e5-b43b-9e4f221dd0b0","ios":"levelo://app?vid=3054b8d8-a40e-44e5-b43b-9e4f221dd0b0"},"vehicle_type_id":"4","last_reported":1736500206,"current_range_meters":36400,"station_id":"ce4bhdp2rcd13ifvqf20","pricing_plan_id":"cebpf4jnsgd1na2vs0mg"},