{"last_updated":1724274493,"ttl":30,"version":"2.2","data":{"bikes":[{"bike_id":"d0fea048-141f-4faf-8366-0d68aa56d7b3","system_id":"levelo_inurba_marseille","lat":43.313391,"lon":5.36706,"is_reserved":false,"is_disabled":false,"rental_uris":{"android":"levelo://app?vid=d0fea048-141f-4faf-8366-0d68aa56d7b3","ios":"levelo://app?vid=d0fea048-141f-4faf-8366-0d68aa56d7b3"},"vehicle_type_id":"4","last_reported":1724274494,"current_range_meters":10400,"station_id":"ce4bgr92rcd13ifvqc6g","pricing_plan_id":"cebpf4jnsgd1na2vs0mg"},{"bike_id":"d762b00f-0342-4c48-a4da-a7044191d38f","system_id":"levelo_inurba_marseille","lat":43.313391,"lon":5.36706,"is_reserved":false,"is_disabled":false,"rental_uris":{"android":"levelo://app?vid=d762b00f-0342-4c48-a4da-a7044191d38f","ios":"levelo://app?vid=d762b00f-0342-4c48-a4da-a7044191d38f"},"vehicle_type_id":"4","last_reported":1724274494,"current_range_meters":6000,"station_id":"ce4bgr92rcd13ifvqc6g","pricing_plan_id":"cebpf4jnsgd1na2vs0mg"},{"bike_id":"262637cc-7d04-4ac8-8fe6-93d947696cb2","system_id":"levelo_inurba_marseille","lat":43.312239,"lon":5.368562,"is_reserved":false,"is_disabled":false,"rental_uris":{"android":"levelo://app?vid=262637cc-7d04-4ac8-8fe6-93d947696cb2","ios":"levelo://app?vid=262637cc-7d04-4ac8-8fe6-93d947696cb2"},"vehicle_type_id":"4","last_reported":1724274494,"current_range_meters":18800,"station_id":"ce4bgl92rcd13ifvqbq0","pricing_plan_id":"cebpf4jnsgd1na2vs0mg"},{"bike_id":"8d5a2fd8-a3ce-41c6-a727-069f0cd031a1","system_id":"levelo_inurba_marseille","lat":43.312239,"lon":5.368562,"is_reserved":false,"is_disabled":false,"rental_uris":{"android":"levelo://app?vid=8d5a2fd8-a3ce-41c6-a727-069f0cd031a1","ios":"levelo://app?vid=8d5a2fd8-a3ce-41c6-a727-069f0cd031a1"},"vehicle_type_id":"4","last_reported":1724274494,"current_range_meters":21600,"station_id":"ce4bgl92rcd13ifvqbq0","pricing_plan_id":"cebpf4jnsgd1na2vs0mg"},{"bike_id":"da6b09ca-a9ed-4b85-bd8f-1c732e8a1d59","system_id":"levelo_inurba_marseille","lat":43.312239,"lon":5.368562,"is_reserved":false,"is_disabled":false,"rental_uris":{"android":"levelo://app?vid=da6b09ca-a9ed-4b85-bd8f-1c732e8a1d59","ios":"levelo://app?vid=da6b09ca-a9ed-4b85-bd8f-1c732e8a1d59"},"vehicle_type_id":"4","last_reported":1724274494,"current_range_meters":28000,"station_id":"ce4bgl92rcd13ifvqbq0","pricing_plan_id":"cebpf4jnsgd1na2vs0mg"},{"bike_id":"075b52bd-ec93-46f0-bb39-d4df53f4db96","system_id":"levelo_inurba_marseille","lat":43.30907,"lon":5.36843,"is_reserved":false,"is_disabled":false,"rental_uris":{"android":"levelo://app?vid=075b52bd-ec93-46f0-bb39-d4df53f4db96","ios":"levelo://app?vid=075b52bd-ec93-46f0-bb39-d4df53f4db96"},"vehicle_type_id":"4","last_reported":1724274494,"current_range_meters":27200,"station_id":"ce4bgn92rcd13ifvqbvg","pricing_plan_id":"cebpf4jnsgd1na2vs0mg"},{"bike_id":"a26c8ecf-852d-457c-a523-1211887abdd9","system_id":"levelo_inurba_marseille","lat":43.309039,"lon":5.371797,"is_reserved":false,"is_disabled":false,"rental_uris":{"android":"levelo://app?vid=a26c8ecf-852d-457c-a523-1211887abdd9","ios":"levelo://app?vid=a26c8ecf-852d-457c-a523-1211887abdd9"},"vehicle_type_id":"4","last_reported":1724274494,"current_range_meters":10000,"station_id":"ce4bguh2rcd13ifvqckg","pricing_plan_id":"cebpf4jnsgd1na2vs0mg"},{"bike_id":"429fbf6d-f99a-43be-b73c-506be07618a3","system_id":"levelo_inurba_marseille","lat":43.314811,"lon":5.373103,"is_reserved":false,"is_disabled":false,"rental_uris":{"android":"levelo://app?vid=429fbf6d-f99a-43be-b73c-506be07618a3","ios":"levelo://app?vid=429fbf6d-f99a-43be-b73c-506be07618a3"},"vehicle_type_id":"4","last_reported":1724274494,"current_range_meters":1200,"station_id":"ce4bgt12rcd13ifvqcd0","pricing_plan_id":"cebpf4jnsgd1na2vs0mg"},{"bike_id":"c7d5d1d0-57f2-4e5a-8f30-c8aceda01dce","system_id":"levelo_inurba_marseille","lat":43.314811,"lon":5.373103,"is_reserved":false,"is_disabled":false,"rental_uris":{"android":"levelo://app?vid=c7d5d1d0-57f2-4e5a-8f30-c8aceda01dce","ios":"levelo://app?vid=c7d5d1d0-57f2-4e5a-8f30-c8aceda01dce"},"vehicle_type_id":"4","last_reported":1724274494,"current_range_meters":19600,"station_id":"ce4bgt12rcd13ifvqcd0","pricing_plan_id":"cebpf4jnsgd1na2vs0mg"},{"bike_id":"ef86fdc2-2786-48f7-bfc0-a708c0a40df3","system_id":"levelo_inurba_marseille","lat":43.314811,"lon":5.373103,"is_reserved":false,"is_disabled":false,"rental_uris":{"android":"levelo://app?vid=ef86fdc2-2786-48f7-bfc0-a708c0a40df3","ios":"levelo://app?vid=ef86fdc2-2786-48f7-bfc0-a708c0a40df3"},"vehicle_type_id":"4","last_reported":1724274494,"current_range_meters":21200,"station_id":"ce4bgt12rcd13ifvqcd0","pricing_plan_id":"cebpf4jnsgd1na2vs0mg"},{"bike_id":"96a080c3-088b-41e5-a1c4-516d50a2e759","system_id":"levelo_inurba_marseille","lat":43.309039,"lon":5.371797,"is_reserved":false,"is_disabled":false,"rental_uris":{"android":"levelo://app?vid=96a080c3-088b-41e5-a1c4-516d50a2e759","ios":"levelo://app?vid=96a080c3-088b-41e5-a1c4-516d50a2e759"},"vehicle_type_id":"4","last_reported":1724274494,"current_range_meters":18400,"station_id":"ce4bguh2rcd13ifvqckg","pricing_plan_id":"cebpf4jnsgd1na2vs0mg"},{"bike_id":"492835f2-ea51-4556-81d8-b79ce62018ea","system_id":"levelo_inurba_marseille","lat":43.309034,"lon":5.371783,"is_reserved":false,"is_disabled":false,"rental_uris":{"android":"levelo://app?vid=492835f2-ea51-4556-81d8-b79ce62018ea","ios":"levelo://app?vid=492835f2-ea51-4556-81d8-b79ce62018ea"},"vehicle_type_id":"4","last_reported":1724274494,"current_range_meters":24400,"station_id":"ce4bguh2rcd13ifvqckg","pricing_plan_id":"cebpf4jnsgd1na2vs0mg"},{"bike_id":"30cd5d4a-8b95-43ef-94c5-112221ecd235","system_id":"levelo_inurba_marseille","lat":43.309034,"lon":5.371783,"is_reserved":false,"is_disabled":false,"rental_uris":{"android":"levelo://app?vid=30cd5d4a-8b95-43ef-94c5-112221ecd235","ios":"levelo://app?vid=30cd5d4a-8b95-43ef-94c5-112221ecd235"},"vehicle_type_id":"4","last_reported":1724274494,"current_range_meters":12800,"station_id":"ce4bguh2rcd13ifvqckg","pricing_plan_id":"cebpf4jnsgd1na2vs0mg"},{"bike_id":"2d7aa110-a521-4ba4-a811-cbede8bfd11c","system_id":"levelo_inurba_marseille","lat":43.309034,"lon":5.371783,"is_reserved":false,"is_disabled":false,"rental_uris":{"android":"levelo://app?vid=2d7aa110-a521-4ba4-a811-cbede8bfd11c","ios":"levelo://app?vid=2d7aa110-a521-4ba4-a811-cbede8bfd11c"},"vehicle_type_id":"4","last_reported":1724274494,"current_range_meters":31200,"station_id":"ce4bguh2rcd13ifvqckg","pricing_plan_id":"cebpf4jnsgd1na2vs0mg"},{"bike_id":"4c879c58-387d-4a8b-aeda-d20a1a1ef7e5","system_id":"levelo_inurba_marseille","lat":43.313707,"lon":5.375483,"is_reserved":false,"is_disabled":false,"rental_uris":{"android":"levelo://app?vid=4c879c58-387d-4a8b-aeda-d20a1a1ef7e5","ios":"levelo://app?vid=4c879c58-387d-4a8b-aeda-d20a1a1ef7e5"},"vehicle_type_id":"4","last_reported":1724274494,"current_range_meters":8000,"station_id":"","pricing_plan_id":"cebpf4jnsgd1na2vs0mg"},{"bike_id":"0dd7a93a-8afe-4fc0-afc2-94b31f19439a","system_id":"levelo_inurba_marseille","lat":43.31472,"lon":5.37554,"is_reserved":false,"is_disabled":false,"rental_uris":{"android":"levelo://app?vid=0dd7a93a-8afe-4fc0-afc2-94b31f19439a","ios":"levelo://app?vid=0dd7a93a-8afe-4fc0-afc2-94b31f19439a"},"vehicle_type_id":"4","last_reported":1724274494,"current_range_meters":29200,"station_id":"","pricing_plan_id":"cebpf4jnsgd1na2vs0mg"},{"bike_id":"09e5277f-23cb-4123-b6f9-111cc8de5c11","system_id":"levelo_inurba_marseille","lat":43.305368,"lon":5.367343,"is_reserved":false,"is_disabled":false,"rental_uris":{"android":"levelo://app?vid=09e5277f-23cb-4123-b6f9-111cc8de5c11","ios":"levelo://app?vid=09e5277f-23cb-4123-b6f9-111cc8de5c11"},"vehicle_type_id":"4","last_reported":1724274494,"current_range_meters":29200,"station_id":"ce4bgrp2rcd13ifvqc9g","pricing_plan_id":"cebpf4jnsgd1na2vs0mg"},{"bike_id":"4daf192c-a2d2-47cb-8aff-de2ecb6fb8b5","system_id":"levelo_inurba_marseille","lat":43.305989,"lon":5.37225,"is_reserved":false,"is_disabled":false,"rental_uris":{"android":"levelo://app?vid=4daf192c-a2d2-47cb-8aff-de2ecb6fb8b5","ios":"levelo://app?vid=4daf192c-a2d2-47cb-8aff-de2ecb6fb8b5"},"vehicle_type_id":"4","last_reported":1724274494,"current_range_meters":23200,"station_id":"ce4bgqh2rcd13ifvqc4g","pricing_plan_id":"cebpf4jnsgd1na2vs0mg"},{"bike_id":"f2a216a7-1266-43e5-ab38-d49e7cd14995","system_id":"levelo_inurba_marseille","lat":43.30669,"lon":5.373725,"is_reserved":false,"is_disabled":false,"rental_uris":{"android":"levelo://app?vid=f2a216a7-1266-43e5-ab38-d49e7cd14995","ios":"levelo://app?vid=f2a216a7-1266-43e5-ab38-d49e7cd14995"},"vehicle_type_id":"4","last_reported":1724274494,"current_range_meters":10000,"station_id":"","pricing_plan_id":"cebpf4jnsgd1na2vs0mg"},{"bike_id":"860924b7-8c41-4fa1-9bfc-c09250ccd5b9","system_id":"levelo_inurba_marseille","lat":43.311125,"lon":5.377624,"is_reserved":false,"is_disabled":false,"rental_uris":{"android":"levelo://app?vid=860924b7-8c41-4fa1-9bfc-c09250ccd5b9","ios":"levelo://app?vid=860924b7-8c41-4fa1-9bfc-c09250ccd5b9"},"vehicle_type_id":"4","last_reported":1724274494,"current_range_meters":24800,"station_id":"ce4bgt92rcd13ifvqcg0","pricing_plan_id":"cebpf4jnsgd1na2vs0mg"},{"bike_id":"986c3eec-5785-4efd-b5af-f5fdeeb75225","system_id":"levelo_inurba_marseille","lat":43.305989,"lon":5.37225,"is_reserved":false,"is_disabled":false,"rental_uris":{"android":"levelo://app?vid=986c3eec-5785-4efd-b5af-f5fdeeb75225","ios":"levelo://app?vid=986c3eec-5785-4efd-b5af-f5fdeeb75225"},"vehicle_type_id":"4","last_reported":1724274494,"current_range_meters":3200,"station_id":"ce4bgqh2rcd13ifvqc4g","pricing_plan_id":"cebpf4jnsgd1na2vs0mg"},{"bike_id":"cdb31965-9795-421e-86de-b8b6239c845a","system_id":"levelo_inurba_marseille","lat":43.311125,"lon":5.377624,"is_reserved":false,"is_disabled":false,"rental_uris":{"android":"levelo://app?vid=cdb31965-9795-421e-86de-b8b6239c845a","ios":"levelo://app?vid=cdb31965-9795-421e-86de-b8b6239c845a"},"vehicle_type_id":"4","last_reported":1724274494,"current_range_meters":24000,"station_id":"ce4bgt92rcd13ifvqcg0","pricing_plan_id":"cebpf4jnsgd1na2vs0mg"},{"bike_id":"93363734-ca92-4029-9f08-58fb9889f7a3","system_id":"levelo_inurba_marseille","lat":43.307945,"lon":5.376487,"is_reserved":false,"is_disabled":false,"rental_uris":{"android":"levelo://app?vid=93363734-ca92-4029-9f08-58fb9889f7a3","ios":"levelo://app?vid=93363734-ca92-4029-9f08-58fb9889f7a3"},"vehicle_type_id":"4","last_reported":1724274494,"current_range_meters":26800,"station_id":"ce4bgv92rcd13ifvqcq0","pricing_plan_id":"cebpf4jnsgd1na2vs0mg"},{"bike_id":"8417f9a2-82a2-410a-b7a2-e3ec2e7a09da","system_id":"levelo_inurba_marseille","lat":43.307945,"lon":5.376487,"is_reserved":false,"is_disabled":false,"rental_uris":{"android":"levelo://app?vid=8417f9a2-82a2-410a-b7a2-e3ec2e7a09da","ios":"levelo://app?vid=8417f9a2-82a2-410a-b7a2-e3ec2e7a09da"},"vehicle_type_id":"4","last_reported":1724274494,"current_range_meters":14400,"station_id":"ce4bgv92rcd13ifvqcq0","pricing_plan_id":"cebpf4jnsgd1na2vs0mg"},{"bike_id":"280f2d3f-c51d-4a9f-adf1-6a8d0f6048d7","system_id":"levelo_inurba_marseille","lat":43.307945,"lon":5.376487,"is_reserved":false,"is_disabled":false,"rental_uris":{"android":"levelo://app?vid=280f2d3f-c51d-4a9f-adf1-6a8d0f6048d7","ios":"levelo://app?vid=280f2d3f-c51d-4a9f-adf1-6a8d0f6048d7"},"vehicle_type_id":"4","last_reported":1724274494,"current_range_meters":28000,"station_id":"ce4bgv92rcd13ifvqcq0","pricing_plan_id":"cebpf4jnsgd1na2vs0mg"},{"bike_id":"a63d75c4-0ea3-4f44-b522-2a2d783f9156","system_id":"levelo_inurba_marseille","lat":43.307945,"lon":5.376487,"is_reserved":false,"is_disabled":false,"rental_uris":{"android":"levelo://app?vid=a63d75c4-0ea3-4f44-b522-2a2d783f9156","ios":"levelo://app?vid=a63d75c4-0ea3-4f44-b522-2a2d783f9156"},"vehicle_type_id":"4","last_reported":1724274494,"current_range_meters":29600,"station_id":"ce4bgv92rcd13ifvqcq0","pricing_plan_id":"cebpf4jnsgd1na2vs0mg"},{"bike_id":"f7f88074-1920-4def-9b4d-6b60caed518a","system_id":"levelo_inurba_marseille","lat":43.307945,"lon":5.376487,"is_reserved":false,"is_disabled":false,"rental_uris":{"android":"levelo://app?vid=f7f88074-1920-4def-9b4d-6b60caed518a","ios":"levelo://app?vid=f7f88074-1920-4def-9b4d-6b60caed518a"},"vehicle_type_id":"4","last_reported":1724274494,"current_range_meters":10800,"station_id":"ce4bgv92rcd13ifvqcq0","pricing_plan_id":"cebpf4jnsgd1na2vs0mg"},{"bike_id":"aeb59088-e1a8-4940-b2df-03cbdad75102","system_id":"levelo_inurba_marseille","lat":43.307945,"lon":5.376487,"is_reserved":false,"is_disabled":false,"rental_uris":{"android":"levelo://app?vid=aeb59088-e1a8-4940-b2df-03cbdad75102","ios":"levelo://app?vid=aeb59088-e1a8-4940-b2df-03cbdad75102"},"vehicle_type_id":"4","last_reported":1724274494,"current_range_meters":2000,"station_id":"ce4bgv92rcd13ifvqcq0","pricing_plan_id":"cebpf4jnsgd1na2vs0mg"},{"bike_id":"00bb0d54-6ecd-4dbc-b54d-4aa59c478407","system_id":"levelo_inurba_marseille","lat":43.307945,"lon":5.376487,"is_reserved":false,"is_disabled":false,"rental_uris":{"android":"levelo://app?vid=00bb0d54-6ecd-4dbc-b54d-4aa59c478407","ios":"levelo://app?vid=00bb0d54-6ecd-4dbc-b54d-4aa59c478407"},"vehicle_type_id":"4","last_reported":1724274494,"current_range_meters":26400,"station_id":"ce4bgv92rcd13ifvqcq0","pricing_plan_id":"cebpf4jnsgd1na2vs0mg"},{"bike_id":"63800b39-a3eb-4ed9-8c62-a856303d86ed","system_id":"levelo_inurba_marseille","lat":43.31714,"lon":5.377403,"is_reserved":false,"is_disabled":false,"rental_uris":{"android":"levelo://app?vid=63800b39-a3eb-4ed9-8c62-a856303d86ed","ios":"levelo://app?vid=63800b39-a3eb-4ed9-8c62-a856303d86ed"},"vehicle_type_id":"4","last_reported":1724274494,"current_range_meters":28800,"station_id":"ce4bgth2rcd13ifvqch0","pricing_plan_id":"cebpf4jnsgd1na2vs0mg"},{"bike_id":"384af223-aab2-4c3b-b002-45f6dd202860","system_id":"levelo_inurba_marseille","lat":43.3036,"lon":5.36488,"is_reserved":false,"is_disabled":false,"rental_uris":{"android":"levelo://app?vid=384af223-aab2-4c3b-b002-45f6dd202860","ios":"levelo://app?vid=384af223-aab2-4c3b-b002-45f6dd202860"},"vehicle_type_id":"4","last_reported":1724274494,"current_range_meters":20400,"station_id":"","pricing_plan_id":"cebpf4jnsgd1na2vs0mg"},{"bike_id":"1ce8b524-0bc0-402f-9291-d1c1b920423a","system_id":"levelo_inurba_marseille","lat":43.30309,"lon":5.36892,"is_reserved":false,"is_disabled":false,"rental_uris":{"android":"levelo://app?vid=1ce8b524-0bc0-402f-9291-d1c1b920423a","ios":"levelo://app?vid=1ce8b524-0bc0-402f-9291-d1c1b920423a"},"vehicle_type_id":"4","last_reported":1724274494,"current_range_meters":0,"station_id":"ce4bgqh2rcd13ifvqc5g","pricing_plan_id":"cebpf4jnsgd1na2vs0mg"},{"bike_id":"f01bf52d-4bed-433d-b813-41c4f153bfcf","system_id":"levelo_inurba_marseille","lat":43.310804,"lon":5.38359,"is_reserved":false,"is_disabled":false,"rental_uris":{"android":"levelo://app?vid=f01bf52d-4bed-433d-b813-41c4f153bfcf","ios":"levelo://app?vid=f01bf52d-4bed-433d-b813-41c4f153bfcf"},"vehicle_type_id":"4","last_reported":1724274494,"current_range_meters":23200,"station_id":"ce4bgv92rcd13ifvqcr0","pricing_plan_id":"cebpf4jnsgd1na2vs0mg"},{"bike_id":"2036a1d9-8f18-4d54-a121-c0c97592c253","system_id":"levelo_inurba_marseille","lat":43.308012,"lon":5.381511,"is_reserved":false,"is_disabled":false,"rental_uris":{"android":"levelo://app?vid=2036a1d9-8f18-4d54-a121-c0c97592c253","ios":"levelo://app?vid=2036a1d9-8f18-4d54-a121-c0c97592c253"},"vehicle_type_id":"4","last_reported":1724274494,"current_range_meters":2000,"station_id":"ce4bgt12rcd13ifvqce0","pricing_plan_id":"cebpf4jnsgd1na2vs0mg"},{"bike_id":"27a3d0f5-b791-41e4-9b24-f208fdfac9ac","system_id":"levelo_inurba_marseille","lat":43.308012,"lon":5.381511,"is_reserved":false,"is_disabled":false,"rental_uris":{"android":"levelo://app?vid=27a3d0f5-b791-41e4-9b24-f208fdfac9ac","ios":"levelo://app?vid=27a3d0f5-b791-41e4-9b24-f208fdfac9ac"},"vehicle_type_id":"4","last_reported":1724274494,"current_range_meters":1600,"station_id":"ce4bgt12rcd13ifvqce0","pricing_plan_id":"cebpf4jnsgd1na2vs0mg"},{"bike_id":"1ebee5d0-b701-4bb5-9424-bc6bf6295a16","system_id":"levelo_inurba_marseille","lat":43.308012,"lon":5.381511,"is_reserved":false,"is_disabled":false,"rental_uris":{"android":"levelo://app?vid=1ebee5d0-b701-4bb5-9424-bc6bf6295a16","ios":"levelo://app?vid=1ebee5d0-b701-4bb5-9424-bc6bf6295a16"},"vehicle_type_id":"4","last_reported":1724274494,"current_range_meters":12400,"station_id":"ce4bgt12rcd13ifvqce0","pricing_plan_id":"cebpf4jnsgd1na2vs0mg"},{"bike_id":"41c24c02-40c8-4f8d-879a-4bd7ff387f5c","system_id":"levelo_inurba_marseille","lat":43.308012,"lon":5.381511,"is_reserved":false,"is_disabled":false,"rental_uris":{"android":"levelo://app?vid=41c24c02-40c8-4f8d-879a-4bd7ff387f5c","ios":"levelo://app?vid=41c24c02-40c8-4f8d-879a-4bd7ff387f5c"},"vehicle_type_id":"4","last_reported":1724274494,"current_range_meters":10400,"station_id":"ce4bgt12rcd13ifvqce0","pricing_plan_id":"cebpf4jnsgd1na2vs0mg"},{"bike_id":"3038dd0d-7eb6-4bb0-97d7-7a3566a4211b","system_id":"levelo_inurba_marseille","lat":43.308012,"lon":5.381511,"is_reserved":false,"is_disabled":false,"rental_uris":{"android":"levelo://app?vid=3038dd0d-7eb6-4bb0-97d7-7a3566a4211b","ios":"levelo://app?vid=3038dd0d-7eb6-4bb0-97d7-7a3566a4211b"},"vehicle_type_id":"4","last_reported":1724274494,"current_range_meters":7200,"station_id":"ce4bgt12rcd13ifvqce0","pricing_plan_id":"cebpf4jnsgd1na2vs0mg"},{"bike_id":"7d330f76-9358-42b0-8d37-0fffa36173a1","system_id":"levelo_inurba_marseille","lat":43.308012,"lon":5.381511,"is_reserved":false,"is_disabled":false,"rental_uris":{"android":"levelo://app?vid=7d330f76-9358-42b0-8d37-0fffa36173a1","ios":"levelo://app?vid=7d330f76-9358-42b0-8d37-0fffa36173a1"},"vehicle_type_id":"4","last_reported":1724274494,"current_range_meters":19200,"station_id":"ce4bgt12rcd13ifvqce0","pricing_plan_id":"cebpf4jnsgd1na2vs0mg"},{"bike_id":"d345821b-ef7b-4108-9ff6-3257ad74154a","system_id":"levelo_inurba_marseille","lat":43.308012,"lon":5.381511,"is_reserved":false,"is_disabled":false,"rental_uris":{"android":"levelo://app?vid=d345821b-ef7b-4108-9ff6-3257ad74154a","ios":"levelo://app?vid=d345821b-ef7b-4108-9ff6-3257ad74154a"},"vehicle_type_id":"4","last_reported":1724274494,"current_range_meters":21600,"station_id":"ce4bgt12rcd13ifvqce0","pricing_plan_id":"cebpf4jnsgd1na2vs0mg"},{"bike_id":"97464e16-0a0a-48f2-ad67-af860a6fcd55","system_id":"levelo_inurba_marseille","lat":43.30237,"lon":5.37458,"is_reserved":false,"is_disabled":false,"rental_uris":{"android":"levelo://app?vid=97464e16-0a0a-48f2-ad67-af860a6fcd55","ios":"levelo://app?vid=97464e16-0a0a-48f2-ad67-af860a6fcd55"},"vehicle_type_id":"4","last_reported":1724274494,"current_range_meters":10800,"station_id":"","pricing_plan_id":"cebpf4jnsgd1na2vs0mg"},{"bike_id":"04b960fb-8fe0-4652-80a1-0d0dbb2a44d6","system_id":"levelo_inurba_marseille","lat":43.308012,"lon":5.381511,"is_reserved":false,"is_disabled":false,"rental_uris":{"android":"levelo://app?vid=04b960fb-8fe0-4652-80a1-0d0dbb2a44d6","ios":"levelo://app?vid=04b960fb-8fe0-4652-80a1-0d0dbb2a44d6"},"vehicle_type_id":"4","last_reported":1724274494,"current_range_meters":15200,"station_id":"ce4bgt12rcd13ifvqce0","pricing_plan_id":"cebpf4jnsgd1na2vs0mg"},{"bike_id":"14a5093b-11ea-4027-8db9-a3e312d5a0f2","system_id":"levelo_inurba_marseille","lat":43.304606,"lon":5.379026,"is_reserved":false,"is_disabled":false,"rental_uris":{"android":"levelo://app?vid=14a5093b-11ea-4027-8db9-a3e312d5a0f2","ios":"levelo://app?vid=14a5093b-11ea-4027-8db9-a3e312d5a0f2"},"vehicle_type_id":"4","last_reported":1724274494,"current_range_meters":7600,"station_id":"ce4bgup2rcd13ifvqcn0","pricing_plan_id":"cebpf4jnsgd1na2vs0mg"},{"bike_id":"7f0c95da-3fad-4412-94d7-31571aee86ee","system_id":"levelo_inurba_marseille","lat":43.310651,"lon":5.383455,"is_reserved":false,"is_disabled":false,"rental_uris":{"android":"levelo://app?vid=7f0c95da-3fad-4412-94d7-31571aee86ee","ios":"levelo://app?vid=7f0c95da-3fad-4412-94d7-31571aee86ee"},"vehicle_type_id":"4","last_reported":1724274494,"current_range_meters":31200,"station_id":"ce4bgv92rcd13ifvqcr0","pricing_plan_id":"cebpf4jnsgd1na2vs0mg"},{"bike_id":"351a3915-0bcc-4a6d-a656-739dd25b532b","system_id":"levelo_inurba_marseille","lat":43.310804,"lon":5.38359,"is_reserved":false,"is_disabled":false,"rental_uris":{"android":"levelo://app?vid=351a3915-0bcc-4a6d-a656-739dd25b532b","ios":"levelo://app?vid=351a3915-0bcc-4a6d-a656-739dd25b532b"},"vehicle_type_id":"4","last_reported":1724274494,"current_range_meters":5600,"station_id":"ce4bgv92rcd13ifvqcr0","pricing_plan_id":"cebpf4jnsgd1na2vs0mg"},{"bike_id":"afb57690-92db-4847-8a0f-385510552334","system_id":"levelo_inurba_marseille","lat":43.310759,"lon":5.383532,"is_reserved":false,"is_disabled":false,"rental_uris":{"android":"levelo://app?vid=afb57690-92db-4847-8a0f-385510552334","ios":"levelo://app?vid=afb57690-92db-4847-8a0f-385510552334"},"vehicle_type_id":"4","last_reported":1724274494,"current_range_meters":31200,"station_id":"ce4bgv92rcd13ifvqcr0","pricing_plan_id":"cebpf4jnsgd1na2vs0mg"},{"bike_id":"f74e58cc-3d31-41c5-b05a-425bd50e47bc","system_id":"levelo_inurba_marseille","lat":43.310804,"lon":5.38359,"is_reserved":false,"is_disabled":false,"rental_uris":{"android":"levelo://app?vid=f74e58cc-3d31-41c5-b05a-425bd50e47bc","ios":"levelo://app?vid=f74e58cc-3d31-41c5-b05a-425bd50e47bc"},"vehicle_type_id":"4","last_reported":1724274494,"current_range_meters":30000,"station_id":"ce4bgv92rcd13ifvqcr0","pricing_plan_id":"cebpf4jnsgd1na2vs0mg"},{"bike_id":"0a7cacd5-a6f5-48c0-9b8f-8bc77fccc4a6","system_id":"levelo_inurba_marseille","lat":43.31065,"lon":5.38351,"is_reserved":false,"is_disabled":false,"rental_uris":{"android":"levelo://app?vid=0a7cacd5-a6f5-48c0-9b8f-8bc77fccc4a6","ios":"levelo://app?vid=0a7cacd5-a6f5-48c0-9b8f-8bc77fccc4a6"},"vehicle_type_id":"4","last_reported":1724274494,"current_range_meters":31200,"station_id":"ce4bgv92rcd13ifvqcr0","pricing_plan_id":"cebpf4jnsgd1na2vs0mg"},{"bike_id":"6d02d81d-cc12-40a8-bb7d-73c795c29c4e","system_id":"levelo_inurba_marseille","lat":43.310804,"lon":5.38359,"is_reserved":false,"is_disabled":false,"rental_uris":{"android":"levelo://app?vid=6d02d81d-cc12-40a8-bb7d-73c795c29c4e","ios":"levelo://app?vid=6d02d81d-cc12-40a8-bb7d-73c795c29c4e"},"vehicle_type_id":"4","last_reported":1724274494,"current_range_meters":9600,"station_id":"ce4bgv92rcd13ifvqcr0","pricing_plan_id":"cebpf4jnsgd1na2vs0mg"},{"bike_id":"01cfaa1d-c789-4750-96d3-e94c613ca41e","system_id":"levelo_inurba_marseille","lat":43.310804,"lon":5.38359,"is_reserved":false,"is_disabled":false,"rental_uris":{"android":"levelo://app?vid=01cfaa1d-c789-4750-96d3-e94c613ca41e","ios":"levelo://app?vid=01cfaa1d-c789-4750-96d3-e94c613ca41e"},"vehicle_type_id":"4","last_reported":1724274494,"current_range_meters":8800,"station_id":"ce4bgv92rcd13ifvqcr0","pricing_plan_id":"cebpf4jnsgd1na2vs0mg"},{"bike_id":"70aea973-5cf0-4903-af1d-41a98fadeba3","system_id":"levelo_inurba_marseille","lat":43.310804,"lon":5.38359,"is_reserved":false,"is_disabled":false,"rental_uris":{"android":"levelo://app?vid=70aea973-5cf0-4903-af1d-41a98fadeba3","ios":"levelo://app?vid=70aea973-5cf0-4903-af1d-41a98fadeba3"},"vehicle_type_id":"4","last_reported":1724274494,"current_range_meters":0,"station_id":"ce4bgv92rcd13ifvqcr0","pricing_plan_id":"cebpf4jnsgd1na2vs0mg"},{"bike_id":"62d16b12-65ac-4bc5-8508-4806c4a45c2b","system_id":"levelo_inurba_marseille","lat":43.310804,"lon":5.38359,"is_reserved":false,"is_disabled":false,"rental_uris":{"android":"levelo://app?vid=62d16b12-65ac-4bc5-8508-4806c4a45c2b","ios":"levelo://app?vid=62d16b12-65ac-4bc5-8508-4806c4a45c2b"},"vehicle_type_id":"4","last_reported":1724274494,"current_range_meters":28400,"station_id":"ce4bgv92rcd13ifvqcr0","pricing_plan_id":"cebpf4jnsgd1na2vs0mg"},{"bike_id":"98f3727c-8171-4cd3-8327-32baa6989795","system_id":"levelo_inurba_marseille","lat":43.310804,"lon":5.38359,"is_reserved":false,"is_disabled":false,"rental_uris":{"android":"levelo://app?vid=98f3727c-8171-4cd3-8327-32baa6989795","ios":"levelo://app?vid=98f3727c-8171-4cd3-8327-32baa6989795"},"vehicle_type_id":"4","last_reported":1724274494,"current_range_meters":31200,"station_id":"ce4bgv92rcd13ifvqcr0","pricing_plan_id":"cebpf4jnsgd1na2vs0mg"},{"bike_id":"890096d7-b149-4d6c-85b9-691d81dfcfe8","system_id":"levelo_inurba_marseille","lat":43.310804,"lon":5.38359,"is_reserved":false,"is_disabled":false,"rental_uris":{"android":"levelo://app?vid=890096d7-b149-4d6c-85b9-691d81dfcfe8","ios":"levelo://app?vid=890096d7-b149-4d6c-85b9-691d81dfcfe8"},"vehicle_type_id":"4","last_reported":1724274494,"current_range_meters":0,"station_id":"ce4bgv92rcd13ifvqcr0","pricing_plan_id":"cebpf4jnsgd1na2vs0mg"},{"bike_id":"e40772cb-c316-46cc-87cc-d31f8b8b9021","system_id":"levelo_inurba_marseille","lat":43.30143,"lon":5.37413,"is_reserved":false,"is_disabled":false,"rental_uris":{"android":"levelo://app?vid=e40772cb-c316-46cc-87cc-d31f8b8b9021","ios":"levelo://app?vid=e40772cb-c316-46cc-87cc-d31f8b8b9021"},"vehicle_type_id":"4","last_reported":1724274494,"current_range_meters":0,"station_id":"ce4bgs92rcd13ifvqcc0","pricing_plan_id":"cebpf4jnsgd1na2vs0mg"},{"bike_id":"a113109d-1582-4ff9-b691-e74a4ae113bf","system_id":"levelo_inurba_marseille","lat":43.319962,"lon":5.381432,"is_reserved":false,"is_disabled":false,"rental_uris":{"android":"levelo://app?vid=a113109d-1582-4ff9-b691-e74a4ae113bf","ios":"levelo://app?vid=a113109d-1582-4ff9-b691-e74a4ae113bf"},"vehicle_type_id":"4","last_reported":1724274494,"current_range_meters":30000,"station_id":"ce4bhr12rcd13ifvqhpg","pricing_plan_id":"cebpf4jnsgd1na2vs0mg"},{"bike_id":"8bd11a18-ff2e-4e86-b315-9440187cc471","system_id":"levelo_inurba_marseille","lat":43.305861,"lon":5.381745,"is_reserved":false,"is_disabled":false,"rental_uris":{"android":"levelo://app?vid=8bd11a18-ff2e-4e86-b315-9440187cc471","ios":"levelo://app?vid=8bd11a18-ff2e-4e86-b315-9440187cc471"},"vehicle_type_id":"4","last_reported":1724274494,"current_range_meters":22400,"station_id":"","pricing_plan_id":"cebpf4jnsgd1na2vs0mg"},{"bike_id":"58ea8e65-ed1a-4588-945d-6acfe022a210","system_id":"levelo_inurba_marseille","lat":43.319935,"lon":5.381699,"is_reserved":false,"is_disabled":false,"rental_uris":{"android":"levelo://app?vid=58ea8e65-ed1a-4588-945d-6acfe022a210","ios":"levelo://app?vid=58ea8e65-ed1a-4588-945d-6acfe022a210"},"vehicle_type_id":"4","last_reported":1724274494,"current_range_meters":25200,"station_id":"ce4bhr12rcd13ifvqhpg","pricing_plan_id":"cebpf4jnsgd1na2vs0mg"},{"bike_id":"96953cb1-0538-4ecf-a792-04c3e44675e5","system_id":"levelo_inurba_marseille","lat":43.319935,"lon":5.381699,"is_reserved":false,"is_disabled":false,"rental_uris":{"android":"levelo://app?vid=96953cb1-0538-4ecf-a792-04c3e44675e5","ios":"levelo://app?vid=96953cb1-0538-4ecf-a792-04c3e44675e5"},"vehicle_type_id":"4","last_reported":1724274494,"current_range_meters":4400,"station_id":"ce4bhr12rcd13ifvqhpg","pricing_plan_id":"cebpf4jnsgd1na2vs0mg"},{"bike_id":"afd6680d-39d2-42ef-a917-c28f6fda9fa4","system_id":"levelo_inurba_marseille","lat":43.32552,"lon":5.36486,"is_reserved":false,"is_disabled":false,"rental_uris":{"android":"levelo://app?vid=afd6680d-39d2-42ef-a917-c28f6fda9fa4","ios":"levelo://app?vid=afd6680d-39d2-42ef-a917-c28f6fda9fa4"},"vehicle_type_id":"4","last_reported":1724274494,"current_range_meters":20000,"station_id":"","pricing_plan_id":"cebpf4jnsgd1na2vs0mg"},{"bike_id":"de2d0bda-0aba-4e53-b9af-2f160b8e2e2b","system_id":"levelo_inurba_marseille","lat":43.319935,"lon":5.381699,"is_reserved":false,"is_disabled":false,"rental_uris":{"android":"levelo://app?vid=de2d0bda-0aba-4e53-b9af-2f160b8e2e2b","ios":"levelo://app?vid=de2d0bda-0aba-4e53-b9af-2f160b8e2e2b"},"vehicle_type_id":"4","last_reported":1724274494,"current_range_meters":25200,"station_id":"ce4bhr12rcd13ifvqhpg","pricing_plan_id":"cebpf4jnsgd1na2vs0mg"},{"bike_id":"84a6036b-8d13-4376-8ca7-b2e769286617","system_id":"levelo_inurba_marseille","lat":43.319935,"lon":5.381699,"is_reserved":false,"is_disabled":false,"rental_uris":{"android":"levelo://app?vid=84a6036b-8d13-4376-8ca7-b2e769286617","ios":"levelo://app?vid=84a6036b-8d13-4376-8ca7-b2e769286617"},"vehicle_type_id":"4","last_reported":1724274494,"current_range_meters":0,"station_id":"ce4bhr12rcd13ifvqhpg","pricing_plan_id":"cebpf4jnsgd1na2vs0mg"},{"bike_id":"a7ed10e1-c4a6-4294-8f8d-faecb5d1ee11","system_id":"levelo_inurba_marseille","lat":43.319935,"lon":5.381699,"is_reserved":false,"is_disabled":false,"rental_uris":{"android":"levelo://app?vid=a7ed10e1-c4a6-4294-8f8d-faecb5d1ee11","ios":"levelo://app?vid=a7ed10e1-c4a6-4294-8f8d-faecb5d1ee11"},"vehicle_type_id":"4","last_reported":1724274494,"current_range_meters":14400,"station_id":"ce4bhr12rcd13ifvqhpg","pricing_plan_id":"cebpf4jnsgd1na2vs0mg"},{"bike_id":"79d18246-34ba-4e13-850a-1c54871ba174","system_id":"levelo_inurba_marseille","lat":43.319935,"lon":5.381699,"is_reserved":false,"is_disabled":false,"rental_uris":{"android":"levelo://app?vid=79d18246-34ba-4e13-850a-1c54871ba174","ios":"levelo://app?vid=79d18246-34ba-4e13-850a-1c54871ba174"},"vehicle_type_id":"4","last_reported":1724274494,"current_range_meters":19600,"station_id":"ce4bhr12rcd13ifvqhpg","pricing_plan_id":"cebpf4jnsgd1na2vs0mg"},{"bike_id":"42e7e902-bb7e-4682-a04d-8a7e630ba870","system_id":"levelo_inurba_marseille","lat":43.313571,"lon":5.384829,"is_reserved":false,"is_disabled":false,"rental_uris":{"android":"levelo://app?vid=42e7e902-bb7e-4682-a04d-8a7e630ba870","ios":"levelo://app?vid=42e7e902-bb7e-4682-a04d-8a7e630ba870"},"vehicle_type_id":"4","last_reported":1724274494,"current_range_meters":16400,"station_id":"ce4bgt92rcd13ifvqcf0","pricing_plan_id":"cebpf4jnsgd1na2vs0mg"},{"bike_id":"54b01724-8df5-45f3-b8c9-dfcd1079d634","system_id":"levelo_inurba_marseille","lat":43.31364,"lon":5.385,"is_reserved":false,"is_disabled":false,"rental_uris":{"android":"levelo://app?vid=54b01724-8df5-45f3-b8c9-dfcd1079d634","ios":"levelo://app?vid=54b01724-8df5-45f3-b8c9-dfcd1079d634"},"vehicle_type_id":"4","last_reported":1724274494,"current_range_meters":11200,"station_id":"ce4bgt92rcd13ifvqcf0","pricing_plan_id":"cebpf4jnsgd1na2vs0mg"},{"bike_id":"50fa1f04-34ab-4aad-84eb-3695bd1531d6","system_id":"levelo_inurba_marseille","lat":43.313571,"lon":5.384829,"is_reserved":false,"is_disabled":false,"rental_uris":{"android":"levelo://app?vid=50fa1f04-34ab-4aad-84eb-3695bd1531d6","ios":"levelo://app?vid=50fa1f04-34ab-4aad-84eb-3695bd1531d6"},"vehicle_type_id":"4","last_reported":1724274494,"current_range_meters":16800,"station_id":"ce4bgt92rcd13ifvqcf0","pricing_plan_id":"cebpf4jnsgd1na2vs0mg"},{"bike_id":"f145546f-5c67-46b5-a854-0c84456a08f2","system_id":"levelo_inurba_marseille","lat":43.326,"lon":5.36419,"is_reserved":false,"is_disabled":false,"rental_uris":{"android":"levelo://app?vid=f145546f-5c67-46b5-a854-0c84456a08f2","ios":"levelo://app?vid=f145546f-5c67-46b5-a854-0c84456a08f2"},"vehicle_type_id":"4","last_reported":1724274494,"current_range_meters":13600,"station_id":"","pricing_plan_id":"cebpf4jnsgd1na2vs0mg"},{"bike_id":"8b99a785-b895-497e-a32f-ec131748d680","system_id":"levelo_inurba_marseille","lat":43.299724,"lon":5.371829,"is_reserved":false,"is_disabled":false,"rental_uris":{"android":"levelo://app?vid=8b99a785-b895-497e-a32f-ec131748d680","ios":"levelo://app?vid=8b99a785-b895-497e-a32f-ec131748d680"},"vehicle_type_id":"4","last_reported":1724274494,"current_range_meters":28800,"station_id":"ce4bgr92rcd13ifvqc7g","pricing_plan_id":"cebpf4jnsgd1na2vs0mg"},{"bike_id":"bc5c1542-3393-4465-b385-265c2ac2dd47","system_id":"levelo_inurba_marseille","lat":43.298433,"lon":5.362774,"is_reserved":false,"is_disabled":false,"rental_uris":{"android":"levelo://app?vid=bc5c1542-3393-4465-b385-265c2ac2dd47","ios":"levelo://app?vid=bc5c1542-3393-4465-b385-265c2ac2dd47"},"vehicle_type_id":"4","last_reported":1724274494,"current_range_meters":26000,"station_id":"ce4bgpp2rcd13ifvqc3g","pricing_plan_id":"cebpf4jnsgd1na2vs0mg"},{"bike_id":"c1f69e63-7d14-4394-a1b9-2df269ccf8e2","system_id":"levelo_inurba_marseille","lat":43.298433,"lon":5.362774,"is_reserved":false,"is_disabled":false,"rental_uris":{"android":"levelo://app?vid=c1f69e63-7d14-4394-a1b9-2df269ccf8e2","ios":"levelo://app?vid=c1f69e63-7d14-4394-a1b9-2df269ccf8e2"},"vehicle_type_id":"4","last_reported":1724274494,"current_range_meters":0,"station_id":"ce4bgpp2rcd13ifvqc3g","pricing_plan_id":"cebpf4jnsgd1na2vs0mg"},{"bike_id":"f5e806f3-c05f-48f4-b9be-ac3efbff6b22","system_id":"levelo_inurba_marseille","lat":43.29848,"lon":5.36276,"is_reserved":false,"is_disabled":false,"rental_uris":{"android":"levelo://app?vid=f5e806f3-c05f-48f4-b9be-ac3efbff6b22","ios":"levelo://app?vid=f5e806f3-c05f-48f4-b9be-ac3efbff6b22"},"vehicle_type_id":"4","last_reported":1724274494,"current_range_meters":26800,"station_id":"ce4bgpp2rcd13ifvqc3g","pricing_plan_id":"cebpf4jnsgd1na2vs0mg"},{"bike_id":"3fc963e8-2c69-4766-9a3c-7129454f9a6c","system_id":"levelo_inurba_marseille","lat":43.29848,"lon":5.36273,"is_reserved":false,"is_disabled":false,"rental_uris":{"android":"levelo://app?vid=3fc963e8-2c69-4766-9a3c-7129454f9a6c","ios":"levelo://app?vid=3fc963e8-2c69-4766-9a3c-7129454f9a6c"},"vehicle_type_id":"4","last_reported":1724274494,"current_range_meters":18000,"station_id":"ce4bgpp2rcd13ifvqc3g","pricing_plan_id":"cebpf4jnsgd1na2vs0mg"},{"bike_id":"4dbad22e-9767-4382-9417-638c5606e2ce","system_id":"levelo_inurba_marseille","lat":43.29845,"lon":5.36274,"is_reserved":false,"is_disabled":false,"rental_uris":{"android":"levelo://app?vid=4dbad22e-9767-4382-9417-638c5606e2ce","ios":"levelo://app?vid=4dbad22e-9767-4382-9417-638c5606e2ce"},"vehicle_type_id":"4","last_reported":1724274494,"current_range_meters":14400,"station_id":"ce4bgpp2rcd13ifvqc3g","pricing_plan_id":"cebpf4jnsgd1na2vs0mg"},{"bike_id":"df31e882-87e3-402b-b5c2-6b758fc414b8","system_id":"levelo_inurba_marseille","lat":43.29845,"lon":5.36273,"is_reserved":false,"is_disabled":false,"rental_uris":{"android":"levelo://app?vid=df31e882-87e3-402b-b5c2-6b758fc414b8","ios":"levelo://app?vid=df31e882-87e3-402b-b5c2-6b758fc414b8"},"vehicle_type_id":"4","last_reported":1724274494,"current_range_meters":7600,"station_id":"ce4bgpp2rcd13ifvqc3g","pricing_plan_id":"cebpf4jnsgd1na2vs0mg"},{"bike_id":"a6a14304-c580-4569-9c66-ec3f5c61ebb8","system_id":"levelo_inurba_marseille","lat":43.29845,"lon":5.36271,"is_reserved":false,"is_disabled":false,"rental_uris":{"android":"levelo://app?vid=a6a14304-c580-4569-9c66-ec3f5c61ebb8","ios":"levelo://app?vid=a6a14304-c580-4569-9c66-ec3f5c61ebb8"},"vehicle_type_id":"4","last_reported":1724274494,"current_range_meters":9200,"station_id":"ce4bgpp2rcd13ifvqc3g","pricing_plan_id":"cebpf4jnsgd1na2vs0mg"},{"bike_id":"0196e82f-6fef-47f7-ad4b-c9ec173923d4","system_id":"levelo_inurba_marseille","lat":43.298443,"lon":5.36275,"is_reserved":false,"is_disabled":false,"rental_uris":{"android":"levelo://app?vid=0196e82f-6fef-47f7-ad4b-c9ec173923d4","ios":"levelo://app?vid=0196e82f-6fef-47f7-ad4b-c9ec173923d4"},"vehicle_type_id":"4","last_reported":1724274494,"current_range_meters":13600,"station_id":"ce4bgpp2rcd13ifvqc3g","pricing_plan_id":"cebpf4jnsgd1na2vs0mg"},{"bike_id":"950cd1f6-a10d-441f-8e3f-077cc3fe0aa4","system_id":"levelo_inurba_marseille","lat":43.29844,"lon":5.36275,"is_reserved":false,"is_disabled":false,"rental_uris":{"android":"levelo://app?vid=950cd1f6-a10d-441f-8e3f-077cc3fe0aa4","ios":"levelo://app?vid=950cd1f6-a10d-441f-8e3f-077cc3fe0aa4"},"vehicle_type_id":"4","last_reported":1724274494,"current_range_meters":31200,"station_id":"ce4bgpp2rcd13ifvqc3g","pricing_plan_id":"cebpf4jnsgd1na2vs0mg"},{"bike_id":"55ec337d-0b26-40d4-a83d-448091164c86","system_id":"levelo_inurba_marseille","lat":43.29844,"lon":5.36274,"is_reserved":false,"is_disabled":false,"rental_uris":{"android":"levelo://app?vid=55ec337d-0b26-40d4-a83d-448091164c86","ios":"levelo://app?vid=55ec337d-0b26-40d4-a83d-448091164c86"},"vehicle_type_id":"4","last_reported":1724274494,"current_range_meters":10800,"station_id":"ce4bgpp2rcd13ifvqc3g","pricing_plan_id":"cebpf4jnsgd1na2vs0mg"},{"bike_id":"4dbcafee-5505-46dc-9962-14b69b515921","system_id":"levelo_inurba_marseille","lat":43.29843,"lon":5.36276,"is_reserved":false,"is_disabled":false,"rental_uris":{"android":"levelo://app?vid=4dbcafee-5505-46dc-9962-14b69b515921","ios":"levelo://app?vid=4dbcafee-5505-46dc-9962-14b69b515921"},"vehicle_type_id":"4","last_reported":1724274494,"current_range_meters":31200,"station_id":"ce4bgpp2rcd13ifvqc3g","pricing_plan_id":"cebpf4jnsgd1na2vs0mg"},{"bike_id":"3831b84e-c137-42aa-a3f1-741eb2ddae66","system_id":"levelo_inurba_marseille","lat":43.29843,"lon":5.36274,"is_reserved":false,"is_disabled":false,"rental_uris":{"android":"levelo://app?vid=3831b84e-c137-42aa-a3f1-741eb2ddae66","ios":"levelo://app?vid=3831b84e-c137-42aa-a3f1-741eb2ddae66"},"vehicle_type_id":"4","last_reported":1724274494,"current_range_meters":29200,"station_id":"ce4bgpp2rcd13ifvqc3g","pricing_plan_id":"cebpf4jnsgd1na2vs0mg"},{"bike_id":"cc1d0cab-5544-49af-9775-17b59c20b92c","system_id":"levelo_inurba_marseille","lat":43.29843,"lon":5.36273,"is_reserved":false,"is_disabled":false,"rental_uris":{"android":"levelo://app?vid=cc1d0cab-5544-49af-9775-17b59c20b92c","ios":"levelo://app?vid=cc1d0cab-5544-49af-9775-17b59c20b92c"},"vehicle_type_id":"4","last_reported":1724274494,"current_range_meters":10800,"station_id":"ce4bgpp2rcd13ifvqc3g","pricing_plan_id":"cebpf4jnsgd1na2vs0mg"},{"bike_id":"dc6695f4-1e9f-415e-a030-65f2ceef52ec","system_id":"levelo_inurba_marseille","lat":43.29843,"lon":5.36271,"is_reserved":false,"is_disabled":false,"rental_uris":{"android":"levelo://app?vid=dc6695f4-1e9f-415e-a030-65f2ceef52ec","ios":"levelo://app?vid=dc6695f4-1e9f-415e-a030-65f2ceef52ec"},"vehicle_type_id":"4","last_reported":1724274494,"current_range_meters":6400,"station_id":"ce4bgpp2rcd13ifvqc3g","pricing_plan_id":"cebpf4jnsgd1na2vs0mg"},{"bike_id":"3fa35bb4-4932-4a83-bd7d-65879d3e92d5","system_id":"levelo_inurba_marseille","lat":43.29843,"lon":5.36268,"is_reserved":false,"is_disabled":false,"rental_uris":{"android":"levelo://app?vid=3fa35bb4-4932-4a83-bd7d-65879d3e92d5","ios":"levelo://app?vid=3fa35bb4-4932-4a83-bd7d-65879d3e92d5"},"vehicle_type_id":"4","last_reported":1724274494,"current_range_meters":27200,"station_id":"ce4bgpp2rcd13ifvqc3g","pricing_plan_id":"cebpf4jnsgd1na2vs0mg"},{"bike_id":"08fc1ab2-dd72-41aa-b740-73e7f38f8ce1","system_id":"levelo_inurba_marseille","lat":43.298433,"lon":5.362774,"is_reserved":false,"is_disabled":false,"rental_uris":{"android":"levelo://app?vid=08fc1ab2-dd72-41aa-b740-73e7f38f8ce1","ios":"levelo://app?vid=08fc1ab2-dd72-41aa-b740-73e7f38f8ce1"},"vehicle_type_id":"4","last_reported":1724274494,"current_range_meters":28000,"station_id":"ce4bgpp2rcd13ifvqc3g","pricing_plan_id":"cebpf4jnsgd1na2vs0mg"},{"bike_id":"2245fc66-54d8-4140-8425-546453589aa6","system_id":"levelo_inurba_marseille","lat":43.2984,"lon":5.36271,"is_reserved":false,"is_disabled":false,"rental_uris":{"android":"levelo://app?vid=2245fc66-54d8-4140-8425-546453589aa6","ios":"levelo://app?vid=2245fc66-54d8-4140-8425-546453589aa6"},"vehicle_type_id":"4","last_reported":1724274494,"current_range_meters":5600,"station_id":"ce4bgpp2rcd13ifvqc3g","pricing_plan_id":"cebpf4jnsgd1na2vs0mg"},{"bike_id":"52f185b3-8ccf-424b-aae1-e068ffe4e62f","system_id":"levelo_inurba_marseille","lat":43.3117,"lon":5.38712,"is_reserved":false,"is_disabled":false,"rental_uris":{"android":"levelo://app?vid=52f185b3-8ccf-424b-aae1-e068ffe4e62f","ios":"levelo://app?vid=52f185b3-8ccf-424b-aae1-e068ffe4e62f"},"vehicle_type_id":"4","last_reported":1724274494,"current_range_meters":0,"station_id":"ce4bgv12rcd13ifvqcp0","pricing_plan_id":"cebpf4jnsgd1na2vs0mg"},{"bike_id":"c7af2f54-77b5-482a-9358-c98920c83e68","system_id":"levelo_inurba_marseille","lat":43.305364,"lon":5.384119,"is_reserved":false,"is_disabled":false,"rental_uris":{"android":"levelo://app?vid=c7af2f54-77b5-482a-9358-c98920c83e68","ios":"levelo://app?vid=c7af2f54-77b5-482a-9358-c98920c83e68"},"vehicle_type_id":"4","last_reported":1724274494,"current_range_meters":23200,"station_id":"ce4bgg92rcd13ifvqb30","pricing_plan_id":"cebpf4jnsgd1na2vs0mg"},{"bike_id":"b06a0012-7d0d-4163-82b9-cdd2a1c9e057","system_id":"levelo_inurba_marseille","lat":43.301417,"lon":5.3809,"is_reserved":false,"is_disabled":false,"rental_uris":{"android":"levelo://app?vid=b06a0012-7d0d-4163-82b9-cdd2a1c9e057","ios":"levelo://app?vid=b06a0012-7d0d-4163-82b9-cdd2a1c9e057"},"vehicle_type_id":"4","last_reported":1724274494,"current_range_meters":0,"station_id":"ce4bgjp2rcd13ifvqbh0","pricing_plan_id":"cebpf4jnsgd1na2vs0mg"},{"bike_id":"da695db9-7ada-4816-bf9e-a7bf4559c977","system_id":"levelo_inurba_marseille","lat":43.29784,"lon":5.37097,"is_reserved":false,"is_disabled":false,"rental_uris":{"android":"levelo://app?vid=da695db9-7ada-4816-bf9e-a7bf4559c977","ios":"levelo://app?vid=da695db9-7ada-4816-bf9e-a7bf4559c977"},"vehicle_type_id":"4","last_reported":1724274494,"current_range_meters":1200,"station_id":"ce4bgop2rcd13ifvqc1g","pricing_plan_id":"cebpf4jnsgd1na2vs0mg"},{"bike_id":"9eae337f-99f6-4ff4-8ff2-42ff0c2de333","system_id":"levelo_inurba_marseille","lat":43.322872,"lon":5.382756,"is_reserved":false,"is_disabled":false,"rental_uris":{"android":"levelo://app?vid=9eae337f-99f6-4ff4-8ff2-42ff0c2de333","ios":"levelo://app?vid=9eae337f-99f6-4ff4-8ff2-42ff0c2de333"},"vehicle_type_id":"4","last_reported":1724274494,"current_range_meters":28400,"station_id":"ce4bhr12rcd13ifvqhqg","pricing_plan_id":"cebpf4jnsgd1na2vs0mg"},{"bike_id":"1dc77c1a-623f-4fde-a8b2-1f8a2bd1829f","system_id":"levelo_inurba_marseille","lat":43.322872,"lon":5.382756,"is_reserved":false,"is_disabled":false,"rental_uris":{"android":"levelo://app?vid=1dc77c1a-623f-4fde-a8b2-1f8a2bd1829f","ios":"levelo://app?vid=1dc77c1a-623f-4fde-a8b2-1f8a2bd1829f"},"vehicle_type_id":"4","last_reported":1724274494,"current_range_meters":18000,"station_id":"ce4bhr12rcd13ifvqhqg","pricing_plan_id":"cebpf4jnsgd1na2vs0mg"},{"bike_id":"fa871de5-86c5-4f08-befa-7e58012c0f51","system_id":"levelo_inurba_marseille","lat":43.301589,"lon":5.381437,"is_reserved":false,"is_disabled":false,"rental_uris":{"android":"levelo://app?vid=fa871de5-86c5-4f08-befa-7e58012c0f51","ios":"levelo://app?vid=fa871de5-86c5-4f08-befa-7e58012c0f51"},"vehicle_type_id":"4","last_reported":1724274494,"current_range_meters":12800,"station_id":"","pricing_plan_id":"cebpf4jnsgd1na2vs0mg"},{"bike_id":"e80382ec-38b9-402b-93d1-f394ba6ffbc1","system_id":"levelo_inurba_marseille","lat":43.29865,"lon":5.37621,"is_reserved":false,"is_disabled":false,"rental_uris":{"android":"levelo://app?vid=e80382ec-38b9-402b-93d1-f394ba6ffbc1","ios":"levelo://app?vid=e80382ec-38b9-402b-93d1-f394ba6ffbc1"},"vehicle_type_id":"4","last_reported":1724274494,"current_range_meters":9200,"station_id":"","pricing_plan_id":"cebpf4jnsgd1na2vs0mg"},{"bike_id":"66165abc-2003-47bd-aa33-79e6653690d2","system_id":"levelo_inurba_marseille","lat":43.297067,"lon":5.36574,"is_reserved":false,"is_disabled":false,"rental_uris":{"android":"levelo://app?vid=66165abc-2003-47bd-aa33-79e6653690d2","ios":"levelo://app?vid=66165abc-2003-47bd-aa33-79e6653690d2"},"vehicle_type_id":"4","last_reported":1724274494,"current_range_meters":22800,"station_id":"","pricing_plan_id":"cebpf4jnsgd1na2vs0mg"},{"bike_id":"d0d6f968-7bf4-42ce-90a6-a9015822f4c0","system_id":"levelo_inurba_marseille","lat":43.297163,"lon":5.365866,"is_reserved":false,"is_disabled":false,"rental_uris":{"android":"levelo://app?vid=d0d6f968-7bf4-42ce-90a6-a9015822f4c0","ios":"levelo://app?vid=d0d6f968-7bf4-42ce-90a6-a9015822f4c0"},"vehicle_type_id":"4","last_reported":1724274494,"current_range_meters":28400,"station_id":"ce4bgn12rcd13ifvqbt0","pricing_plan_id":"cebpf4jnsgd1na2vs0mg"},{"bike_id":"c10da742-2c1e-493e-8cd6-37e47d11c11f","system_id":"levelo_inurba_marseille","lat":43.297163,"lon":5.365866,"is_reserved":false,"is_disabled":false,"rental_uris":{"android":"levelo://app?vid=c10da742-2c1e-493e-8cd6-37e47d11c11f","ios":"levelo://app?vid=c10da742-2c1e-493e-8cd6-37e47d11c11f"},"vehicle_type_id":"4","last_reported":1724274494,"current_range_meters":6000,"station_id":"ce4bgn12rcd13ifvqbt0","pricing_plan_id":"cebpf4jnsgd1na2vs0mg"},{"bike_id":"63fa0bb3-c638-4edd-89f8-8ba2a0622b07","system_id":"levelo_inurba_marseille","lat":43.29695,"lon":5.36596,"is_reserved":false,"is_disabled":false,"rental_uris":{"android":"levelo://app?vid=63fa0bb3-c638-4edd-89f8-8ba2a0622b07","ios":"levelo://app?vid=63fa0bb3-c638-4edd-89f8-8ba2a0622b07"},"vehicle_type_id":"4","last_reported":1724274494,"current_range_meters":8400,"station_id":"ce4bgn12rcd13ifvqbt0","pricing_plan_id":"cebpf4jnsgd1na2vs0mg"},{"bike_id":"b0b3ddca-b05c-4114-a7c9-9fe5885a8cbd","system_id":"levelo_inurba_marseille","lat":43.31585,"lon":5.38855,"is_reserved":false,"is_disabled":false,"rental_uris":{"android":"levelo://app?vid=b0b3ddca-b05c-4114-a7c9-9fe5885a8cbd","ios":"levelo://app?vid=b0b3ddca-b05c-4114-a7c9-9fe5885a8cbd"},"vehicle_type_id":"4","last_reported":1724274494,"current_range_meters":0,"station_id":"","pricing_plan_id":"cebpf4jnsgd1na2vs0mg"},{"bike_id":"173c87e2-330e-4e49-92a9-1f77ef590222","system_id":"levelo_inurba_marseille","lat":43.296697,"lon":5.364352,"is_reserved":false,"is_disabled":false,"rental_uris":{"android":"levelo://app?vid=173c87e2-330e-4e49-92a9-1f77ef590222","ios":"levelo://app?vid=173c87e2-330e-4e49-92a9-1f77ef590222"},"vehicle_type_id":"4","last_reported":1724274494,"current_range_meters":20800,"station_id":"","pricing_plan_id":"cebpf4jnsgd1na2vs0mg"},{"bike_id":"d1772d35-0f81-41fd-84f3-a861ab9886bc","system_id":"levelo_inurba_marseille","lat":43.296131,"lon":5.370773,"is_reserved":false,"is_disabled":false,"rental_uris":{"android":"levelo://app?vid=d1772d35-0f81-41fd-84f3-a861ab9886bc","ios":"levelo://app?vid=d1772d35-0f81-41fd-84f3-a861ab9886bc"},"vehicle_type_id":"4","last_reported":1724274494,"current_range_meters":4000,"station_id":"ce4bgnh2rcd13ifvqc0g","pricing_plan_id":"cebpf4jnsgd1na2vs0mg"},{"bike_id":"aac770d6-0a1b-4a54-829a-b6422d4e8e7d","system_id":"levelo_inurba_marseille","lat":43.29624,"lon":5.37151,"is_reserved":false,"is_disabled":false,"rental_uris":{"android":"levelo://app?vid=aac770d6-0a1b-4a54-829a-b6422d4e8e7d","ios":"levelo://app?vid=aac770d6-0a1b-4a54-829a-b6422d4e8e7d"},"vehicle_type_id":"4","last_reported":1724274494,"current_range_meters":0,"station_id":"ce4bgnh2rcd13ifvqc0g","pricing_plan_id":"cebpf4jnsgd1na2vs0mg"},{"bike_id":"b717eec0-e791-4281-94c7-662764eef319","system_id":"levelo_inurba_marseille","lat":43.296131,"lon":5.370791,"is_reserved":false,"is_disabled":false,"rental_uris":{"android":"levelo://app?vid=b717eec0-e791-4281-94c7-662764eef319","ios":"levelo://app?vid=b717eec0-e791-4281-94c7-662764eef319"},"vehicle_type_id":"4","last_reported":1724274494,"current_range_meters":14000,"station_id":"ce4bgnh2rcd13ifvqc0g","pricing_plan_id":"cebpf4jnsgd1na2vs0mg"},{"bike_id":"23619d96-278f-474f-9c9c-52302c12a338","system_id":"levelo_inurba_marseille","lat":43.296131,"lon":5.370773,"is_reserved":false,"is_disabled":false,"rental_uris":{"android":"levelo://app?vid=23619d96-278f-474f-9c9c-52302c12a338","ios":"levelo://app?vid=23619d96-278f-474f-9c9c-52302c12a338"},"vehicle_type_id":"4","last_reported":1724274494,"current_range_meters":400,"station_id":"ce4bgnh2rcd13ifvqc0g","pricing_plan_id":"cebpf4jnsgd1na2vs0mg"},{"bike_id":"77de7306-43de-4bc4-822e-e684c89f1889","system_id":"levelo_inurba_marseille","lat":43.296131,"lon":5.370791,"is_reserved":false,"is_disabled":false,"rental_uris":{"android":"levelo://app?vid=77de7306-43de-4bc4-822e-e684c89f1889","ios":"levelo://app?vid=77de7306-43de-4bc4-822e-e684c89f1889"},"vehicle_type_id":"4","last_reported":1724274494,"current_range_meters":0,"station_id":"ce4bgnh2rcd13ifvqc0g","pricing_plan_id":"cebpf4jnsgd1na2vs0mg"},{"bike_id":"2d3330ce-9616-46ec-bba5-f5006a6bea6d","system_id":"levelo_inurba_marseille","lat":43.295852,"lon":5.367282,"is_reserved":false,"is_disabled":false,"rental_uris":{"android":"levelo://app?vid=2d3330ce-9616-46ec-bba5-f5006a6bea6d","ios":"levelo://app?vid=2d3330ce-9616-46ec-bba5-f5006a6bea6d"},"vehicle_type_id":"4","last_reported":1724274494,"current_range_meters":6800,"station_id":"ce4bgph2rcd13ifvqc2g","pricing_plan_id":"cebpf4jnsgd1na2vs0mg"},{"bike_id":"0dfc68e7-0e32-452c-a80f-2287d2c44b31","system_id":"levelo_inurba_marseille","lat":43.29728,"lon":5.37638,"is_reserved":false,"is_disabled":false,"rental_uris":{"android":"levelo://app?vid=0dfc68e7-0e32-452c-a80f-2287d2c44b31","ios":"levelo://app?vid=0dfc68e7-0e32-452c-a80f-2287d2c44b31"},"vehicle_type_id":"4","last_reported":1724274494,"current_range_meters":29600,"station_id":"ce4bgkh2rcd13ifvqbl0","pricing_plan_id":"cebpf4jnsgd1na2vs0mg"},{"bike_id":"92655198-83e6-4bb6-b085-0e0ee6629eb1","system_id":"levelo_inurba_marseille","lat":43.29626,"lon":5.36037,"is_reserved":false,"is_disabled":false,"rental_uris":{"android":"levelo://app?vid=92655198-83e6-4bb6-b085-0e0ee6629eb1","ios":"levelo://app?vid=92655198-83e6-4bb6-b085-0e0ee6629eb1"},"vehicle_type_id":"4","last_reported":1724274494,"current_range_meters":12800,"station_id":"","pricing_plan_id":"cebpf4jnsgd1na2vs0mg"},{"bike_id":"7faff007-68d2-4850-a054-8804463f522f","system_id":"levelo_inurba_marseille","lat":43.299028,"lon":5.381509,"is_reserved":false,"is_disabled":false,"rental_uris":{"android":"levelo://app?vid=7faff007-68d2-4850-a054-8804463f522f","ios":"levelo://app?vid=7faff007-68d2-4850-a054-8804463f522f"},"vehicle_type_id":"4","last_reported":1724274494,"current_range_meters":31200,"station_id":"ce4bgj12rcd13ifvqbc0","pricing_plan_id":"cebpf4jnsgd1na2vs0mg"},{"bike_id":"7ab842f0-8563-4b11-aa17-fd152b940a45","system_id":"levelo_inurba_marseille","lat":43.299028,"lon":5.381509,"is_reserved":false,"is_disabled":false,"rental_uris":{"android":"levelo://app?vid=7ab842f0-8563-4b11-aa17-fd152b940a45","ios":"levelo://app?vid=7ab842f0-8563-4b11-aa17-fd152b940a45"},"vehicle_type_id":"4","last_reported":1724274494,"current_range_meters":27200,"station_id":"ce4bgj12rcd13ifvqbc0","pricing_plan_id":"cebpf4jnsgd1na2vs0mg"},{"bike_id":"97048d28-7f08-46a7-a43b-dd310740aedc","system_id":"levelo_inurba_marseille","lat":43.317557,"lon":5.390173,"is_reserved":false,"is_disabled":false,"rental_uris":{"android":"levelo://app?vid=97048d28-7f08-46a7-a43b-dd310740aedc","ios":"levelo://app?vid=97048d28-7f08-46a7-a43b-dd310740aedc"},"vehicle_type_id":"4","last_reported":1724274494,"current_range_meters":22800,"station_id":"ce4bhqp2rcd13ifvqhng","pricing_plan_id":"cebpf4jnsgd1na2vs0mg"},{"bike_id":"f1d29ee8-b822-4aa7-a617-fcc85ed6c1a9","system_id":"levelo_inurba_marseille","lat":43.298037,"lon":5.381066,"is_reserved":false,"is_disabled":false,"rental_uris":{"android":"levelo://app?vid=f1d29ee8-b822-4aa7-a617-fcc85ed6c1a9","ios":"levelo://app?vid=f1d29ee8-b822-4aa7-a617-fcc85ed6c1a9"},"vehicle_type_id":"4","last_reported":1724274494,"current_range_meters":31200,"station_id":"ce4bgip2rcd13ifvqbb0","pricing_plan_id":"cebpf4jnsgd1na2vs0mg"},{"bike_id":"ec280fd3-e779-4f1a-8fc1-ada0ba515212","system_id":"levelo_inurba_marseille","lat":43.298037,"lon":5.381066,"is_reserved":false,"is_disabled":false,"rental_uris":{"android":"levelo://app?vid=ec280fd3-e779-4f1a-8fc1-ada0ba515212","ios":"levelo://app?vid=ec280fd3-e779-4f1a-8fc1-ada0ba515212"},"vehicle_type_id":"4","last_reported":1724274494,"current_range_meters":5200,"station_id":"ce4bgip2rcd13ifvqbb0","pricing_plan_id":"cebpf4jnsgd1na2vs0mg"},{"bike_id":"b85bb378-2f9c-40f3-b68e-dc6997b20ae4","system_id":"levelo_inurba_marseille","lat":43.298037,"lon":5.381066,"is_reserved":false,"is_disabled":false,"rental_uris":{"android":"levelo://app?vid=b85bb378-2f9c-40f3-b68e-dc6997b20ae4","ios":"levelo://app?vid=b85bb378-2f9c-40f3-b68e-dc6997b20ae4"},"vehicle_type_id":"4","last_reported":1724274494,"current_range_meters":31200,"station_id":"ce4bgip2rcd13ifvqbb0","pricing_plan_id":"cebpf4jnsgd1na2vs0mg"},{"bike_id":"1526bc76-ea7d-422a-9d57-f4dc6ef81cf6","system_id":"levelo_inurba_marseille","lat":43.298037,"lon":5.381066,"is_reserved":false,"is_disabled":false,"rental_uris":{"android":"levelo://app?vid=1526bc76-ea7d-422a-9d57-f4dc6ef81cf6","ios":"levelo://app?vid=1526bc76-ea7d-422a-9d57-f4dc6ef81cf6"},"vehicle_type_id":"4","last_reported":1724274494,"current_range_meters":14800,"station_id":"ce4bgip2rcd13ifvqbb0","pricing_plan_id":"cebpf4jnsgd1na2vs0mg"},{"bike_id":"e746a4b0-5eae-4d89-9594-6e8199c7ea46","system_id":"levelo_inurba_marseille","lat":43.298037,"lon":5.381066,"is_reserved":false,"is_disabled":false,"rental_uris":{"android":"levelo://app?vid=e746a4b0-5eae-4d89-9594-6e8199c7ea46","ios":"levelo://app?vid=e746a4b0-5eae-4d89-9594-6e8199c7ea46"},"vehicle_type_id":"4","last_reported":1724274494,"current_range_meters":6800,"station_id":"ce4bgip2rcd13ifvqbb0","pricing_plan_id":"cebpf4jnsgd1na2vs0mg"},{"bike_id":"78302fbe-b762-4d51-b818-2c97e766486f","system_id":"levelo_inurba_marseille","lat":43.29788,"lon":5.38092,"is_reserved":false,"is_disabled":false,"rental_uris":{"android":"levelo://app?vid=78302fbe-b762-4d51-b818-2c97e766486f","ios":"levelo://app?vid=78302fbe-b762-4d51-b818-2c97e766486f"},"vehicle_type_id":"4","last_reported":1724274494,"current_range_meters":31200,"station_id":"ce4bgip2rcd13ifvqbb0","pricing_plan_id":"cebpf4jnsgd1na2vs0mg"},{"bike_id":"35c63372-5999-4f7e-a483-ecdcef27e5e8","system_id":"levelo_inurba_marseille","lat":43.29573,"lon":5.3751,"is_reserved":false,"is_disabled":false,"rental_uris":{"android":"levelo://app?vid=35c63372-5999-4f7e-a483-ecdcef27e5e8","ios":"levelo://app?vid=35c63372-5999-4f7e-a483-ecdcef27e5e8"},"vehicle_type_id":"4","last_reported":1724274494,"current_range_meters":18400,"station_id":"ce4bgh92rcd13ifvqb50","pricing_plan_id":"cebpf4jnsgd1na2vs0mg"},{"bike_id":"668f7712-6f96-4618-b8c0-17ee70847bdc","system_id":"levelo_inurba_marseille","lat":43.298037,"lon":5.381066,"is_reserved":false,"is_disabled":false,"rental_uris":{"android":"levelo://app?vid=668f7712-6f96-4618-b8c0-17ee70847bdc","ios":"levelo://app?vid=668f7712-6f96-4618-b8c0-17ee70847bdc"},"vehicle_type_id":"4","last_reported":1724274494,"current_range_meters":4400,"station_id":"ce4bgip2rcd13ifvqbb0","pricing_plan_id":"cebpf4jnsgd1na2vs0mg"},{"bike_id":"a080252d-385e-42c6-9254-dbff27070871","system_id":"levelo_inurba_marseille","lat":43.295748,"lon":5.37522,"is_reserved":false,"is_disabled":false,"rental_uris":{"android":"levelo://app?vid=a080252d-385e-42c6-9254-dbff27070871","ios":"levelo://app?vid=a080252d-385e-42c6-9254-dbff27070871"},"vehicle_type_id":"4","last_reported":1724274494,"current_range_meters":0,"station_id":"ce4bgh92rcd13ifvqb50","pricing_plan_id":"cebpf4jnsgd1na2vs0mg"},{"bike_id":"991d4bf1-e82f-4898-8bca-19a2b4a90577","system_id":"levelo_inurba_marseille","lat":43.2957,"lon":5.37513,"is_reserved":false,"is_disabled":false,"rental_uris":{"android":"levelo://app?vid=991d4bf1-e82f-4898-8bca-19a2b4a90577","ios":"levelo://app?vid=991d4bf1-e82f-4898-8bca-19a2b4a90577"},"vehicle_type_id":"4","last_reported":1724274494,"current_range_meters":8800,"station_id":"ce4bgh92rcd13ifvqb50","pricing_plan_id":"cebpf4jnsgd1na2vs0mg"},{"bike_id":"25d978be-35b1-4683-b47d-f52f1b15886e","system_id":"levelo_inurba_marseille","lat":43.304278,"lon":5.388868,"is_reserved":false,"is_disabled":false,"rental_uris":{"android":"levelo://app?vid=25d978be-35b1-4683-b47d-f52f1b15886e","ios":"levelo://app?vid=25d978be-35b1-4683-b47d-f52f1b15886e"},"vehicle_type_id":"4","last_reported":1724274494,"current_range_meters":18000,"station_id":"ce4bgk12rcd13ifvqbi0","pricing_plan_id":"cebpf4jnsgd1na2vs0mg"},{"bike_id":"6484bc50-adfa-4336-889d-cade5622b6a3","system_id":"levelo_inurba_marseille","lat":43.295748,"lon":5.37522,"is_reserved":false,"is_disabled":false,"rental_uris":{"android":"levelo://app?vid=6484bc50-adfa-4336-889d-cade5622b6a3","ios":"levelo://app?vid=6484bc50-adfa-4336-889d-cade5622b6a3"},"vehicle_type_id":"4","last_reported":1724274494,"current_range_meters":3600,"station_id":"ce4bgh92rcd13ifvqb50","pricing_plan_id":"cebpf4jnsgd1na2vs0mg"},{"bike_id":"8c9111e0-3ab0-4d59-bc4c-30065b31afe3","system_id":"levelo_inurba_marseille","lat":43.29633,"lon":5.37759,"is_reserved":false,"is_disabled":false,"rental_uris":{"android":"levelo://app?vid=8c9111e0-3ab0-4d59-bc4c-30065b31afe3","ios":"levelo://app?vid=8c9111e0-3ab0-4d59-bc4c-30065b31afe3"},"vehicle_type_id":"4","last_reported":1724274494,"current_range_meters":12800,"station_id":"ce4bgi92rcd13ifvqb90","pricing_plan_id":"cebpf4jnsgd1na2vs0mg"},{"bike_id":"67651d02-5d92-4327-acae-1892dcb80fe5","system_id":"levelo_inurba_marseille","lat":43.29614,"lon":5.37705,"is_reserved":false,"is_disabled":false,"rental_uris":{"android":"levelo://app?vid=67651d02-5d92-4327-acae-1892dcb80fe5","ios":"levelo://app?vid=67651d02-5d92-4327-acae-1892dcb80fe5"},"vehicle_type_id":"4","last_reported":1724274494,"current_range_meters":0,"station_id":"ce4bgi92rcd13ifvqb90","pricing_plan_id":"cebpf4jnsgd1na2vs0mg"},{"bike_id":"fea7b276-3d79-493f-835e-f07e4b1fdd01","system_id":"levelo_inurba_marseille","lat":43.297626,"lon":5.38085,"is_reserved":false,"is_disabled":false,"rental_uris":{"android":"levelo://app?vid=fea7b276-3d79-493f-835e-f07e4b1fdd01","ios":"levelo://app?vid=fea7b276-3d79-493f-835e-f07e4b1fdd01"},"vehicle_type_id":"4","last_reported":1724274494,"current_range_meters":2400,"station_id":"","pricing_plan_id":"cebpf4jnsgd1na2vs0mg"},{"bike_id":"be526756-1926-4f1b-b6e5-5601016cd18c","system_id":"levelo_inurba_marseille","lat":43.296263,"lon":5.377094,"is_reserved":false,"is_disabled":false,"rental_uris":{"android":"levelo://app?vid=be526756-1926-4f1b-b6e5-5601016cd18c","ios":"levelo://app?vid=be526756-1926-4f1b-b6e5-5601016cd18c"},"vehicle_type_id":"4","last_reported":1724274494,"current_range_meters":0,"station_id":"ce4bgi92rcd13ifvqb90","pricing_plan_id":"cebpf4jnsgd1na2vs0mg"},{"bike_id":"dd7c5b9d-3abb-4c8c-aaab-cf5d38d493dd","system_id":"levelo_inurba_marseille","lat":43.295279,"lon":5.375048,"is_reserved":false,"is_disabled":false,"rental_uris":{"android":"levelo://app?vid=dd7c5b9d-3abb-4c8c-aaab-cf5d38d493dd","ios":"levelo://app?vid=dd7c5b9d-3abb-4c8c-aaab-cf5d38d493dd"},"vehicle_type_id":"4","last_reported":1724274494,"current_range_meters":11600,"station_id":"ce4bgkp2rcd13ifvqbmg","pricing_plan_id":"cebpf4jnsgd1na2vs0mg"},{"bike_id":"b4e42696-7e9c-4296-843b-23bbb4d9ae22","system_id":"levelo_inurba_marseille","lat":43.295279,"lon":5.375048,"is_reserved":false,"is_disabled":false,"rental_uris":{"android":"levelo://app?vid=b4e42696-7e9c-4296-843b-23bbb4d9ae22","ios":"levelo://app?vid=b4e42696-7e9c-4296-843b-23bbb4d9ae22"},"vehicle_type_id":"4","last_reported":1724274494,"current_range_meters":0,"station_id":"ce4bgkp2rcd13ifvqbmg","pricing_plan_id":"cebpf4jnsgd1na2vs0mg"},{"bike_id":"400be77d-1cc5-49ff-8973-5dad1e734379","system_id":"levelo_inurba_marseille","lat":43.3013,"lon":5.38784,"is_reserved":false,"is_disabled":false,"rental_uris":{"android":"levelo://app?vid=400be77d-1cc5-49ff-8973-5dad1e734379","ios":"levelo://app?vid=400be77d-1cc5-49ff-8973-5dad1e734379"},"vehicle_type_id":"4","last_reported":1724274494,"current_range_meters":0,"station_id":"ce4bghh2rcd13ifvqb60","pricing_plan_id":"cebpf4jnsgd1na2vs0mg"},{"bike_id":"4aae973c-dd01-491d-8022-d1a207ae7d83","system_id":"levelo_inurba_marseille","lat":43.32365,"lon":5.38881,"is_reserved":false,"is_disabled":false,"rental_uris":{"android":"levelo://app?vid=4aae973c-dd01-491d-8022-d1a207ae7d83","ios":"levelo://app?vid=4aae973c-dd01-491d-8022-d1a207ae7d83"},"vehicle_type_id":"4","last_reported":1724274494,"current_range_meters":8400,"station_id":"ce4bhqp2rcd13ifvqhog","pricing_plan_id":"cebpf4jnsgd1na2vs0mg"},{"bike_id":"3b285e5c-c373-41c6-879c-2539bd3fc900","system_id":"levelo_inurba_marseille","lat":43.32367,"lon":5.388836,"is_reserved":false,"is_disabled":false,"rental_uris":{"android":"levelo://app?vid=3b285e5c-c373-41c6-879c-2539bd3fc900","ios":"levelo://app?vid=3b285e5c-c373-41c6-879c-2539bd3fc900"},"vehicle_type_id":"4","last_reported":1724274494,"current_range_meters":14000,"station_id":"ce4bhqp2rcd13ifvqhog","pricing_plan_id":"cebpf4jnsgd1na2vs0mg"},{"bike_id":"08beaf55-78dc-47fc-9b52-36b8c54e8ffa","system_id":"levelo_inurba_marseille","lat":43.32367,"lon":5.388836,"is_reserved":false,"is_disabled":false,"rental_uris":{"android":"levelo://app?vid=08beaf55-78dc-47fc-9b52-36b8c54e8ffa","ios":"levelo://app?vid=08beaf55-78dc-47fc-9b52-36b8c54e8ffa"},"vehicle_type_id":"4","last_reported":1724274494,"current_range_meters":6400,"station_id":"ce4bhqp2rcd13ifvqhog","pricing_plan_id":"cebpf4jnsgd1na2vs0mg"},{"bike_id":"b864ee33-a78e-4f34-9776-1da17f59a867","system_id":"levelo_inurba_marseille","lat":43.29602,"lon":5.381084,"is_reserved":false,"is_disabled":false,"rental_uris":{"android":"levelo://app?vid=b864ee33-a78e-4f34-9776-1da17f59a867","ios":"levelo://app?vid=b864ee33-a78e-4f34-9776-1da17f59a867"},"vehicle_type_id":"4","last_reported":1724274494,"current_range_meters":27200,"station_id":"ce4bgl12rcd13ifvqbo0","pricing_plan_id":"cebpf4jnsgd1na2vs0mg"},{"bike_id":"f07885a9-b5df-4538-91d3-6251917f99ce","system_id":"levelo_inurba_marseille","lat":43.29602,"lon":5.381084,"is_reserved":false,"is_disabled":false,"rental_uris":{"android":"levelo://app?vid=f07885a9-b5df-4538-91d3-6251917f99ce","ios":"levelo://app?vid=f07885a9-b5df-4538-91d3-6251917f99ce"},"vehicle_type_id":"4","last_reported":1724274494,"current_range_meters":5600,"station_id":"ce4bgl12rcd13ifvqbo0","pricing_plan_id":"cebpf4jnsgd1na2vs0mg"},{"bike_id":"45175f2a-1f57-4a3f-9e8f-254a3a1dc3fd","system_id":"levelo_inurba_marseille","lat":43.29598,"lon":5.380907,"is_reserved":false,"is_disabled":false,"rental_uris":{"android":"levelo://app?vid=45175f2a-1f57-4a3f-9e8f-254a3a1dc3fd","ios":"levelo://app?vid=45175f2a-1f57-4a3f-9e8f-254a3a1dc3fd"},"vehicle_type_id":"4","last_reported":1724274494,"current_range_meters":4400,"station_id":"ce4bgl12rcd13ifvqbo0","pricing_plan_id":"cebpf4jnsgd1na2vs0mg"},{"bike_id":"d6721e02-a792-4b89-9208-702eb6a47a60","system_id":"levelo_inurba_marseille","lat":43.29535,"lon":5.37943,"is_reserved":false,"is_disabled":false,"rental_uris":{"android":"levelo://app?vid=d6721e02-a792-4b89-9208-702eb6a47a60","ios":"levelo://app?vid=d6721e02-a792-4b89-9208-702eb6a47a60"},"vehicle_type_id":"4","last_reported":1724274494,"current_range_meters":16000,"station_id":"","pricing_plan_id":"cebpf4jnsgd1na2vs0mg"},{"bike_id":"dcdaa204-ed37-49b4-b699-dc5362970d3c","system_id":"levelo_inurba_marseille","lat":43.29602,"lon":5.381084,"is_reserved":false,"is_disabled":false,"rental_uris":{"android":"levelo://app?vid=dcdaa204-ed37-49b4-b699-dc5362970d3c","ios":"levelo://app?vid=dcdaa204-ed37-49b4-b699-dc5362970d3c"},"vehicle_type_id":"4","last_reported":1724274494,"current_range_meters":24800,"station_id":"ce4bgl12rcd13ifvqbo0","pricing_plan_id":"cebpf4jnsgd1na2vs0mg"},{"bike_id":"ae1fa91b-0a09-4c47-81f6-3d57290c06f1","system_id":"levelo_inurba_marseille","lat":43.29602,"lon":5.381084,"is_reserved":false,"is_disabled":false,"rental_uris":{"android":"levelo://app?vid=ae1fa91b-0a09-4c47-81f6-3d57290c06f1","ios":"levelo://app?vid=ae1fa91b-0a09-4c47-81f6-3d57290c06f1"},"vehicle_type_id":"4","last_reported":1724274494,"current_range_meters":14400,"station_id":"ce4bgl12rcd13ifvqbo0","pricing_plan_id":"cebpf4jnsgd1na2vs0mg"},{"bike_id":"4e31e757-4652-4fc1-badb-771fa6c35432","system_id":"levelo_inurba_marseille","lat":43.29602,"lon":5.381084,"is_reserved":false,"is_disabled":false,"rental_uris":{"android":"levelo://app?vid=4e31e757-4652-4fc1-badb-771fa6c35432","ios":"levelo://app?vid=4e31e757-4652-4fc1-badb-771fa6c35432"},"vehicle_type_id":"4","last_reported":1724274494,"current_range_meters":31600,"station_id":"ce4bgl12rcd13ifvqbo0","pricing_plan_id":"cebpf4jnsgd1na2vs0mg"},{"bike_id":"2626743c-2f21-49aa-bc90-8f8658571ebb","system_id":"levelo_inurba_marseille","lat":43.29602,"lon":5.381084,"is_reserved":false,"is_disabled":false,"rental_uris":{"android":"levelo://app?vid=2626743c-2f21-49aa-bc90-8f8658571ebb","ios":"levelo://app?vid=2626743c-2f21-49aa-bc90-8f8658571ebb"},"vehicle_type_id":"4","last_reported":1724274494,"current_range_meters":31600,"station_id":"ce4bgl12rcd13ifvqbo0","pricing_plan_id":"cebpf4jnsgd1na2vs0mg"},{"bike_id":"1f8c6eb2-3f6d-49f7-a678-29f08fd7107b","system_id":"levelo_inurba_marseille","lat":43.29601,"lon":5.381084,"is_reserved":false,"is_disabled":false,"rental_uris":{"android":"levelo://app?vid=1f8c6eb2-3f6d-49f7-a678-29f08fd7107b","ios":"levelo://app?vid=1f8c6eb2-3f6d-49f7-a678-29f08fd7107b"},"vehicle_type_id":"4","last_reported":1724274494,"current_range_meters":27200,"station_id":"ce4bgl12rcd13ifvqbo0","pricing_plan_id":"cebpf4jnsgd1na2vs0mg"},{"bike_id":"c485075c-f97a-45f3-8bbb-c7e2b89e291e","system_id":"levelo_inurba_marseille","lat":43.29602,"lon":5.381084,"is_reserved":false,"is_disabled":false,"rental_uris":{"android":"levelo://app?vid=c485075c-f97a-45f3-8bbb-c7e2b89e291e","ios":"levelo://app?vid=c485075c-f97a-45f3-8bbb-c7e2b89e291e"},"vehicle_type_id":"4","last_reported":1724274494,"current_range_meters":8400,"station_id":"ce4bgl12rcd13ifvqbo0","pricing_plan_id":"cebpf4jnsgd1na2vs0mg"},{"bike_id":"0f025ad0-b94a-46ef-b414-49d3f1cd88bd","system_id":"levelo_inurba_marseille","lat":43.29604,"lon":5.38116,"is_reserved":false,"is_disabled":false,"rental_uris":{"android":"levelo://app?vid=0f025ad0-b94a-46ef-b414-49d3f1cd88bd","ios":"levelo://app?vid=0f025ad0-b94a-46ef-b414-49d3f1cd88bd"},"vehicle_type_id":"4","last_reported":1724274494,"current_range_meters":30400,"station_id":"ce4bgl12rcd13ifvqbo0","pricing_plan_id":"cebpf4jnsgd1na2vs0mg"},{"bike_id":"9a1714ae-613a-49f9-ba60-deb7332d8881","system_id":"levelo_inurba_marseille","lat":43.29602,"lon":5.381084,"is_reserved":false,"is_disabled":false,"rental_uris":{"android":"levelo://app?vid=9a1714ae-613a-49f9-ba60-deb7332d8881","ios":"levelo://app?vid=9a1714ae-613a-49f9-ba60-deb7332d8881"},"vehicle_type_id":"4","last_reported":1724274494,"current_range_meters":1200,"station_id":"ce4bgl12rcd13ifvqbo0","pricing_plan_id":"cebpf4jnsgd1na2vs0mg"},{"bike_id":"05ca0056-892c-44f9-ba98-5edc62011060","system_id":"levelo_inurba_marseille","lat":43.29602,"lon":5.381084,"is_reserved":false,"is_disabled":false,"rental_uris":{"android":"levelo://app?vid=05ca0056-892c-44f9-ba98-5edc62011060","ios":"levelo://app?vid=05ca0056-892c-44f9-ba98-5edc62011060"},"vehicle_type_id":"4","last_reported":1724274494,"current_range_meters":27200,"station_id":"ce4bgl12rcd13ifvqbo0","pricing_plan_id":"cebpf4jnsgd1na2vs0mg"},{"bike_id":"7fcf5236-8e23-410f-b9eb-7d21bf8aaaab","system_id":"levelo_inurba_marseille","lat":43.29601,"lon":5.381084,"is_reserved":false,"is_disabled":false,"rental_uris":{"android":"levelo://app?vid=7fcf5236-8e23-410f-b9eb-7d21bf8aaaab","ios":"levelo://app?vid=7fcf5236-8e23-410f-b9eb-7d21bf8aaaab"},"vehicle_type_id":"4","last_reported":1724274494,"current_range_meters":10400,"station_id":"ce4bgl12rcd13ifvqbo0","pricing_plan_id":"cebpf4jnsgd1na2vs0mg"},{"bike_id":"fec2fdd3-3cb0-4a26-aa00-04327e640bf2","system_id":"levelo_inurba_marseille","lat":43.29596,"lon":5.38111,"is_reserved":false,"is_disabled":false,"rental_uris":{"android":"levelo://app?vid=fec2fdd3-3cb0-4a26-aa00-04327e640bf2","ios":"levelo://app?vid=fec2fdd3-3cb0-4a26-aa00-04327e640bf2"},"vehicle_type_id":"4","last_reported":1724274494,"current_range_meters":20000,"station_id":"ce4bgl12rcd13ifvqbo0","pricing_plan_id":"cebpf4jnsgd1na2vs0mg"},{"bike_id":"19740d68-bfe6-4e2c-9aa2-bc3b586458e6","system_id":"levelo_inurba_marseille","lat":43.293043,"lon":5.371508,"is_reserved":false,"is_disabled":false,"rental_uris":{"android":"levelo://app?vid=19740d68-bfe6-4e2c-9aa2-bc3b586458e6","ios":"levelo://app?vid=19740d68-bfe6-4e2c-9aa2-bc3b586458e6"},"vehicle_type_id":"4","last_reported":1724274494,"current_range_meters":0,"station_id":"ce4bgh92rcd13ifvqb40","pricing_plan_id":"cebpf4jnsgd1na2vs0mg"},{"bike_id":"8db023d0-eb2e-4cb2-8a4d-8f936259dea0","system_id":"levelo_inurba_marseille","lat":43.293057,"lon":5.371755,"is_reserved":false,"is_disabled":false,"rental_uris":{"android":"levelo://app?vid=8db023d0-eb2e-4cb2-8a4d-8f936259dea0","ios":"levelo://app?vid=8db023d0-eb2e-4cb2-8a4d-8f936259dea0"},"vehicle_type_id":"4","last_reported":1724274494,"current_range_meters":0,"station_id":"ce4bgh92rcd13ifvqb40","pricing_plan_id":"cebpf4jnsgd1na2vs0mg"},{"bike_id":"1188ce30-683b-41d9-be73-9dd746506371","system_id":"levelo_inurba_marseille","lat":43.292749,"lon":5.368402,"is_reserved":false,"is_disabled":false,"rental_uris":{"android":"levelo://app?vid=1188ce30-683b-41d9-be73-9dd746506371","ios":"levelo://app?vid=1188ce30-683b-41d9-be73-9dd746506371"},"vehicle_type_id":"4","last_reported":1724274494,"current_range_meters":0,"station_id":"ce4bhbp2rcd13ifvqesg","pricing_plan_id":"cebpf4jnsgd1na2vs0mg"},{"bike_id":"e3750ba8-e0df-48d7-b347-8f190b1c9ec7","system_id":"levelo_inurba_marseille","lat":43.29267,"lon":5.3684,"is_reserved":false,"is_disabled":false,"rental_uris":{"android":"levelo://app?vid=e3750ba8-e0df-48d7-b347-8f190b1c9ec7","ios":"levelo://app?vid=e3750ba8-e0df-48d7-b347-8f190b1c9ec7"},"vehicle_type_id":"4","last_reported":1724274494,"current_range_meters":0,"station_id":"ce4bhbp2rcd13ifvqesg","pricing_plan_id":"cebpf4jnsgd1na2vs0mg"},{"bike_id":"be8936e6-7a43-4d69-8e5c-9dbff81db893","system_id":"levelo_inurba_marseille","lat":43.292749,"lon":5.368402,"is_reserved":false,"is_disabled":false,"rental_uris":{"android":"levelo://app?vid=be8936e6-7a43-4d69-8e5c-9dbff81db893","ios":"levelo://app?vid=be8936e6-7a43-4d69-8e5c-9dbff81db893"},"vehicle_type_id":"4","last_reported":1724274494,"current_range_meters":0,"station_id":"ce4bhbp2rcd13ifvqesg","pricing_plan_id":"cebpf4jnsgd1na2vs0mg"},{"bike_id":"11980573-516f-46a2-98e0-b5f31d7984e3","system_id":"levelo_inurba_marseille","lat":43.305994,"lon":5.393687,"is_reserved":false,"is_disabled":false,"rental_uris":{"android":"levelo://app?vid=11980573-516f-46a2-98e0-b5f31d7984e3","ios":"levelo://app?vid=11980573-516f-46a2-98e0-b5f31d7984e3"},"vehicle_type_id":"4","last_reported":1724274494,"current_range_meters":11600,"station_id":"ce4bh0p2rcd13ifvqd80","pricing_plan_id":"cebpf4jnsgd1na2vs0mg"},{"bike_id":"7d26d7a9-9dd0-44b8-8f54-94fa50667fee","system_id":"levelo_inurba_marseille","lat":43.29295,"lon":5.3745,"is_reserved":false,"is_disabled":false,"rental_uris":{"android":"levelo://app?vid=7d26d7a9-9dd0-44b8-8f54-94fa50667fee","ios":"levelo://app?vid=7d26d7a9-9dd0-44b8-8f54-94fa50667fee"},"vehicle_type_id":"4","last_reported":1724274494,"current_range_meters":0,"station_id":"ce4bgi12rcd13ifvqb70","pricing_plan_id":"cebpf4jnsgd1na2vs0mg"},{"bike_id":"263d45eb-7d87-4f39-a74e-5382da3b88a1","system_id":"levelo_inurba_marseille","lat":43.305994,"lon":5.393687,"is_reserved":false,"is_disabled":false,"rental_uris":{"android":"levelo://app?vid=263d45eb-7d87-4f39-a74e-5382da3b88a1","ios":"levelo://app?vid=263d45eb-7d87-4f39-a74e-5382da3b88a1"},"vehicle_type_id":"4","last_reported":1724274494,"current_range_meters":22800,"station_id":"ce4bh0p2rcd13ifvqd80","pricing_plan_id":"cebpf4jnsgd1na2vs0mg"},{"bike_id":"008030d4-ad55-46b4-aeb9-5d65708dc25e","system_id":"levelo_inurba_marseille","lat":43.292749,"lon":5.368402,"is_reserved":false,"is_disabled":false,"rental_uris":{"android":"levelo://app?vid=008030d4-ad55-46b4-aeb9-5d65708dc25e","ios":"levelo://app?vid=008030d4-ad55-46b4-aeb9-5d65708dc25e"},"vehicle_type_id":"4","last_reported":1724274494,"current_range_meters":4400,"station_id":"ce4bhbp2rcd13ifvqesg","pricing_plan_id":"cebpf4jnsgd1na2vs0mg"},{"bike_id":"dfff9593-280b-4fdc-8df1-82977e5c95ca","system_id":"levelo_inurba_marseille","lat":43.293009,"lon":5.374584,"is_reserved":false,"is_disabled":false,"rental_uris":{"android":"levelo://app?vid=dfff9593-280b-4fdc-8df1-82977e5c95ca","ios":"levelo://app?vid=dfff9593-280b-4fdc-8df1-82977e5c95ca"},"vehicle_type_id":"4","last_reported":1724274494,"current_range_meters":0,"station_id":"ce4bgi12rcd13ifvqb70","pricing_plan_id":"cebpf4jnsgd1na2vs0mg"},{"bike_id":"e431e8a0-cbf7-46d8-8809-9bf5920108ff","system_id":"levelo_inurba_marseille","lat":43.29284,"lon":5.37451,"is_reserved":false,"is_disabled":false,"rental_uris":{"android":"levelo://app?vid=e431e8a0-cbf7-46d8-8809-9bf5920108ff","ios":"levelo://app?vid=e431e8a0-cbf7-46d8-8809-9bf5920108ff"},"vehicle_type_id":"4","last_reported":1724274494,"current_range_meters":0,"station_id":"ce4bgi12rcd13ifvqb70","pricing_plan_id":"cebpf4jnsgd1na2vs0mg"},{"bike_id":"a0507982-b26e-4488-8c1a-d959c2ded1df","system_id":"levelo_inurba_marseille","lat":43.303002,"lon":5.392142,"is_reserved":false,"is_disabled":false,"rental_uris":{"android":"levelo://app?vid=a0507982-b26e-4488-8c1a-d959c2ded1df","ios":"levelo://app?vid=a0507982-b26e-4488-8c1a-d959c2ded1df"},"vehicle_type_id":"4","last_reported":1724274494,"current_range_meters":6400,"station_id":"ce4bgkh2rcd13ifvqbk0","pricing_plan_id":"cebpf4jnsgd1na2vs0mg"},{"bike_id":"0a8d9d28-f978-451d-835b-b6161322e717","system_id":"levelo_inurba_marseille","lat":43.2936,"lon":5.37835,"is_reserved":false,"is_disabled":false,"rental_uris":{"android":"levelo://app?vid=0a8d9d28-f978-451d-835b-b6161322e717","ios":"levelo://app?vid=0a8d9d28-f978-451d-835b-b6161322e717"},"vehicle_type_id":"4","last_reported":1724274494,"current_range_meters":6000,"station_id":"ce4bgjh2rcd13ifvqbf0","pricing_plan_id":"cebpf4jnsgd1na2vs0mg"},{"bike_id":"7c193470-ffb7-412e-a426-8d19e273722a","system_id":"levelo_inurba_marseille","lat":43.293663,"lon":5.378716,"is_reserved":false,"is_disabled":false,"rental_uris":{"android":"levelo://app?vid=7c193470-ffb7-412e-a426-8d19e273722a","ios":"levelo://app?vid=7c193470-ffb7-412e-a426-8d19e273722a"},"vehicle_type_id":"4","last_reported":1724274494,"current_range_meters":0,"station_id":"ce4bgjh2rcd13ifvqbf0","pricing_plan_id":"cebpf4jnsgd1na2vs0mg"},{"bike_id":"26571cf6-2a93-4a6a-900b-f415c4456427","system_id":"levelo_inurba_marseille","lat":43.30085,"lon":5.390856,"is_reserved":false,"is_disabled":false,"rental_uris":{"android":"levelo://app?vid=26571cf6-2a93-4a6a-900b-f415c4456427","ios":"levelo://app?vid=26571cf6-2a93-4a6a-900b-f415c4456427"},"vehicle_type_id":"4","last_reported":1724274494,"current_range_meters":22400,"station_id":"ce4bh192rcd13ifvqdb0","pricing_plan_id":"cebpf4jnsgd1na2vs0mg"},{"bike_id":"8e7c2d25-b6e2-4c12-bdb5-8b037560036a","system_id":"levelo_inurba_marseille","lat":43.30083,"lon":5.39077,"is_reserved":false,"is_disabled":false,"rental_uris":{"android":"levelo://app?vid=8e7c2d25-b6e2-4c12-bdb5-8b037560036a","ios":"levelo://app?vid=8e7c2d25-b6e2-4c12-bdb5-8b037560036a"},"vehicle_type_id":"4","last_reported":1724274494,"current_range_meters":0,"station_id":"ce4bh192rcd13ifvqdb0","pricing_plan_id":"cebpf4jnsgd1na2vs0mg"},{"bike_id":"0c7b19ba-5858-4ca8-b2e5-5bb15ff19ea7","system_id":"levelo_inurba_marseille","lat":43.313655,"lon":5.395846,"is_reserved":false,"is_disabled":false,"rental_uris":{"android":"levelo://app?vid=0c7b19ba-5858-4ca8-b2e5-5bb15ff19ea7","ios":"levelo://app?vid=0c7b19ba-5858-4ca8-b2e5-5bb15ff19ea7"},"vehicle_type_id":"4","last_reported":1724274494,"current_range_meters":4000,"station_id":"","pricing_plan_id":"cebpf4jnsgd1na2vs0mg"},{"bike_id":"c2456015-b640-486d-a24c-93d96e0c3a9b","system_id":"levelo_inurba_marseille","lat":43.298764,"lon":5.388973,"is_reserved":false,"is_disabled":false,"rental_uris":{"android":"levelo://app?vid=c2456015-b640-486d-a24c-93d96e0c3a9b","ios":"levelo://app?vid=c2456015-b640-486d-a24c-93d96e0c3a9b"},"vehicle_type_id":"4","last_reported":1724274494,"current_range_meters":21600,"station_id":"ce4bh392rcd13ifvqdl0","pricing_plan_id":"cebpf4jnsgd1na2vs0mg"},{"bike_id":"86b314be-1b88-4e12-80ac-551929d55a9c","system_id":"levelo_inurba_marseille","lat":43.298764,"lon":5.388973,"is_reserved":false,"is_disabled":false,"rental_uris":{"android":"levelo://app?vid=86b314be-1b88-4e12-80ac-551929d55a9c","ios":"levelo://app?vid=86b314be-1b88-4e12-80ac-551929d55a9c"},"vehicle_type_id":"4","last_reported":1724274494,"current_range_meters":0,"station_id":"ce4bh392rcd13ifvqdl0","pricing_plan_id":"cebpf4jnsgd1na2vs0mg"},{"bike_id":"8f4a5d0d-67c4-46a8-9c76-315e103e247c","system_id":"levelo_inurba_marseille","lat":43.298764,"lon":5.388973,"is_reserved":false,"is_disabled":false,"rental_uris":{"android":"levelo://app?vid=8f4a5d0d-67c4-46a8-9c76-315e103e247c","ios":"levelo://app?vid=8f4a5d0d-67c4-46a8-9c76-315e103e247c"},"vehicle_type_id":"4","last_reported":1724274494,"current_range_meters":15200,"station_id":"ce4bh392rcd13ifvqdl0","pricing_plan_id":"cebpf4jnsgd1na2vs0mg"},{"bike_id":"eebfa0ee-7777-4bfd-b32c-4169224b41f5","system_id":"levelo_inurba_marseille","lat":43.293009,"lon":5.374584,"is_reserved":false,"is_disabled":false,"rental_uris":{"android":"levelo://app?vid=eebfa0ee-7777-4bfd-b32c-4169224b41f5","ios":"levelo://app?vid=eebfa0ee-7777-4bfd-b32c-4169224b41f5"},"vehicle_type_id":"4","last_reported":1724274494,"current_range_meters":6000,"station_id":"ce4bgi12rcd13ifvqb70","pricing_plan_id":"cebpf4jnsgd1na2vs0mg"},{"bike_id":"0c7dad4c-422b-443a-9015-f7ef16e1df43","system_id":"levelo_inurba_marseille","lat":43.291669,"lon":5.371547,"is_reserved":false,"is_disabled":false,"rental_uris":{"android":"levelo://app?vid=0c7dad4c-422b-443a-9015-f7ef16e1df43","ios":"levelo://app?vid=0c7dad4c-422b-443a-9015-f7ef16e1df43"},"vehicle_type_id":"4","last_reported":1724274494,"current_range_meters":0,"station_id":"ce4bha92rcd13ifvqeh0","pricing_plan_id":"cebpf4jnsgd1na2vs0mg"},{"bike_id":"40577dbb-d920-481a-99bf-c871f1900679","system_id":"levelo_inurba_marseille","lat":43.29868,"lon":5.38915,"is_reserved":false,"is_disabled":false,"rental_uris":{"android":"levelo://app?vid=40577dbb-d920-481a-99bf-c871f1900679","ios":"levelo://app?vid=40577dbb-d920-481a-99bf-c871f1900679"},"vehicle_type_id":"4","last_reported":1724274494,"current_range_meters":12000,"station_id":"ce4bh392rcd13ifvqdl0","pricing_plan_id":"cebpf4jnsgd1na2vs0mg"},{"bike_id":"fed99da6-67e9-4d78-8c9f-70df509822b4","system_id":"levelo_inurba_marseille","lat":43.29867,"lon":5.38915,"is_reserved":false,"is_disabled":false,"rental_uris":{"android":"levelo://app?vid=fed99da6-67e9-4d78-8c9f-70df509822b4","ios":"levelo://app?vid=fed99da6-67e9-4d78-8c9f-70df509822b4"},"vehicle_type_id":"4","last_reported":1724274494,"current_range_meters":2400,"station_id":"ce4bh392rcd13ifvqdl0","pricing_plan_id":"cebpf4jnsgd1na2vs0mg"},{"bike_id":"9621a4be-90fe-466a-86fe-0e6aed7aa962","system_id":"levelo_inurba_marseille","lat":43.309038,"lon":5.396546,"is_reserved":false,"is_disabled":false,"rental_uris":{"android":"levelo://app?vid=9621a4be-90fe-466a-86fe-0e6aed7aa962","ios":"levelo://app?vid=9621a4be-90fe-466a-86fe-0e6aed7aa962"},"vehicle_type_id":"4","last_reported":1724274494,"current_range_meters":7600,"station_id":"ce4bh012rcd13ifvqcv0","pricing_plan_id":"cebpf4jnsgd1na2vs0mg"},{"bike_id":"2cc8489d-0ae7-4301-8ce1-79a511b436a7","system_id":"levelo_inurba_marseille","lat":43.309047,"lon":5.396551,"is_reserved":false,"is_disabled":false,"rental_uris":{"android":"levelo://app?vid=2cc8489d-0ae7-4301-8ce1-79a511b436a7","ios":"levelo://app?vid=2cc8489d-0ae7-4301-8ce1-79a511b436a7"},"vehicle_type_id":"4","last_reported":1724274494,"current_range_meters":31600,"station_id":"ce4bh012rcd13ifvqcv0","pricing_plan_id":"cebpf4jnsgd1na2vs0mg"},{"bike_id":"b77cf1de-9955-40b4-ba4b-ca15df7d076a","system_id":"levelo_inurba_marseille","lat":43.313291,"lon":5.396838,"is_reserved":false,"is_disabled":false,"rental_uris":{"android":"levelo://app?vid=b77cf1de-9955-40b4-ba4b-ca15df7d076a","ios":"levelo://app?vid=b77cf1de-9955-40b4-ba4b-ca15df7d076a"},"vehicle_type_id":"4","last_reported":1724274494,"current_range_meters":23200,"station_id":"ce4bgvp2rcd13ifvqcu0","pricing_plan_id":"cebpf4jnsgd1na2vs0mg"},{"bike_id":"f7784d16-6f40-47a3-ad4c-ef8cac307b16","system_id":"levelo_inurba_marseille","lat":43.313291,"lon":5.396838,"is_reserved":false,"is_disabled":false,"rental_uris":{"android":"levelo://app?vid=f7784d16-6f40-47a3-ad4c-ef8cac307b16","ios":"levelo://app?vid=f7784d16-6f40-47a3-ad4c-ef8cac307b16"},"vehicle_type_id":"4","last_reported":1724274494,"current_range_meters":22000,"station_id":"ce4bgvp2rcd13ifvqcu0","pricing_plan_id":"cebpf4jnsgd1na2vs0mg"},{"bike_id":"8807d0cd-51e2-43ad-80e8-dd1365454a41","system_id":"levelo_inurba_marseille","lat":43.313291,"lon":5.396838,"is_reserved":false,"is_disabled":false,"rental_uris":{"android":"levelo://app?vid=8807d0cd-51e2-43ad-80e8-dd1365454a41","ios":"levelo://app?vid=8807d0cd-51e2-43ad-80e8-dd1365454a41"},"vehicle_type_id":"4","last_reported":1724274494,"current_range_meters":16800,"station_id":"ce4bgvp2rcd13ifvqcu0","pricing_plan_id":"cebpf4jnsgd1na2vs0mg"},{"bike_id":"32495ed1-9689-4ad2-92d4-3d037cf644ba","system_id":"levelo_inurba_marseille","lat":43.313291,"lon":5.396838,"is_reserved":false,"is_disabled":false,"rental_uris":{"android":"levelo://app?vid=32495ed1-9689-4ad2-92d4-3d037cf644ba","ios":"levelo://app?vid=32495ed1-9689-4ad2-92d4-3d037cf644ba"},"vehicle_type_id":"4","last_reported":1724274494,"current_range_meters":26800,"station_id":"ce4bgvp2rcd13ifvqcu0","pricing_plan_id":"cebpf4jnsgd1na2vs0mg"},{"bike_id":"6753a8fa-aea9-441e-a0a1-1a7f2d0cbc21","system_id":"levelo_inurba_marseille","lat":43.313291,"lon":5.396838,"is_reserved":false,"is_disabled":false,"rental_uris":{"android":"levelo://app?vid=6753a8fa-aea9-441e-a0a1-1a7f2d0cbc21","ios":"levelo://app?vid=6753a8fa-aea9-441e-a0a1-1a7f2d0cbc21"},"vehicle_type_id":"4","last_reported":1724274494,"current_range_meters":26400,"station_id":"ce4bgvp2rcd13ifvqcu0","pricing_plan_id":"cebpf4jnsgd1na2vs0mg"},{"bike_id":"375a71f3-b07a-4972-a634-f8f6b33a23d5","system_id":"levelo_inurba_marseille","lat":43.313291,"lon":5.396838,"is_reserved":false,"is_disabled":false,"rental_uris":{"android":"levelo://app?vid=375a71f3-b07a-4972-a634-f8f6b33a23d5","ios":"levelo://app?vid=375a71f3-b07a-4972-a634-f8f6b33a23d5"},"vehicle_type_id":"4","last_reported":1724274494,"current_range_meters":21600,"station_id":"ce4bgvp2rcd13ifvqcu0","pricing_plan_id":"cebpf4jnsgd1na2vs0mg"},{"bike_id":"c37188cd-d7eb-41df-9d4e-e669d700e359","system_id":"levelo_inurba_marseille","lat":43.309038,"lon":5.396546,"is_reserved":false,"is_disabled":false,"rental_uris":{"android":"levelo://app?vid=c37188cd-d7eb-41df-9d4e-e669d700e359","ios":"levelo://app?vid=c37188cd-d7eb-41df-9d4e-e669d700e359"},"vehicle_type_id":"4","last_reported":1724274494,"current_range_meters":19200,"station_id":"ce4bh012rcd13ifvqcv0","pricing_plan_id":"cebpf4jnsgd1na2vs0mg"},{"bike_id":"1961fca1-8afa-4f91-a4d8-e878a5f8ec8a","system_id":"levelo_inurba_marseille","lat":43.313291,"lon":5.396838,"is_reserved":false,"is_disabled":false,"rental_uris":{"android":"levelo://app?vid=1961fca1-8afa-4f91-a4d8-e878a5f8ec8a","ios":"levelo://app?vid=1961fca1-8afa-4f91-a4d8-e878a5f8ec8a"},"vehicle_type_id":"4","last_reported":1724274494,"current_range_meters":31200,"station_id":"ce4bgvp2rcd13ifvqcu0","pricing_plan_id":"cebpf4jnsgd1na2vs0mg"},{"bike_id":"3b28c33b-19e5-441c-ab06-dd1ec64a56ef","system_id":"levelo_inurba_marseille","lat":43.313291,"lon":5.396838,"is_reserved":false,"is_disabled":false,"rental_uris":{"android":"levelo://app?vid=3b28c33b-19e5-441c-ab06-dd1ec64a56ef","ios":"levelo://app?vid=3b28c33b-19e5-441c-ab06-dd1ec64a56ef"},"vehicle_type_id":"4","last_reported":1724274494,"current_range_meters":25600,"station_id":"ce4bgvp2rcd13ifvqcu0","pricing_plan_id":"cebpf4jnsgd1na2vs0mg"},{"bike_id":"a32e8ff9-f4fe-4125-a2c8-76ed2b7b1f89","system_id":"levelo_inurba_marseille","lat":43.309047,"lon":5.396551,"is_reserved":false,"is_disabled":false,"rental_uris":{"android":"levelo://app?vid=a32e8ff9-f4fe-4125-a2c8-76ed2b7b1f89","ios":"levelo://app?vid=a32e8ff9-f4fe-4125-a2c8-76ed2b7b1f89"},"vehicle_type_id":"4","last_reported":1724274494,"current_range_meters":6400,"station_id":"ce4bh012rcd13ifvqcv0","pricing_plan_id":"cebpf4jnsgd1na2vs0mg"},{"bike_id":"21eab49c-32eb-402a-acd5-ede1e87fa2a2","system_id":"levelo_inurba_marseille","lat":43.309047,"lon":5.396551,"is_reserved":false,"is_disabled":false,"rental_uris":{"android":"levelo://app?vid=21eab49c-32eb-402a-acd5-ede1e87fa2a2","ios":"levelo://app?vid=21eab49c-32eb-402a-acd5-ede1e87fa2a2"},"vehicle_type_id":"4","last_reported":1724274494,"current_range_meters":31200,"station_id":"ce4bh012rcd13ifvqcv0","pricing_plan_id":"cebpf4jnsgd1na2vs0mg"},{"bike_id":"e539ec2d-abe4-4e5b-a840-e5b3e9e7c882","system_id":"levelo_inurba_marseille","lat":43.313291,"lon":5.396838,"is_reserved":false,"is_disabled":false,"rental_uris":{"android":"levelo://app?vid=e539ec2d-abe4-4e5b-a840-e5b3e9e7c882","ios":"levelo://app?vid=e539ec2d-abe4-4e5b-a840-e5b3e9e7c882"},"vehicle_type_id":"4","last_reported":1724274494,"current_range_meters":20400,"station_id":"ce4bgvp2rcd13ifvqcu0","pricing_plan_id":"cebpf4jnsgd1na2vs0mg"},{"bike_id":"cf9248f7-0942-4914-a2d3-07831a16c511","system_id":"levelo_inurba_marseille","lat":43.313291,"lon":5.396838,"is_reserved":false,"is_disabled":false,"rental_uris":{"android":"levelo://app?vid=cf9248f7-0942-4914-a2d3-07831a16c511","ios":"levelo://app?vid=cf9248f7-0942-4914-a2d3-07831a16c511"},"vehicle_type_id":"4","last_reported":1724274494,"current_range_meters":8800,"station_id":"ce4bgvp2rcd13ifvqcu0","pricing_plan_id":"cebpf4jnsgd1na2vs0mg"},{"bike_id":"aba64e1a-6921-41c6-8a60-807dca5b0f48","system_id":"levelo_inurba_marseille","lat":43.313291,"lon":5.396838,"is_reserved":false,"is_disabled":false,"rental_uris":{"android":"levelo://app?vid=aba64e1a-6921-41c6-8a60-807dca5b0f48","ios":"levelo://app?vid=aba64e1a-6921-41c6-8a60-807dca5b0f48"},"vehicle_type_id":"4","last_reported":1724274494,"current_range_meters":7200,"station_id":"ce4bgvp2rcd13ifvqcu0","pricing_plan_id":"cebpf4jnsgd1na2vs0mg"},{"bike_id":"cc755cc8-e742-4c2a-ad5a-2af7d3c20fc9","system_id":"levelo_inurba_marseille","lat":43.29529,"lon":5.385581,"is_reserved":false,"is_disabled":false,"rental_uris":{"android":"levelo://app?vid=cc755cc8-e742-4c2a-ad5a-2af7d3c20fc9","ios":"levelo://app?vid=cc755cc8-e742-4c2a-ad5a-2af7d3c20fc9"},"vehicle_type_id":"4","last_reported":1724274494,"current_range_meters":31200,"station_id":"ce4bgih2rcd13ifvqba0","pricing_plan_id":"cebpf4jnsgd1na2vs0mg"},{"bike_id":"4657097a-6722-43d8-a5f0-92a25c19cfd0","system_id":"levelo_inurba_marseille","lat":43.309047,"lon":5.396551,"is_reserved":false,"is_disabled":false,"rental_uris":{"android":"levelo://app?vid=4657097a-6722-43d8-a5f0-92a25c19cfd0","ios":"levelo://app?vid=4657097a-6722-43d8-a5f0-92a25c19cfd0"},"vehicle_type_id":"4","last_reported":1724274494,"current_range_meters":31200,"station_id":"ce4bh012rcd13ifvqcv0","pricing_plan_id":"cebpf4jnsgd1na2vs0mg"},{"bike_id":"3103be61-a49e-4f4c-83c5-9d7f26c187d0","system_id":"levelo_inurba_marseille","lat":43.29529,"lon":5.385581,"is_reserved":false,"is_disabled":false,"rental_uris":{"android":"levelo://app?vid=3103be61-a49e-4f4c-83c5-9d7f26c187d0","ios":"levelo://app?vid=3103be61-a49e-4f4c-83c5-9d7f26c187d0"},"vehicle_type_id":"4","last_reported":1724274494,"current_range_meters":26000,"station_id":"ce4bgih2rcd13ifvqba0","pricing_plan_id":"cebpf4jnsgd1na2vs0mg"},{"bike_id":"465a3aa1-db8d-4433-8c91-ea3faebfaefa","system_id":"levelo_inurba_marseille","lat":43.29535,"lon":5.38532,"is_reserved":false,"is_disabled":false,"rental_uris":{"android":"levelo://app?vid=465a3aa1-db8d-4433-8c91-ea3faebfaefa","ios":"levelo://app?vid=465a3aa1-db8d-4433-8c91-ea3faebfaefa"},"vehicle_type_id":"4","last_reported":1724274494,"current_range_meters":31200,"station_id":"ce4bgih2rcd13ifvqba0","pricing_plan_id":"cebpf4jnsgd1na2vs0mg"},{"bike_id":"e60792db-944e-4dd0-8a8b-4ad246ca895b","system_id":"levelo_inurba_marseille","lat":43.2954,"lon":5.38541,"is_reserved":false,"is_disabled":false,"rental_uris":{"android":"levelo://app?vid=e60792db-944e-4dd0-8a8b-4ad246ca895b","ios":"levelo://app?vid=e60792db-944e-4dd0-8a8b-4ad246ca895b"},"vehicle_type_id":"4","last_reported":1724274494,"current_range_meters":18800,"station_id":"ce4bgih2rcd13ifvqba0","pricing_plan_id":"cebpf4jnsgd1na2vs0mg"},{"bike_id":"81f0aafa-a682-408f-9ffb-4b4673e9ccfc","system_id":"levelo_inurba_marseille","lat":43.29537,"lon":5.38542,"is_reserved":false,"is_disabled":false,"rental_uris":{"android":"levelo://app?vid=81f0aafa-a682-408f-9ffb-4b4673e9ccfc","ios":"levelo://app?vid=81f0aafa-a682-408f-9ffb-4b4673e9ccfc"},"vehicle_type_id":"4","last_reported":1724274494,"current_range_meters":6000,"station_id":"ce4bgih2rcd13ifvqba0","pricing_plan_id":"cebpf4jnsgd1na2vs0mg"},{"bike_id":"facc433d-bc70-4e57-b084-c750ce92fb86","system_id":"levelo_inurba_marseille","lat":43.295314,"lon":5.385334,"is_reserved":false,"is_disabled":false,"rental_uris":{"android":"levelo://app?vid=facc433d-bc70-4e57-b084-c750ce92fb86","ios":"levelo://app?vid=facc433d-bc70-4e57-b084-c750ce92fb86"},"vehicle_type_id":"4","last_reported":1724274494,"current_range_meters":6800,"station_id":"ce4bgih2rcd13ifvqba0","pricing_plan_id":"cebpf4jnsgd1na2vs0mg"},{"bike_id":"dff05a84-7fb1-402d-95a6-87e27b4092d0","system_id":"levelo_inurba_marseille","lat":43.295363,"lon":5.385423,"is_reserved":false,"is_disabled":false,"rental_uris":{"android":"levelo://app?vid=dff05a84-7fb1-402d-95a6-87e27b4092d0","ios":"levelo://app?vid=dff05a84-7fb1-402d-95a6-87e27b4092d0"},"vehicle_type_id":"4","last_reported":1724274494,"current_range_meters":18400,"station_id":"ce4bgih2rcd13ifvqba0","pricing_plan_id":"cebpf4jnsgd1na2vs0mg"},{"bike_id":"101e7355-739f-450a-95b4-bec96e9e92f6","system_id":"levelo_inurba_marseille","lat":43.29535,"lon":5.38541,"is_reserved":false,"is_disabled":false,"rental_uris":{"android":"levelo://app?vid=101e7355-739f-450a-95b4-bec96e9e92f6","ios":"levelo://app?vid=101e7355-739f-450a-95b4-bec96e9e92f6"},"vehicle_type_id":"4","last_reported":1724274494,"current_range_meters":23200,"station_id":"ce4bgih2rcd13ifvqba0","pricing_plan_id":"cebpf4jnsgd1na2vs0mg"},{"bike_id":"1f82055c-987f-4546-9a16-8e6fa9ea2cc5","system_id":"levelo_inurba_marseille","lat":43.29532,"lon":5.385359,"is_reserved":false,"is_disabled":false,"rental_uris":{"android":"levelo://app?vid=1f82055c-987f-4546-9a16-8e6fa9ea2cc5","ios":"levelo://app?vid=1f82055c-987f-4546-9a16-8e6fa9ea2cc5"},"vehicle_type_id":"4","last_reported":1724274494,"current_range_meters":8800,"station_id":"ce4bgih2rcd13ifvqba0","pricing_plan_id":"cebpf4jnsgd1na2vs0mg"},{"bike_id":"b57ebe84-3f56-493f-9363-0010b1a46eba","system_id":"levelo_inurba_marseille","lat":43.29533,"lon":5.38538,"is_reserved":false,"is_disabled":false,"rental_uris":{"android":"levelo://app?vid=b57ebe84-3f56-493f-9363-0010b1a46eba","ios":"levelo://app?vid=b57ebe84-3f56-493f-9363-0010b1a46eba"},"vehicle_type_id":"4","last_reported":1724274494,"current_range_meters":31200,"station_id":"ce4bgih2rcd13ifvqba0","pricing_plan_id":"cebpf4jnsgd1na2vs0mg"},{"bike_id":"fa3cbee1-883b-4faf-bbeb-012b474d00bb","system_id":"levelo_inurba_marseille","lat":43.29532,"lon":5.3854,"is_reserved":false,"is_disabled":false,"rental_uris":{"android":"levelo://app?vid=fa3cbee1-883b-4faf-bbeb-012b474d00bb","ios":"levelo://app?vid=fa3cbee1-883b-4faf-bbeb-012b474d00bb"},"vehicle_type_id":"4","last_reported":1724274494,"current_range_meters":16400,"station_id":"ce4bgih2rcd13ifvqba0","pricing_plan_id":"cebpf4jnsgd1na2vs0mg"},{"bike_id":"fc2e1297-c181-4eaf-95c5-529c517703a1","system_id":"levelo_inurba_marseille","lat":43.29529,"lon":5.38536,"is_reserved":false,"is_disabled":false,"rental_uris":{"android":"levelo://app?vid=fc2e1297-c181-4eaf-95c5-529c517703a1","ios":"levelo://app?vid=fc2e1297-c181-4eaf-95c5-529c517703a1"},"vehicle_type_id":"4","last_reported":1724274494,"current_range_meters":31200,"station_id":"ce4bgih2rcd13ifvqba0","pricing_plan_id":"cebpf4jnsgd1na2vs0mg"},{"bike_id":"ae704936-c8a0-444b-834c-76a0dac80250","system_id":"levelo_inurba_marseille","lat":43.29529,"lon":5.38537,"is_reserved":false,"is_disabled":false,"rental_uris":{"android":"levelo://app?vid=ae704936-c8a0-444b-834c-76a0dac80250","ios":"levelo://app?vid=ae704936-c8a0-444b-834c-76a0dac80250"},"vehicle_type_id":"4","last_reported":1724274494,"current_range_meters":22800,"station_id":"ce4bgih2rcd13ifvqba0","pricing_plan_id":"cebpf4jnsgd1na2vs0mg"},{"bike_id":"af2cb8a0-06d9-4c98-ba9d-3d97de1dc892","system_id":"levelo_inurba_marseille","lat":43.29529,"lon":5.385581,"is_reserved":false,"is_disabled":false,"rental_uris":{"android":"levelo://app?vid=af2cb8a0-06d9-4c98-ba9d-3d97de1dc892","ios":"levelo://app?vid=af2cb8a0-06d9-4c98-ba9d-3d97de1dc892"},"vehicle_type_id":"4","last_reported":1724274494,"current_range_meters":13200,"station_id":"ce4bgih2rcd13ifvqba0","pricing_plan_id":"cebpf4jnsgd1na2vs0mg"},{"bike_id":"417d0e00-9930-4706-b497-db9ace987aba","system_id":"levelo_inurba_marseille","lat":43.295328,"lon":5.385442,"is_reserved":false,"is_disabled":false,"rental_uris":{"android":"levelo://app?vid=417d0e00-9930-4706-b497-db9ace987aba","ios":"levelo://app?vid=417d0e00-9930-4706-b497-db9ace987aba"},"vehicle_type_id":"4","last_reported":1724274494,"current_range_meters":28400,"station_id":"ce4bgih2rcd13ifvqba0","pricing_plan_id":"cebpf4jnsgd1na2vs0mg"},{"bike_id":"036ca48d-8449-43f1-be90-6b77dd28419a","system_id":"levelo_inurba_marseille","lat":43.29531,"lon":5.38544,"is_reserved":false,"is_disabled":false,"rental_uris":{"android":"levelo://app?vid=036ca48d-8449-43f1-be90-6b77dd28419a","ios":"levelo://app?vid=036ca48d-8449-43f1-be90-6b77dd28419a"},"vehicle_type_id":"4","last_reported":1724274494,"current_range_meters":26000,"station_id":"ce4bgih2rcd13ifvqba0","pricing_plan_id":"cebpf4jnsgd1na2vs0mg"},{"bike_id":"4fcb8de8-1d95-4b64-ae47-db849480780c","system_id":"levelo_inurba_marseille","lat":43.29531,"lon":5.38547,"is_reserved":false,"is_disabled":false,"rental_uris":{"android":"levelo://app?vid=4fcb8de8-1d95-4b64-ae47-db849480780c","ios":"levelo://app?vid=4fcb8de8-1d95-4b64-ae47-db849480780c"},"vehicle_type_id":"4","last_reported":1724274494,"current_range_meters":17600,"station_id":"ce4bgih2rcd13ifvqba0","pricing_plan_id":"cebpf4jnsgd1na2vs0mg"},{"bike_id":"999ee4ca-80e8-467f-ae90-9e4eeb7c65bc","system_id":"levelo_inurba_marseille","lat":43.29531,"lon":5.3855,"is_reserved":false,"is_disabled":false,"rental_uris":{"android":"levelo://app?vid=999ee4ca-80e8-467f-ae90-9e4eeb7c65bc","ios":"levelo://app?vid=999ee4ca-80e8-467f-ae90-9e4eeb7c65bc"},"vehicle_type_id":"4","last_reported":1724274494,"current_range_meters":27600,"station_id":"ce4bgih2rcd13ifvqba0","pricing_plan_id":"cebpf4jnsgd1na2vs0mg"},{"bike_id":"f45ef344-c7b9-4ec1-a342-e73eacb395ba","system_id":"levelo_inurba_marseille","lat":43.29529,"lon":5.385581,"is_reserved":false,"is_disabled":false,"rental_uris":{"android":"levelo://app?vid=f45ef344-c7b9-4ec1-a342-e73eacb395ba","ios":"levelo://app?vid=f45ef344-c7b9-4ec1-a342-e73eacb395ba"},"vehicle_type_id":"4","last_reported":1724274494,"current_range_meters":9600,"station_id":"ce4bgih2rcd13ifvqba0","pricing_plan_id":"cebpf4jnsgd1na2vs0mg"},{"bike_id":"79a923c1-c54c-429f-a5e7-a50fee7a718c","system_id":"levelo_inurba_marseille","lat":43.29529,"lon":5.38549,"is_reserved":false,"is_disabled":false,"rental_uris":{"android":"levelo://app?vid=79a923c1-c54c-429f-a5e7-a50fee7a718c","ios":"levelo://app?vid=79a923c1-c54c-429f-a5e7-a50fee7a718c"},"vehicle_type_id":"4","last_reported":1724274494,"current_range_meters":0,"station_id":"ce4bgih2rcd13ifvqba0","pricing_plan_id":"cebpf4jnsgd1na2vs0mg"},{"bike_id":"be1007c3-1de7-4503-8c55-e501712316a9","system_id":"levelo_inurba_marseille","lat":43.29529,"lon":5.385581,"is_reserved":false,"is_disabled":false,"rental_uris":{"android":"levelo://app?vid=be1007c3-1de7-4503-8c55-e501712316a9","ios":"levelo://app?vid=be1007c3-1de7-4503-8c55-e501712316a9"},"vehicle_type_id":"4","last_reported":1724274494,"current_range_meters":25200,"station_id":"ce4bgih2rcd13ifvqba0","pricing_plan_id":"cebpf4jnsgd1na2vs0mg"},{"bike_id":"416678d5-9728-4ead-be5f-77e1761fef57","system_id":"levelo_inurba_marseille","lat":43.290779,"lon":5.371482,"is_reserved":false,"is_disabled":false,"rental_uris":{"android":"levelo://app?vid=416678d5-9728-4ead-be5f-77e1761fef57","ios":"levelo://app?vid=416678d5-9728-4ead-be5f-77e1761fef57"},"vehicle_type_id":"4","last_reported":1724274494,"current_range_meters":0,"station_id":"ce4bh5p2rcd13ifvqe4g","pricing_plan_id":"cebpf4jnsgd1na2vs0mg"},{"bike_id":"871b7153-13e8-4a50-b3ad-7dab4966022b","system_id":"levelo_inurba_marseille","lat":43.290779,"lon":5.371482,"is_reserved":false,"is_disabled":false,"rental_uris":{"android":"levelo://app?vid=871b7153-13e8-4a50-b3ad-7dab4966022b","ios":"levelo://app?vid=871b7153-13e8-4a50-b3ad-7dab4966022b"},"vehicle_type_id":"4","last_reported":1724274494,"current_range_meters":31200,"station_id":"ce4bh5p2rcd13ifvqe4g","pricing_plan_id":"cebpf4jnsgd1na2vs0mg"},{"bike_id":"d6107ad8-184c-468b-afe7-cf3a08cf5161","system_id":"levelo_inurba_marseille","lat":43.290779,"lon":5.371482,"is_reserved":false,"is_disabled":false,"rental_uris":{"android":"levelo://app?vid=d6107ad8-184c-468b-afe7-cf3a08cf5161","ios":"levelo://app?vid=d6107ad8-184c-468b-afe7-cf3a08cf5161"},"vehicle_type_id":"4","last_reported":1724274494,"current_range_meters":0,"station_id":"ce4bh5p2rcd13ifvqe4g","pricing_plan_id":"cebpf4jnsgd1na2vs0mg"},{"bike_id":"8ee9a952-e108-4c08-b986-a3f2cfd6348c","system_id":"levelo_inurba_marseille","lat":43.290779,"lon":5.371482,"is_reserved":false,"is_disabled":false,"rental_uris":{"android":"levelo://app?vid=8ee9a952-e108-4c08-b986-a3f2cfd6348c","ios":"levelo://app?vid=8ee9a952-e108-4c08-b986-a3f2cfd6348c"},"vehicle_type_id":"4","last_reported":1724274494,"current_range_meters":30800,"station_id":"ce4bh5p2rcd13ifvqe4g","pricing_plan_id":"cebpf4jnsgd1na2vs0mg"},{"bike_id":"0228100c-4603-4bf5-bae1-abf043924a6d","system_id":"levelo_inurba_marseille","lat":43.297807,"lon":5.393533,"is_reserved":false,"is_disabled":false,"rental_uris":{"android":"levelo://app?vid=0228100c-4603-4bf5-bae1-abf043924a6d","ios":"levelo://app?vid=0228100c-4603-4bf5-bae1-abf043924a6d"},"vehicle_type_id":"4","last_reported":1724274494,"current_range_meters":19200,"station_id":"chh1huq6cuj3fo74tm60","pricing_plan_id":"cebpf4jnsgd1na2vs0mg"},{"bike_id":"495b4fae-1742-4ef4-a385-3aba93f80351","system_id":"levelo_inurba_marseille","lat":43.302075,"lon":5.394595,"is_reserved":false,"is_disabled":false,"rental_uris":{"android":"levelo://app?vid=495b4fae-1742-4ef4-a385-3aba93f80351","ios":"levelo://app?vid=495b4fae-1742-4ef4-a385-3aba93f80351"},"vehicle_type_id":"4","last_reported":1724274494,"current_range_meters":400,"station_id":"ce4bh0p2rcd13ifvqd70","pricing_plan_id":"cebpf4jnsgd1na2vs0mg"},{"bike_id":"3059c6b4-a920-4d81-a4f1-48ee5e0620cd","system_id":"levelo_inurba_marseille","lat":43.290624,"lon":5.359245,"is_reserved":false,"is_disabled":false,"rental_uris":{"android":"levelo://app?vid=3059c6b4-a920-4d81-a4f1-48ee5e0620cd","ios":"levelo://app?vid=3059c6b4-a920-4d81-a4f1-48ee5e0620cd"},"vehicle_type_id":"4","last_reported":1724274494,"current_range_meters":4000,"station_id":"ce4bha92rcd13ifvqeg0","pricing_plan_id":"cebpf4jnsgd1na2vs0mg"},{"bike_id":"e5e28619-2580-419d-a5ed-962f8cc7deba","system_id":"levelo_inurba_marseille","lat":43.29452,"lon":5.3861,"is_reserved":false,"is_disabled":false,"rental_uris":{"android":"levelo://app?vid=e5e28619-2580-419d-a5ed-962f8cc7deba","ios":"levelo://app?vid=e5e28619-2580-419d-a5ed-962f8cc7deba"},"vehicle_type_id":"4","last_reported":1724274494,"current_range_meters":11200,"station_id":"ce4bh2h2rcd13ifvqdh0","pricing_plan_id":"cebpf4jnsgd1na2vs0mg"},{"bike_id":"115dd974-8d17-4350-bceb-57f218ba57d4","system_id":"levelo_inurba_marseille","lat":43.290631,"lon":5.359244,"is_reserved":false,"is_disabled":false,"rental_uris":{"android":"levelo://app?vid=115dd974-8d17-4350-bceb-57f218ba57d4","ios":"levelo://app?vid=115dd974-8d17-4350-bceb-57f218ba57d4"},"vehicle_type_id":"4","last_reported":1724274494,"current_range_meters":4000,"station_id":"ce4bha92rcd13ifvqeg0","pricing_plan_id":"cebpf4jnsgd1na2vs0mg"},