{"last_updated":1726042327,"ttl":30,"version":"2.2","data":{"bikes":[{"bike_id":"61ec69dc-0887-45a0-9a18-564e7d706b0b","system_id":"levelo_inurba_marseille","lat":43.24079,"lon":5.37738,"is_reserved":false,"is_disabled":false,"rental_uris":{"android":"levelo://app?vid=61ec69dc-0887-45a0-9a18-564e7d706b0b","ios":"levelo://app?vid=61ec69dc-0887-45a0-9a18-564e7d706b0b"},"vehicle_type_id":"4","last_reported":1726042327,"current_range_meters":28800,"station_id":"ce4bhnp2rcd13ifvqgvg","pricing_plan_id":"cebpf4jnsgd1na2vs0mg"},{"bike_id":"f56f0c93-bf77-4e54-9e0a-65b6b35b836b","system_id":"levelo_inurba_marseille","lat":43.25936,"lon":5.40892,"is_reserved":false,"is_disabled":false,"rental_uris":{"android":"levelo://app?vid=f56f0c93-bf77-4e54-9e0a-65b6b35b836b","ios":"levelo://app?vid=f56f0c93-bf77-4e54-9e0a-65b6b35b836b"},"vehicle_type_id":"4","last_reported":1726042327,"current_range_meters":12000,"station_id":"ce4bhm92rcd13ifvqglg","pricing_plan_id":"cebpf4jnsgd1na2vs0mg"},{"bike_id":"ff8944b4-9115-4746-b7c9-204582aebf6f","system_id":"levelo_inurba_marseille","lat":43.269359,"lon":5.402559,"is_reserved":false,"is_disabled":false,"rental_uris":{"android":"levelo://app?vid=ff8944b4-9115-4746-b7c9-204582aebf6f","ios":"levelo://app?vid=ff8944b4-9115-4746-b7c9-204582aebf6f"},"vehicle_type_id":"4","last_reported":1726042327,"current_range_meters":6000,"station_id":"cjm6bp8fraef2m0cb0m0","pricing_plan_id":"cebpf4jnsgd1na2vs0mg"},{"bike_id":"348f3afa-b544-412a-92a9-5547b08a990c","system_id":"levelo_inurba_marseille","lat":43.31342,"lon":5.36709,"is_reserved":false,"is_disabled":false,"rental_uris":{"android":"levelo://app?vid=348f3afa-b544-412a-92a9-5547b08a990c","ios":"levelo://app?vid=348f3afa-b544-412a-92a9-5547b08a990c"},"vehicle_type_id":"4","last_reported":1726042327,"current_range_meters":30400,"station_id":"ce4bgr92rcd13ifvqc6g","pricing_plan_id":"cebpf4jnsgd1na2vs0mg"},{"bike_id":"062ab5b2-db03-4986-8a83-402347526bbf","system_id":"levelo_inurba_marseille","lat":43.2867,"lon":5.38675,"is_reserved":false,"is_disabled":false,"rental_uris":{"android":"levelo://app?vid=062ab5b2-db03-4986-8a83-402347526bbf","ios":"levelo://app?vid=062ab5b2-db03-4986-8a83-402347526bbf"},"vehicle_type_id":"4","last_reported":1726042327,"current_range_meters":17600,"station_id":"ce4bh492rcd13ifvqdug","pricing_plan_id":"cebpf4jnsgd1na2vs0mg"},{"bike_id":"d1fe7f58-ca92-486e-9f07-67f3f914bb7e","system_id":"levelo_inurba_marseille","lat":43.27675,"lon":5.38873,"is_reserved":false,"is_disabled":false,"rental_uris":{"android":"levelo://app?vid=d1fe7f58-ca92-486e-9f07-67f3f914bb7e","ios":"levelo://app?vid=d1fe7f58-ca92-486e-9f07-67f3f914bb7e"},"vehicle_type_id":"4","last_reported":1726042327,"current_range_meters":7200,"station_id":"ce4bhi12rcd13ifvqfo0","pricing_plan_id":"cebpf4jnsgd1na2vs0mg"},{"bike_id":"b8ada792-75a7-4bd2-a45b-0503cca8388f","system_id":"levelo_inurba_marseille","lat":43.27478,"lon":5.42471,"is_reserved":false,"is_disabled":false,"rental_uris":{"android":"levelo://app?vid=b8ada792-75a7-4bd2-a45b-0503cca8388f","ios":"levelo://app?vid=b8ada792-75a7-4bd2-a45b-0503cca8388f"},"vehicle_type_id":"4","last_reported":1726042327,"current_range_meters":32400,"station_id":"ce4bhn92rcd13ifvqgrg","pricing_plan_id":"cebpf4jnsgd1na2vs0mg"},{"bike_id":"74df2840-b8f2-454e-b98d-f9de8a15646c","system_id":"levelo_inurba_marseille","lat":43.24073,"lon":5.3776,"is_reserved":false,"is_disabled":false,"rental_uris":{"android":"levelo://app?vid=74df2840-b8f2-454e-b98d-f9de8a15646c","ios":"levelo://app?vid=74df2840-b8f2-454e-b98d-f9de8a15646c"},"vehicle_type_id":"4","last_reported":1726042327,"current_range_meters":32800,"station_id":"ce4bhnp2rcd13ifvqgvg","pricing_plan_id":"cebpf4jnsgd1na2vs0mg"},{"bike_id":"315c4883-a082-4d01-865e-7851dd837c5d","system_id":"levelo_inurba_marseille","lat":43.29427,"lon":5.37405,"is_reserved":false,"is_disabled":false,"rental_uris":{"android":"levelo://app?vid=315c4883-a082-4d01-865e-7851dd837c5d","ios":"levelo://app?vid=315c4883-a082-4d01-865e-7851dd837c5d"},"vehicle_type_id":"4","last_reported":1726042327,"current_range_meters":19600,"station_id":"","pricing_plan_id":"cebpf4jnsgd1na2vs0mg"},{"bike_id":"343f8a7b-c84d-46f3-98b4-8253eb0833f1","system_id":"levelo_inurba_marseille","lat":43.29548,"lon":5.42278,"is_reserved":false,"is_disabled":false,"rental_uris":{"android":"levelo://app?vid=343f8a7b-c84d-46f3-98b4-8253eb0833f1","ios":"levelo://app?vid=343f8a7b-c84d-46f3-98b4-8253eb0833f1"},"vehicle_type_id":"4","last_reported":1726042327,"current_range_meters":8000,"station_id":"ce4bhph2rcd13ifvqhdg","pricing_plan_id":"cebpf4jnsgd1na2vs0mg"},{"bike_id":"de4808b8-d2d5-4967-a7a2-7114e2e0cd28","system_id":"levelo_inurba_marseille","lat":43.27071,"lon":5.42274,"is_reserved":false,"is_disabled":false,"rental_uris":{"android":"levelo://app?vid=de4808b8-d2d5-4967-a7a2-7114e2e0cd28","ios":"levelo://app?vid=de4808b8-d2d5-4967-a7a2-7114e2e0cd28"},"vehicle_type_id":"4","last_reported":1726042327,"current_range_meters":40000,"station_id":"ce4bhk92rcd13ifvqgb0","pricing_plan_id":"cebpf4jnsgd1na2vs0mg"},{"bike_id":"4a3a4c58-f423-405d-811e-a7ff05e7cbb2","system_id":"levelo_inurba_marseille","lat":43.30218,"lon":5.39466,"is_reserved":false,"is_disabled":false,"rental_uris":{"android":"levelo://app?vid=4a3a4c58-f423-405d-811e-a7ff05e7cbb2","ios":"levelo://app?vid=4a3a4c58-f423-405d-811e-a7ff05e7cbb2"},"vehicle_type_id":"4","last_reported":1726042327,"current_range_meters":38800,"station_id":"ce4bh0p2rcd13ifvqd70","pricing_plan_id":"cebpf4jnsgd1na2vs0mg"},{"bike_id":"9fa9a5ee-acf4-41be-86e4-84bfae6f629a","system_id":"levelo_inurba_marseille","lat":43.33767,"lon":5.37468,"is_reserved":false,"is_disabled":false,"rental_uris":{"android":"levelo://app?vid=9fa9a5ee-acf4-41be-86e4-84bfae6f629a","ios":"levelo://app?vid=9fa9a5ee-acf4-41be-86e4-84bfae6f629a"},"vehicle_type_id":"4","last_reported":1726042327,"current_range_meters":37600,"station_id":"","pricing_plan_id":"cebpf4jnsgd1na2vs0mg"},{"bike_id":"f9e09b67-3554-4f00-8f5e-43815f704dda","system_id":"levelo_inurba_marseille","lat":43.31354,"lon":5.36715,"is_reserved":false,"is_disabled":false,"rental_uris":{"android":"levelo://app?vid=f9e09b67-3554-4f00-8f5e-43815f704dda","ios":"levelo://app?vid=f9e09b67-3554-4f00-8f5e-43815f704dda"},"vehicle_type_id":"4","last_reported":1726042327,"current_range_meters":28800,"station_id":"ce4bgr92rcd13ifvqc6g","pricing_plan_id":"cebpf4jnsgd1na2vs0mg"},{"bike_id":"99d633d7-3557-42a6-a763-a214f5851f3a","system_id":"levelo_inurba_marseille","lat":43.32364,"lon":5.38891,"is_reserved":false,"is_disabled":false,"rental_uris":{"android":"levelo://app?vid=99d633d7-3557-42a6-a763-a214f5851f3a","ios":"levelo://app?vid=99d633d7-3557-42a6-a763-a214f5851f3a"},"vehicle_type_id":"4","last_reported":1726042327,"current_range_meters":38800,"station_id":"ce4bhqp2rcd13ifvqhog","pricing_plan_id":"cebpf4jnsgd1na2vs0mg"},{"bike_id":"d02d6740-b6de-4487-a048-a0fcd35b8dee","system_id":"levelo_inurba_marseille","lat":43.23153,"lon":5.43711,"is_reserved":false,"is_disabled":false,"rental_uris":{"android":"levelo://app?vid=d02d6740-b6de-4487-a048-a0fcd35b8dee","ios":"levelo://app?vid=d02d6740-b6de-4487-a048-a0fcd35b8dee"},"vehicle_type_id":"4","last_reported":1726042327,"current_range_meters":32800,"station_id":"ce4bhmp2rcd13ifvqgog","pricing_plan_id":"cebpf4jnsgd1na2vs0mg"},{"bike_id":"b0c418e3-7076-4b48-86c9-8b078567e702","system_id":"levelo_inurba_marseille","lat":43.24084,"lon":5.37741,"is_reserved":false,"is_disabled":false,"rental_uris":{"android":"levelo://app?vid=b0c418e3-7076-4b48-86c9-8b078567e702","ios":"levelo://app?vid=b0c418e3-7076-4b48-86c9-8b078567e702"},"vehicle_type_id":"4","last_reported":1726042327,"current_range_meters":26000,"station_id":"ce4bhnp2rcd13ifvqgvg","pricing_plan_id":"cebpf4jnsgd1na2vs0mg"},{"bike_id":"d1321249-2a3a-4948-8d9a-c4334a161631","system_id":"levelo_inurba_marseille","lat":43.26945,"lon":5.38643,"is_reserved":false,"is_disabled":false,"rental_uris":{"android":"levelo://app?vid=d1321249-2a3a-4948-8d9a-c4334a161631","ios":"levelo://app?vid=d1321249-2a3a-4948-8d9a-c4334a161631"},"vehicle_type_id":"4","last_reported":1726042327,"current_range_meters":21600,"station_id":"ce4bhh92rcd13ifvqfh0","pricing_plan_id":"cebpf4jnsgd1na2vs0mg"},{"bike_id":"e705d9fb-2171-4281-8e32-77a497e36ec3","system_id":"levelo_inurba_marseille","lat":43.26943,"lon":5.40244,"is_reserved":false,"is_disabled":false,"rental_uris":{"android":"levelo://app?vid=e705d9fb-2171-4281-8e32-77a497e36ec3","ios":"levelo://app?vid=e705d9fb-2171-4281-8e32-77a497e36ec3"},"vehicle_type_id":"4","last_reported":1726042327,"current_range_meters":22400,"station_id":"cjm6bp8fraef2m0cb0m0","pricing_plan_id":"cebpf4jnsgd1na2vs0mg"},{"bike_id":"41fc4b78-f7f9-4fec-be8f-e46760e47264","system_id":"levelo_inurba_marseille","lat":43.26947,"lon":5.38628,"is_reserved":false,"is_disabled":false,"rental_uris":{"android":"levelo://app?vid=41fc4b78-f7f9-4fec-be8f-e46760e47264","ios":"levelo://app?vid=41fc4b78-f7f9-4fec-be8f-e46760e47264"},"vehicle_type_id":"4","last_reported":1726042327,"current_range_meters":13600,"station_id":"ce4bhh92rcd13ifvqfh0","pricing_plan_id":"cebpf4jnsgd1na2vs0mg"},{"bike_id":"3aaba357-2b84-4708-bef7-45971008b9b8","system_id":"levelo_inurba_marseille","lat":43.31339,"lon":5.36731,"is_reserved":false,"is_disabled":false,"rental_uris":{"android":"levelo://app?vid=3aaba357-2b84-4708-bef7-45971008b9b8","ios":"levelo://app?vid=3aaba357-2b84-4708-bef7-45971008b9b8"},"vehicle_type_id":"4","last_reported":1726042327,"current_range_meters":32000,"station_id":"ce4bgr92rcd13ifvqc6g","pricing_plan_id":"cebpf4jnsgd1na2vs0mg"},{"bike_id":"713f036d-c204-48bb-a84e-ce520244ef7d","system_id":"levelo_inurba_marseille","lat":43.30152,"lon":5.37425,"is_reserved":false,"is_disabled":false,"rental_uris":{"android":"levelo://app?vid=713f036d-c204-48bb-a84e-ce520244ef7d","ios":"levelo://app?vid=713f036d-c204-48bb-a84e-ce520244ef7d"},"vehicle_type_id":"4","last_reported":1726042327,"current_range_meters":8800,"station_id":"ce4bgs92rcd13ifvqcc0","pricing_plan_id":"cebpf4jnsgd1na2vs0mg"},{"bike_id":"0a557534-3281-4ec8-b144-dae5e3dbc46f","system_id":"levelo_inurba_marseille","lat":43.283553,"lon":5.380993,"is_reserved":false,"is_disabled":false,"rental_uris":{"android":"levelo://app?vid=0a557534-3281-4ec8-b144-dae5e3dbc46f","ios":"levelo://app?vid=0a557534-3281-4ec8-b144-dae5e3dbc46f"},"vehicle_type_id":"4","last_reported":1726042327,"current_range_meters":34800,"station_id":"ce4bh412rcd13ifvqdr0","pricing_plan_id":"cebpf4jnsgd1na2vs0mg"},{"bike_id":"c1bdd773-4859-4fff-b4a0-002e10efad33","system_id":"levelo_inurba_marseille","lat":43.31705,"lon":5.40481,"is_reserved":false,"is_disabled":false,"rental_uris":{"android":"levelo://app?vid=c1bdd773-4859-4fff-b4a0-002e10efad33","ios":"levelo://app?vid=c1bdd773-4859-4fff-b4a0-002e10efad33"},"vehicle_type_id":"4","last_reported":1726042327,"current_range_meters":14400,"station_id":"ce4bh012rcd13ifvqd00","pricing_plan_id":"cebpf4jnsgd1na2vs0mg"},{"bike_id":"e06026df-eb9b-438c-b639-ce57cdbcdc2a","system_id":"levelo_inurba_marseille","lat":43.31339,"lon":5.36711,"is_reserved":false,"is_disabled":false,"rental_uris":{"android":"levelo://app?vid=e06026df-eb9b-438c-b639-ce57cdbcdc2a","ios":"levelo://app?vid=e06026df-eb9b-438c-b639-ce57cdbcdc2a"},"vehicle_type_id":"4","last_reported":1726042327,"current_range_meters":30000,"station_id":"ce4bgr92rcd13ifvqc6g","pricing_plan_id":"cebpf4jnsgd1na2vs0mg"},{"bike_id":"2413a8c5-3673-44da-a30b-07a1465e7a31","system_id":"levelo_inurba_marseille","lat":43.24174,"lon":5.39711,"is_reserved":false,"is_disabled":false,"rental_uris":{"android":"levelo://app?vid=2413a8c5-3673-44da-a30b-07a1465e7a31","ios":"levelo://app?vid=2413a8c5-3673-44da-a30b-07a1465e7a31"},"vehicle_type_id":"4","last_reported":1726042327,"current_range_meters":4800,"station_id":"ce4bhn12rcd13ifvqgpg","pricing_plan_id":"cebpf4jnsgd1na2vs0mg"},{"bike_id":"36b476ff-1eb7-400a-b3c7-043570dc2d0d","system_id":"levelo_inurba_marseille","lat":43.2606,"lon":5.39392,"is_reserved":false,"is_disabled":false,"rental_uris":{"android":"levelo://app?vid=36b476ff-1eb7-400a-b3c7-043570dc2d0d","ios":"levelo://app?vid=36b476ff-1eb7-400a-b3c7-043570dc2d0d"},"vehicle_type_id":"4","last_reported":1726042327,"current_range_meters":40000,"station_id":"ce4bhh92rcd13ifvqfj0","pricing_plan_id":"cebpf4jnsgd1na2vs0mg"},{"bike_id":"98f8975b-1652-45a9-a84f-e0f8cf84af34","system_id":"levelo_inurba_marseille","lat":43.23153,"lon":5.4372,"is_reserved":false,"is_disabled":false,"rental_uris":{"android":"levelo://app?vid=98f8975b-1652-45a9-a84f-e0f8cf84af34","ios":"levelo://app?vid=98f8975b-1652-45a9-a84f-e0f8cf84af34"},"vehicle_type_id":"4","last_reported":1726042327,"current_range_meters":16800,"station_id":"ce4bhmp2rcd13ifvqgog","pricing_plan_id":"cebpf4jnsgd1na2vs0mg"},{"bike_id":"79c048a7-5de8-4f6b-a4ee-caa7e8248925","system_id":"levelo_inurba_marseille","lat":43.24066,"lon":5.37754,"is_reserved":false,"is_disabled":false,"rental_uris":{"android":"levelo://app?vid=79c048a7-5de8-4f6b-a4ee-caa7e8248925","ios":"levelo://app?vid=79c048a7-5de8-4f6b-a4ee-caa7e8248925"},"vehicle_type_id":"4","last_reported":1726042327,"current_range_meters":22000,"station_id":"ce4bhnp2rcd13ifvqgvg","pricing_plan_id":"cebpf4jnsgd1na2vs0mg"},{"bike_id":"c418a0a3-69bc-4a59-97fd-7bc4eeb30394","system_id":"levelo_inurba_marseille","lat":43.30529,"lon":5.36542,"is_reserved":false,"is_disabled":false,"rental_uris":{"android":"levelo://app?vid=c418a0a3-69bc-4a59-97fd-7bc4eeb30394","ios":"levelo://app?vid=c418a0a3-69bc-4a59-97fd-7bc4eeb30394"},"vehicle_type_id":"4","last_reported":1726042327,"current_range_meters":39200,"station_id":"ce4bgs12rcd13ifvqcag","pricing_plan_id":"cebpf4jnsgd1na2vs0mg"},{"bike_id":"a4b6f6c8-c1fd-4611-b4cd-50165fc92afe","system_id":"levelo_inurba_marseille","lat":43.27954,"lon":5.41045,"is_reserved":false,"is_disabled":false,"rental_uris":{"android":"levelo://app?vid=a4b6f6c8-c1fd-4611-b4cd-50165fc92afe","ios":"levelo://app?vid=a4b6f6c8-c1fd-4611-b4cd-50165fc92afe"},"vehicle_type_id":"4","last_reported":1726042327,"current_range_meters":32800,"station_id":"ce4bhnp2rcd13ifvqh0g","pricing_plan_id":"cebpf4jnsgd1na2vs0mg"},{"bike_id":"02ebc54a-6a73-4e57-8a4f-9aa06a35c1c3","system_id":"levelo_inurba_marseille","lat":43.293033,"lon":5.371642,"is_reserved":false,"is_disabled":false,"rental_uris":{"android":"levelo://app?vid=02ebc54a-6a73-4e57-8a4f-9aa06a35c1c3","ios":"levelo://app?vid=02ebc54a-6a73-4e57-8a4f-9aa06a35c1c3"},"vehicle_type_id":"4","last_reported":1726042327,"current_range_meters":33600,"station_id":"ce4bgh92rcd13ifvqb40","pricing_plan_id":"cebpf4jnsgd1na2vs0mg"},{"bike_id":"17192454-d19a-45de-ab35-dd086d3e77de","system_id":"levelo_inurba_marseille","lat":43.2439,"lon":5.37054,"is_reserved":false,"is_disabled":false,"rental_uris":{"android":"levelo://app?vid=17192454-d19a-45de-ab35-dd086d3e77de","ios":"levelo://app?vid=17192454-d19a-45de-ab35-dd086d3e77de"},"vehicle_type_id":"4","last_reported":1726042327,"current_range_meters":26800,"station_id":"ce4bhhh2rcd13ifvqfk0","pricing_plan_id":"cebpf4jnsgd1na2vs0mg"},{"bike_id":"b75a39c8-a36f-45e0-879f-5989f5af4897","system_id":"levelo_inurba_marseille","lat":43.30472,"lon":5.37906,"is_reserved":false,"is_disabled":false,"rental_uris":{"android":"levelo://app?vid=b75a39c8-a36f-45e0-879f-5989f5af4897","ios":"levelo://app?vid=b75a39c8-a36f-45e0-879f-5989f5af4897"},"vehicle_type_id":"4","last_reported":1726042327,"current_range_meters":26000,"station_id":"ce4bgup2rcd13ifvqcn0","pricing_plan_id":"cebpf4jnsgd1na2vs0mg"},{"bike_id":"4cee46aa-a00a-4346-bda4-e676a637d13a","system_id":"levelo_inurba_marseille","lat":43.31081,"lon":5.42426,"is_reserved":false,"is_disabled":false,"rental_uris":{"android":"levelo://app?vid=4cee46aa-a00a-4346-bda4-e676a637d13a","ios":"levelo://app?vid=4cee46aa-a00a-4346-bda4-e676a637d13a"},"vehicle_type_id":"4","last_reported":1726042327,"current_range_meters":12800,"station_id":"ce4bhp92rcd13ifvqhag","pricing_plan_id":"cebpf4jnsgd1na2vs0mg"},{"bike_id":"00115f0a-ac26-4e9a-986d-383b5654c372","system_id":"levelo_inurba_marseille","lat":43.26687,"lon":5.38272,"is_reserved":false,"is_disabled":false,"rental_uris":{"android":"levelo://app?vid=00115f0a-ac26-4e9a-986d-383b5654c372","ios":"levelo://app?vid=00115f0a-ac26-4e9a-986d-383b5654c372"},"vehicle_type_id":"4","last_reported":1726042327,"current_range_meters":25200,"station_id":"ce4bhg92rcd13ifvqf90","pricing_plan_id":"cebpf4jnsgd1na2vs0mg"},{"bike_id":"9e2936e6-d85e-4992-8db2-515e06384a3f","system_id":"levelo_inurba_marseille","lat":43.25813,"lon":5.39431,"is_reserved":false,"is_disabled":false,"rental_uris":{"android":"levelo://app?vid=9e2936e6-d85e-4992-8db2-515e06384a3f","ios":"levelo://app?vid=9e2936e6-d85e-4992-8db2-515e06384a3f"},"vehicle_type_id":"4","last_reported":1726042327,"current_range_meters":17600,"station_id":"ce4bhip2rcd13ifvqft0","pricing_plan_id":"cebpf4jnsgd1na2vs0mg"},{"bike_id":"8448f02d-fc0d-4b12-b64e-f1c9c4b5973f","system_id":"levelo_inurba_marseille","lat":43.33774,"lon":5.37467,"is_reserved":false,"is_disabled":false,"rental_uris":{"android":"levelo://app?vid=8448f02d-fc0d-4b12-b64e-f1c9c4b5973f","ios":"levelo://app?vid=8448f02d-fc0d-4b12-b64e-f1c9c4b5973f"},"vehicle_type_id":"4","last_reported":1726042327,"current_range_meters":28400,"station_id":"","pricing_plan_id":"cebpf4jnsgd1na2vs0mg"},{"bike_id":"7727b811-eb5e-4439-b991-7555b4fa4a0e","system_id":"levelo_inurba_marseille","lat":43.30278,"lon":5.37708,"is_reserved":false,"is_disabled":false,"rental_uris":{"android":"levelo://app?vid=7727b811-eb5e-4439-b991-7555b4fa4a0e","ios":"levelo://app?vid=7727b811-eb5e-4439-b991-7555b4fa4a0e"},"vehicle_type_id":"4","last_reported":1726042327,"current_range_meters":40000,"station_id":"ce4bguh2rcd13ifvqcj0","pricing_plan_id":"cebpf4jnsgd1na2vs0mg"},{"bike_id":"785ac45d-d690-41d5-be8e-009e6aba526d","system_id":"levelo_inurba_marseille","lat":43.26948,"lon":5.38634,"is_reserved":false,"is_disabled":false,"rental_uris":{"android":"levelo://app?vid=785ac45d-d690-41d5-be8e-009e6aba526d","ios":"levelo://app?vid=785ac45d-d690-41d5-be8e-009e6aba526d"},"vehicle_type_id":"4","last_reported":1726042327,"current_range_meters":7200,"station_id":"ce4bhh92rcd13ifvqfh0","pricing_plan_id":"cebpf4jnsgd1na2vs0mg"},{"bike_id":"b6b39233-539e-43ba-bb0c-a24a0c8fbc7e","system_id":"levelo_inurba_marseille","lat":43.24075,"lon":5.37749,"is_reserved":false,"is_disabled":false,"rental_uris":{"android":"levelo://app?vid=b6b39233-539e-43ba-bb0c-a24a0c8fbc7e","ios":"levelo://app?vid=b6b39233-539e-43ba-bb0c-a24a0c8fbc7e"},"vehicle_type_id":"4","last_reported":1726042327,"current_range_meters":10000,"station_id":"ce4bhnp2rcd13ifvqgvg","pricing_plan_id":"cebpf4jnsgd1na2vs0mg"},{"bike_id":"2e89e36c-d905-4da0-9275-9e2d14e70ae5","system_id":"levelo_inurba_marseille","lat":43.3107,"lon":5.38365,"is_reserved":false,"is_disabled":false,"rental_uris":{"android":"levelo://app?vid=2e89e36c-d905-4da0-9275-9e2d14e70ae5","ios":"levelo://app?vid=2e89e36c-d905-4da0-9275-9e2d14e70ae5"},"vehicle_type_id":"4","last_reported":1726042327,"current_range_meters":37600,"station_id":"ce4bgv92rcd13ifvqcr0","pricing_plan_id":"cebpf4jnsgd1na2vs0mg"},{"bike_id":"89c18716-35c7-460a-897d-0ad83434eceb","system_id":"levelo_inurba_marseille","lat":43.30148,"lon":5.38087,"is_reserved":false,"is_disabled":false,"rental_uris":{"android":"levelo://app?vid=89c18716-35c7-460a-897d-0ad83434eceb","ios":"levelo://app?vid=89c18716-35c7-460a-897d-0ad83434eceb"},"vehicle_type_id":"4","last_reported":1726042327,"current_range_meters":15200,"station_id":"ce4bgjp2rcd13ifvqbh0","pricing_plan_id":"cebpf4jnsgd1na2vs0mg"},{"bike_id":"60bfe692-5724-48d7-bc6f-202c9a7cd939","system_id":"levelo_inurba_marseille","lat":43.29601,"lon":5.37722,"is_reserved":false,"is_disabled":false,"rental_uris":{"android":"levelo://app?vid=60bfe692-5724-48d7-bc6f-202c9a7cd939","ios":"levelo://app?vid=60bfe692-5724-48d7-bc6f-202c9a7cd939"},"vehicle_type_id":"4","last_reported":1726042327,"current_range_meters":25200,"station_id":"ce4bgi92rcd13ifvqb90","pricing_plan_id":"cebpf4jnsgd1na2vs0mg"},{"bike_id":"5301671d-80ff-40c3-a124-1bd88a20df6b","system_id":"levelo_inurba_marseille","lat":43.309473,"lon":5.39022,"is_reserved":false,"is_disabled":false,"rental_uris":{"android":"levelo://app?vid=5301671d-80ff-40c3-a124-1bd88a20df6b","ios":"levelo://app?vid=5301671d-80ff-40c3-a124-1bd88a20df6b"},"vehicle_type_id":"4","last_reported":1726042327,"current_range_meters":8800,"station_id":"ce4bgup2rcd13ifvqco0","pricing_plan_id":"cebpf4jnsgd1na2vs0mg"},{"bike_id":"9dbf4882-289e-4171-bdea-bbea2cd2aa4a","system_id":"levelo_inurba_marseille","lat":43.25924,"lon":5.40898,"is_reserved":false,"is_disabled":false,"rental_uris":{"android":"levelo://app?vid=9dbf4882-289e-4171-bdea-bbea2cd2aa4a","ios":"levelo://app?vid=9dbf4882-289e-4171-bdea-bbea2cd2aa4a"},"vehicle_type_id":"4","last_reported":1726042327,"current_range_meters":20400,"station_id":"ce4bhm92rcd13ifvqglg","pricing_plan_id":"cebpf4jnsgd1na2vs0mg"},{"bike_id":"00ca710c-aa25-453d-b5eb-9286e939dc6d","system_id":"levelo_inurba_marseille","lat":43.29549,"lon":5.42275,"is_reserved":false,"is_disabled":false,"rental_uris":{"android":"levelo://app?vid=00ca710c-aa25-453d-b5eb-9286e939dc6d","ios":"levelo://app?vid=00ca710c-aa25-453d-b5eb-9286e939dc6d"},"vehicle_type_id":"4","last_reported":1726042327,"current_range_meters":40000,"station_id":"ce4bhph2rcd13ifvqhdg","pricing_plan_id":"cebpf4jnsgd1na2vs0mg"},{"bike_id":"a36a6131-7175-4d21-afcf-16a3b952996a","system_id":"levelo_inurba_marseille","lat":43.30814,"lon":5.37653,"is_reserved":false,"is_disabled":false,"rental_uris":{"android":"levelo://app?vid=a36a6131-7175-4d21-afcf-16a3b952996a","ios":"levelo://app?vid=a36a6131-7175-4d21-afcf-16a3b952996a"},"vehicle_type_id":"4","last_reported":1726042327,"current_range_meters":10800,"station_id":"ce4bgv92rcd13ifvqcq0","pricing_plan_id":"cebpf4jnsgd1na2vs0mg"},{"bike_id":"79bce5d9-4ecd-43ec-b4e9-3cb24665d36a","system_id":"levelo_inurba_marseille","lat":43.30456,"lon":5.37903,"is_reserved":false,"is_disabled":false,"rental_uris":{"android":"levelo://app?vid=79bce5d9-4ecd-43ec-b4e9-3cb24665d36a","ios":"levelo://app?vid=79bce5d9-4ecd-43ec-b4e9-3cb24665d36a"},"vehicle_type_id":"4","last_reported":1726042327,"current_range_meters":7200,"station_id":"ce4bgup2rcd13ifvqcn0","pricing_plan_id":"cebpf4jnsgd1na2vs0mg"},{"bike_id":"928a5d3e-209f-4162-8230-412be2f1bd6c","system_id":"levelo_inurba_marseille","lat":43.28714,"lon":5.37939,"is_reserved":false,"is_disabled":false,"rental_uris":{"android":"levelo://app?vid=928a5d3e-209f-4162-8230-412be2f1bd6c","ios":"levelo://app?vid=928a5d3e-209f-4162-8230-412be2f1bd6c"},"vehicle_type_id":"4","last_reported":1726042327,"current_range_meters":35600,"station_id":"ce4bh9p2rcd13ifvqec0","pricing_plan_id":"cebpf4jnsgd1na2vs0mg"},{"bike_id":"581064b3-32e2-4513-980e-3a374ec83ebe","system_id":"levelo_inurba_marseille","lat":43.31996,"lon":5.38163,"is_reserved":false,"is_disabled":false,"rental_uris":{"android":"levelo://app?vid=581064b3-32e2-4513-980e-3a374ec83ebe","ios":"levelo://app?vid=581064b3-32e2-4513-980e-3a374ec83ebe"},"vehicle_type_id":"4","last_reported":1726042327,"current_range_meters":37600,"station_id":"ce4bhr12rcd13ifvqhpg","pricing_plan_id":"cebpf4jnsgd1na2vs0mg"},{"bike_id":"26fe2880-9bf3-4aaf-af65-37e29854e00f","system_id":"levelo_inurba_marseille","lat":43.31348,"lon":5.36727,"is_reserved":false,"is_disabled":false,"rental_uris":{"android":"levelo://app?vid=26fe2880-9bf3-4aaf-af65-37e29854e00f","ios":"levelo://app?vid=26fe2880-9bf3-4aaf-af65-37e29854e00f"},"vehicle_type_id":"4","last_reported":1726042327,"current_range_meters":35600,"station_id":"ce4bgr92rcd13ifvqc6g","pricing_plan_id":"cebpf4jnsgd1na2vs0mg"},{"bike_id":"7d379912-5512-4136-825f-f149378c51b0","system_id":"levelo_inurba_marseille","lat":43.27836,"lon":5.38502,"is_reserved":false,"is_disabled":false,"rental_uris":{"android":"levelo://app?vid=7d379912-5512-4136-825f-f149378c51b0","ios":"levelo://app?vid=7d379912-5512-4136-825f-f149378c51b0"},"vehicle_type_id":"4","last_reported":1726042327,"current_range_meters":32000,"station_id":"","pricing_plan_id":"cebpf4jnsgd1na2vs0mg"},{"bike_id":"fd085921-e1d7-4c89-a66d-87af421fb9d3","system_id":"levelo_inurba_marseille","lat":43.26954,"lon":5.3862,"is_reserved":false,"is_disabled":false,"rental_uris":{"android":"levelo://app?vid=fd085921-e1d7-4c89-a66d-87af421fb9d3","ios":"levelo://app?vid=fd085921-e1d7-4c89-a66d-87af421fb9d3"},"vehicle_type_id":"4","last_reported":1726042327,"current_range_meters":40000,"station_id":"ce4bhh92rcd13ifvqfh0","pricing_plan_id":"cebpf4jnsgd1na2vs0mg"},{"bike_id":"f9fa8c2f-4a3e-4c66-8dcc-add7a4a4f134","system_id":"levelo_inurba_marseille","lat":43.24181,"lon":5.39729,"is_reserved":false,"is_disabled":false,"rental_uris":{"android":"levelo://app?vid=f9fa8c2f-4a3e-4c66-8dcc-add7a4a4f134","ios":"levelo://app?vid=f9fa8c2f-4a3e-4c66-8dcc-add7a4a4f134"},"vehicle_type_id":"4","last_reported":1726042327,"current_range_meters":27600,"station_id":"ce4bhn12rcd13ifvqgpg","pricing_plan_id":"cebpf4jnsgd1na2vs0mg"},{"bike_id":"6c56c2b8-8d02-4b85-82fc-3ccb866e081c","system_id":"levelo_inurba_marseille","lat":43.31347,"lon":5.36713,"is_reserved":false,"is_disabled":false,"rental_uris":{"android":"levelo://app?vid=6c56c2b8-8d02-4b85-82fc-3ccb866e081c","ios":"levelo://app?vid=6c56c2b8-8d02-4b85-82fc-3ccb866e081c"},"vehicle_type_id":"4","last_reported":1726042327,"current_range_meters":16800,"station_id":"ce4bgr92rcd13ifvqc6g","pricing_plan_id":"cebpf4jnsgd1na2vs0mg"},{"bike_id":"8bfb1f0d-2633-40db-8a6a-d4a15f301a55","system_id":"levelo_inurba_marseille","lat":43.30152,"lon":5.38079,"is_reserved":false,"is_disabled":false,"rental_uris":{"android":"levelo://app?vid=8bfb1f0d-2633-40db-8a6a-d4a15f301a55","ios":"levelo://app?vid=8bfb1f0d-2633-40db-8a6a-d4a15f301a55"},"vehicle_type_id":"4","last_reported":1726042327,"current_range_meters":36800,"station_id":"ce4bgjp2rcd13ifvqbh0","pricing_plan_id":"cebpf4jnsgd1na2vs0mg"},{"bike_id":"df7d9a4b-6ecb-409a-9d20-53d92f6d12b5","system_id":"levelo_inurba_marseille","lat":43.30461,"lon":5.37905,"is_reserved":false,"is_disabled":false,"rental_uris":{"android":"levelo://app?vid=df7d9a4b-6ecb-409a-9d20-53d92f6d12b5","ios":"levelo://app?vid=df7d9a4b-6ecb-409a-9d20-53d92f6d12b5"},"vehicle_type_id":"4","last_reported":1726042327,"current_range_meters":12400,"station_id":"ce4bgup2rcd13ifvqcn0","pricing_plan_id":"cebpf4jnsgd1na2vs0mg"},{"bike_id":"03f549ce-84e9-4222-bcba-0e54eca52759","system_id":"levelo_inurba_marseille","lat":43.28411,"lon":5.37511,"is_reserved":false,"is_disabled":false,"rental_uris":{"android":"levelo://app?vid=03f549ce-84e9-4222-bcba-0e54eca52759","ios":"levelo://app?vid=03f549ce-84e9-4222-bcba-0e54eca52759"},"vehicle_type_id":"4","last_reported":1726042327,"current_range_meters":12400,"station_id":"ce4bh412rcd13ifvqds0","pricing_plan_id":"cebpf4jnsgd1na2vs0mg"},{"bike_id":"dbe8842d-5124-48b3-961a-1ebe254bf5d8","system_id":"levelo_inurba_marseille","lat":43.29288,"lon":5.37447,"is_reserved":false,"is_disabled":false,"rental_uris":{"android":"levelo://app?vid=dbe8842d-5124-48b3-961a-1ebe254bf5d8","ios":"levelo://app?vid=dbe8842d-5124-48b3-961a-1ebe254bf5d8"},"vehicle_type_id":"4","last_reported":1726042327,"current_range_meters":40000,"station_id":"ce4bgi12rcd13ifvqb70","pricing_plan_id":"cebpf4jnsgd1na2vs0mg"},{"bike_id":"c546d7fc-88c2-4d5b-ac99-205fd9edd073","system_id":"levelo_inurba_marseille","lat":43.29267,"lon":5.36847,"is_reserved":false,"is_disabled":false,"rental_uris":{"android":"levelo://app?vid=c546d7fc-88c2-4d5b-ac99-205fd9edd073","ios":"levelo://app?vid=c546d7fc-88c2-4d5b-ac99-205fd9edd073"},"vehicle_type_id":"4","last_reported":1726042327,"current_range_meters":12000,"station_id":"ce4bhbp2rcd13ifvqesg","pricing_plan_id":"cebpf4jnsgd1na2vs0mg"},{"bike_id":"b57b7c50-b45e-48bf-80f1-5809fd7245ab","system_id":"levelo_inurba_marseille","lat":43.2668,"lon":5.38267,"is_reserved":false,"is_disabled":false,"rental_uris":{"android":"levelo://app?vid=b57b7c50-b45e-48bf-80f1-5809fd7245ab","ios":"levelo://app?vid=b57b7c50-b45e-48bf-80f1-5809fd7245ab"},"vehicle_type_id":"4","last_reported":1726042327,"current_range_meters":34000,"station_id":"ce4bhg92rcd13ifvqf90","pricing_plan_id":"cebpf4jnsgd1na2vs0mg"},{"bike_id":"f1ea8c6f-65c6-4c34-b89c-98dd712d80c3","system_id":"levelo_inurba_marseille","lat":43.24073,"lon":5.37754,"is_reserved":false,"is_disabled":false,"rental_uris":{"android":"levelo://app?vid=f1ea8c6f-65c6-4c34-b89c-98dd712d80c3","ios":"levelo://app?vid=f1ea8c6f-65c6-4c34-b89c-98dd712d80c3"},"vehicle_type_id":"4","last_reported":1726042327,"current_range_meters":20000,"station_id":"ce4bhnp2rcd13ifvqgvg","pricing_plan_id":"cebpf4jnsgd1na2vs0mg"},{"bike_id":"9734d854-1bee-4703-b105-c182cf679f1a","system_id":"levelo_inurba_marseille","lat":43.25934,"lon":5.4091,"is_reserved":false,"is_disabled":false,"rental_uris":{"android":"levelo://app?vid=9734d854-1bee-4703-b105-c182cf679f1a","ios":"levelo://app?vid=9734d854-1bee-4703-b105-c182cf679f1a"},"vehicle_type_id":"4","last_reported":1726042327,"current_range_meters":20000,"station_id":"ce4bhm92rcd13ifvqglg","pricing_plan_id":"cebpf4jnsgd1na2vs0mg"},{"bike_id":"1b8e2124-c9b2-450b-8e12-e90ed145db35","system_id":"levelo_inurba_marseille","lat":43.29842,"lon":5.36259,"is_reserved":false,"is_disabled":false,"rental_uris":{"android":"levelo://app?vid=1b8e2124-c9b2-450b-8e12-e90ed145db35","ios":"levelo://app?vid=1b8e2124-c9b2-450b-8e12-e90ed145db35"},"vehicle_type_id":"4","last_reported":1726042327,"current_range_meters":32000,"station_id":"ce4bgpp2rcd13ifvqc3g","pricing_plan_id":"cebpf4jnsgd1na2vs0mg"},{"bike_id":"f3648195-fabb-4f81-b65b-de33b734c612","system_id":"levelo_inurba_marseille","lat":43.27065,"lon":5.42269,"is_reserved":false,"is_disabled":false,"rental_uris":{"android":"levelo://app?vid=f3648195-fabb-4f81-b65b-de33b734c612","ios":"levelo://app?vid=f3648195-fabb-4f81-b65b-de33b734c612"},"vehicle_type_id":"4","last_reported":1726042327,"current_range_meters":3600,"station_id":"ce4bhk92rcd13ifvqgb0","pricing_plan_id":"cebpf4jnsgd1na2vs0mg"},{"bike_id":"931314e8-e917-4027-9ca3-2e3a96f72682","system_id":"levelo_inurba_marseille","lat":43.27569,"lon":5.3841,"is_reserved":false,"is_disabled":false,"rental_uris":{"android":"levelo://app?vid=931314e8-e917-4027-9ca3-2e3a96f72682","ios":"levelo://app?vid=931314e8-e917-4027-9ca3-2e3a96f72682"},"vehicle_type_id":"4","last_reported":1726042327,"current_range_meters":35200,"station_id":"ce4bhh92rcd13ifvqfi0","pricing_plan_id":"cebpf4jnsgd1na2vs0mg"},{"bike_id":"c5b15709-55a3-440a-87a8-04a12fb5823d","system_id":"levelo_inurba_marseille","lat":43.25816,"lon":5.39426,"is_reserved":false,"is_disabled":false,"rental_uris":{"android":"levelo://app?vid=c5b15709-55a3-440a-87a8-04a12fb5823d","ios":"levelo://app?vid=c5b15709-55a3-440a-87a8-04a12fb5823d"},"vehicle_type_id":"4","last_reported":1726042327,"current_range_meters":20800,"station_id":"ce4bhip2rcd13ifvqft0","pricing_plan_id":"cebpf4jnsgd1na2vs0mg"},{"bike_id":"e01f2de8-0328-4104-8c10-bddcb364c8e7","system_id":"levelo_inurba_marseille","lat":43.2407,"lon":5.37758,"is_reserved":false,"is_disabled":false,"rental_uris":{"android":"levelo://app?vid=e01f2de8-0328-4104-8c10-bddcb364c8e7","ios":"levelo://app?vid=e01f2de8-0328-4104-8c10-bddcb364c8e7"},"vehicle_type_id":"4","last_reported":1726042327,"current_range_meters":32800,"station_id":"ce4bhnp2rcd13ifvqgvg","pricing_plan_id":"cebpf4jnsgd1na2vs0mg"},{"bike_id":"c22bf776-82f1-423d-83f3-ab20051eb388","system_id":"levelo_inurba_marseille","lat":43.33614,"lon":5.41017,"is_reserved":false,"is_disabled":false,"rental_uris":{"android":"levelo://app?vid=c22bf776-82f1-423d-83f3-ab20051eb388","ios":"levelo://app?vid=c22bf776-82f1-423d-83f3-ab20051eb388"},"vehicle_type_id":"4","last_reported":1726042327,"current_range_meters":6400,"station_id":"ce4bhqh2rcd13ifvqhmg","pricing_plan_id":"cebpf4jnsgd1na2vs0mg"},{"bike_id":"276aff80-6d5b-448f-be07-ae40ba73dbc2","system_id":"levelo_inurba_marseille","lat":43.2408,"lon":5.37752,"is_reserved":false,"is_disabled":false,"rental_uris":{"android":"levelo://app?vid=276aff80-6d5b-448f-be07-ae40ba73dbc2","ios":"levelo://app?vid=276aff80-6d5b-448f-be07-ae40ba73dbc2"},"vehicle_type_id":"4","last_reported":1726042327,"current_range_meters":16400,"station_id":"ce4bhnp2rcd13ifvqgvg","pricing_plan_id":"cebpf4jnsgd1na2vs0mg"},{"bike_id":"762255b4-be86-449c-b578-087b32aadd3a","system_id":"levelo_inurba_marseille","lat":43.30903,"lon":5.36847,"is_reserved":false,"is_disabled":false,"rental_uris":{"android":"levelo://app?vid=762255b4-be86-449c-b578-087b32aadd3a","ios":"levelo://app?vid=762255b4-be86-449c-b578-087b32aadd3a"},"vehicle_type_id":"4","last_reported":1726042327,"current_range_meters":17600,"station_id":"ce4bgn92rcd13ifvqbvg","pricing_plan_id":"cebpf4jnsgd1na2vs0mg"},{"bike_id":"5711be28-cbc0-4fc6-bfe8-04573769105c","system_id":"levelo_inurba_marseille","lat":43.30798,"lon":5.43524,"is_reserved":false,"is_disabled":false,"rental_uris":{"android":"levelo://app?vid=5711be28-cbc0-4fc6-bfe8-04573769105c","ios":"levelo://app?vid=5711be28-cbc0-4fc6-bfe8-04573769105c"},"vehicle_type_id":"4","last_reported":1726042327,"current_range_meters":32800,"station_id":"ce4bhph2rcd13ifvqheg","pricing_plan_id":"cebpf4jnsgd1na2vs0mg"},{"bike_id":"c7d6d06e-c6b6-456a-8174-515e62d4bdb2","system_id":"levelo_inurba_marseille","lat":43.33605,"lon":5.4102,"is_reserved":false,"is_disabled":false,"rental_uris":{"android":"levelo://app?vid=c7d6d06e-c6b6-456a-8174-515e62d4bdb2","ios":"levelo://app?vid=c7d6d06e-c6b6-456a-8174-515e62d4bdb2"},"vehicle_type_id":"4","last_reported":1726042327,"current_range_meters":16400,"station_id":"ce4bhqh2rcd13ifvqhmg","pricing_plan_id":"cebpf4jnsgd1na2vs0mg"},{"bike_id":"9b9547b7-77e2-4c32-9975-f0a65876f133","system_id":"levelo_inurba_marseille","lat":43.28034,"lon":5.36942,"is_reserved":false,"is_disabled":false,"rental_uris":{"android":"levelo://app?vid=9b9547b7-77e2-4c32-9975-f0a65876f133","ios":"levelo://app?vid=9b9547b7-77e2-4c32-9975-f0a65876f133"},"vehicle_type_id":"4","last_reported":1726042327,"current_range_meters":35600,"station_id":"ce4bha12rcd13ifvqef0","pricing_plan_id":"cebpf4jnsgd1na2vs0mg"},{"bike_id":"719bc6c4-8a33-4716-9972-890608eab4a8","system_id":"levelo_inurba_marseille","lat":43.2804,"lon":5.36939,"is_reserved":false,"is_disabled":false,"rental_uris":{"android":"levelo://app?vid=719bc6c4-8a33-4716-9972-890608eab4a8","ios":"levelo://app?vid=719bc6c4-8a33-4716-9972-890608eab4a8"},"vehicle_type_id":"4","last_reported":1726042327,"current_range_meters":20400,"station_id":"ce4bha12rcd13ifvqef0","pricing_plan_id":"cebpf4jnsgd1na2vs0mg"},{"bike_id":"2c34edcb-72c7-439a-a9a8-efb295e9b4a9","system_id":"levelo_inurba_marseille","lat":43.24379,"lon":5.37054,"is_reserved":false,"is_disabled":false,"rental_uris":{"android":"levelo://app?vid=2c34edcb-72c7-439a-a9a8-efb295e9b4a9","ios":"levelo://app?vid=2c34edcb-72c7-439a-a9a8-efb295e9b4a9"},"vehicle_type_id":"4","last_reported":1726042327,"current_range_meters":36000,"station_id":"ce4bhhh2rcd13ifvqfk0","pricing_plan_id":"cebpf4jnsgd1na2vs0mg"},{"bike_id":"3ca161b1-fb03-46e1-bc58-270f4d2ef071","system_id":"levelo_inurba_marseille","lat":43.30463,"lon":5.37897,"is_reserved":false,"is_disabled":false,"rental_uris":{"android":"levelo://app?vid=3ca161b1-fb03-46e1-bc58-270f4d2ef071","ios":"levelo://app?vid=3ca161b1-fb03-46e1-bc58-270f4d2ef071"},"vehicle_type_id":"4","last_reported":1726042327,"current_range_meters":28400,"station_id":"ce4bgup2rcd13ifvqcn0","pricing_plan_id":"cebpf4jnsgd1na2vs0mg"},{"bike_id":"723c073e-5c6a-4fb9-a382-e8ea44a73076","system_id":"levelo_inurba_marseille","lat":43.29554,"lon":5.42279,"is_reserved":false,"is_disabled":false,"rental_uris":{"android":"levelo://app?vid=723c073e-5c6a-4fb9-a382-e8ea44a73076","ios":"levelo://app?vid=723c073e-5c6a-4fb9-a382-e8ea44a73076"},"vehicle_type_id":"4","last_reported":1726042327,"current_range_meters":33600,"station_id":"ce4bhph2rcd13ifvqhdg","pricing_plan_id":"cebpf4jnsgd1na2vs0mg"},{"bike_id":"2aad4b02-945c-4d35-b3a5-85b3d17dc503","system_id":"levelo_inurba_marseille","lat":43.32285,"lon":5.38258,"is_reserved":false,"is_disabled":false,"rental_uris":{"android":"levelo://app?vid=2aad4b02-945c-4d35-b3a5-85b3d17dc503","ios":"levelo://app?vid=2aad4b02-945c-4d35-b3a5-85b3d17dc503"},"vehicle_type_id":"4","last_reported":1726042327,"current_range_meters":3600,"station_id":"ce4bhr12rcd13ifvqhqg","pricing_plan_id":"cebpf4jnsgd1na2vs0mg"},{"bike_id":"17f649ba-2b5d-4651-86df-d3a1cc696924","system_id":"levelo_inurba_marseille","lat":43.29602,"lon":5.3772,"is_reserved":false,"is_disabled":false,"rental_uris":{"android":"levelo://app?vid=17f649ba-2b5d-4651-86df-d3a1cc696924","ios":"levelo://app?vid=17f649ba-2b5d-4651-86df-d3a1cc696924"},"vehicle_type_id":"4","last_reported":1726042327,"current_range_meters":6800,"station_id":"ce4bgi92rcd13ifvqb90","pricing_plan_id":"cebpf4jnsgd1na2vs0mg"},{"bike_id":"4970ca71-44ee-4f63-9fa4-21cadd67739f","system_id":"levelo_inurba_marseille","lat":43.2499,"lon":5.38926,"is_reserved":false,"is_disabled":false,"rental_uris":{"android":"levelo://app?vid=4970ca71-44ee-4f63-9fa4-21cadd67739f","ios":"levelo://app?vid=4970ca71-44ee-4f63-9fa4-21cadd67739f"},"vehicle_type_id":"4","last_reported":1726042327,"current_range_meters":17200,"station_id":"ce4bhgp2rcd13ifvqfd0","pricing_plan_id":"cebpf4jnsgd1na2vs0mg"},{"bike_id":"270a84f9-41d6-4d64-8f74-449af4920796","system_id":"levelo_inurba_marseille","lat":43.2407,"lon":5.37754,"is_reserved":false,"is_disabled":false,"rental_uris":{"android":"levelo://app?vid=270a84f9-41d6-4d64-8f74-449af4920796","ios":"levelo://app?vid=270a84f9-41d6-4d64-8f74-449af4920796"},"vehicle_type_id":"4","last_reported":1726042327,"current_range_meters":30800,"station_id":"ce4bhnp2rcd13ifvqgvg","pricing_plan_id":"cebpf4jnsgd1na2vs0mg"},{"bike_id":"dd4c77a3-8f2f-4327-86e0-d9668552430d","system_id":"levelo_inurba_marseille","lat":43.27189,"lon":5.39198,"is_reserved":false,"is_disabled":false,"rental_uris":{"android":"levelo://app?vid=dd4c77a3-8f2f-4327-86e0-d9668552430d","ios":"levelo://app?vid=dd4c77a3-8f2f-4327-86e0-d9668552430d"},"vehicle_type_id":"4","last_reported":1726042327,"current_range_meters":36400,"station_id":"ce4bhhp2rcd13ifvqfm0","pricing_plan_id":"cebpf4jnsgd1na2vs0mg"},{"bike_id":"fc19c059-0eb5-4fc6-8478-12e937316a9c","system_id":"levelo_inurba_marseille","lat":43.240747,"lon":5.377579,"is_reserved":false,"is_disabled":false,"rental_uris":{"android":"levelo://app?vid=fc19c059-0eb5-4fc6-8478-12e937316a9c","ios":"levelo://app?vid=fc19c059-0eb5-4fc6-8478-12e937316a9c"},"vehicle_type_id":"4","last_reported":1726042327,"current_range_meters":12800,"station_id":"ce4bhnp2rcd13ifvqgvg","pricing_plan_id":"cebpf4jnsgd1na2vs0mg"},{"bike_id":"211b5142-9ff2-4985-b66d-e93c99bdd248","system_id":"levelo_inurba_marseille","lat":43.24391,"lon":5.37061,"is_reserved":false,"is_disabled":false,"rental_uris":{"android":"levelo://app?vid=211b5142-9ff2-4985-b66d-e93c99bdd248","ios":"levelo://app?vid=211b5142-9ff2-4985-b66d-e93c99bdd248"},"vehicle_type_id":"4","last_reported":1726042327,"current_range_meters":23200,"station_id":"ce4bhhh2rcd13ifvqfk0","pricing_plan_id":"cebpf4jnsgd1na2vs0mg"},{"bike_id":"18780dda-cbbc-4bd5-baa0-750c2954890a","system_id":"levelo_inurba_marseille","lat":43.26675,"lon":5.38269,"is_reserved":false,"is_disabled":false,"rental_uris":{"android":"levelo://app?vid=18780dda-cbbc-4bd5-baa0-750c2954890a","ios":"levelo://app?vid=18780dda-cbbc-4bd5-baa0-750c2954890a"},"vehicle_type_id":"4","last_reported":1726042327,"current_range_meters":14400,"station_id":"ce4bhg92rcd13ifvqf90","pricing_plan_id":"cebpf4jnsgd1na2vs0mg"},{"bike_id":"ba029e3c-a52b-4614-b297-934f2a650282","system_id":"levelo_inurba_marseille","lat":43.30472,"lon":5.37908,"is_reserved":false,"is_disabled":false,"rental_uris":{"android":"levelo://app?vid=ba029e3c-a52b-4614-b297-934f2a650282","ios":"levelo://app?vid=ba029e3c-a52b-4614-b297-934f2a650282"},"vehicle_type_id":"4","last_reported":1726042327,"current_range_meters":28800,"station_id":"ce4bgup2rcd13ifvqcn0","pricing_plan_id":"cebpf4jnsgd1na2vs0mg"},{"bike_id":"e6828e12-0061-450d-ad88-18f4a74cfa9b","system_id":"levelo_inurba_marseille","lat":43.29981,"lon":5.37185,"is_reserved":false,"is_disabled":false,"rental_uris":{"android":"levelo://app?vid=e6828e12-0061-450d-ad88-18f4a74cfa9b","ios":"levelo://app?vid=e6828e12-0061-450d-ad88-18f4a74cfa9b"},"vehicle_type_id":"4","last_reported":1726042327,"current_range_meters":23200,"station_id":"ce4bgr92rcd13ifvqc7g","pricing_plan_id":"cebpf4jnsgd1na2vs0mg"},{"bike_id":"df5bd83d-06d4-432f-83c4-381810e7a4a9","system_id":"levelo_inurba_marseille","lat":43.25934,"lon":5.40907,"is_reserved":false,"is_disabled":false,"rental_uris":{"android":"levelo://app?vid=df5bd83d-06d4-432f-83c4-381810e7a4a9","ios":"levelo://app?vid=df5bd83d-06d4-432f-83c4-381810e7a4a9"},"vehicle_type_id":"4","last_reported":1726042327,"current_range_meters":28800,"station_id":"ce4bhm92rcd13ifvqglg","pricing_plan_id":"cebpf4jnsgd1na2vs0mg"},{"bike_id":"7780fd8d-62fc-4f8e-a19e-843db607b0ef","system_id":"levelo_inurba_marseille","lat":43.28487,"lon":5.38572,"is_reserved":false,"is_disabled":false,"rental_uris":{"android":"levelo://app?vid=7780fd8d-62fc-4f8e-a19e-843db607b0ef","ios":"levelo://app?vid=7780fd8d-62fc-4f8e-a19e-843db607b0ef"},"vehicle_type_id":"4","last_reported":1726042327,"current_range_meters":18000,"station_id":"ce4bh8p2rcd13ifvqeb0","pricing_plan_id":"cebpf4jnsgd1na2vs0mg"},{"bike_id":"c4a11cd6-597d-4826-ad55-56b34d91dddb","system_id":"levelo_inurba_marseille","lat":43.24076,"lon":5.37756,"is_reserved":false,"is_disabled":false,"rental_uris":{"android":"levelo://app?vid=c4a11cd6-597d-4826-ad55-56b34d91dddb","ios":"levelo://app?vid=c4a11cd6-597d-4826-ad55-56b34d91dddb"},"vehicle_type_id":"4","last_reported":1726042327,"current_range_meters":10800,"station_id":"ce4bhnp2rcd13ifvqgvg","pricing_plan_id":"cebpf4jnsgd1na2vs0mg"},{"bike_id":"d95128dd-8540-4f5f-8e29-9f5b90b4b067","system_id":"levelo_inurba_marseille","lat":43.29697,"lon":5.37717,"is_reserved":false,"is_disabled":false,"rental_uris":{"android":"levelo://app?vid=d95128dd-8540-4f5f-8e29-9f5b90b4b067","ios":"levelo://app?vid=d95128dd-8540-4f5f-8e29-9f5b90b4b067"},"vehicle_type_id":"4","last_reported":1726042327,"current_range_meters":2800,"station_id":"ce4bgkh2rcd13ifvqbl0","pricing_plan_id":"cebpf4jnsgd1na2vs0mg"},{"bike_id":"2a07682a-d8f9-42b8-b84b-dcbdcf9e9ec6","system_id":"levelo_inurba_marseille","lat":43.323334,"lon":5.413932,"is_reserved":false,"is_disabled":false,"rental_uris":{"android":"levelo://app?vid=2a07682a-d8f9-42b8-b84b-dcbdcf9e9ec6","ios":"levelo://app?vid=2a07682a-d8f9-42b8-b84b-dcbdcf9e9ec6"},"vehicle_type_id":"4","last_reported":1726042327,"current_range_meters":17200,"station_id":"ce4bhq92rcd13ifvqhkg","pricing_plan_id":"cebpf4jnsgd1na2vs0mg"},{"bike_id":"ae5848c5-f1d3-4343-ae2e-d78a2d5b0242","system_id":"levelo_inurba_marseille","lat":43.30133,"lon":5.37428,"is_reserved":false,"is_disabled":false,"rental_uris":{"android":"levelo://app?vid=ae5848c5-f1d3-4343-ae2e-d78a2d5b0242","ios":"levelo://app?vid=ae5848c5-f1d3-4343-ae2e-d78a2d5b0242"},"vehicle_type_id":"4","last_reported":1726042327,"current_range_meters":38800,"station_id":"ce4bgs92rcd13ifvqcc0","pricing_plan_id":"cebpf4jnsgd1na2vs0mg"},{"bike_id":"97646c03-5263-486b-92a1-fa7bd5f31f73","system_id":"levelo_inurba_marseille","lat":43.30462,"lon":5.37911,"is_reserved":false,"is_disabled":false,"rental_uris":{"android":"levelo://app?vid=97646c03-5263-486b-92a1-fa7bd5f31f73","ios":"levelo://app?vid=97646c03-5263-486b-92a1-fa7bd5f31f73"},"vehicle_type_id":"4","last_reported":1726042327,"current_range_meters":9600,"station_id":"ce4bgup2rcd13ifvqcn0","pricing_plan_id":"cebpf4jnsgd1na2vs0mg"},{"bike_id":"74d7f432-f596-45ae-b14d-0ddc7f8a62f6","system_id":"levelo_inurba_marseille","lat":43.23146,"lon":5.43703,"is_reserved":false,"is_disabled":false,"rental_uris":{"android":"levelo://app?vid=74d7f432-f596-45ae-b14d-0ddc7f8a62f6","ios":"levelo://app?vid=74d7f432-f596-45ae-b14d-0ddc7f8a62f6"},"vehicle_type_id":"4","last_reported":1726042327,"current_range_meters":9200,"station_id":"ce4bhmp2rcd13ifvqgog","pricing_plan_id":"cebpf4jnsgd1na2vs0mg"},{"bike_id":"145df20c-dcd6-4546-8dc7-49aa5dc0c190","system_id":"levelo_inurba_marseille","lat":43.30451,"lon":5.37894,"is_reserved":false,"is_disabled":false,"rental_uris":{"android":"levelo://app?vid=145df20c-dcd6-4546-8dc7-49aa5dc0c190","ios":"levelo://app?vid=145df20c-dcd6-4546-8dc7-49aa5dc0c190"},"vehicle_type_id":"4","last_reported":1726042327,"current_range_meters":32000,"station_id":"ce4bgup2rcd13ifvqcn0","pricing_plan_id":"cebpf4jnsgd1na2vs0mg"},{"bike_id":"0a0c8c31-4dbb-4a4b-9757-6c7c06e9989d","system_id":"levelo_inurba_marseille","lat":43.30135,"lon":5.37418,"is_reserved":false,"is_disabled":false,"rental_uris":{"android":"levelo://app?vid=0a0c8c31-4dbb-4a4b-9757-6c7c06e9989d","ios":"levelo://app?vid=0a0c8c31-4dbb-4a4b-9757-6c7c06e9989d"},"vehicle_type_id":"4","last_reported":1726042327,"current_range_meters":38000,"station_id":"ce4bgs92rcd13ifvqcc0","pricing_plan_id":"cebpf4jnsgd1na2vs0mg"},{"bike_id":"13d810db-8ea3-44ea-ac0c-516776fcde15","system_id":"levelo_inurba_marseille","lat":43.29514,"lon":5.37495,"is_reserved":false,"is_disabled":false,"rental_uris":{"android":"levelo://app?vid=13d810db-8ea3-44ea-ac0c-516776fcde15","ios":"levelo://app?vid=13d810db-8ea3-44ea-ac0c-516776fcde15"},"vehicle_type_id":"4","last_reported":1726042327,"current_range_meters":32800,"station_id":"ce4bgkp2rcd13ifvqbmg","pricing_plan_id":"cebpf4jnsgd1na2vs0mg"},{"bike_id":"1722f39b-97a1-4090-ba57-5f5be3e5195b","system_id":"levelo_inurba_marseille","lat":43.2315,"lon":5.43705,"is_reserved":false,"is_disabled":false,"rental_uris":{"android":"levelo://app?vid=1722f39b-97a1-4090-ba57-5f5be3e5195b","ios":"levelo://app?vid=1722f39b-97a1-4090-ba57-5f5be3e5195b"},"vehicle_type_id":"4","last_reported":1726042327,"current_range_meters":14800,"station_id":"ce4bhmp2rcd13ifvqgog","pricing_plan_id":"cebpf4jnsgd1na2vs0mg"},{"bike_id":"883adf4f-9822-48e8-9c16-82ae0dbc702a","system_id":"levelo_inurba_marseille","lat":43.23158,"lon":5.43707,"is_reserved":false,"is_disabled":false,"rental_uris":{"android":"levelo://app?vid=883adf4f-9822-48e8-9c16-82ae0dbc702a","ios":"levelo://app?vid=883adf4f-9822-48e8-9c16-82ae0dbc702a"},"vehicle_type_id":"4","last_reported":1726042327,"current_range_meters":10000,"station_id":"ce4bhmp2rcd13ifvqgog","pricing_plan_id":"cebpf4jnsgd1na2vs0mg"},{"bike_id":"223e1f9a-6923-4549-9711-2f32011b190d","system_id":"levelo_inurba_marseille","lat":43.297703,"lon":5.385364,"is_reserved":false,"is_disabled":false,"rental_uris":{"android":"levelo://app?vid=223e1f9a-6923-4549-9711-2f32011b190d","ios":"levelo://app?vid=223e1f9a-6923-4549-9711-2f32011b190d"},"vehicle_type_id":"4","last_reported":1726042327,"current_range_meters":17200,"station_id":"ce4bgih2rcd13ifvqba0","pricing_plan_id":"cebpf4jnsgd1na2vs0mg"},{"bike_id":"e242f724-ca77-4c69-9eb3-2e2ce50a513b","system_id":"levelo_inurba_marseille","lat":43.3375,"lon":5.37425,"is_reserved":false,"is_disabled":false,"rental_uris":{"android":"levelo://app?vid=e242f724-ca77-4c69-9eb3-2e2ce50a513b","ios":"levelo://app?vid=e242f724-ca77-4c69-9eb3-2e2ce50a513b"},"vehicle_type_id":"4","last_reported":1726042327,"current_range_meters":24800,"station_id":"","pricing_plan_id":"cebpf4jnsgd1na2vs0mg"},{"bike_id":"f0e99be7-fa8d-40f3-8114-23052f3845e3","system_id":"levelo_inurba_marseille","lat":43.33777,"lon":5.37458,"is_reserved":false,"is_disabled":false,"rental_uris":{"android":"levelo://app?vid=f0e99be7-fa8d-40f3-8114-23052f3845e3","ios":"levelo://app?vid=f0e99be7-fa8d-40f3-8114-23052f3845e3"},"vehicle_type_id":"4","last_reported":1726042327,"current_range_meters":35600,"station_id":"","pricing_plan_id":"cebpf4jnsgd1na2vs0mg"},{"bike_id":"ace855bd-8617-474b-9ebc-09305bfffaf5","system_id":"levelo_inurba_marseille","lat":43.25927,"lon":5.40898,"is_reserved":false,"is_disabled":false,"rental_uris":{"android":"levelo://app?vid=ace855bd-8617-474b-9ebc-09305bfffaf5","ios":"levelo://app?vid=ace855bd-8617-474b-9ebc-09305bfffaf5"},"vehicle_type_id":"4","last_reported":1726042327,"current_range_meters":24400,"station_id":"ce4bhm92rcd13ifvqglg","pricing_plan_id":"cebpf4jnsgd1na2vs0mg"},{"bike_id":"638343ce-15e7-4192-b8b3-9dbbe2d9e121","system_id":"levelo_inurba_marseille","lat":43.2719,"lon":5.40989,"is_reserved":false,"is_disabled":false,"rental_uris":{"android":"levelo://app?vid=638343ce-15e7-4192-b8b3-9dbbe2d9e121","ios":"levelo://app?vid=638343ce-15e7-4192-b8b3-9dbbe2d9e121"},"vehicle_type_id":"4","last_reported":1726042327,"current_range_meters":36800,"station_id":"ce4bhl12rcd13ifvqgf0","pricing_plan_id":"cebpf4jnsgd1na2vs0mg"},{"bike_id":"7f4ea667-56df-4b26-bd46-3e71bc3cc245","system_id":"levelo_inurba_marseille","lat":43.29311,"lon":5.35561,"is_reserved":false,"is_disabled":false,"rental_uris":{"android":"levelo://app?vid=7f4ea667-56df-4b26-bd46-3e71bc3cc245","ios":"levelo://app?vid=7f4ea667-56df-4b26-bd46-3e71bc3cc245"},"vehicle_type_id":"4","last_reported":1726042327,"current_range_meters":3200,"station_id":"","pricing_plan_id":"cebpf4jnsgd1na2vs0mg"},{"bike_id":"ca736aa2-9ae6-4cb8-b0fe-510d91a35421","system_id":"levelo_inurba_marseille","lat":43.30546,"lon":5.36532,"is_reserved":false,"is_disabled":false,"rental_uris":{"android":"levelo://app?vid=ca736aa2-9ae6-4cb8-b0fe-510d91a35421","ios":"levelo://app?vid=ca736aa2-9ae6-4cb8-b0fe-510d91a35421"},"vehicle_type_id":"4","last_reported":1726042327,"current_range_meters":19200,"station_id":"ce4bgs12rcd13ifvqcag","pricing_plan_id":"cebpf4jnsgd1na2vs0mg"},{"bike_id":"3b163329-75e0-42ce-a395-e2936b5dfbec","system_id":"levelo_inurba_marseille","lat":43.29548,"lon":5.4227,"is_reserved":false,"is_disabled":false,"rental_uris":{"android":"levelo://app?vid=3b163329-75e0-42ce-a395-e2936b5dfbec","ios":"levelo://app?vid=3b163329-75e0-42ce-a395-e2936b5dfbec"},"vehicle_type_id":"4","last_reported":1726042327,"current_range_meters":30400,"station_id":"ce4bhph2rcd13ifvqhdg","pricing_plan_id":"cebpf4jnsgd1na2vs0mg"},{"bike_id":"d3c8ea6e-d01d-4d9e-9557-beffc1884ace","system_id":"levelo_inurba_marseille","lat":43.32286,"lon":5.38278,"is_reserved":false,"is_disabled":false,"rental_uris":{"android":"levelo://app?vid=d3c8ea6e-d01d-4d9e-9557-beffc1884ace","ios":"levelo://app?vid=d3c8ea6e-d01d-4d9e-9557-beffc1884ace"},"vehicle_type_id":"4","last_reported":1726042327,"current_range_meters":40000,"station_id":"ce4bhr12rcd13ifvqhqg","pricing_plan_id":"cebpf4jnsgd1na2vs0mg"},{"bike_id":"2f886a15-37e4-4dad-86c7-a7a6746278bd","system_id":"levelo_inurba_marseille","lat":43.2594,"lon":5.40897,"is_reserved":false,"is_disabled":false,"rental_uris":{"android":"levelo://app?vid=2f886a15-37e4-4dad-86c7-a7a6746278bd","ios":"levelo://app?vid=2f886a15-37e4-4dad-86c7-a7a6746278bd"},"vehicle_type_id":"4","last_reported":1726042327,"current_range_meters":34000,"station_id":"ce4bhm92rcd13ifvqglg","pricing_plan_id":"cebpf4jnsgd1na2vs0mg"},{"bike_id":"4ab9b895-30bd-4c48-a777-2c97ae01ea54","system_id":"levelo_inurba_marseille","lat":43.2835,"lon":5.38111,"is_reserved":false,"is_disabled":false,"rental_uris":{"android":"levelo://app?vid=4ab9b895-30bd-4c48-a777-2c97ae01ea54","ios":"levelo://app?vid=4ab9b895-30bd-4c48-a777-2c97ae01ea54"},"vehicle_type_id":"4","last_reported":1726042327,"current_range_meters":2800,"station_id":"ce4bh412rcd13ifvqdr0","pricing_plan_id":"cebpf4jnsgd1na2vs0mg"},{"bike_id":"c51c8f7e-bcf2-42f2-94c6-3e415993eea6","system_id":"levelo_inurba_marseille","lat":43.30137,"lon":5.37415,"is_reserved":false,"is_disabled":false,"rental_uris":{"android":"levelo://app?vid=c51c8f7e-bcf2-42f2-94c6-3e415993eea6","ios":"levelo://app?vid=c51c8f7e-bcf2-42f2-94c6-3e415993eea6"},"vehicle_type_id":"4","last_reported":1726042327,"current_range_meters":25200,"station_id":"ce4bgs92rcd13ifvqcc0","pricing_plan_id":"cebpf4jnsgd1na2vs0mg"},{"bike_id":"57e9bb4f-9231-40b3-9e58-b495db0be26b","system_id":"levelo_inurba_marseille","lat":43.25933,"lon":5.40908,"is_reserved":false,"is_disabled":false,"rental_uris":{"android":"levelo://app?vid=57e9bb4f-9231-40b3-9e58-b495db0be26b","ios":"levelo://app?vid=57e9bb4f-9231-40b3-9e58-b495db0be26b"},"vehicle_type_id":"4","last_reported":1726042327,"current_range_meters":28400,"station_id":"ce4bhm92rcd13ifvqglg","pricing_plan_id":"cebpf4jnsgd1na2vs0mg"},{"bike_id":"532d53c7-e79f-4f48-a531-5cde729796db","system_id":"levelo_inurba_marseille","lat":43.26955,"lon":5.38628,"is_reserved":false,"is_disabled":false,"rental_uris":{"android":"levelo://app?vid=532d53c7-e79f-4f48-a531-5cde729796db","ios":"levelo://app?vid=532d53c7-e79f-4f48-a531-5cde729796db"},"vehicle_type_id":"4","last_reported":1726042327,"current_range_meters":23200,"station_id":"ce4bhh92rcd13ifvqfh0","pricing_plan_id":"cebpf4jnsgd1na2vs0mg"},{"bike_id":"d808c1df-3dce-4540-9468-f94ffa8c7e6f","system_id":"levelo_inurba_marseille","lat":43.26678,"lon":5.38268,"is_reserved":false,"is_disabled":false,"rental_uris":{"android":"levelo://app?vid=d808c1df-3dce-4540-9468-f94ffa8c7e6f","ios":"levelo://app?vid=d808c1df-3dce-4540-9468-f94ffa8c7e6f"},"vehicle_type_id":"4","last_reported":1726042327,"current_range_meters":9600,"station_id":"ce4bhg92rcd13ifvqf90","pricing_plan_id":"cebpf4jnsgd1na2vs0mg"},{"bike_id":"af5778b8-9fbb-47c2-ab60-e73258153497","system_id":"levelo_inurba_marseille","lat":43.29258,"lon":5.40902,"is_reserved":false,"is_disabled":false,"rental_uris":{"android":"levelo://app?vid=af5778b8-9fbb-47c2-ab60-e73258153497","ios":"levelo://app?vid=af5778b8-9fbb-47c2-ab60-e73258153497"},"vehicle_type_id":"4","last_reported":1726042327,"current_range_meters":16400,"station_id":"ce4bh192rcd13ifvqdc0","pricing_plan_id":"cebpf4jnsgd1na2vs0mg"},{"bike_id":"ddd36556-343c-4a7d-84cf-8c904a0048bd","system_id":"levelo_inurba_marseille","lat":43.28013,"lon":5.36947,"is_reserved":false,"is_disabled":false,"rental_uris":{"android":"levelo://app?vid=ddd36556-343c-4a7d-84cf-8c904a0048bd","ios":"levelo://app?vid=ddd36556-343c-4a7d-84cf-8c904a0048bd"},"vehicle_type_id":"4","last_reported":1726042327,"current_range_meters":28000,"station_id":"ce4bha12rcd13ifvqef0","pricing_plan_id":"cebpf4jnsgd1na2vs0mg"},{"bike_id":"f8ba6a1d-21ee-4815-ba94-d6f403b23bd0","system_id":"levelo_inurba_marseille","lat":43.30908,"lon":5.36848,"is_reserved":false,"is_disabled":false,"rental_uris":{"android":"levelo://app?vid=f8ba6a1d-21ee-4815-ba94-d6f403b23bd0","ios":"levelo://app?vid=f8ba6a1d-21ee-4815-ba94-d6f403b23bd0"},"vehicle_type_id":"4","last_reported":1726042327,"current_range_meters":2800,"station_id":"ce4bgn92rcd13ifvqbvg","pricing_plan_id":"cebpf4jnsgd1na2vs0mg"},{"bike_id":"b28a5ccd-a007-4e36-9dac-6251dabefb91","system_id":"levelo_inurba_marseille","lat":43.33607,"lon":5.41031,"is_reserved":false,"is_disabled":false,"rental_uris":{"android":"levelo://app?vid=b28a5ccd-a007-4e36-9dac-6251dabefb91","ios":"levelo://app?vid=b28a5ccd-a007-4e36-9dac-6251dabefb91"},"vehicle_type_id":"4","last_reported":1726042327,"current_range_meters":30400,"station_id":"ce4bhqh2rcd13ifvqhmg","pricing_plan_id":"cebpf4jnsgd1na2vs0mg"},{"bike_id":"37d8c39f-1cdd-4f24-9274-2d093441df6e","system_id":"levelo_inurba_marseille","lat":43.31211,"lon":5.36847,"is_reserved":false,"is_disabled":false,"rental_uris":{"android":"levelo://app?vid=37d8c39f-1cdd-4f24-9274-2d093441df6e","ios":"levelo://app?vid=37d8c39f-1cdd-4f24-9274-2d093441df6e"},"vehicle_type_id":"4","last_reported":1726042327,"current_range_meters":30800,"station_id":"","pricing_plan_id":"cebpf4jnsgd1na2vs0mg"},{"bike_id":"1895d11f-a230-43b0-bd4d-31fcc8e38c67","system_id":"levelo_inurba_marseille","lat":43.27353,"lon":5.41598,"is_reserved":false,"is_disabled":false,"rental_uris":{"android":"levelo://app?vid=1895d11f-a230-43b0-bd4d-31fcc8e38c67","ios":"levelo://app?vid=1895d11f-a230-43b0-bd4d-31fcc8e38c67"},"vehicle_type_id":"4","last_reported":1726042327,"current_range_meters":2000,"station_id":"ce4bhl12rcd13ifvqgf0","pricing_plan_id":"cebpf4jnsgd1na2vs0mg"},{"bike_id":"c6889e33-c360-425a-9e19-451d338c8b9a","system_id":"levelo_inurba_marseille","lat":43.290515,"lon":5.375728,"is_reserved":false,"is_disabled":false,"rental_uris":{"android":"levelo://app?vid=c6889e33-c360-425a-9e19-451d338c8b9a","ios":"levelo://app?vid=c6889e33-c360-425a-9e19-451d338c8b9a"},"vehicle_type_id":"4","last_reported":1726042327,"current_range_meters":34000,"station_id":"ce4bh692rcd13ifvqe90","pricing_plan_id":"cebpf4jnsgd1na2vs0mg"},{"bike_id":"08ccdf55-d2f4-4005-846f-72a69494905d","system_id":"levelo_inurba_marseille","lat":43.33609,"lon":5.41027,"is_reserved":false,"is_disabled":false,"rental_uris":{"android":"levelo://app?vid=08ccdf55-d2f4-4005-846f-72a69494905d","ios":"levelo://app?vid=08ccdf55-d2f4-4005-846f-72a69494905d"},"vehicle_type_id":"4","last_reported":1726042327,"current_range_meters":22000,"station_id":"ce4bhqh2rcd13ifvqhmg","pricing_plan_id":"cebpf4jnsgd1na2vs0mg"},{"bike_id":"ba7ededa-e78d-4500-9282-cfbae8d9b971","system_id":"levelo_inurba_marseille","lat":43.30137,"lon":5.37405,"is_reserved":false,"is_disabled":false,"rental_uris":{"android":"levelo://app?vid=ba7ededa-e78d-4500-9282-cfbae8d9b971","ios":"levelo://app?vid=ba7ededa-e78d-4500-9282-cfbae8d9b971"},"vehicle_type_id":"4","last_reported":1726042327,"current_range_meters":9200,"station_id":"ce4bgs92rcd13ifvqcc0","pricing_plan_id":"cebpf4jnsgd1na2vs0mg"},{"bike_id":"cd32fde7-7c25-4371-9806-719a8d16e179","system_id":"levelo_inurba_marseille","lat":43.270935,"lon":5.401999,"is_reserved":false,"is_disabled":false,"rental_uris":{"android":"levelo://app?vid=cd32fde7-7c25-4371-9806-719a8d16e179","ios":"levelo://app?vid=cd32fde7-7c25-4371-9806-719a8d16e179"},"vehicle_type_id":"4","last_reported":1726042327,"current_range_meters":30400,"station_id":"ce4bhk92rcd13ifvqgc0","pricing_plan_id":"cebpf4jnsgd1na2vs0mg"},{"bike_id":"3ad1c0b7-cf14-40ac-a119-2362e08acbad","system_id":"levelo_inurba_marseille","lat":43.30462,"lon":5.37898,"is_reserved":false,"is_disabled":false,"rental_uris":{"android":"levelo://app?vid=3ad1c0b7-cf14-40ac-a119-2362e08acbad","ios":"levelo://app?vid=3ad1c0b7-cf14-40ac-a119-2362e08acbad"},"vehicle_type_id":"4","last_reported":1726042327,"current_range_meters":36800,"station_id":"ce4bgup2rcd13ifvqcn0","pricing_plan_id":"cebpf4jnsgd1na2vs0mg"},{"bike_id":"3774f0da-cfcc-41cf-9ab6-9acf83169616","system_id":"levelo_inurba_marseille","lat":43.298532,"lon":5.362844,"is_reserved":false,"is_disabled":false,"rental_uris":{"android":"levelo://app?vid=3774f0da-cfcc-41cf-9ab6-9acf83169616","ios":"levelo://app?vid=3774f0da-cfcc-41cf-9ab6-9acf83169616"},"vehicle_type_id":"4","last_reported":1726042327,"current_range_meters":25600,"station_id":"ce4bgpp2rcd13ifvqc3g","pricing_plan_id":"cebpf4jnsgd1na2vs0mg"},{"bike_id":"1a203d64-964e-4524-9cba-3a4c0bbeb626","system_id":"levelo_inurba_marseille","lat":43.30958,"lon":5.39035,"is_reserved":false,"is_disabled":false,"rental_uris":{"android":"levelo://app?vid=1a203d64-964e-4524-9cba-3a4c0bbeb626","ios":"levelo://app?vid=1a203d64-964e-4524-9cba-3a4c0bbeb626"},"vehicle_type_id":"4","last_reported":1726042327,"current_range_meters":22400,"station_id":"ce4bgup2rcd13ifvqco0","pricing_plan_id":"cebpf4jnsgd1na2vs0mg"},{"bike_id":"5a3fd4a6-1755-465c-8d8f-1a84ddce9916","system_id":"levelo_inurba_marseille","lat":43.25005,"lon":5.38909,"is_reserved":false,"is_disabled":false,"rental_uris":{"android":"levelo://app?vid=5a3fd4a6-1755-465c-8d8f-1a84ddce9916","ios":"levelo://app?vid=5a3fd4a6-1755-465c-8d8f-1a84ddce9916"},"vehicle_type_id":"4","last_reported":1726042327,"current_range_meters":26800,"station_id":"ce4bhgp2rcd13ifvqfd0","pricing_plan_id":"cebpf4jnsgd1na2vs0mg"},{"bike_id":"da13a46c-41f2-424e-b687-72ec7560f69d","system_id":"levelo_inurba_marseille","lat":43.26198,"lon":5.37929,"is_reserved":false,"is_disabled":false,"rental_uris":{"android":"levelo://app?vid=da13a46c-41f2-424e-b687-72ec7560f69d","ios":"levelo://app?vid=da13a46c-41f2-424e-b687-72ec7560f69d"},"vehicle_type_id":"4","last_reported":1726042327,"current_range_meters":36400,"station_id":"ce4bhjp2rcd13ifvqg90","pricing_plan_id":"cebpf4jnsgd1na2vs0mg"},{"bike_id":"15f10409-51fd-4935-8d9f-64cd1a619804","system_id":"levelo_inurba_marseille","lat":43.24077,"lon":5.3774,"is_reserved":false,"is_disabled":false,"rental_uris":{"android":"levelo://app?vid=15f10409-51fd-4935-8d9f-64cd1a619804","ios":"levelo://app?vid=15f10409-51fd-4935-8d9f-64cd1a619804"},"vehicle_type_id":"4","last_reported":1726042327,"current_range_meters":14400,"station_id":"ce4bhnp2rcd13ifvqgvg","pricing_plan_id":"cebpf4jnsgd1na2vs0mg"},{"bike_id":"27efc926-9b6c-4c19-b2f7-7af9733f59fb","system_id":"levelo_inurba_marseille","lat":43.240731,"lon":5.377622,"is_reserved":false,"is_disabled":false,"rental_uris":{"android":"levelo://app?vid=27efc926-9b6c-4c19-b2f7-7af9733f59fb","ios":"levelo://app?vid=27efc926-9b6c-4c19-b2f7-7af9733f59fb"},"vehicle_type_id":"4","last_reported":1726042327,"current_range_meters":30400,"station_id":"ce4bhnp2rcd13ifvqgvg","pricing_plan_id":"cebpf4jnsgd1na2vs0mg"},{"bike_id":"8dd94a15-6aef-434c-bf21-cc4c448ef3c7","system_id":"levelo_inurba_marseille","lat":43.24663,"lon":5.38879,"is_reserved":false,"is_disabled":false,"rental_uris":{"android":"levelo://app?vid=8dd94a15-6aef-434c-bf21-cc4c448ef3c7","ios":"levelo://app?vid=8dd94a15-6aef-434c-bf21-cc4c448ef3c7"},"vehicle_type_id":"4","last_reported":1726042327,"current_range_meters":9200,"station_id":"ce4bhg12rcd13ifvqf60","pricing_plan_id":"cebpf4jnsgd1na2vs0mg"},{"bike_id":"c7cebfc5-bfa7-43d5-b15b-3a4a39fb2c70","system_id":"levelo_inurba_marseille","lat":43.27998,"lon":5.40012,"is_reserved":false,"is_disabled":false,"rental_uris":{"android":"levelo://app?vid=c7cebfc5-bfa7-43d5-b15b-3a4a39fb2c70","ios":"levelo://app?vid=c7cebfc5-bfa7-43d5-b15b-3a4a39fb2c70"},"vehicle_type_id":"4","last_reported":1726042327,"current_range_meters":39200,"station_id":"ce4bho92rcd13ifvqh4g","pricing_plan_id":"cebpf4jnsgd1na2vs0mg"},{"bike_id":"3284e331-b9f8-4159-8289-1afee059d4fd","system_id":"levelo_inurba_marseille","lat":43.32542,"lon":5.41434,"is_reserved":false,"is_disabled":false,"rental_uris":{"android":"levelo://app?vid=3284e331-b9f8-4159-8289-1afee059d4fd","ios":"levelo://app?vid=3284e331-b9f8-4159-8289-1afee059d4fd"},"vehicle_type_id":"4","last_reported":1726042327,"current_range_meters":16400,"station_id":"ce4bhq12rcd13ifvqhhg","pricing_plan_id":"cebpf4jnsgd1na2vs0mg"},{"bike_id":"e7f1ce34-711f-4386-95b9-fe5f61acdbcc","system_id":"levelo_inurba_marseille","lat":43.27376,"lon":5.36249,"is_reserved":false,"is_disabled":false,"rental_uris":{"android":"levelo://app?vid=e7f1ce34-711f-4386-95b9-fe5f61acdbcc","ios":"levelo://app?vid=e7f1ce34-711f-4386-95b9-fe5f61acdbcc"},"vehicle_type_id":"4","last_reported":1726042327,"current_range_meters":32400,"station_id":"ce4bhbh2rcd13ifvqeo0","pricing_plan_id":"cebpf4jnsgd1na2vs0mg"},{"bike_id":"5876c5ef-9fac-478d-bd3c-ea1780c21005","system_id":"levelo_inurba_marseille","lat":43.33755,"lon":5.37446,"is_reserved":false,"is_disabled":false,"rental_uris":{"android":"levelo://app?vid=5876c5ef-9fac-478d-bd3c-ea1780c21005","ios":"levelo://app?vid=5876c5ef-9fac-478d-bd3c-ea1780c21005"},"vehicle_type_id":"4","last_reported":1726042327,"current_range_meters":36800,"station_id":"","pricing_plan_id":"cebpf4jnsgd1na2vs0mg"},{"bike_id":"3ef293cb-6b10-47c2-a61b-1c747b67c2aa","system_id":"levelo_inurba_marseille","lat":43.22929,"lon":5.35378,"is_reserved":false,"is_disabled":false,"rental_uris":{"android":"levelo://app?vid=3ef293cb-6b10-47c2-a61b-1c747b67c2aa","ios":"levelo://app?vid=3ef293cb-6b10-47c2-a61b-1c747b67c2aa"},"vehicle_type_id":"4","last_reported":1726042327,"current_range_meters":36400,"station_id":"cpo3532slgdg3j2ikp40","pricing_plan_id":"cebpf4jnsgd1na2vs0mg"},{"bike_id":"9658173f-729f-44c0-b272-df35fcc2e649","system_id":"levelo_inurba_marseille","lat":43.34132,"lon":5.40906,"is_reserved":false,"is_disabled":false,"rental_uris":{"android":"levelo://app?vid=9658173f-729f-44c0-b272-df35fcc2e649","ios":"levelo://app?vid=9658173f-729f-44c0-b272-df35fcc2e649"},"vehicle_type_id":"4","last_reported":1726042327,"current_range_meters":31200,"station_id":"ce4bhqh2rcd13ifvqhlg","pricing_plan_id":"cebpf4jnsgd1na2vs0mg"},{"bike_id":"026d1453-cdcc-4c21-a79a-3f5c084ce41a","system_id":"levelo_inurba_marseille","lat":43.29581,"lon":5.36735,"is_reserved":false,"is_disabled":false,"rental_uris":{"android":"levelo://app?vid=026d1453-cdcc-4c21-a79a-3f5c084ce41a","ios":"levelo://app?vid=026d1453-cdcc-4c21-a79a-3f5c084ce41a"},"vehicle_type_id":"4","last_reported":1726042327,"current_range_meters":34800,"station_id":"ce4bgph2rcd13ifvqc2g","pricing_plan_id":"cebpf4jnsgd1na2vs0mg"},{"bike_id":"21c33059-a251-4ee3-8044-85e814a623b7","system_id":"levelo_inurba_marseille","lat":43.3134,"lon":5.3672,"is_reserved":false,"is_disabled":false,"rental_uris":{"android":"levelo://app?vid=21c33059-a251-4ee3-8044-85e814a623b7","ios":"levelo://app?vid=21c33059-a251-4ee3-8044-85e814a623b7"},"vehicle_type_id":"4","last_reported":1726042327,"current_range_meters":20000,"station_id":"ce4bgr92rcd13ifvqc6g","pricing_plan_id":"cebpf4jnsgd1na2vs0mg"},{"bike_id":"9d97c6b7-d5ff-4ca7-999e-9c4395e89c55","system_id":"levelo_inurba_marseille","lat":43.24071,"lon":5.37762,"is_reserved":false,"is_disabled":false,"rental_uris":{"android":"levelo://app?vid=9d97c6b7-d5ff-4ca7-999e-9c4395e89c55","ios":"levelo://app?vid=9d97c6b7-d5ff-4ca7-999e-9c4395e89c55"},"vehicle_type_id":"4","last_reported":1726042327,"current_range_meters":36800,"station_id":"ce4bhnp2rcd13ifvqgvg","pricing_plan_id":"cebpf4jnsgd1na2vs0mg"},{"bike_id":"353069d2-a3ff-4e9c-b841-92784300724e","system_id":"levelo_inurba_marseille","lat":43.29929,"lon":5.36548,"is_reserved":false,"is_disabled":false,"rental_uris":{"android":"levelo://app?vid=353069d2-a3ff-4e9c-b841-92784300724e","ios":"levelo://app?vid=353069d2-a3ff-4e9c-b841-92784300724e"},"vehicle_type_id":"4","last_reported":1726042327,"current_range_meters":19200,"station_id":"ce4bgm92rcd13ifvqbr0","pricing_plan_id":"cebpf4jnsgd1na2vs0mg"},{"bike_id":"d30c0660-787a-4f4f-b4b0-e0cbcc67c31d","system_id":"levelo_inurba_marseille","lat":43.33769,"lon":5.37449,"is_reserved":false,"is_disabled":false,"rental_uris":{"android":"levelo://app?vid=d30c0660-787a-4f4f-b4b0-e0cbcc67c31d","ios":"levelo://app?vid=d30c0660-787a-4f4f-b4b0-e0cbcc67c31d"},"vehicle_type_id":"4","last_reported":1726042327,"current_range_meters":14000,"station_id":"","pricing_plan_id":"cebpf4jnsgd1na2vs0mg"},{"bike_id":"fc83f8ea-e35a-4cad-88e7-aff7758ef0c9","system_id":"levelo_inurba_marseille","lat":43.25104,"lon":5.40325,"is_reserved":false,"is_disabled":false,"rental_uris":{"android":"levelo://app?vid=fc83f8ea-e35a-4cad-88e7-aff7758ef0c9","ios":"levelo://app?vid=fc83f8ea-e35a-4cad-88e7-aff7758ef0c9"},"vehicle_type_id":"4","last_reported":1726042327,"current_range_meters":3600,"station_id":"ce4bhlh2rcd13ifvqgig","pricing_plan_id":"cebpf4jnsgd1na2vs0mg"},{"bike_id":"1dac0631-b278-40f2-b776-729780d9fb29","system_id":"levelo_inurba_marseille","lat":43.29909,"lon":5.37466,"is_reserved":false,"is_disabled":false,"rental_uris":{"android":"levelo://app?vid=1dac0631-b278-40f2-b776-729780d9fb29","ios":"levelo://app?vid=1dac0631-b278-40f2-b776-729780d9fb29"},"vehicle_type_id":"4","last_reported":1726042327,"current_range_meters":21600,"station_id":"ce4bgjh2rcd13ifvqbg0","pricing_plan_id":"cebpf4jnsgd1na2vs0mg"},{"bike_id":"de997810-7554-46cd-8ba3-7bf0bb9bdff4","system_id":"levelo_inurba_marseille","lat":43.2593,"lon":5.40915,"is_reserved":false,"is_disabled":false,"rental_uris":{"android":"levelo://app?vid=de997810-7554-46cd-8ba3-7bf0bb9bdff4","ios":"levelo://app?vid=de997810-7554-46cd-8ba3-7bf0bb9bdff4"},"vehicle_type_id":"4","last_reported":1726042327,"current_range_meters":28400,"station_id":"ce4bhm92rcd13ifvqglg","pricing_plan_id":"cebpf4jnsgd1na2vs0mg"},{"bike_id":"b0275aa5-5a60-47e5-b417-e66c5c398811","system_id":"levelo_inurba_marseille","lat":43.32478,"lon":5.36568,"is_reserved":false,"is_disabled":false,"rental_uris":{"android":"levelo://app?vid=b0275aa5-5a60-47e5-b417-e66c5c398811","ios":"levelo://app?vid=b0275aa5-5a60-47e5-b417-e66c5c398811"},"vehicle_type_id":"4","last_reported":1726042327,"current_range_meters":17200,"station_id":"ce4bhs12rcd13ifvqhvg","pricing_plan_id":"cebpf4jnsgd1na2vs0mg"},{"bike_id":"a73f78f6-8861-4f18-8a95-200d623c80b3","system_id":"levelo_inurba_marseille","lat":43.308,"lon":5.38159,"is_reserved":false,"is_disabled":false,"rental_uris":{"android":"levelo://app?vid=a73f78f6-8861-4f18-8a95-200d623c80b3","ios":"levelo://app?vid=a73f78f6-8861-4f18-8a95-200d623c80b3"},"vehicle_type_id":"4","last_reported":1726042327,"current_range_meters":28400,"station_id":"ce4bgt12rcd13ifvqce0","pricing_plan_id":"cebpf4jnsgd1na2vs0mg"},{"bike_id":"cf165742-997f-4970-8857-afecad83689b","system_id":"levelo_inurba_marseille","lat":43.337444,"lon":5.374475,"is_reserved":false,"is_disabled":false,"rental_uris":{"android":"levelo://app?vid=cf165742-997f-4970-8857-afecad83689b","ios":"levelo://app?vid=cf165742-997f-4970-8857-afecad83689b"},"vehicle_type_id":"4","last_reported":1726042327,"current_range_meters":36800,"station_id":"ce4bgvp2rcd13ifvqct0","pricing_plan_id":"cebpf4jnsgd1na2vs0mg"},{"bike_id":"09a7a1ad-315d-4983-a6e2-a22d1208f337","system_id":"levelo_inurba_marseille","lat":43.27325,"lon":5.39097,"is_reserved":false,"is_disabled":false,"rental_uris":{"android":"levelo://app?vid=09a7a1ad-315d-4983-a6e2-a22d1208f337","ios":"levelo://app?vid=09a7a1ad-315d-4983-a6e2-a22d1208f337"},"vehicle_type_id":"4","last_reported":1726042327,"current_range_meters":37600,"station_id":"ce4bhgp2rcd13ifvqfe0","pricing_plan_id":"cebpf4jnsgd1na2vs0mg"},{"bike_id":"746573a3-5d6f-4a66-89de-1d54ed0c4618","system_id":"levelo_inurba_marseille","lat":43.25721,"lon":5.41118,"is_reserved":false,"is_disabled":false,"rental_uris":{"android":"levelo://app?vid=746573a3-5d6f-4a66-89de-1d54ed0c4618","ios":"levelo://app?vid=746573a3-5d6f-4a66-89de-1d54ed0c4618"},"vehicle_type_id":"4","last_reported":1726042327,"current_range_meters":18800,"station_id":"ce4bhkp2rcd13ifvqgd0","pricing_plan_id":"cebpf4jnsgd1na2vs0mg"},{"bike_id":"9d15898b-f42b-480b-b771-e06549ab38bc","system_id":"levelo_inurba_marseille","lat":43.26567,"lon":5.3901,"is_reserved":false,"is_disabled":false,"rental_uris":{"android":"levelo://app?vid=9d15898b-f42b-480b-b771-e06549ab38bc","ios":"levelo://app?vid=9d15898b-f42b-480b-b771-e06549ab38bc"},"vehicle_type_id":"4","last_reported":1726042327,"current_range_meters":30400,"station_id":"ce4bhe12rcd13ifvqf30","pricing_plan_id":"cebpf4jnsgd1na2vs0mg"},{"bike_id":"1cb59988-24f3-4e62-8a6a-c8059f2b29dd","system_id":"levelo_inurba_marseille","lat":43.309518,"lon":5.390234,"is_reserved":false,"is_disabled":false,"rental_uris":{"android":"levelo://app?vid=1cb59988-24f3-4e62-8a6a-c8059f2b29dd","ios":"levelo://app?vid=1cb59988-24f3-4e62-8a6a-c8059f2b29dd"},"vehicle_type_id":"4","last_reported":1726042327,"current_range_meters":21600,"station_id":"ce4bgup2rcd13ifvqco0","pricing_plan_id":"cebpf4jnsgd1na2vs0mg"},{"bike_id":"74153a2f-5c36-4b79-8bfb-5ed19dd22f51","system_id":"levelo_inurba_marseille","lat":43.31346,"lon":5.36718,"is_reserved":false,"is_disabled":false,"rental_uris":{"android":"levelo://app?vid=74153a2f-5c36-4b79-8bfb-5ed19dd22f51","ios":"levelo://app?vid=74153a2f-5c36-4b79-8bfb-5ed19dd22f51"},"vehicle_type_id":"4","last_reported":1726042327,"current_range_meters":35200,"station_id":"ce4bgr92rcd13ifvqc6g","pricing_plan_id":"cebpf4jnsgd1na2vs0mg"},{"bike_id":"ea819ce7-e7bf-48a2-ac96-42c69241eb83","system_id":"levelo_inurba_marseille","lat":43.29624,"lon":5.37163,"is_reserved":false,"is_disabled":false,"rental_uris":{"android":"levelo://app?vid=ea819ce7-e7bf-48a2-ac96-42c69241eb83","ios":"levelo://app?vid=ea819ce7-e7bf-48a2-ac96-42c69241eb83"},"vehicle_type_id":"4","last_reported":1726042327,"current_range_meters":36400,"station_id":"ce4bgnh2rcd13ifvqc0g","pricing_plan_id":"cebpf4jnsgd1na2vs0mg"},{"bike_id":"5722f385-0124-4bed-a8de-85c0d18d21ac","system_id":"levelo_inurba_marseille","lat":43.25941,"lon":5.40899,"is_reserved":false,"is_disabled":false,"rental_uris":{"android":"levelo://app?vid=5722f385-0124-4bed-a8de-85c0d18d21ac","ios":"levelo://app?vid=5722f385-0124-4bed-a8de-85c0d18d21ac"},"vehicle_type_id":"4","last_reported":1726042327,"current_range_meters":30000,"station_id":"ce4bhm92rcd13ifvqglg","pricing_plan_id":"cebpf4jnsgd1na2vs0mg"},{"bike_id":"cd82fa41-b636-4841-a4ad-36cab80eb359","system_id":"levelo_inurba_marseille","lat":43.24072,"lon":5.37754,"is_reserved":false,"is_disabled":false,"rental_uris":{"android":"levelo://app?vid=cd82fa41-b636-4841-a4ad-36cab80eb359","ios":"levelo://app?vid=cd82fa41-b636-4841-a4ad-36cab80eb359"},"vehicle_type_id":"4","last_reported":1726042327,"current_range_meters":23200,"station_id":"ce4bhnp2rcd13ifvqgvg","pricing_plan_id":"cebpf4jnsgd1na2vs0mg"},{"bike_id":"a96b35a2-6539-4ad3-a385-682114851a42","system_id":"levelo_inurba_marseille","lat":43.25932,"lon":5.40912,"is_reserved":false,"is_disabled":false,"rental_uris":{"android":"levelo://app?vid=a96b35a2-6539-4ad3-a385-682114851a42","ios":"levelo://app?vid=a96b35a2-6539-4ad3-a385-682114851a42"},"vehicle_type_id":"4","last_reported":1726042327,"current_range_meters":30400,"station_id":"ce4bhm92rcd13ifvqglg","pricing_plan_id":"cebpf4jnsgd1na2vs0mg"},{"bike_id":"216f1cc1-4817-47db-becb-6d05f8bb4877","system_id":"levelo_inurba_marseille","lat":43.24077,"lon":5.3775,"is_reserved":false,"is_disabled":false,"rental_uris":{"android":"levelo://app?vid=216f1cc1-4817-47db-becb-6d05f8bb4877","ios":"levelo://app?vid=216f1cc1-4817-47db-becb-6d05f8bb4877"},"vehicle_type_id":"4","last_reported":1726042327,"current_range_meters":25200,"station_id":"ce4bhnp2rcd13ifvqgvg","pricing_plan_id":"cebpf4jnsgd1na2vs0mg"},{"bike_id":"57bb26db-80ae-4549-a5af-26f329a0f190","system_id":"levelo_inurba_marseille","lat":43.296173,"lon":5.377187,"is_reserved":false,"is_disabled":false,"rental_uris":{"android":"levelo://app?vid=57bb26db-80ae-4549-a5af-26f329a0f190","ios":"levelo://app?vid=57bb26db-80ae-4549-a5af-26f329a0f190"},"vehicle_type_id":"4","last_reported":1726042327,"current_range_meters":27600,"station_id":"ce4bgi92rcd13ifvqb90","pricing_plan_id":"cebpf4jnsgd1na2vs0mg"},{"bike_id":"3372661c-4ea4-4fcb-bbe3-72fa836c3db5","system_id":"levelo_inurba_marseille","lat":43.26558,"lon":5.37283,"is_reserved":false,"is_disabled":false,"rental_uris":{"android":"levelo://app?vid=3372661c-4ea4-4fcb-bbe3-72fa836c3db5","ios":"levelo://app?vid=3372661c-4ea4-4fcb-bbe3-72fa836c3db5"},"vehicle_type_id":"4","last_reported":1726042327,"current_range_meters":20000,"station_id":"ce4bhg12rcd13ifvqf70","pricing_plan_id":"cebpf4jnsgd1na2vs0mg"},{"bike_id":"d5b556f9-7894-4958-be4d-3a1142e0906e","system_id":"levelo_inurba_marseille","lat":43.30136,"lon":5.37418,"is_reserved":false,"is_disabled":false,"rental_uris":{"android":"levelo://app?vid=d5b556f9-7894-4958-be4d-3a1142e0906e","ios":"levelo://app?vid=d5b556f9-7894-4958-be4d-3a1142e0906e"},"vehicle_type_id":"4","last_reported":1726042327,"current_range_meters":25600,"station_id":"ce4bgs92rcd13ifvqcc0","pricing_plan_id":"cebpf4jnsgd1na2vs0mg"},{"bike_id":"e31a53ee-4e53-49dc-9ac9-a6fd420f368e","system_id":"levelo_inurba_marseille","lat":43.23156,"lon":5.43699,"is_reserved":false,"is_disabled":false,"rental_uris":{"android":"levelo://app?vid=e31a53ee-4e53-49dc-9ac9-a6fd420f368e","ios":"levelo://app?vid=e31a53ee-4e53-49dc-9ac9-a6fd420f368e"},"vehicle_type_id":"4","last_reported":1726042327,"current_range_meters":26800,"station_id":"ce4bhmp2rcd13ifvqgog","pricing_plan_id":"cebpf4jnsgd1na2vs0mg"},{"bike_id":"f3e09029-e952-48e6-8aff-b1e72566ae98","system_id":"levelo_inurba_marseille","lat":43.32544,"lon":5.41435,"is_reserved":false,"is_disabled":false,"rental_uris":{"android":"levelo://app?vid=f3e09029-e952-48e6-8aff-b1e72566ae98","ios":"levelo://app?vid=f3e09029-e952-48e6-8aff-b1e72566ae98"},"vehicle_type_id":"4","last_reported":1726042327,"current_range_meters":7200,"station_id":"ce4bhq12rcd13ifvqhhg","pricing_plan_id":"cebpf4jnsgd1na2vs0mg"},{"bike_id":"95b66875-4347-4f7e-bb6f-c326ae0b5674","system_id":"levelo_inurba_marseille","lat":43.30453,"lon":5.37908,"is_reserved":false,"is_disabled":false,"rental_uris":{"android":"levelo://app?vid=95b66875-4347-4f7e-bb6f-c326ae0b5674","ios":"levelo://app?vid=95b66875-4347-4f7e-bb6f-c326ae0b5674"},"vehicle_type_id":"4","last_reported":1726042327,"current_range_meters":7200,"station_id":"ce4bgup2rcd13ifvqcn0","pricing_plan_id":"cebpf4jnsgd1na2vs0mg"},{"bike_id":"77c34856-e4b3-44d5-bd24-bb04ac639439","system_id":"levelo_inurba_marseille","lat":43.29368,"lon":5.378412,"is_reserved":false,"is_disabled":false,"rental_uris":{"android":"levelo://app?vid=77c34856-e4b3-44d5-bd24-bb04ac639439","ios":"levelo://app?vid=77c34856-e4b3-44d5-bd24-bb04ac639439"},"vehicle_type_id":"4","last_reported":1726042327,"current_range_meters":35600,"station_id":"ce4bgjh2rcd13ifvqbf0","pricing_plan_id":"cebpf4jnsgd1na2vs0mg"},{"bike_id":"c8e0fcb6-1d3f-4d83-b861-1f56e6b3ab2c","system_id":"levelo_inurba_marseille","lat":43.32282,"lon":5.3827,"is_reserved":false,"is_disabled":false,"rental_uris":{"android":"levelo://app?vid=c8e0fcb6-1d3f-4d83-b861-1f56e6b3ab2c","ios":"levelo://app?vid=c8e0fcb6-1d3f-4d83-b861-1f56e6b3ab2c"},"vehicle_type_id":"4","last_reported":1726042327,"current_range_meters":32400,"station_id":"ce4bhr12rcd13ifvqhqg","pricing_plan_id":"cebpf4jnsgd1na2vs0mg"},{"bike_id":"f8f6cfc1-dcc0-4116-a9c1-25e11afa8dcc","system_id":"levelo_inurba_marseille","lat":43.31348,"lon":5.36733,"is_reserved":false,"is_disabled":false,"rental_uris":{"android":"levelo://app?vid=f8f6cfc1-dcc0-4116-a9c1-25e11afa8dcc","ios":"levelo://app?vid=f8f6cfc1-dcc0-4116-a9c1-25e11afa8dcc"},"vehicle_type_id":"4","last_reported":1726042327,"current_range_meters":14000,"station_id":"ce4bgr92rcd13ifvqc6g","pricing_plan_id":"cebpf4jnsgd1na2vs0mg"},{"bike_id":"394ba6fe-4a64-44af-8ad8-9ff0cdf59d14","system_id":"levelo_inurba_marseille","lat":43.30548,"lon":5.36555,"is_reserved":false,"is_disabled":false,"rental_uris":{"android":"levelo://app?vid=394ba6fe-4a64-44af-8ad8-9ff0cdf59d14","ios":"levelo://app?vid=394ba6fe-4a64-44af-8ad8-9ff0cdf59d14"},"vehicle_type_id":"4","last_reported":1726042327,"current_range_meters":19200,"station_id":"ce4bgs12rcd13ifvqcag","pricing_plan_id":"cebpf4jnsgd1na2vs0mg"},{"bike_id":"9f1f5131-eecc-466a-baa8-e3c893b93973","system_id":"levelo_inurba_marseille","lat":43.31223,"lon":5.36865,"is_reserved":false,"is_disabled":false,"rental_uris":{"android":"levelo://app?vid=9f1f5131-eecc-466a-baa8-e3c893b93973","ios":"levelo://app?vid=9f1f5131-eecc-466a-baa8-e3c893b93973"},"vehicle_type_id":"4","last_reported":1726042327,"current_range_meters":11200,"station_id":"ce4bgl92rcd13ifvqbq0","pricing_plan_id":"cebpf4jnsgd1na2vs0mg"},{"bike_id":"33c39d1d-7dae-4444-8c41-c5ed72e67378","system_id":"levelo_inurba_marseille","lat":43.30462,"lon":5.37904,"is_reserved":false,"is_disabled":false,"rental_uris":{"android":"levelo://app?vid=33c39d1d-7dae-4444-8c41-c5ed72e67378","ios":"levelo://app?vid=33c39d1d-7dae-4444-8c41-c5ed72e67378"},"vehicle_type_id":"4","last_reported":1726042327,"current_range_meters":40000,"station_id":"ce4bgup2rcd13ifvqcn0","pricing_plan_id":"cebpf4jnsgd1na2vs0mg"},{"bike_id":"9a3b46d7-7efe-4e0e-8319-4aa5e0ea9bf2","system_id":"levelo_inurba_marseille","lat":43.30274,"lon":5.37697,"is_reserved":false,"is_disabled":false,"rental_uris":{"android":"levelo://app?vid=9a3b46d7-7efe-4e0e-8319-4aa5e0ea9bf2","ios":"levelo://app?vid=9a3b46d7-7efe-4e0e-8319-4aa5e0ea9bf2"},"vehicle_type_id":"4","last_reported":1726042327,"current_range_meters":30800,"station_id":"ce4bguh2rcd13ifvqcj0","pricing_plan_id":"cebpf4jnsgd1na2vs0mg"},{"bike_id":"5458883e-48f6-4f3e-8dcf-785f087183e9","system_id":"levelo_inurba_marseille","lat":43.240701,"lon":5.377605,"is_reserved":false,"is_disabled":false,"rental_uris":{"android":"levelo://app?vid=5458883e-48f6-4f3e-8dcf-785f087183e9","ios":"levelo://app?vid=5458883e-48f6-4f3e-8dcf-785f087183e9"},"vehicle_type_id":"4","last_reported":1726042327,"current_range_meters":16400,"station_id":"ce4bhnp2rcd13ifvqgvg","pricing_plan_id":"cebpf4jnsgd1na2vs0mg"},{"bike_id":"74e737b5-82b3-4055-9407-d70bde56ceed","system_id":"levelo_inurba_marseille","lat":43.313945,"lon":5.374128,"is_reserved":false,"is_disabled":false,"rental_uris":{"android":"levelo://app?vid=74e737b5-82b3-4055-9407-d70bde56ceed","ios":"levelo://app?vid=74e737b5-82b3-4055-9407-d70bde56ceed"},"vehicle_type_id":"4","last_reported":1726042327,"current_range_meters":34000,"station_id":"","pricing_plan_id":"cebpf4jnsgd1na2vs0mg"},{"bike_id":"9610f388-60c6-49bb-84bb-4ea91a1f925b","system_id":"levelo_inurba_marseille","lat":43.29551,"lon":5.42278,"is_reserved":false,"is_disabled":false,"rental_uris":{"android":"levelo://app?vid=9610f388-60c6-49bb-84bb-4ea91a1f925b","ios":"levelo://app?vid=9610f388-60c6-49bb-84bb-4ea91a1f925b"},"vehicle_type_id":"4","last_reported":1726042327,"current_range_meters":6000,"station_id":"ce4bhph2rcd13ifvqhdg","pricing_plan_id":"cebpf4jnsgd1na2vs0mg"},{"bike_id":"b979827e-ffa2-4465-8490-36166590de00","system_id":"levelo_inurba_marseille","lat":43.24065,"lon":5.37753,"is_reserved":false,"is_disabled":false,"rental_uris":{"android":"levelo://app?vid=b979827e-ffa2-4465-8490-36166590de00","ios":"levelo://app?vid=b979827e-ffa2-4465-8490-36166590de00"},"vehicle_type_id":"4","last_reported":1726042327,"current_range_meters":36000,"station_id":"ce4bhnp2rcd13ifvqgvg","pricing_plan_id":"cebpf4jnsgd1na2vs0mg"},{"bike_id":"19d5e365-10b9-4743-b125-03759b9d0bc7","system_id":"levelo_inurba_marseille","lat":43.25496,"lon":5.37641,"is_reserved":false,"is_disabled":false,"rental_uris":{"android":"levelo://app?vid=19d5e365-10b9-4743-b125-03759b9d0bc7","ios":"levelo://app?vid=19d5e365-10b9-4743-b125-03759b9d0bc7"},"vehicle_type_id":"4","last_reported":1726042327,"current_range_meters":3200,"station_id":"ce4bhh12rcd13ifvqff0","pricing_plan_id":"cebpf4jnsgd1na2vs0mg"},{"bike_id":"cbd47430-6678-4dfb-8022-31198711ea30","system_id":"levelo_inurba_marseille","lat":43.27489,"lon":5.42459,"is_reserved":false,"is_disabled":false,"rental_uris":{"android":"levelo://app?vid=cbd47430-6678-4dfb-8022-31198711ea30","ios":"levelo://app?vid=cbd47430-6678-4dfb-8022-31198711ea30"},"vehicle_type_id":"4","last_reported":1726042327,"current_range_meters":30400,"station_id":"ce4bhn92rcd13ifvqgrg","pricing_plan_id":"cebpf4jnsgd1na2vs0mg"},{"bike_id":"3e7d6579-011c-4e59-83ea-dab4e297703e","system_id":"levelo_inurba_marseille","lat":43.27492,"lon":5.42456,"is_reserved":false,"is_disabled":false,"rental_uris":{"android":"levelo://app?vid=3e7d6579-011c-4e59-83ea-dab4e297703e","ios":"levelo://app?vid=3e7d6579-011c-4e59-83ea-dab4e297703e"},"vehicle_type_id":"4","last_reported":1726042327,"current_range_meters":19200,"station_id":"ce4bhn92rcd13ifvqgrg","pricing_plan_id":"cebpf4jnsgd1na2vs0mg"},{"bike_id":"686200cf-ae29-4aac-802a-2e115e5925d1","system_id":"levelo_inurba_marseille","lat":43.2781,"lon":5.40714,"is_reserved":false,"is_disabled":false,"rental_uris":{"android":"levelo://app?vid=686200cf-ae29-4aac-802a-2e115e5925d1","ios":"levelo://app?vid=686200cf-ae29-4aac-802a-2e115e5925d1"},"vehicle_type_id":"4","last_reported":1726042327,"current_range_meters":4000,"station_id":"ce4bhnh2rcd13ifvqgtg","pricing_plan_id":"cebpf4jnsgd1na2vs0mg"},{"bike_id":"79c554e0-a5b3-40e4-a76f-e5d5a68a6672","system_id":"levelo_inurba_marseille","lat":43.30455,"lon":5.37904,"is_reserved":false,"is_disabled":false,"rental_uris":{"android":"levelo://app?vid=79c554e0-a5b3-40e4-a76f-e5d5a68a6672","ios":"levelo://app?vid=79c554e0-a5b3-40e4-a76f-e5d5a68a6672"},"vehicle_type_id":"4","last_reported":1726042327,"current_range_meters":32800,"station_id":"ce4bgup2rcd13ifvqcn0","pricing_plan_id":"cebpf4jnsgd1na2vs0mg"},{"bike_id":"aa9c2c5d-9213-49c0-84f0-e2f7706bf7e0","system_id":"levelo_inurba_marseille","lat":43.30903,"lon":5.36848,"is_reserved":false,"is_disabled":false,"rental_uris":{"android":"levelo://app?vid=aa9c2c5d-9213-49c0-84f0-e2f7706bf7e0","ios":"levelo://app?vid=aa9c2c5d-9213-49c0-84f0-e2f7706bf7e0"},"vehicle_type_id":"4","last_reported":1726042327,"current_range_meters":24400,"station_id":"ce4bgn92rcd13ifvqbvg","pricing_plan_id":"cebpf4jnsgd1na2vs0mg"},{"bike_id":"51e13f07-3491-4911-be5b-b4c992f74f41","system_id":"levelo_inurba_marseille","lat":43.27808,"lon":5.40718,"is_reserved":false,"is_disabled":false,"rental_uris":{"android":"levelo://app?vid=51e13f07-3491-4911-be5b-b4c992f74f41","ios":"levelo://app?vid=51e13f07-3491-4911-be5b-b4c992f74f41"},"vehicle_type_id":"4","last_reported":1726042327,"current_range_meters":26800,"station_id":"ce4bhnh2rcd13ifvqgtg","pricing_plan_id":"cebpf4jnsgd1na2vs0mg"},{"bike_id":"95f898e9-721b-48b2-851f-bef15c678821","system_id":"levelo_inurba_marseille","lat":43.30919,"lon":5.36853,"is_reserved":false,"is_disabled":false,"rental_uris":{"android":"levelo://app?vid=95f898e9-721b-48b2-851f-bef15c678821","ios":"levelo://app?vid=95f898e9-721b-48b2-851f-bef15c678821"},"vehicle_type_id":"4","last_reported":1726042327,"current_range_meters":18800,"station_id":"ce4bgn92rcd13ifvqbvg","pricing_plan_id":"cebpf4jnsgd1na2vs0mg"},{"bike_id":"5828ca84-6055-4b4f-b6cc-9dcb2c01f1b4","system_id":"levelo_inurba_marseille","lat":43.34142,"lon":5.40896,"is_reserved":false,"is_disabled":false,"rental_uris":{"android":"levelo://app?vid=5828ca84-6055-4b4f-b6cc-9dcb2c01f1b4","ios":"levelo://app?vid=5828ca84-6055-4b4f-b6cc-9dcb2c01f1b4"},"vehicle_type_id":"4","last_reported":1726042327,"current_range_meters":28400,"station_id":"ce4bhqh2rcd13ifvqhlg","pricing_plan_id":"cebpf4jnsgd1na2vs0mg"},{"bike_id":"4dfaeb16-4ad1-4c9d-bc8d-824173f80fbc","system_id":"levelo_inurba_marseille","lat":43.2407,"lon":5.3776,"is_reserved":false,"is_disabled":false,"rental_uris":{"android":"levelo://app?vid=4dfaeb16-4ad1-4c9d-bc8d-824173f80fbc","ios":"levelo://app?vid=4dfaeb16-4ad1-4c9d-bc8d-824173f80fbc"},"vehicle_type_id":"4","last_reported":1726042327,"current_range_meters":12800,"station_id":"ce4bhnp2rcd13ifvqgvg","pricing_plan_id":"cebpf4jnsgd1na2vs0mg"},{"bike_id":"f400d370-a20e-4ced-86f0-64f62510749c","system_id":"levelo_inurba_marseille","lat":43.3237,"lon":5.38926,"is_reserved":false,"is_disabled":false,"rental_uris":{"android":"levelo://app?vid=f400d370-a20e-4ced-86f0-64f62510749c","ios":"levelo://app?vid=f400d370-a20e-4ced-86f0-64f62510749c"},"vehicle_type_id":"4","last_reported":1726042327,"current_range_meters":14800,"station_id":"","pricing_plan_id":"cebpf4jnsgd1na2vs0mg"},{"bike_id":"88d02e52-7466-442c-a697-a70eac9f6e7e","system_id":"levelo_inurba_marseille","lat":43.31721,"lon":5.42395,"is_reserved":false,"is_disabled":false,"rental_uris":{"android":"levelo://app?vid=88d02e52-7466-442c-a697-a70eac9f6e7e","ios":"levelo://app?vid=88d02e52-7466-442c-a697-a70eac9f6e7e"},"vehicle_type_id":"4","last_reported":1726042327,"current_range_meters":10000,"station_id":"ce4bhp92rcd13ifvqhbg","pricing_plan_id":"cebpf4jnsgd1na2vs0mg"},{"bike_id":"65c5f794-7f50-4cfb-9498-42ec222f456f","system_id":"levelo_inurba_marseille","lat":43.30548,"lon":5.36535,"is_reserved":false,"is_disabled":false,"rental_uris":{"android":"levelo://app?vid=65c5f794-7f50-4cfb-9498-42ec222f456f","ios":"levelo://app?vid=65c5f794-7f50-4cfb-9498-42ec222f456f"},"vehicle_type_id":"4","last_reported":1726042327,"current_range_meters":11200,"station_id":"ce4bgs12rcd13ifvqcag","pricing_plan_id":"cebpf4jnsgd1na2vs0mg"},{"bike_id":"71406c8e-1af6-40f5-8f98-736a9c038d8c","system_id":"levelo_inurba_marseille","lat":43.26787,"lon":5.39409,"is_reserved":false,"is_disabled":false,"rental_uris":{"android":"levelo://app?vid=71406c8e-1af6-40f5-8f98-736a9c038d8c","ios":"levelo://app?vid=71406c8e-1af6-40f5-8f98-736a9c038d8c"},"vehicle_type_id":"4","last_reported":1726042327,"current_range_meters":17200,"station_id":"ce4bhh12rcd13ifvqfg0","pricing_plan_id":"cebpf4jnsgd1na2vs0mg"},{"bike_id":"143049cf-4830-4219-a121-2a60df83aa5d","system_id":"levelo_inurba_marseille","lat":43.337444,"lon":5.374475,"is_reserved":false,"is_disabled":false,"rental_uris":{"android":"levelo://app?vid=143049cf-4830-4219-a121-2a60df83aa5d","ios":"levelo://app?vid=143049cf-4830-4219-a121-2a60df83aa5d"},"vehicle_type_id":"4","last_reported":1726042327,"current_range_meters":38000,"station_id":"","pricing_plan_id":"cebpf4jnsgd1na2vs0mg"},{"bike_id":"7dc17019-6258-482c-8dcc-2406a71097bc","system_id":"levelo_inurba_marseille","lat":43.28707,"lon":5.3999,"is_reserved":false,"is_disabled":false,"rental_uris":{"android":"levelo://app?vid=7dc17019-6258-482c-8dcc-2406a71097bc","ios":"levelo://app?vid=7dc17019-6258-482c-8dcc-2406a71097bc"},"vehicle_type_id":"4","last_reported":1726042327,"current_range_meters":30400,"station_id":"ce4bho92rcd13ifvqh3g","pricing_plan_id":"cebpf4jnsgd1na2vs0mg"},{"bike_id":"662f53c6-3511-4d32-a325-7f7f91a5144b","system_id":"levelo_inurba_marseille","lat":43.30545,"lon":5.36526,"is_reserved":false,"is_disabled":false,"rental_uris":{"android":"levelo://app?vid=662f53c6-3511-4d32-a325-7f7f91a5144b","ios":"levelo://app?vid=662f53c6-3511-4d32-a325-7f7f91a5144b"},"vehicle_type_id":"4","last_reported":1726042327,"current_range_meters":28000,"station_id":"ce4bgs12rcd13ifvqcag","pricing_plan_id":"cebpf4jnsgd1na2vs0mg"},{"bike_id":"d91f40bd-2003-4728-be0f-42ff0a3814b1","system_id":"levelo_inurba_marseille","lat":43.26057,"lon":5.39399,"is_reserved":false,"is_disabled":false,"rental_uris":{"android":"levelo://app?vid=d91f40bd-2003-4728-be0f-42ff0a3814b1","ios":"levelo://app?vid=d91f40bd-2003-4728-be0f-42ff0a3814b1"},"vehicle_type_id":"4","last_reported":1726042327,"current_range_meters":28400,"station_id":"ce4bhh92rcd13ifvqfj0","pricing_plan_id":"cebpf4jnsgd1na2vs0mg"},{"bike_id":"0c3f8653-dd00-4eb5-ba42-702ca2f6836a","system_id":"levelo_inurba_marseille","lat":43.290115,"lon":5.399806,"is_reserved":false,"is_disabled":false,"rental_uris":{"android":"levelo://app?vid=0c3f8653-dd00-4eb5-ba42-702ca2f6836a","ios":"levelo://app?vid=0c3f8653-dd00-4eb5-ba42-702ca2f6836a"},"vehicle_type_id":"4","last_reported":1726042327,"current_range_meters":21600,"station_id":"ce4bh392rcd13ifvqdm0","pricing_plan_id":"cebpf4jnsgd1na2vs0mg"},{"bike_id":"f4009bc6-11c9-4120-bb17-94112c627b0c","system_id":"levelo_inurba_marseille","lat":43.30459,"lon":5.37895,"is_reserved":false,"is_disabled":false,"rental_uris":{"android":"levelo://app?vid=f4009bc6-11c9-4120-bb17-94112c627b0c","ios":"levelo://app?vid=f4009bc6-11c9-4120-bb17-94112c627b0c"},"vehicle_type_id":"4","last_reported":1726042327,"current_range_meters":2000,"station_id":"ce4bgup2rcd13ifvqcn0","pricing_plan_id":"cebpf4jnsgd1na2vs0mg"},{"bike_id":"e5ed0075-14c4-4d1d-a9af-a1ffecf526a7","system_id":"levelo_inurba_marseille","lat":43.29843,"lon":5.36265,"is_reserved":false,"is_disabled":false,"rental_uris":{"android":"levelo://app?vid=e5ed0075-14c4-4d1d-a9af-a1ffecf526a7","ios":"levelo://app?vid=e5ed0075-14c4-4d1d-a9af-a1ffecf526a7"},"vehicle_type_id":"4","last_reported":1726042327,"current_range_meters":28800,"station_id":"ce4bgpp2rcd13ifvqc3g","pricing_plan_id":"cebpf4jnsgd1na2vs0mg"},{"bike_id":"38b29daa-05a9-4468-b855-697ff9da1a2e","system_id":"levelo_inurba_marseille","lat":43.26953,"lon":5.38628,"is_reserved":false,"is_disabled":false,"rental_uris":{"android":"levelo://app?vid=38b29daa-05a9-4468-b855-697ff9da1a2e","ios":"levelo://app?vid=38b29daa-05a9-4468-b855-697ff9da1a2e"},"vehicle_type_id":"4","last_reported":1726042327,"current_range_meters":13600,"station_id":"ce4bhh92rcd13ifvqfh0","pricing_plan_id":"cebpf4jnsgd1na2vs0mg"},{"bike_id":"efb90d7e-2c7c-486d-95ca-2cb71fb25773","system_id":"levelo_inurba_marseille","lat":43.27485,"lon":5.42469,"is_reserved":false,"is_disabled":false,"rental_uris":{"android":"levelo://app?vid=efb90d7e-2c7c-486d-95ca-2cb71fb25773","ios":"levelo://app?vid=efb90d7e-2c7c-486d-95ca-2cb71fb25773"},"vehicle_type_id":"4","last_reported":1726042327,"current_range_meters":16400,"station_id":"ce4bhn92rcd13ifvqgrg","pricing_plan_id":"cebpf4jnsgd1na2vs0mg"},{"bike_id":"09abad43-3514-432e-9bd2-422f8d45c40f","system_id":"levelo_inurba_marseille","lat":43.323368,"lon":5.406216,"is_reserved":false,"is_disabled":false,"rental_uris":{"android":"levelo://app?vid=09abad43-3514-432e-9bd2-422f8d45c40f","ios":"levelo://app?vid=09abad43-3514-432e-9bd2-422f8d45c40f"},"vehicle_type_id":"4","last_reported":1726042327,"current_range_meters":13600,"station_id":"ce4bhq92rcd13ifvqhjg","pricing_plan_id":"cebpf4jnsgd1na2vs0mg"},{"bike_id":"cec131b6-6c84-4899-9723-159f4b060af5","system_id":"levelo_inurba_marseille","lat":43.31657,"lon":5.37729,"is_reserved":false,"is_disabled":false,"rental_uris":{"android":"levelo://app?vid=cec131b6-6c84-4899-9723-159f4b060af5","ios":"levelo://app?vid=cec131b6-6c84-4899-9723-159f4b060af5"},"vehicle_type_id":"4","last_reported":1726042327,"current_range_meters":8400,"station_id":"ce4bgth2rcd13ifvqch0","pricing_plan_id":"cebpf4jnsgd1na2vs0mg"},{"bike_id":"06546f5a-32e2-44f6-9109-ef698523fba5","system_id":"levelo_inurba_marseille","lat":43.26574,"lon":5.39004,"is_reserved":false,"is_disabled":false,"rental_uris":{"android":"levelo://app?vid=06546f5a-32e2-44f6-9109-ef698523fba5","ios":"levelo://app?vid=06546f5a-32e2-44f6-9109-ef698523fba5"},"vehicle_type_id":"4","last_reported":1726042327,"current_range_meters":35200,"station_id":"ce4bhe12rcd13ifvqf30","pricing_plan_id":"cebpf4jnsgd1na2vs0mg"},{"bike_id":"2cfe9cf9-8c5e-4154-acba-0a54170b6cb3","system_id":"levelo_inurba_marseille","lat":43.25933,"lon":5.40912,"is_reserved":false,"is_disabled":false,"rental_uris":{"android":"levelo://app?vid=2cfe9cf9-8c5e-4154-acba-0a54170b6cb3","ios":"levelo://app?vid=2cfe9cf9-8c5e-4154-acba-0a54170b6cb3"},"vehicle_type_id":"4","last_reported":1726042327,"current_range_meters":36800,"station_id":"ce4bhm92rcd13ifvqglg","pricing_plan_id":"cebpf4jnsgd1na2vs0mg"},{"bike_id":"b28d705b-3cc2-4c10-9096-b8f931c31076","system_id":"levelo_inurba_marseille","lat":43.30519,"lon":5.36719,"is_reserved":false,"is_disabled":false,"rental_uris":{"android":"levelo://app?vid=b28d705b-3cc2-4c10-9096-b8f931c31076","ios":"levelo://app?vid=b28d705b-3cc2-4c10-9096-b8f931c31076"},"vehicle_type_id":"4","last_reported":1726042327,"current_range_meters":16400,"station_id":"ce4bgrp2rcd13ifvqc9g","pricing_plan_id":"cebpf4jnsgd1na2vs0mg"},{"bike_id":"008685fb-3e4b-4a86-b668-f6b44233c388","system_id":"levelo_inurba_marseille","lat":43.25757,"lon":5.39308,"is_reserved":false,"is_disabled":false,"rental_uris":{"android":"levelo://app?vid=008685fb-3e4b-4a86-b668-f6b44233c388","ios":"levelo://app?vid=008685fb-3e4b-4a86-b668-f6b44233c388"},"vehicle_type_id":"4","last_reported":1726042327,"current_range_meters":3200,"station_id":"","pricing_plan_id":"cebpf4jnsgd1na2vs0mg"},{"bike_id":"8a5d0165-80fd-4332-87be-71d01c7d67f5","system_id":"levelo_inurba_marseille","lat":43.29027,"lon":5.38127,"is_reserved":false,"is_disabled":false,"rental_uris":{"android":"levelo://app?vid=8a5d0165-80fd-4332-87be-71d01c7d67f5","ios":"levelo://app?vid=8a5d0165-80fd-4332-87be-71d01c7d67f5"},"vehicle_type_id":"4","last_reported":1726042327,"current_range_meters":9600,"station_id":"ce4bh4p2rcd13ifvqe1g","pricing_plan_id":"cebpf4jnsgd1na2vs0mg"},{"bike_id":"61cf4a3a-2942-44a8-a346-1fbbdf1a4d5c","system_id":"levelo_inurba_marseille","lat":43.23154,"lon":5.43701,"is_reserved":false,"is_disabled":false,"rental_uris":{"android":"levelo://app?vid=61cf4a3a-2942-44a8-a346-1fbbdf1a4d5c","ios":"levelo://app?vid=61cf4a3a-2942-44a8-a346-1fbbdf1a4d5c"},"vehicle_type_id":"4","last_reported":1726042327,"current_range_meters":14400,"station_id":"ce4bhmp2rcd13ifvqgog","pricing_plan_id":"cebpf4jnsgd1na2vs0mg"},{"bike_id":"51a0aa09-fb9a-4cd3-8b0d-1ac842f18910","system_id":"levelo_inurba_marseille","lat":43.287155,"lon":5.379335,"is_reserved":false,"is_disabled":false,"rental_uris":{"android":"levelo://app?vid=51a0aa09-fb9a-4cd3-8b0d-1ac842f18910","ios":"levelo://app?vid=51a0aa09-fb9a-4cd3-8b0d-1ac842f18910"},"vehicle_type_id":"4","last_reported":1726042327,"current_range_meters":24000,"station_id":"ce4bh9p2rcd13ifvqec0","pricing_plan_id":"cebpf4jnsgd1na2vs0mg"},{"bike_id":"6bae01a8-ba1f-420f-b06d-c8a7dfde70f9","system_id":"levelo_inurba_marseille","lat":43.30461,"lon":5.37898,"is_reserved":false,"is_disabled":false,"rental_uris":{"android":"levelo://app?vid=6bae01a8-ba1f-420f-b06d-c8a7dfde70f9","ios":"levelo://app?vid=6bae01a8-ba1f-420f-b06d-c8a7dfde70f9"},"vehicle_type_id":"4","last_reported":1726042327,"current_range_meters":2800,"station_id":"ce4bgup2rcd13ifvqcn0","pricing_plan_id":"cebpf4jnsgd1na2vs0mg"},{"bike_id":"0355e768-9837-4e19-b5cb-35a830899366","system_id":"levelo_inurba_marseille","lat":43.27489,"lon":5.42458,"is_reserved":false,"is_disabled":false,"rental_uris":{"android":"levelo://app?vid=0355e768-9837-4e19-b5cb-35a830899366","ios":"levelo://app?vid=0355e768-9837-4e19-b5cb-35a830899366"},"vehicle_type_id":"4","last_reported":1726042327,"current_range_meters":20000,"station_id":"ce4bhn92rcd13ifvqgrg","pricing_plan_id":"cebpf4jnsgd1na2vs0mg"},{"bike_id":"38a69614-fc80-4fe6-9020-2aa2f561d214","system_id":"levelo_inurba_marseille","lat":43.2668,"lon":5.38264,"is_reserved":false,"is_disabled":false,"rental_uris":{"android":"levelo://app?vid=38a69614-fc80-4fe6-9020-2aa2f561d214","ios":"levelo://app?vid=38a69614-fc80-4fe6-9020-2aa2f561d214"},"vehicle_type_id":"4","last_reported":1726042327,"current_range_meters":38000,"station_id":"ce4bhg92rcd13ifvqf90","pricing_plan_id":"cebpf4jnsgd1na2vs0mg"},{"bike_id":"cec1f9c3-f935-49fa-9c33-44dd73c28b4d","system_id":"levelo_inurba_marseille","lat":43.32485,"lon":5.3657,"is_reserved":false,"is_disabled":false,"rental_uris":{"android":"levelo://app?vid=cec1f9c3-f935-49fa-9c33-44dd73c28b4d","ios":"levelo://app?vid=cec1f9c3-f935-49fa-9c33-44dd73c28b4d"},"vehicle_type_id":"4","last_reported":1726042327,"current_range_meters":38000,"station_id":"ce4bhs12rcd13ifvqhvg","pricing_plan_id":"cebpf4jnsgd1na2vs0mg"},{"bike_id":"44f32411-a978-4e5c-8794-5490ed45ba7d","system_id":"levelo_inurba_marseille","lat":43.33768,"lon":5.37425,"is_reserved":false,"is_disabled":false,"rental_uris":{"android":"levelo://app?vid=44f32411-a978-4e5c-8794-5490ed45ba7d","ios":"levelo://app?vid=44f32411-a978-4e5c-8794-5490ed45ba7d"},"vehicle_type_id":"4","last_reported":1726042327,"current_range_meters":35600,"station_id":"","pricing_plan_id":"cebpf4jnsgd1na2vs0mg"},{"bike_id":"91cd5b35-b57c-47fc-a01d-dfcac2c005aa","system_id":"levelo_inurba_marseille","lat":43.292878,"lon":5.374624,"is_reserved":false,"is_disabled":false,"rental_uris":{"android":"levelo://app?vid=91cd5b35-b57c-47fc-a01d-dfcac2c005aa","ios":"levelo://app?vid=91cd5b35-b57c-47fc-a01d-dfcac2c005aa"},"vehicle_type_id":"4","last_reported":1726042327,"current_range_meters":34800,"station_id":"ce4bgi12rcd13ifvqb70","pricing_plan_id":"cebpf4jnsgd1na2vs0mg"},{"bike_id":"a5637a8b-38f0-4dcf-bb5c-f0548702728e","system_id":"levelo_inurba_marseille","lat":43.24071,"lon":5.37757,"is_reserved":false,"is_disabled":false,"rental_uris":{"android":"levelo://app?vid=a5637a8b-38f0-4dcf-bb5c-f0548702728e","ios":"levelo://app?vid=a5637a8b-38f0-4dcf-bb5c-f0548702728e"},"vehicle_type_id":"4","last_reported":1726042327,"current_range_meters":36400,"station_id":"ce4bhnp2rcd13ifvqgvg","pricing_plan_id":"cebpf4jnsgd1na2vs0mg"},{"bike_id":"cd4d6f4d-c80a-4353-933b-1fafbf4b8f64","system_id":"levelo_inurba_marseille","lat":43.24168,"lon":5.36395,"is_reserved":false,"is_disabled":false,"rental_uris":{"android":"levelo://app?vid=cd4d6f4d-c80a-4353-933b-1fafbf4b8f64","ios":"levelo://app?vid=cd4d6f4d-c80a-4353-933b-1fafbf4b8f64"},"vehicle_type_id":"4","last_reported":1726042327,"current_range_meters":28400,"station_id":"cpo36qri1sfpv3e86is0","pricing_plan_id":"cebpf4jnsgd1na2vs0mg"},