{"last_updated":1712682403,"ttl":30,"version":"2.2","data":{"bikes":[{"bike_id":"c4917271-66ca-4121-9878-cde84b5e1cd0","system_id":"levelo_inurba_marseille","lat":43.312239,"lon":5.368562,"is_reserved":false,"is_disabled":false,"rental_uris":{"android":"levelo://app?vid=c4917271-66ca-4121-9878-cde84b5e1cd0","ios":"levelo://app?vid=c4917271-66ca-4121-9878-cde84b5e1cd0"},"vehicle_type_id":"4","last_reported":1712682403,"current_range_meters":0,"station_id":"ce4bgl92rcd13ifvqbq0","pricing_plan_id":"cebpf4jnsgd1na2vs0mg"},{"bike_id":"70fa0ed7-b309-479c-93ff-1434d50e5f12","system_id":"levelo_inurba_marseille","lat":43.314811,"lon":5.373103,"is_reserved":false,"is_disabled":false,"rental_uris":{"android":"levelo://app?vid=70fa0ed7-b309-479c-93ff-1434d50e5f12","ios":"levelo://app?vid=70fa0ed7-b309-479c-93ff-1434d50e5f12"},"vehicle_type_id":"4","last_reported":1712682403,"current_range_meters":400,"station_id":"ce4bgt12rcd13ifvqcd0","pricing_plan_id":"cebpf4jnsgd1na2vs0mg"},{"bike_id":"6989d402-592a-426c-8637-dc882ab67b31","system_id":"levelo_inurba_marseille","lat":43.307802,"lon":5.367637,"is_reserved":false,"is_disabled":false,"rental_uris":{"android":"levelo://app?vid=6989d402-592a-426c-8637-dc882ab67b31","ios":"levelo://app?vid=6989d402-592a-426c-8637-dc882ab67b31"},"vehicle_type_id":"4","last_reported":1712682403,"current_range_meters":0,"station_id":"","pricing_plan_id":"cebpf4jnsgd1na2vs0mg"},{"bike_id":"e6729a3c-4b29-40b8-900d-d0d9bdb95785","system_id":"levelo_inurba_marseille","lat":43.314811,"lon":5.373103,"is_reserved":false,"is_disabled":false,"rental_uris":{"android":"levelo://app?vid=e6729a3c-4b29-40b8-900d-d0d9bdb95785","ios":"levelo://app?vid=e6729a3c-4b29-40b8-900d-d0d9bdb95785"},"vehicle_type_id":"4","last_reported":1712682403,"current_range_meters":7600,"station_id":"ce4bgt12rcd13ifvqcd0","pricing_plan_id":"cebpf4jnsgd1na2vs0mg"},{"bike_id":"30433507-82cb-4e01-8812-c8c94ebb3604","system_id":"levelo_inurba_marseille","lat":43.31495,"lon":5.373053,"is_reserved":false,"is_disabled":false,"rental_uris":{"android":"levelo://app?vid=30433507-82cb-4e01-8812-c8c94ebb3604","ios":"levelo://app?vid=30433507-82cb-4e01-8812-c8c94ebb3604"},"vehicle_type_id":"4","last_reported":1712682403,"current_range_meters":3600,"station_id":"ce4bgt12rcd13ifvqcd0","pricing_plan_id":"cebpf4jnsgd1na2vs0mg"},{"bike_id":"73706916-b3f3-4ff0-b068-cec67895e8b1","system_id":"levelo_inurba_marseille","lat":43.306538,"lon":5.366982,"is_reserved":false,"is_disabled":false,"rental_uris":{"android":"levelo://app?vid=73706916-b3f3-4ff0-b068-cec67895e8b1","ios":"levelo://app?vid=73706916-b3f3-4ff0-b068-cec67895e8b1"},"vehicle_type_id":"4","last_reported":1712682403,"current_range_meters":0,"station_id":"","pricing_plan_id":"cebpf4jnsgd1na2vs0mg"},{"bike_id":"5784eaa5-6745-495b-9286-6927fcfcb74d","system_id":"levelo_inurba_marseille","lat":43.305368,"lon":5.367343,"is_reserved":false,"is_disabled":false,"rental_uris":{"android":"levelo://app?vid=5784eaa5-6745-495b-9286-6927fcfcb74d","ios":"levelo://app?vid=5784eaa5-6745-495b-9286-6927fcfcb74d"},"vehicle_type_id":"4","last_reported":1712682403,"current_range_meters":0,"station_id":"ce4bgrp2rcd13ifvqc9g","pricing_plan_id":"cebpf4jnsgd1na2vs0mg"},{"bike_id":"a2d7f8ee-211c-4344-a4f7-9371d25b29ab","system_id":"levelo_inurba_marseille","lat":43.305368,"lon":5.367343,"is_reserved":false,"is_disabled":false,"rental_uris":{"android":"levelo://app?vid=a2d7f8ee-211c-4344-a4f7-9371d25b29ab","ios":"levelo://app?vid=a2d7f8ee-211c-4344-a4f7-9371d25b29ab"},"vehicle_type_id":"4","last_reported":1712682403,"current_range_meters":17600,"station_id":"ce4bgrp2rcd13ifvqc9g","pricing_plan_id":"cebpf4jnsgd1na2vs0mg"},{"bike_id":"23487c38-fee0-453c-bd35-aea61c09c438","system_id":"levelo_inurba_marseille","lat":43.305481,"lon":5.36545,"is_reserved":false,"is_disabled":false,"rental_uris":{"android":"levelo://app?vid=23487c38-fee0-453c-bd35-aea61c09c438","ios":"levelo://app?vid=23487c38-fee0-453c-bd35-aea61c09c438"},"vehicle_type_id":"4","last_reported":1712682403,"current_range_meters":0,"station_id":"ce4bgs12rcd13ifvqcag","pricing_plan_id":"cebpf4jnsgd1na2vs0mg"},{"bike_id":"3d625362-dce1-4294-8657-7960af9e8507","system_id":"levelo_inurba_marseille","lat":43.305368,"lon":5.367343,"is_reserved":false,"is_disabled":false,"rental_uris":{"android":"levelo://app?vid=3d625362-dce1-4294-8657-7960af9e8507","ios":"levelo://app?vid=3d625362-dce1-4294-8657-7960af9e8507"},"vehicle_type_id":"4","last_reported":1712682403,"current_range_meters":0,"station_id":"ce4bgrp2rcd13ifvqc9g","pricing_plan_id":"cebpf4jnsgd1na2vs0mg"},{"bike_id":"17e634e3-f116-4b6e-a4c7-183b075565b9","system_id":"levelo_inurba_marseille","lat":43.305989,"lon":5.37225,"is_reserved":false,"is_disabled":false,"rental_uris":{"android":"levelo://app?vid=17e634e3-f116-4b6e-a4c7-183b075565b9","ios":"levelo://app?vid=17e634e3-f116-4b6e-a4c7-183b075565b9"},"vehicle_type_id":"4","last_reported":1712682403,"current_range_meters":21600,"station_id":"ce4bgqh2rcd13ifvqc4g","pricing_plan_id":"cebpf4jnsgd1na2vs0mg"},{"bike_id":"638ddfe6-9d82-4add-8771-72fefe1ef36b","system_id":"levelo_inurba_marseille","lat":43.30592,"lon":5.37227,"is_reserved":false,"is_disabled":false,"rental_uris":{"android":"levelo://app?vid=638ddfe6-9d82-4add-8771-72fefe1ef36b","ios":"levelo://app?vid=638ddfe6-9d82-4add-8771-72fefe1ef36b"},"vehicle_type_id":"4","last_reported":1712682403,"current_range_meters":0,"station_id":"ce4bgqh2rcd13ifvqc4g","pricing_plan_id":"cebpf4jnsgd1na2vs0mg"},{"bike_id":"bb896614-9001-46aa-9a56-53200d4bea92","system_id":"levelo_inurba_marseille","lat":43.311131,"lon":5.377651,"is_reserved":false,"is_disabled":false,"rental_uris":{"android":"levelo://app?vid=bb896614-9001-46aa-9a56-53200d4bea92","ios":"levelo://app?vid=bb896614-9001-46aa-9a56-53200d4bea92"},"vehicle_type_id":"4","last_reported":1712682403,"current_range_meters":800,"station_id":"ce4bgt92rcd13ifvqcg0","pricing_plan_id":"cebpf4jnsgd1na2vs0mg"},{"bike_id":"0946e30c-21d6-4c5b-a227-68bb998e02b3","system_id":"levelo_inurba_marseille","lat":43.317075,"lon":5.377367,"is_reserved":false,"is_disabled":false,"rental_uris":{"android":"levelo://app?vid=0946e30c-21d6-4c5b-a227-68bb998e02b3","ios":"levelo://app?vid=0946e30c-21d6-4c5b-a227-68bb998e02b3"},"vehicle_type_id":"4","last_reported":1712682403,"current_range_meters":27600,"station_id":"ce4bgth2rcd13ifvqch0","pricing_plan_id":"cebpf4jnsgd1na2vs0mg"},{"bike_id":"990ec5de-d51b-4b42-bd5e-ac8614295c7b","system_id":"levelo_inurba_marseille","lat":43.317075,"lon":5.377367,"is_reserved":false,"is_disabled":false,"rental_uris":{"android":"levelo://app?vid=990ec5de-d51b-4b42-bd5e-ac8614295c7b","ios":"levelo://app?vid=990ec5de-d51b-4b42-bd5e-ac8614295c7b"},"vehicle_type_id":"4","last_reported":1712682403,"current_range_meters":14000,"station_id":"ce4bgth2rcd13ifvqch0","pricing_plan_id":"cebpf4jnsgd1na2vs0mg"},{"bike_id":"08e88941-71ac-4da5-b279-c0def138a28a","system_id":"levelo_inurba_marseille","lat":43.317075,"lon":5.377367,"is_reserved":false,"is_disabled":false,"rental_uris":{"android":"levelo://app?vid=08e88941-71ac-4da5-b279-c0def138a28a","ios":"levelo://app?vid=08e88941-71ac-4da5-b279-c0def138a28a"},"vehicle_type_id":"4","last_reported":1712682403,"current_range_meters":2400,"station_id":"ce4bgth2rcd13ifvqch0","pricing_plan_id":"cebpf4jnsgd1na2vs0mg"},{"bike_id":"2b22e0b6-2694-4669-9774-7f47897a75de","system_id":"levelo_inurba_marseille","lat":43.317018,"lon":5.377487,"is_reserved":false,"is_disabled":false,"rental_uris":{"android":"levelo://app?vid=2b22e0b6-2694-4669-9774-7f47897a75de","ios":"levelo://app?vid=2b22e0b6-2694-4669-9774-7f47897a75de"},"vehicle_type_id":"4","last_reported":1712682403,"current_range_meters":800,"station_id":"ce4bgth2rcd13ifvqch0","pricing_plan_id":"cebpf4jnsgd1na2vs0mg"},{"bike_id":"dcb70012-48f0-4f3c-b324-2570579680a9","system_id":"levelo_inurba_marseille","lat":43.317075,"lon":5.377367,"is_reserved":false,"is_disabled":false,"rental_uris":{"android":"levelo://app?vid=dcb70012-48f0-4f3c-b324-2570579680a9","ios":"levelo://app?vid=dcb70012-48f0-4f3c-b324-2570579680a9"},"vehicle_type_id":"4","last_reported":1712682403,"current_range_meters":25200,"station_id":"ce4bgth2rcd13ifvqch0","pricing_plan_id":"cebpf4jnsgd1na2vs0mg"},{"bike_id":"d89476a0-aa2c-4a63-9c6c-557a761b688e","system_id":"levelo_inurba_marseille","lat":43.317075,"lon":5.377367,"is_reserved":false,"is_disabled":false,"rental_uris":{"android":"levelo://app?vid=d89476a0-aa2c-4a63-9c6c-557a761b688e","ios":"levelo://app?vid=d89476a0-aa2c-4a63-9c6c-557a761b688e"},"vehicle_type_id":"4","last_reported":1712682403,"current_range_meters":31600,"station_id":"ce4bgth2rcd13ifvqch0","pricing_plan_id":"cebpf4jnsgd1na2vs0mg"},{"bike_id":"658cc89d-0c3c-4222-8f2e-056cba0138df","system_id":"levelo_inurba_marseille","lat":43.30319,"lon":5.36906,"is_reserved":false,"is_disabled":false,"rental_uris":{"android":"levelo://app?vid=658cc89d-0c3c-4222-8f2e-056cba0138df","ios":"levelo://app?vid=658cc89d-0c3c-4222-8f2e-056cba0138df"},"vehicle_type_id":"4","last_reported":1712682403,"current_range_meters":0,"station_id":"ce4bgqh2rcd13ifvqc5g","pricing_plan_id":"cebpf4jnsgd1na2vs0mg"},{"bike_id":"c048a3b3-ceba-447a-9f54-e57e6826a474","system_id":"levelo_inurba_marseille","lat":43.315293,"lon":5.380349,"is_reserved":false,"is_disabled":false,"rental_uris":{"android":"levelo://app?vid=c048a3b3-ceba-447a-9f54-e57e6826a474","ios":"levelo://app?vid=c048a3b3-ceba-447a-9f54-e57e6826a474"},"vehicle_type_id":"4","last_reported":1712682403,"current_range_meters":6400,"station_id":"ce4bhsp2rcd13ifvqi50","pricing_plan_id":"cebpf4jnsgd1na2vs0mg"},{"bike_id":"e4901716-2627-42a8-aa50-429f92c1ca6a","system_id":"levelo_inurba_marseille","lat":43.309583,"lon":5.379887,"is_reserved":false,"is_disabled":false,"rental_uris":{"android":"levelo://app?vid=e4901716-2627-42a8-aa50-429f92c1ca6a","ios":"levelo://app?vid=e4901716-2627-42a8-aa50-429f92c1ca6a"},"vehicle_type_id":"4","last_reported":1712682403,"current_range_meters":19600,"station_id":"","pricing_plan_id":"cebpf4jnsgd1na2vs0mg"},{"bike_id":"7d6dd282-34f3-4579-af43-6893eb56f449","system_id":"levelo_inurba_marseille","lat":43.315289,"lon":5.380349,"is_reserved":false,"is_disabled":false,"rental_uris":{"android":"levelo://app?vid=7d6dd282-34f3-4579-af43-6893eb56f449","ios":"levelo://app?vid=7d6dd282-34f3-4579-af43-6893eb56f449"},"vehicle_type_id":"4","last_reported":1712682403,"current_range_meters":5600,"station_id":"ce4bhsp2rcd13ifvqi50","pricing_plan_id":"cebpf4jnsgd1na2vs0mg"},{"bike_id":"68eea256-462c-4a44-933a-cc40c4f4d30d","system_id":"levelo_inurba_marseille","lat":43.315289,"lon":5.380349,"is_reserved":false,"is_disabled":false,"rental_uris":{"android":"levelo://app?vid=68eea256-462c-4a44-933a-cc40c4f4d30d","ios":"levelo://app?vid=68eea256-462c-4a44-933a-cc40c4f4d30d"},"vehicle_type_id":"4","last_reported":1712682403,"current_range_meters":30800,"station_id":"ce4bhsp2rcd13ifvqi50","pricing_plan_id":"cebpf4jnsgd1na2vs0mg"},{"bike_id":"3c6c038e-6374-44cf-aafa-e6266b8d1aab","system_id":"levelo_inurba_marseille","lat":43.315289,"lon":5.380349,"is_reserved":false,"is_disabled":false,"rental_uris":{"android":"levelo://app?vid=3c6c038e-6374-44cf-aafa-e6266b8d1aab","ios":"levelo://app?vid=3c6c038e-6374-44cf-aafa-e6266b8d1aab"},"vehicle_type_id":"4","last_reported":1712682403,"current_range_meters":15600,"station_id":"ce4bhsp2rcd13ifvqi50","pricing_plan_id":"cebpf4jnsgd1na2vs0mg"},{"bike_id":"42076c19-38dd-4c0c-9cc2-84d4d64e3758","system_id":"levelo_inurba_marseille","lat":43.315293,"lon":5.380349,"is_reserved":false,"is_disabled":false,"rental_uris":{"android":"levelo://app?vid=42076c19-38dd-4c0c-9cc2-84d4d64e3758","ios":"levelo://app?vid=42076c19-38dd-4c0c-9cc2-84d4d64e3758"},"vehicle_type_id":"4","last_reported":1712682403,"current_range_meters":29200,"station_id":"ce4bhsp2rcd13ifvqi50","pricing_plan_id":"cebpf4jnsgd1na2vs0mg"},{"bike_id":"46dbed68-d219-45a9-9d0b-9af7c8b5d1cf","system_id":"levelo_inurba_marseille","lat":43.315293,"lon":5.380349,"is_reserved":false,"is_disabled":false,"rental_uris":{"android":"levelo://app?vid=46dbed68-d219-45a9-9d0b-9af7c8b5d1cf","ios":"levelo://app?vid=46dbed68-d219-45a9-9d0b-9af7c8b5d1cf"},"vehicle_type_id":"4","last_reported":1712682403,"current_range_meters":1200,"station_id":"ce4bhsp2rcd13ifvqi50","pricing_plan_id":"cebpf4jnsgd1na2vs0mg"},{"bike_id":"5138cd12-be72-4388-baeb-8cce9acee15b","system_id":"levelo_inurba_marseille","lat":43.302834,"lon":5.372624,"is_reserved":false,"is_disabled":false,"rental_uris":{"android":"levelo://app?vid=5138cd12-be72-4388-baeb-8cce9acee15b","ios":"levelo://app?vid=5138cd12-be72-4388-baeb-8cce9acee15b"},"vehicle_type_id":"4","last_reported":1712682403,"current_range_meters":28000,"station_id":"","pricing_plan_id":"cebpf4jnsgd1na2vs0mg"},{"bike_id":"12fc6448-98d4-4b1c-84e8-22eeb40cde93","system_id":"levelo_inurba_marseille","lat":43.301939,"lon":5.366286,"is_reserved":false,"is_disabled":false,"rental_uris":{"android":"levelo://app?vid=12fc6448-98d4-4b1c-84e8-22eeb40cde93","ios":"levelo://app?vid=12fc6448-98d4-4b1c-84e8-22eeb40cde93"},"vehicle_type_id":"4","last_reported":1712682403,"current_range_meters":20400,"station_id":"ce4bgrh2rcd13ifvqc8g","pricing_plan_id":"cebpf4jnsgd1na2vs0mg"},{"bike_id":"1b52e69e-6633-49be-add9-c3c47606fa71","system_id":"levelo_inurba_marseille","lat":43.305989,"lon":5.37225,"is_reserved":false,"is_disabled":false,"rental_uris":{"android":"levelo://app?vid=1b52e69e-6633-49be-add9-c3c47606fa71","ios":"levelo://app?vid=1b52e69e-6633-49be-add9-c3c47606fa71"},"vehicle_type_id":"4","last_reported":1712682403,"current_range_meters":0,"station_id":"ce4bgqh2rcd13ifvqc4g","pricing_plan_id":"cebpf4jnsgd1na2vs0mg"},{"bike_id":"105e4bc7-7971-4d9d-93c5-b238eb80b1a8","system_id":"levelo_inurba_marseille","lat":43.308012,"lon":5.381511,"is_reserved":false,"is_disabled":false,"rental_uris":{"android":"levelo://app?vid=105e4bc7-7971-4d9d-93c5-b238eb80b1a8","ios":"levelo://app?vid=105e4bc7-7971-4d9d-93c5-b238eb80b1a8"},"vehicle_type_id":"4","last_reported":1712682403,"current_range_meters":0,"station_id":"ce4bgt12rcd13ifvqce0","pricing_plan_id":"cebpf4jnsgd1na2vs0mg"},{"bike_id":"07e23960-aa5b-49a0-a14f-1c5bf98e36db","system_id":"levelo_inurba_marseille","lat":43.30462,"lon":5.37898,"is_reserved":false,"is_disabled":false,"rental_uris":{"android":"levelo://app?vid=07e23960-aa5b-49a0-a14f-1c5bf98e36db","ios":"levelo://app?vid=07e23960-aa5b-49a0-a14f-1c5bf98e36db"},"vehicle_type_id":"4","last_reported":1712682403,"current_range_meters":0,"station_id":"ce4bgup2rcd13ifvqcn0","pricing_plan_id":"cebpf4jnsgd1na2vs0mg"},{"bike_id":"8b771cba-b8f7-4686-a508-9b8afa3e6db4","system_id":"levelo_inurba_marseille","lat":43.304606,"lon":5.379026,"is_reserved":false,"is_disabled":false,"rental_uris":{"android":"levelo://app?vid=8b771cba-b8f7-4686-a508-9b8afa3e6db4","ios":"levelo://app?vid=8b771cba-b8f7-4686-a508-9b8afa3e6db4"},"vehicle_type_id":"4","last_reported":1712682403,"current_range_meters":0,"station_id":"ce4bgup2rcd13ifvqcn0","pricing_plan_id":"cebpf4jnsgd1na2vs0mg"},{"bike_id":"5cd49b38-4b4d-48c2-93a5-c1d29d9cf86c","system_id":"levelo_inurba_marseille","lat":43.32476,"lon":5.36572,"is_reserved":false,"is_disabled":false,"rental_uris":{"android":"levelo://app?vid=5cd49b38-4b4d-48c2-93a5-c1d29d9cf86c","ios":"levelo://app?vid=5cd49b38-4b4d-48c2-93a5-c1d29d9cf86c"},"vehicle_type_id":"4","last_reported":1712682403,"current_range_meters":15200,"station_id":"ce4bhs12rcd13ifvqhvg","pricing_plan_id":"cebpf4jnsgd1na2vs0mg"},{"bike_id":"472c3294-2803-4237-bcbf-54269798f6ec","system_id":"levelo_inurba_marseille","lat":43.32476,"lon":5.36571,"is_reserved":false,"is_disabled":false,"rental_uris":{"android":"levelo://app?vid=472c3294-2803-4237-bcbf-54269798f6ec","ios":"levelo://app?vid=472c3294-2803-4237-bcbf-54269798f6ec"},"vehicle_type_id":"4","last_reported":1712682403,"current_range_meters":18800,"station_id":"ce4bhs12rcd13ifvqhvg","pricing_plan_id":"cebpf4jnsgd1na2vs0mg"},{"bike_id":"b61f5fce-3370-4eb2-9cfe-757ef3a5f155","system_id":"levelo_inurba_marseille","lat":43.324771,"lon":5.36557,"is_reserved":false,"is_disabled":false,"rental_uris":{"android":"levelo://app?vid=b61f5fce-3370-4eb2-9cfe-757ef3a5f155","ios":"levelo://app?vid=b61f5fce-3370-4eb2-9cfe-757ef3a5f155"},"vehicle_type_id":"4","last_reported":1712682403,"current_range_meters":21600,"station_id":"ce4bhs12rcd13ifvqhvg","pricing_plan_id":"cebpf4jnsgd1na2vs0mg"},{"bike_id":"8a7922ca-7efe-4472-81f6-a6d8d0b9b349","system_id":"levelo_inurba_marseille","lat":43.32478,"lon":5.36566,"is_reserved":false,"is_disabled":false,"rental_uris":{"android":"levelo://app?vid=8a7922ca-7efe-4472-81f6-a6d8d0b9b349","ios":"levelo://app?vid=8a7922ca-7efe-4472-81f6-a6d8d0b9b349"},"vehicle_type_id":"4","last_reported":1712682403,"current_range_meters":12400,"station_id":"ce4bhs12rcd13ifvqhvg","pricing_plan_id":"cebpf4jnsgd1na2vs0mg"},{"bike_id":"4d857a07-486f-4587-9836-943a854c8633","system_id":"levelo_inurba_marseille","lat":43.32479,"lon":5.36562,"is_reserved":false,"is_disabled":false,"rental_uris":{"android":"levelo://app?vid=4d857a07-486f-4587-9836-943a854c8633","ios":"levelo://app?vid=4d857a07-486f-4587-9836-943a854c8633"},"vehicle_type_id":"4","last_reported":1712682403,"current_range_meters":24000,"station_id":"ce4bhs12rcd13ifvqhvg","pricing_plan_id":"cebpf4jnsgd1na2vs0mg"},{"bike_id":"d453f5f1-b263-477b-864b-bf2146099cf6","system_id":"levelo_inurba_marseille","lat":43.324771,"lon":5.36557,"is_reserved":false,"is_disabled":false,"rental_uris":{"android":"levelo://app?vid=d453f5f1-b263-477b-864b-bf2146099cf6","ios":"levelo://app?vid=d453f5f1-b263-477b-864b-bf2146099cf6"},"vehicle_type_id":"4","last_reported":1712682403,"current_range_meters":15600,"station_id":"ce4bhs12rcd13ifvqhvg","pricing_plan_id":"cebpf4jnsgd1na2vs0mg"},{"bike_id":"dd1eeaf3-7ce5-435e-b6c8-fd616106d621","system_id":"levelo_inurba_marseille","lat":43.324771,"lon":5.36557,"is_reserved":false,"is_disabled":false,"rental_uris":{"android":"levelo://app?vid=dd1eeaf3-7ce5-435e-b6c8-fd616106d621","ios":"levelo://app?vid=dd1eeaf3-7ce5-435e-b6c8-fd616106d621"},"vehicle_type_id":"4","last_reported":1712682403,"current_range_meters":15200,"station_id":"ce4bhs12rcd13ifvqhvg","pricing_plan_id":"cebpf4jnsgd1na2vs0mg"},{"bike_id":"6304b356-5718-49c0-9009-11c0cd0b6c8c","system_id":"levelo_inurba_marseille","lat":43.3248,"lon":5.36561,"is_reserved":false,"is_disabled":false,"rental_uris":{"android":"levelo://app?vid=6304b356-5718-49c0-9009-11c0cd0b6c8c","ios":"levelo://app?vid=6304b356-5718-49c0-9009-11c0cd0b6c8c"},"vehicle_type_id":"4","last_reported":1712682403,"current_range_meters":23200,"station_id":"ce4bhs12rcd13ifvqhvg","pricing_plan_id":"cebpf4jnsgd1na2vs0mg"},{"bike_id":"f2f0a323-f4cf-4d69-bda0-3382b45e92bd","system_id":"levelo_inurba_marseille","lat":43.324825,"lon":5.36573,"is_reserved":false,"is_disabled":false,"rental_uris":{"android":"levelo://app?vid=f2f0a323-f4cf-4d69-bda0-3382b45e92bd","ios":"levelo://app?vid=f2f0a323-f4cf-4d69-bda0-3382b45e92bd"},"vehicle_type_id":"4","last_reported":1712682403,"current_range_meters":6000,"station_id":"ce4bhs12rcd13ifvqhvg","pricing_plan_id":"cebpf4jnsgd1na2vs0mg"},{"bike_id":"93f39419-5cbf-400a-91d0-19b962f1e4df","system_id":"levelo_inurba_marseille","lat":43.324771,"lon":5.36557,"is_reserved":false,"is_disabled":false,"rental_uris":{"android":"levelo://app?vid=93f39419-5cbf-400a-91d0-19b962f1e4df","ios":"levelo://app?vid=93f39419-5cbf-400a-91d0-19b962f1e4df"},"vehicle_type_id":"4","last_reported":1712682403,"current_range_meters":1200,"station_id":"ce4bhs12rcd13ifvqhvg","pricing_plan_id":"cebpf4jnsgd1na2vs0mg"},{"bike_id":"466fa14b-daa3-4177-b540-e71b4a8e6995","system_id":"levelo_inurba_marseille","lat":43.324771,"lon":5.36557,"is_reserved":false,"is_disabled":false,"rental_uris":{"android":"levelo://app?vid=466fa14b-daa3-4177-b540-e71b4a8e6995","ios":"levelo://app?vid=466fa14b-daa3-4177-b540-e71b4a8e6995"},"vehicle_type_id":"4","last_reported":1712682403,"current_range_meters":17200,"station_id":"ce4bhs12rcd13ifvqhvg","pricing_plan_id":"cebpf4jnsgd1na2vs0mg"},{"bike_id":"e604a188-d697-40e2-9e3a-88bc3e72cc93","system_id":"levelo_inurba_marseille","lat":43.302784,"lon":5.377158,"is_reserved":false,"is_disabled":false,"rental_uris":{"android":"levelo://app?vid=e604a188-d697-40e2-9e3a-88bc3e72cc93","ios":"levelo://app?vid=e604a188-d697-40e2-9e3a-88bc3e72cc93"},"vehicle_type_id":"4","last_reported":1712682403,"current_range_meters":28800,"station_id":"ce4bguh2rcd13ifvqcj0","pricing_plan_id":"cebpf4jnsgd1na2vs0mg"},{"bike_id":"af9e779d-00e1-4933-b9ba-0365a5654a27","system_id":"levelo_inurba_marseille","lat":43.307945,"lon":5.376487,"is_reserved":false,"is_disabled":false,"rental_uris":{"android":"levelo://app?vid=af9e779d-00e1-4933-b9ba-0365a5654a27","ios":"levelo://app?vid=af9e779d-00e1-4933-b9ba-0365a5654a27"},"vehicle_type_id":"4","last_reported":1712682403,"current_range_meters":0,"station_id":"ce4bgv92rcd13ifvqcq0","pricing_plan_id":"cebpf4jnsgd1na2vs0mg"},{"bike_id":"58a31090-6f90-42a0-b7c8-860cd2ba70c3","system_id":"levelo_inurba_marseille","lat":43.30143,"lon":5.37413,"is_reserved":false,"is_disabled":false,"rental_uris":{"android":"levelo://app?vid=58a31090-6f90-42a0-b7c8-860cd2ba70c3","ios":"levelo://app?vid=58a31090-6f90-42a0-b7c8-860cd2ba70c3"},"vehicle_type_id":"4","last_reported":1712682403,"current_range_meters":18000,"station_id":"ce4bgs92rcd13ifvqcc0","pricing_plan_id":"cebpf4jnsgd1na2vs0mg"},{"bike_id":"9323bb51-a0e1-4a6d-94d1-0273e7ab34e4","system_id":"levelo_inurba_marseille","lat":43.31996,"lon":5.38159,"is_reserved":false,"is_disabled":false,"rental_uris":{"android":"levelo://app?vid=9323bb51-a0e1-4a6d-94d1-0273e7ab34e4","ios":"levelo://app?vid=9323bb51-a0e1-4a6d-94d1-0273e7ab34e4"},"vehicle_type_id":"4","last_reported":1712682403,"current_range_meters":0,"station_id":"ce4bhr12rcd13ifvqhpg","pricing_plan_id":"cebpf4jnsgd1na2vs0mg"},{"bike_id":"d07a5510-5bbf-455d-8a86-251171d9e586","system_id":"levelo_inurba_marseille","lat":43.319935,"lon":5.381699,"is_reserved":false,"is_disabled":false,"rental_uris":{"android":"levelo://app?vid=d07a5510-5bbf-455d-8a86-251171d9e586","ios":"levelo://app?vid=d07a5510-5bbf-455d-8a86-251171d9e586"},"vehicle_type_id":"4","last_reported":1712682403,"current_range_meters":800,"station_id":"ce4bhr12rcd13ifvqhpg","pricing_plan_id":"cebpf4jnsgd1na2vs0mg"},{"bike_id":"7aaf6772-79c0-4eea-91af-8987a3667435","system_id":"levelo_inurba_marseille","lat":43.319935,"lon":5.381699,"is_reserved":false,"is_disabled":false,"rental_uris":{"android":"levelo://app?vid=7aaf6772-79c0-4eea-91af-8987a3667435","ios":"levelo://app?vid=7aaf6772-79c0-4eea-91af-8987a3667435"},"vehicle_type_id":"4","last_reported":1712682403,"current_range_meters":800,"station_id":"ce4bhr12rcd13ifvqhpg","pricing_plan_id":"cebpf4jnsgd1na2vs0mg"},{"bike_id":"c35c56f2-38b9-4a50-9e64-480d9344128e","system_id":"levelo_inurba_marseille","lat":43.313571,"lon":5.384829,"is_reserved":false,"is_disabled":false,"rental_uris":{"android":"levelo://app?vid=c35c56f2-38b9-4a50-9e64-480d9344128e","ios":"levelo://app?vid=c35c56f2-38b9-4a50-9e64-480d9344128e"},"vehicle_type_id":"4","last_reported":1712682403,"current_range_meters":4400,"station_id":"ce4bgt92rcd13ifvqcf0","pricing_plan_id":"cebpf4jnsgd1na2vs0mg"},{"bike_id":"da9b1615-55b4-4a04-a879-e447bda794f3","system_id":"levelo_inurba_marseille","lat":43.313571,"lon":5.384829,"is_reserved":false,"is_disabled":false,"rental_uris":{"android":"levelo://app?vid=da9b1615-55b4-4a04-a879-e447bda794f3","ios":"levelo://app?vid=da9b1615-55b4-4a04-a879-e447bda794f3"},"vehicle_type_id":"4","last_reported":1712682403,"current_range_meters":18800,"station_id":"ce4bgt92rcd13ifvqcf0","pricing_plan_id":"cebpf4jnsgd1na2vs0mg"},{"bike_id":"31408cbc-9a45-4d8e-b772-f01f845ab295","system_id":"levelo_inurba_marseille","lat":43.313571,"lon":5.384829,"is_reserved":false,"is_disabled":false,"rental_uris":{"android":"levelo://app?vid=31408cbc-9a45-4d8e-b772-f01f845ab295","ios":"levelo://app?vid=31408cbc-9a45-4d8e-b772-f01f845ab295"},"vehicle_type_id":"4","last_reported":1712682403,"current_range_meters":0,"station_id":"ce4bgt92rcd13ifvqcf0","pricing_plan_id":"cebpf4jnsgd1na2vs0mg"},{"bike_id":"50ece9ee-1dab-4209-8df0-18787d51fa42","system_id":"levelo_inurba_marseille","lat":43.29945,"lon":5.36541,"is_reserved":false,"is_disabled":false,"rental_uris":{"android":"levelo://app?vid=50ece9ee-1dab-4209-8df0-18787d51fa42","ios":"levelo://app?vid=50ece9ee-1dab-4209-8df0-18787d51fa42"},"vehicle_type_id":"4","last_reported":1712682403,"current_range_meters":0,"station_id":"ce4bgm92rcd13ifvqbr0","pricing_plan_id":"cebpf4jnsgd1na2vs0mg"},{"bike_id":"2a0072aa-d6a2-42d0-ae9f-fe291ea2330a","system_id":"levelo_inurba_marseille","lat":43.29989,"lon":5.37186,"is_reserved":false,"is_disabled":false,"rental_uris":{"android":"levelo://app?vid=2a0072aa-d6a2-42d0-ae9f-fe291ea2330a","ios":"levelo://app?vid=2a0072aa-d6a2-42d0-ae9f-fe291ea2330a"},"vehicle_type_id":"4","last_reported":1712682403,"current_range_meters":0,"station_id":"ce4bgr92rcd13ifvqc7g","pricing_plan_id":"cebpf4jnsgd1na2vs0mg"},{"bike_id":"f5c4edb1-4091-4c85-9f27-3e84011d4508","system_id":"levelo_inurba_marseille","lat":43.299222,"lon":5.365554,"is_reserved":false,"is_disabled":false,"rental_uris":{"android":"levelo://app?vid=f5c4edb1-4091-4c85-9f27-3e84011d4508","ios":"levelo://app?vid=f5c4edb1-4091-4c85-9f27-3e84011d4508"},"vehicle_type_id":"4","last_reported":1712682403,"current_range_meters":400,"station_id":"ce4bgm92rcd13ifvqbr0","pricing_plan_id":"cebpf4jnsgd1na2vs0mg"},{"bike_id":"e20c60a1-1fc3-44de-a554-7fbb34895748","system_id":"levelo_inurba_marseille","lat":43.305364,"lon":5.384119,"is_reserved":false,"is_disabled":false,"rental_uris":{"android":"levelo://app?vid=e20c60a1-1fc3-44de-a554-7fbb34895748","ios":"levelo://app?vid=e20c60a1-1fc3-44de-a554-7fbb34895748"},"vehicle_type_id":"4","last_reported":1712682403,"current_range_meters":17600,"station_id":"ce4bgg92rcd13ifvqb30","pricing_plan_id":"cebpf4jnsgd1na2vs0mg"},{"bike_id":"e1920b38-b062-472a-827b-3490574a07b7","system_id":"levelo_inurba_marseille","lat":43.305364,"lon":5.384119,"is_reserved":false,"is_disabled":false,"rental_uris":{"android":"levelo://app?vid=e1920b38-b062-472a-827b-3490574a07b7","ios":"levelo://app?vid=e1920b38-b062-472a-827b-3490574a07b7"},"vehicle_type_id":"4","last_reported":1712682403,"current_range_meters":13200,"station_id":"ce4bgg92rcd13ifvqb30","pricing_plan_id":"cebpf4jnsgd1na2vs0mg"},{"bike_id":"16c4cec7-9338-4d52-91ee-d540056e71b8","system_id":"levelo_inurba_marseille","lat":43.305364,"lon":5.384119,"is_reserved":false,"is_disabled":false,"rental_uris":{"android":"levelo://app?vid=16c4cec7-9338-4d52-91ee-d540056e71b8","ios":"levelo://app?vid=16c4cec7-9338-4d52-91ee-d540056e71b8"},"vehicle_type_id":"4","last_reported":1712682403,"current_range_meters":14800,"station_id":"ce4bgg92rcd13ifvqb30","pricing_plan_id":"cebpf4jnsgd1na2vs0mg"},{"bike_id":"128841bd-78ec-42e0-9b71-d65b0ab3a013","system_id":"levelo_inurba_marseille","lat":43.305364,"lon":5.384119,"is_reserved":false,"is_disabled":false,"rental_uris":{"android":"levelo://app?vid=128841bd-78ec-42e0-9b71-d65b0ab3a013","ios":"levelo://app?vid=128841bd-78ec-42e0-9b71-d65b0ab3a013"},"vehicle_type_id":"4","last_reported":1712682403,"current_range_meters":4800,"station_id":"ce4bgg92rcd13ifvqb30","pricing_plan_id":"cebpf4jnsgd1na2vs0mg"},{"bike_id":"5f8eb558-91dd-4101-973e-7f943657f7e3","system_id":"levelo_inurba_marseille","lat":43.299243,"lon":5.37481,"is_reserved":false,"is_disabled":false,"rental_uris":{"android":"levelo://app?vid=5f8eb558-91dd-4101-973e-7f943657f7e3","ios":"levelo://app?vid=5f8eb558-91dd-4101-973e-7f943657f7e3"},"vehicle_type_id":"4","last_reported":1712682403,"current_range_meters":1200,"station_id":"ce4bgjh2rcd13ifvqbg0","pricing_plan_id":"cebpf4jnsgd1na2vs0mg"},{"bike_id":"bbbf4d1a-ecde-402d-8a47-7d039a805d1b","system_id":"levelo_inurba_marseille","lat":43.326249,"lon":5.375194,"is_reserved":false,"is_disabled":false,"rental_uris":{"android":"levelo://app?vid=bbbf4d1a-ecde-402d-8a47-7d039a805d1b","ios":"levelo://app?vid=bbbf4d1a-ecde-402d-8a47-7d039a805d1b"},"vehicle_type_id":"4","last_reported":1712682403,"current_range_meters":4000,"station_id":"","pricing_plan_id":"cebpf4jnsgd1na2vs0mg"},{"bike_id":"1b091a4c-6d0a-463f-a3b3-ce1318d3f66c","system_id":"levelo_inurba_marseille","lat":43.29793,"lon":5.37098,"is_reserved":false,"is_disabled":false,"rental_uris":{"android":"levelo://app?vid=1b091a4c-6d0a-463f-a3b3-ce1318d3f66c","ios":"levelo://app?vid=1b091a4c-6d0a-463f-a3b3-ce1318d3f66c"},"vehicle_type_id":"4","last_reported":1712682403,"current_range_meters":0,"station_id":"ce4bhbh2rcd13ifvqeqg","pricing_plan_id":"cebpf4jnsgd1na2vs0mg"},{"bike_id":"b3bcbd55-0761-4e00-a17b-f5beaa827671","system_id":"levelo_inurba_marseille","lat":43.297794,"lon":5.370888,"is_reserved":false,"is_disabled":false,"rental_uris":{"android":"levelo://app?vid=b3bcbd55-0761-4e00-a17b-f5beaa827671","ios":"levelo://app?vid=b3bcbd55-0761-4e00-a17b-f5beaa827671"},"vehicle_type_id":"4","last_reported":1712682403,"current_range_meters":24800,"station_id":"ce4bgop2rcd13ifvqc1g","pricing_plan_id":"cebpf4jnsgd1na2vs0mg"},{"bike_id":"e3806fef-d512-46b9-be0d-b65e99ca7ae3","system_id":"levelo_inurba_marseille","lat":43.322872,"lon":5.382756,"is_reserved":false,"is_disabled":false,"rental_uris":{"android":"levelo://app?vid=e3806fef-d512-46b9-be0d-b65e99ca7ae3","ios":"levelo://app?vid=e3806fef-d512-46b9-be0d-b65e99ca7ae3"},"vehicle_type_id":"4","last_reported":1712682403,"current_range_meters":16400,"station_id":"ce4bhr12rcd13ifvqhqg","pricing_plan_id":"cebpf4jnsgd1na2vs0mg"},{"bike_id":"f9a568bb-9cd1-4f33-ad66-98b1944fee15","system_id":"levelo_inurba_marseille","lat":43.322872,"lon":5.382756,"is_reserved":false,"is_disabled":false,"rental_uris":{"android":"levelo://app?vid=f9a568bb-9cd1-4f33-ad66-98b1944fee15","ios":"levelo://app?vid=f9a568bb-9cd1-4f33-ad66-98b1944fee15"},"vehicle_type_id":"4","last_reported":1712682403,"current_range_meters":1200,"station_id":"ce4bhr12rcd13ifvqhqg","pricing_plan_id":"cebpf4jnsgd1na2vs0mg"},{"bike_id":"89d00188-6482-4c7a-bf07-afcbddf288e0","system_id":"levelo_inurba_marseille","lat":43.297163,"lon":5.365866,"is_reserved":false,"is_disabled":false,"rental_uris":{"android":"levelo://app?vid=89d00188-6482-4c7a-bf07-afcbddf288e0","ios":"levelo://app?vid=89d00188-6482-4c7a-bf07-afcbddf288e0"},"vehicle_type_id":"4","last_reported":1712682403,"current_range_meters":12000,"station_id":"ce4bgn12rcd13ifvqbt0","pricing_plan_id":"cebpf4jnsgd1na2vs0mg"},{"bike_id":"a4ce60b5-c151-4099-a23f-d60a14159e22","system_id":"levelo_inurba_marseille","lat":43.2968,"lon":5.37291,"is_reserved":false,"is_disabled":false,"rental_uris":{"android":"levelo://app?vid=a4ce60b5-c151-4099-a23f-d60a14159e22","ios":"levelo://app?vid=a4ce60b5-c151-4099-a23f-d60a14159e22"},"vehicle_type_id":"4","last_reported":1712682403,"current_range_meters":18000,"station_id":"ce4bgk12rcd13ifvqbj0","pricing_plan_id":"cebpf4jnsgd1na2vs0mg"},{"bike_id":"88d14bd3-829f-43ed-a722-f64f4c8c4687","system_id":"levelo_inurba_marseille","lat":43.29585,"lon":5.36745,"is_reserved":false,"is_disabled":false,"rental_uris":{"android":"levelo://app?vid=88d14bd3-829f-43ed-a722-f64f4c8c4687","ios":"levelo://app?vid=88d14bd3-829f-43ed-a722-f64f4c8c4687"},"vehicle_type_id":"4","last_reported":1712682403,"current_range_meters":0,"station_id":"ce4bgph2rcd13ifvqc2g","pricing_plan_id":"cebpf4jnsgd1na2vs0mg"},{"bike_id":"3b28e691-268a-4d7a-ae5e-18de7bf6e030","system_id":"levelo_inurba_marseille","lat":43.29573,"lon":5.367355,"is_reserved":false,"is_disabled":false,"rental_uris":{"android":"levelo://app?vid=3b28e691-268a-4d7a-ae5e-18de7bf6e030","ios":"levelo://app?vid=3b28e691-268a-4d7a-ae5e-18de7bf6e030"},"vehicle_type_id":"4","last_reported":1712682403,"current_range_meters":30800,"station_id":"ce4bgph2rcd13ifvqc2g","pricing_plan_id":"cebpf4jnsgd1na2vs0mg"},{"bike_id":"c6d3ae08-ef1e-4a78-92ec-e378bf43354d","system_id":"levelo_inurba_marseille","lat":43.29573,"lon":5.367355,"is_reserved":false,"is_disabled":false,"rental_uris":{"android":"levelo://app?vid=c6d3ae08-ef1e-4a78-92ec-e378bf43354d","ios":"levelo://app?vid=c6d3ae08-ef1e-4a78-92ec-e378bf43354d"},"vehicle_type_id":"4","last_reported":1712682403,"current_range_meters":23600,"station_id":"ce4bgph2rcd13ifvqc2g","pricing_plan_id":"cebpf4jnsgd1na2vs0mg"},{"bike_id":"58144aa4-aeb9-410a-9eea-8de7875cc946","system_id":"levelo_inurba_marseille","lat":43.2958,"lon":5.36735,"is_reserved":false,"is_disabled":false,"rental_uris":{"android":"levelo://app?vid=58144aa4-aeb9-410a-9eea-8de7875cc946","ios":"levelo://app?vid=58144aa4-aeb9-410a-9eea-8de7875cc946"},"vehicle_type_id":"4","last_reported":1712682403,"current_range_meters":0,"station_id":"ce4bgph2rcd13ifvqc2g","pricing_plan_id":"cebpf4jnsgd1na2vs0mg"},{"bike_id":"b4d35271-4d9c-4dc1-a5e7-9d8d988afa1c","system_id":"levelo_inurba_marseille","lat":43.3095,"lon":5.39023,"is_reserved":false,"is_disabled":false,"rental_uris":{"android":"levelo://app?vid=b4d35271-4d9c-4dc1-a5e7-9d8d988afa1c","ios":"levelo://app?vid=b4d35271-4d9c-4dc1-a5e7-9d8d988afa1c"},"vehicle_type_id":"4","last_reported":1712682403,"current_range_meters":0,"station_id":"ce4bgup2rcd13ifvqco0","pricing_plan_id":"cebpf4jnsgd1na2vs0mg"},{"bike_id":"dc09c980-088f-41b6-80d2-028b29dfc222","system_id":"levelo_inurba_marseille","lat":43.31758,"lon":5.38999,"is_reserved":false,"is_disabled":false,"rental_uris":{"android":"levelo://app?vid=dc09c980-088f-41b6-80d2-028b29dfc222","ios":"levelo://app?vid=dc09c980-088f-41b6-80d2-028b29dfc222"},"vehicle_type_id":"4","last_reported":1712682403,"current_range_meters":4000,"station_id":"ce4bhqp2rcd13ifvqhng","pricing_plan_id":"cebpf4jnsgd1na2vs0mg"},{"bike_id":"000c37fe-29d4-43fd-accf-bd6dee18ee7d","system_id":"levelo_inurba_marseille","lat":43.296069,"lon":5.374788,"is_reserved":false,"is_disabled":false,"rental_uris":{"android":"levelo://app?vid=000c37fe-29d4-43fd-accf-bd6dee18ee7d","ios":"levelo://app?vid=000c37fe-29d4-43fd-accf-bd6dee18ee7d"},"vehicle_type_id":"4","last_reported":1712682403,"current_range_meters":27600,"station_id":"","pricing_plan_id":"cebpf4jnsgd1na2vs0mg"},{"bike_id":"055c1b6c-f4f4-4ee5-97ce-7362950fee51","system_id":"levelo_inurba_marseille","lat":43.306412,"lon":5.401035,"is_reserved":false,"is_disabled":false,"rental_uris":{"android":"levelo://app?vid=055c1b6c-f4f4-4ee5-97ce-7362950fee51","ios":"levelo://app?vid=055c1b6c-f4f4-4ee5-97ce-7362950fee51"},"vehicle_type_id":"4","last_reported":1712682403,"current_range_meters":4400,"station_id":"ce4bh112rcd13ifvqda0","pricing_plan_id":"cebpf4jnsgd1na2vs0mg"},{"bike_id":"12218f19-ec22-430f-8d86-a4d5e2ae0392","system_id":"levelo_inurba_marseille","lat":43.298037,"lon":5.381066,"is_reserved":false,"is_disabled":false,"rental_uris":{"android":"levelo://app?vid=12218f19-ec22-430f-8d86-a4d5e2ae0392","ios":"levelo://app?vid=12218f19-ec22-430f-8d86-a4d5e2ae0392"},"vehicle_type_id":"4","last_reported":1712682403,"current_range_meters":26000,"station_id":"ce4bgip2rcd13ifvqbb0","pricing_plan_id":"cebpf4jnsgd1na2vs0mg"},{"bike_id":"f18ff4a3-e563-4d37-ade0-a7fbaf528460","system_id":"levelo_inurba_marseille","lat":43.29569,"lon":5.37521,"is_reserved":false,"is_disabled":false,"rental_uris":{"android":"levelo://app?vid=f18ff4a3-e563-4d37-ade0-a7fbaf528460","ios":"levelo://app?vid=f18ff4a3-e563-4d37-ade0-a7fbaf528460"},"vehicle_type_id":"4","last_reported":1712682403,"current_range_meters":0,"station_id":"ce4bgh92rcd13ifvqb50","pricing_plan_id":"cebpf4jnsgd1na2vs0mg"},{"bike_id":"a91c3bd3-0745-490e-9440-7665421cd2c4","system_id":"levelo_inurba_marseille","lat":43.304278,"lon":5.388868,"is_reserved":false,"is_disabled":false,"rental_uris":{"android":"levelo://app?vid=a91c3bd3-0745-490e-9440-7665421cd2c4","ios":"levelo://app?vid=a91c3bd3-0745-490e-9440-7665421cd2c4"},"vehicle_type_id":"4","last_reported":1712682403,"current_range_meters":18800,"station_id":"ce4bgk12rcd13ifvqbi0","pricing_plan_id":"cebpf4jnsgd1na2vs0mg"},{"bike_id":"806ece86-33f7-4d40-9f55-e0a794cde3b6","system_id":"levelo_inurba_marseille","lat":43.304278,"lon":5.388868,"is_reserved":false,"is_disabled":false,"rental_uris":{"android":"levelo://app?vid=806ece86-33f7-4d40-9f55-e0a794cde3b6","ios":"levelo://app?vid=806ece86-33f7-4d40-9f55-e0a794cde3b6"},"vehicle_type_id":"4","last_reported":1712682403,"current_range_meters":0,"station_id":"ce4bgk12rcd13ifvqbi0","pricing_plan_id":"cebpf4jnsgd1na2vs0mg"},{"bike_id":"8b6cc298-37f0-476a-8cb5-582b6f16ea44","system_id":"levelo_inurba_marseille","lat":43.299707,"lon":5.384859,"is_reserved":false,"is_disabled":false,"rental_uris":{"android":"levelo://app?vid=8b6cc298-37f0-476a-8cb5-582b6f16ea44","ios":"levelo://app?vid=8b6cc298-37f0-476a-8cb5-582b6f16ea44"},"vehicle_type_id":"4","last_reported":1712682403,"current_range_meters":10400,"station_id":"ce4bgj92rcd13ifvqbd0","pricing_plan_id":"cebpf4jnsgd1na2vs0mg"},{"bike_id":"5a190d35-846e-4830-98e0-48af500ac611","system_id":"levelo_inurba_marseille","lat":43.299707,"lon":5.384859,"is_reserved":false,"is_disabled":false,"rental_uris":{"android":"levelo://app?vid=5a190d35-846e-4830-98e0-48af500ac611","ios":"levelo://app?vid=5a190d35-846e-4830-98e0-48af500ac611"},"vehicle_type_id":"4","last_reported":1712682403,"current_range_meters":0,"station_id":"ce4bgj92rcd13ifvqbd0","pricing_plan_id":"cebpf4jnsgd1na2vs0mg"},{"bike_id":"cc35e651-fb96-409f-b980-16cd8af1c7c8","system_id":"levelo_inurba_marseille","lat":43.299707,"lon":5.384859,"is_reserved":false,"is_disabled":false,"rental_uris":{"android":"levelo://app?vid=cc35e651-fb96-409f-b980-16cd8af1c7c8","ios":"levelo://app?vid=cc35e651-fb96-409f-b980-16cd8af1c7c8"},"vehicle_type_id":"4","last_reported":1712682403,"current_range_meters":0,"station_id":"ce4bgj92rcd13ifvqbd0","pricing_plan_id":"cebpf4jnsgd1na2vs0mg"},{"bike_id":"3c8f204a-4ff5-4fe5-94c1-ee700946bcbb","system_id":"levelo_inurba_marseille","lat":43.295279,"lon":5.375048,"is_reserved":false,"is_disabled":false,"rental_uris":{"android":"levelo://app?vid=3c8f204a-4ff5-4fe5-94c1-ee700946bcbb","ios":"levelo://app?vid=3c8f204a-4ff5-4fe5-94c1-ee700946bcbb"},"vehicle_type_id":"4","last_reported":1712682403,"current_range_meters":28800,"station_id":"ce4bgkp2rcd13ifvqbmg","pricing_plan_id":"cebpf4jnsgd1na2vs0mg"},{"bike_id":"1f749f40-1311-4465-a181-27408bce4344","system_id":"levelo_inurba_marseille","lat":43.29525,"lon":5.37501,"is_reserved":false,"is_disabled":false,"rental_uris":{"android":"levelo://app?vid=1f749f40-1311-4465-a181-27408bce4344","ios":"levelo://app?vid=1f749f40-1311-4465-a181-27408bce4344"},"vehicle_type_id":"4","last_reported":1712682403,"current_range_meters":5600,"station_id":"","pricing_plan_id":"cebpf4jnsgd1na2vs0mg"},{"bike_id":"41325f93-fd69-4f08-8f59-6acdee87e01b","system_id":"levelo_inurba_marseille","lat":43.299707,"lon":5.384859,"is_reserved":false,"is_disabled":false,"rental_uris":{"android":"levelo://app?vid=41325f93-fd69-4f08-8f59-6acdee87e01b","ios":"levelo://app?vid=41325f93-fd69-4f08-8f59-6acdee87e01b"},"vehicle_type_id":"4","last_reported":1712682403,"current_range_meters":0,"station_id":"ce4bgj92rcd13ifvqbd0","pricing_plan_id":"cebpf4jnsgd1na2vs0mg"},{"bike_id":"885e7c09-fc66-4c87-a408-cfa7df68ac19","system_id":"levelo_inurba_marseille","lat":43.29522,"lon":5.37499,"is_reserved":false,"is_disabled":false,"rental_uris":{"android":"levelo://app?vid=885e7c09-fc66-4c87-a408-cfa7df68ac19","ios":"levelo://app?vid=885e7c09-fc66-4c87-a408-cfa7df68ac19"},"vehicle_type_id":"4","last_reported":1712682403,"current_range_meters":0,"station_id":"ce4bgkp2rcd13ifvqbmg","pricing_plan_id":"cebpf4jnsgd1na2vs0mg"},{"bike_id":"f2c6c530-3936-4524-a47a-4e2ea979a8a6","system_id":"levelo_inurba_marseille","lat":43.295279,"lon":5.375048,"is_reserved":false,"is_disabled":false,"rental_uris":{"android":"levelo://app?vid=f2c6c530-3936-4524-a47a-4e2ea979a8a6","ios":"levelo://app?vid=f2c6c530-3936-4524-a47a-4e2ea979a8a6"},"vehicle_type_id":"4","last_reported":1712682403,"current_range_meters":0,"station_id":"ce4bgkp2rcd13ifvqbmg","pricing_plan_id":"cebpf4jnsgd1na2vs0mg"},{"bike_id":"12675f23-77f5-4315-9efd-70ca71f79fc6","system_id":"levelo_inurba_marseille","lat":43.29965,"lon":5.38489,"is_reserved":false,"is_disabled":false,"rental_uris":{"android":"levelo://app?vid=12675f23-77f5-4315-9efd-70ca71f79fc6","ios":"levelo://app?vid=12675f23-77f5-4315-9efd-70ca71f79fc6"},"vehicle_type_id":"4","last_reported":1712682403,"current_range_meters":0,"station_id":"ce4bgj92rcd13ifvqbd0","pricing_plan_id":"cebpf4jnsgd1na2vs0mg"},{"bike_id":"8a70ab18-cbda-42c0-a626-cc5a2e8ca587","system_id":"levelo_inurba_marseille","lat":43.295279,"lon":5.375048,"is_reserved":false,"is_disabled":false,"rental_uris":{"android":"levelo://app?vid=8a70ab18-cbda-42c0-a626-cc5a2e8ca587","ios":"levelo://app?vid=8a70ab18-cbda-42c0-a626-cc5a2e8ca587"},"vehicle_type_id":"4","last_reported":1712682403,"current_range_meters":0,"station_id":"ce4bgkp2rcd13ifvqbmg","pricing_plan_id":"cebpf4jnsgd1na2vs0mg"},{"bike_id":"454dad13-542c-4897-afd4-33c69d834c7c","system_id":"levelo_inurba_marseille","lat":43.29966,"lon":5.38493,"is_reserved":false,"is_disabled":false,"rental_uris":{"android":"levelo://app?vid=454dad13-542c-4897-afd4-33c69d834c7c","ios":"levelo://app?vid=454dad13-542c-4897-afd4-33c69d834c7c"},"vehicle_type_id":"4","last_reported":1712682403,"current_range_meters":0,"station_id":"ce4bgj92rcd13ifvqbd0","pricing_plan_id":"cebpf4jnsgd1na2vs0mg"},{"bike_id":"6ad9930a-d074-43c0-9ee5-56d68ad87709","system_id":"levelo_inurba_marseille","lat":43.299498,"lon":5.385329,"is_reserved":false,"is_disabled":false,"rental_uris":{"android":"levelo://app?vid=6ad9930a-d074-43c0-9ee5-56d68ad87709","ios":"levelo://app?vid=6ad9930a-d074-43c0-9ee5-56d68ad87709"},"vehicle_type_id":"4","last_reported":1712682403,"current_range_meters":0,"station_id":"ce4bh392rcd13ifvqdl0","pricing_plan_id":"cebpf4jnsgd1na2vs0mg"},{"bike_id":"17069fea-b73b-4509-8518-76e0a5465930","system_id":"levelo_inurba_marseille","lat":43.32362,"lon":5.38876,"is_reserved":false,"is_disabled":false,"rental_uris":{"android":"levelo://app?vid=17069fea-b73b-4509-8518-76e0a5465930","ios":"levelo://app?vid=17069fea-b73b-4509-8518-76e0a5465930"},"vehicle_type_id":"4","last_reported":1712682403,"current_range_meters":1200,"station_id":"ce4bhqp2rcd13ifvqhog","pricing_plan_id":"cebpf4jnsgd1na2vs0mg"},{"bike_id":"fabebb68-01ce-4502-a80f-97dae43fa286","system_id":"levelo_inurba_marseille","lat":43.32361,"lon":5.38877,"is_reserved":false,"is_disabled":false,"rental_uris":{"android":"levelo://app?vid=fabebb68-01ce-4502-a80f-97dae43fa286","ios":"levelo://app?vid=fabebb68-01ce-4502-a80f-97dae43fa286"},"vehicle_type_id":"4","last_reported":1712682403,"current_range_meters":0,"station_id":"ce4bhqp2rcd13ifvqhog","pricing_plan_id":"cebpf4jnsgd1na2vs0mg"},{"bike_id":"aff4b82c-58ae-4d45-8100-9485aeffa77e","system_id":"levelo_inurba_marseille","lat":43.32362,"lon":5.38884,"is_reserved":false,"is_disabled":false,"rental_uris":{"android":"levelo://app?vid=aff4b82c-58ae-4d45-8100-9485aeffa77e","ios":"levelo://app?vid=aff4b82c-58ae-4d45-8100-9485aeffa77e"},"vehicle_type_id":"4","last_reported":1712682403,"current_range_meters":9200,"station_id":"ce4bhqp2rcd13ifvqhog","pricing_plan_id":"cebpf4jnsgd1na2vs0mg"},{"bike_id":"0d9977ad-0607-41c6-aacc-789ec7f42b25","system_id":"levelo_inurba_marseille","lat":43.32365,"lon":5.38884,"is_reserved":false,"is_disabled":false,"rental_uris":{"android":"levelo://app?vid=0d9977ad-0607-41c6-aacc-789ec7f42b25","ios":"levelo://app?vid=0d9977ad-0607-41c6-aacc-789ec7f42b25"},"vehicle_type_id":"4","last_reported":1712682403,"current_range_meters":17600,"station_id":"ce4bhqp2rcd13ifvqhog","pricing_plan_id":"cebpf4jnsgd1na2vs0mg"},{"bike_id":"a54bc16b-85b3-46aa-b423-218c19b5e292","system_id":"levelo_inurba_marseille","lat":43.32367,"lon":5.388836,"is_reserved":false,"is_disabled":false,"rental_uris":{"android":"levelo://app?vid=a54bc16b-85b3-46aa-b423-218c19b5e292","ios":"levelo://app?vid=a54bc16b-85b3-46aa-b423-218c19b5e292"},"vehicle_type_id":"4","last_reported":1712682403,"current_range_meters":28800,"station_id":"ce4bhqp2rcd13ifvqhog","pricing_plan_id":"cebpf4jnsgd1na2vs0mg"},{"bike_id":"b26dcf99-02a3-42e6-a542-99fa13bf59ef","system_id":"levelo_inurba_marseille","lat":43.32368,"lon":5.38883,"is_reserved":false,"is_disabled":false,"rental_uris":{"android":"levelo://app?vid=b26dcf99-02a3-42e6-a542-99fa13bf59ef","ios":"levelo://app?vid=b26dcf99-02a3-42e6-a542-99fa13bf59ef"},"vehicle_type_id":"4","last_reported":1712682403,"current_range_meters":12400,"station_id":"ce4bhqp2rcd13ifvqhog","pricing_plan_id":"cebpf4jnsgd1na2vs0mg"},{"bike_id":"fae732af-6422-4e81-ade9-9956f1d7a8a2","system_id":"levelo_inurba_marseille","lat":43.32366,"lon":5.38885,"is_reserved":false,"is_disabled":false,"rental_uris":{"android":"levelo://app?vid=fae732af-6422-4e81-ade9-9956f1d7a8a2","ios":"levelo://app?vid=fae732af-6422-4e81-ade9-9956f1d7a8a2"},"vehicle_type_id":"4","last_reported":1712682403,"current_range_meters":18800,"station_id":"ce4bhqp2rcd13ifvqhog","pricing_plan_id":"cebpf4jnsgd1na2vs0mg"},{"bike_id":"d367b417-5fca-4369-814d-27aadfdeba43","system_id":"levelo_inurba_marseille","lat":43.32367,"lon":5.388836,"is_reserved":false,"is_disabled":false,"rental_uris":{"android":"levelo://app?vid=d367b417-5fca-4369-814d-27aadfdeba43","ios":"levelo://app?vid=d367b417-5fca-4369-814d-27aadfdeba43"},"vehicle_type_id":"4","last_reported":1712682403,"current_range_meters":26800,"station_id":"ce4bhqp2rcd13ifvqhog","pricing_plan_id":"cebpf4jnsgd1na2vs0mg"},{"bike_id":"579700e7-de2e-49a6-8d0d-9cc4d5b92308","system_id":"levelo_inurba_marseille","lat":43.32366,"lon":5.38888,"is_reserved":false,"is_disabled":false,"rental_uris":{"android":"levelo://app?vid=579700e7-de2e-49a6-8d0d-9cc4d5b92308","ios":"levelo://app?vid=579700e7-de2e-49a6-8d0d-9cc4d5b92308"},"vehicle_type_id":"4","last_reported":1712682403,"current_range_meters":0,"station_id":"ce4bhqp2rcd13ifvqhog","pricing_plan_id":"cebpf4jnsgd1na2vs0mg"},{"bike_id":"389e8324-0984-467e-b5e2-6c875757b707","system_id":"levelo_inurba_marseille","lat":43.32367,"lon":5.388836,"is_reserved":false,"is_disabled":false,"rental_uris":{"android":"levelo://app?vid=389e8324-0984-467e-b5e2-6c875757b707","ios":"levelo://app?vid=389e8324-0984-467e-b5e2-6c875757b707"},"vehicle_type_id":"4","last_reported":1712682403,"current_range_meters":27600,"station_id":"ce4bhqp2rcd13ifvqhog","pricing_plan_id":"cebpf4jnsgd1na2vs0mg"},{"bike_id":"26894fc2-242d-476d-ad6b-0929b64a6290","system_id":"levelo_inurba_marseille","lat":43.296008,"lon":5.380993,"is_reserved":false,"is_disabled":false,"rental_uris":{"android":"levelo://app?vid=26894fc2-242d-476d-ad6b-0929b64a6290","ios":"levelo://app?vid=26894fc2-242d-476d-ad6b-0929b64a6290"},"vehicle_type_id":"4","last_reported":1712682403,"current_range_meters":0,"station_id":"ce4bgl12rcd13ifvqbo0","pricing_plan_id":"cebpf4jnsgd1na2vs0mg"},{"bike_id":"9739f61c-dbf2-4943-ba1f-7fe13bd82478","system_id":"levelo_inurba_marseille","lat":43.285742,"lon":5.395004,"is_reserved":false,"is_disabled":false,"rental_uris":{"android":"levelo://app?vid=9739f61c-dbf2-4943-ba1f-7fe13bd82478","ios":"levelo://app?vid=9739f61c-dbf2-4943-ba1f-7fe13bd82478"},"vehicle_type_id":"4","last_reported":1712682403,"current_range_meters":2000,"station_id":"ce4bh292rcd13ifvqdg0","pricing_plan_id":"cebpf4jnsgd1na2vs0mg"},{"bike_id":"ba95910c-c11a-4da1-bd90-7693808462d6","system_id":"levelo_inurba_marseille","lat":43.31421,"lon":5.39389,"is_reserved":false,"is_disabled":false,"rental_uris":{"android":"levelo://app?vid=ba95910c-c11a-4da1-bd90-7693808462d6","ios":"levelo://app?vid=ba95910c-c11a-4da1-bd90-7693808462d6"},"vehicle_type_id":"4","last_reported":1712682403,"current_range_meters":28800,"station_id":"","pricing_plan_id":"cebpf4jnsgd1na2vs0mg"},{"bike_id":"7b5a3a30-c942-4f0c-a088-8f20e0d84d78","system_id":"levelo_inurba_marseille","lat":43.293249,"lon":5.371578,"is_reserved":false,"is_disabled":false,"rental_uris":{"android":"levelo://app?vid=7b5a3a30-c942-4f0c-a088-8f20e0d84d78","ios":"levelo://app?vid=7b5a3a30-c942-4f0c-a088-8f20e0d84d78"},"vehicle_type_id":"4","last_reported":1712682403,"current_range_meters":25600,"station_id":"ce4bgh92rcd13ifvqb40","pricing_plan_id":"cebpf4jnsgd1na2vs0mg"},{"bike_id":"64989cd1-d1ba-48a9-9679-fc6a2166608f","system_id":"levelo_inurba_marseille","lat":43.29308,"lon":5.37181,"is_reserved":false,"is_disabled":false,"rental_uris":{"android":"levelo://app?vid=64989cd1-d1ba-48a9-9679-fc6a2166608f","ios":"levelo://app?vid=64989cd1-d1ba-48a9-9679-fc6a2166608f"},"vehicle_type_id":"4","last_reported":1712682403,"current_range_meters":800,"station_id":"ce4bgh92rcd13ifvqb40","pricing_plan_id":"cebpf4jnsgd1na2vs0mg"},{"bike_id":"06f7769f-96ea-44e0-aea9-a426170e0ab7","system_id":"levelo_inurba_marseille","lat":43.292703,"lon":5.368426,"is_reserved":false,"is_disabled":false,"rental_uris":{"android":"levelo://app?vid=06f7769f-96ea-44e0-aea9-a426170e0ab7","ios":"levelo://app?vid=06f7769f-96ea-44e0-aea9-a426170e0ab7"},"vehicle_type_id":"4","last_reported":1712682403,"current_range_meters":28400,"station_id":"ce4bhbp2rcd13ifvqesg","pricing_plan_id":"cebpf4jnsgd1na2vs0mg"},{"bike_id":"246c443d-1257-418a-a196-6bb94c69b7c1","system_id":"levelo_inurba_marseille","lat":43.29309,"lon":5.37459,"is_reserved":false,"is_disabled":false,"rental_uris":{"android":"levelo://app?vid=246c443d-1257-418a-a196-6bb94c69b7c1","ios":"levelo://app?vid=246c443d-1257-418a-a196-6bb94c69b7c1"},"vehicle_type_id":"4","last_reported":1712682403,"current_range_meters":0,"station_id":"ce4bgi12rcd13ifvqb70","pricing_plan_id":"cebpf4jnsgd1na2vs0mg"},{"bike_id":"c1f8cd2c-e529-4324-9ee2-518b3852290d","system_id":"levelo_inurba_marseille","lat":43.293009,"lon":5.374584,"is_reserved":false,"is_disabled":false,"rental_uris":{"android":"levelo://app?vid=c1f8cd2c-e529-4324-9ee2-518b3852290d","ios":"levelo://app?vid=c1f8cd2c-e529-4324-9ee2-518b3852290d"},"vehicle_type_id":"4","last_reported":1712682403,"current_range_meters":10000,"station_id":"ce4bgi12rcd13ifvqb70","pricing_plan_id":"cebpf4jnsgd1na2vs0mg"},{"bike_id":"62de4aa9-2abb-4d7a-b62e-15d4fd42df5a","system_id":"levelo_inurba_marseille","lat":43.293009,"lon":5.374584,"is_reserved":false,"is_disabled":false,"rental_uris":{"android":"levelo://app?vid=62de4aa9-2abb-4d7a-b62e-15d4fd42df5a","ios":"levelo://app?vid=62de4aa9-2abb-4d7a-b62e-15d4fd42df5a"},"vehicle_type_id":"4","last_reported":1712682403,"current_range_meters":7600,"station_id":"ce4bgi12rcd13ifvqb70","pricing_plan_id":"cebpf4jnsgd1na2vs0mg"},{"bike_id":"9ce1b74f-627a-4c0b-80c4-a1d1828b3b7c","system_id":"levelo_inurba_marseille","lat":43.305994,"lon":5.393687,"is_reserved":false,"is_disabled":false,"rental_uris":{"android":"levelo://app?vid=9ce1b74f-627a-4c0b-80c4-a1d1828b3b7c","ios":"levelo://app?vid=9ce1b74f-627a-4c0b-80c4-a1d1828b3b7c"},"vehicle_type_id":"4","last_reported":1712682403,"current_range_meters":10800,"station_id":"ce4bh0p2rcd13ifvqd80","pricing_plan_id":"cebpf4jnsgd1na2vs0mg"},{"bike_id":"2daa2b87-1fe1-4837-9ad4-fd127b17f69f","system_id":"levelo_inurba_marseille","lat":43.293009,"lon":5.374584,"is_reserved":false,"is_disabled":false,"rental_uris":{"android":"levelo://app?vid=2daa2b87-1fe1-4837-9ad4-fd127b17f69f","ios":"levelo://app?vid=2daa2b87-1fe1-4837-9ad4-fd127b17f69f"},"vehicle_type_id":"4","last_reported":1712682403,"current_range_meters":17200,"station_id":"ce4bgi12rcd13ifvqb70","pricing_plan_id":"cebpf4jnsgd1na2vs0mg"},{"bike_id":"98764530-dad4-492b-bc88-b3ef35040900","system_id":"levelo_inurba_marseille","lat":43.303002,"lon":5.392142,"is_reserved":false,"is_disabled":false,"rental_uris":{"android":"levelo://app?vid=98764530-dad4-492b-bc88-b3ef35040900","ios":"levelo://app?vid=98764530-dad4-492b-bc88-b3ef35040900"},"vehicle_type_id":"4","last_reported":1712682403,"current_range_meters":8000,"station_id":"ce4bgkh2rcd13ifvqbk0","pricing_plan_id":"cebpf4jnsgd1na2vs0mg"},{"bike_id":"85f074a0-2460-49d8-96bb-6dda625b8d7b","system_id":"levelo_inurba_marseille","lat":43.30642,"lon":5.401031,"is_reserved":false,"is_disabled":false,"rental_uris":{"android":"levelo://app?vid=85f074a0-2460-49d8-96bb-6dda625b8d7b","ios":"levelo://app?vid=85f074a0-2460-49d8-96bb-6dda625b8d7b"},"vehicle_type_id":"4","last_reported":1712682403,"current_range_meters":23200,"station_id":"ce4bh112rcd13ifvqda0","pricing_plan_id":"cebpf4jnsgd1na2vs0mg"},{"bike_id":"41ba8934-c446-45ac-8564-c1df949f5146","system_id":"levelo_inurba_marseille","lat":43.30085,"lon":5.390856,"is_reserved":false,"is_disabled":false,"rental_uris":{"android":"levelo://app?vid=41ba8934-c446-45ac-8564-c1df949f5146","ios":"levelo://app?vid=41ba8934-c446-45ac-8564-c1df949f5146"},"vehicle_type_id":"4","last_reported":1712682403,"current_range_meters":10800,"station_id":"ce4bh192rcd13ifvqdb0","pricing_plan_id":"cebpf4jnsgd1na2vs0mg"},{"bike_id":"e8346af3-13da-4345-83eb-ae9ed84ff777","system_id":"levelo_inurba_marseille","lat":43.30085,"lon":5.390856,"is_reserved":false,"is_disabled":false,"rental_uris":{"android":"levelo://app?vid=e8346af3-13da-4345-83eb-ae9ed84ff777","ios":"levelo://app?vid=e8346af3-13da-4345-83eb-ae9ed84ff777"},"vehicle_type_id":"4","last_reported":1712682403,"current_range_meters":6000,"station_id":"ce4bh192rcd13ifvqdb0","pricing_plan_id":"cebpf4jnsgd1na2vs0mg"},{"bike_id":"c716a69b-2207-4756-bbab-090f13662e2e","system_id":"levelo_inurba_marseille","lat":43.292311,"lon":5.360731,"is_reserved":false,"is_disabled":false,"rental_uris":{"android":"levelo://app?vid=c716a69b-2207-4756-bbab-090f13662e2e","ios":"levelo://app?vid=c716a69b-2207-4756-bbab-090f13662e2e"},"vehicle_type_id":"4","last_reported":1712682403,"current_range_meters":17200,"station_id":"ce4bhbh2rcd13ifvqeqg","pricing_plan_id":"cebpf4jnsgd1na2vs0mg"},{"bike_id":"b27ffe40-55a8-440b-bda9-33fec89b158a","system_id":"levelo_inurba_marseille","lat":43.300969,"lon":5.39075,"is_reserved":false,"is_disabled":false,"rental_uris":{"android":"levelo://app?vid=b27ffe40-55a8-440b-bda9-33fec89b158a","ios":"levelo://app?vid=b27ffe40-55a8-440b-bda9-33fec89b158a"},"vehicle_type_id":"4","last_reported":1712682403,"current_range_meters":1200,"station_id":"ce4bh192rcd13ifvqdb0","pricing_plan_id":"cebpf4jnsgd1na2vs0mg"},{"bike_id":"64f8a0cd-df0f-44fc-93ca-1a7968bd563b","system_id":"levelo_inurba_marseille","lat":43.292311,"lon":5.360731,"is_reserved":false,"is_disabled":false,"rental_uris":{"android":"levelo://app?vid=64f8a0cd-df0f-44fc-93ca-1a7968bd563b","ios":"levelo://app?vid=64f8a0cd-df0f-44fc-93ca-1a7968bd563b"},"vehicle_type_id":"4","last_reported":1712682403,"current_range_meters":800,"station_id":"ce4bhbh2rcd13ifvqeqg","pricing_plan_id":"cebpf4jnsgd1na2vs0mg"},{"bike_id":"606dd7d1-4289-4e92-a198-6648b01c5e21","system_id":"levelo_inurba_marseille","lat":43.292311,"lon":5.360731,"is_reserved":false,"is_disabled":false,"rental_uris":{"android":"levelo://app?vid=606dd7d1-4289-4e92-a198-6648b01c5e21","ios":"levelo://app?vid=606dd7d1-4289-4e92-a198-6648b01c5e21"},"vehicle_type_id":"4","last_reported":1712682403,"current_range_meters":10000,"station_id":"ce4bhbh2rcd13ifvqeqg","pricing_plan_id":"cebpf4jnsgd1na2vs0mg"},{"bike_id":"457938b0-5297-44a7-9ff7-a0b121719fd3","system_id":"levelo_inurba_marseille","lat":43.300852,"lon":5.390859,"is_reserved":false,"is_disabled":false,"rental_uris":{"android":"levelo://app?vid=457938b0-5297-44a7-9ff7-a0b121719fd3","ios":"levelo://app?vid=457938b0-5297-44a7-9ff7-a0b121719fd3"},"vehicle_type_id":"4","last_reported":1712682403,"current_range_meters":10400,"station_id":"ce4bh192rcd13ifvqdb0","pricing_plan_id":"cebpf4jnsgd1na2vs0mg"},{"bike_id":"e6ce403e-3b89-4191-8716-93d4f5715e6e","system_id":"levelo_inurba_marseille","lat":43.292311,"lon":5.360731,"is_reserved":false,"is_disabled":false,"rental_uris":{"android":"levelo://app?vid=e6ce403e-3b89-4191-8716-93d4f5715e6e","ios":"levelo://app?vid=e6ce403e-3b89-4191-8716-93d4f5715e6e"},"vehicle_type_id":"4","last_reported":1712682403,"current_range_meters":24000,"station_id":"ce4bhbh2rcd13ifvqeqg","pricing_plan_id":"cebpf4jnsgd1na2vs0mg"},{"bike_id":"ecf50568-267b-48d9-b0c7-5a76289135a1","system_id":"levelo_inurba_marseille","lat":43.292311,"lon":5.360731,"is_reserved":false,"is_disabled":false,"rental_uris":{"android":"levelo://app?vid=ecf50568-267b-48d9-b0c7-5a76289135a1","ios":"levelo://app?vid=ecf50568-267b-48d9-b0c7-5a76289135a1"},"vehicle_type_id":"4","last_reported":1712682403,"current_range_meters":23600,"station_id":"ce4bhbh2rcd13ifvqeqg","pricing_plan_id":"cebpf4jnsgd1na2vs0mg"},{"bike_id":"1d9ae274-5842-4b84-9182-b21709905992","system_id":"levelo_inurba_marseille","lat":43.292311,"lon":5.360731,"is_reserved":false,"is_disabled":false,"rental_uris":{"android":"levelo://app?vid=1d9ae274-5842-4b84-9182-b21709905992","ios":"levelo://app?vid=1d9ae274-5842-4b84-9182-b21709905992"},"vehicle_type_id":"4","last_reported":1712682403,"current_range_meters":30400,"station_id":"ce4bhbh2rcd13ifvqeqg","pricing_plan_id":"cebpf4jnsgd1na2vs0mg"},{"bike_id":"54775a1c-ac30-400d-be22-461650a24fe0","system_id":"levelo_inurba_marseille","lat":43.30092,"lon":5.39082,"is_reserved":false,"is_disabled":false,"rental_uris":{"android":"levelo://app?vid=54775a1c-ac30-400d-be22-461650a24fe0","ios":"levelo://app?vid=54775a1c-ac30-400d-be22-461650a24fe0"},"vehicle_type_id":"4","last_reported":1712682403,"current_range_meters":0,"station_id":"ce4bh192rcd13ifvqdb0","pricing_plan_id":"cebpf4jnsgd1na2vs0mg"},{"bike_id":"d92cc5e2-dbc2-477b-afca-7e0aad55f566","system_id":"levelo_inurba_marseille","lat":43.291671,"lon":5.371575,"is_reserved":false,"is_disabled":false,"rental_uris":{"android":"levelo://app?vid=d92cc5e2-dbc2-477b-afca-7e0aad55f566","ios":"levelo://app?vid=d92cc5e2-dbc2-477b-afca-7e0aad55f566"},"vehicle_type_id":"4","last_reported":1712682403,"current_range_meters":14800,"station_id":"ce4bha92rcd13ifvqeh0","pricing_plan_id":"cebpf4jnsgd1na2vs0mg"},{"bike_id":"daa7978a-9a6b-4004-86e4-a22d5102c650","system_id":"levelo_inurba_marseille","lat":43.291675,"lon":5.371583,"is_reserved":false,"is_disabled":false,"rental_uris":{"android":"levelo://app?vid=daa7978a-9a6b-4004-86e4-a22d5102c650","ios":"levelo://app?vid=daa7978a-9a6b-4004-86e4-a22d5102c650"},"vehicle_type_id":"4","last_reported":1712682403,"current_range_meters":12800,"station_id":"ce4bha92rcd13ifvqeh0","pricing_plan_id":"cebpf4jnsgd1na2vs0mg"},{"bike_id":"d4385650-0f16-4f59-a495-480b65291ea1","system_id":"levelo_inurba_marseille","lat":43.299724,"lon":5.371829,"is_reserved":false,"is_disabled":false,"rental_uris":{"android":"levelo://app?vid=d4385650-0f16-4f59-a495-480b65291ea1","ios":"levelo://app?vid=d4385650-0f16-4f59-a495-480b65291ea1"},"vehicle_type_id":"4","last_reported":1712682403,"current_range_meters":0,"station_id":"ce4bgr92rcd13ifvqc7g","pricing_plan_id":"cebpf4jnsgd1na2vs0mg"},{"bike_id":"4e7037a0-ed97-46a5-8f30-b10364e72d05","system_id":"levelo_inurba_marseille","lat":43.312587,"lon":5.396608,"is_reserved":false,"is_disabled":false,"rental_uris":{"android":"levelo://app?vid=4e7037a0-ed97-46a5-8f30-b10364e72d05","ios":"levelo://app?vid=4e7037a0-ed97-46a5-8f30-b10364e72d05"},"vehicle_type_id":"4","last_reported":1712682403,"current_range_meters":1200,"station_id":"ce4bgvp2rcd13ifvqcu0","pricing_plan_id":"cebpf4jnsgd1na2vs0mg"},{"bike_id":"8472a06a-2246-4261-8adf-45a945babbf9","system_id":"levelo_inurba_marseille","lat":43.301561,"lon":5.392353,"is_reserved":false,"is_disabled":false,"rental_uris":{"android":"levelo://app?vid=8472a06a-2246-4261-8adf-45a945babbf9","ios":"levelo://app?vid=8472a06a-2246-4261-8adf-45a945babbf9"},"vehicle_type_id":"4","last_reported":1712682403,"current_range_meters":3200,"station_id":"","pricing_plan_id":"cebpf4jnsgd1na2vs0mg"},{"bike_id":"88ba09a0-bab4-4922-a632-179f6d89ef26","system_id":"levelo_inurba_marseille","lat":43.30891,"lon":5.39629,"is_reserved":false,"is_disabled":false,"rental_uris":{"android":"levelo://app?vid=88ba09a0-bab4-4922-a632-179f6d89ef26","ios":"levelo://app?vid=88ba09a0-bab4-4922-a632-179f6d89ef26"},"vehicle_type_id":"4","last_reported":1712682403,"current_range_meters":15600,"station_id":"ce4bh012rcd13ifvqcv0","pricing_plan_id":"cebpf4jnsgd1na2vs0mg"},{"bike_id":"bd563087-28be-476e-8192-fa4c1c2b7e6d","system_id":"levelo_inurba_marseille","lat":43.290995,"lon":5.381361,"is_reserved":false,"is_disabled":false,"rental_uris":{"android":"levelo://app?vid=bd563087-28be-476e-8192-fa4c1c2b7e6d","ios":"levelo://app?vid=bd563087-28be-476e-8192-fa4c1c2b7e6d"},"vehicle_type_id":"4","last_reported":1712682403,"current_range_meters":18400,"station_id":"ce4bh512rcd13ifvqe2g","pricing_plan_id":"cebpf4jnsgd1na2vs0mg"},{"bike_id":"470f9143-0e63-4325-af62-2d3a77ef493f","system_id":"levelo_inurba_marseille","lat":43.291994,"lon":5.357886,"is_reserved":false,"is_disabled":false,"rental_uris":{"android":"levelo://app?vid=470f9143-0e63-4325-af62-2d3a77ef493f","ios":"levelo://app?vid=470f9143-0e63-4325-af62-2d3a77ef493f"},"vehicle_type_id":"4","last_reported":1712682403,"current_range_meters":0,"station_id":"ce4bhb12rcd13ifvqel0","pricing_plan_id":"cebpf4jnsgd1na2vs0mg"},{"bike_id":"9c44345b-b564-4231-be90-1f63a137616a","system_id":"levelo_inurba_marseille","lat":43.292005,"lon":5.357875,"is_reserved":false,"is_disabled":false,"rental_uris":{"android":"levelo://app?vid=9c44345b-b564-4231-be90-1f63a137616a","ios":"levelo://app?vid=9c44345b-b564-4231-be90-1f63a137616a"},"vehicle_type_id":"4","last_reported":1712682403,"current_range_meters":4400,"station_id":"ce4bhb12rcd13ifvqel0","pricing_plan_id":"cebpf4jnsgd1na2vs0mg"},{"bike_id":"f4972bad-def0-4624-9e9a-998fdfa01a17","system_id":"levelo_inurba_marseille","lat":43.29196,"lon":5.35798,"is_reserved":false,"is_disabled":false,"rental_uris":{"android":"levelo://app?vid=f4972bad-def0-4624-9e9a-998fdfa01a17","ios":"levelo://app?vid=f4972bad-def0-4624-9e9a-998fdfa01a17"},"vehicle_type_id":"4","last_reported":1712682403,"current_range_meters":16400,"station_id":"ce4bhb12rcd13ifvqel0","pricing_plan_id":"cebpf4jnsgd1na2vs0mg"},{"bike_id":"f3fc23c2-5612-4a58-ab49-f8eb36b41734","system_id":"levelo_inurba_marseille","lat":43.31331,"lon":5.39686,"is_reserved":false,"is_disabled":false,"rental_uris":{"android":"levelo://app?vid=f3fc23c2-5612-4a58-ab49-f8eb36b41734","ios":"levelo://app?vid=f3fc23c2-5612-4a58-ab49-f8eb36b41734"},"vehicle_type_id":"4","last_reported":1712682403,"current_range_meters":23600,"station_id":"ce4bgvp2rcd13ifvqcu0","pricing_plan_id":"cebpf4jnsgd1na2vs0mg"},{"bike_id":"85ab6007-8b0c-4dc5-a24c-14b044ea9e8f","system_id":"levelo_inurba_marseille","lat":43.309038,"lon":5.396546,"is_reserved":false,"is_disabled":false,"rental_uris":{"android":"levelo://app?vid=85ab6007-8b0c-4dc5-a24c-14b044ea9e8f","ios":"levelo://app?vid=85ab6007-8b0c-4dc5-a24c-14b044ea9e8f"},"vehicle_type_id":"4","last_reported":1712682403,"current_range_meters":26800,"station_id":"ce4bh012rcd13ifvqcv0","pricing_plan_id":"cebpf4jnsgd1na2vs0mg"},{"bike_id":"43c4bf0a-4ebd-4254-80ec-2f81b30daf99","system_id":"levelo_inurba_marseille","lat":43.313291,"lon":5.396838,"is_reserved":false,"is_disabled":false,"rental_uris":{"android":"levelo://app?vid=43c4bf0a-4ebd-4254-80ec-2f81b30daf99","ios":"levelo://app?vid=43c4bf0a-4ebd-4254-80ec-2f81b30daf99"},"vehicle_type_id":"4","last_reported":1712682403,"current_range_meters":1200,"station_id":"ce4bgvp2rcd13ifvqcu0","pricing_plan_id":"cebpf4jnsgd1na2vs0mg"},{"bike_id":"9fe50c33-eecf-48b1-8986-2b848fe811f8","system_id":"levelo_inurba_marseille","lat":43.313291,"lon":5.396838,"is_reserved":false,"is_disabled":false,"rental_uris":{"android":"levelo://app?vid=9fe50c33-eecf-48b1-8986-2b848fe811f8","ios":"levelo://app?vid=9fe50c33-eecf-48b1-8986-2b848fe811f8"},"vehicle_type_id":"4","last_reported":1712682403,"current_range_meters":8800,"station_id":"ce4bgvp2rcd13ifvqcu0","pricing_plan_id":"cebpf4jnsgd1na2vs0mg"},{"bike_id":"fb43e336-66c0-435c-afdc-8eb43f26c8c8","system_id":"levelo_inurba_marseille","lat":43.309038,"lon":5.396546,"is_reserved":false,"is_disabled":false,"rental_uris":{"android":"levelo://app?vid=fb43e336-66c0-435c-afdc-8eb43f26c8c8","ios":"levelo://app?vid=fb43e336-66c0-435c-afdc-8eb43f26c8c8"},"vehicle_type_id":"4","last_reported":1712682403,"current_range_meters":16400,"station_id":"ce4bh012rcd13ifvqcv0","pricing_plan_id":"cebpf4jnsgd1na2vs0mg"},{"bike_id":"b1174bec-996c-410b-bd07-e305dd46493b","system_id":"levelo_inurba_marseille","lat":43.313291,"lon":5.396838,"is_reserved":false,"is_disabled":false,"rental_uris":{"android":"levelo://app?vid=b1174bec-996c-410b-bd07-e305dd46493b","ios":"levelo://app?vid=b1174bec-996c-410b-bd07-e305dd46493b"},"vehicle_type_id":"4","last_reported":1712682403,"current_range_meters":1200,"station_id":"ce4bgvp2rcd13ifvqcu0","pricing_plan_id":"cebpf4jnsgd1na2vs0mg"},{"bike_id":"fe00ebc7-6b18-47cf-8327-32f9239c3988","system_id":"levelo_inurba_marseille","lat":43.30892,"lon":5.39645,"is_reserved":false,"is_disabled":false,"rental_uris":{"android":"levelo://app?vid=fe00ebc7-6b18-47cf-8327-32f9239c3988","ios":"levelo://app?vid=fe00ebc7-6b18-47cf-8327-32f9239c3988"},"vehicle_type_id":"4","last_reported":1712682403,"current_range_meters":9600,"station_id":"ce4bh012rcd13ifvqcv0","pricing_plan_id":"cebpf4jnsgd1na2vs0mg"},{"bike_id":"e3193564-97cd-4031-a4b3-0a1613600038","system_id":"levelo_inurba_marseille","lat":43.309038,"lon":5.396546,"is_reserved":false,"is_disabled":false,"rental_uris":{"android":"levelo://app?vid=e3193564-97cd-4031-a4b3-0a1613600038","ios":"levelo://app?vid=e3193564-97cd-4031-a4b3-0a1613600038"},"vehicle_type_id":"4","last_reported":1712682403,"current_range_meters":31200,"station_id":"ce4bh012rcd13ifvqcv0","pricing_plan_id":"cebpf4jnsgd1na2vs0mg"},{"bike_id":"a2beeb0e-0c71-4913-9f85-6577a3e4e07d","system_id":"levelo_inurba_marseille","lat":43.309047,"lon":5.396551,"is_reserved":false,"is_disabled":false,"rental_uris":{"android":"levelo://app?vid=a2beeb0e-0c71-4913-9f85-6577a3e4e07d","ios":"levelo://app?vid=a2beeb0e-0c71-4913-9f85-6577a3e4e07d"},"vehicle_type_id":"4","last_reported":1712682403,"current_range_meters":31200,"station_id":"ce4bh012rcd13ifvqcv0","pricing_plan_id":"cebpf4jnsgd1na2vs0mg"},{"bike_id":"b55a0264-b04c-4e69-be6c-6c18c007ba76","system_id":"levelo_inurba_marseille","lat":43.313291,"lon":5.396838,"is_reserved":false,"is_disabled":false,"rental_uris":{"android":"levelo://app?vid=b55a0264-b04c-4e69-be6c-6c18c007ba76","ios":"levelo://app?vid=b55a0264-b04c-4e69-be6c-6c18c007ba76"},"vehicle_type_id":"4","last_reported":1712682403,"current_range_meters":6800,"station_id":"ce4bgvp2rcd13ifvqcu0","pricing_plan_id":"cebpf4jnsgd1na2vs0mg"},{"bike_id":"28d917ca-3903-4c84-a499-884e072c679a","system_id":"levelo_inurba_marseille","lat":43.30891,"lon":5.39649,"is_reserved":false,"is_disabled":false,"rental_uris":{"android":"levelo://app?vid=28d917ca-3903-4c84-a499-884e072c679a","ios":"levelo://app?vid=28d917ca-3903-4c84-a499-884e072c679a"},"vehicle_type_id":"4","last_reported":1712682403,"current_range_meters":1600,"station_id":"ce4bh012rcd13ifvqcv0","pricing_plan_id":"cebpf4jnsgd1na2vs0mg"},{"bike_id":"0a6a26b3-ba97-4760-bf57-a9e3e27b5b1b","system_id":"levelo_inurba_marseille","lat":43.309038,"lon":5.396546,"is_reserved":false,"is_disabled":false,"rental_uris":{"android":"levelo://app?vid=0a6a26b3-ba97-4760-bf57-a9e3e27b5b1b","ios":"levelo://app?vid=0a6a26b3-ba97-4760-bf57-a9e3e27b5b1b"},"vehicle_type_id":"4","last_reported":1712682403,"current_range_meters":10800,"station_id":"ce4bh012rcd13ifvqcv0","pricing_plan_id":"cebpf4jnsgd1na2vs0mg"},{"bike_id":"0ad3ede0-299b-4056-ae46-a30f66602bd4","system_id":"levelo_inurba_marseille","lat":43.30886,"lon":5.39649,"is_reserved":false,"is_disabled":false,"rental_uris":{"android":"levelo://app?vid=0ad3ede0-299b-4056-ae46-a30f66602bd4","ios":"levelo://app?vid=0ad3ede0-299b-4056-ae46-a30f66602bd4"},"vehicle_type_id":"4","last_reported":1712682403,"current_range_meters":25600,"station_id":"ce4bh012rcd13ifvqcv0","pricing_plan_id":"cebpf4jnsgd1na2vs0mg"},{"bike_id":"9f08890b-9e90-49bd-9b51-46d1644144eb","system_id":"levelo_inurba_marseille","lat":43.30891,"lon":5.39652,"is_reserved":false,"is_disabled":false,"rental_uris":{"android":"levelo://app?vid=9f08890b-9e90-49bd-9b51-46d1644144eb","ios":"levelo://app?vid=9f08890b-9e90-49bd-9b51-46d1644144eb"},"vehicle_type_id":"4","last_reported":1712682403,"current_range_meters":0,"station_id":"ce4bh012rcd13ifvqcv0","pricing_plan_id":"cebpf4jnsgd1na2vs0mg"},{"bike_id":"593b4049-e3ef-42af-b533-358e4d4d16fc","system_id":"levelo_inurba_marseille","lat":43.302008,"lon":5.394694,"is_reserved":false,"is_disabled":false,"rental_uris":{"android":"levelo://app?vid=593b4049-e3ef-42af-b533-358e4d4d16fc","ios":"levelo://app?vid=593b4049-e3ef-42af-b533-358e4d4d16fc"},"vehicle_type_id":"4","last_reported":1712682403,"current_range_meters":0,"station_id":"ce4bh0p2rcd13ifvqd70","pricing_plan_id":"cebpf4jnsgd1na2vs0mg"},{"bike_id":"7f77fe6e-6e5e-4847-91e2-788406e95982","system_id":"levelo_inurba_marseille","lat":43.30884,"lon":5.39655,"is_reserved":false,"is_disabled":false,"rental_uris":{"android":"levelo://app?vid=7f77fe6e-6e5e-4847-91e2-788406e95982","ios":"levelo://app?vid=7f77fe6e-6e5e-4847-91e2-788406e95982"},"vehicle_type_id":"4","last_reported":1712682403,"current_range_meters":1200,"station_id":"ce4bh012rcd13ifvqcv0","pricing_plan_id":"cebpf4jnsgd1na2vs0mg"},{"bike_id":"dc8de22a-5d91-4d33-ba07-71ade30371f6","system_id":"levelo_inurba_marseille","lat":43.309038,"lon":5.396546,"is_reserved":false,"is_disabled":false,"rental_uris":{"android":"levelo://app?vid=dc8de22a-5d91-4d33-ba07-71ade30371f6","ios":"levelo://app?vid=dc8de22a-5d91-4d33-ba07-71ade30371f6"},"vehicle_type_id":"4","last_reported":1712682403,"current_range_meters":17200,"station_id":"ce4bh012rcd13ifvqcv0","pricing_plan_id":"cebpf4jnsgd1na2vs0mg"},{"bike_id":"4a96fa73-fa5f-4934-a3e1-c2d3eccc7f6e","system_id":"levelo_inurba_marseille","lat":43.30892,"lon":5.39662,"is_reserved":false,"is_disabled":false,"rental_uris":{"android":"levelo://app?vid=4a96fa73-fa5f-4934-a3e1-c2d3eccc7f6e","ios":"levelo://app?vid=4a96fa73-fa5f-4934-a3e1-c2d3eccc7f6e"},"vehicle_type_id":"4","last_reported":1712682403,"current_range_meters":4800,"station_id":"ce4bh012rcd13ifvqcv0","pricing_plan_id":"cebpf4jnsgd1na2vs0mg"},{"bike_id":"d9bcc43a-4932-4a64-8e43-7555c88b8153","system_id":"levelo_inurba_marseille","lat":43.309038,"lon":5.396546,"is_reserved":false,"is_disabled":false,"rental_uris":{"android":"levelo://app?vid=d9bcc43a-4932-4a64-8e43-7555c88b8153","ios":"levelo://app?vid=d9bcc43a-4932-4a64-8e43-7555c88b8153"},"vehicle_type_id":"4","last_reported":1712682403,"current_range_meters":16800,"station_id":"ce4bh012rcd13ifvqcv0","pricing_plan_id":"cebpf4jnsgd1na2vs0mg"},{"bike_id":"c98d29cc-c3f1-4953-a48e-7173ac182bc5","system_id":"levelo_inurba_marseille","lat":43.29529,"lon":5.385581,"is_reserved":false,"is_disabled":false,"rental_uris":{"android":"levelo://app?vid=c98d29cc-c3f1-4953-a48e-7173ac182bc5","ios":"levelo://app?vid=c98d29cc-c3f1-4953-a48e-7173ac182bc5"},"vehicle_type_id":"4","last_reported":1712682403,"current_range_meters":0,"station_id":"ce4bgih2rcd13ifvqba0","pricing_plan_id":"cebpf4jnsgd1na2vs0mg"},{"bike_id":"77d8045c-18b1-4268-b531-708108e54a5f","system_id":"levelo_inurba_marseille","lat":43.29529,"lon":5.385581,"is_reserved":false,"is_disabled":false,"rental_uris":{"android":"levelo://app?vid=77d8045c-18b1-4268-b531-708108e54a5f","ios":"levelo://app?vid=77d8045c-18b1-4268-b531-708108e54a5f"},"vehicle_type_id":"4","last_reported":1712682403,"current_range_meters":6000,"station_id":"ce4bgih2rcd13ifvqba0","pricing_plan_id":"cebpf4jnsgd1na2vs0mg"},{"bike_id":"d828dd6c-dd4e-4e31-9651-8cee53075264","system_id":"levelo_inurba_marseille","lat":43.29529,"lon":5.385581,"is_reserved":false,"is_disabled":false,"rental_uris":{"android":"levelo://app?vid=d828dd6c-dd4e-4e31-9651-8cee53075264","ios":"levelo://app?vid=d828dd6c-dd4e-4e31-9651-8cee53075264"},"vehicle_type_id":"4","last_reported":1712682403,"current_range_meters":12800,"station_id":"ce4bgih2rcd13ifvqba0","pricing_plan_id":"cebpf4jnsgd1na2vs0mg"},{"bike_id":"16830e5f-3604-4a1c-a6c1-fd0814e95f78","system_id":"levelo_inurba_marseille","lat":43.29529,"lon":5.385581,"is_reserved":false,"is_disabled":false,"rental_uris":{"android":"levelo://app?vid=16830e5f-3604-4a1c-a6c1-fd0814e95f78","ios":"levelo://app?vid=16830e5f-3604-4a1c-a6c1-fd0814e95f78"},"vehicle_type_id":"4","last_reported":1712682403,"current_range_meters":16000,"station_id":"ce4bgih2rcd13ifvqba0","pricing_plan_id":"cebpf4jnsgd1na2vs0mg"},{"bike_id":"823a9951-b96b-4b68-95d0-11dc40756334","system_id":"levelo_inurba_marseille","lat":43.29534,"lon":5.38548,"is_reserved":false,"is_disabled":false,"rental_uris":{"android":"levelo://app?vid=823a9951-b96b-4b68-95d0-11dc40756334","ios":"levelo://app?vid=823a9951-b96b-4b68-95d0-11dc40756334"},"vehicle_type_id":"4","last_reported":1712682403,"current_range_meters":0,"station_id":"ce4bgih2rcd13ifvqba0","pricing_plan_id":"cebpf4jnsgd1na2vs0mg"},{"bike_id":"24e1b5ea-3fd3-4f10-abb8-dcd3dbcc295d","system_id":"levelo_inurba_marseille","lat":43.29529,"lon":5.385581,"is_reserved":false,"is_disabled":false,"rental_uris":{"android":"levelo://app?vid=24e1b5ea-3fd3-4f10-abb8-dcd3dbcc295d","ios":"levelo://app?vid=24e1b5ea-3fd3-4f10-abb8-dcd3dbcc295d"},"vehicle_type_id":"4","last_reported":1712682403,"current_range_meters":0,"station_id":"ce4bgih2rcd13ifvqba0","pricing_plan_id":"cebpf4jnsgd1na2vs0mg"},{"bike_id":"7fbbecef-5250-48a6-9aa2-b290c7e703b3","system_id":"levelo_inurba_marseille","lat":43.29529,"lon":5.385581,"is_reserved":false,"is_disabled":false,"rental_uris":{"android":"levelo://app?vid=7fbbecef-5250-48a6-9aa2-b290c7e703b3","ios":"levelo://app?vid=7fbbecef-5250-48a6-9aa2-b290c7e703b3"},"vehicle_type_id":"4","last_reported":1712682403,"current_range_meters":13200,"station_id":"ce4bgih2rcd13ifvqba0","pricing_plan_id":"cebpf4jnsgd1na2vs0mg"},{"bike_id":"c0e8e621-2583-4879-879b-0a2c0844166e","system_id":"levelo_inurba_marseille","lat":43.29529,"lon":5.385581,"is_reserved":false,"is_disabled":false,"rental_uris":{"android":"levelo://app?vid=c0e8e621-2583-4879-879b-0a2c0844166e","ios":"levelo://app?vid=c0e8e621-2583-4879-879b-0a2c0844166e"},"vehicle_type_id":"4","last_reported":1712682403,"current_range_meters":27600,"station_id":"ce4bgih2rcd13ifvqba0","pricing_plan_id":"cebpf4jnsgd1na2vs0mg"},{"bike_id":"9c859f0b-db2a-4439-8d10-3e2311080799","system_id":"levelo_inurba_marseille","lat":43.29529,"lon":5.385581,"is_reserved":false,"is_disabled":false,"rental_uris":{"android":"levelo://app?vid=9c859f0b-db2a-4439-8d10-3e2311080799","ios":"levelo://app?vid=9c859f0b-db2a-4439-8d10-3e2311080799"},"vehicle_type_id":"4","last_reported":1712682403,"current_range_meters":15600,"station_id":"ce4bgih2rcd13ifvqba0","pricing_plan_id":"cebpf4jnsgd1na2vs0mg"},{"bike_id":"c4eaae88-dbe0-47f4-bb68-aa2328cf996c","system_id":"levelo_inurba_marseille","lat":43.29529,"lon":5.385581,"is_reserved":false,"is_disabled":false,"rental_uris":{"android":"levelo://app?vid=c4eaae88-dbe0-47f4-bb68-aa2328cf996c","ios":"levelo://app?vid=c4eaae88-dbe0-47f4-bb68-aa2328cf996c"},"vehicle_type_id":"4","last_reported":1712682403,"current_range_meters":14800,"station_id":"ce4bgih2rcd13ifvqba0","pricing_plan_id":"cebpf4jnsgd1na2vs0mg"},{"bike_id":"8dd67e85-e5d8-4a39-aefb-5d4d9c167b8a","system_id":"levelo_inurba_marseille","lat":43.29141,"lon":5.358994,"is_reserved":false,"is_disabled":false,"rental_uris":{"android":"levelo://app?vid=8dd67e85-e5d8-4a39-aefb-5d4d9c167b8a","ios":"levelo://app?vid=8dd67e85-e5d8-4a39-aefb-5d4d9c167b8a"},"vehicle_type_id":"4","last_reported":1712682403,"current_range_meters":3600,"station_id":"","pricing_plan_id":"cebpf4jnsgd1na2vs0mg"},{"bike_id":"9972da42-e936-49ce-ac40-2f62cbd96366","system_id":"levelo_inurba_marseille","lat":43.29529,"lon":5.385581,"is_reserved":false,"is_disabled":false,"rental_uris":{"android":"levelo://app?vid=9972da42-e936-49ce-ac40-2f62cbd96366","ios":"levelo://app?vid=9972da42-e936-49ce-ac40-2f62cbd96366"},"vehicle_type_id":"4","last_reported":1712682403,"current_range_meters":1200,"station_id":"ce4bgih2rcd13ifvqba0","pricing_plan_id":"cebpf4jnsgd1na2vs0mg"},{"bike_id":"04149096-93e2-4055-a1e4-d41e046bea0a","system_id":"levelo_inurba_marseille","lat":43.290779,"lon":5.371482,"is_reserved":false,"is_disabled":false,"rental_uris":{"android":"levelo://app?vid=04149096-93e2-4055-a1e4-d41e046bea0a","ios":"levelo://app?vid=04149096-93e2-4055-a1e4-d41e046bea0a"},"vehicle_type_id":"4","last_reported":1712682403,"current_range_meters":0,"station_id":"ce4bh5p2rcd13ifvqe4g","pricing_plan_id":"cebpf4jnsgd1na2vs0mg"},{"bike_id":"0ca92911-03a0-4b85-81a8-b5db427d49ae","system_id":"levelo_inurba_marseille","lat":43.317075,"lon":5.377367,"is_reserved":false,"is_disabled":false,"rental_uris":{"android":"levelo://app?vid=0ca92911-03a0-4b85-81a8-b5db427d49ae","ios":"levelo://app?vid=0ca92911-03a0-4b85-81a8-b5db427d49ae"},"vehicle_type_id":"4","last_reported":1712682403,"current_range_meters":0,"station_id":"ce4bgth2rcd13ifvqch0","pricing_plan_id":"cebpf4jnsgd1na2vs0mg"},{"bike_id":"317ad2b1-9b6a-4f4b-b477-94a953d2bb97","system_id":"levelo_inurba_marseille","lat":43.290779,"lon":5.371482,"is_reserved":false,"is_disabled":false,"rental_uris":{"android":"levelo://app?vid=317ad2b1-9b6a-4f4b-b477-94a953d2bb97","ios":"levelo://app?vid=317ad2b1-9b6a-4f4b-b477-94a953d2bb97"},"vehicle_type_id":"4","last_reported":1712682403,"current_range_meters":8800,"station_id":"ce4bh5p2rcd13ifvqe4g","pricing_plan_id":"cebpf4jnsgd1na2vs0mg"},{"bike_id":"6c36cf75-65ad-49eb-86c8-5c16ca04efc3","system_id":"levelo_inurba_marseille","lat":43.302008,"lon":5.394694,"is_reserved":false,"is_disabled":false,"rental_uris":{"android":"levelo://app?vid=6c36cf75-65ad-49eb-86c8-5c16ca04efc3","ios":"levelo://app?vid=6c36cf75-65ad-49eb-86c8-5c16ca04efc3"},"vehicle_type_id":"4","last_reported":1712682403,"current_range_meters":27600,"station_id":"ce4bh0p2rcd13ifvqd70","pricing_plan_id":"cebpf4jnsgd1na2vs0mg"},{"bike_id":"75df1c58-e5ed-4ee0-adc2-a2578f5fc32c","system_id":"levelo_inurba_marseille","lat":43.302008,"lon":5.394694,"is_reserved":false,"is_disabled":false,"rental_uris":{"android":"levelo://app?vid=75df1c58-e5ed-4ee0-adc2-a2578f5fc32c","ios":"levelo://app?vid=75df1c58-e5ed-4ee0-adc2-a2578f5fc32c"},"vehicle_type_id":"4","last_reported":1712682403,"current_range_meters":14400,"station_id":"ce4bh0p2rcd13ifvqd70","pricing_plan_id":"cebpf4jnsgd1na2vs0mg"},{"bike_id":"42de011b-2fb6-42b6-9f18-ac1441fe451f","system_id":"levelo_inurba_marseille","lat":43.29467,"lon":5.386185,"is_reserved":false,"is_disabled":false,"rental_uris":{"android":"levelo://app?vid=42de011b-2fb6-42b6-9f18-ac1441fe451f","ios":"levelo://app?vid=42de011b-2fb6-42b6-9f18-ac1441fe451f"},"vehicle_type_id":"4","last_reported":1712682403,"current_range_meters":12400,"station_id":"ce4bh2h2rcd13ifvqdh0","pricing_plan_id":"cebpf4jnsgd1na2vs0mg"},{"bike_id":"9dfb34de-d5b5-4bc8-b178-46a3ece841bc","system_id":"levelo_inurba_marseille","lat":43.290631,"lon":5.359244,"is_reserved":false,"is_disabled":false,"rental_uris":{"android":"levelo://app?vid=9dfb34de-d5b5-4bc8-b178-46a3ece841bc","ios":"levelo://app?vid=9dfb34de-d5b5-4bc8-b178-46a3ece841bc"},"vehicle_type_id":"4","last_reported":1712682403,"current_range_meters":10800,"station_id":"ce4bha92rcd13ifvqeg0","pricing_plan_id":"cebpf4jnsgd1na2vs0mg"},{"bike_id":"439f1621-27c3-405a-8ef7-ff15409f99cc","system_id":"levelo_inurba_marseille","lat":43.290631,"lon":5.359244,"is_reserved":false,"is_disabled":false,"rental_uris":{"android":"levelo://app?vid=439f1621-27c3-405a-8ef7-ff15409f99cc","ios":"levelo://app?vid=439f1621-27c3-405a-8ef7-ff15409f99cc"},"vehicle_type_id":"4","last_reported":1712682403,"current_range_meters":400,"station_id":"ce4bha92rcd13ifvqeg0","pricing_plan_id":"cebpf4jnsgd1na2vs0mg"},{"bike_id":"4d1d3725-0d86-454b-b4de-b4329828bfe9","system_id":"levelo_inurba_marseille","lat":43.290631,"lon":5.359244,"is_reserved":false,"is_disabled":false,"rental_uris":{"android":"levelo://app?vid=4d1d3725-0d86-454b-b4de-b4329828bfe9","ios":"levelo://app?vid=4d1d3725-0d86-454b-b4de-b4329828bfe9"},"vehicle_type_id":"4","last_reported":1712682403,"current_range_meters":8400,"station_id":"ce4bha92rcd13ifvqeg0","pricing_plan_id":"cebpf4jnsgd1na2vs0mg"},{"bike_id":"75a7142a-7605-498a-bd23-e8c442c0be3c","system_id":"levelo_inurba_marseille","lat":43.29422,"lon":5.38617,"is_reserved":false,"is_disabled":false,"rental_uris":{"android":"levelo://app?vid=75a7142a-7605-498a-bd23-e8c442c0be3c","ios":"levelo://app?vid=75a7142a-7605-498a-bd23-e8c442c0be3c"},"vehicle_type_id":"4","last_reported":1712682403,"current_range_meters":10400,"station_id":"ce4bh2h2rcd13ifvqdh0","pricing_plan_id":"cebpf4jnsgd1na2vs0mg"},{"bike_id":"b944daa6-23fe-4a34-8289-1c624cb48190","system_id":"levelo_inurba_marseille","lat":43.29425,"lon":5.38623,"is_reserved":false,"is_disabled":false,"rental_uris":{"android":"levelo://app?vid=b944daa6-23fe-4a34-8289-1c624cb48190","ios":"levelo://app?vid=b944daa6-23fe-4a34-8289-1c624cb48190"},"vehicle_type_id":"4","last_reported":1712682403,"current_range_meters":0,"station_id":"ce4bh2h2rcd13ifvqdh0","pricing_plan_id":"cebpf4jnsgd1na2vs0mg"},{"bike_id":"a2054ff1-c450-4d62-8f49-432bc7be10b7","system_id":"levelo_inurba_marseille","lat":43.294245,"lon":5.386264,"is_reserved":false,"is_disabled":false,"rental_uris":{"android":"levelo://app?vid=a2054ff1-c450-4d62-8f49-432bc7be10b7","ios":"levelo://app?vid=a2054ff1-c450-4d62-8f49-432bc7be10b7"},"vehicle_type_id":"4","last_reported":1712682403,"current_range_meters":11600,"station_id":"ce4bh2h2rcd13ifvqdh0","pricing_plan_id":"cebpf4jnsgd1na2vs0mg"},{"bike_id":"f6d409ca-7b90-4d97-8bc8-659d32e8b8ee","system_id":"levelo_inurba_marseille","lat":43.29421,"lon":5.3862,"is_reserved":false,"is_disabled":false,"rental_uris":{"android":"levelo://app?vid=f6d409ca-7b90-4d97-8bc8-659d32e8b8ee","ios":"levelo://app?vid=f6d409ca-7b90-4d97-8bc8-659d32e8b8ee"},"vehicle_type_id":"4","last_reported":1712682403,"current_range_meters":0,"station_id":"ce4bh2h2rcd13ifvqdh0","pricing_plan_id":"cebpf4jnsgd1na2vs0mg"},{"bike_id":"c1da0645-ce81-492e-9997-f16680718321","system_id":"levelo_inurba_marseille","lat":43.294172,"lon":5.386142,"is_reserved":false,"is_disabled":false,"rental_uris":{"android":"levelo://app?vid=c1da0645-ce81-492e-9997-f16680718321","ios":"levelo://app?vid=c1da0645-ce81-492e-9997-f16680718321"},"vehicle_type_id":"4","last_reported":1712682403,"current_range_meters":12800,"station_id":"ce4bh2h2rcd13ifvqdh0","pricing_plan_id":"cebpf4jnsgd1na2vs0mg"},{"bike_id":"5dbf6640-a9c0-410a-b6a5-7d07c5abf333","system_id":"levelo_inurba_marseille","lat":43.2942,"lon":5.38621,"is_reserved":false,"is_disabled":false,"rental_uris":{"android":"levelo://app?vid=5dbf6640-a9c0-410a-b6a5-7d07c5abf333","ios":"levelo://app?vid=5dbf6640-a9c0-410a-b6a5-7d07c5abf333"},"vehicle_type_id":"4","last_reported":1712682403,"current_range_meters":1200,"station_id":"ce4bh2h2rcd13ifvqdh0","pricing_plan_id":"cebpf4jnsgd1na2vs0mg"},{"bike_id":"8066d4fd-2c72-4974-b7af-33e5a501cd58","system_id":"levelo_inurba_marseille","lat":43.29421,"lon":5.38623,"is_reserved":false,"is_disabled":false,"rental_uris":{"android":"levelo://app?vid=8066d4fd-2c72-4974-b7af-33e5a501cd58","ios":"levelo://app?vid=8066d4fd-2c72-4974-b7af-33e5a501cd58"},"vehicle_type_id":"4","last_reported":1712682403,"current_range_meters":0,"station_id":"ce4bh2h2rcd13ifvqdh0","pricing_plan_id":"cebpf4jnsgd1na2vs0mg"},{"bike_id":"7f1d02f7-f667-4c17-aeee-196f7abc4da0","system_id":"levelo_inurba_marseille","lat":43.29414,"lon":5.38613,"is_reserved":false,"is_disabled":false,"rental_uris":{"android":"levelo://app?vid=7f1d02f7-f667-4c17-aeee-196f7abc4da0","ios":"levelo://app?vid=7f1d02f7-f667-4c17-aeee-196f7abc4da0"},"vehicle_type_id":"4","last_reported":1712682403,"current_range_meters":18800,"station_id":"ce4bh2h2rcd13ifvqdh0","pricing_plan_id":"cebpf4jnsgd1na2vs0mg"},{"bike_id":"facdaafb-752c-48d1-aeaa-1ec3e6cee1c1","system_id":"levelo_inurba_marseille","lat":43.29422,"lon":5.38628,"is_reserved":false,"is_disabled":false,"rental_uris":{"android":"levelo://app?vid=facdaafb-752c-48d1-aeaa-1ec3e6cee1c1","ios":"levelo://app?vid=facdaafb-752c-48d1-aeaa-1ec3e6cee1c1"},"vehicle_type_id":"4","last_reported":1712682403,"current_range_meters":20000,"station_id":"ce4bh2h2rcd13ifvqdh0","pricing_plan_id":"cebpf4jnsgd1na2vs0mg"},{"bike_id":"bc3dcf43-8410-4bc9-bab8-35b0fa10d9e5","system_id":"levelo_inurba_marseille","lat":43.294213,"lon":5.386283,"is_reserved":false,"is_disabled":false,"rental_uris":{"android":"levelo://app?vid=bc3dcf43-8410-4bc9-bab8-35b0fa10d9e5","ios":"levelo://app?vid=bc3dcf43-8410-4bc9-bab8-35b0fa10d9e5"},"vehicle_type_id":"4","last_reported":1712682403,"current_range_meters":15200,"station_id":"ce4bh2h2rcd13ifvqdh0","pricing_plan_id":"cebpf4jnsgd1na2vs0mg"},{"bike_id":"c4a49aca-c6d4-4e81-835e-6afef331be1d","system_id":"levelo_inurba_marseille","lat":43.29421,"lon":5.38628,"is_reserved":false,"is_disabled":false,"rental_uris":{"android":"levelo://app?vid=c4a49aca-c6d4-4e81-835e-6afef331be1d","ios":"levelo://app?vid=c4a49aca-c6d4-4e81-835e-6afef331be1d"},"vehicle_type_id":"4","last_reported":1712682403,"current_range_meters":27200,"station_id":"ce4bh2h2rcd13ifvqdh0","pricing_plan_id":"cebpf4jnsgd1na2vs0mg"},{"bike_id":"152801ae-6907-4df8-9998-2718c0cae2b6","system_id":"levelo_inurba_marseille","lat":43.29419,"lon":5.38626,"is_reserved":false,"is_disabled":false,"rental_uris":{"android":"levelo://app?vid=152801ae-6907-4df8-9998-2718c0cae2b6","ios":"levelo://app?vid=152801ae-6907-4df8-9998-2718c0cae2b6"},"vehicle_type_id":"4","last_reported":1712682403,"current_range_meters":18800,"station_id":"ce4bh2h2rcd13ifvqdh0","pricing_plan_id":"cebpf4jnsgd1na2vs0mg"},{"bike_id":"a500bb90-decd-4ea8-a109-935f70e1f2cd","system_id":"levelo_inurba_marseille","lat":43.290319,"lon":5.375732,"is_reserved":false,"is_disabled":false,"rental_uris":{"android":"levelo://app?vid=a500bb90-decd-4ea8-a109-935f70e1f2cd","ios":"levelo://app?vid=a500bb90-decd-4ea8-a109-935f70e1f2cd"},"vehicle_type_id":"4","last_reported":1712682403,"current_range_meters":6000,"station_id":"ce4bh692rcd13ifvqe90","pricing_plan_id":"cebpf4jnsgd1na2vs0mg"},{"bike_id":"d7303c5e-232a-4220-9180-91e7e0cb30bf","system_id":"levelo_inurba_marseille","lat":43.294185,"lon":5.386259,"is_reserved":false,"is_disabled":false,"rental_uris":{"android":"levelo://app?vid=d7303c5e-232a-4220-9180-91e7e0cb30bf","ios":"levelo://app?vid=d7303c5e-232a-4220-9180-91e7e0cb30bf"},"vehicle_type_id":"4","last_reported":1712682403,"current_range_meters":27200,"station_id":"ce4bh2h2rcd13ifvqdh0","pricing_plan_id":"cebpf4jnsgd1na2vs0mg"},{"bike_id":"3a361f5a-edc6-4028-b45f-ecbf71100b37","system_id":"levelo_inurba_marseille","lat":43.290319,"lon":5.375732,"is_reserved":false,"is_disabled":false,"rental_uris":{"android":"levelo://app?vid=3a361f5a-edc6-4028-b45f-ecbf71100b37","ios":"levelo://app?vid=3a361f5a-edc6-4028-b45f-ecbf71100b37"},"vehicle_type_id":"4","last_reported":1712682403,"current_range_meters":3200,"station_id":"ce4bh692rcd13ifvqe90","pricing_plan_id":"cebpf4jnsgd1na2vs0mg"},{"bike_id":"33c3f208-d690-4c8e-bfa1-7a23e82be5cf","system_id":"levelo_inurba_marseille","lat":43.294314,"lon":5.397498,"is_reserved":false,"is_disabled":false,"rental_uris":{"android":"levelo://app?vid=33c3f208-d690-4c8e-bfa1-7a23e82be5cf","ios":"levelo://app?vid=33c3f208-d690-4c8e-bfa1-7a23e82be5cf"},"vehicle_type_id":"4","last_reported":1712682403,"current_range_meters":0,"station_id":"ce4bh3h2rcd13ifvqdo0","pricing_plan_id":"cebpf4jnsgd1na2vs0mg"},{"bike_id":"fb8725e7-54af-4cef-aabf-0b87d1ecaccf","system_id":"levelo_inurba_marseille","lat":43.29417,"lon":5.3863,"is_reserved":false,"is_disabled":false,"rental_uris":{"android":"levelo://app?vid=fb8725e7-54af-4cef-aabf-0b87d1ecaccf","ios":"levelo://app?vid=fb8725e7-54af-4cef-aabf-0b87d1ecaccf"},"vehicle_type_id":"4","last_reported":1712682403,"current_range_meters":29200,"station_id":"ce4bh2h2rcd13ifvqdh0","pricing_plan_id":"cebpf4jnsgd1na2vs0mg"},{"bike_id":"ce8c3ea8-add6-4842-9730-272589809771","system_id":"levelo_inurba_marseille","lat":43.294127,"lon":5.386257,"is_reserved":false,"is_disabled":false,"rental_uris":{"android":"levelo://app?vid=ce8c3ea8-add6-4842-9730-272589809771","ios":"levelo://app?vid=ce8c3ea8-add6-4842-9730-272589809771"},"vehicle_type_id":"4","last_reported":1712682403,"current_range_meters":0,"station_id":"ce4bh2h2rcd13ifvqdh0","pricing_plan_id":"cebpf4jnsgd1na2vs0mg"},{"bike_id":"3509de4d-4d43-4d50-b9c4-c39a800651bd","system_id":"levelo_inurba_marseille","lat":43.294162,"lon":5.386292,"is_reserved":false,"is_disabled":false,"rental_uris":{"android":"levelo://app?vid=3509de4d-4d43-4d50-b9c4-c39a800651bd","ios":"levelo://app?vid=3509de4d-4d43-4d50-b9c4-c39a800651bd"},"vehicle_type_id":"4","last_reported":1712682403,"current_range_meters":11200,"station_id":"ce4bh2h2rcd13ifvqdh0","pricing_plan_id":"cebpf4jnsgd1na2vs0mg"},{"bike_id":"b5c88a84-1b87-432f-8ddf-b40fa435484f","system_id":"levelo_inurba_marseille","lat":43.289184,"lon":5.366408,"is_reserved":false,"is_disabled":false,"rental_uris":{"android":"levelo://app?vid=b5c88a84-1b87-432f-8ddf-b40fa435484f","ios":"levelo://app?vid=b5c88a84-1b87-432f-8ddf-b40fa435484f"},"vehicle_type_id":"4","last_reported":1712682403,"current_range_meters":5200,"station_id":"ce4bhap2rcd13ifvqek0","pricing_plan_id":"cebpf4jnsgd1na2vs0mg"},{"bike_id":"066e207f-e026-4932-868b-fa9c67b3e57c","system_id":"levelo_inurba_marseille","lat":43.289184,"lon":5.366408,"is_reserved":false,"is_disabled":false,"rental_uris":{"android":"levelo://app?vid=066e207f-e026-4932-868b-fa9c67b3e57c","ios":"levelo://app?vid=066e207f-e026-4932-868b-fa9c67b3e57c"},"vehicle_type_id":"4","last_reported":1712682403,"current_range_meters":400,"station_id":"ce4bhap2rcd13ifvqek0","pricing_plan_id":"cebpf4jnsgd1na2vs0mg"},{"bike_id":"cb60caee-2f92-4890-86bd-d7d157474748","system_id":"levelo_inurba_marseille","lat":43.289184,"lon":5.366408,"is_reserved":false,"is_disabled":false,"rental_uris":{"android":"levelo://app?vid=cb60caee-2f92-4890-86bd-d7d157474748","ios":"levelo://app?vid=cb60caee-2f92-4890-86bd-d7d157474748"},"vehicle_type_id":"4","last_reported":1712682403,"current_range_meters":23200,"station_id":"ce4bhap2rcd13ifvqek0","pricing_plan_id":"cebpf4jnsgd1na2vs0mg"},{"bike_id":"46b3e8ef-1759-4bde-9aa3-5af0792768df","system_id":"levelo_inurba_marseille","lat":43.289184,"lon":5.366408,"is_reserved":false,"is_disabled":false,"rental_uris":{"android":"levelo://app?vid=46b3e8ef-1759-4bde-9aa3-5af0792768df","ios":"levelo://app?vid=46b3e8ef-1759-4bde-9aa3-5af0792768df"},"vehicle_type_id":"4","last_reported":1712682403,"current_range_meters":23200,"station_id":"ce4bhap2rcd13ifvqek0","pricing_plan_id":"cebpf4jnsgd1na2vs0mg"},{"bike_id":"5cc58eaa-76a7-4152-b1d8-d78f9acb3901","system_id":"levelo_inurba_marseille","lat":43.29276,"lon":5.3844,"is_reserved":false,"is_disabled":false,"rental_uris":{"android":"levelo://app?vid=5cc58eaa-76a7-4152-b1d8-d78f9acb3901","ios":"levelo://app?vid=5cc58eaa-76a7-4152-b1d8-d78f9acb3901"},"vehicle_type_id":"4","last_reported":1712682403,"current_range_meters":400,"station_id":"ce4bh692rcd13ifvqea0","pricing_plan_id":"cebpf4jnsgd1na2vs0mg"},{"bike_id":"d7b1b8e7-6af5-495c-b493-533c5215be9e","system_id":"levelo_inurba_marseille","lat":43.289363,"lon":5.396322,"is_reserved":false,"is_disabled":false,"rental_uris":{"android":"levelo://app?vid=d7b1b8e7-6af5-495c-b493-533c5215be9e","ios":"levelo://app?vid=d7b1b8e7-6af5-495c-b493-533c5215be9e"},"vehicle_type_id":"4","last_reported":1712682403,"current_range_meters":3600,"station_id":"ce4bh3h2rcd13ifvqdn0","pricing_plan_id":"cebpf4jnsgd1na2vs0mg"},{"bike_id":"34110c13-6bb6-4ebf-b9f4-8ecda595895d","system_id":"levelo_inurba_marseille","lat":43.292644,"lon":5.384257,"is_reserved":false,"is_disabled":false,"rental_uris":{"android":"levelo://app?vid=34110c13-6bb6-4ebf-b9f4-8ecda595895d","ios":"levelo://app?vid=34110c13-6bb6-4ebf-b9f4-8ecda595895d"},"vehicle_type_id":"4","last_reported":1712682403,"current_range_meters":4000,"station_id":"ce4bh692rcd13ifvqea0","pricing_plan_id":"cebpf4jnsgd1na2vs0mg"},{"bike_id":"8dcc09d3-8aa5-4595-a1f8-a76106942c7f","system_id":"levelo_inurba_marseille","lat":43.29266,"lon":5.38442,"is_reserved":false,"is_disabled":false,"rental_uris":{"android":"levelo://app?vid=8dcc09d3-8aa5-4595-a1f8-a76106942c7f","ios":"levelo://app?vid=8dcc09d3-8aa5-4595-a1f8-a76106942c7f"},"vehicle_type_id":"4","last_reported":1712682403,"current_range_meters":13200,"station_id":"ce4bh692rcd13ifvqea0","pricing_plan_id":"cebpf4jnsgd1na2vs0mg"},{"bike_id":"be1afd57-8ff7-47f4-9ae6-7228d4150348","system_id":"levelo_inurba_marseille","lat":43.290104,"lon":5.356111,"is_reserved":false,"is_disabled":false,"rental_uris":{"android":"levelo://app?vid=be1afd57-8ff7-47f4-9ae6-7228d4150348","ios":"levelo://app?vid=be1afd57-8ff7-47f4-9ae6-7228d4150348"},"vehicle_type_id":"4","last_reported":1712682403,"current_range_meters":2800,"station_id":"ce4bhb92rcd13ifvqen0","pricing_plan_id":"cebpf4jnsgd1na2vs0mg"},{"bike_id":"a348f3cd-15b3-4fb1-b7c5-66460b8e56fb","system_id":"levelo_inurba_marseille","lat":43.29008,"lon":5.3561,"is_reserved":false,"is_disabled":false,"rental_uris":{"android":"levelo://app?vid=a348f3cd-15b3-4fb1-b7c5-66460b8e56fb","ios":"levelo://app?vid=a348f3cd-15b3-4fb1-b7c5-66460b8e56fb"},"vehicle_type_id":"4","last_reported":1712682403,"current_range_meters":21200,"station_id":"ce4bh2h2rcd13ifvqdh0","pricing_plan_id":"cebpf4jnsgd1na2vs0mg"},{"bike_id":"1cf61adc-82c4-4cec-9a4c-7ca260a872bd","system_id":"levelo_inurba_marseille","lat":43.29531,"lon":5.38985,"is_reserved":false,"is_disabled":false,"rental_uris":{"android":"levelo://app?vid=1cf61adc-82c4-4cec-9a4c-7ca260a872bd","ios":"levelo://app?vid=1cf61adc-82c4-4cec-9a4c-7ca260a872bd"},"vehicle_type_id":"4","last_reported":1712682403,"current_range_meters":0,"station_id":"ce4bh3p2rcd13ifvqdp0","pricing_plan_id":"cebpf4jnsgd1na2vs0mg"},{"bike_id":"9f518ca0-d8ec-41dc-b6f4-cfd6f57f35d3","system_id":"levelo_inurba_marseille","lat":43.284793,"lon":5.384119,"is_reserved":false,"is_disabled":false,"rental_uris":{"android":"levelo://app?vid=9f518ca0-d8ec-41dc-b6f4-cfd6f57f35d3","ios":"levelo://app?vid=9f518ca0-d8ec-41dc-b6f4-cfd6f57f35d3"},"vehicle_type_id":"4","last_reported":1712682403,"current_range_meters":20800,"station_id":"ce4bh512rcd13ifvqe3g","pricing_plan_id":"cebpf4jnsgd1na2vs0mg"},{"bike_id":"e75e5901-ce64-4758-b5dc-bb8303f3cac0","system_id":"levelo_inurba_marseille","lat":43.301429,"lon":5.37413,"is_reserved":false,"is_disabled":false,"rental_uris":{"android":"levelo://app?vid=e75e5901-ce64-4758-b5dc-bb8303f3cac0","ios":"levelo://app?vid=e75e5901-ce64-4758-b5dc-bb8303f3cac0"},"vehicle_type_id":"4","last_reported":1712682403,"current_range_meters":0,"station_id":"ce4bgs92rcd13ifvqcc0","pricing_plan_id":"cebpf4jnsgd1na2vs0mg"},{"bike_id":"01b00f1a-dcea-4c10-8ed9-f07419c56e20","system_id":"levelo_inurba_marseille","lat":43.297815,"lon":5.393548,"is_reserved":false,"is_disabled":false,"rental_uris":{"android":"levelo://app?vid=01b00f1a-dcea-4c10-8ed9-f07419c56e20","ios":"levelo://app?vid=01b00f1a-dcea-4c10-8ed9-f07419c56e20"},"vehicle_type_id":"4","last_reported":1712682403,"current_range_meters":16400,"station_id":"chh1huq6cuj3fo74tm60","pricing_plan_id":"cebpf4jnsgd1na2vs0mg"},{"bike_id":"0cc529b9-9036-4f97-b75d-637983a4c23e","system_id":"levelo_inurba_marseille","lat":43.29526,"lon":5.39031,"is_reserved":false,"is_disabled":false,"rental_uris":{"android":"levelo://app?vid=0cc529b9-9036-4f97-b75d-637983a4c23e","ios":"levelo://app?vid=0cc529b9-9036-4f97-b75d-637983a4c23e"},"vehicle_type_id":"4","last_reported":1712682403,"current_range_meters":24800,"station_id":"ce4bh3p2rcd13ifvqdp0","pricing_plan_id":"cebpf4jnsgd1na2vs0mg"},{"bike_id":"5588c24c-1a05-42e6-8c4e-8493f5256637","system_id":"levelo_inurba_marseille","lat":43.279087,"lon":5.380114,"is_reserved":false,"is_disabled":false,"rental_uris":{"android":"levelo://app?vid=5588c24c-1a05-42e6-8c4e-8493f5256637","ios":"levelo://app?vid=5588c24c-1a05-42e6-8c4e-8493f5256637"},"vehicle_type_id":"4","last_reported":1712682403,"current_range_meters":21600,"station_id":"ce4bhf92rcd13ifvqf50","pricing_plan_id":"cebpf4jnsgd1na2vs0mg"},{"bike_id":"2ab15fb8-fa89-4e54-8c26-beda0047f138","system_id":"levelo_inurba_marseille","lat":43.29526,"lon":5.39034,"is_reserved":false,"is_disabled":false,"rental_uris":{"android":"levelo://app?vid=2ab15fb8-fa89-4e54-8c26-beda0047f138","ios":"levelo://app?vid=2ab15fb8-fa89-4e54-8c26-beda0047f138"},"vehicle_type_id":"4","last_reported":1712682403,"current_range_meters":15200,"station_id":"ce4bh3p2rcd13ifvqdp0","pricing_plan_id":"cebpf4jnsgd1na2vs0mg"},{"bike_id":"7b66dfe1-cc03-44c7-b1a2-612c79803df2","system_id":"levelo_inurba_marseille","lat":43.295309,"lon":5.39042,"is_reserved":false,"is_disabled":false,"rental_uris":{"android":"levelo://app?vid=7b66dfe1-cc03-44c7-b1a2-612c79803df2","ios":"levelo://app?vid=7b66dfe1-cc03-44c7-b1a2-612c79803df2"},"vehicle_type_id":"4","last_reported":1712682403,"current_range_meters":23200,"station_id":"ce4bh3p2rcd13ifvqdp0","pricing_plan_id":"cebpf4jnsgd1na2vs0mg"},{"bike_id":"f606dca0-9cd6-4592-91bf-4b3c6dc2da58","system_id":"levelo_inurba_marseille","lat":43.295169,"lon":5.390426,"is_reserved":false,"is_disabled":false,"rental_uris":{"android":"levelo://app?vid=f606dca0-9cd6-4592-91bf-4b3c6dc2da58","ios":"levelo://app?vid=f606dca0-9cd6-4592-91bf-4b3c6dc2da58"},"vehicle_type_id":"4","last_reported":1712682403,"current_range_meters":19600,"station_id":"ce4bh3p2rcd13ifvqdp0","pricing_plan_id":"cebpf4jnsgd1na2vs0mg"},{"bike_id":"991d7b67-13c4-47d2-adb3-1026c4bf50f4","system_id":"levelo_inurba_marseille","lat":43.295169,"lon":5.390426,"is_reserved":false,"is_disabled":false,"rental_uris":{"android":"levelo://app?vid=991d7b67-13c4-47d2-adb3-1026c4bf50f4","ios":"levelo://app?vid=991d7b67-13c4-47d2-adb3-1026c4bf50f4"},"vehicle_type_id":"4","last_reported":1712682403,"current_range_meters":14000,"station_id":"ce4bh3p2rcd13ifvqdp0","pricing_plan_id":"cebpf4jnsgd1na2vs0mg"},{"bike_id":"fd1a77ff-a275-4edd-8ea3-c4a5473c2a75","system_id":"levelo_inurba_marseille","lat":43.2952,"lon":5.39034,"is_reserved":false,"is_disabled":false,"rental_uris":{"android":"levelo://app?vid=fd1a77ff-a275-4edd-8ea3-c4a5473c2a75","ios":"levelo://app?vid=fd1a77ff-a275-4edd-8ea3-c4a5473c2a75"},"vehicle_type_id":"4","last_reported":1712682403,"current_range_meters":8400,"station_id":"ce4bh3p2rcd13ifvqdp0","pricing_plan_id":"cebpf4jnsgd1na2vs0mg"},{"bike_id":"8e64674b-1fad-4f84-8e82-ef6090354d0c","system_id":"levelo_inurba_marseille","lat":43.295169,"lon":5.390426,"is_reserved":false,"is_disabled":false,"rental_uris":{"android":"levelo://app?vid=8e64674b-1fad-4f84-8e82-ef6090354d0c","ios":"levelo://app?vid=8e64674b-1fad-4f84-8e82-ef6090354d0c"},"vehicle_type_id":"4","last_reported":1712682403,"current_range_meters":4400,"station_id":"ce4bh3p2rcd13ifvqdp0","pricing_plan_id":"cebpf4jnsgd1na2vs0mg"},{"bike_id":"0d97fb81-1c49-4c6b-8eec-02d574a359b2","system_id":"levelo_inurba_marseille","lat":43.330442,"lon":5.389148,"is_reserved":false,"is_disabled":false,"rental_uris":{"android":"levelo://app?vid=0d97fb81-1c49-4c6b-8eec-02d574a359b2","ios":"levelo://app?vid=0d97fb81-1c49-4c6b-8eec-02d574a359b2"},"vehicle_type_id":"4","last_reported":1712682403,"current_range_meters":24400,"station_id":"ce4bhr92rcd13ifvqhrg","pricing_plan_id":"cebpf4jnsgd1na2vs0mg"},{"bike_id":"2f1cb9d3-f0c7-40d2-9afb-b276df9b74be","system_id":"levelo_inurba_marseille","lat":43.295169,"lon":5.390426,"is_reserved":false,"is_disabled":false,"rental_uris":{"android":"levelo://app?vid=2f1cb9d3-f0c7-40d2-9afb-b276df9b74be","ios":"levelo://app?vid=2f1cb9d3-f0c7-40d2-9afb-b276df9b74be"},"vehicle_type_id":"4","last_reported":1712682403,"current_range_meters":4400,"station_id":"ce4bh3p2rcd13ifvqdp0","pricing_plan_id":"cebpf4jnsgd1na2vs0mg"},