{"last_updated":1770028436,"ttl":60,"version":"2.2","data":{"bikes":[{"bike_id":"ecdd52fd-98df-4ed8-9b9f-16db4fdb1985","system_id":"levelo_inurba_marseille","lat":43.240678,"lon":5.37765,"is_reserved":false,"is_disabled":false,"rental_uris":{"android":"levelo://app?vid=ecdd52fd-98df-4ed8-9b9f-16db4fdb1985","ios":"levelo://app?vid=ecdd52fd-98df-4ed8-9b9f-16db4fdb1985"},"vehicle_type_id":"4","last_reported":1770028436,"current_range_meters":2800,"station_id":"ce4bhnp2rcd13ifvqgvg","pricing_plan_id":"cebpf4jnsgd1na2vs0mg"},{"bike_id":"c16bbffc-3f7b-4299-aa6c-4c3611fa54d9","system_id":"levelo_inurba_marseille","lat":43.28435,"lon":5.39089,"is_reserved":false,"is_disabled":true,"rental_uris":{"android":"levelo://app?vid=c16bbffc-3f7b-4299-aa6c-4c3611fa54d9","ios":"levelo://app?vid=c16bbffc-3f7b-4299-aa6c-4c3611fa54d9"},"vehicle_type_id":"4","last_reported":1770028436,"current_range_meters":2800,"station_id":"","pricing_plan_id":"cebpf4jnsgd1na2vs0mg"},{"bike_id":"93e60425-8aae-4f4b-b447-57ef8147db67","system_id":"levelo_inurba_marseille","lat":43.284809,"lon":5.484071,"is_reserved":false,"is_disabled":false,"rental_uris":{"android":"levelo://app?vid=93e60425-8aae-4f4b-b447-57ef8147db67","ios":"levelo://app?vid=93e60425-8aae-4f4b-b447-57ef8147db67"},"vehicle_type_id":"4","last_reported":1770028436,"current_range_meters":2800,"station_id":"","pricing_plan_id":"cebpf4jnsgd1na2vs0mg"},{"bike_id":"26bd2557-3046-4212-82fc-da1fdbd42b2c","system_id":"levelo_inurba_marseille","lat":43.28531,"lon":5.44087,"is_reserved":false,"is_disabled":false,"rental_uris":{"android":"levelo://app?vid=26bd2557-3046-4212-82fc-da1fdbd42b2c","ios":"levelo://app?vid=26bd2557-3046-4212-82fc-da1fdbd42b2c"},"vehicle_type_id":"4","last_reported":1770028436,"current_range_meters":2800,"station_id":"st_d3j3df2ikq2c7380ej80","pricing_plan_id":"cebpf4jnsgd1na2vs0mg"},{"bike_id":"74ac2feb-a7ae-41ed-97e6-16a7d353da55","system_id":"levelo_inurba_marseille","lat":43.24807,"lon":5.37455,"is_reserved":false,"is_disabled":false,"rental_uris":{"android":"levelo://app?vid=74ac2feb-a7ae-41ed-97e6-16a7d353da55","ios":"levelo://app?vid=74ac2feb-a7ae-41ed-97e6-16a7d353da55"},"vehicle_type_id":"4","last_reported":1770028436,"current_range_meters":2800,"station_id":"ce4bhgh2rcd13ifvqfb0","pricing_plan_id":"cebpf4jnsgd1na2vs0mg"},{"bike_id":"0b331fa1-be61-4ee4-8f48-817f3b90db42","system_id":"levelo_inurba_marseille","lat":43.287,"lon":5.35582,"is_reserved":false,"is_disabled":false,"rental_uris":{"android":"levelo://app?vid=0b331fa1-be61-4ee4-8f48-817f3b90db42","ios":"levelo://app?vid=0b331fa1-be61-4ee4-8f48-817f3b90db42"},"vehicle_type_id":"4","last_reported":1770028436,"current_range_meters":2800,"station_id":"","pricing_plan_id":"cebpf4jnsgd1na2vs0mg"},{"bike_id":"d662b595-dd41-41dc-9b26-69350593db92","system_id":"levelo_inurba_marseille","lat":43.29756,"lon":5.4279,"is_reserved":false,"is_disabled":false,"rental_uris":{"android":"levelo://app?vid=d662b595-dd41-41dc-9b26-69350593db92","ios":"levelo://app?vid=d662b595-dd41-41dc-9b26-69350593db92"},"vehicle_type_id":"4","last_reported":1770028436,"current_range_meters":2800,"station_id":"st_d3md5207bmas73dh9klg","pricing_plan_id":"cebpf4jnsgd1na2vs0mg"},{"bike_id":"e8fa66cc-805c-4ac6-8036-6b85aaeb4d1e","system_id":"levelo_inurba_marseille","lat":43.29847,"lon":5.37606,"is_reserved":false,"is_disabled":false,"rental_uris":{"android":"levelo://app?vid=e8fa66cc-805c-4ac6-8036-6b85aaeb4d1e","ios":"levelo://app?vid=e8fa66cc-805c-4ac6-8036-6b85aaeb4d1e"},"vehicle_type_id":"4","last_reported":1770028436,"current_range_meters":2800,"station_id":"","pricing_plan_id":"cebpf4jnsgd1na2vs0mg"},{"bike_id":"6f8455de-cdcb-4115-8f9f-1a1c57d7cc8a","system_id":"levelo_inurba_marseille","lat":43.25004,"lon":5.38942,"is_reserved":false,"is_disabled":false,"rental_uris":{"android":"levelo://app?vid=6f8455de-cdcb-4115-8f9f-1a1c57d7cc8a","ios":"levelo://app?vid=6f8455de-cdcb-4115-8f9f-1a1c57d7cc8a"},"vehicle_type_id":"4","last_reported":1770028436,"current_range_meters":3200,"station_id":"ce4bhgp2rcd13ifvqfd0","pricing_plan_id":"cebpf4jnsgd1na2vs0mg"},{"bike_id":"dc68db14-c906-4c81-af24-38ade0c0fe18","system_id":"levelo_inurba_marseille","lat":43.22548,"lon":5.41626,"is_reserved":false,"is_disabled":false,"rental_uris":{"android":"levelo://app?vid=dc68db14-c906-4c81-af24-38ade0c0fe18","ios":"levelo://app?vid=dc68db14-c906-4c81-af24-38ade0c0fe18"},"vehicle_type_id":"4","last_reported":1770028436,"current_range_meters":3200,"station_id":"st_d2o4gvlbi1j2169b742g","pricing_plan_id":"cebpf4jnsgd1na2vs0mg"},{"bike_id":"7974b1b2-000f-4cf2-b1f2-c280cc324e92","system_id":"levelo_inurba_marseille","lat":43.26434,"lon":5.39593,"is_reserved":false,"is_disabled":true,"rental_uris":{"android":"levelo://app?vid=7974b1b2-000f-4cf2-b1f2-c280cc324e92","ios":"levelo://app?vid=7974b1b2-000f-4cf2-b1f2-c280cc324e92"},"vehicle_type_id":"4","last_reported":1770028436,"current_range_meters":3200,"station_id":"","pricing_plan_id":"cebpf4jnsgd1na2vs0mg"},{"bike_id":"767dc731-f365-45e9-b7a0-0144ed9ff9a5","system_id":"levelo_inurba_marseille","lat":43.31212,"lon":5.36832,"is_reserved":false,"is_disabled":false,"rental_uris":{"android":"levelo://app?vid=767dc731-f365-45e9-b7a0-0144ed9ff9a5","ios":"levelo://app?vid=767dc731-f365-45e9-b7a0-0144ed9ff9a5"},"vehicle_type_id":"4","last_reported":1770028436,"current_range_meters":3200,"station_id":"ce4bgl92rcd13ifvqbq0","pricing_plan_id":"cebpf4jnsgd1na2vs0mg"},{"bike_id":"f8a0ae1c-a37d-4006-8541-a752d1a3cea9","system_id":"levelo_inurba_marseille","lat":43.29667,"lon":5.40106,"is_reserved":false,"is_disabled":false,"rental_uris":{"android":"levelo://app?vid=f8a0ae1c-a37d-4006-8541-a752d1a3cea9","ios":"levelo://app?vid=f8a0ae1c-a37d-4006-8541-a752d1a3cea9"},"vehicle_type_id":"4","last_reported":1770028436,"current_range_meters":3200,"station_id":"","pricing_plan_id":"cebpf4jnsgd1na2vs0mg"},{"bike_id":"f272140a-ba8c-41f4-b937-d299664fe4de","system_id":"levelo_inurba_marseille","lat":43.2409,"lon":5.37758,"is_reserved":false,"is_disabled":false,"rental_uris":{"android":"levelo://app?vid=f272140a-ba8c-41f4-b937-d299664fe4de","ios":"levelo://app?vid=f272140a-ba8c-41f4-b937-d299664fe4de"},"vehicle_type_id":"4","last_reported":1770028436,"current_range_meters":3200,"station_id":"ce4bhnp2rcd13ifvqgvg","pricing_plan_id":"cebpf4jnsgd1na2vs0mg"},{"bike_id":"e5b9c854-52bd-4571-9d09-3836aec2957e","system_id":"levelo_inurba_marseille","lat":43.24174,"lon":5.36388,"is_reserved":false,"is_disabled":false,"rental_uris":{"android":"levelo://app?vid=e5b9c854-52bd-4571-9d09-3836aec2957e","ios":"levelo://app?vid=e5b9c854-52bd-4571-9d09-3836aec2957e"},"vehicle_type_id":"4","last_reported":1770028436,"current_range_meters":3200,"station_id":"cpo36qri1sfpv3e86is0","pricing_plan_id":"cebpf4jnsgd1na2vs0mg"},{"bike_id":"1c1f8539-b1ae-43f7-94e2-f9ba91100b64","system_id":"levelo_inurba_marseille","lat":43.31719,"lon":5.37783,"is_reserved":false,"is_disabled":false,"rental_uris":{"android":"levelo://app?vid=1c1f8539-b1ae-43f7-94e2-f9ba91100b64","ios":"levelo://app?vid=1c1f8539-b1ae-43f7-94e2-f9ba91100b64"},"vehicle_type_id":"4","last_reported":1770028436,"current_range_meters":3600,"station_id":"ce4bgth2rcd13ifvqch0","pricing_plan_id":"cebpf4jnsgd1na2vs0mg"},{"bike_id":"b00753f6-9e43-40ef-9959-628446071746","system_id":"levelo_inurba_marseille","lat":43.27825,"lon":5.40731,"is_reserved":false,"is_disabled":true,"rental_uris":{"android":"levelo://app?vid=b00753f6-9e43-40ef-9959-628446071746","ios":"levelo://app?vid=b00753f6-9e43-40ef-9959-628446071746"},"vehicle_type_id":"4","last_reported":1770028436,"current_range_meters":3600,"station_id":"ce4bhnh2rcd13ifvqgtg","pricing_plan_id":"cebpf4jnsgd1na2vs0mg"},{"bike_id":"d02a39b5-b9e6-42c0-89cf-ec41b03ef41c","system_id":"levelo_inurba_marseille","lat":43.27371,"lon":5.36247,"is_reserved":false,"is_disabled":false,"rental_uris":{"android":"levelo://app?vid=d02a39b5-b9e6-42c0-89cf-ec41b03ef41c","ios":"levelo://app?vid=d02a39b5-b9e6-42c0-89cf-ec41b03ef41c"},"vehicle_type_id":"4","last_reported":1770028436,"current_range_meters":3600,"station_id":"ce4bhbh2rcd13ifvqeo0","pricing_plan_id":"cebpf4jnsgd1na2vs0mg"},{"bike_id":"669cbfea-a557-4cea-af48-034865d30cc0","system_id":"levelo_inurba_marseille","lat":43.24414,"lon":5.37041,"is_reserved":false,"is_disabled":true,"rental_uris":{"android":"levelo://app?vid=669cbfea-a557-4cea-af48-034865d30cc0","ios":"levelo://app?vid=669cbfea-a557-4cea-af48-034865d30cc0"},"vehicle_type_id":"4","last_reported":1770028436,"current_range_meters":3600,"station_id":"","pricing_plan_id":"cebpf4jnsgd1na2vs0mg"},{"bike_id":"5b4c0c7a-c0c9-4273-96c2-faded5f9cc26","system_id":"levelo_inurba_marseille","lat":43.27942,"lon":5.41037,"is_reserved":false,"is_disabled":false,"rental_uris":{"android":"levelo://app?vid=5b4c0c7a-c0c9-4273-96c2-faded5f9cc26","ios":"levelo://app?vid=5b4c0c7a-c0c9-4273-96c2-faded5f9cc26"},"vehicle_type_id":"4","last_reported":1770028436,"current_range_meters":4000,"station_id":"ce4bhnp2rcd13ifvqh0g","pricing_plan_id":"cebpf4jnsgd1na2vs0mg"},{"bike_id":"419e6abb-0874-44e4-9204-0dace6715096","system_id":"levelo_inurba_marseille","lat":43.33608,"lon":5.41017,"is_reserved":false,"is_disabled":false,"rental_uris":{"android":"levelo://app?vid=419e6abb-0874-44e4-9204-0dace6715096","ios":"levelo://app?vid=419e6abb-0874-44e4-9204-0dace6715096"},"vehicle_type_id":"4","last_reported":1770028436,"current_range_meters":4000,"station_id":"ce4bhqh2rcd13ifvqhmg","pricing_plan_id":"cebpf4jnsgd1na2vs0mg"},{"bike_id":"98410b4b-1668-4db2-80a0-19d281225169","system_id":"levelo_inurba_marseille","lat":43.28164,"lon":5.426185,"is_reserved":false,"is_disabled":false,"rental_uris":{"android":"levelo://app?vid=98410b4b-1668-4db2-80a0-19d281225169","ios":"levelo://app?vid=98410b4b-1668-4db2-80a0-19d281225169"},"vehicle_type_id":"4","last_reported":1770028436,"current_range_meters":4000,"station_id":"ce4bhnh2rcd13ifvqgug","pricing_plan_id":"cebpf4jnsgd1na2vs0mg"},{"bike_id":"09e8f712-2d3f-42c3-8273-19bbaf32447d","system_id":"levelo_inurba_marseille","lat":43.26574,"lon":5.4033,"is_reserved":false,"is_disabled":true,"rental_uris":{"android":"levelo://app?vid=09e8f712-2d3f-42c3-8273-19bbaf32447d","ios":"levelo://app?vid=09e8f712-2d3f-42c3-8273-19bbaf32447d"},"vehicle_type_id":"4","last_reported":1770028436,"current_range_meters":4000,"station_id":"ce4bhmp2rcd13ifvqgng","pricing_plan_id":"cebpf4jnsgd1na2vs0mg"},{"bike_id":"dc2c97f4-77e9-469e-b7f4-cfdc7db4a37e","system_id":"levelo_inurba_marseille","lat":43.25501,"lon":5.3764,"is_reserved":false,"is_disabled":false,"rental_uris":{"android":"levelo://app?vid=dc2c97f4-77e9-469e-b7f4-cfdc7db4a37e","ios":"levelo://app?vid=dc2c97f4-77e9-469e-b7f4-cfdc7db4a37e"},"vehicle_type_id":"4","last_reported":1770028436,"current_range_meters":4000,"station_id":"ce4bhh12rcd13ifvqff0","pricing_plan_id":"cebpf4jnsgd1na2vs0mg"},{"bike_id":"e1d85e8f-816e-43e5-832f-fa3bb6c7d9fd","system_id":"levelo_inurba_marseille","lat":43.29809,"lon":5.44085,"is_reserved":false,"is_disabled":false,"rental_uris":{"android":"levelo://app?vid=e1d85e8f-816e-43e5-832f-fa3bb6c7d9fd","ios":"levelo://app?vid=e1d85e8f-816e-43e5-832f-fa3bb6c7d9fd"},"vehicle_type_id":"4","last_reported":1770028436,"current_range_meters":4000,"station_id":"st_d3jp68qikq2c7381ktn0","pricing_plan_id":"cebpf4jnsgd1na2vs0mg"},{"bike_id":"83b0c6a2-5e64-44ff-82ae-2e65241f9e96","system_id":"levelo_inurba_marseille","lat":43.24107,"lon":5.37748,"is_reserved":false,"is_disabled":false,"rental_uris":{"android":"levelo://app?vid=83b0c6a2-5e64-44ff-82ae-2e65241f9e96","ios":"levelo://app?vid=83b0c6a2-5e64-44ff-82ae-2e65241f9e96"},"vehicle_type_id":"4","last_reported":1770028436,"current_range_meters":4000,"station_id":"ce4bhnp2rcd13ifvqgvg","pricing_plan_id":"cebpf4jnsgd1na2vs0mg"},{"bike_id":"efc90966-4a96-483e-8db1-1b5d593938eb","system_id":"levelo_inurba_marseille","lat":43.31179,"lon":5.36833,"is_reserved":false,"is_disabled":false,"rental_uris":{"android":"levelo://app?vid=efc90966-4a96-483e-8db1-1b5d593938eb","ios":"levelo://app?vid=efc90966-4a96-483e-8db1-1b5d593938eb"},"vehicle_type_id":"4","last_reported":1770028436,"current_range_meters":4000,"station_id":"","pricing_plan_id":"cebpf4jnsgd1na2vs0mg"},{"bike_id":"ed6cdb95-57e0-4b47-aee6-fa72b1a089c6","system_id":"levelo_inurba_marseille","lat":43.2997,"lon":5.385,"is_reserved":false,"is_disabled":false,"rental_uris":{"android":"levelo://app?vid=ed6cdb95-57e0-4b47-aee6-fa72b1a089c6","ios":"levelo://app?vid=ed6cdb95-57e0-4b47-aee6-fa72b1a089c6"},"vehicle_type_id":"4","last_reported":1770028436,"current_range_meters":4000,"station_id":"ce4bgj92rcd13ifvqbd0","pricing_plan_id":"cebpf4jnsgd1na2vs0mg"},{"bike_id":"54e0ff64-435b-46c4-97df-663dd90037bc","system_id":"levelo_inurba_marseille","lat":43.24081,"lon":5.37777,"is_reserved":false,"is_disabled":false,"rental_uris":{"android":"levelo://app?vid=54e0ff64-435b-46c4-97df-663dd90037bc","ios":"levelo://app?vid=54e0ff64-435b-46c4-97df-663dd90037bc"},"vehicle_type_id":"4","last_reported":1770028436,"current_range_meters":4000,"station_id":"ce4bhnp2rcd13ifvqgvg","pricing_plan_id":"cebpf4jnsgd1na2vs0mg"},{"bike_id":"08c04026-029c-49a2-b697-ec4c70ee4946","system_id":"levelo_inurba_marseille","lat":43.26193,"lon":5.37922,"is_reserved":false,"is_disabled":false,"rental_uris":{"android":"levelo://app?vid=08c04026-029c-49a2-b697-ec4c70ee4946","ios":"levelo://app?vid=08c04026-029c-49a2-b697-ec4c70ee4946"},"vehicle_type_id":"4","last_reported":1770028436,"current_range_meters":4000,"station_id":"ce4bhjp2rcd13ifvqg90","pricing_plan_id":"cebpf4jnsgd1na2vs0mg"},{"bike_id":"1382f623-0261-429d-8a1d-8dba8ed96a7a","system_id":"levelo_inurba_marseille","lat":43.23156,"lon":5.43721,"is_reserved":false,"is_disabled":false,"rental_uris":{"android":"levelo://app?vid=1382f623-0261-429d-8a1d-8dba8ed96a7a","ios":"levelo://app?vid=1382f623-0261-429d-8a1d-8dba8ed96a7a"},"vehicle_type_id":"4","last_reported":1770028436,"current_range_meters":4000,"station_id":"ce4bhmp2rcd13ifvqgog","pricing_plan_id":"cebpf4jnsgd1na2vs0mg"},{"bike_id":"e1b9d24f-2421-486f-a00c-01e9adfdba49","system_id":"levelo_inurba_marseille","lat":43.23181,"lon":5.39986,"is_reserved":false,"is_disabled":false,"rental_uris":{"android":"levelo://app?vid=e1b9d24f-2421-486f-a00c-01e9adfdba49","ios":"levelo://app?vid=e1b9d24f-2421-486f-a00c-01e9adfdba49"},"vehicle_type_id":"4","last_reported":1770028436,"current_range_meters":4000,"station_id":"ce4bhn12rcd13ifvqgqg","pricing_plan_id":"cebpf4jnsgd1na2vs0mg"},{"bike_id":"55821144-4cea-4c88-a4ef-ac2c18f1fa0e","system_id":"levelo_inurba_marseille","lat":43.24072,"lon":5.37767,"is_reserved":false,"is_disabled":false,"rental_uris":{"android":"levelo://app?vid=55821144-4cea-4c88-a4ef-ac2c18f1fa0e","ios":"levelo://app?vid=55821144-4cea-4c88-a4ef-ac2c18f1fa0e"},"vehicle_type_id":"4","last_reported":1770028436,"current_range_meters":4400,"station_id":"ce4bhnp2rcd13ifvqgvg","pricing_plan_id":"cebpf4jnsgd1na2vs0mg"},{"bike_id":"de80b79a-cef0-4e30-9ffa-41f22a773c78","system_id":"levelo_inurba_marseille","lat":43.29039,"lon":5.37564,"is_reserved":false,"is_disabled":false,"rental_uris":{"android":"levelo://app?vid=de80b79a-cef0-4e30-9ffa-41f22a773c78","ios":"levelo://app?vid=de80b79a-cef0-4e30-9ffa-41f22a773c78"},"vehicle_type_id":"4","last_reported":1770028436,"current_range_meters":4400,"station_id":"ce4bh692rcd13ifvqe90","pricing_plan_id":"cebpf4jnsgd1na2vs0mg"},{"bike_id":"c9f48c9b-8a34-442c-b519-55185a953e4a","system_id":"levelo_inurba_marseille","lat":43.29026,"lon":5.37545,"is_reserved":false,"is_disabled":false,"rental_uris":{"android":"levelo://app?vid=c9f48c9b-8a34-442c-b519-55185a953e4a","ios":"levelo://app?vid=c9f48c9b-8a34-442c-b519-55185a953e4a"},"vehicle_type_id":"4","last_reported":1770028436,"current_range_meters":4400,"station_id":"ce4bh692rcd13ifvqe90","pricing_plan_id":"cebpf4jnsgd1na2vs0mg"},{"bike_id":"282b4c58-6430-4481-adf2-6fc926d2a7c4","system_id":"levelo_inurba_marseille","lat":43.232,"lon":5.35548,"is_reserved":false,"is_disabled":false,"rental_uris":{"android":"levelo://app?vid=282b4c58-6430-4481-adf2-6fc926d2a7c4","ios":"levelo://app?vid=282b4c58-6430-4481-adf2-6fc926d2a7c4"},"vehicle_type_id":"4","last_reported":1770028436,"current_range_meters":4400,"station_id":"ce4bhu92rcd13ifvqi70","pricing_plan_id":"cebpf4jnsgd1na2vs0mg"},{"bike_id":"465b42eb-da71-423f-8035-0bf0e2c1d396","system_id":"levelo_inurba_marseille","lat":43.320248,"lon":5.367983,"is_reserved":false,"is_disabled":false,"rental_uris":{"android":"levelo://app?vid=465b42eb-da71-423f-8035-0bf0e2c1d396","ios":"levelo://app?vid=465b42eb-da71-423f-8035-0bf0e2c1d396"},"vehicle_type_id":"4","last_reported":1770028436,"current_range_meters":4400,"station_id":"ce4bhr92rcd13ifvqhrg","pricing_plan_id":"cebpf4jnsgd1na2vs0mg"},{"bike_id":"bafe06f4-691a-42ad-b544-2647048d76df","system_id":"levelo_inurba_marseille","lat":43.23029,"lon":5.35501,"is_reserved":false,"is_disabled":false,"rental_uris":{"android":"levelo://app?vid=bafe06f4-691a-42ad-b544-2647048d76df","ios":"levelo://app?vid=bafe06f4-691a-42ad-b544-2647048d76df"},"vehicle_type_id":"4","last_reported":1770028436,"current_range_meters":4400,"station_id":"cpo3342slgdg3j2ifvpg","pricing_plan_id":"cebpf4jnsgd1na2vs0mg"},{"bike_id":"8791bebb-8e0b-4ff1-9213-d620c7784012","system_id":"levelo_inurba_marseille","lat":43.293119,"lon":5.371707,"is_reserved":false,"is_disabled":false,"rental_uris":{"android":"levelo://app?vid=8791bebb-8e0b-4ff1-9213-d620c7784012","ios":"levelo://app?vid=8791bebb-8e0b-4ff1-9213-d620c7784012"},"vehicle_type_id":"4","last_reported":1770028436,"current_range_meters":4400,"station_id":"ce4bgh92rcd13ifvqb40","pricing_plan_id":"cebpf4jnsgd1na2vs0mg"},{"bike_id":"53336c15-c4a9-4afd-ad5c-4a4cebf6f0c1","system_id":"levelo_inurba_marseille","lat":43.2418,"lon":5.36391,"is_reserved":false,"is_disabled":false,"rental_uris":{"android":"levelo://app?vid=53336c15-c4a9-4afd-ad5c-4a4cebf6f0c1","ios":"levelo://app?vid=53336c15-c4a9-4afd-ad5c-4a4cebf6f0c1"},"vehicle_type_id":"4","last_reported":1770028436,"current_range_meters":4400,"station_id":"cpo36qri1sfpv3e86is0","pricing_plan_id":"cebpf4jnsgd1na2vs0mg"},{"bike_id":"0a1300ad-2f14-46b7-8956-d36a4a430b42","system_id":"levelo_inurba_marseille","lat":43.24784,"lon":5.37445,"is_reserved":false,"is_disabled":false,"rental_uris":{"android":"levelo://app?vid=0a1300ad-2f14-46b7-8956-d36a4a430b42","ios":"levelo://app?vid=0a1300ad-2f14-46b7-8956-d36a4a430b42"},"vehicle_type_id":"4","last_reported":1770028436,"current_range_meters":4800,"station_id":"ce4bhgh2rcd13ifvqfb0","pricing_plan_id":"cebpf4jnsgd1na2vs0mg"},{"bike_id":"73d3043d-1347-40e9-ae92-d252d39efff6","system_id":"levelo_inurba_marseille","lat":43.30393,"lon":5.42499,"is_reserved":false,"is_disabled":false,"rental_uris":{"android":"levelo://app?vid=73d3043d-1347-40e9-ae92-d252d39efff6","ios":"levelo://app?vid=73d3043d-1347-40e9-ae92-d252d39efff6"},"vehicle_type_id":"4","last_reported":1770028436,"current_range_meters":4800,"station_id":"ce4bhoh2rcd13ifvqh6g","pricing_plan_id":"cebpf4jnsgd1na2vs0mg"},{"bike_id":"d1da5c85-5393-4ca7-9880-c49b370fa393","system_id":"levelo_inurba_marseille","lat":43.24388,"lon":5.37075,"is_reserved":false,"is_disabled":false,"rental_uris":{"android":"levelo://app?vid=d1da5c85-5393-4ca7-9880-c49b370fa393","ios":"levelo://app?vid=d1da5c85-5393-4ca7-9880-c49b370fa393"},"vehicle_type_id":"4","last_reported":1770028436,"current_range_meters":4800,"station_id":"ce4bhhh2rcd13ifvqfk0","pricing_plan_id":"cebpf4jnsgd1na2vs0mg"},{"bike_id":"cec514c3-7ecb-423b-80b5-18639cf7781d","system_id":"levelo_inurba_marseille","lat":43.25658,"lon":5.37651,"is_reserved":false,"is_disabled":false,"rental_uris":{"android":"levelo://app?vid=cec514c3-7ecb-423b-80b5-18639cf7781d","ios":"levelo://app?vid=cec514c3-7ecb-423b-80b5-18639cf7781d"},"vehicle_type_id":"4","last_reported":1770028436,"current_range_meters":4800,"station_id":"","pricing_plan_id":"cebpf4jnsgd1na2vs0mg"},{"bike_id":"b9a9097f-13d0-49a9-bb46-6f5237ccc9ec","system_id":"levelo_inurba_marseille","lat":43.273799,"lon":5.362568,"is_reserved":false,"is_disabled":false,"rental_uris":{"android":"levelo://app?vid=b9a9097f-13d0-49a9-bb46-6f5237ccc9ec","ios":"levelo://app?vid=b9a9097f-13d0-49a9-bb46-6f5237ccc9ec"},"vehicle_type_id":"4","last_reported":1770028436,"current_range_meters":4800,"station_id":"ce4bhbh2rcd13ifvqeo0","pricing_plan_id":"cebpf4jnsgd1na2vs0mg"},{"bike_id":"d2a8c5fa-0c36-41dd-8f7a-8a7d34ee666f","system_id":"levelo_inurba_marseille","lat":43.25583,"lon":5.38233,"is_reserved":false,"is_disabled":false,"rental_uris":{"android":"levelo://app?vid=d2a8c5fa-0c36-41dd-8f7a-8a7d34ee666f","ios":"levelo://app?vid=d2a8c5fa-0c36-41dd-8f7a-8a7d34ee666f"},"vehicle_type_id":"4","last_reported":1770028436,"current_range_meters":5600,"station_id":"ce4bhih2rcd13ifvqfs0","pricing_plan_id":"cebpf4jnsgd1na2vs0mg"},{"bike_id":"55392003-6bce-4df2-a517-2db7a8819d4b","system_id":"levelo_inurba_marseille","lat":43.283404,"lon":5.381096,"is_reserved":false,"is_disabled":false,"rental_uris":{"android":"levelo://app?vid=55392003-6bce-4df2-a517-2db7a8819d4b","ios":"levelo://app?vid=55392003-6bce-4df2-a517-2db7a8819d4b"},"vehicle_type_id":"4","last_reported":1770028436,"current_range_meters":5600,"station_id":"ce4bh412rcd13ifvqdr0","pricing_plan_id":"cebpf4jnsgd1na2vs0mg"},{"bike_id":"b6312071-7764-4894-a911-dea7dace47bd","system_id":"levelo_inurba_marseille","lat":43.29532,"lon":5.375,"is_reserved":false,"is_disabled":false,"rental_uris":{"android":"levelo://app?vid=b6312071-7764-4894-a911-dea7dace47bd","ios":"levelo://app?vid=b6312071-7764-4894-a911-dea7dace47bd"},"vehicle_type_id":"4","last_reported":1770028436,"current_range_meters":5600,"station_id":"ce4bgkp2rcd13ifvqbmg","pricing_plan_id":"cebpf4jnsgd1na2vs0mg"},{"bike_id":"d2ee53f1-49b6-44a6-a171-d364ff8162cf","system_id":"levelo_inurba_marseille","lat":43.33364,"lon":5.43134,"is_reserved":false,"is_disabled":false,"rental_uris":{"android":"levelo://app?vid=d2ee53f1-49b6-44a6-a171-d364ff8162cf","ios":"levelo://app?vid=d2ee53f1-49b6-44a6-a171-d364ff8162cf"},"vehicle_type_id":"4","last_reported":1770028436,"current_range_meters":5600,"station_id":"","pricing_plan_id":"cebpf4jnsgd1na2vs0mg"},{"bike_id":"2143853c-60e1-470b-ade6-219310f4f674","system_id":"levelo_inurba_marseille","lat":43.255096,"lon":5.376536,"is_reserved":false,"is_disabled":false,"rental_uris":{"android":"levelo://app?vid=2143853c-60e1-470b-ade6-219310f4f674","ios":"levelo://app?vid=2143853c-60e1-470b-ade6-219310f4f674"},"vehicle_type_id":"4","last_reported":1770028436,"current_range_meters":5600,"station_id":"ce4bhh12rcd13ifvqff0","pricing_plan_id":"cebpf4jnsgd1na2vs0mg"},{"bike_id":"461a2893-efc2-4e09-ab9d-8da8c86d5332","system_id":"levelo_inurba_marseille","lat":43.24986,"lon":5.38961,"is_reserved":false,"is_disabled":false,"rental_uris":{"android":"levelo://app?vid=461a2893-efc2-4e09-ab9d-8da8c86d5332","ios":"levelo://app?vid=461a2893-efc2-4e09-ab9d-8da8c86d5332"},"vehicle_type_id":"4","last_reported":1770028436,"current_range_meters":5600,"station_id":"ce4bhgp2rcd13ifvqfd0","pricing_plan_id":"cebpf4jnsgd1na2vs0mg"},{"bike_id":"fff7e7d9-a5a2-4648-8c64-acd8db891467","system_id":"levelo_inurba_marseille","lat":43.26238,"lon":5.40451,"is_reserved":false,"is_disabled":false,"rental_uris":{"android":"levelo://app?vid=fff7e7d9-a5a2-4648-8c64-acd8db891467","ios":"levelo://app?vid=fff7e7d9-a5a2-4648-8c64-acd8db891467"},"vehicle_type_id":"4","last_reported":1770028436,"current_range_meters":5600,"station_id":"ce4bhmh2rcd13ifvqgmg","pricing_plan_id":"cebpf4jnsgd1na2vs0mg"},{"bike_id":"386827bd-2a1a-40a8-8eb6-5118572c05e9","system_id":"levelo_inurba_marseille","lat":43.3107,"lon":5.38355,"is_reserved":false,"is_disabled":false,"rental_uris":{"android":"levelo://app?vid=386827bd-2a1a-40a8-8eb6-5118572c05e9","ios":"levelo://app?vid=386827bd-2a1a-40a8-8eb6-5118572c05e9"},"vehicle_type_id":"4","last_reported":1770028436,"current_range_meters":5600,"station_id":"ce4bgv92rcd13ifvqcr0","pricing_plan_id":"cebpf4jnsgd1na2vs0mg"},{"bike_id":"680cc17b-e2f7-4815-a75c-dc05bc8d1c3e","system_id":"levelo_inurba_marseille","lat":43.29267,"lon":5.36847,"is_reserved":false,"is_disabled":false,"rental_uris":{"android":"levelo://app?vid=680cc17b-e2f7-4815-a75c-dc05bc8d1c3e","ios":"levelo://app?vid=680cc17b-e2f7-4815-a75c-dc05bc8d1c3e"},"vehicle_type_id":"4","last_reported":1770028436,"current_range_meters":5600,"station_id":"ce4bhbp2rcd13ifvqesg","pricing_plan_id":"cebpf4jnsgd1na2vs0mg"},{"bike_id":"eae001be-3b34-469f-b5f5-7615da95a4ed","system_id":"levelo_inurba_marseille","lat":43.27952,"lon":5.40712,"is_reserved":false,"is_disabled":false,"rental_uris":{"android":"levelo://app?vid=eae001be-3b34-469f-b5f5-7615da95a4ed","ios":"levelo://app?vid=eae001be-3b34-469f-b5f5-7615da95a4ed"},"vehicle_type_id":"4","last_reported":1770028436,"current_range_meters":6000,"station_id":"","pricing_plan_id":"cebpf4jnsgd1na2vs0mg"},{"bike_id":"d431d2dc-fe64-4d55-be3e-18b6291747e9","system_id":"levelo_inurba_marseille","lat":43.23038,"lon":5.35519,"is_reserved":false,"is_disabled":false,"rental_uris":{"android":"levelo://app?vid=d431d2dc-fe64-4d55-be3e-18b6291747e9","ios":"levelo://app?vid=d431d2dc-fe64-4d55-be3e-18b6291747e9"},"vehicle_type_id":"4","last_reported":1770028436,"current_range_meters":6000,"station_id":"cpo3342slgdg3j2ifvpg","pricing_plan_id":"cebpf4jnsgd1na2vs0mg"},{"bike_id":"2f272f9d-bafe-4a44-a2e3-105574c73c4b","system_id":"levelo_inurba_marseille","lat":43.24182,"lon":5.39734,"is_reserved":false,"is_disabled":false,"rental_uris":{"android":"levelo://app?vid=2f272f9d-bafe-4a44-a2e3-105574c73c4b","ios":"levelo://app?vid=2f272f9d-bafe-4a44-a2e3-105574c73c4b"},"vehicle_type_id":"4","last_reported":1770028436,"current_range_meters":6000,"station_id":"ce4bhn12rcd13ifvqgpg","pricing_plan_id":"cebpf4jnsgd1na2vs0mg"},{"bike_id":"8d19955e-e09c-4b47-a6e3-ae607dbe5088","system_id":"levelo_inurba_marseille","lat":43.26213,"lon":5.37464,"is_reserved":false,"is_disabled":true,"rental_uris":{"android":"levelo://app?vid=8d19955e-e09c-4b47-a6e3-ae607dbe5088","ios":"levelo://app?vid=8d19955e-e09c-4b47-a6e3-ae607dbe5088"},"vehicle_type_id":"4","last_reported":1770028436,"current_range_meters":6000,"station_id":"ce4bhgp2rcd13ifvqfc0","pricing_plan_id":"cebpf4jnsgd1na2vs0mg"},{"bike_id":"4d614b31-2487-459c-80b4-20568895cab0","system_id":"levelo_inurba_marseille","lat":43.24044,"lon":5.37812,"is_reserved":false,"is_disabled":true,"rental_uris":{"android":"levelo://app?vid=4d614b31-2487-459c-80b4-20568895cab0","ios":"levelo://app?vid=4d614b31-2487-459c-80b4-20568895cab0"},"vehicle_type_id":"4","last_reported":1770028436,"current_range_meters":6000,"station_id":"ce4bhnp2rcd13ifvqgvg","pricing_plan_id":"cebpf4jnsgd1na2vs0mg"},{"bike_id":"4c50b102-00aa-40e2-83bd-5e90d2e54b17","system_id":"levelo_inurba_marseille","lat":43.279923,"lon":5.399984,"is_reserved":false,"is_disabled":false,"rental_uris":{"android":"levelo://app?vid=4c50b102-00aa-40e2-83bd-5e90d2e54b17","ios":"levelo://app?vid=4c50b102-00aa-40e2-83bd-5e90d2e54b17"},"vehicle_type_id":"4","last_reported":1770028436,"current_range_meters":6000,"station_id":"ce4bho92rcd13ifvqh4g","pricing_plan_id":"cebpf4jnsgd1na2vs0mg"},{"bike_id":"745c80e2-1701-46b1-a604-324e21e6380a","system_id":"levelo_inurba_marseille","lat":43.30154,"lon":5.3984,"is_reserved":false,"is_disabled":false,"rental_uris":{"android":"levelo://app?vid=745c80e2-1701-46b1-a604-324e21e6380a","ios":"levelo://app?vid=745c80e2-1701-46b1-a604-324e21e6380a"},"vehicle_type_id":"4","last_reported":1770028436,"current_range_meters":6000,"station_id":"ce4bh0h2rcd13ifvqd40","pricing_plan_id":"cebpf4jnsgd1na2vs0mg"},{"bike_id":"ed64f932-0a04-4bcf-bc59-b79096994780","system_id":"levelo_inurba_marseille","lat":43.28479,"lon":5.385626,"is_reserved":false,"is_disabled":false,"rental_uris":{"android":"levelo://app?vid=ed64f932-0a04-4bcf-bc59-b79096994780","ios":"levelo://app?vid=ed64f932-0a04-4bcf-bc59-b79096994780"},"vehicle_type_id":"4","last_reported":1770028436,"current_range_meters":6000,"station_id":"ce4bh8p2rcd13ifvqeb0","pricing_plan_id":"cebpf4jnsgd1na2vs0mg"},{"bike_id":"05884c8f-5dd4-4093-a5e5-bff4fc551273","system_id":"levelo_inurba_marseille","lat":43.27382,"lon":5.36244,"is_reserved":false,"is_disabled":false,"rental_uris":{"android":"levelo://app?vid=05884c8f-5dd4-4093-a5e5-bff4fc551273","ios":"levelo://app?vid=05884c8f-5dd4-4093-a5e5-bff4fc551273"},"vehicle_type_id":"4","last_reported":1770028436,"current_range_meters":6000,"station_id":"ce4bhbh2rcd13ifvqeo0","pricing_plan_id":"cebpf4jnsgd1na2vs0mg"},{"bike_id":"5a46f343-f8c0-4bd7-9859-14e3ca910ba6","system_id":"levelo_inurba_marseille","lat":43.2949,"lon":5.43301,"is_reserved":false,"is_disabled":false,"rental_uris":{"android":"levelo://app?vid=5a46f343-f8c0-4bd7-9859-14e3ca910ba6","ios":"levelo://app?vid=5a46f343-f8c0-4bd7-9859-14e3ca910ba6"},"vehicle_type_id":"4","last_reported":1770028436,"current_range_meters":6000,"station_id":"st_d3j5ugp08ojc73fj9d10","pricing_plan_id":"cebpf4jnsgd1na2vs0mg"},{"bike_id":"48defe86-fd01-4bdf-bb58-0b96240d5da2","system_id":"levelo_inurba_marseille","lat":43.284815,"lon":5.483889,"is_reserved":false,"is_disabled":false,"rental_uris":{"android":"levelo://app?vid=48defe86-fd01-4bdf-bb58-0b96240d5da2","ios":"levelo://app?vid=48defe86-fd01-4bdf-bb58-0b96240d5da2"},"vehicle_type_id":"4","last_reported":1770028436,"current_range_meters":6000,"station_id":"st_d3svhcjqgbts73a3dn0g","pricing_plan_id":"cebpf4jnsgd1na2vs0mg"},{"bike_id":"76695816-489b-4401-ac2a-0147df0088c5","system_id":"levelo_inurba_marseille","lat":43.30467,"lon":5.37898,"is_reserved":false,"is_disabled":true,"rental_uris":{"android":"levelo://app?vid=76695816-489b-4401-ac2a-0147df0088c5","ios":"levelo://app?vid=76695816-489b-4401-ac2a-0147df0088c5"},"vehicle_type_id":"4","last_reported":1770028436,"current_range_meters":6400,"station_id":"ce4bgup2rcd13ifvqcn0","pricing_plan_id":"cebpf4jnsgd1na2vs0mg"},{"bike_id":"56a4bae4-bfa4-41b7-a15b-c9d1c79421ee","system_id":"levelo_inurba_marseille","lat":43.299661,"lon":5.371739,"is_reserved":false,"is_disabled":false,"rental_uris":{"android":"levelo://app?vid=56a4bae4-bfa4-41b7-a15b-c9d1c79421ee","ios":"levelo://app?vid=56a4bae4-bfa4-41b7-a15b-c9d1c79421ee"},"vehicle_type_id":"4","last_reported":1770028436,"current_range_meters":6400,"station_id":"ce4bgr92rcd13ifvqc7g","pricing_plan_id":"cebpf4jnsgd1na2vs0mg"},{"bike_id":"76d75860-135e-4342-8d60-d738c4449126","system_id":"levelo_inurba_marseille","lat":43.25958,"lon":5.40892,"is_reserved":false,"is_disabled":false,"rental_uris":{"android":"levelo://app?vid=76d75860-135e-4342-8d60-d738c4449126","ios":"levelo://app?vid=76d75860-135e-4342-8d60-d738c4449126"},"vehicle_type_id":"4","last_reported":1770028436,"current_range_meters":6400,"station_id":"ce4bhm92rcd13ifvqglg","pricing_plan_id":"cebpf4jnsgd1na2vs0mg"},{"bike_id":"d64baf67-1a62-4b86-9aae-88e7781f3b30","system_id":"levelo_inurba_marseille","lat":43.23195,"lon":5.39997,"is_reserved":false,"is_disabled":false,"rental_uris":{"android":"levelo://app?vid=d64baf67-1a62-4b86-9aae-88e7781f3b30","ios":"levelo://app?vid=d64baf67-1a62-4b86-9aae-88e7781f3b30"},"vehicle_type_id":"4","last_reported":1770028436,"current_range_meters":6400,"station_id":"ce4bhn12rcd13ifvqgqg","pricing_plan_id":"cebpf4jnsgd1na2vs0mg"},{"bike_id":"46a20b62-64ae-4717-b610-6e8bb569cadb","system_id":"levelo_inurba_marseille","lat":43.25866,"lon":5.39912,"is_reserved":false,"is_disabled":false,"rental_uris":{"android":"levelo://app?vid=46a20b62-64ae-4717-b610-6e8bb569cadb","ios":"levelo://app?vid=46a20b62-64ae-4717-b610-6e8bb569cadb"},"vehicle_type_id":"4","last_reported":1770028436,"current_range_meters":6400,"station_id":"ce4bhl92rcd13ifvqghg","pricing_plan_id":"cebpf4jnsgd1na2vs0mg"},{"bike_id":"35e94623-6487-4043-aec6-ee449fcb47c5","system_id":"levelo_inurba_marseille","lat":43.25934,"lon":5.40902,"is_reserved":false,"is_disabled":false,"rental_uris":{"android":"levelo://app?vid=35e94623-6487-4043-aec6-ee449fcb47c5","ios":"levelo://app?vid=35e94623-6487-4043-aec6-ee449fcb47c5"},"vehicle_type_id":"4","last_reported":1770028436,"current_range_meters":6400,"station_id":"ce4bhm92rcd13ifvqglg","pricing_plan_id":"cebpf4jnsgd1na2vs0mg"},{"bike_id":"926a8edb-6c8d-4b2e-993e-6675e7b51abd","system_id":"levelo_inurba_marseille","lat":43.23792,"lon":5.36632,"is_reserved":false,"is_disabled":false,"rental_uris":{"android":"levelo://app?vid=926a8edb-6c8d-4b2e-993e-6675e7b51abd","ios":"levelo://app?vid=926a8edb-6c8d-4b2e-993e-6675e7b51abd"},"vehicle_type_id":"4","last_reported":1770028436,"current_range_meters":6400,"station_id":"st_d3nk18o9ro0c73en2l3g","pricing_plan_id":"cebpf4jnsgd1na2vs0mg"},{"bike_id":"a518d221-6a34-4e52-8932-5e06ee3d403b","system_id":"levelo_inurba_marseille","lat":43.280317,"lon":5.369528,"is_reserved":false,"is_disabled":false,"rental_uris":{"android":"levelo://app?vid=a518d221-6a34-4e52-8932-5e06ee3d403b","ios":"levelo://app?vid=a518d221-6a34-4e52-8932-5e06ee3d403b"},"vehicle_type_id":"4","last_reported":1770028436,"current_range_meters":6400,"station_id":"ce4bha12rcd13ifvqef0","pricing_plan_id":"cebpf4jnsgd1na2vs0mg"},{"bike_id":"c9843640-776e-4044-862e-049f5b9f5c80","system_id":"levelo_inurba_marseille","lat":43.30259,"lon":5.36894,"is_reserved":false,"is_disabled":false,"rental_uris":{"android":"levelo://app?vid=c9843640-776e-4044-862e-049f5b9f5c80","ios":"levelo://app?vid=c9843640-776e-4044-862e-049f5b9f5c80"},"vehicle_type_id":"4","last_reported":1770028436,"current_range_meters":6400,"station_id":"","pricing_plan_id":"cebpf4jnsgd1na2vs0mg"},{"bike_id":"0de0a9c6-8323-42c8-980b-f49235ca4c0b","system_id":"levelo_inurba_marseille","lat":43.29632,"lon":5.37737,"is_reserved":false,"is_disabled":false,"rental_uris":{"android":"levelo://app?vid=0de0a9c6-8323-42c8-980b-f49235ca4c0b","ios":"levelo://app?vid=0de0a9c6-8323-42c8-980b-f49235ca4c0b"},"vehicle_type_id":"4","last_reported":1770028436,"current_range_meters":6400,"station_id":"ce4bgi92rcd13ifvqb90","pricing_plan_id":"cebpf4jnsgd1na2vs0mg"},{"bike_id":"fb770f52-ce98-4cd4-aae7-0a310d77081f","system_id":"levelo_inurba_marseille","lat":43.28858,"lon":5.42525,"is_reserved":false,"is_disabled":true,"rental_uris":{"android":"levelo://app?vid=fb770f52-ce98-4cd4-aae7-0a310d77081f","ios":"levelo://app?vid=fb770f52-ce98-4cd4-aae7-0a310d77081f"},"vehicle_type_id":"4","last_reported":1770028436,"current_range_meters":6400,"station_id":"st_d3b462108ojc7389ooeg","pricing_plan_id":"cebpf4jnsgd1na2vs0mg"},{"bike_id":"ca8005ff-9d8f-497e-8af9-ecdd97e8ba55","system_id":"levelo_inurba_marseille","lat":43.2817,"lon":5.42643,"is_reserved":false,"is_disabled":false,"rental_uris":{"android":"levelo://app?vid=ca8005ff-9d8f-497e-8af9-ecdd97e8ba55","ios":"levelo://app?vid=ca8005ff-9d8f-497e-8af9-ecdd97e8ba55"},"vehicle_type_id":"4","last_reported":1770028436,"current_range_meters":6400,"station_id":"ce4bhnh2rcd13ifvqgug","pricing_plan_id":"cebpf4jnsgd1na2vs0mg"},{"bike_id":"fb4a42e6-4b95-4d29-93ec-2fbab2cfeec3","system_id":"levelo_inurba_marseille","lat":43.30152,"lon":5.38092,"is_reserved":false,"is_disabled":false,"rental_uris":{"android":"levelo://app?vid=fb4a42e6-4b95-4d29-93ec-2fbab2cfeec3","ios":"levelo://app?vid=fb4a42e6-4b95-4d29-93ec-2fbab2cfeec3"},"vehicle_type_id":"4","last_reported":1770028436,"current_range_meters":6400,"station_id":"ce4bgjp2rcd13ifvqbh0","pricing_plan_id":"cebpf4jnsgd1na2vs0mg"},{"bike_id":"65bf3991-3be5-47bd-ac33-b3a254f4d015","system_id":"levelo_inurba_marseille","lat":43.31047,"lon":5.37174,"is_reserved":false,"is_disabled":false,"rental_uris":{"android":"levelo://app?vid=65bf3991-3be5-47bd-ac33-b3a254f4d015","ios":"levelo://app?vid=65bf3991-3be5-47bd-ac33-b3a254f4d015"},"vehicle_type_id":"4","last_reported":1770028436,"current_range_meters":6400,"station_id":"st_d4kl2rp97mjs73e7tdfg","pricing_plan_id":"cebpf4jnsgd1na2vs0mg"},{"bike_id":"4a4bc2bb-3123-4f54-88d8-9bdb25dd5c45","system_id":"levelo_inurba_marseille","lat":43.28962,"lon":5.37839,"is_reserved":false,"is_disabled":false,"rental_uris":{"android":"levelo://app?vid=4a4bc2bb-3123-4f54-88d8-9bdb25dd5c45","ios":"levelo://app?vid=4a4bc2bb-3123-4f54-88d8-9bdb25dd5c45"},"vehicle_type_id":"4","last_reported":1770028436,"current_range_meters":6800,"station_id":"ce4bh9p2rcd13ifvqed0","pricing_plan_id":"cebpf4jnsgd1na2vs0mg"},{"bike_id":"94cbe5a1-172e-4cc9-bb27-f3369919b100","system_id":"levelo_inurba_marseille","lat":43.24074,"lon":5.37744,"is_reserved":false,"is_disabled":false,"rental_uris":{"android":"levelo://app?vid=94cbe5a1-172e-4cc9-bb27-f3369919b100","ios":"levelo://app?vid=94cbe5a1-172e-4cc9-bb27-f3369919b100"},"vehicle_type_id":"4","last_reported":1770028436,"current_range_meters":6800,"station_id":"ce4bhnp2rcd13ifvqgvg","pricing_plan_id":"cebpf4jnsgd1na2vs0mg"},{"bike_id":"e09e2717-153b-489f-b446-f480f14d97b2","system_id":"levelo_inurba_marseille","lat":43.27946,"lon":5.41034,"is_reserved":false,"is_disabled":false,"rental_uris":{"android":"levelo://app?vid=e09e2717-153b-489f-b446-f480f14d97b2","ios":"levelo://app?vid=e09e2717-153b-489f-b446-f480f14d97b2"},"vehicle_type_id":"4","last_reported":1770028436,"current_range_meters":6800,"station_id":"ce4bhnp2rcd13ifvqh0g","pricing_plan_id":"cebpf4jnsgd1na2vs0mg"},{"bike_id":"b38789cc-18dd-40d1-ae76-cc4e95e9c6fd","system_id":"levelo_inurba_marseille","lat":43.31349,"lon":5.36727,"is_reserved":false,"is_disabled":false,"rental_uris":{"android":"levelo://app?vid=b38789cc-18dd-40d1-ae76-cc4e95e9c6fd","ios":"levelo://app?vid=b38789cc-18dd-40d1-ae76-cc4e95e9c6fd"},"vehicle_type_id":"4","last_reported":1770028436,"current_range_meters":6800,"station_id":"ce4bgr92rcd13ifvqc6g","pricing_plan_id":"cebpf4jnsgd1na2vs0mg"},{"bike_id":"4b39f1cc-8d5c-4330-8483-0300616cf7c0","system_id":"levelo_inurba_marseille","lat":43.240606,"lon":5.363663,"is_reserved":false,"is_disabled":false,"rental_uris":{"android":"levelo://app?vid=4b39f1cc-8d5c-4330-8483-0300616cf7c0","ios":"levelo://app?vid=4b39f1cc-8d5c-4330-8483-0300616cf7c0"},"vehicle_type_id":"4","last_reported":1770028436,"current_range_meters":6800,"station_id":"","pricing_plan_id":"cebpf4jnsgd1na2vs0mg"},{"bike_id":"3475ef01-6815-478c-8253-72b3293c048d","system_id":"levelo_inurba_marseille","lat":43.31193,"lon":5.36834,"is_reserved":false,"is_disabled":false,"rental_uris":{"android":"levelo://app?vid=3475ef01-6815-478c-8253-72b3293c048d","ios":"levelo://app?vid=3475ef01-6815-478c-8253-72b3293c048d"},"vehicle_type_id":"4","last_reported":1770028436,"current_range_meters":6800,"station_id":"ce4bgl92rcd13ifvqbq0","pricing_plan_id":"cebpf4jnsgd1na2vs0mg"},{"bike_id":"f34b59e1-4e39-4af3-a25b-ab4cbda4d328","system_id":"levelo_inurba_marseille","lat":43.24775,"lon":5.37438,"is_reserved":false,"is_disabled":false,"rental_uris":{"android":"levelo://app?vid=f34b59e1-4e39-4af3-a25b-ab4cbda4d328","ios":"levelo://app?vid=f34b59e1-4e39-4af3-a25b-ab4cbda4d328"},"vehicle_type_id":"4","last_reported":1770028436,"current_range_meters":6800,"station_id":"ce4bhgh2rcd13ifvqfb0","pricing_plan_id":"cebpf4jnsgd1na2vs0mg"},{"bike_id":"ead9d525-178d-43f7-b202-498aac541976","system_id":"levelo_inurba_marseille","lat":43.22578,"lon":5.41636,"is_reserved":false,"is_disabled":false,"rental_uris":{"android":"levelo://app?vid=ead9d525-178d-43f7-b202-498aac541976","ios":"levelo://app?vid=ead9d525-178d-43f7-b202-498aac541976"},"vehicle_type_id":"4","last_reported":1770028436,"current_range_meters":6800,"station_id":"st_d2o4gvlbi1j2169b742g","pricing_plan_id":"cebpf4jnsgd1na2vs0mg"},{"bike_id":"3a58788c-4a23-4531-9872-db4b04a34512","system_id":"levelo_inurba_marseille","lat":43.25038,"lon":5.38918,"is_reserved":false,"is_disabled":false,"rental_uris":{"android":"levelo://app?vid=3a58788c-4a23-4531-9872-db4b04a34512","ios":"levelo://app?vid=3a58788c-4a23-4531-9872-db4b04a34512"},"vehicle_type_id":"4","last_reported":1770028436,"current_range_meters":6800,"station_id":"ce4bhgp2rcd13ifvqfd0","pricing_plan_id":"cebpf4jnsgd1na2vs0mg"},{"bike_id":"25fa64a5-b83a-4b77-9fc0-d8981c1c39e7","system_id":"levelo_inurba_marseille","lat":43.299313,"lon":5.365322,"is_reserved":false,"is_disabled":false,"rental_uris":{"android":"levelo://app?vid=25fa64a5-b83a-4b77-9fc0-d8981c1c39e7","ios":"levelo://app?vid=25fa64a5-b83a-4b77-9fc0-d8981c1c39e7"},"vehicle_type_id":"4","last_reported":1770028436,"current_range_meters":6800,"station_id":"ce4bgm92rcd13ifvqbr0","pricing_plan_id":"cebpf4jnsgd1na2vs0mg"},{"bike_id":"77ca2409-96e8-4948-9e0a-70d381f2f382","system_id":"levelo_inurba_marseille","lat":43.28719,"lon":5.37926,"is_reserved":false,"is_disabled":false,"rental_uris":{"android":"levelo://app?vid=77ca2409-96e8-4948-9e0a-70d381f2f382","ios":"levelo://app?vid=77ca2409-96e8-4948-9e0a-70d381f2f382"},"vehicle_type_id":"4","last_reported":1770028436,"current_range_meters":6800,"station_id":"ce4bh9p2rcd13ifvqec0","pricing_plan_id":"cebpf4jnsgd1na2vs0mg"},{"bike_id":"6632b7eb-39fd-4ac6-ab18-a3a8fd79732f","system_id":"levelo_inurba_marseille","lat":43.30892,"lon":5.37155,"is_reserved":false,"is_disabled":false,"rental_uris":{"android":"levelo://app?vid=6632b7eb-39fd-4ac6-ab18-a3a8fd79732f","ios":"levelo://app?vid=6632b7eb-39fd-4ac6-ab18-a3a8fd79732f"},"vehicle_type_id":"4","last_reported":1770028436,"current_range_meters":6800,"station_id":"ce4bguh2rcd13ifvqckg","pricing_plan_id":"cebpf4jnsgd1na2vs0mg"},{"bike_id":"53a012bd-16c2-4c35-9868-c74d5c6bc555","system_id":"levelo_inurba_marseille","lat":43.31335,"lon":5.36703,"is_reserved":false,"is_disabled":false,"rental_uris":{"android":"levelo://app?vid=53a012bd-16c2-4c35-9868-c74d5c6bc555","ios":"levelo://app?vid=53a012bd-16c2-4c35-9868-c74d5c6bc555"},"vehicle_type_id":"4","last_reported":1770028436,"current_range_meters":6800,"station_id":"ce4bgr92rcd13ifvqc6g","pricing_plan_id":"cebpf4jnsgd1na2vs0mg"},{"bike_id":"598c3be9-e516-4a68-8ee3-e84cf24002f9","system_id":"levelo_inurba_marseille","lat":43.25009,"lon":5.38931,"is_reserved":false,"is_disabled":false,"rental_uris":{"android":"levelo://app?vid=598c3be9-e516-4a68-8ee3-e84cf24002f9","ios":"levelo://app?vid=598c3be9-e516-4a68-8ee3-e84cf24002f9"},"vehicle_type_id":"4","last_reported":1770028436,"current_range_meters":6800,"station_id":"ce4bhgp2rcd13ifvqfd0","pricing_plan_id":"cebpf4jnsgd1na2vs0mg"},{"bike_id":"c908c76d-5841-48a6-bd50-48ef6a9cf886","system_id":"levelo_inurba_marseille","lat":43.32492,"lon":5.38294,"is_reserved":false,"is_disabled":false,"rental_uris":{"android":"levelo://app?vid=c908c76d-5841-48a6-bd50-48ef6a9cf886","ios":"levelo://app?vid=c908c76d-5841-48a6-bd50-48ef6a9cf886"},"vehicle_type_id":"4","last_reported":1770028436,"current_range_meters":7200,"station_id":"st_d4asgbiv49dc73anf9m0","pricing_plan_id":"cebpf4jnsgd1na2vs0mg"},{"bike_id":"ef7b953d-a72e-4fe5-9cd9-297c28191b5d","system_id":"levelo_inurba_marseille","lat":43.28705,"lon":5.39991,"is_reserved":false,"is_disabled":false,"rental_uris":{"android":"levelo://app?vid=ef7b953d-a72e-4fe5-9cd9-297c28191b5d","ios":"levelo://app?vid=ef7b953d-a72e-4fe5-9cd9-297c28191b5d"},"vehicle_type_id":"4","last_reported":1770028436,"current_range_meters":7200,"station_id":"ce4bho92rcd13ifvqh3g","pricing_plan_id":"cebpf4jnsgd1na2vs0mg"},{"bike_id":"297d13dc-a8fe-4c7e-ab4e-c67c01d72bc9","system_id":"levelo_inurba_marseille","lat":43.26697,"lon":5.38282,"is_reserved":false,"is_disabled":false,"rental_uris":{"android":"levelo://app?vid=297d13dc-a8fe-4c7e-ab4e-c67c01d72bc9","ios":"levelo://app?vid=297d13dc-a8fe-4c7e-ab4e-c67c01d72bc9"},"vehicle_type_id":"4","last_reported":1770028436,"current_range_meters":7200,"station_id":"ce4bhg92rcd13ifvqf90","pricing_plan_id":"cebpf4jnsgd1na2vs0mg"},{"bike_id":"83954c91-b1be-419e-85e2-be05d774291d","system_id":"levelo_inurba_marseille","lat":43.2406,"lon":5.37744,"is_reserved":false,"is_disabled":false,"rental_uris":{"android":"levelo://app?vid=83954c91-b1be-419e-85e2-be05d774291d","ios":"levelo://app?vid=83954c91-b1be-419e-85e2-be05d774291d"},"vehicle_type_id":"4","last_reported":1770028436,"current_range_meters":7200,"station_id":"ce4bhnp2rcd13ifvqgvg","pricing_plan_id":"cebpf4jnsgd1na2vs0mg"},{"bike_id":"78f87509-7a97-4d09-86ee-cdbe34d59bc6","system_id":"levelo_inurba_marseille","lat":43.2483,"lon":5.38469,"is_reserved":false,"is_disabled":false,"rental_uris":{"android":"levelo://app?vid=78f87509-7a97-4d09-86ee-cdbe34d59bc6","ios":"levelo://app?vid=78f87509-7a97-4d09-86ee-cdbe34d59bc6"},"vehicle_type_id":"4","last_reported":1770028436,"current_range_meters":7200,"station_id":"","pricing_plan_id":"cebpf4jnsgd1na2vs0mg"},{"bike_id":"2e89fdd1-7445-4232-b055-a170710a3c69","system_id":"levelo_inurba_marseille","lat":43.30134,"lon":5.37401,"is_reserved":false,"is_disabled":false,"rental_uris":{"android":"levelo://app?vid=2e89fdd1-7445-4232-b055-a170710a3c69","ios":"levelo://app?vid=2e89fdd1-7445-4232-b055-a170710a3c69"},"vehicle_type_id":"4","last_reported":1770028436,"current_range_meters":7200,"station_id":"ce4bgs92rcd13ifvqcc0","pricing_plan_id":"cebpf4jnsgd1na2vs0mg"},{"bike_id":"0f8ab205-b08e-4dd8-9e0a-11809d5e78f9","system_id":"levelo_inurba_marseille","lat":43.30532,"lon":5.36547,"is_reserved":false,"is_disabled":false,"rental_uris":{"android":"levelo://app?vid=0f8ab205-b08e-4dd8-9e0a-11809d5e78f9","ios":"levelo://app?vid=0f8ab205-b08e-4dd8-9e0a-11809d5e78f9"},"vehicle_type_id":"4","last_reported":1770028436,"current_range_meters":7200,"station_id":"ce4bgs12rcd13ifvqcag","pricing_plan_id":"cebpf4jnsgd1na2vs0mg"},{"bike_id":"83087f4e-0d78-41d4-8b16-ef75c68aab04","system_id":"levelo_inurba_marseille","lat":43.30523,"lon":5.3654,"is_reserved":false,"is_disabled":false,"rental_uris":{"android":"levelo://app?vid=83087f4e-0d78-41d4-8b16-ef75c68aab04","ios":"levelo://app?vid=83087f4e-0d78-41d4-8b16-ef75c68aab04"},"vehicle_type_id":"4","last_reported":1770028436,"current_range_meters":7200,"station_id":"ce4bgs12rcd13ifvqcag","pricing_plan_id":"cebpf4jnsgd1na2vs0mg"},{"bike_id":"7339baea-42a7-44c8-866b-b3318d7a94e4","system_id":"levelo_inurba_marseille","lat":43.31052,"lon":5.37176,"is_reserved":false,"is_disabled":false,"rental_uris":{"android":"levelo://app?vid=7339baea-42a7-44c8-866b-b3318d7a94e4","ios":"levelo://app?vid=7339baea-42a7-44c8-866b-b3318d7a94e4"},"vehicle_type_id":"4","last_reported":1770028436,"current_range_meters":7200,"station_id":"st_d4kl2rp97mjs73e7tdfg","pricing_plan_id":"cebpf4jnsgd1na2vs0mg"},{"bike_id":"42e23a25-3f3b-41a6-affc-754a84a75d61","system_id":"levelo_inurba_marseille","lat":43.26673,"lon":5.38265,"is_reserved":false,"is_disabled":false,"rental_uris":{"android":"levelo://app?vid=42e23a25-3f3b-41a6-affc-754a84a75d61","ios":"levelo://app?vid=42e23a25-3f3b-41a6-affc-754a84a75d61"},"vehicle_type_id":"4","last_reported":1770028436,"current_range_meters":7200,"station_id":"ce4bhg92rcd13ifvqf90","pricing_plan_id":"cebpf4jnsgd1na2vs0mg"},{"bike_id":"103d9878-2da6-4373-a147-e7fd1a4a7487","system_id":"levelo_inurba_marseille","lat":43.310496,"lon":5.371792,"is_reserved":false,"is_disabled":false,"rental_uris":{"android":"levelo://app?vid=103d9878-2da6-4373-a147-e7fd1a4a7487","ios":"levelo://app?vid=103d9878-2da6-4373-a147-e7fd1a4a7487"},"vehicle_type_id":"4","last_reported":1770028436,"current_range_meters":7200,"station_id":"st_d4kl2rp97mjs73e7tdfg","pricing_plan_id":"cebpf4jnsgd1na2vs0mg"},{"bike_id":"df56c3cd-b8f3-4331-9204-6cdae907a930","system_id":"levelo_inurba_marseille","lat":43.30003,"lon":5.37193,"is_reserved":false,"is_disabled":false,"rental_uris":{"android":"levelo://app?vid=df56c3cd-b8f3-4331-9204-6cdae907a930","ios":"levelo://app?vid=df56c3cd-b8f3-4331-9204-6cdae907a930"},"vehicle_type_id":"4","last_reported":1770028436,"current_range_meters":7200,"station_id":"ce4bgr92rcd13ifvqc7g","pricing_plan_id":"cebpf4jnsgd1na2vs0mg"},{"bike_id":"383629b2-73f2-4b1e-9cf1-7119fdaec39e","system_id":"levelo_inurba_marseille","lat":43.27374,"lon":5.36248,"is_reserved":false,"is_disabled":false,"rental_uris":{"android":"levelo://app?vid=383629b2-73f2-4b1e-9cf1-7119fdaec39e","ios":"levelo://app?vid=383629b2-73f2-4b1e-9cf1-7119fdaec39e"},"vehicle_type_id":"4","last_reported":1770028436,"current_range_meters":8000,"station_id":"ce4bhbh2rcd13ifvqeo0","pricing_plan_id":"cebpf4jnsgd1na2vs0mg"},{"bike_id":"42f3911a-939e-4889-9561-3c06517c8f7e","system_id":"levelo_inurba_marseille","lat":43.26781,"lon":5.39429,"is_reserved":false,"is_disabled":true,"rental_uris":{"android":"levelo://app?vid=42f3911a-939e-4889-9561-3c06517c8f7e","ios":"levelo://app?vid=42f3911a-939e-4889-9561-3c06517c8f7e"},"vehicle_type_id":"4","last_reported":1770028436,"current_range_meters":8000,"station_id":"ce4bhh12rcd13ifvqfg0","pricing_plan_id":"cebpf4jnsgd1na2vs0mg"},{"bike_id":"4dd7c8cd-c4fb-4510-a23c-5093a24e05f8","system_id":"levelo_inurba_marseille","lat":43.2678,"lon":5.39424,"is_reserved":false,"is_disabled":false,"rental_uris":{"android":"levelo://app?vid=4dd7c8cd-c4fb-4510-a23c-5093a24e05f8","ios":"levelo://app?vid=4dd7c8cd-c4fb-4510-a23c-5093a24e05f8"},"vehicle_type_id":"4","last_reported":1770028436,"current_range_meters":8000,"station_id":"ce4bhh12rcd13ifvqfg0","pricing_plan_id":"cebpf4jnsgd1na2vs0mg"},{"bike_id":"7ac53e7b-4a27-4aab-9631-08495b8cb3e9","system_id":"levelo_inurba_marseille","lat":43.29521,"lon":5.3751,"is_reserved":false,"is_disabled":false,"rental_uris":{"android":"levelo://app?vid=7ac53e7b-4a27-4aab-9631-08495b8cb3e9","ios":"levelo://app?vid=7ac53e7b-4a27-4aab-9631-08495b8cb3e9"},"vehicle_type_id":"4","last_reported":1770028436,"current_range_meters":8000,"station_id":"ce4bgkp2rcd13ifvqbmg","pricing_plan_id":"cebpf4jnsgd1na2vs0mg"},{"bike_id":"3732f1eb-e4a8-4e19-ac1d-f42f35b721e7","system_id":"levelo_inurba_marseille","lat":43.30116,"lon":5.39081,"is_reserved":false,"is_disabled":false,"rental_uris":{"android":"levelo://app?vid=3732f1eb-e4a8-4e19-ac1d-f42f35b721e7","ios":"levelo://app?vid=3732f1eb-e4a8-4e19-ac1d-f42f35b721e7"},"vehicle_type_id":"4","last_reported":1770028436,"current_range_meters":8000,"station_id":"ce4bh192rcd13ifvqdb0","pricing_plan_id":"cebpf4jnsgd1na2vs0mg"},{"bike_id":"afd4599a-bce3-4586-87e8-b420b6da49a7","system_id":"levelo_inurba_marseille","lat":43.2594,"lon":5.40908,"is_reserved":false,"is_disabled":false,"rental_uris":{"android":"levelo://app?vid=afd4599a-bce3-4586-87e8-b420b6da49a7","ios":"levelo://app?vid=afd4599a-bce3-4586-87e8-b420b6da49a7"},"vehicle_type_id":"4","last_reported":1770028436,"current_range_meters":8000,"station_id":"ce4bhm92rcd13ifvqglg","pricing_plan_id":"cebpf4jnsgd1na2vs0mg"},{"bike_id":"8f0ac864-0be0-4b66-931b-454493e82343","system_id":"levelo_inurba_marseille","lat":43.31358,"lon":5.3849,"is_reserved":false,"is_disabled":false,"rental_uris":{"android":"levelo://app?vid=8f0ac864-0be0-4b66-931b-454493e82343","ios":"levelo://app?vid=8f0ac864-0be0-4b66-931b-454493e82343"},"vehicle_type_id":"4","last_reported":1770028436,"current_range_meters":8000,"station_id":"ce4bgt92rcd13ifvqcf0","pricing_plan_id":"cebpf4jnsgd1na2vs0mg"},{"bike_id":"15441752-de89-46d3-a5a4-a1bc8c6e7535","system_id":"levelo_inurba_marseille","lat":43.26964,"lon":5.3862,"is_reserved":false,"is_disabled":false,"rental_uris":{"android":"levelo://app?vid=15441752-de89-46d3-a5a4-a1bc8c6e7535","ios":"levelo://app?vid=15441752-de89-46d3-a5a4-a1bc8c6e7535"},"vehicle_type_id":"4","last_reported":1770028436,"current_range_meters":8000,"station_id":"ce4bhh92rcd13ifvqfh0","pricing_plan_id":"cebpf4jnsgd1na2vs0mg"},{"bike_id":"f5f04de0-08f9-4793-af75-8f39e5816e1a","system_id":"levelo_inurba_marseille","lat":43.272,"lon":5.39179,"is_reserved":false,"is_disabled":false,"rental_uris":{"android":"levelo://app?vid=f5f04de0-08f9-4793-af75-8f39e5816e1a","ios":"levelo://app?vid=f5f04de0-08f9-4793-af75-8f39e5816e1a"},"vehicle_type_id":"4","last_reported":1770028436,"current_range_meters":8000,"station_id":"ce4bhhp2rcd13ifvqfm0","pricing_plan_id":"cebpf4jnsgd1na2vs0mg"},{"bike_id":"1948f599-abbd-4a5c-8323-e45a670a006c","system_id":"levelo_inurba_marseille","lat":43.29517,"lon":5.37507,"is_reserved":false,"is_disabled":false,"rental_uris":{"android":"levelo://app?vid=1948f599-abbd-4a5c-8323-e45a670a006c","ios":"levelo://app?vid=1948f599-abbd-4a5c-8323-e45a670a006c"},"vehicle_type_id":"4","last_reported":1770028436,"current_range_meters":8000,"station_id":"ce4bgkp2rcd13ifvqbmg","pricing_plan_id":"cebpf4jnsgd1na2vs0mg"},{"bike_id":"180da0d1-bd60-4b3f-a4d6-ad95d36df675","system_id":"levelo_inurba_marseille","lat":43.232,"lon":5.35552,"is_reserved":false,"is_disabled":false,"rental_uris":{"android":"levelo://app?vid=180da0d1-bd60-4b3f-a4d6-ad95d36df675","ios":"levelo://app?vid=180da0d1-bd60-4b3f-a4d6-ad95d36df675"},"vehicle_type_id":"4","last_reported":1770028436,"current_range_meters":8000,"station_id":"ce4bhu92rcd13ifvqi70","pricing_plan_id":"cebpf4jnsgd1na2vs0mg"},{"bike_id":"11dd8a11-c8bc-42b0-b90f-0f9ed1cd3060","system_id":"levelo_inurba_marseille","lat":43.29567,"lon":5.37479,"is_reserved":false,"is_disabled":false,"rental_uris":{"android":"levelo://app?vid=11dd8a11-c8bc-42b0-b90f-0f9ed1cd3060","ios":"levelo://app?vid=11dd8a11-c8bc-42b0-b90f-0f9ed1cd3060"},"vehicle_type_id":"4","last_reported":1770028436,"current_range_meters":8000,"station_id":"ce4bgh92rcd13ifvqb50","pricing_plan_id":"cebpf4jnsgd1na2vs0mg"},{"bike_id":"a52877df-065d-408d-998d-10889042ab10","system_id":"levelo_inurba_marseille","lat":43.29599,"lon":5.381089,"is_reserved":false,"is_disabled":false,"rental_uris":{"android":"levelo://app?vid=a52877df-065d-408d-998d-10889042ab10","ios":"levelo://app?vid=a52877df-065d-408d-998d-10889042ab10"},"vehicle_type_id":"4","last_reported":1770028436,"current_range_meters":8000,"station_id":"","pricing_plan_id":"cebpf4jnsgd1na2vs0mg"},{"bike_id":"7cb4d92c-ddfd-4673-939d-de19e5a92bf3","system_id":"levelo_inurba_marseille","lat":43.30181,"lon":5.38097,"is_reserved":false,"is_disabled":true,"rental_uris":{"android":"levelo://app?vid=7cb4d92c-ddfd-4673-939d-de19e5a92bf3","ios":"levelo://app?vid=7cb4d92c-ddfd-4673-939d-de19e5a92bf3"},"vehicle_type_id":"4","last_reported":1770028436,"current_range_meters":8000,"station_id":"ce4bgjp2rcd13ifvqbh0","pricing_plan_id":"cebpf4jnsgd1na2vs0mg"},{"bike_id":"258f96a3-3915-45d2-a346-d4eca5c21722","system_id":"levelo_inurba_marseille","lat":43.2927,"lon":5.38437,"is_reserved":false,"is_disabled":false,"rental_uris":{"android":"levelo://app?vid=258f96a3-3915-45d2-a346-d4eca5c21722","ios":"levelo://app?vid=258f96a3-3915-45d2-a346-d4eca5c21722"},"vehicle_type_id":"4","last_reported":1770028436,"current_range_meters":8000,"station_id":"ce4bh692rcd13ifvqea0","pricing_plan_id":"cebpf4jnsgd1na2vs0mg"},{"bike_id":"62af0ab7-05b6-4f47-9cdb-5da8f9fcdec4","system_id":"levelo_inurba_marseille","lat":43.22561,"lon":5.41629,"is_reserved":false,"is_disabled":false,"rental_uris":{"android":"levelo://app?vid=62af0ab7-05b6-4f47-9cdb-5da8f9fcdec4","ios":"levelo://app?vid=62af0ab7-05b6-4f47-9cdb-5da8f9fcdec4"},"vehicle_type_id":"4","last_reported":1770028436,"current_range_meters":8400,"station_id":"st_d2o4gvlbi1j2169b742g","pricing_plan_id":"cebpf4jnsgd1na2vs0mg"},{"bike_id":"11669f92-a768-40e3-968e-23d92654a864","system_id":"levelo_inurba_marseille","lat":43.27994,"lon":5.41065,"is_reserved":false,"is_disabled":false,"rental_uris":{"android":"levelo://app?vid=11669f92-a768-40e3-968e-23d92654a864","ios":"levelo://app?vid=11669f92-a768-40e3-968e-23d92654a864"},"vehicle_type_id":"4","last_reported":1770028436,"current_range_meters":8400,"station_id":"","pricing_plan_id":"cebpf4jnsgd1na2vs0mg"},{"bike_id":"8774adf0-091c-4acb-a18a-0b7f970d22ca","system_id":"levelo_inurba_marseille","lat":43.29881,"lon":5.38411,"is_reserved":false,"is_disabled":false,"rental_uris":{"android":"levelo://app?vid=8774adf0-091c-4acb-a18a-0b7f970d22ca","ios":"levelo://app?vid=8774adf0-091c-4acb-a18a-0b7f970d22ca"},"vehicle_type_id":"4","last_reported":1770028436,"current_range_meters":8400,"station_id":"","pricing_plan_id":"cebpf4jnsgd1na2vs0mg"},{"bike_id":"c0aefe3c-480c-475c-8458-7f167f7fca54","system_id":"levelo_inurba_marseille","lat":43.27521,"lon":5.42463,"is_reserved":false,"is_disabled":false,"rental_uris":{"android":"levelo://app?vid=c0aefe3c-480c-475c-8458-7f167f7fca54","ios":"levelo://app?vid=c0aefe3c-480c-475c-8458-7f167f7fca54"},"vehicle_type_id":"4","last_reported":1770028436,"current_range_meters":8400,"station_id":"ce4bhn92rcd13ifvqgrg","pricing_plan_id":"cebpf4jnsgd1na2vs0mg"},{"bike_id":"3b9c8f3e-f433-4f76-92cb-a9ab1b517dc0","system_id":"levelo_inurba_marseille","lat":43.29476,"lon":5.37617,"is_reserved":false,"is_disabled":false,"rental_uris":{"android":"levelo://app?vid=3b9c8f3e-f433-4f76-92cb-a9ab1b517dc0","ios":"levelo://app?vid=3b9c8f3e-f433-4f76-92cb-a9ab1b517dc0"},"vehicle_type_id":"4","last_reported":1770028436,"current_range_meters":8400,"station_id":"","pricing_plan_id":"cebpf4jnsgd1na2vs0mg"},{"bike_id":"ada20fd7-edee-4547-81d7-01d0919d10ab","system_id":"levelo_inurba_marseille","lat":43.33651,"lon":5.41054,"is_reserved":false,"is_disabled":false,"rental_uris":{"android":"levelo://app?vid=ada20fd7-edee-4547-81d7-01d0919d10ab","ios":"levelo://app?vid=ada20fd7-edee-4547-81d7-01d0919d10ab"},"vehicle_type_id":"4","last_reported":1770028436,"current_range_meters":8400,"station_id":"ce4bhqh2rcd13ifvqhmg","pricing_plan_id":"cebpf4jnsgd1na2vs0mg"},{"bike_id":"0120f280-addb-4cd6-8fb0-47e716725bd0","system_id":"levelo_inurba_marseille","lat":43.30849,"lon":5.38282,"is_reserved":false,"is_disabled":false,"rental_uris":{"android":"levelo://app?vid=0120f280-addb-4cd6-8fb0-47e716725bd0","ios":"levelo://app?vid=0120f280-addb-4cd6-8fb0-47e716725bd0"},"vehicle_type_id":"4","last_reported":1770028436,"current_range_meters":8400,"station_id":"","pricing_plan_id":"cebpf4jnsgd1na2vs0mg"},{"bike_id":"551b7a29-d776-4906-b0b3-5e3381c6f5a6","system_id":"levelo_inurba_marseille","lat":43.29265,"lon":5.37616,"is_reserved":false,"is_disabled":false,"rental_uris":{"android":"levelo://app?vid=551b7a29-d776-4906-b0b3-5e3381c6f5a6","ios":"levelo://app?vid=551b7a29-d776-4906-b0b3-5e3381c6f5a6"},"vehicle_type_id":"4","last_reported":1770028436,"current_range_meters":8400,"station_id":"ce4bgi12rcd13ifvqb80","pricing_plan_id":"cebpf4jnsgd1na2vs0mg"},{"bike_id":"20e5a6ab-b7c2-47d7-a8a2-b30b7e3c699b","system_id":"levelo_inurba_marseille","lat":43.28486,"lon":5.48419,"is_reserved":false,"is_disabled":false,"rental_uris":{"android":"levelo://app?vid=20e5a6ab-b7c2-47d7-a8a2-b30b7e3c699b","ios":"levelo://app?vid=20e5a6ab-b7c2-47d7-a8a2-b30b7e3c699b"},"vehicle_type_id":"4","last_reported":1770028436,"current_range_meters":8400,"station_id":"st_d3svhcjqgbts73a3dn0g","pricing_plan_id":"cebpf4jnsgd1na2vs0mg"},{"bike_id":"53061a28-e296-46d5-9753-c79bfeeeba60","system_id":"levelo_inurba_marseille","lat":43.27191,"lon":5.39181,"is_reserved":false,"is_disabled":false,"rental_uris":{"android":"levelo://app?vid=53061a28-e296-46d5-9753-c79bfeeeba60","ios":"levelo://app?vid=53061a28-e296-46d5-9753-c79bfeeeba60"},"vehicle_type_id":"4","last_reported":1770028436,"current_range_meters":8400,"station_id":"ce4bhhp2rcd13ifvqfm0","pricing_plan_id":"cebpf4jnsgd1na2vs0mg"},{"bike_id":"03cf7401-9f27-4896-93d7-76aca7249916","system_id":"levelo_inurba_marseille","lat":43.24075,"lon":5.3776,"is_reserved":false,"is_disabled":false,"rental_uris":{"android":"levelo://app?vid=03cf7401-9f27-4896-93d7-76aca7249916","ios":"levelo://app?vid=03cf7401-9f27-4896-93d7-76aca7249916"},"vehicle_type_id":"4","last_reported":1770028436,"current_range_meters":8400,"station_id":"ce4bhnp2rcd13ifvqgvg","pricing_plan_id":"cebpf4jnsgd1na2vs0mg"},{"bike_id":"952045d2-3431-4cee-8ea5-02331c0b9d56","system_id":"levelo_inurba_marseille","lat":43.25991,"lon":5.40898,"is_reserved":false,"is_disabled":false,"rental_uris":{"android":"levelo://app?vid=952045d2-3431-4cee-8ea5-02331c0b9d56","ios":"levelo://app?vid=952045d2-3431-4cee-8ea5-02331c0b9d56"},"vehicle_type_id":"4","last_reported":1770028436,"current_range_meters":8400,"station_id":"ce4bhm92rcd13ifvqglg","pricing_plan_id":"cebpf4jnsgd1na2vs0mg"},{"bike_id":"cd51f784-a77c-4831-b04b-afe6fd280c95","system_id":"levelo_inurba_marseille","lat":43.23195,"lon":5.35538,"is_reserved":false,"is_disabled":false,"rental_uris":{"android":"levelo://app?vid=cd51f784-a77c-4831-b04b-afe6fd280c95","ios":"levelo://app?vid=cd51f784-a77c-4831-b04b-afe6fd280c95"},"vehicle_type_id":"4","last_reported":1770028436,"current_range_meters":8400,"station_id":"ce4bhu92rcd13ifvqi70","pricing_plan_id":"cebpf4jnsgd1na2vs0mg"},{"bike_id":"9113ed34-4eae-4a17-a7d2-71a7b76f8d6a","system_id":"levelo_inurba_marseille","lat":43.25938,"lon":5.40915,"is_reserved":false,"is_disabled":false,"rental_uris":{"android":"levelo://app?vid=9113ed34-4eae-4a17-a7d2-71a7b76f8d6a","ios":"levelo://app?vid=9113ed34-4eae-4a17-a7d2-71a7b76f8d6a"},"vehicle_type_id":"4","last_reported":1770028436,"current_range_meters":8400,"station_id":"ce4bhm92rcd13ifvqglg","pricing_plan_id":"cebpf4jnsgd1na2vs0mg"},{"bike_id":"9fff0643-071c-436a-8cfd-837b6e92089a","system_id":"levelo_inurba_marseille","lat":43.259226,"lon":5.408949,"is_reserved":false,"is_disabled":false,"rental_uris":{"android":"levelo://app?vid=9fff0643-071c-436a-8cfd-837b6e92089a","ios":"levelo://app?vid=9fff0643-071c-436a-8cfd-837b6e92089a"},"vehicle_type_id":"4","last_reported":1770028436,"current_range_meters":8400,"station_id":"ce4bhm92rcd13ifvqglg","pricing_plan_id":"cebpf4jnsgd1na2vs0mg"},{"bike_id":"a7a08982-a4b3-4165-befb-342335e20b0b","system_id":"levelo_inurba_marseille","lat":43.23786,"lon":5.36621,"is_reserved":false,"is_disabled":false,"rental_uris":{"android":"levelo://app?vid=a7a08982-a4b3-4165-befb-342335e20b0b","ios":"levelo://app?vid=a7a08982-a4b3-4165-befb-342335e20b0b"},"vehicle_type_id":"4","last_reported":1770028436,"current_range_meters":8800,"station_id":"st_d3nk18o9ro0c73en2l3g","pricing_plan_id":"cebpf4jnsgd1na2vs0mg"},{"bike_id":"a4a78e26-f7cc-42fe-a5d9-4836263a9354","system_id":"levelo_inurba_marseille","lat":43.33167,"lon":5.376845,"is_reserved":false,"is_disabled":false,"rental_uris":{"android":"levelo://app?vid=a4a78e26-f7cc-42fe-a5d9-4836263a9354","ios":"levelo://app?vid=a4a78e26-f7cc-42fe-a5d9-4836263a9354"},"vehicle_type_id":"4","last_reported":1770028436,"current_range_meters":8800,"station_id":"st_d46cu089ee8s73dldbu0","pricing_plan_id":"cebpf4jnsgd1na2vs0mg"},{"bike_id":"3ef65dfb-54d4-469d-946a-35ac1380b0ff","system_id":"levelo_inurba_marseille","lat":43.27379,"lon":5.36254,"is_reserved":false,"is_disabled":false,"rental_uris":{"android":"levelo://app?vid=3ef65dfb-54d4-469d-946a-35ac1380b0ff","ios":"levelo://app?vid=3ef65dfb-54d4-469d-946a-35ac1380b0ff"},"vehicle_type_id":"4","last_reported":1770028436,"current_range_meters":8800,"station_id":"ce4bhbh2rcd13ifvqeo0","pricing_plan_id":"cebpf4jnsgd1na2vs0mg"},{"bike_id":"2ebe3d1a-eb9d-4119-9eb6-9d700362d893","system_id":"levelo_inurba_marseille","lat":43.24166,"lon":5.39723,"is_reserved":false,"is_disabled":false,"rental_uris":{"android":"levelo://app?vid=2ebe3d1a-eb9d-4119-9eb6-9d700362d893","ios":"levelo://app?vid=2ebe3d1a-eb9d-4119-9eb6-9d700362d893"},"vehicle_type_id":"4","last_reported":1770028436,"current_range_meters":8800,"station_id":"ce4bhn12rcd13ifvqgpg","pricing_plan_id":"cebpf4jnsgd1na2vs0mg"},{"bike_id":"450d125b-db69-4dd8-9efc-f1b0ec2c3479","system_id":"levelo_inurba_marseille","lat":43.23142,"lon":5.4371,"is_reserved":false,"is_disabled":false,"rental_uris":{"android":"levelo://app?vid=450d125b-db69-4dd8-9efc-f1b0ec2c3479","ios":"levelo://app?vid=450d125b-db69-4dd8-9efc-f1b0ec2c3479"},"vehicle_type_id":"4","last_reported":1770028436,"current_range_meters":8800,"station_id":"ce4bhmp2rcd13ifvqgog","pricing_plan_id":"cebpf4jnsgd1na2vs0mg"},{"bike_id":"771ea2bc-bf93-42aa-8bb5-10cd9d180578","system_id":"levelo_inurba_marseille","lat":43.335382,"lon":5.374626,"is_reserved":false,"is_disabled":false,"rental_uris":{"android":"levelo://app?vid=771ea2bc-bf93-42aa-8bb5-10cd9d180578","ios":"levelo://app?vid=771ea2bc-bf93-42aa-8bb5-10cd9d180578"},"vehicle_type_id":"4","last_reported":1770028436,"current_range_meters":8800,"station_id":"st_d46tts09ee8s73dlu43g","pricing_plan_id":"cebpf4jnsgd1na2vs0mg"},{"bike_id":"34563dd1-22ef-47ee-b5f6-1a548e8b6096","system_id":"levelo_inurba_marseille","lat":43.29773,"lon":5.38093,"is_reserved":false,"is_disabled":false,"rental_uris":{"android":"levelo://app?vid=34563dd1-22ef-47ee-b5f6-1a548e8b6096","ios":"levelo://app?vid=34563dd1-22ef-47ee-b5f6-1a548e8b6096"},"vehicle_type_id":"4","last_reported":1770028436,"current_range_meters":8800,"station_id":"ce4bgip2rcd13ifvqbb0","pricing_plan_id":"cebpf4jnsgd1na2vs0mg"},{"bike_id":"5fd56762-7b7c-4271-9de2-7b895b74202c","system_id":"levelo_inurba_marseille","lat":43.28416,"lon":5.34979,"is_reserved":false,"is_disabled":false,"rental_uris":{"android":"levelo://app?vid=5fd56762-7b7c-4271-9de2-7b895b74202c","ios":"levelo://app?vid=5fd56762-7b7c-4271-9de2-7b895b74202c"},"vehicle_type_id":"4","last_reported":1770028436,"current_range_meters":8800,"station_id":"ce4bhbh2rcd13ifvqepg","pricing_plan_id":"cebpf4jnsgd1na2vs0mg"},{"bike_id":"15e168de-f8b5-4837-80d2-59067bb38fb7","system_id":"levelo_inurba_marseille","lat":43.27493,"lon":5.42454,"is_reserved":false,"is_disabled":false,"rental_uris":{"android":"levelo://app?vid=15e168de-f8b5-4837-80d2-59067bb38fb7","ios":"levelo://app?vid=15e168de-f8b5-4837-80d2-59067bb38fb7"},"vehicle_type_id":"4","last_reported":1770028436,"current_range_meters":8800,"station_id":"ce4bhn92rcd13ifvqgrg","pricing_plan_id":"cebpf4jnsgd1na2vs0mg"},{"bike_id":"ae37f4ed-1c7e-48e9-927f-477832e5c8bb","system_id":"levelo_inurba_marseille","lat":43.24183,"lon":5.39727,"is_reserved":false,"is_disabled":false,"rental_uris":{"android":"levelo://app?vid=ae37f4ed-1c7e-48e9-927f-477832e5c8bb","ios":"levelo://app?vid=ae37f4ed-1c7e-48e9-927f-477832e5c8bb"},"vehicle_type_id":"4","last_reported":1770028436,"current_range_meters":8800,"station_id":"ce4bhn12rcd13ifvqgpg","pricing_plan_id":"cebpf4jnsgd1na2vs0mg"},{"bike_id":"ae255bd0-9835-47df-b385-88eb6d2ac6b7","system_id":"levelo_inurba_marseille","lat":43.27805,"lon":5.40709,"is_reserved":false,"is_disabled":false,"rental_uris":{"android":"levelo://app?vid=ae255bd0-9835-47df-b385-88eb6d2ac6b7","ios":"levelo://app?vid=ae255bd0-9835-47df-b385-88eb6d2ac6b7"},"vehicle_type_id":"4","last_reported":1770028436,"current_range_meters":8800,"station_id":"ce4bhnh2rcd13ifvqgtg","pricing_plan_id":"cebpf4jnsgd1na2vs0mg"},{"bike_id":"ac6f03a6-765b-43a4-84ee-62735f2f81d5","system_id":"levelo_inurba_marseille","lat":43.29303,"lon":5.37153,"is_reserved":false,"is_disabled":false,"rental_uris":{"android":"levelo://app?vid=ac6f03a6-765b-43a4-84ee-62735f2f81d5","ios":"levelo://app?vid=ac6f03a6-765b-43a4-84ee-62735f2f81d5"},"vehicle_type_id":"4","last_reported":1770028436,"current_range_meters":8800,"station_id":"ce4bgh92rcd13ifvqb40","pricing_plan_id":"cebpf4jnsgd1na2vs0mg"},{"bike_id":"3f624f26-2d27-45df-a7a3-72d7bebfc4a7","system_id":"levelo_inurba_marseille","lat":43.2448,"lon":5.425263,"is_reserved":false,"is_disabled":false,"rental_uris":{"android":"levelo://app?vid=3f624f26-2d27-45df-a7a3-72d7bebfc4a7","ios":"levelo://app?vid=3f624f26-2d27-45df-a7a3-72d7bebfc4a7"},"vehicle_type_id":"4","last_reported":1770028436,"current_range_meters":8800,"station_id":"st_d4a3vfp97mjs738cd8kg","pricing_plan_id":"cebpf4jnsgd1na2vs0mg"},{"bike_id":"79eb9f68-5c62-40ba-b902-438e15b081c4","system_id":"levelo_inurba_marseille","lat":43.31371,"lon":5.38504,"is_reserved":false,"is_disabled":false,"rental_uris":{"android":"levelo://app?vid=79eb9f68-5c62-40ba-b902-438e15b081c4","ios":"levelo://app?vid=79eb9f68-5c62-40ba-b902-438e15b081c4"},"vehicle_type_id":"4","last_reported":1770028436,"current_range_meters":8800,"station_id":"ce4bgt92rcd13ifvqcf0","pricing_plan_id":"cebpf4jnsgd1na2vs0mg"},{"bike_id":"eaecb828-b76d-4182-97d7-3d3819619546","system_id":"levelo_inurba_marseille","lat":43.27344,"lon":5.39119,"is_reserved":false,"is_disabled":false,"rental_uris":{"android":"levelo://app?vid=eaecb828-b76d-4182-97d7-3d3819619546","ios":"levelo://app?vid=eaecb828-b76d-4182-97d7-3d3819619546"},"vehicle_type_id":"4","last_reported":1770028436,"current_range_meters":8800,"station_id":"ce4bhgp2rcd13ifvqfe0","pricing_plan_id":"cebpf4jnsgd1na2vs0mg"},{"bike_id":"0161be71-5acc-4bef-a661-add8f18169dc","system_id":"levelo_inurba_marseille","lat":43.29911,"lon":5.4368,"is_reserved":false,"is_disabled":false,"rental_uris":{"android":"levelo://app?vid=0161be71-5acc-4bef-a661-add8f18169dc","ios":"levelo://app?vid=0161be71-5acc-4bef-a661-add8f18169dc"},"vehicle_type_id":"4","last_reported":1770028436,"current_range_meters":8800,"station_id":"ce4bhpp2rcd13ifvqhfg","pricing_plan_id":"cebpf4jnsgd1na2vs0mg"},{"bike_id":"2fa2c29c-1079-447f-9840-16848f1eaa54","system_id":"levelo_inurba_marseille","lat":43.29742,"lon":5.37843,"is_reserved":false,"is_disabled":false,"rental_uris":{"android":"levelo://app?vid=2fa2c29c-1079-447f-9840-16848f1eaa54","ios":"levelo://app?vid=2fa2c29c-1079-447f-9840-16848f1eaa54"},"vehicle_type_id":"4","last_reported":1770028436,"current_range_meters":9200,"station_id":"","pricing_plan_id":"cebpf4jnsgd1na2vs0mg"},{"bike_id":"f2b46649-f2d2-4dab-a524-4025b198537f","system_id":"levelo_inurba_marseille","lat":43.29752,"lon":5.42797,"is_reserved":false,"is_disabled":false,"rental_uris":{"android":"levelo://app?vid=f2b46649-f2d2-4dab-a524-4025b198537f","ios":"levelo://app?vid=f2b46649-f2d2-4dab-a524-4025b198537f"},"vehicle_type_id":"4","last_reported":1770028436,"current_range_meters":9200,"station_id":"st_d3md5207bmas73dh9klg","pricing_plan_id":"cebpf4jnsgd1na2vs0mg"},{"bike_id":"7bfa4b57-17f3-4ffb-906e-4ac6f600d95b","system_id":"levelo_inurba_marseille","lat":43.299,"lon":5.43688,"is_reserved":false,"is_disabled":false,"rental_uris":{"android":"levelo://app?vid=7bfa4b57-17f3-4ffb-906e-4ac6f600d95b","ios":"levelo://app?vid=7bfa4b57-17f3-4ffb-906e-4ac6f600d95b"},"vehicle_type_id":"4","last_reported":1770028436,"current_range_meters":9200,"station_id":"ce4bhpp2rcd13ifvqhfg","pricing_plan_id":"cebpf4jnsgd1na2vs0mg"},{"bike_id":"08b20334-3e9e-45da-98e2-403d0460dda8","system_id":"levelo_inurba_marseille","lat":43.23215,"lon":5.35567,"is_reserved":false,"is_disabled":false,"rental_uris":{"android":"levelo://app?vid=08b20334-3e9e-45da-98e2-403d0460dda8","ios":"levelo://app?vid=08b20334-3e9e-45da-98e2-403d0460dda8"},"vehicle_type_id":"4","last_reported":1770028436,"current_range_meters":9200,"station_id":"ce4bhu92rcd13ifvqi70","pricing_plan_id":"cebpf4jnsgd1na2vs0mg"},{"bike_id":"90ba5afa-5575-45ce-af95-476a5d039955","system_id":"levelo_inurba_marseille","lat":43.25727,"lon":5.4112,"is_reserved":false,"is_disabled":false,"rental_uris":{"android":"levelo://app?vid=90ba5afa-5575-45ce-af95-476a5d039955","ios":"levelo://app?vid=90ba5afa-5575-45ce-af95-476a5d039955"},"vehicle_type_id":"4","last_reported":1770028436,"current_range_meters":9200,"station_id":"ce4bhkp2rcd13ifvqgd0","pricing_plan_id":"cebpf4jnsgd1na2vs0mg"},{"bike_id":"30045bb6-99b5-4634-948c-95b948d16c6f","system_id":"levelo_inurba_marseille","lat":43.29649,"lon":5.37751,"is_reserved":false,"is_disabled":false,"rental_uris":{"android":"levelo://app?vid=30045bb6-99b5-4634-948c-95b948d16c6f","ios":"levelo://app?vid=30045bb6-99b5-4634-948c-95b948d16c6f"},"vehicle_type_id":"4","last_reported":1770028436,"current_range_meters":9200,"station_id":"ce4bgi92rcd13ifvqb90","pricing_plan_id":"cebpf4jnsgd1na2vs0mg"},{"bike_id":"b0b8f406-9051-4bf9-bb65-d3ecc5323a25","system_id":"levelo_inurba_marseille","lat":43.2721,"lon":5.39177,"is_reserved":false,"is_disabled":false,"rental_uris":{"android":"levelo://app?vid=b0b8f406-9051-4bf9-bb65-d3ecc5323a25","ios":"levelo://app?vid=b0b8f406-9051-4bf9-bb65-d3ecc5323a25"},"vehicle_type_id":"4","last_reported":1770028436,"current_range_meters":9200,"station_id":"ce4bhhp2rcd13ifvqfm0","pricing_plan_id":"cebpf4jnsgd1na2vs0mg"},{"bike_id":"77664360-035c-4d82-9456-35cb07920bef","system_id":"levelo_inurba_marseille","lat":43.24801,"lon":5.37452,"is_reserved":false,"is_disabled":false,"rental_uris":{"android":"levelo://app?vid=77664360-035c-4d82-9456-35cb07920bef","ios":"levelo://app?vid=77664360-035c-4d82-9456-35cb07920bef"},"vehicle_type_id":"4","last_reported":1770028436,"current_range_meters":9200,"station_id":"ce4bhgh2rcd13ifvqfb0","pricing_plan_id":"cebpf4jnsgd1na2vs0mg"},{"bike_id":"c062aa34-fffd-40cf-8dc3-ef00546731c9","system_id":"levelo_inurba_marseille","lat":43.31272,"lon":5.3776,"is_reserved":false,"is_disabled":false,"rental_uris":{"android":"levelo://app?vid=c062aa34-fffd-40cf-8dc3-ef00546731c9","ios":"levelo://app?vid=c062aa34-fffd-40cf-8dc3-ef00546731c9"},"vehicle_type_id":"4","last_reported":1770028436,"current_range_meters":9200,"station_id":"","pricing_plan_id":"cebpf4jnsgd1na2vs0mg"},{"bike_id":"d4236494-fb12-45a5-b440-8f1f89d83f90","system_id":"levelo_inurba_marseille","lat":43.27312,"lon":5.39084,"is_reserved":false,"is_disabled":false,"rental_uris":{"android":"levelo://app?vid=d4236494-fb12-45a5-b440-8f1f89d83f90","ios":"levelo://app?vid=d4236494-fb12-45a5-b440-8f1f89d83f90"},"vehicle_type_id":"4","last_reported":1770028436,"current_range_meters":9600,"station_id":"ce4bhgp2rcd13ifvqfe0","pricing_plan_id":"cebpf4jnsgd1na2vs0mg"},{"bike_id":"7ea469f1-f16e-4924-a213-85ca76ef9bcc","system_id":"levelo_inurba_marseille","lat":43.2979,"lon":5.381,"is_reserved":false,"is_disabled":false,"rental_uris":{"android":"levelo://app?vid=7ea469f1-f16e-4924-a213-85ca76ef9bcc","ios":"levelo://app?vid=7ea469f1-f16e-4924-a213-85ca76ef9bcc"},"vehicle_type_id":"4","last_reported":1770028436,"current_range_meters":9600,"station_id":"ce4bgip2rcd13ifvqbb0","pricing_plan_id":"cebpf4jnsgd1na2vs0mg"},{"bike_id":"81ae8bd1-f2ab-4703-acf8-57dfe12da164","system_id":"levelo_inurba_marseille","lat":43.28276,"lon":5.35096,"is_reserved":false,"is_disabled":false,"rental_uris":{"android":"levelo://app?vid=81ae8bd1-f2ab-4703-acf8-57dfe12da164","ios":"levelo://app?vid=81ae8bd1-f2ab-4703-acf8-57dfe12da164"},"vehicle_type_id":"4","last_reported":1770028436,"current_range_meters":9600,"station_id":"ce4bhbp2rcd13ifvqerg","pricing_plan_id":"cebpf4jnsgd1na2vs0mg"},{"bike_id":"d0dc7147-1325-4d05-841c-bc87ab817740","system_id":"levelo_inurba_marseille","lat":43.27827,"lon":5.40724,"is_reserved":false,"is_disabled":false,"rental_uris":{"android":"levelo://app?vid=d0dc7147-1325-4d05-841c-bc87ab817740","ios":"levelo://app?vid=d0dc7147-1325-4d05-841c-bc87ab817740"},"vehicle_type_id":"4","last_reported":1770028436,"current_range_meters":9600,"station_id":"ce4bhnh2rcd13ifvqgtg","pricing_plan_id":"cebpf4jnsgd1na2vs0mg"},{"bike_id":"08649d84-e1d6-4e07-9829-b3006714256b","system_id":"levelo_inurba_marseille","lat":43.241743,"lon":5.397287,"is_reserved":false,"is_disabled":false,"rental_uris":{"android":"levelo://app?vid=08649d84-e1d6-4e07-9829-b3006714256b","ios":"levelo://app?vid=08649d84-e1d6-4e07-9829-b3006714256b"},"vehicle_type_id":"4","last_reported":1770028436,"current_range_meters":9600,"station_id":"ce4bhn12rcd13ifvqgpg","pricing_plan_id":"cebpf4jnsgd1na2vs0mg"},{"bike_id":"4e491b3e-0704-4c9d-9283-ae60d0cec9c2","system_id":"levelo_inurba_marseille","lat":43.29262,"lon":5.36849,"is_reserved":false,"is_disabled":false,"rental_uris":{"android":"levelo://app?vid=4e491b3e-0704-4c9d-9283-ae60d0cec9c2","ios":"levelo://app?vid=4e491b3e-0704-4c9d-9283-ae60d0cec9c2"},"vehicle_type_id":"4","last_reported":1770028436,"current_range_meters":9600,"station_id":"ce4bhbp2rcd13ifvqesg","pricing_plan_id":"cebpf4jnsgd1na2vs0mg"},{"bike_id":"8c34401f-5308-4100-993b-4be205aa9273","system_id":"levelo_inurba_marseille","lat":43.29281,"lon":5.36847,"is_reserved":false,"is_disabled":false,"rental_uris":{"android":"levelo://app?vid=8c34401f-5308-4100-993b-4be205aa9273","ios":"levelo://app?vid=8c34401f-5308-4100-993b-4be205aa9273"},"vehicle_type_id":"4","last_reported":1770028436,"current_range_meters":9600,"station_id":"ce4bhbp2rcd13ifvqesg","pricing_plan_id":"cebpf4jnsgd1na2vs0mg"},{"bike_id":"7af7fd93-8501-4af2-a05a-7a66f6aac093","system_id":"levelo_inurba_marseille","lat":43.29524,"lon":5.39032,"is_reserved":false,"is_disabled":false,"rental_uris":{"android":"levelo://app?vid=7af7fd93-8501-4af2-a05a-7a66f6aac093","ios":"levelo://app?vid=7af7fd93-8501-4af2-a05a-7a66f6aac093"},"vehicle_type_id":"4","last_reported":1770028436,"current_range_meters":9600,"station_id":"ce4bh3p2rcd13ifvqdp0","pricing_plan_id":"cebpf4jnsgd1na2vs0mg"},{"bike_id":"69bce1d6-d9af-4ff0-8b44-12769911a4a1","system_id":"levelo_inurba_marseille","lat":43.289691,"lon":5.378546,"is_reserved":false,"is_disabled":false,"rental_uris":{"android":"levelo://app?vid=69bce1d6-d9af-4ff0-8b44-12769911a4a1","ios":"levelo://app?vid=69bce1d6-d9af-4ff0-8b44-12769911a4a1"},"vehicle_type_id":"4","last_reported":1770028436,"current_range_meters":9600,"station_id":"ce4bh9p2rcd13ifvqed0","pricing_plan_id":"cebpf4jnsgd1na2vs0mg"},{"bike_id":"a2b7e688-c355-44e3-8f09-d139df01719d","system_id":"levelo_inurba_marseille","lat":43.28982,"lon":5.36406,"is_reserved":false,"is_disabled":false,"rental_uris":{"android":"levelo://app?vid=a2b7e688-c355-44e3-8f09-d139df01719d","ios":"levelo://app?vid=a2b7e688-c355-44e3-8f09-d139df01719d"},"vehicle_type_id":"4","last_reported":1770028436,"current_range_meters":9600,"station_id":"ce4bhc92rcd13ifvqetg","pricing_plan_id":"cebpf4jnsgd1na2vs0mg"},{"bike_id":"d65e7611-55ca-42ca-909a-fde8278b5659","system_id":"levelo_inurba_marseille","lat":43.21192,"lon":5.35069,"is_reserved":false,"is_disabled":false,"rental_uris":{"android":"levelo://app?vid=d65e7611-55ca-42ca-909a-fde8278b5659","ios":"levelo://app?vid=d65e7611-55ca-42ca-909a-fde8278b5659"},"vehicle_type_id":"4","last_reported":1770028436,"current_range_meters":9600,"station_id":"","pricing_plan_id":"cebpf4jnsgd1na2vs0mg"},{"bike_id":"bae3d3df-2b48-4626-a5ee-7fd5c9ebd2ba","system_id":"levelo_inurba_marseille","lat":43.24645,"lon":5.38888,"is_reserved":false,"is_disabled":false,"rental_uris":{"android":"levelo://app?vid=bae3d3df-2b48-4626-a5ee-7fd5c9ebd2ba","ios":"levelo://app?vid=bae3d3df-2b48-4626-a5ee-7fd5c9ebd2ba"},"vehicle_type_id":"4","last_reported":1770028436,"current_range_meters":9600,"station_id":"ce4bhg12rcd13ifvqf60","pricing_plan_id":"cebpf4jnsgd1na2vs0mg"},{"bike_id":"bff22768-2cde-4a3f-98d2-4af19e4efeec","system_id":"levelo_inurba_marseille","lat":43.310481,"lon":5.371786,"is_reserved":false,"is_disabled":false,"rental_uris":{"android":"levelo://app?vid=bff22768-2cde-4a3f-98d2-4af19e4efeec","ios":"levelo://app?vid=bff22768-2cde-4a3f-98d2-4af19e4efeec"},"vehicle_type_id":"4","last_reported":1770028436,"current_range_meters":9600,"station_id":"st_d4kl2rp97mjs73e7tdfg","pricing_plan_id":"cebpf4jnsgd1na2vs0mg"},{"bike_id":"de99eea9-5b5f-45db-b29e-86e7108f5361","system_id":"levelo_inurba_marseille","lat":43.28457,"lon":5.38408,"is_reserved":false,"is_disabled":false,"rental_uris":{"android":"levelo://app?vid=de99eea9-5b5f-45db-b29e-86e7108f5361","ios":"levelo://app?vid=de99eea9-5b5f-45db-b29e-86e7108f5361"},"vehicle_type_id":"4","last_reported":1770028436,"current_range_meters":9600,"station_id":"ce4bh512rcd13ifvqe3g","pricing_plan_id":"cebpf4jnsgd1na2vs0mg"},{"bike_id":"5704d325-44da-4640-841e-d73cfa2e6959","system_id":"levelo_inurba_marseille","lat":43.31172,"lon":5.38014,"is_reserved":false,"is_disabled":false,"rental_uris":{"android":"levelo://app?vid=5704d325-44da-4640-841e-d73cfa2e6959","ios":"levelo://app?vid=5704d325-44da-4640-841e-d73cfa2e6959"},"vehicle_type_id":"4","last_reported":1770028436,"current_range_meters":9600,"station_id":"","pricing_plan_id":"cebpf4jnsgd1na2vs0mg"},{"bike_id":"3a0a4a82-32ea-4745-a954-9fb63378330d","system_id":"levelo_inurba_marseille","lat":43.2823,"lon":5.39065,"is_reserved":false,"is_disabled":false,"rental_uris":{"android":"levelo://app?vid=3a0a4a82-32ea-4745-a954-9fb63378330d","ios":"levelo://app?vid=3a0a4a82-32ea-4745-a954-9fb63378330d"},"vehicle_type_id":"4","last_reported":1770028436,"current_range_meters":9600,"station_id":"ce4bhn92rcd13ifvqgsg","pricing_plan_id":"cebpf4jnsgd1na2vs0mg"},{"bike_id":"9e82ccca-a401-48fb-8c8e-38aea5c23c2d","system_id":"levelo_inurba_marseille","lat":43.31208,"lon":5.36865,"is_reserved":false,"is_disabled":false,"rental_uris":{"android":"levelo://app?vid=9e82ccca-a401-48fb-8c8e-38aea5c23c2d","ios":"levelo://app?vid=9e82ccca-a401-48fb-8c8e-38aea5c23c2d"},"vehicle_type_id":"4","last_reported":1770028436,"current_range_meters":9600,"station_id":"ce4bgl92rcd13ifvqbq0","pricing_plan_id":"cebpf4jnsgd1na2vs0mg"},{"bike_id":"b4da3c95-9f92-4d98-9243-d1a099fbcabf","system_id":"levelo_inurba_marseille","lat":43.25001,"lon":5.38934,"is_reserved":false,"is_disabled":false,"rental_uris":{"android":"levelo://app?vid=b4da3c95-9f92-4d98-9243-d1a099fbcabf","ios":"levelo://app?vid=b4da3c95-9f92-4d98-9243-d1a099fbcabf"},"vehicle_type_id":"4","last_reported":1770028436,"current_range_meters":10000,"station_id":"ce4bhgp2rcd13ifvqfd0","pricing_plan_id":"cebpf4jnsgd1na2vs0mg"},{"bike_id":"6460c266-762f-472e-8583-aca66fe8ea6d","system_id":"levelo_inurba_marseille","lat":43.24071,"lon":5.37766,"is_reserved":false,"is_disabled":false,"rental_uris":{"android":"levelo://app?vid=6460c266-762f-472e-8583-aca66fe8ea6d","ios":"levelo://app?vid=6460c266-762f-472e-8583-aca66fe8ea6d"},"vehicle_type_id":"4","last_reported":1770028436,"current_range_meters":10000,"station_id":"ce4bhnp2rcd13ifvqgvg","pricing_plan_id":"cebpf4jnsgd1na2vs0mg"},{"bike_id":"a91823b4-a0ba-4806-bfd7-4b19b1cf0588","system_id":"levelo_inurba_marseille","lat":43.289438,"lon":5.366455,"is_reserved":false,"is_disabled":true,"rental_uris":{"android":"levelo://app?vid=a91823b4-a0ba-4806-bfd7-4b19b1cf0588","ios":"levelo://app?vid=a91823b4-a0ba-4806-bfd7-4b19b1cf0588"},"vehicle_type_id":"4","last_reported":1770028436,"current_range_meters":10000,"station_id":"ce4bgih2rcd13ifvqba0","pricing_plan_id":"cebpf4jnsgd1na2vs0mg"},{"bike_id":"950ef2fd-ac9f-4024-bdd2-e70e2f21cb2a","system_id":"levelo_inurba_marseille","lat":43.27914,"lon":5.39586,"is_reserved":false,"is_disabled":false,"rental_uris":{"android":"levelo://app?vid=950ef2fd-ac9f-4024-bdd2-e70e2f21cb2a","ios":"levelo://app?vid=950ef2fd-ac9f-4024-bdd2-e70e2f21cb2a"},"vehicle_type_id":"4","last_reported":1770028436,"current_range_meters":10000,"station_id":"ce4bhf92rcd13ifvqf40","pricing_plan_id":"cebpf4jnsgd1na2vs0mg"},{"bike_id":"bdc8f3f1-7191-4554-b1d6-3542e00caa57","system_id":"levelo_inurba_marseille","lat":43.28418,"lon":5.34979,"is_reserved":false,"is_disabled":false,"rental_uris":{"android":"levelo://app?vid=bdc8f3f1-7191-4554-b1d6-3542e00caa57","ios":"levelo://app?vid=bdc8f3f1-7191-4554-b1d6-3542e00caa57"},"vehicle_type_id":"4","last_reported":1770028436,"current_range_meters":10000,"station_id":"ce4bhbh2rcd13ifvqepg","pricing_plan_id":"cebpf4jnsgd1na2vs0mg"},{"bike_id":"5049f44b-a994-41e4-85c4-2776528ca057","system_id":"levelo_inurba_marseille","lat":43.26545,"lon":5.373,"is_reserved":false,"is_disabled":true,"rental_uris":{"android":"levelo://app?vid=5049f44b-a994-41e4-85c4-2776528ca057","ios":"levelo://app?vid=5049f44b-a994-41e4-85c4-2776528ca057"},"vehicle_type_id":"4","last_reported":1770028436,"current_range_meters":10000,"station_id":"ce4bhg12rcd13ifvqf70","pricing_plan_id":"cebpf4jnsgd1na2vs0mg"},{"bike_id":"567b0353-a6cb-49f7-ae20-a5e36d53b335","system_id":"levelo_inurba_marseille","lat":43.29916,"lon":5.3814,"is_reserved":false,"is_disabled":false,"rental_uris":{"android":"levelo://app?vid=567b0353-a6cb-49f7-ae20-a5e36d53b335","ios":"levelo://app?vid=567b0353-a6cb-49f7-ae20-a5e36d53b335"},"vehicle_type_id":"4","last_reported":1770028436,"current_range_meters":10000,"station_id":"ce4bgj12rcd13ifvqbc0","pricing_plan_id":"cebpf4jnsgd1na2vs0mg"},{"bike_id":"51345eae-e166-431f-9306-9fd79d6855bf","system_id":"levelo_inurba_marseille","lat":43.29793,"lon":5.38117,"is_reserved":false,"is_disabled":false,"rental_uris":{"android":"levelo://app?vid=51345eae-e166-431f-9306-9fd79d6855bf","ios":"levelo://app?vid=51345eae-e166-431f-9306-9fd79d6855bf"},"vehicle_type_id":"4","last_reported":1770028436,"current_range_meters":10000,"station_id":"ce4bgip2rcd13ifvqbb0","pricing_plan_id":"cebpf4jnsgd1na2vs0mg"},{"bike_id":"76c8fc78-3107-4a30-bfc0-80b4c769e9eb","system_id":"levelo_inurba_marseille","lat":43.24074,"lon":5.37766,"is_reserved":false,"is_disabled":false,"rental_uris":{"android":"levelo://app?vid=76c8fc78-3107-4a30-bfc0-80b4c769e9eb","ios":"levelo://app?vid=76c8fc78-3107-4a30-bfc0-80b4c769e9eb"},"vehicle_type_id":"4","last_reported":1770028436,"current_range_meters":10000,"station_id":"ce4bhnp2rcd13ifvqgvg","pricing_plan_id":"cebpf4jnsgd1na2vs0mg"},{"bike_id":"f0653f9d-58c6-4236-ad69-87e4f2d312de","system_id":"levelo_inurba_marseille","lat":43.28625,"lon":5.35112,"is_reserved":false,"is_disabled":true,"rental_uris":{"android":"levelo://app?vid=f0653f9d-58c6-4236-ad69-87e4f2d312de","ios":"levelo://app?vid=f0653f9d-58c6-4236-ad69-87e4f2d312de"},"vehicle_type_id":"4","last_reported":1770028436,"current_range_meters":10000,"station_id":"","pricing_plan_id":"cebpf4jnsgd1na2vs0mg"},{"bike_id":"7c48928e-9a34-40c6-8c02-f16fa56b2c4a","system_id":"levelo_inurba_marseille","lat":43.24077,"lon":5.37762,"is_reserved":false,"is_disabled":false,"rental_uris":{"android":"levelo://app?vid=7c48928e-9a34-40c6-8c02-f16fa56b2c4a","ios":"levelo://app?vid=7c48928e-9a34-40c6-8c02-f16fa56b2c4a"},"vehicle_type_id":"4","last_reported":1770028436,"current_range_meters":10000,"station_id":"ce4bhnp2rcd13ifvqgvg","pricing_plan_id":"cebpf4jnsgd1na2vs0mg"},{"bike_id":"ca92d06a-7987-45b3-a2a9-759900caac3a","system_id":"levelo_inurba_marseille","lat":43.258234,"lon":5.394378,"is_reserved":false,"is_disabled":false,"rental_uris":{"android":"levelo://app?vid=ca92d06a-7987-45b3-a2a9-759900caac3a","ios":"levelo://app?vid=ca92d06a-7987-45b3-a2a9-759900caac3a"},"vehicle_type_id":"4","last_reported":1770028436,"current_range_meters":10000,"station_id":"ce4bhip2rcd13ifvqft0","pricing_plan_id":"cebpf4jnsgd1na2vs0mg"},{"bike_id":"00aa65f2-b269-417d-9516-05011b7ebc65","system_id":"levelo_inurba_marseille","lat":43.28488,"lon":5.38422,"is_reserved":false,"is_disabled":false,"rental_uris":{"android":"levelo://app?vid=00aa65f2-b269-417d-9516-05011b7ebc65","ios":"levelo://app?vid=00aa65f2-b269-417d-9516-05011b7ebc65"},"vehicle_type_id":"4","last_reported":1770028436,"current_range_meters":10000,"station_id":"ce4bh512rcd13ifvqe3g","pricing_plan_id":"cebpf4jnsgd1na2vs0mg"},{"bike_id":"9856ac21-8758-4457-ad87-2d03ea77e6e1","system_id":"levelo_inurba_marseille","lat":43.29446,"lon":5.42956,"is_reserved":false,"is_disabled":false,"rental_uris":{"android":"levelo://app?vid=9856ac21-8758-4457-ad87-2d03ea77e6e1","ios":"levelo://app?vid=9856ac21-8758-4457-ad87-2d03ea77e6e1"},"vehicle_type_id":"4","last_reported":1770028436,"current_range_meters":10800,"station_id":"","pricing_plan_id":"cebpf4jnsgd1na2vs0mg"},{"bike_id":"6ca9ea11-e24b-44dd-9591-e8e049789ac0","system_id":"levelo_inurba_marseille","lat":43.31057,"lon":5.37171,"is_reserved":false,"is_disabled":false,"rental_uris":{"android":"levelo://app?vid=6ca9ea11-e24b-44dd-9591-e8e049789ac0","ios":"levelo://app?vid=6ca9ea11-e24b-44dd-9591-e8e049789ac0"},"vehicle_type_id":"4","last_reported":1770028436,"current_range_meters":10800,"station_id":"st_d4kl2rp97mjs73e7tdfg","pricing_plan_id":"cebpf4jnsgd1na2vs0mg"},{"bike_id":"df433f98-703d-4ae8-bbcd-074688555f41","system_id":"levelo_inurba_marseille","lat":43.31216,"lon":5.36849,"is_reserved":false,"is_disabled":false,"rental_uris":{"android":"levelo://app?vid=df433f98-703d-4ae8-bbcd-074688555f41","ios":"levelo://app?vid=df433f98-703d-4ae8-bbcd-074688555f41"},"vehicle_type_id":"4","last_reported":1770028436,"current_range_meters":10800,"station_id":"ce4bgl92rcd13ifvqbq0","pricing_plan_id":"cebpf4jnsgd1na2vs0mg"},{"bike_id":"7f90f827-7dd6-4c19-8235-0f1df3368cc6","system_id":"levelo_inurba_marseille","lat":43.24088,"lon":5.37741,"is_reserved":false,"is_disabled":false,"rental_uris":{"android":"levelo://app?vid=7f90f827-7dd6-4c19-8235-0f1df3368cc6","ios":"levelo://app?vid=7f90f827-7dd6-4c19-8235-0f1df3368cc6"},"vehicle_type_id":"4","last_reported":1770028436,"current_range_meters":10800,"station_id":"ce4bhnp2rcd13ifvqgvg","pricing_plan_id":"cebpf4jnsgd1na2vs0mg"},{"bike_id":"071d422e-bf78-4543-b080-48c21b7250ce","system_id":"levelo_inurba_marseille","lat":43.24841,"lon":5.37468,"is_reserved":false,"is_disabled":false,"rental_uris":{"android":"levelo://app?vid=071d422e-bf78-4543-b080-48c21b7250ce","ios":"levelo://app?vid=071d422e-bf78-4543-b080-48c21b7250ce"},"vehicle_type_id":"4","last_reported":1770028436,"current_range_meters":10800,"station_id":"","pricing_plan_id":"cebpf4jnsgd1na2vs0mg"},{"bike_id":"d72b8f61-4fd4-4866-9411-b2ee01711121","system_id":"levelo_inurba_marseille","lat":43.27981,"lon":5.38726,"is_reserved":false,"is_disabled":false,"rental_uris":{"android":"levelo://app?vid=d72b8f61-4fd4-4866-9411-b2ee01711121","ios":"levelo://app?vid=d72b8f61-4fd4-4866-9411-b2ee01711121"},"vehicle_type_id":"4","last_reported":1770028436,"current_range_meters":10800,"station_id":"ce4bhg12rcd13ifvqf80","pricing_plan_id":"cebpf4jnsgd1na2vs0mg"},{"bike_id":"ed9a7218-63f3-4261-b519-175952f0c861","system_id":"levelo_inurba_marseille","lat":43.279111,"lon":5.395755,"is_reserved":false,"is_disabled":false,"rental_uris":{"android":"levelo://app?vid=ed9a7218-63f3-4261-b519-175952f0c861","ios":"levelo://app?vid=ed9a7218-63f3-4261-b519-175952f0c861"},"vehicle_type_id":"4","last_reported":1770028436,"current_range_meters":10800,"station_id":"","pricing_plan_id":"cebpf4jnsgd1na2vs0mg"},{"bike_id":"abcab4db-93bd-4c59-a7f0-0f5d87134d92","system_id":"levelo_inurba_marseille","lat":43.293,"lon":5.37433,"is_reserved":false,"is_disabled":false,"rental_uris":{"android":"levelo://app?vid=abcab4db-93bd-4c59-a7f0-0f5d87134d92","ios":"levelo://app?vid=abcab4db-93bd-4c59-a7f0-0f5d87134d92"},"vehicle_type_id":"4","last_reported":1770028436,"current_range_meters":10800,"station_id":"ce4bgi12rcd13ifvqb70","pricing_plan_id":"cebpf4jnsgd1na2vs0mg"},{"bike_id":"1593db29-2b46-4b1e-96c3-e152e9f43a74","system_id":"levelo_inurba_marseille","lat":43.28502,"lon":5.48389,"is_reserved":false,"is_disabled":false,"rental_uris":{"android":"levelo://app?vid=1593db29-2b46-4b1e-96c3-e152e9f43a74","ios":"levelo://app?vid=1593db29-2b46-4b1e-96c3-e152e9f43a74"},"vehicle_type_id":"4","last_reported":1770028436,"current_range_meters":10800,"station_id":"","pricing_plan_id":"cebpf4jnsgd1na2vs0mg"},{"bike_id":"1c862d84-25b5-4bcd-a442-030289de526e","system_id":"levelo_inurba_marseille","lat":43.28617,"lon":5.35092,"is_reserved":false,"is_disabled":false,"rental_uris":{"android":"levelo://app?vid=1c862d84-25b5-4bcd-a442-030289de526e","ios":"levelo://app?vid=1c862d84-25b5-4bcd-a442-030289de526e"},"vehicle_type_id":"4","last_reported":1770028436,"current_range_meters":10800,"station_id":"ce4bhch2rcd13ifvqeug","pricing_plan_id":"cebpf4jnsgd1na2vs0mg"},{"bike_id":"d26bdc0d-7b51-46fc-b473-8b1faaae5b10","system_id":"levelo_inurba_marseille","lat":43.28728,"lon":5.37931,"is_reserved":false,"is_disabled":false,"rental_uris":{"android":"levelo://app?vid=d26bdc0d-7b51-46fc-b473-8b1faaae5b10","ios":"levelo://app?vid=d26bdc0d-7b51-46fc-b473-8b1faaae5b10"},"vehicle_type_id":"4","last_reported":1770028436,"current_range_meters":10800,"station_id":"ce4bh9p2rcd13ifvqec0","pricing_plan_id":"cebpf4jnsgd1na2vs0mg"},{"bike_id":"71a07312-ff45-45c1-87c7-b2e91c5b4e37","system_id":"levelo_inurba_marseille","lat":43.28425,"lon":5.51504,"is_reserved":false,"is_disabled":false,"rental_uris":{"android":"levelo://app?vid=71a07312-ff45-45c1-87c7-b2e91c5b4e37","ios":"levelo://app?vid=71a07312-ff45-45c1-87c7-b2e91c5b4e37"},"vehicle_type_id":"4","last_reported":1770028436,"current_range_meters":10800,"station_id":"","pricing_plan_id":"cebpf4jnsgd1na2vs0mg"},{"bike_id":"618231d8-291d-4a2d-8cee-faa8248fa735","system_id":"levelo_inurba_marseille","lat":43.21181,"lon":5.35067,"is_reserved":false,"is_disabled":true,"rental_uris":{"android":"levelo://app?vid=618231d8-291d-4a2d-8cee-faa8248fa735","ios":"levelo://app?vid=618231d8-291d-4a2d-8cee-faa8248fa735"},"vehicle_type_id":"4","last_reported":1770028436,"current_range_meters":10800,"station_id":"st_cvj6sg6p6f1abm77japg","pricing_plan_id":"cebpf4jnsgd1na2vs0mg"},{"bike_id":"e685b8e3-afce-4dcd-a202-86a08c955aff","system_id":"levelo_inurba_marseille","lat":43.23213,"lon":5.3554,"is_reserved":false,"is_disabled":false,"rental_uris":{"android":"levelo://app?vid=e685b8e3-afce-4dcd-a202-86a08c955aff","ios":"levelo://app?vid=e685b8e3-afce-4dcd-a202-86a08c955aff"},"vehicle_type_id":"4","last_reported":1770028436,"current_range_meters":10800,"station_id":"ce4bhu92rcd13ifvqi70","pricing_plan_id":"cebpf4jnsgd1na2vs0mg"},{"bike_id":"ad09fc10-58e1-468d-b75d-c46059dc12dc","system_id":"levelo_inurba_marseille","lat":43.29287,"lon":5.37622,"is_reserved":false,"is_disabled":false,"rental_uris":{"android":"levelo://app?vid=ad09fc10-58e1-468d-b75d-c46059dc12dc","ios":"levelo://app?vid=ad09fc10-58e1-468d-b75d-c46059dc12dc"},"vehicle_type_id":"4","last_reported":1770028436,"current_range_meters":10800,"station_id":"ce4bgi12rcd13ifvqb80","pricing_plan_id":"cebpf4jnsgd1na2vs0mg"},{"bike_id":"98c73616-0531-43f9-9f5f-2a175f7beaef","system_id":"levelo_inurba_marseille","lat":43.27175,"lon":5.40989,"is_reserved":false,"is_disabled":false,"rental_uris":{"android":"levelo://app?vid=98c73616-0531-43f9-9f5f-2a175f7beaef","ios":"levelo://app?vid=98c73616-0531-43f9-9f5f-2a175f7beaef"},"vehicle_type_id":"4","last_reported":1770028436,"current_range_meters":10800,"station_id":"ce4bhl12rcd13ifvqgf0","pricing_plan_id":"cebpf4jnsgd1na2vs0mg"},{"bike_id":"f641041c-d518-4d47-bcb4-d5214de2c231","system_id":"levelo_inurba_marseille","lat":43.28553,"lon":5.44102,"is_reserved":false,"is_disabled":true,"rental_uris":{"android":"levelo://app?vid=f641041c-d518-4d47-bcb4-d5214de2c231","ios":"levelo://app?vid=f641041c-d518-4d47-bcb4-d5214de2c231"},"vehicle_type_id":"4","last_reported":1770028436,"current_range_meters":11200,"station_id":"st_d3j3df2ikq2c7380ej80","pricing_plan_id":"cebpf4jnsgd1na2vs0mg"},{"bike_id":"a84daa6c-6966-4a0e-b6c8-2f40ae65cb03","system_id":"levelo_inurba_marseille","lat":43.29184,"lon":5.37145,"is_reserved":false,"is_disabled":false,"rental_uris":{"android":"levelo://app?vid=a84daa6c-6966-4a0e-b6c8-2f40ae65cb03","ios":"levelo://app?vid=a84daa6c-6966-4a0e-b6c8-2f40ae65cb03"},"vehicle_type_id":"4","last_reported":1770028436,"current_range_meters":11200,"station_id":"ce4bha92rcd13ifvqeh0","pricing_plan_id":"cebpf4jnsgd1na2vs0mg"},{"bike_id":"3b780a40-d3af-4a12-a5f5-d241bc4c4597","system_id":"levelo_inurba_marseille","lat":43.29837,"lon":5.36258,"is_reserved":false,"is_disabled":false,"rental_uris":{"android":"levelo://app?vid=3b780a40-d3af-4a12-a5f5-d241bc4c4597","ios":"levelo://app?vid=3b780a40-d3af-4a12-a5f5-d241bc4c4597"},"vehicle_type_id":"4","last_reported":1770028436,"current_range_meters":11200,"station_id":"ce4bgpp2rcd13ifvqc3g","pricing_plan_id":"cebpf4jnsgd1na2vs0mg"},{"bike_id":"0c0cda98-98d2-47de-a4e3-fbc60a330e55","system_id":"levelo_inurba_marseille","lat":43.26565,"lon":5.37328,"is_reserved":false,"is_disabled":true,"rental_uris":{"android":"levelo://app?vid=0c0cda98-98d2-47de-a4e3-fbc60a330e55","ios":"levelo://app?vid=0c0cda98-98d2-47de-a4e3-fbc60a330e55"},"vehicle_type_id":"4","last_reported":1770028436,"current_range_meters":11200,"station_id":"ce4bhg12rcd13ifvqf70","pricing_plan_id":"cebpf4jnsgd1na2vs0mg"},{"bike_id":"49d7e7a4-1c59-4677-a938-b64c19f8a821","system_id":"levelo_inurba_marseille","lat":43.26365,"lon":5.41084,"is_reserved":false,"is_disabled":false,"rental_uris":{"android":"levelo://app?vid=49d7e7a4-1c59-4677-a938-b64c19f8a821","ios":"levelo://app?vid=49d7e7a4-1c59-4677-a938-b64c19f8a821"},"vehicle_type_id":"4","last_reported":1770028436,"current_range_meters":11200,"station_id":"st_d4e5ca6na9uc73bfl5fg","pricing_plan_id":"cebpf4jnsgd1na2vs0mg"},{"bike_id":"6c3c24e0-93af-425c-b8b6-7f814593e98b","system_id":"levelo_inurba_marseille","lat":43.31073,"lon":5.37879,"is_reserved":false,"is_disabled":false,"rental_uris":{"android":"levelo://app?vid=6c3c24e0-93af-425c-b8b6-7f814593e98b","ios":"levelo://app?vid=6c3c24e0-93af-425c-b8b6-7f814593e98b"},"vehicle_type_id":"4","last_reported":1770028436,"current_range_meters":11200,"station_id":"","pricing_plan_id":"cebpf4jnsgd1na2vs0mg"},{"bike_id":"40b0550a-e03e-4f65-b0ad-7eb884dc2646","system_id":"levelo_inurba_marseille","lat":43.23967,"lon":5.36659,"is_reserved":false,"is_disabled":false,"rental_uris":{"android":"levelo://app?vid=40b0550a-e03e-4f65-b0ad-7eb884dc2646","ios":"levelo://app?vid=40b0550a-e03e-4f65-b0ad-7eb884dc2646"},"vehicle_type_id":"4","last_reported":1770028436,"current_range_meters":11200,"station_id":"ce4bhi12rcd13ifvqfp0","pricing_plan_id":"cebpf4jnsgd1na2vs0mg"},{"bike_id":"f3dec9e3-4271-4f2c-96d2-73e87ea86da8","system_id":"levelo_inurba_marseille","lat":43.30295,"lon":5.392238,"is_reserved":false,"is_disabled":false,"rental_uris":{"android":"levelo://app?vid=f3dec9e3-4271-4f2c-96d2-73e87ea86da8","ios":"levelo://app?vid=f3dec9e3-4271-4f2c-96d2-73e87ea86da8"},"vehicle_type_id":"4","last_reported":1770028436,"current_range_meters":11200,"station_id":"ce4bgkh2rcd13ifvqbk0","pricing_plan_id":"cebpf4jnsgd1na2vs0mg"},{"bike_id":"f8d6119f-e633-4cc4-84f8-91994cf62c26","system_id":"levelo_inurba_marseille","lat":43.26681,"lon":5.38262,"is_reserved":false,"is_disabled":false,"rental_uris":{"android":"levelo://app?vid=f8d6119f-e633-4cc4-84f8-91994cf62c26","ios":"levelo://app?vid=f8d6119f-e633-4cc4-84f8-91994cf62c26"},"vehicle_type_id":"4","last_reported":1770028436,"current_range_meters":11200,"station_id":"ce4bhg92rcd13ifvqf90","pricing_plan_id":"cebpf4jnsgd1na2vs0mg"},{"bike_id":"048801af-a43f-4e73-ab67-4d5f4857a076","system_id":"levelo_inurba_marseille","lat":43.23193,"lon":5.35565,"is_reserved":false,"is_disabled":false,"rental_uris":{"android":"levelo://app?vid=048801af-a43f-4e73-ab67-4d5f4857a076","ios":"levelo://app?vid=048801af-a43f-4e73-ab67-4d5f4857a076"},"vehicle_type_id":"4","last_reported":1770028436,"current_range_meters":11200,"station_id":"ce4bhu92rcd13ifvqi70","pricing_plan_id":"cebpf4jnsgd1na2vs0mg"},{"bike_id":"e872709a-d005-471d-b5d9-b0633154a0e4","system_id":"levelo_inurba_marseille","lat":43.26572,"lon":5.40318,"is_reserved":false,"is_disabled":false,"rental_uris":{"android":"levelo://app?vid=e872709a-d005-471d-b5d9-b0633154a0e4","ios":"levelo://app?vid=e872709a-d005-471d-b5d9-b0633154a0e4"},"vehicle_type_id":"4","last_reported":1770028436,"current_range_meters":11200,"station_id":"ce4bhmp2rcd13ifvqgng","pricing_plan_id":"cebpf4jnsgd1na2vs0mg"},{"bike_id":"83c00273-d473-440c-9468-62bfc1ff1676","system_id":"levelo_inurba_marseille","lat":43.27964,"lon":5.41015,"is_reserved":false,"is_disabled":false,"rental_uris":{"android":"levelo://app?vid=83c00273-d473-440c-9468-62bfc1ff1676","ios":"levelo://app?vid=83c00273-d473-440c-9468-62bfc1ff1676"},"vehicle_type_id":"4","last_reported":1770028436,"current_range_meters":11200,"station_id":"ce4bhnp2rcd13ifvqh0g","pricing_plan_id":"cebpf4jnsgd1na2vs0mg"},{"bike_id":"5d83d0ed-7bc2-4e98-a62e-f14ece522fb4","system_id":"levelo_inurba_marseille","lat":43.29279,"lon":5.38425,"is_reserved":false,"is_disabled":false,"rental_uris":{"android":"levelo://app?vid=5d83d0ed-7bc2-4e98-a62e-f14ece522fb4","ios":"levelo://app?vid=5d83d0ed-7bc2-4e98-a62e-f14ece522fb4"},"vehicle_type_id":"4","last_reported":1770028436,"current_range_meters":11200,"station_id":"ce4bh692rcd13ifvqea0","pricing_plan_id":"cebpf4jnsgd1na2vs0mg"},{"bike_id":"1df3fc2a-8cc1-4b84-aa37-cdeacc2947a6","system_id":"levelo_inurba_marseille","lat":43.29806,"lon":5.38109,"is_reserved":false,"is_disabled":false,"rental_uris":{"android":"levelo://app?vid=1df3fc2a-8cc1-4b84-aa37-cdeacc2947a6","ios":"levelo://app?vid=1df3fc2a-8cc1-4b84-aa37-cdeacc2947a6"},"vehicle_type_id":"4","last_reported":1770028436,"current_range_meters":11200,"station_id":"ce4bgip2rcd13ifvqbb0","pricing_plan_id":"cebpf4jnsgd1na2vs0mg"},