{"last_updated":1705431954,"ttl":30,"version":"2.2","data":{"bikes":[{"bike_id":"0c4011a3-f297-474d-a0f9-49fd95d20fe8","system_id":"levelo_inurba_marseille","lat":43.312239,"lon":5.368562,"is_reserved":false,"is_disabled":false,"rental_uris":{"android":"levelo://app?vid=0c4011a3-f297-474d-a0f9-49fd95d20fe8","ios":"levelo://app?vid=0c4011a3-f297-474d-a0f9-49fd95d20fe8"},"vehicle_type_id":"4","last_reported":1705431954,"current_range_meters":31200,"station_id":"ce4bgl92rcd13ifvqbq0","pricing_plan_id":"free"},{"bike_id":"2751fe63-7b8e-4a23-aa70-8680c00ee2b6","system_id":"levelo_inurba_marseille","lat":43.31085,"lon":5.3726,"is_reserved":false,"is_disabled":false,"rental_uris":{"android":"levelo://app?vid=2751fe63-7b8e-4a23-aa70-8680c00ee2b6","ios":"levelo://app?vid=2751fe63-7b8e-4a23-aa70-8680c00ee2b6"},"vehicle_type_id":"4","last_reported":1705431954,"current_range_meters":2000,"station_id":"","pricing_plan_id":"free"},{"bike_id":"d73451ce-e318-4479-8847-8b24c4c58b7e","system_id":"levelo_inurba_marseille","lat":43.314811,"lon":5.373104,"is_reserved":false,"is_disabled":false,"rental_uris":{"android":"levelo://app?vid=d73451ce-e318-4479-8847-8b24c4c58b7e","ios":"levelo://app?vid=d73451ce-e318-4479-8847-8b24c4c58b7e"},"vehicle_type_id":"4","last_reported":1705431954,"current_range_meters":4800,"station_id":"ce4bgt12rcd13ifvqcd0","pricing_plan_id":"free"},{"bike_id":"a0f87143-c1c5-4526-8e08-73f6e8925c73","system_id":"levelo_inurba_marseille","lat":43.314811,"lon":5.373104,"is_reserved":false,"is_disabled":false,"rental_uris":{"android":"levelo://app?vid=a0f87143-c1c5-4526-8e08-73f6e8925c73","ios":"levelo://app?vid=a0f87143-c1c5-4526-8e08-73f6e8925c73"},"vehicle_type_id":"4","last_reported":1705431954,"current_range_meters":24400,"station_id":"ce4bgt12rcd13ifvqcd0","pricing_plan_id":"free"},{"bike_id":"bee7247e-59d8-4156-80ed-e35d0b3826a8","system_id":"levelo_inurba_marseille","lat":43.30595,"lon":5.36548,"is_reserved":false,"is_disabled":false,"rental_uris":{"android":"levelo://app?vid=bee7247e-59d8-4156-80ed-e35d0b3826a8","ios":"levelo://app?vid=bee7247e-59d8-4156-80ed-e35d0b3826a8"},"vehicle_type_id":"4","last_reported":1705431954,"current_range_meters":7200,"station_id":"ce4bgs12rcd13ifvqcag","pricing_plan_id":"free"},{"bike_id":"1612b055-1b5e-4669-baa2-cf94a53bd0e1","system_id":"levelo_inurba_marseille","lat":43.30537,"lon":5.367345,"is_reserved":false,"is_disabled":false,"rental_uris":{"android":"levelo://app?vid=1612b055-1b5e-4669-baa2-cf94a53bd0e1","ios":"levelo://app?vid=1612b055-1b5e-4669-baa2-cf94a53bd0e1"},"vehicle_type_id":"4","last_reported":1705431954,"current_range_meters":21600,"station_id":"ce4bgrp2rcd13ifvqc9g","pricing_plan_id":"free"},{"bike_id":"bcbcf91b-0e4f-4416-91f5-b5637a08a01a","system_id":"levelo_inurba_marseille","lat":43.305989,"lon":5.37225,"is_reserved":false,"is_disabled":false,"rental_uris":{"android":"levelo://app?vid=bcbcf91b-0e4f-4416-91f5-b5637a08a01a","ios":"levelo://app?vid=bcbcf91b-0e4f-4416-91f5-b5637a08a01a"},"vehicle_type_id":"4","last_reported":1705431954,"current_range_meters":24800,"station_id":"ce4bgqh2rcd13ifvqc4g","pricing_plan_id":"free"},{"bike_id":"f6bad580-c6fb-4202-a6d3-842c2e0fa5fb","system_id":"levelo_inurba_marseille","lat":43.305989,"lon":5.37225,"is_reserved":false,"is_disabled":false,"rental_uris":{"android":"levelo://app?vid=f6bad580-c6fb-4202-a6d3-842c2e0fa5fb","ios":"levelo://app?vid=f6bad580-c6fb-4202-a6d3-842c2e0fa5fb"},"vehicle_type_id":"4","last_reported":1705431954,"current_range_meters":26000,"station_id":"ce4bgqh2rcd13ifvqc4g","pricing_plan_id":"free"},{"bike_id":"b7caad5d-4051-43d5-a2c4-f8f1a38569c0","system_id":"levelo_inurba_marseille","lat":43.305989,"lon":5.37225,"is_reserved":false,"is_disabled":false,"rental_uris":{"android":"levelo://app?vid=b7caad5d-4051-43d5-a2c4-f8f1a38569c0","ios":"levelo://app?vid=b7caad5d-4051-43d5-a2c4-f8f1a38569c0"},"vehicle_type_id":"4","last_reported":1705431954,"current_range_meters":1200,"station_id":"ce4bgqh2rcd13ifvqc4g","pricing_plan_id":"free"},{"bike_id":"29de0205-2074-4d12-a979-af3a6c0b76b2","system_id":"levelo_inurba_marseille","lat":43.31119,"lon":5.37764,"is_reserved":false,"is_disabled":false,"rental_uris":{"android":"levelo://app?vid=29de0205-2074-4d12-a979-af3a6c0b76b2","ios":"levelo://app?vid=29de0205-2074-4d12-a979-af3a6c0b76b2"},"vehicle_type_id":"4","last_reported":1705431954,"current_range_meters":0,"station_id":"ce4bgt92rcd13ifvqcg0","pricing_plan_id":"free"},{"bike_id":"fd0809b1-323f-4145-8109-e2a7364931f2","system_id":"levelo_inurba_marseille","lat":43.311131,"lon":5.377651,"is_reserved":false,"is_disabled":false,"rental_uris":{"android":"levelo://app?vid=fd0809b1-323f-4145-8109-e2a7364931f2","ios":"levelo://app?vid=fd0809b1-323f-4145-8109-e2a7364931f2"},"vehicle_type_id":"4","last_reported":1705431954,"current_range_meters":16800,"station_id":"ce4bgt92rcd13ifvqcg0","pricing_plan_id":"free"},{"bike_id":"45889578-2081-4364-af7a-1b48920b2407","system_id":"levelo_inurba_marseille","lat":43.317075,"lon":5.377367,"is_reserved":false,"is_disabled":false,"rental_uris":{"android":"levelo://app?vid=45889578-2081-4364-af7a-1b48920b2407","ios":"levelo://app?vid=45889578-2081-4364-af7a-1b48920b2407"},"vehicle_type_id":"4","last_reported":1705431954,"current_range_meters":19600,"station_id":"ce4bgth2rcd13ifvqch0","pricing_plan_id":"free"},{"bike_id":"23033bd6-d5d5-4066-95d3-b23920f31b85","system_id":"levelo_inurba_marseille","lat":43.317093,"lon":5.377458,"is_reserved":false,"is_disabled":false,"rental_uris":{"android":"levelo://app?vid=23033bd6-d5d5-4066-95d3-b23920f31b85","ios":"levelo://app?vid=23033bd6-d5d5-4066-95d3-b23920f31b85"},"vehicle_type_id":"4","last_reported":1705431954,"current_range_meters":18400,"station_id":"","pricing_plan_id":"free"},{"bike_id":"6d4bdee6-1100-4243-966c-b06ab7a6a584","system_id":"levelo_inurba_marseille","lat":43.317075,"lon":5.377367,"is_reserved":false,"is_disabled":false,"rental_uris":{"android":"levelo://app?vid=6d4bdee6-1100-4243-966c-b06ab7a6a584","ios":"levelo://app?vid=6d4bdee6-1100-4243-966c-b06ab7a6a584"},"vehicle_type_id":"4","last_reported":1705431954,"current_range_meters":10400,"station_id":"ce4bgth2rcd13ifvqch0","pricing_plan_id":"free"},{"bike_id":"cdd0957b-d457-4035-b933-8512b4239689","system_id":"levelo_inurba_marseille","lat":43.303046,"lon":5.368981,"is_reserved":false,"is_disabled":false,"rental_uris":{"android":"levelo://app?vid=cdd0957b-d457-4035-b933-8512b4239689","ios":"levelo://app?vid=cdd0957b-d457-4035-b933-8512b4239689"},"vehicle_type_id":"4","last_reported":1705431954,"current_range_meters":12800,"station_id":"ce4bgqh2rcd13ifvqc5g","pricing_plan_id":"free"},{"bike_id":"ceead678-c53e-4658-9eaa-9845ca9383fc","system_id":"levelo_inurba_marseille","lat":43.303046,"lon":5.368981,"is_reserved":false,"is_disabled":false,"rental_uris":{"android":"levelo://app?vid=ceead678-c53e-4658-9eaa-9845ca9383fc","ios":"levelo://app?vid=ceead678-c53e-4658-9eaa-9845ca9383fc"},"vehicle_type_id":"4","last_reported":1705431954,"current_range_meters":13200,"station_id":"ce4bgqh2rcd13ifvqc5g","pricing_plan_id":"free"},{"bike_id":"70673c99-b173-4cc5-a01f-68139643c10f","system_id":"levelo_inurba_marseille","lat":43.299707,"lon":5.384859,"is_reserved":false,"is_disabled":false,"rental_uris":{"android":"levelo://app?vid=70673c99-b173-4cc5-a01f-68139643c10f","ios":"levelo://app?vid=70673c99-b173-4cc5-a01f-68139643c10f"},"vehicle_type_id":"4","last_reported":1705431954,"current_range_meters":27600,"station_id":"ce4bgj92rcd13ifvqbd0","pricing_plan_id":"free"},{"bike_id":"b6ae0f46-d9c5-4dcc-b5b9-14b0e5c4af2c","system_id":"levelo_inurba_marseille","lat":43.30189,"lon":5.36621,"is_reserved":false,"is_disabled":false,"rental_uris":{"android":"levelo://app?vid=b6ae0f46-d9c5-4dcc-b5b9-14b0e5c4af2c","ios":"levelo://app?vid=b6ae0f46-d9c5-4dcc-b5b9-14b0e5c4af2c"},"vehicle_type_id":"4","last_reported":1705431954,"current_range_meters":26000,"station_id":"ce4bgrh2rcd13ifvqc8g","pricing_plan_id":"free"},{"bike_id":"69ea7d13-c1de-4886-8f03-12fdf11ea15d","system_id":"levelo_inurba_marseille","lat":43.301939,"lon":5.366286,"is_reserved":false,"is_disabled":false,"rental_uris":{"android":"levelo://app?vid=69ea7d13-c1de-4886-8f03-12fdf11ea15d","ios":"levelo://app?vid=69ea7d13-c1de-4886-8f03-12fdf11ea15d"},"vehicle_type_id":"4","last_reported":1705431954,"current_range_meters":20000,"station_id":"ce4bgrh2rcd13ifvqc8g","pricing_plan_id":"free"},{"bike_id":"bbb8bf5f-9a12-4802-8c25-a94f0250be61","system_id":"levelo_inurba_marseille","lat":43.301939,"lon":5.366286,"is_reserved":false,"is_disabled":false,"rental_uris":{"android":"levelo://app?vid=bbb8bf5f-9a12-4802-8c25-a94f0250be61","ios":"levelo://app?vid=bbb8bf5f-9a12-4802-8c25-a94f0250be61"},"vehicle_type_id":"4","last_reported":1705431954,"current_range_meters":21600,"station_id":"ce4bgrh2rcd13ifvqc8g","pricing_plan_id":"free"},{"bike_id":"fc3ae537-28c3-4882-ac2b-7ca5f1ed11cf","system_id":"levelo_inurba_marseille","lat":43.30291,"lon":5.37412,"is_reserved":false,"is_disabled":false,"rental_uris":{"android":"levelo://app?vid=fc3ae537-28c3-4882-ac2b-7ca5f1ed11cf","ios":"levelo://app?vid=fc3ae537-28c3-4882-ac2b-7ca5f1ed11cf"},"vehicle_type_id":"4","last_reported":1705431954,"current_range_meters":5600,"station_id":"","pricing_plan_id":"free"},{"bike_id":"694756e7-1376-4d27-bfa4-5cb8ff8120d8","system_id":"levelo_inurba_marseille","lat":43.308012,"lon":5.381511,"is_reserved":false,"is_disabled":false,"rental_uris":{"android":"levelo://app?vid=694756e7-1376-4d27-bfa4-5cb8ff8120d8","ios":"levelo://app?vid=694756e7-1376-4d27-bfa4-5cb8ff8120d8"},"vehicle_type_id":"4","last_reported":1705431954,"current_range_meters":19200,"station_id":"ce4bgt12rcd13ifvqce0","pricing_plan_id":"free"},{"bike_id":"ef48953d-7483-42a0-a23c-f6062ef3047c","system_id":"levelo_inurba_marseille","lat":43.308012,"lon":5.381511,"is_reserved":false,"is_disabled":false,"rental_uris":{"android":"levelo://app?vid=ef48953d-7483-42a0-a23c-f6062ef3047c","ios":"levelo://app?vid=ef48953d-7483-42a0-a23c-f6062ef3047c"},"vehicle_type_id":"4","last_reported":1705431954,"current_range_meters":2800,"station_id":"ce4bgt12rcd13ifvqce0","pricing_plan_id":"free"},{"bike_id":"233a7c7d-8ae7-40b9-894d-bb76a7508109","system_id":"levelo_inurba_marseille","lat":43.30458,"lon":5.37901,"is_reserved":false,"is_disabled":false,"rental_uris":{"android":"levelo://app?vid=233a7c7d-8ae7-40b9-894d-bb76a7508109","ios":"levelo://app?vid=233a7c7d-8ae7-40b9-894d-bb76a7508109"},"vehicle_type_id":"4","last_reported":1705431954,"current_range_meters":0,"station_id":"ce4bgup2rcd13ifvqcn0","pricing_plan_id":"free"},{"bike_id":"b6665513-6ca2-42dc-9baf-3c5b43a49768","system_id":"levelo_inurba_marseille","lat":43.324771,"lon":5.36557,"is_reserved":false,"is_disabled":false,"rental_uris":{"android":"levelo://app?vid=b6665513-6ca2-42dc-9baf-3c5b43a49768","ios":"levelo://app?vid=b6665513-6ca2-42dc-9baf-3c5b43a49768"},"vehicle_type_id":"4","last_reported":1705431954,"current_range_meters":28400,"station_id":"ce4bhs12rcd13ifvqhvg","pricing_plan_id":"free"},{"bike_id":"46c6befd-1978-4025-b46c-362d658f43fa","system_id":"levelo_inurba_marseille","lat":43.324771,"lon":5.36557,"is_reserved":false,"is_disabled":false,"rental_uris":{"android":"levelo://app?vid=46c6befd-1978-4025-b46c-362d658f43fa","ios":"levelo://app?vid=46c6befd-1978-4025-b46c-362d658f43fa"},"vehicle_type_id":"4","last_reported":1705431954,"current_range_meters":30400,"station_id":"ce4bhs12rcd13ifvqhvg","pricing_plan_id":"free"},{"bike_id":"61a6e069-1738-4fb4-914c-71544c263cb0","system_id":"levelo_inurba_marseille","lat":43.324771,"lon":5.36557,"is_reserved":false,"is_disabled":false,"rental_uris":{"android":"levelo://app?vid=61a6e069-1738-4fb4-914c-71544c263cb0","ios":"levelo://app?vid=61a6e069-1738-4fb4-914c-71544c263cb0"},"vehicle_type_id":"4","last_reported":1705431954,"current_range_meters":9600,"station_id":"ce4bhs12rcd13ifvqhvg","pricing_plan_id":"free"},{"bike_id":"68af099e-8eb5-4985-9bef-04c30fa5c4f5","system_id":"levelo_inurba_marseille","lat":43.324771,"lon":5.36557,"is_reserved":false,"is_disabled":false,"rental_uris":{"android":"levelo://app?vid=68af099e-8eb5-4985-9bef-04c30fa5c4f5","ios":"levelo://app?vid=68af099e-8eb5-4985-9bef-04c30fa5c4f5"},"vehicle_type_id":"4","last_reported":1705431954,"current_range_meters":15600,"station_id":"ce4bhs12rcd13ifvqhvg","pricing_plan_id":"free"},{"bike_id":"4dc49540-0382-4e27-a285-c9cb7fa5c432","system_id":"levelo_inurba_marseille","lat":43.324771,"lon":5.36557,"is_reserved":false,"is_disabled":false,"rental_uris":{"android":"levelo://app?vid=4dc49540-0382-4e27-a285-c9cb7fa5c432","ios":"levelo://app?vid=4dc49540-0382-4e27-a285-c9cb7fa5c432"},"vehicle_type_id":"4","last_reported":1705431954,"current_range_meters":22400,"station_id":"ce4bhs12rcd13ifvqhvg","pricing_plan_id":"free"},{"bike_id":"ce203f00-9b61-4792-a072-366e23c0f704","system_id":"levelo_inurba_marseille","lat":43.302831,"lon":5.376999,"is_reserved":false,"is_disabled":false,"rental_uris":{"android":"levelo://app?vid=ce203f00-9b61-4792-a072-366e23c0f704","ios":"levelo://app?vid=ce203f00-9b61-4792-a072-366e23c0f704"},"vehicle_type_id":"4","last_reported":1705431954,"current_range_meters":30800,"station_id":"","pricing_plan_id":"free"},{"bike_id":"108030ef-e04f-40d2-aca4-48abb3cb5aa3","system_id":"levelo_inurba_marseille","lat":43.319935,"lon":5.381699,"is_reserved":false,"is_disabled":false,"rental_uris":{"android":"levelo://app?vid=108030ef-e04f-40d2-aca4-48abb3cb5aa3","ios":"levelo://app?vid=108030ef-e04f-40d2-aca4-48abb3cb5aa3"},"vehicle_type_id":"4","last_reported":1705431954,"current_range_meters":10800,"station_id":"ce4bhr12rcd13ifvqhpg","pricing_plan_id":"free"},{"bike_id":"8132332f-67fb-4b4d-b78d-90427948e058","system_id":"levelo_inurba_marseille","lat":43.319935,"lon":5.381699,"is_reserved":false,"is_disabled":false,"rental_uris":{"android":"levelo://app?vid=8132332f-67fb-4b4d-b78d-90427948e058","ios":"levelo://app?vid=8132332f-67fb-4b4d-b78d-90427948e058"},"vehicle_type_id":"4","last_reported":1705431954,"current_range_meters":19200,"station_id":"ce4bhr12rcd13ifvqhpg","pricing_plan_id":"free"},{"bike_id":"c98d78a3-68e6-4c31-9191-5f8d5879bbe0","system_id":"levelo_inurba_marseille","lat":43.319935,"lon":5.381699,"is_reserved":false,"is_disabled":false,"rental_uris":{"android":"levelo://app?vid=c98d78a3-68e6-4c31-9191-5f8d5879bbe0","ios":"levelo://app?vid=c98d78a3-68e6-4c31-9191-5f8d5879bbe0"},"vehicle_type_id":"4","last_reported":1705431954,"current_range_meters":19200,"station_id":"ce4bhr12rcd13ifvqhpg","pricing_plan_id":"free"},{"bike_id":"26fb0bd6-1ab7-43fe-824c-80f1a4097f4e","system_id":"levelo_inurba_marseille","lat":43.319962,"lon":5.381645,"is_reserved":false,"is_disabled":false,"rental_uris":{"android":"levelo://app?vid=26fb0bd6-1ab7-43fe-824c-80f1a4097f4e","ios":"levelo://app?vid=26fb0bd6-1ab7-43fe-824c-80f1a4097f4e"},"vehicle_type_id":"4","last_reported":1705431954,"current_range_meters":30400,"station_id":"ce4bhr12rcd13ifvqhpg","pricing_plan_id":"free"},{"bike_id":"05e7bf18-c01a-4d0f-af28-ec5522fcca76","system_id":"levelo_inurba_marseille","lat":43.319935,"lon":5.381699,"is_reserved":false,"is_disabled":false,"rental_uris":{"android":"levelo://app?vid=05e7bf18-c01a-4d0f-af28-ec5522fcca76","ios":"levelo://app?vid=05e7bf18-c01a-4d0f-af28-ec5522fcca76"},"vehicle_type_id":"4","last_reported":1705431954,"current_range_meters":30400,"station_id":"ce4bhr12rcd13ifvqhpg","pricing_plan_id":"free"},{"bike_id":"1654e7b0-0af2-4f46-8e4a-b119b0d39473","system_id":"levelo_inurba_marseille","lat":43.319935,"lon":5.381699,"is_reserved":false,"is_disabled":false,"rental_uris":{"android":"levelo://app?vid=1654e7b0-0af2-4f46-8e4a-b119b0d39473","ios":"levelo://app?vid=1654e7b0-0af2-4f46-8e4a-b119b0d39473"},"vehicle_type_id":"4","last_reported":1705431954,"current_range_meters":11600,"station_id":"ce4bhr12rcd13ifvqhpg","pricing_plan_id":"free"},{"bike_id":"d2edba53-b6fb-4937-aa17-e4cc1be26aea","system_id":"levelo_inurba_marseille","lat":43.319935,"lon":5.381699,"is_reserved":false,"is_disabled":false,"rental_uris":{"android":"levelo://app?vid=d2edba53-b6fb-4937-aa17-e4cc1be26aea","ios":"levelo://app?vid=d2edba53-b6fb-4937-aa17-e4cc1be26aea"},"vehicle_type_id":"4","last_reported":1705431954,"current_range_meters":18000,"station_id":"ce4bhr12rcd13ifvqhpg","pricing_plan_id":"free"},{"bike_id":"2b2fa4c3-6513-4039-b4c7-d49a15fe0c7d","system_id":"levelo_inurba_marseille","lat":43.319935,"lon":5.381699,"is_reserved":false,"is_disabled":false,"rental_uris":{"android":"levelo://app?vid=2b2fa4c3-6513-4039-b4c7-d49a15fe0c7d","ios":"levelo://app?vid=2b2fa4c3-6513-4039-b4c7-d49a15fe0c7d"},"vehicle_type_id":"4","last_reported":1705431954,"current_range_meters":26800,"station_id":"ce4bhr12rcd13ifvqhpg","pricing_plan_id":"free"},{"bike_id":"c607b0f3-7bf7-4d6f-bcd4-fe869c8de587","system_id":"levelo_inurba_marseille","lat":43.313571,"lon":5.384829,"is_reserved":false,"is_disabled":false,"rental_uris":{"android":"levelo://app?vid=c607b0f3-7bf7-4d6f-bcd4-fe869c8de587","ios":"levelo://app?vid=c607b0f3-7bf7-4d6f-bcd4-fe869c8de587"},"vehicle_type_id":"4","last_reported":1705431954,"current_range_meters":22800,"station_id":"ce4bgt92rcd13ifvqcf0","pricing_plan_id":"free"},{"bike_id":"13cf3211-23a3-4102-bc33-bdb11c1cf262","system_id":"levelo_inurba_marseille","lat":43.313571,"lon":5.384829,"is_reserved":false,"is_disabled":false,"rental_uris":{"android":"levelo://app?vid=13cf3211-23a3-4102-bc33-bdb11c1cf262","ios":"levelo://app?vid=13cf3211-23a3-4102-bc33-bdb11c1cf262"},"vehicle_type_id":"4","last_reported":1705431954,"current_range_meters":24000,"station_id":"ce4bgt92rcd13ifvqcf0","pricing_plan_id":"free"},{"bike_id":"d05be7e6-caaa-4779-8fd5-fb8ec23c81a0","system_id":"levelo_inurba_marseille","lat":43.313571,"lon":5.384829,"is_reserved":false,"is_disabled":false,"rental_uris":{"android":"levelo://app?vid=d05be7e6-caaa-4779-8fd5-fb8ec23c81a0","ios":"levelo://app?vid=d05be7e6-caaa-4779-8fd5-fb8ec23c81a0"},"vehicle_type_id":"4","last_reported":1705431954,"current_range_meters":26400,"station_id":"ce4bgt92rcd13ifvqcf0","pricing_plan_id":"free"},{"bike_id":"30c4fea0-a0e5-4cd4-a096-65fd2b838e3c","system_id":"levelo_inurba_marseille","lat":43.313571,"lon":5.384829,"is_reserved":false,"is_disabled":false,"rental_uris":{"android":"levelo://app?vid=30c4fea0-a0e5-4cd4-a096-65fd2b838e3c","ios":"levelo://app?vid=30c4fea0-a0e5-4cd4-a096-65fd2b838e3c"},"vehicle_type_id":"4","last_reported":1705431954,"current_range_meters":24000,"station_id":"ce4bgt92rcd13ifvqcf0","pricing_plan_id":"free"},{"bike_id":"fbb1068f-e46a-48c5-9675-ee32c4d7c73a","system_id":"levelo_inurba_marseille","lat":43.299724,"lon":5.371829,"is_reserved":false,"is_disabled":false,"rental_uris":{"android":"levelo://app?vid=fbb1068f-e46a-48c5-9675-ee32c4d7c73a","ios":"levelo://app?vid=fbb1068f-e46a-48c5-9675-ee32c4d7c73a"},"vehicle_type_id":"4","last_reported":1705431954,"current_range_meters":26400,"station_id":"ce4bgr92rcd13ifvqc7g","pricing_plan_id":"free"},{"bike_id":"98a0778f-e8cf-4d5d-ab26-5f5542599ec5","system_id":"levelo_inurba_marseille","lat":43.299427,"lon":5.365497,"is_reserved":false,"is_disabled":false,"rental_uris":{"android":"levelo://app?vid=98a0778f-e8cf-4d5d-ab26-5f5542599ec5","ios":"levelo://app?vid=98a0778f-e8cf-4d5d-ab26-5f5542599ec5"},"vehicle_type_id":"4","last_reported":1705431954,"current_range_meters":16800,"station_id":"ce4bgm92rcd13ifvqbr0","pricing_plan_id":"free"},{"bike_id":"3202f5a3-a344-481c-9bdc-a5265d5e0516","system_id":"levelo_inurba_marseille","lat":43.299222,"lon":5.365554,"is_reserved":false,"is_disabled":false,"rental_uris":{"android":"levelo://app?vid=3202f5a3-a344-481c-9bdc-a5265d5e0516","ios":"levelo://app?vid=3202f5a3-a344-481c-9bdc-a5265d5e0516"},"vehicle_type_id":"4","last_reported":1705431954,"current_range_meters":26800,"station_id":"ce4bgm92rcd13ifvqbr0","pricing_plan_id":"free"},{"bike_id":"87284e6a-630d-408f-ab90-6246ed8c0823","system_id":"levelo_inurba_marseille","lat":43.299222,"lon":5.365554,"is_reserved":false,"is_disabled":false,"rental_uris":{"android":"levelo://app?vid=87284e6a-630d-408f-ab90-6246ed8c0823","ios":"levelo://app?vid=87284e6a-630d-408f-ab90-6246ed8c0823"},"vehicle_type_id":"4","last_reported":1705431954,"current_range_meters":16400,"station_id":"ce4bgm92rcd13ifvqbr0","pricing_plan_id":"free"},{"bike_id":"0b112b8d-82d4-44e4-9214-4b701457ffaf","system_id":"levelo_inurba_marseille","lat":43.299222,"lon":5.365554,"is_reserved":false,"is_disabled":false,"rental_uris":{"android":"levelo://app?vid=0b112b8d-82d4-44e4-9214-4b701457ffaf","ios":"levelo://app?vid=0b112b8d-82d4-44e4-9214-4b701457ffaf"},"vehicle_type_id":"4","last_reported":1705431954,"current_range_meters":26000,"station_id":"ce4bgm92rcd13ifvqbr0","pricing_plan_id":"free"},{"bike_id":"27d224bc-e240-47a8-a8fa-999177c89891","system_id":"levelo_inurba_marseille","lat":43.299222,"lon":5.365554,"is_reserved":false,"is_disabled":false,"rental_uris":{"android":"levelo://app?vid=27d224bc-e240-47a8-a8fa-999177c89891","ios":"levelo://app?vid=27d224bc-e240-47a8-a8fa-999177c89891"},"vehicle_type_id":"4","last_reported":1705431954,"current_range_meters":20800,"station_id":"ce4bgm92rcd13ifvqbr0","pricing_plan_id":"free"},{"bike_id":"282d4f24-ba10-48d9-86f1-50c2d2029589","system_id":"levelo_inurba_marseille","lat":43.299222,"lon":5.365554,"is_reserved":false,"is_disabled":false,"rental_uris":{"android":"levelo://app?vid=282d4f24-ba10-48d9-86f1-50c2d2029589","ios":"levelo://app?vid=282d4f24-ba10-48d9-86f1-50c2d2029589"},"vehicle_type_id":"4","last_reported":1705431954,"current_range_meters":30800,"station_id":"ce4bgm92rcd13ifvqbr0","pricing_plan_id":"free"},{"bike_id":"33a1df11-82ca-4ffc-b978-a357253496e2","system_id":"levelo_inurba_marseille","lat":43.299222,"lon":5.365554,"is_reserved":false,"is_disabled":false,"rental_uris":{"android":"levelo://app?vid=33a1df11-82ca-4ffc-b978-a357253496e2","ios":"levelo://app?vid=33a1df11-82ca-4ffc-b978-a357253496e2"},"vehicle_type_id":"4","last_reported":1705431954,"current_range_meters":26800,"station_id":"ce4bgm92rcd13ifvqbr0","pricing_plan_id":"free"},{"bike_id":"e9d48811-0301-47f9-b209-35b2add686ad","system_id":"levelo_inurba_marseille","lat":43.299222,"lon":5.365554,"is_reserved":false,"is_disabled":false,"rental_uris":{"android":"levelo://app?vid=e9d48811-0301-47f9-b209-35b2add686ad","ios":"levelo://app?vid=e9d48811-0301-47f9-b209-35b2add686ad"},"vehicle_type_id":"4","last_reported":1705431954,"current_range_meters":27600,"station_id":"ce4bgm92rcd13ifvqbr0","pricing_plan_id":"free"},{"bike_id":"ffadc66d-21c1-48c0-bb83-0911b55a5fd0","system_id":"levelo_inurba_marseille","lat":43.299222,"lon":5.365554,"is_reserved":false,"is_disabled":false,"rental_uris":{"android":"levelo://app?vid=ffadc66d-21c1-48c0-bb83-0911b55a5fd0","ios":"levelo://app?vid=ffadc66d-21c1-48c0-bb83-0911b55a5fd0"},"vehicle_type_id":"4","last_reported":1705431954,"current_range_meters":14800,"station_id":"ce4bgm92rcd13ifvqbr0","pricing_plan_id":"free"},{"bike_id":"77e08be3-3c3d-4a68-a251-d6ca57828231","system_id":"levelo_inurba_marseille","lat":43.299724,"lon":5.371829,"is_reserved":false,"is_disabled":false,"rental_uris":{"android":"levelo://app?vid=77e08be3-3c3d-4a68-a251-d6ca57828231","ios":"levelo://app?vid=77e08be3-3c3d-4a68-a251-d6ca57828231"},"vehicle_type_id":"4","last_reported":1705431954,"current_range_meters":29600,"station_id":"ce4bgr92rcd13ifvqc7g","pricing_plan_id":"free"},{"bike_id":"6b170c78-e3da-4154-8b68-fb8e6c6256d8","system_id":"levelo_inurba_marseille","lat":43.305364,"lon":5.384119,"is_reserved":false,"is_disabled":false,"rental_uris":{"android":"levelo://app?vid=6b170c78-e3da-4154-8b68-fb8e6c6256d8","ios":"levelo://app?vid=6b170c78-e3da-4154-8b68-fb8e6c6256d8"},"vehicle_type_id":"4","last_reported":1705431954,"current_range_meters":8400,"station_id":"ce4bgg92rcd13ifvqb30","pricing_plan_id":"free"},{"bike_id":"60f45cdb-2bda-42bc-b332-dc24375d4306","system_id":"levelo_inurba_marseille","lat":43.305364,"lon":5.384119,"is_reserved":false,"is_disabled":false,"rental_uris":{"android":"levelo://app?vid=60f45cdb-2bda-42bc-b332-dc24375d4306","ios":"levelo://app?vid=60f45cdb-2bda-42bc-b332-dc24375d4306"},"vehicle_type_id":"4","last_reported":1705431954,"current_range_meters":13600,"station_id":"ce4bgg92rcd13ifvqb30","pricing_plan_id":"free"},{"bike_id":"93acabca-9aa4-4b44-9ca9-609f3da1c3d2","system_id":"levelo_inurba_marseille","lat":43.298433,"lon":5.362774,"is_reserved":false,"is_disabled":false,"rental_uris":{"android":"levelo://app?vid=93acabca-9aa4-4b44-9ca9-609f3da1c3d2","ios":"levelo://app?vid=93acabca-9aa4-4b44-9ca9-609f3da1c3d2"},"vehicle_type_id":"4","last_reported":1705431954,"current_range_meters":30800,"station_id":"ce4bgpp2rcd13ifvqc3g","pricing_plan_id":"free"},{"bike_id":"c6b5025d-a05a-451d-8f0a-97720d57778c","system_id":"levelo_inurba_marseille","lat":43.311722,"lon":5.387247,"is_reserved":false,"is_disabled":false,"rental_uris":{"android":"levelo://app?vid=c6b5025d-a05a-451d-8f0a-97720d57778c","ios":"levelo://app?vid=c6b5025d-a05a-451d-8f0a-97720d57778c"},"vehicle_type_id":"4","last_reported":1705431954,"current_range_meters":15200,"station_id":"ce4bgv12rcd13ifvqcp0","pricing_plan_id":"free"},{"bike_id":"a05b759f-d83d-4261-9e36-4d7b8ab94df5","system_id":"levelo_inurba_marseille","lat":43.311722,"lon":5.387247,"is_reserved":false,"is_disabled":false,"rental_uris":{"android":"levelo://app?vid=a05b759f-d83d-4261-9e36-4d7b8ab94df5","ios":"levelo://app?vid=a05b759f-d83d-4261-9e36-4d7b8ab94df5"},"vehicle_type_id":"4","last_reported":1705431954,"current_range_meters":31200,"station_id":"ce4bgv12rcd13ifvqcp0","pricing_plan_id":"free"},{"bike_id":"10ec7dce-6c3a-4099-b127-5112f3b532ef","system_id":"levelo_inurba_marseille","lat":43.299243,"lon":5.37481,"is_reserved":false,"is_disabled":false,"rental_uris":{"android":"levelo://app?vid=10ec7dce-6c3a-4099-b127-5112f3b532ef","ios":"levelo://app?vid=10ec7dce-6c3a-4099-b127-5112f3b532ef"},"vehicle_type_id":"4","last_reported":1705431954,"current_range_meters":1600,"station_id":"ce4bgjh2rcd13ifvqbg0","pricing_plan_id":"free"},{"bike_id":"2c2a09fe-3101-4364-bdeb-fc6f7e50e234","system_id":"levelo_inurba_marseille","lat":43.297794,"lon":5.370888,"is_reserved":false,"is_disabled":false,"rental_uris":{"android":"levelo://app?vid=2c2a09fe-3101-4364-bdeb-fc6f7e50e234","ios":"levelo://app?vid=2c2a09fe-3101-4364-bdeb-fc6f7e50e234"},"vehicle_type_id":"4","last_reported":1705431954,"current_range_meters":7600,"station_id":"ce4bgop2rcd13ifvqc1g","pricing_plan_id":"free"},{"bike_id":"67f3d080-c019-491a-9ec5-e2f102caa98e","system_id":"levelo_inurba_marseille","lat":43.297794,"lon":5.370888,"is_reserved":false,"is_disabled":false,"rental_uris":{"android":"levelo://app?vid=67f3d080-c019-491a-9ec5-e2f102caa98e","ios":"levelo://app?vid=67f3d080-c019-491a-9ec5-e2f102caa98e"},"vehicle_type_id":"4","last_reported":1705431954,"current_range_meters":4400,"station_id":"ce4bgop2rcd13ifvqc1g","pricing_plan_id":"free"},{"bike_id":"a7a593ff-9145-4d70-b16b-c11157f4ddc9","system_id":"levelo_inurba_marseille","lat":43.297794,"lon":5.370888,"is_reserved":false,"is_disabled":false,"rental_uris":{"android":"levelo://app?vid=a7a593ff-9145-4d70-b16b-c11157f4ddc9","ios":"levelo://app?vid=a7a593ff-9145-4d70-b16b-c11157f4ddc9"},"vehicle_type_id":"4","last_reported":1705431954,"current_range_meters":27600,"station_id":"ce4bgop2rcd13ifvqc1g","pricing_plan_id":"free"},{"bike_id":"0d666429-792d-477e-b03b-8d07152545bb","system_id":"levelo_inurba_marseille","lat":43.32288,"lon":5.38261,"is_reserved":false,"is_disabled":false,"rental_uris":{"android":"levelo://app?vid=0d666429-792d-477e-b03b-8d07152545bb","ios":"levelo://app?vid=0d666429-792d-477e-b03b-8d07152545bb"},"vehicle_type_id":"4","last_reported":1705431954,"current_range_meters":7600,"station_id":"ce4bhr12rcd13ifvqhqg","pricing_plan_id":"free"},{"bike_id":"f85a4350-761e-4ac5-924d-f795e652d954","system_id":"levelo_inurba_marseille","lat":43.322877,"lon":5.382648,"is_reserved":false,"is_disabled":false,"rental_uris":{"android":"levelo://app?vid=f85a4350-761e-4ac5-924d-f795e652d954","ios":"levelo://app?vid=f85a4350-761e-4ac5-924d-f795e652d954"},"vehicle_type_id":"4","last_reported":1705431954,"current_range_meters":1600,"station_id":"ce4bhr12rcd13ifvqhqg","pricing_plan_id":"free"},{"bike_id":"c59e915a-05cb-49b2-8b19-dcae4465ebcc","system_id":"levelo_inurba_marseille","lat":43.32288,"lon":5.38269,"is_reserved":false,"is_disabled":false,"rental_uris":{"android":"levelo://app?vid=c59e915a-05cb-49b2-8b19-dcae4465ebcc","ios":"levelo://app?vid=c59e915a-05cb-49b2-8b19-dcae4465ebcc"},"vehicle_type_id":"4","last_reported":1705431954,"current_range_meters":0,"station_id":"ce4bhr12rcd13ifvqhqg","pricing_plan_id":"free"},{"bike_id":"34c8b400-5074-46e3-aa02-f5d274dfaa4f","system_id":"levelo_inurba_marseille","lat":43.32289,"lon":5.38273,"is_reserved":false,"is_disabled":false,"rental_uris":{"android":"levelo://app?vid=34c8b400-5074-46e3-aa02-f5d274dfaa4f","ios":"levelo://app?vid=34c8b400-5074-46e3-aa02-f5d274dfaa4f"},"vehicle_type_id":"4","last_reported":1705431954,"current_range_meters":19600,"station_id":"ce4bhr12rcd13ifvqhqg","pricing_plan_id":"free"},{"bike_id":"26f91de3-6627-4706-9d59-9aefca0a07fd","system_id":"levelo_inurba_marseille","lat":43.322872,"lon":5.382756,"is_reserved":false,"is_disabled":false,"rental_uris":{"android":"levelo://app?vid=26f91de3-6627-4706-9d59-9aefca0a07fd","ios":"levelo://app?vid=26f91de3-6627-4706-9d59-9aefca0a07fd"},"vehicle_type_id":"4","last_reported":1705431954,"current_range_meters":31200,"station_id":"ce4bhr12rcd13ifvqhqg","pricing_plan_id":"free"},{"bike_id":"f675b702-73f1-40c0-8188-e4784f2816f9","system_id":"levelo_inurba_marseille","lat":43.322872,"lon":5.382756,"is_reserved":false,"is_disabled":false,"rental_uris":{"android":"levelo://app?vid=f675b702-73f1-40c0-8188-e4784f2816f9","ios":"levelo://app?vid=f675b702-73f1-40c0-8188-e4784f2816f9"},"vehicle_type_id":"4","last_reported":1705431954,"current_range_meters":31200,"station_id":"ce4bhr12rcd13ifvqhqg","pricing_plan_id":"free"},{"bike_id":"98c634c7-bdbe-4fde-8a9e-66ae5ba58bf4","system_id":"levelo_inurba_marseille","lat":43.322872,"lon":5.382756,"is_reserved":false,"is_disabled":false,"rental_uris":{"android":"levelo://app?vid=98c634c7-bdbe-4fde-8a9e-66ae5ba58bf4","ios":"levelo://app?vid=98c634c7-bdbe-4fde-8a9e-66ae5ba58bf4"},"vehicle_type_id":"4","last_reported":1705431954,"current_range_meters":23200,"station_id":"ce4bhr12rcd13ifvqhqg","pricing_plan_id":"free"},{"bike_id":"eb82efee-7e46-4cef-a643-d731882b95f4","system_id":"levelo_inurba_marseille","lat":43.328217,"lon":5.36677,"is_reserved":false,"is_disabled":false,"rental_uris":{"android":"levelo://app?vid=eb82efee-7e46-4cef-a643-d731882b95f4","ios":"levelo://app?vid=eb82efee-7e46-4cef-a643-d731882b95f4"},"vehicle_type_id":"4","last_reported":1705431954,"current_range_meters":13600,"station_id":"ce4bhs92rcd13ifvqi0g","pricing_plan_id":"free"},{"bike_id":"02f97db8-1e1e-4f38-89f3-11868234f7c3","system_id":"levelo_inurba_marseille","lat":43.328267,"lon":5.366747,"is_reserved":false,"is_disabled":false,"rental_uris":{"android":"levelo://app?vid=02f97db8-1e1e-4f38-89f3-11868234f7c3","ios":"levelo://app?vid=02f97db8-1e1e-4f38-89f3-11868234f7c3"},"vehicle_type_id":"4","last_reported":1705431954,"current_range_meters":21200,"station_id":"ce4bhs92rcd13ifvqi0g","pricing_plan_id":"free"},{"bike_id":"d8681efd-1708-409a-ac48-2cd4f14c5861","system_id":"levelo_inurba_marseille","lat":43.32828,"lon":5.36687,"is_reserved":false,"is_disabled":false,"rental_uris":{"android":"levelo://app?vid=d8681efd-1708-409a-ac48-2cd4f14c5861","ios":"levelo://app?vid=d8681efd-1708-409a-ac48-2cd4f14c5861"},"vehicle_type_id":"4","last_reported":1705431954,"current_range_meters":19200,"station_id":"ce4bhs92rcd13ifvqi0g","pricing_plan_id":"free"},{"bike_id":"947a5c0b-0299-4cd2-aecd-5f351114aaf8","system_id":"levelo_inurba_marseille","lat":43.32828,"lon":5.36678,"is_reserved":false,"is_disabled":false,"rental_uris":{"android":"levelo://app?vid=947a5c0b-0299-4cd2-aecd-5f351114aaf8","ios":"levelo://app?vid=947a5c0b-0299-4cd2-aecd-5f351114aaf8"},"vehicle_type_id":"4","last_reported":1705431954,"current_range_meters":25200,"station_id":"ce4bhs92rcd13ifvqi0g","pricing_plan_id":"free"},{"bike_id":"8463d0da-e03a-4a02-8a84-4dd7b137838e","system_id":"levelo_inurba_marseille","lat":43.32828,"lon":5.36677,"is_reserved":false,"is_disabled":false,"rental_uris":{"android":"levelo://app?vid=8463d0da-e03a-4a02-8a84-4dd7b137838e","ios":"levelo://app?vid=8463d0da-e03a-4a02-8a84-4dd7b137838e"},"vehicle_type_id":"4","last_reported":1705431954,"current_range_meters":24000,"station_id":"ce4bhs92rcd13ifvqi0g","pricing_plan_id":"free"},{"bike_id":"85cedcff-9e9a-415d-8415-195178ea3cb7","system_id":"levelo_inurba_marseille","lat":43.328281,"lon":5.366814,"is_reserved":false,"is_disabled":false,"rental_uris":{"android":"levelo://app?vid=85cedcff-9e9a-415d-8415-195178ea3cb7","ios":"levelo://app?vid=85cedcff-9e9a-415d-8415-195178ea3cb7"},"vehicle_type_id":"4","last_reported":1705431954,"current_range_meters":24000,"station_id":"ce4bhs92rcd13ifvqi0g","pricing_plan_id":"free"},{"bike_id":"1782ad4d-7cbc-4ac0-af82-b65688e9d34c","system_id":"levelo_inurba_marseille","lat":43.328281,"lon":5.366896,"is_reserved":false,"is_disabled":false,"rental_uris":{"android":"levelo://app?vid=1782ad4d-7cbc-4ac0-af82-b65688e9d34c","ios":"levelo://app?vid=1782ad4d-7cbc-4ac0-af82-b65688e9d34c"},"vehicle_type_id":"4","last_reported":1705431954,"current_range_meters":29200,"station_id":"ce4bhs92rcd13ifvqi0g","pricing_plan_id":"free"},{"bike_id":"6b4ea496-3016-42db-af64-ba8beb6e73fc","system_id":"levelo_inurba_marseille","lat":43.328371,"lon":5.366909,"is_reserved":false,"is_disabled":false,"rental_uris":{"android":"levelo://app?vid=6b4ea496-3016-42db-af64-ba8beb6e73fc","ios":"levelo://app?vid=6b4ea496-3016-42db-af64-ba8beb6e73fc"},"vehicle_type_id":"4","last_reported":1705431954,"current_range_meters":28000,"station_id":"ce4bhs92rcd13ifvqi0g","pricing_plan_id":"free"},{"bike_id":"88638e12-da12-4596-b7e2-600ab2f62219","system_id":"levelo_inurba_marseille","lat":43.328284,"lon":5.366748,"is_reserved":false,"is_disabled":false,"rental_uris":{"android":"levelo://app?vid=88638e12-da12-4596-b7e2-600ab2f62219","ios":"levelo://app?vid=88638e12-da12-4596-b7e2-600ab2f62219"},"vehicle_type_id":"4","last_reported":1705431954,"current_range_meters":14000,"station_id":"ce4bhs92rcd13ifvqi0g","pricing_plan_id":"free"},{"bike_id":"9e10fca8-afff-413a-a971-97b89741c75b","system_id":"levelo_inurba_marseille","lat":43.328286,"lon":5.366774,"is_reserved":false,"is_disabled":false,"rental_uris":{"android":"levelo://app?vid=9e10fca8-afff-413a-a971-97b89741c75b","ios":"levelo://app?vid=9e10fca8-afff-413a-a971-97b89741c75b"},"vehicle_type_id":"4","last_reported":1705431954,"current_range_meters":12800,"station_id":"ce4bhs92rcd13ifvqi0g","pricing_plan_id":"free"},{"bike_id":"ea0178f3-2c6b-4af6-b062-91b0b8dde1df","system_id":"levelo_inurba_marseille","lat":43.328288,"lon":5.366803,"is_reserved":false,"is_disabled":false,"rental_uris":{"android":"levelo://app?vid=ea0178f3-2c6b-4af6-b062-91b0b8dde1df","ios":"levelo://app?vid=ea0178f3-2c6b-4af6-b062-91b0b8dde1df"},"vehicle_type_id":"4","last_reported":1705431954,"current_range_meters":10400,"station_id":"ce4bhs92rcd13ifvqi0g","pricing_plan_id":"free"},{"bike_id":"d6e71fc0-c662-46a4-9ce2-a4da97cef68b","system_id":"levelo_inurba_marseille","lat":43.32829,"lon":5.366793,"is_reserved":false,"is_disabled":false,"rental_uris":{"android":"levelo://app?vid=d6e71fc0-c662-46a4-9ce2-a4da97cef68b","ios":"levelo://app?vid=d6e71fc0-c662-46a4-9ce2-a4da97cef68b"},"vehicle_type_id":"4","last_reported":1705431954,"current_range_meters":19600,"station_id":"ce4bhs92rcd13ifvqi0g","pricing_plan_id":"free"},{"bike_id":"09621f87-561a-4138-9bcf-5568c59432a9","system_id":"levelo_inurba_marseille","lat":43.32829,"lon":5.36686,"is_reserved":false,"is_disabled":false,"rental_uris":{"android":"levelo://app?vid=09621f87-561a-4138-9bcf-5568c59432a9","ios":"levelo://app?vid=09621f87-561a-4138-9bcf-5568c59432a9"},"vehicle_type_id":"4","last_reported":1705431954,"current_range_meters":4400,"station_id":"ce4bhs92rcd13ifvqi0g","pricing_plan_id":"free"},{"bike_id":"9cda7071-0b99-4f13-a66f-99ee8455accb","system_id":"levelo_inurba_marseille","lat":43.32829,"lon":5.366749,"is_reserved":false,"is_disabled":false,"rental_uris":{"android":"levelo://app?vid=9cda7071-0b99-4f13-a66f-99ee8455accb","ios":"levelo://app?vid=9cda7071-0b99-4f13-a66f-99ee8455accb"},"vehicle_type_id":"4","last_reported":1705431954,"current_range_meters":22000,"station_id":"ce4bhs92rcd13ifvqi0g","pricing_plan_id":"free"},{"bike_id":"be5c14c2-d069-4824-b2b4-323fba6ab1b5","system_id":"levelo_inurba_marseille","lat":43.328305,"lon":5.366795,"is_reserved":false,"is_disabled":false,"rental_uris":{"android":"levelo://app?vid=be5c14c2-d069-4824-b2b4-323fba6ab1b5","ios":"levelo://app?vid=be5c14c2-d069-4824-b2b4-323fba6ab1b5"},"vehicle_type_id":"4","last_reported":1705431954,"current_range_meters":8800,"station_id":"ce4bhs92rcd13ifvqi0g","pricing_plan_id":"free"},{"bike_id":"db79623b-2d08-46cb-b464-e412386772a7","system_id":"levelo_inurba_marseille","lat":43.328307,"lon":5.366757,"is_reserved":false,"is_disabled":false,"rental_uris":{"android":"levelo://app?vid=db79623b-2d08-46cb-b464-e412386772a7","ios":"levelo://app?vid=db79623b-2d08-46cb-b464-e412386772a7"},"vehicle_type_id":"4","last_reported":1705431954,"current_range_meters":31200,"station_id":"ce4bhs92rcd13ifvqi0g","pricing_plan_id":"free"},{"bike_id":"641739e6-19de-47df-9491-35da26c3c9da","system_id":"levelo_inurba_marseille","lat":43.328371,"lon":5.366909,"is_reserved":false,"is_disabled":false,"rental_uris":{"android":"levelo://app?vid=641739e6-19de-47df-9491-35da26c3c9da","ios":"levelo://app?vid=641739e6-19de-47df-9491-35da26c3c9da"},"vehicle_type_id":"4","last_reported":1705431954,"current_range_meters":5200,"station_id":"ce4bhs92rcd13ifvqi0g","pricing_plan_id":"free"},{"bike_id":"38082c03-fac1-44d3-a79f-5142b4a113a9","system_id":"levelo_inurba_marseille","lat":43.328373,"lon":5.366902,"is_reserved":false,"is_disabled":false,"rental_uris":{"android":"levelo://app?vid=38082c03-fac1-44d3-a79f-5142b4a113a9","ios":"levelo://app?vid=38082c03-fac1-44d3-a79f-5142b4a113a9"},"vehicle_type_id":"4","last_reported":1705431954,"current_range_meters":26800,"station_id":"ce4bhs92rcd13ifvqi0g","pricing_plan_id":"free"},{"bike_id":"b0a8a98d-62bb-466b-9820-9f9a5080d0d8","system_id":"levelo_inurba_marseille","lat":43.2968,"lon":5.37291,"is_reserved":false,"is_disabled":false,"rental_uris":{"android":"levelo://app?vid=b0a8a98d-62bb-466b-9820-9f9a5080d0d8","ios":"levelo://app?vid=b0a8a98d-62bb-466b-9820-9f9a5080d0d8"},"vehicle_type_id":"4","last_reported":1705431954,"current_range_meters":10800,"station_id":"ce4bgk12rcd13ifvqbj0","pricing_plan_id":"free"},{"bike_id":"d91bc121-ba03-4a79-af47-a3f48344b0c9","system_id":"levelo_inurba_marseille","lat":43.295953,"lon":5.36791,"is_reserved":false,"is_disabled":false,"rental_uris":{"android":"levelo://app?vid=d91bc121-ba03-4a79-af47-a3f48344b0c9","ios":"levelo://app?vid=d91bc121-ba03-4a79-af47-a3f48344b0c9"},"vehicle_type_id":"4","last_reported":1705431954,"current_range_meters":24000,"station_id":"ce4bgph2rcd13ifvqc2g","pricing_plan_id":"free"},{"bike_id":"3d8b657b-78e9-4261-9ac9-e8ba06b7056b","system_id":"levelo_inurba_marseille","lat":43.29733,"lon":5.37687,"is_reserved":false,"is_disabled":false,"rental_uris":{"android":"levelo://app?vid=3d8b657b-78e9-4261-9ac9-e8ba06b7056b","ios":"levelo://app?vid=3d8b657b-78e9-4261-9ac9-e8ba06b7056b"},"vehicle_type_id":"4","last_reported":1705431954,"current_range_meters":0,"station_id":"ce4bgkh2rcd13ifvqbl0","pricing_plan_id":"free"},{"bike_id":"1680188b-a868-4b6f-b276-df92676089da","system_id":"levelo_inurba_marseille","lat":43.299028,"lon":5.381509,"is_reserved":false,"is_disabled":false,"rental_uris":{"android":"levelo://app?vid=1680188b-a868-4b6f-b276-df92676089da","ios":"levelo://app?vid=1680188b-a868-4b6f-b276-df92676089da"},"vehicle_type_id":"4","last_reported":1705431954,"current_range_meters":6800,"station_id":"ce4bgj12rcd13ifvqbc0","pricing_plan_id":"free"},{"bike_id":"b81e7717-9409-40c7-999f-d1db0de84dcc","system_id":"levelo_inurba_marseille","lat":43.299028,"lon":5.381509,"is_reserved":false,"is_disabled":false,"rental_uris":{"android":"levelo://app?vid=b81e7717-9409-40c7-999f-d1db0de84dcc","ios":"levelo://app?vid=b81e7717-9409-40c7-999f-d1db0de84dcc"},"vehicle_type_id":"4","last_reported":1705431954,"current_range_meters":24800,"station_id":"ce4bgj12rcd13ifvqbc0","pricing_plan_id":"free"},{"bike_id":"7a97bd87-a4c9-4d4d-9361-6c80ea25d94c","system_id":"levelo_inurba_marseille","lat":43.317557,"lon":5.390173,"is_reserved":false,"is_disabled":false,"rental_uris":{"android":"levelo://app?vid=7a97bd87-a4c9-4d4d-9361-6c80ea25d94c","ios":"levelo://app?vid=7a97bd87-a4c9-4d4d-9361-6c80ea25d94c"},"vehicle_type_id":"4","last_reported":1705431954,"current_range_meters":31200,"station_id":"ce4bhqp2rcd13ifvqhng","pricing_plan_id":"free"},{"bike_id":"b1579a07-cb83-46d0-9072-ae6db8dfc285","system_id":"levelo_inurba_marseille","lat":43.317557,"lon":5.390173,"is_reserved":false,"is_disabled":false,"rental_uris":{"android":"levelo://app?vid=b1579a07-cb83-46d0-9072-ae6db8dfc285","ios":"levelo://app?vid=b1579a07-cb83-46d0-9072-ae6db8dfc285"},"vehicle_type_id":"4","last_reported":1705431954,"current_range_meters":24400,"station_id":"ce4bhqp2rcd13ifvqhng","pricing_plan_id":"free"},{"bike_id":"d612bae1-c070-43a3-a3a7-6b280705cec2","system_id":"levelo_inurba_marseille","lat":43.304274,"lon":5.388873,"is_reserved":false,"is_disabled":false,"rental_uris":{"android":"levelo://app?vid=d612bae1-c070-43a3-a3a7-6b280705cec2","ios":"levelo://app?vid=d612bae1-c070-43a3-a3a7-6b280705cec2"},"vehicle_type_id":"4","last_reported":1705431954,"current_range_meters":22000,"station_id":"ce4bgk12rcd13ifvqbi0","pricing_plan_id":"free"},{"bike_id":"3da41e1e-3f6c-41cd-93fd-1ec44d5db21e","system_id":"levelo_inurba_marseille","lat":43.295748,"lon":5.37522,"is_reserved":false,"is_disabled":false,"rental_uris":{"android":"levelo://app?vid=3da41e1e-3f6c-41cd-93fd-1ec44d5db21e","ios":"levelo://app?vid=3da41e1e-3f6c-41cd-93fd-1ec44d5db21e"},"vehicle_type_id":"4","last_reported":1705431954,"current_range_meters":10800,"station_id":"ce4bgh92rcd13ifvqb50","pricing_plan_id":"free"},{"bike_id":"356fd234-d9d1-4989-982a-752a6c970104","system_id":"levelo_inurba_marseille","lat":43.304278,"lon":5.388868,"is_reserved":false,"is_disabled":false,"rental_uris":{"android":"levelo://app?vid=356fd234-d9d1-4989-982a-752a6c970104","ios":"levelo://app?vid=356fd234-d9d1-4989-982a-752a6c970104"},"vehicle_type_id":"4","last_reported":1705431954,"current_range_meters":15600,"station_id":"ce4bgk12rcd13ifvqbi0","pricing_plan_id":"free"},{"bike_id":"60c47ae0-1da0-4409-b44e-02ff22fb9d5b","system_id":"levelo_inurba_marseille","lat":43.29783,"lon":5.38084,"is_reserved":false,"is_disabled":false,"rental_uris":{"android":"levelo://app?vid=60c47ae0-1da0-4409-b44e-02ff22fb9d5b","ios":"levelo://app?vid=60c47ae0-1da0-4409-b44e-02ff22fb9d5b"},"vehicle_type_id":"4","last_reported":1705431954,"current_range_meters":0,"station_id":"ce4bgip2rcd13ifvqbb0","pricing_plan_id":"free"},{"bike_id":"04e908c1-727e-410b-a059-0203613176e1","system_id":"levelo_inurba_marseille","lat":43.304278,"lon":5.388868,"is_reserved":false,"is_disabled":false,"rental_uris":{"android":"levelo://app?vid=04e908c1-727e-410b-a059-0203613176e1","ios":"levelo://app?vid=04e908c1-727e-410b-a059-0203613176e1"},"vehicle_type_id":"4","last_reported":1705431954,"current_range_meters":20000,"station_id":"ce4bgk12rcd13ifvqbi0","pricing_plan_id":"free"},{"bike_id":"09cd9af3-b417-4fbd-abd8-76b9b319b221","system_id":"levelo_inurba_marseille","lat":43.295748,"lon":5.37522,"is_reserved":false,"is_disabled":false,"rental_uris":{"android":"levelo://app?vid=09cd9af3-b417-4fbd-abd8-76b9b319b221","ios":"levelo://app?vid=09cd9af3-b417-4fbd-abd8-76b9b319b221"},"vehicle_type_id":"4","last_reported":1705431954,"current_range_meters":0,"station_id":"ce4bgh92rcd13ifvqb50","pricing_plan_id":"free"},{"bike_id":"e8c4e4b9-86a1-49ba-bbd7-4a4a25991ccb","system_id":"levelo_inurba_marseille","lat":43.299707,"lon":5.384859,"is_reserved":false,"is_disabled":false,"rental_uris":{"android":"levelo://app?vid=e8c4e4b9-86a1-49ba-bbd7-4a4a25991ccb","ios":"levelo://app?vid=e8c4e4b9-86a1-49ba-bbd7-4a4a25991ccb"},"vehicle_type_id":"4","last_reported":1705431954,"current_range_meters":28400,"station_id":"ce4bgj92rcd13ifvqbd0","pricing_plan_id":"free"},{"bike_id":"31f292c3-a0c0-47b7-84b9-e581a7e5bd8b","system_id":"levelo_inurba_marseille","lat":43.299724,"lon":5.384848,"is_reserved":false,"is_disabled":false,"rental_uris":{"android":"levelo://app?vid=31f292c3-a0c0-47b7-84b9-e581a7e5bd8b","ios":"levelo://app?vid=31f292c3-a0c0-47b7-84b9-e581a7e5bd8b"},"vehicle_type_id":"4","last_reported":1705431954,"current_range_meters":0,"station_id":"ce4bgj92rcd13ifvqbd0","pricing_plan_id":"free"},{"bike_id":"56cf17f6-3d1a-4178-a877-dfbf5f626451","system_id":"levelo_inurba_marseille","lat":43.299707,"lon":5.384859,"is_reserved":false,"is_disabled":false,"rental_uris":{"android":"levelo://app?vid=56cf17f6-3d1a-4178-a877-dfbf5f626451","ios":"levelo://app?vid=56cf17f6-3d1a-4178-a877-dfbf5f626451"},"vehicle_type_id":"4","last_reported":1705431954,"current_range_meters":4400,"station_id":"ce4bgj92rcd13ifvqbd0","pricing_plan_id":"free"},{"bike_id":"4016d451-3a58-45cd-a2b8-3a31bf41a780","system_id":"levelo_inurba_marseille","lat":43.299717,"lon":5.384845,"is_reserved":false,"is_disabled":false,"rental_uris":{"android":"levelo://app?vid=4016d451-3a58-45cd-a2b8-3a31bf41a780","ios":"levelo://app?vid=4016d451-3a58-45cd-a2b8-3a31bf41a780"},"vehicle_type_id":"4","last_reported":1705431954,"current_range_meters":21600,"station_id":"ce4bgj92rcd13ifvqbd0","pricing_plan_id":"free"},{"bike_id":"a5c56c60-055e-4919-8531-632efc424a20","system_id":"levelo_inurba_marseille","lat":43.299717,"lon":5.384845,"is_reserved":false,"is_disabled":false,"rental_uris":{"android":"levelo://app?vid=a5c56c60-055e-4919-8531-632efc424a20","ios":"levelo://app?vid=a5c56c60-055e-4919-8531-632efc424a20"},"vehicle_type_id":"4","last_reported":1705431954,"current_range_meters":17600,"station_id":"ce4bgj92rcd13ifvqbd0","pricing_plan_id":"free"},{"bike_id":"784699dd-0fdc-4e64-b142-24a36ebfd3c6","system_id":"levelo_inurba_marseille","lat":43.29961,"lon":5.38525,"is_reserved":false,"is_disabled":false,"rental_uris":{"android":"levelo://app?vid=784699dd-0fdc-4e64-b142-24a36ebfd3c6","ios":"levelo://app?vid=784699dd-0fdc-4e64-b142-24a36ebfd3c6"},"vehicle_type_id":"4","last_reported":1705431954,"current_range_meters":2400,"station_id":"ce4bgj92rcd13ifvqbd0","pricing_plan_id":"free"},{"bike_id":"33788cc1-a778-45f8-be13-0999bc971653","system_id":"levelo_inurba_marseille","lat":43.32365,"lon":5.38878,"is_reserved":false,"is_disabled":false,"rental_uris":{"android":"levelo://app?vid=33788cc1-a778-45f8-be13-0999bc971653","ios":"levelo://app?vid=33788cc1-a778-45f8-be13-0999bc971653"},"vehicle_type_id":"4","last_reported":1705431954,"current_range_meters":28400,"station_id":"ce4bhqp2rcd13ifvqhog","pricing_plan_id":"free"},{"bike_id":"a4eeb908-619b-47fe-8e5b-c4c9538b360a","system_id":"levelo_inurba_marseille","lat":43.32364,"lon":5.38879,"is_reserved":false,"is_disabled":false,"rental_uris":{"android":"levelo://app?vid=a4eeb908-619b-47fe-8e5b-c4c9538b360a","ios":"levelo://app?vid=a4eeb908-619b-47fe-8e5b-c4c9538b360a"},"vehicle_type_id":"4","last_reported":1705431954,"current_range_meters":13200,"station_id":"ce4bhqp2rcd13ifvqhog","pricing_plan_id":"free"},{"bike_id":"93a7541d-594c-4713-9c37-84d0b76dd655","system_id":"levelo_inurba_marseille","lat":43.32363,"lon":5.38883,"is_reserved":false,"is_disabled":false,"rental_uris":{"android":"levelo://app?vid=93a7541d-594c-4713-9c37-84d0b76dd655","ios":"levelo://app?vid=93a7541d-594c-4713-9c37-84d0b76dd655"},"vehicle_type_id":"4","last_reported":1705431954,"current_range_meters":23200,"station_id":"ce4bhqp2rcd13ifvqhog","pricing_plan_id":"free"},{"bike_id":"a90e87df-2bac-4bf9-957b-70605969781d","system_id":"levelo_inurba_marseille","lat":43.323638,"lon":5.388848,"is_reserved":false,"is_disabled":false,"rental_uris":{"android":"levelo://app?vid=a90e87df-2bac-4bf9-957b-70605969781d","ios":"levelo://app?vid=a90e87df-2bac-4bf9-957b-70605969781d"},"vehicle_type_id":"4","last_reported":1705431954,"current_range_meters":3600,"station_id":"ce4bhqp2rcd13ifvqhog","pricing_plan_id":"free"},{"bike_id":"ae329723-b6cd-4f52-99af-83cccf370dd2","system_id":"levelo_inurba_marseille","lat":43.32367,"lon":5.388836,"is_reserved":false,"is_disabled":false,"rental_uris":{"android":"levelo://app?vid=ae329723-b6cd-4f52-99af-83cccf370dd2","ios":"levelo://app?vid=ae329723-b6cd-4f52-99af-83cccf370dd2"},"vehicle_type_id":"4","last_reported":1705431954,"current_range_meters":14800,"station_id":"ce4bhqp2rcd13ifvqhog","pricing_plan_id":"free"},{"bike_id":"48d01839-1c06-4604-a1d2-ae1f8bd3df35","system_id":"levelo_inurba_marseille","lat":43.32367,"lon":5.388836,"is_reserved":false,"is_disabled":false,"rental_uris":{"android":"levelo://app?vid=48d01839-1c06-4604-a1d2-ae1f8bd3df35","ios":"levelo://app?vid=48d01839-1c06-4604-a1d2-ae1f8bd3df35"},"vehicle_type_id":"4","last_reported":1705431954,"current_range_meters":19200,"station_id":"ce4bhqp2rcd13ifvqhog","pricing_plan_id":"free"},{"bike_id":"4ed8488a-f05c-4119-bfec-f892cce04e14","system_id":"levelo_inurba_marseille","lat":43.323649,"lon":5.388869,"is_reserved":false,"is_disabled":false,"rental_uris":{"android":"levelo://app?vid=4ed8488a-f05c-4119-bfec-f892cce04e14","ios":"levelo://app?vid=4ed8488a-f05c-4119-bfec-f892cce04e14"},"vehicle_type_id":"4","last_reported":1705431954,"current_range_meters":3200,"station_id":"ce4bhqp2rcd13ifvqhog","pricing_plan_id":"free"},{"bike_id":"2ec4001f-5cf2-4614-bbfc-ffc6c5b765c3","system_id":"levelo_inurba_marseille","lat":43.323654,"lon":5.388891,"is_reserved":false,"is_disabled":false,"rental_uris":{"android":"levelo://app?vid=2ec4001f-5cf2-4614-bbfc-ffc6c5b765c3","ios":"levelo://app?vid=2ec4001f-5cf2-4614-bbfc-ffc6c5b765c3"},"vehicle_type_id":"4","last_reported":1705431954,"current_range_meters":28000,"station_id":"ce4bhqp2rcd13ifvqhog","pricing_plan_id":"free"},{"bike_id":"65200528-92c8-43dc-a28c-65f22643d5f6","system_id":"levelo_inurba_marseille","lat":43.323674,"lon":5.388883,"is_reserved":false,"is_disabled":false,"rental_uris":{"android":"levelo://app?vid=65200528-92c8-43dc-a28c-65f22643d5f6","ios":"levelo://app?vid=65200528-92c8-43dc-a28c-65f22643d5f6"},"vehicle_type_id":"4","last_reported":1705431954,"current_range_meters":14400,"station_id":"ce4bhqp2rcd13ifvqhog","pricing_plan_id":"free"},{"bike_id":"b7beb6a5-b030-4fe2-a25b-ee6b5b88bebb","system_id":"levelo_inurba_marseille","lat":43.32372,"lon":5.38888,"is_reserved":false,"is_disabled":false,"rental_uris":{"android":"levelo://app?vid=b7beb6a5-b030-4fe2-a25b-ee6b5b88bebb","ios":"levelo://app?vid=b7beb6a5-b030-4fe2-a25b-ee6b5b88bebb"},"vehicle_type_id":"4","last_reported":1705431954,"current_range_meters":2000,"station_id":"ce4bhqp2rcd13ifvqhog","pricing_plan_id":"free"},{"bike_id":"77d299e6-e6a7-4803-adf1-92340e51cd61","system_id":"levelo_inurba_marseille","lat":43.29602,"lon":5.381084,"is_reserved":false,"is_disabled":false,"rental_uris":{"android":"levelo://app?vid=77d299e6-e6a7-4803-adf1-92340e51cd61","ios":"levelo://app?vid=77d299e6-e6a7-4803-adf1-92340e51cd61"},"vehicle_type_id":"4","last_reported":1705431954,"current_range_meters":6000,"station_id":"ce4bgl12rcd13ifvqbo0","pricing_plan_id":"free"},{"bike_id":"dd9bec4f-7fce-4e11-bda2-f721128a20fb","system_id":"levelo_inurba_marseille","lat":43.292749,"lon":5.368402,"is_reserved":false,"is_disabled":false,"rental_uris":{"android":"levelo://app?vid=dd9bec4f-7fce-4e11-bda2-f721128a20fb","ios":"levelo://app?vid=dd9bec4f-7fce-4e11-bda2-f721128a20fb"},"vehicle_type_id":"4","last_reported":1705431954,"current_range_meters":29600,"station_id":"ce4bhbp2rcd13ifvqesg","pricing_plan_id":"free"},{"bike_id":"48e514f3-a72c-42ac-9129-a284f9ef52ea","system_id":"levelo_inurba_marseille","lat":43.293259,"lon":5.371586,"is_reserved":false,"is_disabled":false,"rental_uris":{"android":"levelo://app?vid=48e514f3-a72c-42ac-9129-a284f9ef52ea","ios":"levelo://app?vid=48e514f3-a72c-42ac-9129-a284f9ef52ea"},"vehicle_type_id":"4","last_reported":1705431954,"current_range_meters":31200,"station_id":"ce4bgh92rcd13ifvqb40","pricing_plan_id":"free"},{"bike_id":"37ba80ec-d5f9-41f0-b4b1-c81ace744f2a","system_id":"levelo_inurba_marseille","lat":43.293259,"lon":5.371586,"is_reserved":false,"is_disabled":false,"rental_uris":{"android":"levelo://app?vid=37ba80ec-d5f9-41f0-b4b1-c81ace744f2a","ios":"levelo://app?vid=37ba80ec-d5f9-41f0-b4b1-c81ace744f2a"},"vehicle_type_id":"4","last_reported":1705431954,"current_range_meters":14400,"station_id":"ce4bgh92rcd13ifvqb40","pricing_plan_id":"free"},{"bike_id":"d676ba1e-c23c-4574-af9f-0652bff08bf0","system_id":"levelo_inurba_marseille","lat":43.292749,"lon":5.368402,"is_reserved":false,"is_disabled":false,"rental_uris":{"android":"levelo://app?vid=d676ba1e-c23c-4574-af9f-0652bff08bf0","ios":"levelo://app?vid=d676ba1e-c23c-4574-af9f-0652bff08bf0"},"vehicle_type_id":"4","last_reported":1705431954,"current_range_meters":20000,"station_id":"ce4bhbp2rcd13ifvqesg","pricing_plan_id":"free"},{"bike_id":"333a227b-6758-4832-b3ae-d01cce49a19a","system_id":"levelo_inurba_marseille","lat":43.292749,"lon":5.368402,"is_reserved":false,"is_disabled":false,"rental_uris":{"android":"levelo://app?vid=333a227b-6758-4832-b3ae-d01cce49a19a","ios":"levelo://app?vid=333a227b-6758-4832-b3ae-d01cce49a19a"},"vehicle_type_id":"4","last_reported":1705431954,"current_range_meters":2400,"station_id":"ce4bhbp2rcd13ifvqesg","pricing_plan_id":"free"},{"bike_id":"9b6a0e45-fa92-43aa-8af8-dadacc0dbe64","system_id":"levelo_inurba_marseille","lat":43.292749,"lon":5.368402,"is_reserved":false,"is_disabled":false,"rental_uris":{"android":"levelo://app?vid=9b6a0e45-fa92-43aa-8af8-dadacc0dbe64","ios":"levelo://app?vid=9b6a0e45-fa92-43aa-8af8-dadacc0dbe64"},"vehicle_type_id":"4","last_reported":1705431954,"current_range_meters":29200,"station_id":"ce4bhbp2rcd13ifvqesg","pricing_plan_id":"free"},{"bike_id":"1e616b56-dd61-440d-ba64-51cdd0eb7196","system_id":"levelo_inurba_marseille","lat":43.293259,"lon":5.371586,"is_reserved":false,"is_disabled":false,"rental_uris":{"android":"levelo://app?vid=1e616b56-dd61-440d-ba64-51cdd0eb7196","ios":"levelo://app?vid=1e616b56-dd61-440d-ba64-51cdd0eb7196"},"vehicle_type_id":"4","last_reported":1705431954,"current_range_meters":14000,"station_id":"ce4bgh92rcd13ifvqb40","pricing_plan_id":"free"},{"bike_id":"3fcb2e01-ac0b-41fe-bbd6-9c40d66e4e05","system_id":"levelo_inurba_marseille","lat":43.292749,"lon":5.368402,"is_reserved":false,"is_disabled":false,"rental_uris":{"android":"levelo://app?vid=3fcb2e01-ac0b-41fe-bbd6-9c40d66e4e05","ios":"levelo://app?vid=3fcb2e01-ac0b-41fe-bbd6-9c40d66e4e05"},"vehicle_type_id":"4","last_reported":1705431954,"current_range_meters":5200,"station_id":"ce4bhbp2rcd13ifvqesg","pricing_plan_id":"free"},{"bike_id":"e6c619cc-d150-445c-a9e4-4f99805ccd89","system_id":"levelo_inurba_marseille","lat":43.292749,"lon":5.368402,"is_reserved":false,"is_disabled":false,"rental_uris":{"android":"levelo://app?vid=e6c619cc-d150-445c-a9e4-4f99805ccd89","ios":"levelo://app?vid=e6c619cc-d150-445c-a9e4-4f99805ccd89"},"vehicle_type_id":"4","last_reported":1705431954,"current_range_meters":13200,"station_id":"ce4bhbp2rcd13ifvqesg","pricing_plan_id":"free"},{"bike_id":"d6405030-6ce4-43f1-97fc-887012d4b169","system_id":"levelo_inurba_marseille","lat":43.293259,"lon":5.371586,"is_reserved":false,"is_disabled":false,"rental_uris":{"android":"levelo://app?vid=d6405030-6ce4-43f1-97fc-887012d4b169","ios":"levelo://app?vid=d6405030-6ce4-43f1-97fc-887012d4b169"},"vehicle_type_id":"4","last_reported":1705431954,"current_range_meters":14400,"station_id":"ce4bgh92rcd13ifvqb40","pricing_plan_id":"free"},{"bike_id":"490938a1-d3b8-44cc-b3da-9b32a0dae847","system_id":"levelo_inurba_marseille","lat":43.293009,"lon":5.374584,"is_reserved":false,"is_disabled":false,"rental_uris":{"android":"levelo://app?vid=490938a1-d3b8-44cc-b3da-9b32a0dae847","ios":"levelo://app?vid=490938a1-d3b8-44cc-b3da-9b32a0dae847"},"vehicle_type_id":"4","last_reported":1705431954,"current_range_meters":3600,"station_id":"ce4bgi12rcd13ifvqb70","pricing_plan_id":"free"},{"bike_id":"33cd7253-1040-42f6-bd37-da4d6df3a0eb","system_id":"levelo_inurba_marseille","lat":43.305994,"lon":5.393687,"is_reserved":false,"is_disabled":false,"rental_uris":{"android":"levelo://app?vid=33cd7253-1040-42f6-bd37-da4d6df3a0eb","ios":"levelo://app?vid=33cd7253-1040-42f6-bd37-da4d6df3a0eb"},"vehicle_type_id":"4","last_reported":1705431954,"current_range_meters":4000,"station_id":"ce4bh0p2rcd13ifvqd80","pricing_plan_id":"free"},{"bike_id":"765d01d5-32bf-4ed3-a6e8-2608dac2010f","system_id":"levelo_inurba_marseille","lat":43.302992,"lon":5.392136,"is_reserved":false,"is_disabled":false,"rental_uris":{"android":"levelo://app?vid=765d01d5-32bf-4ed3-a6e8-2608dac2010f","ios":"levelo://app?vid=765d01d5-32bf-4ed3-a6e8-2608dac2010f"},"vehicle_type_id":"4","last_reported":1705431954,"current_range_meters":18000,"station_id":"ce4bgkh2rcd13ifvqbk0","pricing_plan_id":"free"},{"bike_id":"684a22f9-3876-476d-9192-77650fdbd74f","system_id":"levelo_inurba_marseille","lat":43.302992,"lon":5.392136,"is_reserved":false,"is_disabled":false,"rental_uris":{"android":"levelo://app?vid=684a22f9-3876-476d-9192-77650fdbd74f","ios":"levelo://app?vid=684a22f9-3876-476d-9192-77650fdbd74f"},"vehicle_type_id":"4","last_reported":1705431954,"current_range_meters":26800,"station_id":"ce4bgkh2rcd13ifvqbk0","pricing_plan_id":"free"},{"bike_id":"1e09720a-035b-4427-a179-420b6dadcc7e","system_id":"levelo_inurba_marseille","lat":43.303002,"lon":5.392142,"is_reserved":false,"is_disabled":false,"rental_uris":{"android":"levelo://app?vid=1e09720a-035b-4427-a179-420b6dadcc7e","ios":"levelo://app?vid=1e09720a-035b-4427-a179-420b6dadcc7e"},"vehicle_type_id":"4","last_reported":1705431954,"current_range_meters":17200,"station_id":"ce4bgkh2rcd13ifvqbk0","pricing_plan_id":"free"},{"bike_id":"0d157c69-3f39-4e12-9359-6f2e98715307","system_id":"levelo_inurba_marseille","lat":43.302992,"lon":5.392136,"is_reserved":false,"is_disabled":false,"rental_uris":{"android":"levelo://app?vid=0d157c69-3f39-4e12-9359-6f2e98715307","ios":"levelo://app?vid=0d157c69-3f39-4e12-9359-6f2e98715307"},"vehicle_type_id":"4","last_reported":1705431954,"current_range_meters":14800,"station_id":"ce4bgkh2rcd13ifvqbk0","pricing_plan_id":"free"},{"bike_id":"7c78c19b-a96b-40a0-88c4-575940f580a3","system_id":"levelo_inurba_marseille","lat":43.302992,"lon":5.392136,"is_reserved":false,"is_disabled":false,"rental_uris":{"android":"levelo://app?vid=7c78c19b-a96b-40a0-88c4-575940f580a3","ios":"levelo://app?vid=7c78c19b-a96b-40a0-88c4-575940f580a3"},"vehicle_type_id":"4","last_reported":1705431954,"current_range_meters":1200,"station_id":"ce4bgkh2rcd13ifvqbk0","pricing_plan_id":"free"},{"bike_id":"499ef429-e827-4989-bec9-05ab8166cc0c","system_id":"levelo_inurba_marseille","lat":43.2936,"lon":5.37835,"is_reserved":false,"is_disabled":false,"rental_uris":{"android":"levelo://app?vid=499ef429-e827-4989-bec9-05ab8166cc0c","ios":"levelo://app?vid=499ef429-e827-4989-bec9-05ab8166cc0c"},"vehicle_type_id":"4","last_reported":1705431954,"current_range_meters":14800,"station_id":"ce4bgjh2rcd13ifvqbf0","pricing_plan_id":"free"},{"bike_id":"e02a8d63-3b6f-4bc6-a617-bb33e97d9a75","system_id":"levelo_inurba_marseille","lat":43.292311,"lon":5.360731,"is_reserved":false,"is_disabled":false,"rental_uris":{"android":"levelo://app?vid=e02a8d63-3b6f-4bc6-a617-bb33e97d9a75","ios":"levelo://app?vid=e02a8d63-3b6f-4bc6-a617-bb33e97d9a75"},"vehicle_type_id":"4","last_reported":1705431954,"current_range_meters":13600,"station_id":"ce4bhbh2rcd13ifvqeqg","pricing_plan_id":"free"},{"bike_id":"c99a4716-b3aa-4a77-8ad7-a39823ad99a7","system_id":"levelo_inurba_marseille","lat":43.300852,"lon":5.390859,"is_reserved":false,"is_disabled":false,"rental_uris":{"android":"levelo://app?vid=c99a4716-b3aa-4a77-8ad7-a39823ad99a7","ios":"levelo://app?vid=c99a4716-b3aa-4a77-8ad7-a39823ad99a7"},"vehicle_type_id":"4","last_reported":1705431954,"current_range_meters":12000,"station_id":"ce4bh192rcd13ifvqdb0","pricing_plan_id":"free"},{"bike_id":"57f9350d-aeb0-495f-861e-a6b7abea231f","system_id":"levelo_inurba_marseille","lat":43.291675,"lon":5.371583,"is_reserved":false,"is_disabled":false,"rental_uris":{"android":"levelo://app?vid=57f9350d-aeb0-495f-861e-a6b7abea231f","ios":"levelo://app?vid=57f9350d-aeb0-495f-861e-a6b7abea231f"},"vehicle_type_id":"4","last_reported":1705431954,"current_range_meters":1200,"station_id":"ce4bha92rcd13ifvqeh0","pricing_plan_id":"free"},{"bike_id":"b93b9788-c401-44f3-8248-1c48caf61b8e","system_id":"levelo_inurba_marseille","lat":43.309038,"lon":5.396546,"is_reserved":false,"is_disabled":false,"rental_uris":{"android":"levelo://app?vid=b93b9788-c401-44f3-8248-1c48caf61b8e","ios":"levelo://app?vid=b93b9788-c401-44f3-8248-1c48caf61b8e"},"vehicle_type_id":"4","last_reported":1705431954,"current_range_meters":17600,"station_id":"ce4bh012rcd13ifvqcv0","pricing_plan_id":"free"},{"bike_id":"8ba2e180-3a9b-4b8f-b98b-99f6ac819262","system_id":"levelo_inurba_marseille","lat":43.309038,"lon":5.396546,"is_reserved":false,"is_disabled":false,"rental_uris":{"android":"levelo://app?vid=8ba2e180-3a9b-4b8f-b98b-99f6ac819262","ios":"levelo://app?vid=8ba2e180-3a9b-4b8f-b98b-99f6ac819262"},"vehicle_type_id":"4","last_reported":1705431954,"current_range_meters":0,"station_id":"ce4bh012rcd13ifvqcv0","pricing_plan_id":"free"},{"bike_id":"19d12816-9bb0-429e-9f0a-3d3d80084153","system_id":"levelo_inurba_marseille","lat":43.309038,"lon":5.396546,"is_reserved":false,"is_disabled":false,"rental_uris":{"android":"levelo://app?vid=19d12816-9bb0-429e-9f0a-3d3d80084153","ios":"levelo://app?vid=19d12816-9bb0-429e-9f0a-3d3d80084153"},"vehicle_type_id":"4","last_reported":1705431954,"current_range_meters":26400,"station_id":"ce4bh012rcd13ifvqcv0","pricing_plan_id":"free"},{"bike_id":"e4533126-6a51-4285-879d-7645d65234f6","system_id":"levelo_inurba_marseille","lat":43.291949,"lon":5.357984,"is_reserved":false,"is_disabled":false,"rental_uris":{"android":"levelo://app?vid=e4533126-6a51-4285-879d-7645d65234f6","ios":"levelo://app?vid=e4533126-6a51-4285-879d-7645d65234f6"},"vehicle_type_id":"4","last_reported":1705431954,"current_range_meters":30000,"station_id":"","pricing_plan_id":"free"},{"bike_id":"59e060dd-c338-4c5d-a75d-2b574160e859","system_id":"levelo_inurba_marseille","lat":43.313291,"lon":5.396838,"is_reserved":false,"is_disabled":false,"rental_uris":{"android":"levelo://app?vid=59e060dd-c338-4c5d-a75d-2b574160e859","ios":"levelo://app?vid=59e060dd-c338-4c5d-a75d-2b574160e859"},"vehicle_type_id":"4","last_reported":1705431954,"current_range_meters":20000,"station_id":"ce4bgvp2rcd13ifvqcu0","pricing_plan_id":"free"},{"bike_id":"715d0ba2-69c6-4bd1-a265-9ce27bde7ed4","system_id":"levelo_inurba_marseille","lat":43.313291,"lon":5.396838,"is_reserved":false,"is_disabled":false,"rental_uris":{"android":"levelo://app?vid=715d0ba2-69c6-4bd1-a265-9ce27bde7ed4","ios":"levelo://app?vid=715d0ba2-69c6-4bd1-a265-9ce27bde7ed4"},"vehicle_type_id":"4","last_reported":1705431954,"current_range_meters":20400,"station_id":"ce4bgvp2rcd13ifvqcu0","pricing_plan_id":"free"},{"bike_id":"35bb406b-43bc-4254-90fc-93722895f24d","system_id":"levelo_inurba_marseille","lat":43.313291,"lon":5.396838,"is_reserved":false,"is_disabled":false,"rental_uris":{"android":"levelo://app?vid=35bb406b-43bc-4254-90fc-93722895f24d","ios":"levelo://app?vid=35bb406b-43bc-4254-90fc-93722895f24d"},"vehicle_type_id":"4","last_reported":1705431954,"current_range_meters":17600,"station_id":"ce4bgvp2rcd13ifvqcu0","pricing_plan_id":"free"},{"bike_id":"721fddc6-37b2-4bc5-864f-ce9125a4cca7","system_id":"levelo_inurba_marseille","lat":43.313291,"lon":5.396838,"is_reserved":false,"is_disabled":false,"rental_uris":{"android":"levelo://app?vid=721fddc6-37b2-4bc5-864f-ce9125a4cca7","ios":"levelo://app?vid=721fddc6-37b2-4bc5-864f-ce9125a4cca7"},"vehicle_type_id":"4","last_reported":1705431954,"current_range_meters":16400,"station_id":"ce4bgvp2rcd13ifvqcu0","pricing_plan_id":"free"},{"bike_id":"f1af75be-f457-41f2-b38c-f3cdd8b150a0","system_id":"levelo_inurba_marseille","lat":43.313291,"lon":5.396838,"is_reserved":false,"is_disabled":false,"rental_uris":{"android":"levelo://app?vid=f1af75be-f457-41f2-b38c-f3cdd8b150a0","ios":"levelo://app?vid=f1af75be-f457-41f2-b38c-f3cdd8b150a0"},"vehicle_type_id":"4","last_reported":1705431954,"current_range_meters":18800,"station_id":"ce4bgvp2rcd13ifvqcu0","pricing_plan_id":"free"},{"bike_id":"343eb6bb-6c50-44ff-b5f8-d8ead35d7bdd","system_id":"levelo_inurba_marseille","lat":43.29529,"lon":5.385581,"is_reserved":false,"is_disabled":false,"rental_uris":{"android":"levelo://app?vid=343eb6bb-6c50-44ff-b5f8-d8ead35d7bdd","ios":"levelo://app?vid=343eb6bb-6c50-44ff-b5f8-d8ead35d7bdd"},"vehicle_type_id":"4","last_reported":1705431954,"current_range_meters":5600,"station_id":"ce4bgih2rcd13ifvqba0","pricing_plan_id":"free"},{"bike_id":"695b3053-1788-4358-9bc2-d3d67d8feacb","system_id":"levelo_inurba_marseille","lat":43.29529,"lon":5.385581,"is_reserved":false,"is_disabled":false,"rental_uris":{"android":"levelo://app?vid=695b3053-1788-4358-9bc2-d3d67d8feacb","ios":"levelo://app?vid=695b3053-1788-4358-9bc2-d3d67d8feacb"},"vehicle_type_id":"4","last_reported":1705431954,"current_range_meters":6400,"station_id":"ce4bgih2rcd13ifvqba0","pricing_plan_id":"free"},{"bike_id":"5d39ec8d-7c6b-43ba-820e-3750896d7a4c","system_id":"levelo_inurba_marseille","lat":43.29529,"lon":5.385581,"is_reserved":false,"is_disabled":false,"rental_uris":{"android":"levelo://app?vid=5d39ec8d-7c6b-43ba-820e-3750896d7a4c","ios":"levelo://app?vid=5d39ec8d-7c6b-43ba-820e-3750896d7a4c"},"vehicle_type_id":"4","last_reported":1705431954,"current_range_meters":2400,"station_id":"ce4bgih2rcd13ifvqba0","pricing_plan_id":"free"},{"bike_id":"094ff95d-b539-4f46-81e0-e4994f2cc461","system_id":"levelo_inurba_marseille","lat":43.290779,"lon":5.371482,"is_reserved":false,"is_disabled":false,"rental_uris":{"android":"levelo://app?vid=094ff95d-b539-4f46-81e0-e4994f2cc461","ios":"levelo://app?vid=094ff95d-b539-4f46-81e0-e4994f2cc461"},"vehicle_type_id":"4","last_reported":1705431954,"current_range_meters":16400,"station_id":"ce4bh5p2rcd13ifvqe4g","pricing_plan_id":"free"},{"bike_id":"35cfcc5f-7e3a-43c1-9f93-f4c8271f65d7","system_id":"levelo_inurba_marseille","lat":43.290779,"lon":5.371482,"is_reserved":false,"is_disabled":false,"rental_uris":{"android":"levelo://app?vid=35cfcc5f-7e3a-43c1-9f93-f4c8271f65d7","ios":"levelo://app?vid=35cfcc5f-7e3a-43c1-9f93-f4c8271f65d7"},"vehicle_type_id":"4","last_reported":1705431954,"current_range_meters":4800,"station_id":"ce4bh5p2rcd13ifvqe4g","pricing_plan_id":"free"},{"bike_id":"adfc6ee0-fce8-409a-b69d-c8ed328d8722","system_id":"levelo_inurba_marseille","lat":43.290779,"lon":5.371482,"is_reserved":false,"is_disabled":false,"rental_uris":{"android":"levelo://app?vid=adfc6ee0-fce8-409a-b69d-c8ed328d8722","ios":"levelo://app?vid=adfc6ee0-fce8-409a-b69d-c8ed328d8722"},"vehicle_type_id":"4","last_reported":1705431954,"current_range_meters":14400,"station_id":"ce4bh5p2rcd13ifvqe4g","pricing_plan_id":"free"},{"bike_id":"6e458c9b-5a0d-4e89-abe5-f73dc49f9e01","system_id":"levelo_inurba_marseille","lat":43.302008,"lon":5.394694,"is_reserved":false,"is_disabled":false,"rental_uris":{"android":"levelo://app?vid=6e458c9b-5a0d-4e89-abe5-f73dc49f9e01","ios":"levelo://app?vid=6e458c9b-5a0d-4e89-abe5-f73dc49f9e01"},"vehicle_type_id":"4","last_reported":1705431954,"current_range_meters":1600,"station_id":"ce4bh0p2rcd13ifvqd70","pricing_plan_id":"free"},{"bike_id":"30c16a15-5173-41a7-b2ab-ce8a9d167fb7","system_id":"levelo_inurba_marseille","lat":43.302008,"lon":5.394694,"is_reserved":false,"is_disabled":false,"rental_uris":{"android":"levelo://app?vid=30c16a15-5173-41a7-b2ab-ce8a9d167fb7","ios":"levelo://app?vid=30c16a15-5173-41a7-b2ab-ce8a9d167fb7"},"vehicle_type_id":"4","last_reported":1705431954,"current_range_meters":0,"station_id":"ce4bh0p2rcd13ifvqd70","pricing_plan_id":"free"},{"bike_id":"e362680d-2653-49ec-908b-addecb767bca","system_id":"levelo_inurba_marseille","lat":43.302008,"lon":5.394694,"is_reserved":false,"is_disabled":false,"rental_uris":{"android":"levelo://app?vid=e362680d-2653-49ec-908b-addecb767bca","ios":"levelo://app?vid=e362680d-2653-49ec-908b-addecb767bca"},"vehicle_type_id":"4","last_reported":1705431954,"current_range_meters":1200,"station_id":"ce4bh0p2rcd13ifvqd70","pricing_plan_id":"free"},{"bike_id":"3c09d25c-dc8f-4a2e-a952-8c805d8b12dc","system_id":"levelo_inurba_marseille","lat":43.302008,"lon":5.394694,"is_reserved":false,"is_disabled":false,"rental_uris":{"android":"levelo://app?vid=3c09d25c-dc8f-4a2e-a952-8c805d8b12dc","ios":"levelo://app?vid=3c09d25c-dc8f-4a2e-a952-8c805d8b12dc"},"vehicle_type_id":"4","last_reported":1705431954,"current_range_meters":0,"station_id":"ce4bh0p2rcd13ifvqd70","pricing_plan_id":"free"},{"bike_id":"c739af84-65d9-4eb6-b353-96f961548a3c","system_id":"levelo_inurba_marseille","lat":43.302008,"lon":5.394694,"is_reserved":false,"is_disabled":false,"rental_uris":{"android":"levelo://app?vid=c739af84-65d9-4eb6-b353-96f961548a3c","ios":"levelo://app?vid=c739af84-65d9-4eb6-b353-96f961548a3c"},"vehicle_type_id":"4","last_reported":1705431954,"current_range_meters":4000,"station_id":"ce4bh0p2rcd13ifvqd70","pricing_plan_id":"free"},{"bike_id":"129468e0-b0f4-4936-ad60-6945aba0df91","system_id":"levelo_inurba_marseille","lat":43.290624,"lon":5.359245,"is_reserved":false,"is_disabled":false,"rental_uris":{"android":"levelo://app?vid=129468e0-b0f4-4936-ad60-6945aba0df91","ios":"levelo://app?vid=129468e0-b0f4-4936-ad60-6945aba0df91"},"vehicle_type_id":"4","last_reported":1705431954,"current_range_meters":30000,"station_id":"ce4bha92rcd13ifvqeg0","pricing_plan_id":"free"},{"bike_id":"2d209de3-8192-4655-99c7-5161288498b4","system_id":"levelo_inurba_marseille","lat":43.290624,"lon":5.359245,"is_reserved":false,"is_disabled":false,"rental_uris":{"android":"levelo://app?vid=2d209de3-8192-4655-99c7-5161288498b4","ios":"levelo://app?vid=2d209de3-8192-4655-99c7-5161288498b4"},"vehicle_type_id":"4","last_reported":1705431954,"current_range_meters":29600,"station_id":"ce4bha92rcd13ifvqeg0","pricing_plan_id":"free"},{"bike_id":"9eb95b87-b2cf-4590-a50d-1e55140a3a72","system_id":"levelo_inurba_marseille","lat":43.290631,"lon":5.359244,"is_reserved":false,"is_disabled":false,"rental_uris":{"android":"levelo://app?vid=9eb95b87-b2cf-4590-a50d-1e55140a3a72","ios":"levelo://app?vid=9eb95b87-b2cf-4590-a50d-1e55140a3a72"},"vehicle_type_id":"4","last_reported":1705431954,"current_range_meters":30800,"station_id":"ce4bha92rcd13ifvqeg0","pricing_plan_id":"free"},{"bike_id":"ad0b7107-ce4b-4397-9ce9-6692d83486ee","system_id":"levelo_inurba_marseille","lat":43.290327,"lon":5.375711,"is_reserved":false,"is_disabled":false,"rental_uris":{"android":"levelo://app?vid=ad0b7107-ce4b-4397-9ce9-6692d83486ee","ios":"levelo://app?vid=ad0b7107-ce4b-4397-9ce9-6692d83486ee"},"vehicle_type_id":"4","last_reported":1705431954,"current_range_meters":28800,"station_id":"ce4bh692rcd13ifvqe90","pricing_plan_id":"free"},{"bike_id":"1714dcff-11e6-4089-be68-066ca8923933","system_id":"levelo_inurba_marseille","lat":43.2942,"lon":5.38618,"is_reserved":false,"is_disabled":false,"rental_uris":{"android":"levelo://app?vid=1714dcff-11e6-4089-be68-066ca8923933","ios":"levelo://app?vid=1714dcff-11e6-4089-be68-066ca8923933"},"vehicle_type_id":"4","last_reported":1705431954,"current_range_meters":27200,"station_id":"ce4bh2h2rcd13ifvqdh0","pricing_plan_id":"free"},{"bike_id":"46bf84e6-ac17-4369-9206-2d5a5b8e302d","system_id":"levelo_inurba_marseille","lat":43.294162,"lon":5.386292,"is_reserved":false,"is_disabled":false,"rental_uris":{"android":"levelo://app?vid=46bf84e6-ac17-4369-9206-2d5a5b8e302d","ios":"levelo://app?vid=46bf84e6-ac17-4369-9206-2d5a5b8e302d"},"vehicle_type_id":"4","last_reported":1705431954,"current_range_meters":12400,"station_id":"ce4bh2h2rcd13ifvqdh0","pricing_plan_id":"free"},{"bike_id":"aea63ac9-289f-483b-bbdd-c26be86f0e5a","system_id":"levelo_inurba_marseille","lat":43.2942,"lon":5.38627,"is_reserved":false,"is_disabled":false,"rental_uris":{"android":"levelo://app?vid=aea63ac9-289f-483b-bbdd-c26be86f0e5a","ios":"levelo://app?vid=aea63ac9-289f-483b-bbdd-c26be86f0e5a"},"vehicle_type_id":"4","last_reported":1705431954,"current_range_meters":0,"station_id":"ce4bh2h2rcd13ifvqdh0","pricing_plan_id":"free"},{"bike_id":"fca59d47-ba1f-4738-b916-9c25102dce52","system_id":"levelo_inurba_marseille","lat":43.294162,"lon":5.386292,"is_reserved":false,"is_disabled":false,"rental_uris":{"android":"levelo://app?vid=fca59d47-ba1f-4738-b916-9c25102dce52","ios":"levelo://app?vid=fca59d47-ba1f-4738-b916-9c25102dce52"},"vehicle_type_id":"4","last_reported":1705431954,"current_range_meters":26000,"station_id":"ce4bh2h2rcd13ifvqdh0","pricing_plan_id":"free"},{"bike_id":"49432989-15bf-406a-b931-9a4793d88319","system_id":"levelo_inurba_marseille","lat":43.294162,"lon":5.386292,"is_reserved":false,"is_disabled":false,"rental_uris":{"android":"levelo://app?vid=49432989-15bf-406a-b931-9a4793d88319","ios":"levelo://app?vid=49432989-15bf-406a-b931-9a4793d88319"},"vehicle_type_id":"4","last_reported":1705431954,"current_range_meters":26000,"station_id":"ce4bh2h2rcd13ifvqdh0","pricing_plan_id":"free"},{"bike_id":"820dd41f-9b9b-4e0c-8192-0483109d76cd","system_id":"levelo_inurba_marseille","lat":43.29416,"lon":5.3863,"is_reserved":false,"is_disabled":false,"rental_uris":{"android":"levelo://app?vid=820dd41f-9b9b-4e0c-8192-0483109d76cd","ios":"levelo://app?vid=820dd41f-9b9b-4e0c-8192-0483109d76cd"},"vehicle_type_id":"4","last_reported":1705431954,"current_range_meters":26000,"station_id":"ce4bh2h2rcd13ifvqdh0","pricing_plan_id":"free"},{"bike_id":"b5b8407a-5d6f-4d45-ac83-ae86f27256db","system_id":"levelo_inurba_marseille","lat":43.289184,"lon":5.366408,"is_reserved":false,"is_disabled":false,"rental_uris":{"android":"levelo://app?vid=b5b8407a-5d6f-4d45-ac83-ae86f27256db","ios":"levelo://app?vid=b5b8407a-5d6f-4d45-ac83-ae86f27256db"},"vehicle_type_id":"4","last_reported":1705431954,"current_range_meters":27200,"station_id":"ce4bhap2rcd13ifvqek0","pricing_plan_id":"free"},{"bike_id":"aa8e78c8-a174-4214-afcb-0868cc80bdf2","system_id":"levelo_inurba_marseille","lat":43.28947,"lon":5.3641,"is_reserved":false,"is_disabled":false,"rental_uris":{"android":"levelo://app?vid=aa8e78c8-a174-4214-afcb-0868cc80bdf2","ios":"levelo://app?vid=aa8e78c8-a174-4214-afcb-0868cc80bdf2"},"vehicle_type_id":"4","last_reported":1705431954,"current_range_meters":4000,"station_id":"ce4bhc92rcd13ifvqetg","pricing_plan_id":"free"},{"bike_id":"09a23cd9-8323-4b6b-9308-ec6b5aa83a69","system_id":"levelo_inurba_marseille","lat":43.289468,"lon":5.363719,"is_reserved":false,"is_disabled":false,"rental_uris":{"android":"levelo://app?vid=09a23cd9-8323-4b6b-9308-ec6b5aa83a69","ios":"levelo://app?vid=09a23cd9-8323-4b6b-9308-ec6b5aa83a69"},"vehicle_type_id":"4","last_reported":1705431954,"current_range_meters":14000,"station_id":"ce4bhc92rcd13ifvqetg","pricing_plan_id":"free"},{"bike_id":"514ba7be-d8cd-462a-b50e-cbead39e13ca","system_id":"levelo_inurba_marseille","lat":43.289468,"lon":5.363719,"is_reserved":false,"is_disabled":false,"rental_uris":{"android":"levelo://app?vid=514ba7be-d8cd-462a-b50e-cbead39e13ca","ios":"levelo://app?vid=514ba7be-d8cd-462a-b50e-cbead39e13ca"},"vehicle_type_id":"4","last_reported":1705431954,"current_range_meters":20400,"station_id":"ce4bhc92rcd13ifvqetg","pricing_plan_id":"free"},{"bike_id":"827c7e9f-97c3-4f60-849e-050d0b1806cd","system_id":"levelo_inurba_marseille","lat":43.292721,"lon":5.384419,"is_reserved":false,"is_disabled":false,"rental_uris":{"android":"levelo://app?vid=827c7e9f-97c3-4f60-849e-050d0b1806cd","ios":"levelo://app?vid=827c7e9f-97c3-4f60-849e-050d0b1806cd"},"vehicle_type_id":"4","last_reported":1705431954,"current_range_meters":9600,"station_id":"ce4bh692rcd13ifvqea0","pricing_plan_id":"free"},{"bike_id":"38912d74-c20d-4c89-800f-2483e3687ac5","system_id":"levelo_inurba_marseille","lat":43.292642,"lon":5.384254,"is_reserved":false,"is_disabled":false,"rental_uris":{"android":"levelo://app?vid=38912d74-c20d-4c89-800f-2483e3687ac5","ios":"levelo://app?vid=38912d74-c20d-4c89-800f-2483e3687ac5"},"vehicle_type_id":"4","last_reported":1705431954,"current_range_meters":9200,"station_id":"ce4bh692rcd13ifvqea0","pricing_plan_id":"free"},{"bike_id":"1b8239f8-dc98-4a34-acc5-8043da1011c7","system_id":"levelo_inurba_marseille","lat":43.290995,"lon":5.381361,"is_reserved":false,"is_disabled":false,"rental_uris":{"android":"levelo://app?vid=1b8239f8-dc98-4a34-acc5-8043da1011c7","ios":"levelo://app?vid=1b8239f8-dc98-4a34-acc5-8043da1011c7"},"vehicle_type_id":"4","last_reported":1705431954,"current_range_meters":15600,"station_id":"ce4bh512rcd13ifvqe2g","pricing_plan_id":"free"},{"bike_id":"11c2c645-7ba1-4f66-a0df-44c3de62a72d","system_id":"levelo_inurba_marseille","lat":43.290122,"lon":5.356251,"is_reserved":false,"is_disabled":false,"rental_uris":{"android":"levelo://app?vid=11c2c645-7ba1-4f66-a0df-44c3de62a72d","ios":"levelo://app?vid=11c2c645-7ba1-4f66-a0df-44c3de62a72d"},"vehicle_type_id":"4","last_reported":1705431954,"current_range_meters":24400,"station_id":"","pricing_plan_id":"free"},{"bike_id":"2ae69767-d47d-494c-8795-39b57785e215","system_id":"levelo_inurba_marseille","lat":43.29009,"lon":5.35624,"is_reserved":false,"is_disabled":false,"rental_uris":{"android":"levelo://app?vid=2ae69767-d47d-494c-8795-39b57785e215","ios":"levelo://app?vid=2ae69767-d47d-494c-8795-39b57785e215"},"vehicle_type_id":"4","last_reported":1705431954,"current_range_meters":30000,"station_id":"ce4bhb92rcd13ifvqen0","pricing_plan_id":"free"},{"bike_id":"23131dfa-b16c-4ea5-8616-4274f656f11d","system_id":"levelo_inurba_marseille","lat":43.29005,"lon":5.35618,"is_reserved":false,"is_disabled":false,"rental_uris":{"android":"levelo://app?vid=23131dfa-b16c-4ea5-8616-4274f656f11d","ios":"levelo://app?vid=23131dfa-b16c-4ea5-8616-4274f656f11d"},"vehicle_type_id":"4","last_reported":1705431954,"current_range_meters":25200,"station_id":"ce4bhb92rcd13ifvqen0","pricing_plan_id":"free"},{"bike_id":"6e8abd30-0cb8-4690-8b12-01632bedda0f","system_id":"levelo_inurba_marseille","lat":43.29003,"lon":5.35607,"is_reserved":false,"is_disabled":false,"rental_uris":{"android":"levelo://app?vid=6e8abd30-0cb8-4690-8b12-01632bedda0f","ios":"levelo://app?vid=6e8abd30-0cb8-4690-8b12-01632bedda0f"},"vehicle_type_id":"4","last_reported":1705431954,"current_range_meters":23200,"station_id":"ce4bhb92rcd13ifvqen0","pricing_plan_id":"free"},{"bike_id":"6f5917e2-158e-4459-bf15-32555ccdf1e1","system_id":"levelo_inurba_marseille","lat":43.290027,"lon":5.356073,"is_reserved":false,"is_disabled":false,"rental_uris":{"android":"levelo://app?vid=6f5917e2-158e-4459-bf15-32555ccdf1e1","ios":"levelo://app?vid=6f5917e2-158e-4459-bf15-32555ccdf1e1"},"vehicle_type_id":"4","last_reported":1705431954,"current_range_meters":28000,"station_id":"ce4bhb92rcd13ifvqen0","pricing_plan_id":"free"},{"bike_id":"60081938-25ce-49d0-8c40-629f6cca7eb1","system_id":"levelo_inurba_marseille","lat":43.290995,"lon":5.381361,"is_reserved":false,"is_disabled":false,"rental_uris":{"android":"levelo://app?vid=60081938-25ce-49d0-8c40-629f6cca7eb1","ios":"levelo://app?vid=60081938-25ce-49d0-8c40-629f6cca7eb1"},"vehicle_type_id":"4","last_reported":1705431954,"current_range_meters":2000,"station_id":"ce4bh512rcd13ifvqe2g","pricing_plan_id":"free"},{"bike_id":"e9d1302d-ebbd-4caf-8a0e-2888609e82a5","system_id":"levelo_inurba_marseille","lat":43.290995,"lon":5.381361,"is_reserved":false,"is_disabled":false,"rental_uris":{"android":"levelo://app?vid=e9d1302d-ebbd-4caf-8a0e-2888609e82a5","ios":"levelo://app?vid=e9d1302d-ebbd-4caf-8a0e-2888609e82a5"},"vehicle_type_id":"4","last_reported":1705431954,"current_range_meters":21200,"station_id":"ce4bh512rcd13ifvqe2g","pricing_plan_id":"free"},{"bike_id":"2e417353-bbc2-4c7c-aff7-32752a384b8d","system_id":"levelo_inurba_marseille","lat":43.290995,"lon":5.381361,"is_reserved":false,"is_disabled":false,"rental_uris":{"android":"levelo://app?vid=2e417353-bbc2-4c7c-aff7-32752a384b8d","ios":"levelo://app?vid=2e417353-bbc2-4c7c-aff7-32752a384b8d"},"vehicle_type_id":"4","last_reported":1705431954,"current_range_meters":7200,"station_id":"ce4bh512rcd13ifvqe2g","pricing_plan_id":"free"},{"bike_id":"30cde034-f982-4efc-a52f-a003514192bb","system_id":"levelo_inurba_marseille","lat":43.290995,"lon":5.381361,"is_reserved":false,"is_disabled":false,"rental_uris":{"android":"levelo://app?vid=30cde034-f982-4efc-a52f-a003514192bb","ios":"levelo://app?vid=30cde034-f982-4efc-a52f-a003514192bb"},"vehicle_type_id":"4","last_reported":1705431954,"current_range_meters":28800,"station_id":"ce4bh512rcd13ifvqe2g","pricing_plan_id":"free"},{"bike_id":"c540ed73-a088-49c2-abf8-36dbb4aaf2ba","system_id":"levelo_inurba_marseille","lat":43.290995,"lon":5.381361,"is_reserved":false,"is_disabled":false,"rental_uris":{"android":"levelo://app?vid=c540ed73-a088-49c2-abf8-36dbb4aaf2ba","ios":"levelo://app?vid=c540ed73-a088-49c2-abf8-36dbb4aaf2ba"},"vehicle_type_id":"4","last_reported":1705431954,"current_range_meters":11200,"station_id":"ce4bh512rcd13ifvqe2g","pricing_plan_id":"free"},{"bike_id":"11f9a18f-70e0-40b4-b40a-1518cedc0933","system_id":"levelo_inurba_marseille","lat":43.290995,"lon":5.381361,"is_reserved":false,"is_disabled":false,"rental_uris":{"android":"levelo://app?vid=11f9a18f-70e0-40b4-b40a-1518cedc0933","ios":"levelo://app?vid=11f9a18f-70e0-40b4-b40a-1518cedc0933"},"vehicle_type_id":"4","last_reported":1705431954,"current_range_meters":2000,"station_id":"ce4bh512rcd13ifvqe2g","pricing_plan_id":"free"},{"bike_id":"6f8d9a30-15c7-4217-978b-ced8df05fe05","system_id":"levelo_inurba_marseille","lat":43.29792,"lon":5.39345,"is_reserved":false,"is_disabled":false,"rental_uris":{"android":"levelo://app?vid=6f8d9a30-15c7-4217-978b-ced8df05fe05","ios":"levelo://app?vid=6f8d9a30-15c7-4217-978b-ced8df05fe05"},"vehicle_type_id":"4","last_reported":1705431954,"current_range_meters":4800,"station_id":"chh1huq6cuj3fo74tm60","pricing_plan_id":"free"},{"bike_id":"7c64a78d-cf44-415c-a807-707bdbdb0e66","system_id":"levelo_inurba_marseille","lat":43.33023,"lon":5.39029,"is_reserved":false,"is_disabled":false,"rental_uris":{"android":"levelo://app?vid=7c64a78d-cf44-415c-a807-707bdbdb0e66","ios":"levelo://app?vid=7c64a78d-cf44-415c-a807-707bdbdb0e66"},"vehicle_type_id":"4","last_reported":1705431954,"current_range_meters":800,"station_id":"ce4bhr92rcd13ifvqhrg","pricing_plan_id":"free"},{"bike_id":"226bb269-1d10-4f64-bdf3-296d273ae135","system_id":"levelo_inurba_marseille","lat":43.330202,"lon":5.390369,"is_reserved":false,"is_disabled":false,"rental_uris":{"android":"levelo://app?vid=226bb269-1d10-4f64-bdf3-296d273ae135","ios":"levelo://app?vid=226bb269-1d10-4f64-bdf3-296d273ae135"},"vehicle_type_id":"4","last_reported":1705431954,"current_range_meters":0,"station_id":"ce4bhr92rcd13ifvqhrg","pricing_plan_id":"free"},{"bike_id":"373fe7ad-62e9-4767-84f9-510b9a62ad23","system_id":"levelo_inurba_marseille","lat":43.289741,"lon":5.378306,"is_reserved":false,"is_disabled":false,"rental_uris":{"android":"levelo://app?vid=373fe7ad-62e9-4767-84f9-510b9a62ad23","ios":"levelo://app?vid=373fe7ad-62e9-4767-84f9-510b9a62ad23"},"vehicle_type_id":"4","last_reported":1705431954,"current_range_meters":9600,"station_id":"ce4bh9p2rcd13ifvqed0","pricing_plan_id":"free"},{"bike_id":"a2e41e28-cdf8-45ff-b1f3-5774fc9e5d5d","system_id":"levelo_inurba_marseille","lat":43.330442,"lon":5.389148,"is_reserved":false,"is_disabled":false,"rental_uris":{"android":"levelo://app?vid=a2e41e28-cdf8-45ff-b1f3-5774fc9e5d5d","ios":"levelo://app?vid=a2e41e28-cdf8-45ff-b1f3-5774fc9e5d5d"},"vehicle_type_id":"4","last_reported":1705431954,"current_range_meters":12400,"station_id":"ce4bhr92rcd13ifvqhrg","pricing_plan_id":"free"},{"bike_id":"39519b3a-bcaa-4c2f-a91d-fb3c243035de","system_id":"levelo_inurba_marseille","lat":43.330442,"lon":5.389148,"is_reserved":false,"is_disabled":false,"rental_uris":{"android":"levelo://app?vid=39519b3a-bcaa-4c2f-a91d-fb3c243035de","ios":"levelo://app?vid=39519b3a-bcaa-4c2f-a91d-fb3c243035de"},"vehicle_type_id":"4","last_reported":1705431954,"current_range_meters":0,"station_id":"ce4bhr92rcd13ifvqhrg","pricing_plan_id":"free"},{"bike_id":"e056a354-5aed-41bf-864d-4a61949478ad","system_id":"levelo_inurba_marseille","lat":43.330224,"lon":5.390444,"is_reserved":false,"is_disabled":false,"rental_uris":{"android":"levelo://app?vid=e056a354-5aed-41bf-864d-4a61949478ad","ios":"levelo://app?vid=e056a354-5aed-41bf-864d-4a61949478ad"},"vehicle_type_id":"4","last_reported":1705431954,"current_range_meters":20800,"station_id":"ce4bhr92rcd13ifvqhrg","pricing_plan_id":"free"},{"bike_id":"9c65c96f-ebbd-40af-a74a-0db8f635ac41","system_id":"levelo_inurba_marseille","lat":43.330442,"lon":5.389148,"is_reserved":false,"is_disabled":false,"rental_uris":{"android":"levelo://app?vid=9c65c96f-ebbd-40af-a74a-0db8f635ac41","ios":"levelo://app?vid=9c65c96f-ebbd-40af-a74a-0db8f635ac41"},"vehicle_type_id":"4","last_reported":1705431954,"current_range_meters":10400,"station_id":"ce4bhr92rcd13ifvqhrg","pricing_plan_id":"free"},{"bike_id":"942f7412-ae3a-4b0c-ba15-a3ecc5b4bba7","system_id":"levelo_inurba_marseille","lat":43.330442,"lon":5.389148,"is_reserved":false,"is_disabled":false,"rental_uris":{"android":"levelo://app?vid=942f7412-ae3a-4b0c-ba15-a3ecc5b4bba7","ios":"levelo://app?vid=942f7412-ae3a-4b0c-ba15-a3ecc5b4bba7"},"vehicle_type_id":"4","last_reported":1705431954,"current_range_meters":8000,"station_id":"ce4bhr92rcd13ifvqhrg","pricing_plan_id":"free"},{"bike_id":"31e8c180-a992-407e-85bd-cc16d1dc0369","system_id":"levelo_inurba_marseille","lat":43.295169,"lon":5.390426,"is_reserved":false,"is_disabled":false,"rental_uris":{"android":"levelo://app?vid=31e8c180-a992-407e-85bd-cc16d1dc0369","ios":"levelo://app?vid=31e8c180-a992-407e-85bd-cc16d1dc0369"},"vehicle_type_id":"4","last_reported":1705431954,"current_range_meters":6000,"station_id":"ce4bh3p2rcd13ifvqdp0","pricing_plan_id":"free"},{"bike_id":"364d281e-8a2e-449a-8f7e-7d431f280a98","system_id":"levelo_inurba_marseille","lat":43.295169,"lon":5.390426,"is_reserved":false,"is_disabled":false,"rental_uris":{"android":"levelo://app?vid=364d281e-8a2e-449a-8f7e-7d431f280a98","ios":"levelo://app?vid=364d281e-8a2e-449a-8f7e-7d431f280a98"},"vehicle_type_id":"4","last_reported":1705431954,"current_range_meters":0,"station_id":"ce4bh3p2rcd13ifvqdp0","pricing_plan_id":"free"},{"bike_id":"3a1ac764-6233-4e96-9647-ad0c1d26ac8b","system_id":"levelo_inurba_marseille","lat":43.290247,"lon":5.38144,"is_reserved":false,"is_disabled":false,"rental_uris":{"android":"levelo://app?vid=3a1ac764-6233-4e96-9647-ad0c1d26ac8b","ios":"levelo://app?vid=3a1ac764-6233-4e96-9647-ad0c1d26ac8b"},"vehicle_type_id":"4","last_reported":1705431954,"current_range_meters":0,"station_id":"ce4bh4p2rcd13ifvqe1g","pricing_plan_id":"free"},{"bike_id":"1d30c335-4946-42ea-85fa-6cc59074e97b","system_id":"levelo_inurba_marseille","lat":43.28856,"lon":5.358371,"is_reserved":false,"is_disabled":false,"rental_uris":{"android":"levelo://app?vid=1d30c335-4946-42ea-85fa-6cc59074e97b","ios":"levelo://app?vid=1d30c335-4946-42ea-85fa-6cc59074e97b"},"vehicle_type_id":"4","last_reported":1705431954,"current_range_meters":19600,"station_id":"ce4bhb12rcd13ifvqem0","pricing_plan_id":"free"},{"bike_id":"d73440dc-c778-477a-ae11-26fe0bc647a0","system_id":"levelo_inurba_marseille","lat":43.28856,"lon":5.358371,"is_reserved":false,"is_disabled":false,"rental_uris":{"android":"levelo://app?vid=d73440dc-c778-477a-ae11-26fe0bc647a0","ios":"levelo://app?vid=d73440dc-c778-477a-ae11-26fe0bc647a0"},"vehicle_type_id":"4","last_reported":1705431954,"current_range_meters":30400,"station_id":"ce4bhb12rcd13ifvqem0","pricing_plan_id":"free"},{"bike_id":"65e7b406-3211-4b71-a8b2-61a0e7890960","system_id":"levelo_inurba_marseille","lat":43.28856,"lon":5.358371,"is_reserved":false,"is_disabled":false,"rental_uris":{"android":"levelo://app?vid=65e7b406-3211-4b71-a8b2-61a0e7890960","ios":"levelo://app?vid=65e7b406-3211-4b71-a8b2-61a0e7890960"},"vehicle_type_id":"4","last_reported":1705431954,"current_range_meters":31200,"station_id":"ce4bhb12rcd13ifvqem0","pricing_plan_id":"free"},{"bike_id":"d07b0cec-85bf-4f42-b6ca-b39c504d9b38","system_id":"levelo_inurba_marseille","lat":43.28856,"lon":5.358371,"is_reserved":false,"is_disabled":false,"rental_uris":{"android":"levelo://app?vid=d07b0cec-85bf-4f42-b6ca-b39c504d9b38","ios":"levelo://app?vid=d07b0cec-85bf-4f42-b6ca-b39c504d9b38"},"vehicle_type_id":"4","last_reported":1705431954,"current_range_meters":0,"station_id":"ce4bhb12rcd13ifvqem0","pricing_plan_id":"free"},{"bike_id":"1e61b843-c9e6-4324-a37a-7aa88910fab6","system_id":"levelo_inurba_marseille","lat":43.28856,"lon":5.358371,"is_reserved":false,"is_disabled":false,"rental_uris":{"android":"levelo://app?vid=1e61b843-c9e6-4324-a37a-7aa88910fab6","ios":"levelo://app?vid=1e61b843-c9e6-4324-a37a-7aa88910fab6"},"vehicle_type_id":"4","last_reported":1705431954,"current_range_meters":5600,"station_id":"ce4bhb12rcd13ifvqem0","pricing_plan_id":"free"},{"bike_id":"e24d14bc-cee9-48c2-85a2-e2a64a4f562d","system_id":"levelo_inurba_marseille","lat":43.3128,"lon":5.40161,"is_reserved":false,"is_disabled":false,"rental_uris":{"android":"levelo://app?vid=e24d14bc-cee9-48c2-85a2-e2a64a4f562d","ios":"levelo://app?vid=e24d14bc-cee9-48c2-85a2-e2a64a4f562d"},"vehicle_type_id":"4","last_reported":1705431954,"current_range_meters":24800,"station_id":"ce4bh092rcd13ifvqd30","pricing_plan_id":"free"},{"bike_id":"034a1c99-1b20-444e-b820-d600efc95777","system_id":"levelo_inurba_marseille","lat":43.312609,"lon":5.401662,"is_reserved":false,"is_disabled":false,"rental_uris":{"android":"levelo://app?vid=034a1c99-1b20-444e-b820-d600efc95777","ios":"levelo://app?vid=034a1c99-1b20-444e-b820-d600efc95777"},"vehicle_type_id":"4","last_reported":1705431954,"current_range_meters":9200,"station_id":"ce4bh092rcd13ifvqd30","pricing_plan_id":"free"},{"bike_id":"52b41780-2eb8-4c65-a29b-79544b738b63","system_id":"levelo_inurba_marseille","lat":43.309371,"lon":5.401449,"is_reserved":false,"is_disabled":false,"rental_uris":{"android":"levelo://app?vid=52b41780-2eb8-4c65-a29b-79544b738b63","ios":"levelo://app?vid=52b41780-2eb8-4c65-a29b-79544b738b63"},"vehicle_type_id":"4","last_reported":1705431954,"current_range_meters":16000,"station_id":"ce4bgvp2rcd13ifvqct0","pricing_plan_id":"free"},{"bike_id":"2ffe6a10-8360-4eb3-8853-e5a93b2756e8","system_id":"levelo_inurba_marseille","lat":43.31281,"lon":5.40171,"is_reserved":false,"is_disabled":false,"rental_uris":{"android":"levelo://app?vid=2ffe6a10-8360-4eb3-8853-e5a93b2756e8","ios":"levelo://app?vid=2ffe6a10-8360-4eb3-8853-e5a93b2756e8"},"vehicle_type_id":"4","last_reported":1705431954,"current_range_meters":20400,"station_id":"ce4bh092rcd13ifvqd30","pricing_plan_id":"free"},{"bike_id":"e66bd384-83a2-44c3-8224-a805f8b6f353","system_id":"levelo_inurba_marseille","lat":43.309371,"lon":5.401449,"is_reserved":false,"is_disabled":false,"rental_uris":{"android":"levelo://app?vid=e66bd384-83a2-44c3-8224-a805f8b6f353","ios":"levelo://app?vid=e66bd384-83a2-44c3-8224-a805f8b6f353"},"vehicle_type_id":"4","last_reported":1705431954,"current_range_meters":22000,"station_id":"ce4bgvp2rcd13ifvqct0","pricing_plan_id":"free"},{"bike_id":"0c758ef1-ba82-40f3-904f-35b121a5f182","system_id":"levelo_inurba_marseille","lat":43.312609,"lon":5.401662,"is_reserved":false,"is_disabled":false,"rental_uris":{"android":"levelo://app?vid=0c758ef1-ba82-40f3-904f-35b121a5f182","ios":"levelo://app?vid=0c758ef1-ba82-40f3-904f-35b121a5f182"},"vehicle_type_id":"4","last_reported":1705431954,"current_range_meters":20000,"station_id":"ce4bh092rcd13ifvqd30","pricing_plan_id":"free"},{"bike_id":"b3bbbd8c-fefe-497f-856b-63a38c08d7c8","system_id":"levelo_inurba_marseille","lat":43.309371,"lon":5.401449,"is_reserved":false,"is_disabled":false,"rental_uris":{"android":"levelo://app?vid=b3bbbd8c-fefe-497f-856b-63a38c08d7c8","ios":"levelo://app?vid=b3bbbd8c-fefe-497f-856b-63a38c08d7c8"},"vehicle_type_id":"4","last_reported":1705431954,"current_range_meters":6400,"station_id":"ce4bgvp2rcd13ifvqct0","pricing_plan_id":"free"},{"bike_id":"2c654108-f3bf-462d-a5ab-344b0d6fb200","system_id":"levelo_inurba_marseille","lat":43.309371,"lon":5.401449,"is_reserved":false,"is_disabled":false,"rental_uris":{"android":"levelo://app?vid=2c654108-f3bf-462d-a5ab-344b0d6fb200","ios":"levelo://app?vid=2c654108-f3bf-462d-a5ab-344b0d6fb200"},"vehicle_type_id":"4","last_reported":1705431954,"current_range_meters":25200,"station_id":"ce4bgvp2rcd13ifvqct0","pricing_plan_id":"free"},{"bike_id":"6cf59400-ad10-4113-ab47-fa70bf347c08","system_id":"levelo_inurba_marseille","lat":43.30642,"lon":5.401031,"is_reserved":false,"is_disabled":false,"rental_uris":{"android":"levelo://app?vid=6cf59400-ad10-4113-ab47-fa70bf347c08","ios":"levelo://app?vid=6cf59400-ad10-4113-ab47-fa70bf347c08"},"vehicle_type_id":"4","last_reported":1705431954,"current_range_meters":4800,"station_id":"ce4bh112rcd13ifvqda0","pricing_plan_id":"free"},{"bike_id":"b250d6cc-ac95-4148-bb9c-058f86e5ac1b","system_id":"levelo_inurba_marseille","lat":43.30469,"lon":5.40061,"is_reserved":false,"is_disabled":false,"rental_uris":{"android":"levelo://app?vid=b250d6cc-ac95-4148-bb9c-058f86e5ac1b","ios":"levelo://app?vid=b250d6cc-ac95-4148-bb9c-058f86e5ac1b"},"vehicle_type_id":"4","last_reported":1705431954,"current_range_meters":23200,"station_id":"","pricing_plan_id":"free"},{"bike_id":"39f36516-97f1-4045-96c8-bbce33f58a4f","system_id":"levelo_inurba_marseille","lat":43.28727,"lon":5.36078,"is_reserved":false,"is_disabled":false,"rental_uris":{"android":"levelo://app?vid=39f36516-97f1-4045-96c8-bbce33f58a4f","ios":"levelo://app?vid=39f36516-97f1-4045-96c8-bbce33f58a4f"},"vehicle_type_id":"4","last_reported":1705431954,"current_range_meters":19200,"station_id":"cki0cbj6b192h4jlfktg","pricing_plan_id":"free"},{"bike_id":"f6c35de7-f33a-4251-a341-a1890e7c9944","system_id":"levelo_inurba_marseille","lat":43.28727,"lon":5.36078,"is_reserved":false,"is_disabled":false,"rental_uris":{"android":"levelo://app?vid=f6c35de7-f33a-4251-a341-a1890e7c9944","ios":"levelo://app?vid=f6c35de7-f33a-4251-a341-a1890e7c9944"},"vehicle_type_id":"4","last_reported":1705431954,"current_range_meters":3600,"station_id":"cki0cbj6b192h4jlfktg","pricing_plan_id":"free"},{"bike_id":"74cb371d-da1f-4b4f-a464-5b6f3aea1ed8","system_id":"levelo_inurba_marseille","lat":43.301117,"lon":5.398795,"is_reserved":false,"is_disabled":false,"rental_uris":{"android":"levelo://app?vid=74cb371d-da1f-4b4f-a464-5b6f3aea1ed8","ios":"levelo://app?vid=74cb371d-da1f-4b4f-a464-5b6f3aea1ed8"},"vehicle_type_id":"4","last_reported":1705431954,"current_range_meters":1600,"station_id":"ce4bh0h2rcd13ifvqd40","pricing_plan_id":"free"},{"bike_id":"e4b2d29a-4c96-4793-8964-f8c2e3a83b82","system_id":"levelo_inurba_marseille","lat":43.286961,"lon":5.373785,"is_reserved":false,"is_disabled":false,"rental_uris":{"android":"levelo://app?vid=e4b2d29a-4c96-4793-8964-f8c2e3a83b82","ios":"levelo://app?vid=e4b2d29a-4c96-4793-8964-f8c2e3a83b82"},"vehicle_type_id":"4","last_reported":1705431954,"current_range_meters":4000,"station_id":"ce4bh3p2rcd13ifvqdq0","pricing_plan_id":"free"},{"bike_id":"ff85328e-49c9-40ee-bf3d-c3fef4779fa4","system_id":"levelo_inurba_marseille","lat":43.298681,"lon":5.397225,"is_reserved":false,"is_disabled":false,"rental_uris":{"android":"levelo://app?vid=ff85328e-49c9-40ee-bf3d-c3fef4779fa4","ios":"levelo://app?vid=ff85328e-49c9-40ee-bf3d-c3fef4779fa4"},"vehicle_type_id":"4","last_reported":1705431954,"current_range_meters":31200,"station_id":"ce4bh0h2rcd13ifvqd50","pricing_plan_id":"free"},{"bike_id":"2d60a46b-9e4a-4320-9bcc-ffe36c2070b9","system_id":"levelo_inurba_marseille","lat":43.286961,"lon":5.373785,"is_reserved":false,"is_disabled":false,"rental_uris":{"android":"levelo://app?vid=2d60a46b-9e4a-4320-9bcc-ffe36c2070b9","ios":"levelo://app?vid=2d60a46b-9e4a-4320-9bcc-ffe36c2070b9"},"vehicle_type_id":"4","last_reported":1705431954,"current_range_meters":8400,"station_id":"ce4bh3p2rcd13ifvqdq0","pricing_plan_id":"free"},{"bike_id":"a2ff0603-40c3-46b2-b93f-6b0b792d321c","system_id":"levelo_inurba_marseille","lat":43.298681,"lon":5.397225,"is_reserved":false,"is_disabled":false,"rental_uris":{"android":"levelo://app?vid=a2ff0603-40c3-46b2-b93f-6b0b792d321c","ios":"levelo://app?vid=a2ff0603-40c3-46b2-b93f-6b0b792d321c"},"vehicle_type_id":"4","last_reported":1705431954,"current_range_meters":10400,"station_id":"ce4bh0h2rcd13ifvqd50","pricing_plan_id":"free"},{"bike_id":"48dd445a-1b2f-405d-89c2-897eb1bdcf79","system_id":"levelo_inurba_marseille","lat":43.298681,"lon":5.397225,"is_reserved":false,"is_disabled":false,"rental_uris":{"android":"levelo://app?vid=48dd445a-1b2f-405d-89c2-897eb1bdcf79","ios":"levelo://app?vid=48dd445a-1b2f-405d-89c2-897eb1bdcf79"},"vehicle_type_id":"4","last_reported":1705431954,"current_range_meters":10400,"station_id":"ce4bh0h2rcd13ifvqd50","pricing_plan_id":"free"},{"bike_id":"0734d075-68f2-42b4-a051-31048518809c","system_id":"levelo_inurba_marseille","lat":43.298681,"lon":5.397225,"is_reserved":false,"is_disabled":false,"rental_uris":{"android":"levelo://app?vid=0734d075-68f2-42b4-a051-31048518809c","ios":"levelo://app?vid=0734d075-68f2-42b4-a051-31048518809c"},"vehicle_type_id":"4","last_reported":1705431954,"current_range_meters":2400,"station_id":"ce4bh0h2rcd13ifvqd50","pricing_plan_id":"free"},{"bike_id":"ec121a7e-d48f-4868-81c9-ead89165b99d","system_id":"levelo_inurba_marseille","lat":43.286591,"lon":5.363346,"is_reserved":false,"is_disabled":false,"rental_uris":{"android":"levelo://app?vid=ec121a7e-d48f-4868-81c9-ead89165b99d","ios":"levelo://app?vid=ec121a7e-d48f-4868-81c9-ead89165b99d"},"vehicle_type_id":"4","last_reported":1705431954,"current_range_meters":16800,"station_id":"ce4bhah2rcd13ifvqej0","pricing_plan_id":"free"},{"bike_id":"15754fb9-fd1b-494c-a9ed-a48041cf5e87","system_id":"levelo_inurba_marseille","lat":43.286961,"lon":5.373785,"is_reserved":false,"is_disabled":false,"rental_uris":{"android":"levelo://app?vid=15754fb9-fd1b-494c-a9ed-a48041cf5e87","ios":"levelo://app?vid=15754fb9-fd1b-494c-a9ed-a48041cf5e87"},"vehicle_type_id":"4","last_reported":1705431954,"current_range_meters":8400,"station_id":"ce4bh3p2rcd13ifvqdq0","pricing_plan_id":"free"},{"bike_id":"bbe33a8d-e5e2-481e-af9a-127c13de04ca","system_id":"levelo_inurba_marseille","lat":43.287028,"lon":5.373828,"is_reserved":false,"is_disabled":false,"rental_uris":{"android":"levelo://app?vid=bbe33a8d-e5e2-481e-af9a-127c13de04ca","ios":"levelo://app?vid=bbe33a8d-e5e2-481e-af9a-127c13de04ca"},"vehicle_type_id":"4","last_reported":1705431954,"current_range_meters":2800,"station_id":"ce4bh3p2rcd13ifvqdq0","pricing_plan_id":"free"},{"bike_id":"a9eac4ac-d4df-4c7e-91ea-543648c669e0","system_id":"levelo_inurba_marseille","lat":43.286961,"lon":5.373785,"is_reserved":false,"is_disabled":false,"rental_uris":{"android":"levelo://app?vid=a9eac4ac-d4df-4c7e-91ea-543648c669e0","ios":"levelo://app?vid=a9eac4ac-d4df-4c7e-91ea-543648c669e0"},"vehicle_type_id":"4","last_reported":1705431954,"current_range_meters":28400,"station_id":"ce4bh3p2rcd13ifvqdq0","pricing_plan_id":"free"},