{"last_updated":1698646186,"ttl":30,"version":"2.2","data":{"bikes":[{"bike_id":"9d96a0cd-294d-4031-b992-9f1991c89b56","system_id":"levelo_inurba_marseille","lat":43.313391,"lon":5.36706,"is_reserved":false,"is_disabled":false,"rental_uris":{"android":"levelo://app?vid=9d96a0cd-294d-4031-b992-9f1991c89b56","ios":"levelo://app?vid=9d96a0cd-294d-4031-b992-9f1991c89b56"},"vehicle_type_id":"4","last_reported":1698646186,"current_range_meters":29600,"station_id":"ce4bgr92rcd13ifvqc6g","pricing_plan_id":"free"},{"bike_id":"be68c0da-1b0a-4322-9c38-378071760f45","system_id":"levelo_inurba_marseille","lat":43.313391,"lon":5.36706,"is_reserved":false,"is_disabled":false,"rental_uris":{"android":"levelo://app?vid=be68c0da-1b0a-4322-9c38-378071760f45","ios":"levelo://app?vid=be68c0da-1b0a-4322-9c38-378071760f45"},"vehicle_type_id":"4","last_reported":1698646186,"current_range_meters":20000,"station_id":"ce4bgr92rcd13ifvqc6g","pricing_plan_id":"free"},{"bike_id":"21306337-efa8-4303-96a6-99de361e8110","system_id":"levelo_inurba_marseille","lat":43.313391,"lon":5.36706,"is_reserved":false,"is_disabled":false,"rental_uris":{"android":"levelo://app?vid=21306337-efa8-4303-96a6-99de361e8110","ios":"levelo://app?vid=21306337-efa8-4303-96a6-99de361e8110"},"vehicle_type_id":"4","last_reported":1698646186,"current_range_meters":26000,"station_id":"ce4bgr92rcd13ifvqc6g","pricing_plan_id":"free"},{"bike_id":"378ed733-0ac1-4e9f-b44e-13aed3412156","system_id":"levelo_inurba_marseille","lat":43.312239,"lon":5.368562,"is_reserved":false,"is_disabled":false,"rental_uris":{"android":"levelo://app?vid=378ed733-0ac1-4e9f-b44e-13aed3412156","ios":"levelo://app?vid=378ed733-0ac1-4e9f-b44e-13aed3412156"},"vehicle_type_id":"4","last_reported":1698646186,"current_range_meters":28800,"station_id":"ce4bgl92rcd13ifvqbq0","pricing_plan_id":"free"},{"bike_id":"4e26a533-68a1-4f7d-8fd8-f41c9d3749ac","system_id":"levelo_inurba_marseille","lat":43.312239,"lon":5.368562,"is_reserved":false,"is_disabled":false,"rental_uris":{"android":"levelo://app?vid=4e26a533-68a1-4f7d-8fd8-f41c9d3749ac","ios":"levelo://app?vid=4e26a533-68a1-4f7d-8fd8-f41c9d3749ac"},"vehicle_type_id":"4","last_reported":1698646186,"current_range_meters":16400,"station_id":"ce4bgl92rcd13ifvqbq0","pricing_plan_id":"free"},{"bike_id":"f3c00ab7-692e-4051-a340-ffea2cbbfc81","system_id":"levelo_inurba_marseille","lat":43.309076,"lon":5.368465,"is_reserved":false,"is_disabled":false,"rental_uris":{"android":"levelo://app?vid=f3c00ab7-692e-4051-a340-ffea2cbbfc81","ios":"levelo://app?vid=f3c00ab7-692e-4051-a340-ffea2cbbfc81"},"vehicle_type_id":"4","last_reported":1698646186,"current_range_meters":13200,"station_id":"ce4bgn92rcd13ifvqbvg","pricing_plan_id":"free"},{"bike_id":"32442045-598f-44c8-b02d-923a0f8254a8","system_id":"levelo_inurba_marseille","lat":43.309076,"lon":5.368465,"is_reserved":false,"is_disabled":false,"rental_uris":{"android":"levelo://app?vid=32442045-598f-44c8-b02d-923a0f8254a8","ios":"levelo://app?vid=32442045-598f-44c8-b02d-923a0f8254a8"},"vehicle_type_id":"4","last_reported":1698646186,"current_range_meters":14000,"station_id":"ce4bgn92rcd13ifvqbvg","pricing_plan_id":"free"},{"bike_id":"ba9cb9b7-e169-417f-9935-168b14fbaa35","system_id":"levelo_inurba_marseille","lat":43.309076,"lon":5.368465,"is_reserved":false,"is_disabled":false,"rental_uris":{"android":"levelo://app?vid=ba9cb9b7-e169-417f-9935-168b14fbaa35","ios":"levelo://app?vid=ba9cb9b7-e169-417f-9935-168b14fbaa35"},"vehicle_type_id":"4","last_reported":1698646186,"current_range_meters":23200,"station_id":"ce4bgn92rcd13ifvqbvg","pricing_plan_id":"free"},{"bike_id":"b1cb48cb-22d4-4cd4-97b0-038c1cf723b7","system_id":"levelo_inurba_marseille","lat":43.315186,"lon":5.371432,"is_reserved":false,"is_disabled":false,"rental_uris":{"android":"levelo://app?vid=b1cb48cb-22d4-4cd4-97b0-038c1cf723b7","ios":"levelo://app?vid=b1cb48cb-22d4-4cd4-97b0-038c1cf723b7"},"vehicle_type_id":"4","last_reported":1698646186,"current_range_meters":12800,"station_id":"","pricing_plan_id":"free"},{"bike_id":"23e8fb1b-695e-4ad6-8d4f-81cad35dc2a9","system_id":"levelo_inurba_marseille","lat":43.306908,"lon":5.365884,"is_reserved":false,"is_disabled":false,"rental_uris":{"android":"levelo://app?vid=23e8fb1b-695e-4ad6-8d4f-81cad35dc2a9","ios":"levelo://app?vid=23e8fb1b-695e-4ad6-8d4f-81cad35dc2a9"},"vehicle_type_id":"4","last_reported":1698646186,"current_range_meters":31200,"station_id":"","pricing_plan_id":"free"},{"bike_id":"b083c25e-8aee-4acb-b24d-524c92a9fb97","system_id":"levelo_inurba_marseille","lat":43.31413,"lon":5.37564,"is_reserved":false,"is_disabled":false,"rental_uris":{"android":"levelo://app?vid=b083c25e-8aee-4acb-b24d-524c92a9fb97","ios":"levelo://app?vid=b083c25e-8aee-4acb-b24d-524c92a9fb97"},"vehicle_type_id":"4","last_reported":1698646186,"current_range_meters":7600,"station_id":"","pricing_plan_id":"free"},{"bike_id":"3eea3011-0b54-4248-a9c6-39573dd7bf1c","system_id":"levelo_inurba_marseille","lat":43.30551,"lon":5.36555,"is_reserved":false,"is_disabled":false,"rental_uris":{"android":"levelo://app?vid=3eea3011-0b54-4248-a9c6-39573dd7bf1c","ios":"levelo://app?vid=3eea3011-0b54-4248-a9c6-39573dd7bf1c"},"vehicle_type_id":"4","last_reported":1698646186,"current_range_meters":26800,"station_id":"ce4bgs12rcd13ifvqcag","pricing_plan_id":"free"},{"bike_id":"f252b071-dddd-4e5f-ad07-506846af6d1a","system_id":"levelo_inurba_marseille","lat":43.30542,"lon":5.36523,"is_reserved":false,"is_disabled":false,"rental_uris":{"android":"levelo://app?vid=f252b071-dddd-4e5f-ad07-506846af6d1a","ios":"levelo://app?vid=f252b071-dddd-4e5f-ad07-506846af6d1a"},"vehicle_type_id":"4","last_reported":1698646186,"current_range_meters":30000,"station_id":"ce4bgs12rcd13ifvqcag","pricing_plan_id":"free"},{"bike_id":"235eb7cf-7c9b-43fb-8d87-b6238f1dbc07","system_id":"levelo_inurba_marseille","lat":43.305349,"lon":5.365499,"is_reserved":false,"is_disabled":false,"rental_uris":{"android":"levelo://app?vid=235eb7cf-7c9b-43fb-8d87-b6238f1dbc07","ios":"levelo://app?vid=235eb7cf-7c9b-43fb-8d87-b6238f1dbc07"},"vehicle_type_id":"4","last_reported":1698646186,"current_range_meters":23600,"station_id":"ce4bgs12rcd13ifvqcag","pricing_plan_id":"free"},{"bike_id":"6af4d2c0-a5b0-4f50-b016-261f7a7c38f5","system_id":"levelo_inurba_marseille","lat":43.30527,"lon":5.36564,"is_reserved":false,"is_disabled":false,"rental_uris":{"android":"levelo://app?vid=6af4d2c0-a5b0-4f50-b016-261f7a7c38f5","ios":"levelo://app?vid=6af4d2c0-a5b0-4f50-b016-261f7a7c38f5"},"vehicle_type_id":"4","last_reported":1698646186,"current_range_meters":28400,"station_id":"ce4bgs12rcd13ifvqcag","pricing_plan_id":"free"},{"bike_id":"b6d96b2e-2b53-47b6-afb5-8531b2b92e5d","system_id":"levelo_inurba_marseille","lat":43.305989,"lon":5.37225,"is_reserved":false,"is_disabled":false,"rental_uris":{"android":"levelo://app?vid=b6d96b2e-2b53-47b6-afb5-8531b2b92e5d","ios":"levelo://app?vid=b6d96b2e-2b53-47b6-afb5-8531b2b92e5d"},"vehicle_type_id":"4","last_reported":1698646186,"current_range_meters":26800,"station_id":"ce4bgqh2rcd13ifvqc4g","pricing_plan_id":"free"},{"bike_id":"4ffa1791-04b8-4a35-b5b8-d859cd622a3d","system_id":"levelo_inurba_marseille","lat":43.311125,"lon":5.377624,"is_reserved":false,"is_disabled":false,"rental_uris":{"android":"levelo://app?vid=4ffa1791-04b8-4a35-b5b8-d859cd622a3d","ios":"levelo://app?vid=4ffa1791-04b8-4a35-b5b8-d859cd622a3d"},"vehicle_type_id":"4","last_reported":1698646186,"current_range_meters":30400,"station_id":"ce4bgt92rcd13ifvqcg0","pricing_plan_id":"free"},{"bike_id":"a6463711-ed20-419c-bc16-0c44a75ed012","system_id":"levelo_inurba_marseille","lat":43.311125,"lon":5.377624,"is_reserved":false,"is_disabled":false,"rental_uris":{"android":"levelo://app?vid=a6463711-ed20-419c-bc16-0c44a75ed012","ios":"levelo://app?vid=a6463711-ed20-419c-bc16-0c44a75ed012"},"vehicle_type_id":"4","last_reported":1698646186,"current_range_meters":31200,"station_id":"ce4bgt92rcd13ifvqcg0","pricing_plan_id":"free"},{"bike_id":"a2bf4980-45ba-4e09-9dda-74f677699ac0","system_id":"levelo_inurba_marseille","lat":43.317075,"lon":5.377367,"is_reserved":false,"is_disabled":false,"rental_uris":{"android":"levelo://app?vid=a2bf4980-45ba-4e09-9dda-74f677699ac0","ios":"levelo://app?vid=a2bf4980-45ba-4e09-9dda-74f677699ac0"},"vehicle_type_id":"4","last_reported":1698646186,"current_range_meters":28000,"station_id":"ce4bgth2rcd13ifvqch0","pricing_plan_id":"free"},{"bike_id":"2b9931f5-6d99-4091-9d8f-986af16e0ac5","system_id":"levelo_inurba_marseille","lat":43.315291,"lon":5.380267,"is_reserved":false,"is_disabled":false,"rental_uris":{"android":"levelo://app?vid=2b9931f5-6d99-4091-9d8f-986af16e0ac5","ios":"levelo://app?vid=2b9931f5-6d99-4091-9d8f-986af16e0ac5"},"vehicle_type_id":"4","last_reported":1698646186,"current_range_meters":0,"station_id":"ce4bhsp2rcd13ifvqi50","pricing_plan_id":"free"},{"bike_id":"630133d2-352b-4586-a0b8-1ee56509784c","system_id":"levelo_inurba_marseille","lat":43.321913,"lon":5.374883,"is_reserved":false,"is_disabled":false,"rental_uris":{"android":"levelo://app?vid=630133d2-352b-4586-a0b8-1ee56509784c","ios":"levelo://app?vid=630133d2-352b-4586-a0b8-1ee56509784c"},"vehicle_type_id":"4","last_reported":1698646186,"current_range_meters":21600,"station_id":"","pricing_plan_id":"free"},{"bike_id":"e3f253a1-9788-4492-938f-39b642fbd881","system_id":"levelo_inurba_marseille","lat":43.3245,"lon":5.36788,"is_reserved":false,"is_disabled":false,"rental_uris":{"android":"levelo://app?vid=e3f253a1-9788-4492-938f-39b642fbd881","ios":"levelo://app?vid=e3f253a1-9788-4492-938f-39b642fbd881"},"vehicle_type_id":"4","last_reported":1698646186,"current_range_meters":3200,"station_id":"","pricing_plan_id":"free"},{"bike_id":"e9f9a119-513c-4318-a26f-126acc444436","system_id":"levelo_inurba_marseille","lat":43.304606,"lon":5.379026,"is_reserved":false,"is_disabled":false,"rental_uris":{"android":"levelo://app?vid=e9f9a119-513c-4318-a26f-126acc444436","ios":"levelo://app?vid=e9f9a119-513c-4318-a26f-126acc444436"},"vehicle_type_id":"4","last_reported":1698646186,"current_range_meters":31200,"station_id":"ce4bgup2rcd13ifvqcn0","pricing_plan_id":"free"},{"bike_id":"2ccac8ca-bef6-4f09-9d21-ce46e234078b","system_id":"levelo_inurba_marseille","lat":43.304606,"lon":5.379026,"is_reserved":false,"is_disabled":false,"rental_uris":{"android":"levelo://app?vid=2ccac8ca-bef6-4f09-9d21-ce46e234078b","ios":"levelo://app?vid=2ccac8ca-bef6-4f09-9d21-ce46e234078b"},"vehicle_type_id":"4","last_reported":1698646186,"current_range_meters":17600,"station_id":"ce4bgup2rcd13ifvqcn0","pricing_plan_id":"free"},{"bike_id":"7e236eaa-8c07-4c78-aa1c-71244a1f171c","system_id":"levelo_inurba_marseille","lat":43.304606,"lon":5.379026,"is_reserved":false,"is_disabled":false,"rental_uris":{"android":"levelo://app?vid=7e236eaa-8c07-4c78-aa1c-71244a1f171c","ios":"levelo://app?vid=7e236eaa-8c07-4c78-aa1c-71244a1f171c"},"vehicle_type_id":"4","last_reported":1698646186,"current_range_meters":23600,"station_id":"ce4bgup2rcd13ifvqcn0","pricing_plan_id":"free"},{"bike_id":"86e2cbe9-9f67-4f14-b2eb-7c5afd638cfb","system_id":"levelo_inurba_marseille","lat":43.304606,"lon":5.379026,"is_reserved":false,"is_disabled":false,"rental_uris":{"android":"levelo://app?vid=86e2cbe9-9f67-4f14-b2eb-7c5afd638cfb","ios":"levelo://app?vid=86e2cbe9-9f67-4f14-b2eb-7c5afd638cfb"},"vehicle_type_id":"4","last_reported":1698646186,"current_range_meters":31200,"station_id":"ce4bgup2rcd13ifvqcn0","pricing_plan_id":"free"},{"bike_id":"021bf0c9-600a-4ee1-9188-8ccc4e7cf847","system_id":"levelo_inurba_marseille","lat":43.304606,"lon":5.379026,"is_reserved":false,"is_disabled":false,"rental_uris":{"android":"levelo://app?vid=021bf0c9-600a-4ee1-9188-8ccc4e7cf847","ios":"levelo://app?vid=021bf0c9-600a-4ee1-9188-8ccc4e7cf847"},"vehicle_type_id":"4","last_reported":1698646186,"current_range_meters":23200,"station_id":"ce4bgup2rcd13ifvqcn0","pricing_plan_id":"free"},{"bike_id":"8f17863d-9625-4b6c-8112-65af05dc56de","system_id":"levelo_inurba_marseille","lat":43.304606,"lon":5.379026,"is_reserved":false,"is_disabled":false,"rental_uris":{"android":"levelo://app?vid=8f17863d-9625-4b6c-8112-65af05dc56de","ios":"levelo://app?vid=8f17863d-9625-4b6c-8112-65af05dc56de"},"vehicle_type_id":"4","last_reported":1698646186,"current_range_meters":9200,"station_id":"ce4bgup2rcd13ifvqcn0","pricing_plan_id":"free"},{"bike_id":"cb034764-a751-4574-b4ff-700432339c4f","system_id":"levelo_inurba_marseille","lat":43.304606,"lon":5.379026,"is_reserved":false,"is_disabled":false,"rental_uris":{"android":"levelo://app?vid=cb034764-a751-4574-b4ff-700432339c4f","ios":"levelo://app?vid=cb034764-a751-4574-b4ff-700432339c4f"},"vehicle_type_id":"4","last_reported":1698646186,"current_range_meters":0,"station_id":"ce4bgup2rcd13ifvqcn0","pricing_plan_id":"free"},{"bike_id":"560f8e58-86f7-4f0c-a186-9f860b764117","system_id":"levelo_inurba_marseille","lat":43.304606,"lon":5.379026,"is_reserved":false,"is_disabled":false,"rental_uris":{"android":"levelo://app?vid=560f8e58-86f7-4f0c-a186-9f860b764117","ios":"levelo://app?vid=560f8e58-86f7-4f0c-a186-9f860b764117"},"vehicle_type_id":"4","last_reported":1698646186,"current_range_meters":6800,"station_id":"ce4bgup2rcd13ifvqcn0","pricing_plan_id":"free"},{"bike_id":"39fe58f8-c9e5-4254-b4d3-de2e77684994","system_id":"levelo_inurba_marseille","lat":43.304606,"lon":5.379026,"is_reserved":false,"is_disabled":false,"rental_uris":{"android":"levelo://app?vid=39fe58f8-c9e5-4254-b4d3-de2e77684994","ios":"levelo://app?vid=39fe58f8-c9e5-4254-b4d3-de2e77684994"},"vehicle_type_id":"4","last_reported":1698646186,"current_range_meters":13200,"station_id":"ce4bgup2rcd13ifvqcn0","pricing_plan_id":"free"},{"bike_id":"811a53dd-4e32-49ed-bdb8-c27fb3682baa","system_id":"levelo_inurba_marseille","lat":43.304606,"lon":5.379026,"is_reserved":false,"is_disabled":false,"rental_uris":{"android":"levelo://app?vid=811a53dd-4e32-49ed-bdb8-c27fb3682baa","ios":"levelo://app?vid=811a53dd-4e32-49ed-bdb8-c27fb3682baa"},"vehicle_type_id":"4","last_reported":1698646186,"current_range_meters":23200,"station_id":"ce4bgup2rcd13ifvqcn0","pricing_plan_id":"free"},{"bike_id":"08354060-06d2-43e3-a698-4a6206e4d2d3","system_id":"levelo_inurba_marseille","lat":43.304606,"lon":5.379026,"is_reserved":false,"is_disabled":false,"rental_uris":{"android":"levelo://app?vid=08354060-06d2-43e3-a698-4a6206e4d2d3","ios":"levelo://app?vid=08354060-06d2-43e3-a698-4a6206e4d2d3"},"vehicle_type_id":"4","last_reported":1698646186,"current_range_meters":14400,"station_id":"ce4bgup2rcd13ifvqcn0","pricing_plan_id":"free"},{"bike_id":"aa1673d5-7bdd-49e5-af22-a3f2ca149844","system_id":"levelo_inurba_marseille","lat":43.304606,"lon":5.379026,"is_reserved":false,"is_disabled":false,"rental_uris":{"android":"levelo://app?vid=aa1673d5-7bdd-49e5-af22-a3f2ca149844","ios":"levelo://app?vid=aa1673d5-7bdd-49e5-af22-a3f2ca149844"},"vehicle_type_id":"4","last_reported":1698646186,"current_range_meters":23200,"station_id":"ce4bgup2rcd13ifvqcn0","pricing_plan_id":"free"},{"bike_id":"c67cb4fe-8c0f-499e-88be-99ad4c6ab470","system_id":"levelo_inurba_marseille","lat":43.304606,"lon":5.379026,"is_reserved":false,"is_disabled":false,"rental_uris":{"android":"levelo://app?vid=c67cb4fe-8c0f-499e-88be-99ad4c6ab470","ios":"levelo://app?vid=c67cb4fe-8c0f-499e-88be-99ad4c6ab470"},"vehicle_type_id":"4","last_reported":1698646186,"current_range_meters":27600,"station_id":"ce4bgup2rcd13ifvqcn0","pricing_plan_id":"free"},{"bike_id":"9d420ac2-982d-4773-b29b-da88fe59e9ad","system_id":"levelo_inurba_marseille","lat":43.304606,"lon":5.379026,"is_reserved":false,"is_disabled":false,"rental_uris":{"android":"levelo://app?vid=9d420ac2-982d-4773-b29b-da88fe59e9ad","ios":"levelo://app?vid=9d420ac2-982d-4773-b29b-da88fe59e9ad"},"vehicle_type_id":"4","last_reported":1698646186,"current_range_meters":23200,"station_id":"ce4bgup2rcd13ifvqcn0","pricing_plan_id":"free"},{"bike_id":"a601963f-d3d3-4bc1-98e3-819158de4e9d","system_id":"levelo_inurba_marseille","lat":43.304606,"lon":5.379026,"is_reserved":false,"is_disabled":false,"rental_uris":{"android":"levelo://app?vid=a601963f-d3d3-4bc1-98e3-819158de4e9d","ios":"levelo://app?vid=a601963f-d3d3-4bc1-98e3-819158de4e9d"},"vehicle_type_id":"4","last_reported":1698646186,"current_range_meters":13600,"station_id":"ce4bgup2rcd13ifvqcn0","pricing_plan_id":"free"},{"bike_id":"592ce4ae-b7cd-40ee-a2b5-adf7a79419b1","system_id":"levelo_inurba_marseille","lat":43.304606,"lon":5.379026,"is_reserved":false,"is_disabled":false,"rental_uris":{"android":"levelo://app?vid=592ce4ae-b7cd-40ee-a2b5-adf7a79419b1","ios":"levelo://app?vid=592ce4ae-b7cd-40ee-a2b5-adf7a79419b1"},"vehicle_type_id":"4","last_reported":1698646186,"current_range_meters":21600,"station_id":"ce4bgup2rcd13ifvqcn0","pricing_plan_id":"free"},{"bike_id":"6df0e54b-f3eb-4a76-a43d-38f75e98b60a","system_id":"levelo_inurba_marseille","lat":43.304606,"lon":5.379026,"is_reserved":false,"is_disabled":false,"rental_uris":{"android":"levelo://app?vid=6df0e54b-f3eb-4a76-a43d-38f75e98b60a","ios":"levelo://app?vid=6df0e54b-f3eb-4a76-a43d-38f75e98b60a"},"vehicle_type_id":"4","last_reported":1698646186,"current_range_meters":24000,"station_id":"ce4bgup2rcd13ifvqcn0","pricing_plan_id":"free"},{"bike_id":"d797f1e6-f3ca-4ad7-8b56-5ed6191da53c","system_id":"levelo_inurba_marseille","lat":43.304606,"lon":5.379026,"is_reserved":false,"is_disabled":false,"rental_uris":{"android":"levelo://app?vid=d797f1e6-f3ca-4ad7-8b56-5ed6191da53c","ios":"levelo://app?vid=d797f1e6-f3ca-4ad7-8b56-5ed6191da53c"},"vehicle_type_id":"4","last_reported":1698646186,"current_range_meters":28400,"station_id":"ce4bgup2rcd13ifvqcn0","pricing_plan_id":"free"},{"bike_id":"5b9cb511-444f-4911-8fbc-35665c184e78","system_id":"levelo_inurba_marseille","lat":43.304606,"lon":5.379026,"is_reserved":false,"is_disabled":false,"rental_uris":{"android":"levelo://app?vid=5b9cb511-444f-4911-8fbc-35665c184e78","ios":"levelo://app?vid=5b9cb511-444f-4911-8fbc-35665c184e78"},"vehicle_type_id":"4","last_reported":1698646186,"current_range_meters":6400,"station_id":"ce4bgup2rcd13ifvqcn0","pricing_plan_id":"free"},{"bike_id":"61abf92b-5c7f-4e9e-a5a6-03fb2419f878","system_id":"levelo_inurba_marseille","lat":43.304606,"lon":5.379026,"is_reserved":false,"is_disabled":false,"rental_uris":{"android":"levelo://app?vid=61abf92b-5c7f-4e9e-a5a6-03fb2419f878","ios":"levelo://app?vid=61abf92b-5c7f-4e9e-a5a6-03fb2419f878"},"vehicle_type_id":"4","last_reported":1698646186,"current_range_meters":22000,"station_id":"ce4bgup2rcd13ifvqcn0","pricing_plan_id":"free"},{"bike_id":"33799d3a-1a35-4946-b871-92caf48036ec","system_id":"levelo_inurba_marseille","lat":43.324791,"lon":5.365627,"is_reserved":false,"is_disabled":false,"rental_uris":{"android":"levelo://app?vid=33799d3a-1a35-4946-b871-92caf48036ec","ios":"levelo://app?vid=33799d3a-1a35-4946-b871-92caf48036ec"},"vehicle_type_id":"4","last_reported":1698646186,"current_range_meters":22000,"station_id":"","pricing_plan_id":"free"},{"bike_id":"f19b36cd-3e8d-4d4c-8dfe-1810bd7604c1","system_id":"levelo_inurba_marseille","lat":43.30269,"lon":5.37689,"is_reserved":false,"is_disabled":false,"rental_uris":{"android":"levelo://app?vid=f19b36cd-3e8d-4d4c-8dfe-1810bd7604c1","ios":"levelo://app?vid=f19b36cd-3e8d-4d4c-8dfe-1810bd7604c1"},"vehicle_type_id":"4","last_reported":1698646186,"current_range_meters":5200,"station_id":"ce4bguh2rcd13ifvqcj0","pricing_plan_id":"free"},{"bike_id":"f63d7248-528a-48b5-a857-692ce9cb3ba6","system_id":"levelo_inurba_marseille","lat":43.301429,"lon":5.37413,"is_reserved":false,"is_disabled":false,"rental_uris":{"android":"levelo://app?vid=f63d7248-528a-48b5-a857-692ce9cb3ba6","ios":"levelo://app?vid=f63d7248-528a-48b5-a857-692ce9cb3ba6"},"vehicle_type_id":"4","last_reported":1698646186,"current_range_meters":29600,"station_id":"ce4bgs92rcd13ifvqcc0","pricing_plan_id":"free"},{"bike_id":"cb61aa21-59b5-429a-8468-122a4c5e452c","system_id":"levelo_inurba_marseille","lat":43.319935,"lon":5.381699,"is_reserved":false,"is_disabled":false,"rental_uris":{"android":"levelo://app?vid=cb61aa21-59b5-429a-8468-122a4c5e452c","ios":"levelo://app?vid=cb61aa21-59b5-429a-8468-122a4c5e452c"},"vehicle_type_id":"4","last_reported":1698646186,"current_range_meters":8800,"station_id":"ce4bhr12rcd13ifvqhpg","pricing_plan_id":"free"},{"bike_id":"504dadd1-24d1-45d8-bef6-1c3693924251","system_id":"levelo_inurba_marseille","lat":43.319964,"lon":5.381567,"is_reserved":false,"is_disabled":false,"rental_uris":{"android":"levelo://app?vid=504dadd1-24d1-45d8-bef6-1c3693924251","ios":"levelo://app?vid=504dadd1-24d1-45d8-bef6-1c3693924251"},"vehicle_type_id":"4","last_reported":1698646186,"current_range_meters":22000,"station_id":"ce4bhr12rcd13ifvqhpg","pricing_plan_id":"free"},{"bike_id":"31a6c390-abdc-4b53-9e81-f3d196ca3d02","system_id":"levelo_inurba_marseille","lat":43.300579,"lon":5.374286,"is_reserved":false,"is_disabled":false,"rental_uris":{"android":"levelo://app?vid=31a6c390-abdc-4b53-9e81-f3d196ca3d02","ios":"levelo://app?vid=31a6c390-abdc-4b53-9e81-f3d196ca3d02"},"vehicle_type_id":"4","last_reported":1698646186,"current_range_meters":1600,"station_id":"","pricing_plan_id":"free"},{"bike_id":"9970fc70-6c92-4c73-90d3-7982da6dd7a3","system_id":"levelo_inurba_marseille","lat":43.299222,"lon":5.365554,"is_reserved":false,"is_disabled":false,"rental_uris":{"android":"levelo://app?vid=9970fc70-6c92-4c73-90d3-7982da6dd7a3","ios":"levelo://app?vid=9970fc70-6c92-4c73-90d3-7982da6dd7a3"},"vehicle_type_id":"4","last_reported":1698646186,"current_range_meters":29200,"station_id":"ce4bgm92rcd13ifvqbr0","pricing_plan_id":"free"},{"bike_id":"5ba66772-20b6-408d-a6c3-0df1cd4bb678","system_id":"levelo_inurba_marseille","lat":43.3264,"lon":5.367334,"is_reserved":false,"is_disabled":false,"rental_uris":{"android":"levelo://app?vid=5ba66772-20b6-408d-a6c3-0df1cd4bb678","ios":"levelo://app?vid=5ba66772-20b6-408d-a6c3-0df1cd4bb678"},"vehicle_type_id":"4","last_reported":1698646186,"current_range_meters":11200,"station_id":"","pricing_plan_id":"free"},{"bike_id":"753872b1-ba2b-4e14-998c-2b8594094dfa","system_id":"levelo_inurba_marseille","lat":43.29851,"lon":5.36288,"is_reserved":false,"is_disabled":false,"rental_uris":{"android":"levelo://app?vid=753872b1-ba2b-4e14-998c-2b8594094dfa","ios":"levelo://app?vid=753872b1-ba2b-4e14-998c-2b8594094dfa"},"vehicle_type_id":"4","last_reported":1698646186,"current_range_meters":14000,"station_id":"ce4bgpp2rcd13ifvqc3g","pricing_plan_id":"free"},{"bike_id":"66361b49-a7a7-429d-a197-2ca67f78e03d","system_id":"levelo_inurba_marseille","lat":43.311722,"lon":5.387247,"is_reserved":false,"is_disabled":false,"rental_uris":{"android":"levelo://app?vid=66361b49-a7a7-429d-a197-2ca67f78e03d","ios":"levelo://app?vid=66361b49-a7a7-429d-a197-2ca67f78e03d"},"vehicle_type_id":"4","last_reported":1698646186,"current_range_meters":17600,"station_id":"ce4bgv12rcd13ifvqcp0","pricing_plan_id":"free"},{"bike_id":"9106f79b-f52a-4862-a248-ddb706233d3a","system_id":"levelo_inurba_marseille","lat":43.311836,"lon":5.387092,"is_reserved":false,"is_disabled":false,"rental_uris":{"android":"levelo://app?vid=9106f79b-f52a-4862-a248-ddb706233d3a","ios":"levelo://app?vid=9106f79b-f52a-4862-a248-ddb706233d3a"},"vehicle_type_id":"4","last_reported":1698646186,"current_range_meters":18400,"station_id":"ce4bgv12rcd13ifvqcp0","pricing_plan_id":"free"},{"bike_id":"12502785-0416-48b1-ace3-e097f07644a4","system_id":"levelo_inurba_marseille","lat":43.311722,"lon":5.387247,"is_reserved":false,"is_disabled":false,"rental_uris":{"android":"levelo://app?vid=12502785-0416-48b1-ace3-e097f07644a4","ios":"levelo://app?vid=12502785-0416-48b1-ace3-e097f07644a4"},"vehicle_type_id":"4","last_reported":1698646186,"current_range_meters":31600,"station_id":"ce4bgv12rcd13ifvqcp0","pricing_plan_id":"free"},{"bike_id":"5406decc-50c8-42ce-a3cd-8ecf9adbb19c","system_id":"levelo_inurba_marseille","lat":43.311722,"lon":5.387247,"is_reserved":false,"is_disabled":false,"rental_uris":{"android":"levelo://app?vid=5406decc-50c8-42ce-a3cd-8ecf9adbb19c","ios":"levelo://app?vid=5406decc-50c8-42ce-a3cd-8ecf9adbb19c"},"vehicle_type_id":"4","last_reported":1698646186,"current_range_meters":30400,"station_id":"ce4bgv12rcd13ifvqcp0","pricing_plan_id":"free"},{"bike_id":"791947d5-c9ad-486d-afa3-b3a19476d1f6","system_id":"levelo_inurba_marseille","lat":43.322872,"lon":5.382756,"is_reserved":false,"is_disabled":false,"rental_uris":{"android":"levelo://app?vid=791947d5-c9ad-486d-afa3-b3a19476d1f6","ios":"levelo://app?vid=791947d5-c9ad-486d-afa3-b3a19476d1f6"},"vehicle_type_id":"4","last_reported":1698646186,"current_range_meters":29200,"station_id":"ce4bhr12rcd13ifvqhqg","pricing_plan_id":"free"},{"bike_id":"2bf09692-7151-4aba-9fa7-8ce1d6106004","system_id":"levelo_inurba_marseille","lat":43.328303,"lon":5.366873,"is_reserved":false,"is_disabled":false,"rental_uris":{"android":"levelo://app?vid=2bf09692-7151-4aba-9fa7-8ce1d6106004","ios":"levelo://app?vid=2bf09692-7151-4aba-9fa7-8ce1d6106004"},"vehicle_type_id":"4","last_reported":1698646186,"current_range_meters":6400,"station_id":"","pricing_plan_id":"free"},{"bike_id":"a0107e24-40c5-4d86-a599-853976e9b0b9","system_id":"levelo_inurba_marseille","lat":43.328371,"lon":5.366909,"is_reserved":false,"is_disabled":false,"rental_uris":{"android":"levelo://app?vid=a0107e24-40c5-4d86-a599-853976e9b0b9","ios":"levelo://app?vid=a0107e24-40c5-4d86-a599-853976e9b0b9"},"vehicle_type_id":"4","last_reported":1698646186,"current_range_meters":12000,"station_id":"ce4bhs92rcd13ifvqi0g","pricing_plan_id":"free"},{"bike_id":"dd1c0b20-019a-4f88-ae15-bb2c3eed70ed","system_id":"levelo_inurba_marseille","lat":43.319086,"lon":5.387927,"is_reserved":false,"is_disabled":false,"rental_uris":{"android":"levelo://app?vid=dd1c0b20-019a-4f88-ae15-bb2c3eed70ed","ios":"levelo://app?vid=dd1c0b20-019a-4f88-ae15-bb2c3eed70ed"},"vehicle_type_id":"4","last_reported":1698646186,"current_range_meters":0,"station_id":"","pricing_plan_id":"free"},{"bike_id":"49621fb4-1a29-427b-9048-01b6c22cf34e","system_id":"levelo_inurba_marseille","lat":43.29622,"lon":5.37183,"is_reserved":false,"is_disabled":false,"rental_uris":{"android":"levelo://app?vid=49621fb4-1a29-427b-9048-01b6c22cf34e","ios":"levelo://app?vid=49621fb4-1a29-427b-9048-01b6c22cf34e"},"vehicle_type_id":"4","last_reported":1698646186,"current_range_meters":28800,"station_id":"ce4bgnh2rcd13ifvqc0g","pricing_plan_id":"free"},{"bike_id":"1d457d92-bafd-4021-89f7-b5af1804e1ee","system_id":"levelo_inurba_marseille","lat":43.29573,"lon":5.367355,"is_reserved":false,"is_disabled":false,"rental_uris":{"android":"levelo://app?vid=1d457d92-bafd-4021-89f7-b5af1804e1ee","ios":"levelo://app?vid=1d457d92-bafd-4021-89f7-b5af1804e1ee"},"vehicle_type_id":"4","last_reported":1698646186,"current_range_meters":31200,"station_id":"ce4bgph2rcd13ifvqc2g","pricing_plan_id":"free"},{"bike_id":"9b408695-17cb-4768-83d4-699577c317bd","system_id":"levelo_inurba_marseille","lat":43.29573,"lon":5.367355,"is_reserved":false,"is_disabled":false,"rental_uris":{"android":"levelo://app?vid=9b408695-17cb-4768-83d4-699577c317bd","ios":"levelo://app?vid=9b408695-17cb-4768-83d4-699577c317bd"},"vehicle_type_id":"4","last_reported":1698646186,"current_range_meters":15600,"station_id":"ce4bgph2rcd13ifvqc2g","pricing_plan_id":"free"},{"bike_id":"5ac6021c-58bb-41f5-82ea-ab54a1fcf3cc","system_id":"levelo_inurba_marseille","lat":43.29573,"lon":5.367355,"is_reserved":false,"is_disabled":false,"rental_uris":{"android":"levelo://app?vid=5ac6021c-58bb-41f5-82ea-ab54a1fcf3cc","ios":"levelo://app?vid=5ac6021c-58bb-41f5-82ea-ab54a1fcf3cc"},"vehicle_type_id":"4","last_reported":1698646186,"current_range_meters":9600,"station_id":"ce4bgph2rcd13ifvqc2g","pricing_plan_id":"free"},{"bike_id":"0a3ae841-d77f-427f-aa02-08b15bfa3450","system_id":"levelo_inurba_marseille","lat":43.29573,"lon":5.367355,"is_reserved":false,"is_disabled":false,"rental_uris":{"android":"levelo://app?vid=0a3ae841-d77f-427f-aa02-08b15bfa3450","ios":"levelo://app?vid=0a3ae841-d77f-427f-aa02-08b15bfa3450"},"vehicle_type_id":"4","last_reported":1698646186,"current_range_meters":30400,"station_id":"ce4bgph2rcd13ifvqc2g","pricing_plan_id":"free"},{"bike_id":"cab60158-cd23-4ca3-9095-14f41fd9ac3f","system_id":"levelo_inurba_marseille","lat":43.29573,"lon":5.367355,"is_reserved":false,"is_disabled":false,"rental_uris":{"android":"levelo://app?vid=cab60158-cd23-4ca3-9095-14f41fd9ac3f","ios":"levelo://app?vid=cab60158-cd23-4ca3-9095-14f41fd9ac3f"},"vehicle_type_id":"4","last_reported":1698646186,"current_range_meters":30000,"station_id":"ce4bgph2rcd13ifvqc2g","pricing_plan_id":"free"},{"bike_id":"f3d0381f-7a2d-409e-a12f-bd3d9095653d","system_id":"levelo_inurba_marseille","lat":43.329673,"lon":5.365468,"is_reserved":false,"is_disabled":false,"rental_uris":{"android":"levelo://app?vid=f3d0381f-7a2d-409e-a12f-bd3d9095653d","ios":"levelo://app?vid=f3d0381f-7a2d-409e-a12f-bd3d9095653d"},"vehicle_type_id":"4","last_reported":1698646186,"current_range_meters":0,"station_id":"","pricing_plan_id":"free"},{"bike_id":"3258b85a-ad39-452e-abea-239a1d7520c5","system_id":"levelo_inurba_marseille","lat":43.29573,"lon":5.367355,"is_reserved":false,"is_disabled":false,"rental_uris":{"android":"levelo://app?vid=3258b85a-ad39-452e-abea-239a1d7520c5","ios":"levelo://app?vid=3258b85a-ad39-452e-abea-239a1d7520c5"},"vehicle_type_id":"4","last_reported":1698646186,"current_range_meters":30400,"station_id":"ce4bgph2rcd13ifvqc2g","pricing_plan_id":"free"},{"bike_id":"e82e8170-cf29-4de9-8037-bc8d4f738c96","system_id":"levelo_inurba_marseille","lat":43.29573,"lon":5.367355,"is_reserved":false,"is_disabled":false,"rental_uris":{"android":"levelo://app?vid=e82e8170-cf29-4de9-8037-bc8d4f738c96","ios":"levelo://app?vid=e82e8170-cf29-4de9-8037-bc8d4f738c96"},"vehicle_type_id":"4","last_reported":1698646186,"current_range_meters":22400,"station_id":"ce4bgph2rcd13ifvqc2g","pricing_plan_id":"free"},{"bike_id":"5a5263d4-3060-4e4b-83dd-ab0b08277701","system_id":"levelo_inurba_marseille","lat":43.299028,"lon":5.381509,"is_reserved":false,"is_disabled":false,"rental_uris":{"android":"levelo://app?vid=5a5263d4-3060-4e4b-83dd-ab0b08277701","ios":"levelo://app?vid=5a5263d4-3060-4e4b-83dd-ab0b08277701"},"vehicle_type_id":"4","last_reported":1698646186,"current_range_meters":26400,"station_id":"ce4bgj12rcd13ifvqbc0","pricing_plan_id":"free"},{"bike_id":"280b4992-53ed-4807-abd5-2ae9c645aa41","system_id":"levelo_inurba_marseille","lat":43.2991,"lon":5.38133,"is_reserved":false,"is_disabled":false,"rental_uris":{"android":"levelo://app?vid=280b4992-53ed-4807-abd5-2ae9c645aa41","ios":"levelo://app?vid=280b4992-53ed-4807-abd5-2ae9c645aa41"},"vehicle_type_id":"4","last_reported":1698646186,"current_range_meters":28000,"station_id":"ce4bgj12rcd13ifvqbc0","pricing_plan_id":"free"},{"bike_id":"a9c5db45-53f7-4fb8-8264-c0bc0bd35893","system_id":"levelo_inurba_marseille","lat":43.299028,"lon":5.381509,"is_reserved":false,"is_disabled":false,"rental_uris":{"android":"levelo://app?vid=a9c5db45-53f7-4fb8-8264-c0bc0bd35893","ios":"levelo://app?vid=a9c5db45-53f7-4fb8-8264-c0bc0bd35893"},"vehicle_type_id":"4","last_reported":1698646186,"current_range_meters":14800,"station_id":"ce4bgj12rcd13ifvqbc0","pricing_plan_id":"free"},{"bike_id":"ea4a92e8-b2f3-4bf7-9113-88494913636f","system_id":"levelo_inurba_marseille","lat":43.299028,"lon":5.381509,"is_reserved":false,"is_disabled":false,"rental_uris":{"android":"levelo://app?vid=ea4a92e8-b2f3-4bf7-9113-88494913636f","ios":"levelo://app?vid=ea4a92e8-b2f3-4bf7-9113-88494913636f"},"vehicle_type_id":"4","last_reported":1698646186,"current_range_meters":28400,"station_id":"ce4bgj12rcd13ifvqbc0","pricing_plan_id":"free"},{"bike_id":"db2a4369-aaf8-4b0e-aa50-d535aaeb1b83","system_id":"levelo_inurba_marseille","lat":43.299028,"lon":5.381509,"is_reserved":false,"is_disabled":false,"rental_uris":{"android":"levelo://app?vid=db2a4369-aaf8-4b0e-aa50-d535aaeb1b83","ios":"levelo://app?vid=db2a4369-aaf8-4b0e-aa50-d535aaeb1b83"},"vehicle_type_id":"4","last_reported":1698646186,"current_range_meters":29200,"station_id":"ce4bgj12rcd13ifvqbc0","pricing_plan_id":"free"},{"bike_id":"54afb059-657c-4bf9-a47b-ebb9ae5586d8","system_id":"levelo_inurba_marseille","lat":43.309589,"lon":5.390258,"is_reserved":false,"is_disabled":false,"rental_uris":{"android":"levelo://app?vid=54afb059-657c-4bf9-a47b-ebb9ae5586d8","ios":"levelo://app?vid=54afb059-657c-4bf9-a47b-ebb9ae5586d8"},"vehicle_type_id":"4","last_reported":1698646186,"current_range_meters":25200,"station_id":"ce4bgup2rcd13ifvqco0","pricing_plan_id":"free"},{"bike_id":"a5615430-2f92-482a-ab41-c926b4f7d0f8","system_id":"levelo_inurba_marseille","lat":43.317557,"lon":5.390173,"is_reserved":false,"is_disabled":false,"rental_uris":{"android":"levelo://app?vid=a5615430-2f92-482a-ab41-c926b4f7d0f8","ios":"levelo://app?vid=a5615430-2f92-482a-ab41-c926b4f7d0f8"},"vehicle_type_id":"4","last_reported":1698646186,"current_range_meters":31200,"station_id":"ce4bhqp2rcd13ifvqhng","pricing_plan_id":"free"},{"bike_id":"a9901e70-1bf1-4ce1-a92f-7bee79e9d56b","system_id":"levelo_inurba_marseille","lat":43.317557,"lon":5.390173,"is_reserved":false,"is_disabled":false,"rental_uris":{"android":"levelo://app?vid=a9901e70-1bf1-4ce1-a92f-7bee79e9d56b","ios":"levelo://app?vid=a9901e70-1bf1-4ce1-a92f-7bee79e9d56b"},"vehicle_type_id":"4","last_reported":1698646186,"current_range_meters":30400,"station_id":"ce4bhqp2rcd13ifvqhng","pricing_plan_id":"free"},{"bike_id":"234a56eb-475e-4a7e-a811-5197d725ba06","system_id":"levelo_inurba_marseille","lat":43.317557,"lon":5.390173,"is_reserved":false,"is_disabled":false,"rental_uris":{"android":"levelo://app?vid=234a56eb-475e-4a7e-a811-5197d725ba06","ios":"levelo://app?vid=234a56eb-475e-4a7e-a811-5197d725ba06"},"vehicle_type_id":"4","last_reported":1698646186,"current_range_meters":15200,"station_id":"ce4bhqp2rcd13ifvqhng","pricing_plan_id":"free"},{"bike_id":"1d2c5514-6961-4ee6-952e-694f4d60fad5","system_id":"levelo_inurba_marseille","lat":43.317557,"lon":5.390173,"is_reserved":false,"is_disabled":false,"rental_uris":{"android":"levelo://app?vid=1d2c5514-6961-4ee6-952e-694f4d60fad5","ios":"levelo://app?vid=1d2c5514-6961-4ee6-952e-694f4d60fad5"},"vehicle_type_id":"4","last_reported":1698646186,"current_range_meters":22000,"station_id":"ce4bhqp2rcd13ifvqhng","pricing_plan_id":"free"},{"bike_id":"c7fff62e-1141-4d7a-80e7-3d41735fa625","system_id":"levelo_inurba_marseille","lat":43.317557,"lon":5.390173,"is_reserved":false,"is_disabled":false,"rental_uris":{"android":"levelo://app?vid=c7fff62e-1141-4d7a-80e7-3d41735fa625","ios":"levelo://app?vid=c7fff62e-1141-4d7a-80e7-3d41735fa625"},"vehicle_type_id":"4","last_reported":1698646186,"current_range_meters":19200,"station_id":"ce4bhqp2rcd13ifvqhng","pricing_plan_id":"free"},{"bike_id":"d2330b69-e424-41d8-a009-0931c9af4488","system_id":"levelo_inurba_marseille","lat":43.317557,"lon":5.390173,"is_reserved":false,"is_disabled":false,"rental_uris":{"android":"levelo://app?vid=d2330b69-e424-41d8-a009-0931c9af4488","ios":"levelo://app?vid=d2330b69-e424-41d8-a009-0931c9af4488"},"vehicle_type_id":"4","last_reported":1698646186,"current_range_meters":28400,"station_id":"ce4bhqp2rcd13ifvqhng","pricing_plan_id":"free"},{"bike_id":"21adf501-18e6-4fb0-b04d-7e567b2c3992","system_id":"levelo_inurba_marseille","lat":43.317557,"lon":5.390173,"is_reserved":false,"is_disabled":false,"rental_uris":{"android":"levelo://app?vid=21adf501-18e6-4fb0-b04d-7e567b2c3992","ios":"levelo://app?vid=21adf501-18e6-4fb0-b04d-7e567b2c3992"},"vehicle_type_id":"4","last_reported":1698646186,"current_range_meters":27200,"station_id":"ce4bhqp2rcd13ifvqhng","pricing_plan_id":"free"},{"bike_id":"8b455cd9-d743-431f-9cf0-89d975c36957","system_id":"levelo_inurba_marseille","lat":43.297889,"lon":5.381096,"is_reserved":false,"is_disabled":false,"rental_uris":{"android":"levelo://app?vid=8b455cd9-d743-431f-9cf0-89d975c36957","ios":"levelo://app?vid=8b455cd9-d743-431f-9cf0-89d975c36957"},"vehicle_type_id":"4","last_reported":1698646186,"current_range_meters":0,"station_id":"","pricing_plan_id":"free"},{"bike_id":"873f5ed7-6534-4dae-bc51-707629377c3d","system_id":"levelo_inurba_marseille","lat":43.295748,"lon":5.37522,"is_reserved":false,"is_disabled":false,"rental_uris":{"android":"levelo://app?vid=873f5ed7-6534-4dae-bc51-707629377c3d","ios":"levelo://app?vid=873f5ed7-6534-4dae-bc51-707629377c3d"},"vehicle_type_id":"4","last_reported":1698646186,"current_range_meters":2800,"station_id":"ce4bgh92rcd13ifvqb50","pricing_plan_id":"free"},{"bike_id":"1ccea910-e6fd-4ade-beaa-d1141e72e330","system_id":"levelo_inurba_marseille","lat":43.313771,"lon":5.392047,"is_reserved":false,"is_disabled":false,"rental_uris":{"android":"levelo://app?vid=1ccea910-e6fd-4ade-beaa-d1141e72e330","ios":"levelo://app?vid=1ccea910-e6fd-4ade-beaa-d1141e72e330"},"vehicle_type_id":"4","last_reported":1698646186,"current_range_meters":15200,"station_id":"","pricing_plan_id":"free"},{"bike_id":"6b234b60-cb22-43b3-89da-172e6fcc1669","system_id":"levelo_inurba_marseille","lat":43.299707,"lon":5.384859,"is_reserved":false,"is_disabled":false,"rental_uris":{"android":"levelo://app?vid=6b234b60-cb22-43b3-89da-172e6fcc1669","ios":"levelo://app?vid=6b234b60-cb22-43b3-89da-172e6fcc1669"},"vehicle_type_id":"4","last_reported":1698646186,"current_range_meters":28000,"station_id":"ce4bgj92rcd13ifvqbd0","pricing_plan_id":"free"},{"bike_id":"59f50a34-44ec-4c1e-849a-f5f6e0c5e7e4","system_id":"levelo_inurba_marseille","lat":43.32367,"lon":5.388836,"is_reserved":false,"is_disabled":false,"rental_uris":{"android":"levelo://app?vid=59f50a34-44ec-4c1e-849a-f5f6e0c5e7e4","ios":"levelo://app?vid=59f50a34-44ec-4c1e-849a-f5f6e0c5e7e4"},"vehicle_type_id":"4","last_reported":1698646186,"current_range_meters":26800,"station_id":"ce4bhqp2rcd13ifvqhog","pricing_plan_id":"free"},{"bike_id":"fffdb89f-d0fa-48b2-8a15-e8865b4139a1","system_id":"levelo_inurba_marseille","lat":43.32367,"lon":5.388836,"is_reserved":false,"is_disabled":false,"rental_uris":{"android":"levelo://app?vid=fffdb89f-d0fa-48b2-8a15-e8865b4139a1","ios":"levelo://app?vid=fffdb89f-d0fa-48b2-8a15-e8865b4139a1"},"vehicle_type_id":"4","last_reported":1698646186,"current_range_meters":31200,"station_id":"ce4bhqp2rcd13ifvqhog","pricing_plan_id":"free"},{"bike_id":"671e2fdc-9d8d-4dcf-9e86-540fefa301cc","system_id":"levelo_inurba_marseille","lat":43.323656,"lon":5.388836,"is_reserved":false,"is_disabled":false,"rental_uris":{"android":"levelo://app?vid=671e2fdc-9d8d-4dcf-9e86-540fefa301cc","ios":"levelo://app?vid=671e2fdc-9d8d-4dcf-9e86-540fefa301cc"},"vehicle_type_id":"4","last_reported":1698646186,"current_range_meters":31200,"station_id":"ce4bhqp2rcd13ifvqhog","pricing_plan_id":"free"},{"bike_id":"95de5542-6169-4cc9-ac6c-3d5eadba97c0","system_id":"levelo_inurba_marseille","lat":43.32367,"lon":5.388836,"is_reserved":false,"is_disabled":false,"rental_uris":{"android":"levelo://app?vid=95de5542-6169-4cc9-ac6c-3d5eadba97c0","ios":"levelo://app?vid=95de5542-6169-4cc9-ac6c-3d5eadba97c0"},"vehicle_type_id":"4","last_reported":1698646186,"current_range_meters":30800,"station_id":"ce4bhqp2rcd13ifvqhog","pricing_plan_id":"free"},{"bike_id":"67bb7dbe-50ea-4249-bc98-d0ad4814b4a6","system_id":"levelo_inurba_marseille","lat":43.323667,"lon":5.388841,"is_reserved":false,"is_disabled":false,"rental_uris":{"android":"levelo://app?vid=67bb7dbe-50ea-4249-bc98-d0ad4814b4a6","ios":"levelo://app?vid=67bb7dbe-50ea-4249-bc98-d0ad4814b4a6"},"vehicle_type_id":"4","last_reported":1698646186,"current_range_meters":31200,"station_id":"ce4bhqp2rcd13ifvqhog","pricing_plan_id":"free"},{"bike_id":"254190ce-6f06-4072-bf64-baa8c4bec810","system_id":"levelo_inurba_marseille","lat":43.293095,"lon":5.374475,"is_reserved":false,"is_disabled":false,"rental_uris":{"android":"levelo://app?vid=254190ce-6f06-4072-bf64-baa8c4bec810","ios":"levelo://app?vid=254190ce-6f06-4072-bf64-baa8c4bec810"},"vehicle_type_id":"4","last_reported":1698646186,"current_range_meters":0,"station_id":"ce4bgi12rcd13ifvqb70","pricing_plan_id":"free"},{"bike_id":"53a438ea-f218-4618-bb59-cfe1ba5d69f9","system_id":"levelo_inurba_marseille","lat":43.292991,"lon":5.374296,"is_reserved":false,"is_disabled":false,"rental_uris":{"android":"levelo://app?vid=53a438ea-f218-4618-bb59-cfe1ba5d69f9","ios":"levelo://app?vid=53a438ea-f218-4618-bb59-cfe1ba5d69f9"},"vehicle_type_id":"4","last_reported":1698646186,"current_range_meters":22800,"station_id":"ce4bgi12rcd13ifvqb70","pricing_plan_id":"free"},{"bike_id":"8dab0f6b-faa4-42fe-9f21-f586d675cd6d","system_id":"levelo_inurba_marseille","lat":43.30595,"lon":5.39354,"is_reserved":false,"is_disabled":false,"rental_uris":{"android":"levelo://app?vid=8dab0f6b-faa4-42fe-9f21-f586d675cd6d","ios":"levelo://app?vid=8dab0f6b-faa4-42fe-9f21-f586d675cd6d"},"vehicle_type_id":"4","last_reported":1698646186,"current_range_meters":0,"station_id":"ce4bh0p2rcd13ifvqd80","pricing_plan_id":"free"},{"bike_id":"31efbb81-8134-451b-b1f0-0db9ecefd32b","system_id":"levelo_inurba_marseille","lat":43.2936,"lon":5.37835,"is_reserved":false,"is_disabled":false,"rental_uris":{"android":"levelo://app?vid=31efbb81-8134-451b-b1f0-0db9ecefd32b","ios":"levelo://app?vid=31efbb81-8134-451b-b1f0-0db9ecefd32b"},"vehicle_type_id":"4","last_reported":1698646186,"current_range_meters":30000,"station_id":"ce4bgjh2rcd13ifvqbf0","pricing_plan_id":"free"},{"bike_id":"fef7a6a0-4fbb-46a6-b86f-fcc7960bc402","system_id":"levelo_inurba_marseille","lat":43.292311,"lon":5.360731,"is_reserved":false,"is_disabled":false,"rental_uris":{"android":"levelo://app?vid=fef7a6a0-4fbb-46a6-b86f-fcc7960bc402","ios":"levelo://app?vid=fef7a6a0-4fbb-46a6-b86f-fcc7960bc402"},"vehicle_type_id":"4","last_reported":1698646186,"current_range_meters":31200,"station_id":"ce4bhbh2rcd13ifvqeqg","pricing_plan_id":"free"},{"bike_id":"9ca1f2b6-33db-48d6-a728-16d127b1c727","system_id":"levelo_inurba_marseille","lat":43.292311,"lon":5.360731,"is_reserved":false,"is_disabled":false,"rental_uris":{"android":"levelo://app?vid=9ca1f2b6-33db-48d6-a728-16d127b1c727","ios":"levelo://app?vid=9ca1f2b6-33db-48d6-a728-16d127b1c727"},"vehicle_type_id":"4","last_reported":1698646186,"current_range_meters":16400,"station_id":"ce4bhbh2rcd13ifvqeqg","pricing_plan_id":"free"},{"bike_id":"310d4022-0908-42a4-b366-6ee316dbd9a4","system_id":"levelo_inurba_marseille","lat":43.292311,"lon":5.360731,"is_reserved":false,"is_disabled":false,"rental_uris":{"android":"levelo://app?vid=310d4022-0908-42a4-b366-6ee316dbd9a4","ios":"levelo://app?vid=310d4022-0908-42a4-b366-6ee316dbd9a4"},"vehicle_type_id":"4","last_reported":1698646186,"current_range_meters":26400,"station_id":"ce4bhbh2rcd13ifvqeqg","pricing_plan_id":"free"},{"bike_id":"4d2a7bce-36b4-4736-ae3a-983d0e493bf0","system_id":"levelo_inurba_marseille","lat":43.29216,"lon":5.36062,"is_reserved":false,"is_disabled":false,"rental_uris":{"android":"levelo://app?vid=4d2a7bce-36b4-4736-ae3a-983d0e493bf0","ios":"levelo://app?vid=4d2a7bce-36b4-4736-ae3a-983d0e493bf0"},"vehicle_type_id":"4","last_reported":1698646186,"current_range_meters":24400,"station_id":"ce4bhbh2rcd13ifvqeqg","pricing_plan_id":"free"},{"bike_id":"1f580447-7b2c-4630-9a51-33e28281b372","system_id":"levelo_inurba_marseille","lat":43.33215,"lon":5.3788,"is_reserved":false,"is_disabled":false,"rental_uris":{"android":"levelo://app?vid=1f580447-7b2c-4630-9a51-33e28281b372","ios":"levelo://app?vid=1f580447-7b2c-4630-9a51-33e28281b372"},"vehicle_type_id":"4","last_reported":1698646186,"current_range_meters":30800,"station_id":"","pricing_plan_id":"free"},{"bike_id":"0e8233d2-0d57-470f-8c07-e9f753046a4f","system_id":"levelo_inurba_marseille","lat":43.33217,"lon":5.3788,"is_reserved":false,"is_disabled":false,"rental_uris":{"android":"levelo://app?vid=0e8233d2-0d57-470f-8c07-e9f753046a4f","ios":"levelo://app?vid=0e8233d2-0d57-470f-8c07-e9f753046a4f"},"vehicle_type_id":"4","last_reported":1698646186,"current_range_meters":28000,"station_id":"","pricing_plan_id":"free"},{"bike_id":"5f8000e6-fee4-4289-9ec1-1d056f93d057","system_id":"levelo_inurba_marseille","lat":43.309047,"lon":5.396551,"is_reserved":false,"is_disabled":false,"rental_uris":{"android":"levelo://app?vid=5f8000e6-fee4-4289-9ec1-1d056f93d057","ios":"levelo://app?vid=5f8000e6-fee4-4289-9ec1-1d056f93d057"},"vehicle_type_id":"4","last_reported":1698646186,"current_range_meters":30400,"station_id":"ce4bh012rcd13ifvqcv0","pricing_plan_id":"free"},{"bike_id":"acd16338-0c34-4272-a3fd-65d9c2e62218","system_id":"levelo_inurba_marseille","lat":43.309038,"lon":5.396546,"is_reserved":false,"is_disabled":false,"rental_uris":{"android":"levelo://app?vid=acd16338-0c34-4272-a3fd-65d9c2e62218","ios":"levelo://app?vid=acd16338-0c34-4272-a3fd-65d9c2e62218"},"vehicle_type_id":"4","last_reported":1698646186,"current_range_meters":25600,"station_id":"ce4bh012rcd13ifvqcv0","pricing_plan_id":"free"},{"bike_id":"a7f66838-cd85-4d19-addb-be683bb2a208","system_id":"levelo_inurba_marseille","lat":43.309047,"lon":5.396551,"is_reserved":false,"is_disabled":false,"rental_uris":{"android":"levelo://app?vid=a7f66838-cd85-4d19-addb-be683bb2a208","ios":"levelo://app?vid=a7f66838-cd85-4d19-addb-be683bb2a208"},"vehicle_type_id":"4","last_reported":1698646186,"current_range_meters":31200,"station_id":"ce4bh012rcd13ifvqcv0","pricing_plan_id":"free"},{"bike_id":"4f6bf548-839c-44d2-af39-4ce77f6c6062","system_id":"levelo_inurba_marseille","lat":43.291942,"lon":5.357954,"is_reserved":false,"is_disabled":false,"rental_uris":{"android":"levelo://app?vid=4f6bf548-839c-44d2-af39-4ce77f6c6062","ios":"levelo://app?vid=4f6bf548-839c-44d2-af39-4ce77f6c6062"},"vehicle_type_id":"4","last_reported":1698646186,"current_range_meters":28400,"station_id":"ce4bhb12rcd13ifvqel0","pricing_plan_id":"free"},{"bike_id":"f2f327b1-b474-4b49-8eb7-8dd48cd62234","system_id":"levelo_inurba_marseille","lat":43.29192,"lon":5.357984,"is_reserved":false,"is_disabled":false,"rental_uris":{"android":"levelo://app?vid=f2f327b1-b474-4b49-8eb7-8dd48cd62234","ios":"levelo://app?vid=f2f327b1-b474-4b49-8eb7-8dd48cd62234"},"vehicle_type_id":"4","last_reported":1698646186,"current_range_meters":31200,"station_id":"ce4bhb12rcd13ifvqel0","pricing_plan_id":"free"},{"bike_id":"7a60ef09-0c61-4d15-a34a-eb7b2244406d","system_id":"levelo_inurba_marseille","lat":43.313307,"lon":5.396942,"is_reserved":false,"is_disabled":false,"rental_uris":{"android":"levelo://app?vid=7a60ef09-0c61-4d15-a34a-eb7b2244406d","ios":"levelo://app?vid=7a60ef09-0c61-4d15-a34a-eb7b2244406d"},"vehicle_type_id":"4","last_reported":1698646186,"current_range_meters":14000,"station_id":"ce4bgvp2rcd13ifvqcu0","pricing_plan_id":"free"},{"bike_id":"d8ab1fc9-cee0-453a-baa5-ee109336a8f1","system_id":"levelo_inurba_marseille","lat":43.313363,"lon":5.39699,"is_reserved":false,"is_disabled":false,"rental_uris":{"android":"levelo://app?vid=d8ab1fc9-cee0-453a-baa5-ee109336a8f1","ios":"levelo://app?vid=d8ab1fc9-cee0-453a-baa5-ee109336a8f1"},"vehicle_type_id":"4","last_reported":1698646186,"current_range_meters":26800,"station_id":"ce4bgvp2rcd13ifvqcu0","pricing_plan_id":"free"},{"bike_id":"27346931-ad77-49b5-9985-2fb1c9c3493a","system_id":"levelo_inurba_marseille","lat":43.289184,"lon":5.366408,"is_reserved":false,"is_disabled":false,"rental_uris":{"android":"levelo://app?vid=27346931-ad77-49b5-9985-2fb1c9c3493a","ios":"levelo://app?vid=27346931-ad77-49b5-9985-2fb1c9c3493a"},"vehicle_type_id":"4","last_reported":1698646186,"current_range_meters":30000,"station_id":"ce4bhap2rcd13ifvqek0","pricing_plan_id":"free"},{"bike_id":"a199ce02-1663-49c5-bf18-b8a9dff16daf","system_id":"levelo_inurba_marseille","lat":43.290327,"lon":5.375711,"is_reserved":false,"is_disabled":false,"rental_uris":{"android":"levelo://app?vid=a199ce02-1663-49c5-bf18-b8a9dff16daf","ios":"levelo://app?vid=a199ce02-1663-49c5-bf18-b8a9dff16daf"},"vehicle_type_id":"4","last_reported":1698646186,"current_range_meters":22400,"station_id":"ce4bh692rcd13ifvqe90","pricing_plan_id":"free"},{"bike_id":"a6211470-cd0a-40a4-858e-c8c486bfd8b1","system_id":"levelo_inurba_marseille","lat":43.289468,"lon":5.363719,"is_reserved":false,"is_disabled":false,"rental_uris":{"android":"levelo://app?vid=a6211470-cd0a-40a4-858e-c8c486bfd8b1","ios":"levelo://app?vid=a6211470-cd0a-40a4-858e-c8c486bfd8b1"},"vehicle_type_id":"4","last_reported":1698646186,"current_range_meters":31200,"station_id":"ce4bhc92rcd13ifvqetg","pricing_plan_id":"free"},{"bike_id":"9e6baa96-dda9-4872-896a-e9081fc8d684","system_id":"levelo_inurba_marseille","lat":43.289184,"lon":5.366408,"is_reserved":false,"is_disabled":false,"rental_uris":{"android":"levelo://app?vid=9e6baa96-dda9-4872-896a-e9081fc8d684","ios":"levelo://app?vid=9e6baa96-dda9-4872-896a-e9081fc8d684"},"vehicle_type_id":"4","last_reported":1698646186,"current_range_meters":31200,"station_id":"ce4bhap2rcd13ifvqek0","pricing_plan_id":"free"},{"bike_id":"760f6914-394f-46fd-bc32-90f6f740ba55","system_id":"levelo_inurba_marseille","lat":43.289468,"lon":5.363719,"is_reserved":false,"is_disabled":false,"rental_uris":{"android":"levelo://app?vid=760f6914-394f-46fd-bc32-90f6f740ba55","ios":"levelo://app?vid=760f6914-394f-46fd-bc32-90f6f740ba55"},"vehicle_type_id":"4","last_reported":1698646186,"current_range_meters":29600,"station_id":"ce4bhc92rcd13ifvqetg","pricing_plan_id":"free"},{"bike_id":"1773622b-9ee7-451c-a816-7cc525024ce1","system_id":"levelo_inurba_marseille","lat":43.289405,"lon":5.363819,"is_reserved":false,"is_disabled":false,"rental_uris":{"android":"levelo://app?vid=1773622b-9ee7-451c-a816-7cc525024ce1","ios":"levelo://app?vid=1773622b-9ee7-451c-a816-7cc525024ce1"},"vehicle_type_id":"4","last_reported":1698646186,"current_range_meters":19600,"station_id":"ce4bhc92rcd13ifvqetg","pricing_plan_id":"free"},{"bike_id":"da189b3d-28df-4571-9e71-4235c7dcea39","system_id":"levelo_inurba_marseille","lat":43.289184,"lon":5.366408,"is_reserved":false,"is_disabled":false,"rental_uris":{"android":"levelo://app?vid=da189b3d-28df-4571-9e71-4235c7dcea39","ios":"levelo://app?vid=da189b3d-28df-4571-9e71-4235c7dcea39"},"vehicle_type_id":"4","last_reported":1698646186,"current_range_meters":30400,"station_id":"ce4bhap2rcd13ifvqek0","pricing_plan_id":"free"},{"bike_id":"c10da6c2-beda-4ee6-b96c-ba5d86476fb1","system_id":"levelo_inurba_marseille","lat":43.330442,"lon":5.389148,"is_reserved":false,"is_disabled":false,"rental_uris":{"android":"levelo://app?vid=c10da6c2-beda-4ee6-b96c-ba5d86476fb1","ios":"levelo://app?vid=c10da6c2-beda-4ee6-b96c-ba5d86476fb1"},"vehicle_type_id":"4","last_reported":1698646186,"current_range_meters":16800,"station_id":"ce4bhr92rcd13ifvqhrg","pricing_plan_id":"free"},{"bike_id":"46b0c2bd-3630-4db3-a1e6-5b1b785f7b6f","system_id":"levelo_inurba_marseille","lat":43.33043,"lon":5.38917,"is_reserved":false,"is_disabled":false,"rental_uris":{"android":"levelo://app?vid=46b0c2bd-3630-4db3-a1e6-5b1b785f7b6f","ios":"levelo://app?vid=46b0c2bd-3630-4db3-a1e6-5b1b785f7b6f"},"vehicle_type_id":"4","last_reported":1698646186,"current_range_meters":6400,"station_id":"ce4bhr92rcd13ifvqhrg","pricing_plan_id":"free"},{"bike_id":"64144b34-46b8-45e1-aab1-3423b2bc3cdf","system_id":"levelo_inurba_marseille","lat":43.290104,"lon":5.356111,"is_reserved":false,"is_disabled":false,"rental_uris":{"android":"levelo://app?vid=64144b34-46b8-45e1-aab1-3423b2bc3cdf","ios":"levelo://app?vid=64144b34-46b8-45e1-aab1-3423b2bc3cdf"},"vehicle_type_id":"4","last_reported":1698646186,"current_range_meters":26400,"station_id":"ce4bhb92rcd13ifvqen0","pricing_plan_id":"free"},{"bike_id":"8ec8b72c-dd6f-469d-aee0-017da7f125f4","system_id":"levelo_inurba_marseille","lat":43.330451,"lon":5.389199,"is_reserved":false,"is_disabled":false,"rental_uris":{"android":"levelo://app?vid=8ec8b72c-dd6f-469d-aee0-017da7f125f4","ios":"levelo://app?vid=8ec8b72c-dd6f-469d-aee0-017da7f125f4"},"vehicle_type_id":"4","last_reported":1698646186,"current_range_meters":3600,"station_id":"ce4bhr92rcd13ifvqhrg","pricing_plan_id":"free"},{"bike_id":"e56fac8a-9820-411e-a6f7-b51b7301494e","system_id":"levelo_inurba_marseille","lat":43.290104,"lon":5.356111,"is_reserved":false,"is_disabled":false,"rental_uris":{"android":"levelo://app?vid=e56fac8a-9820-411e-a6f7-b51b7301494e","ios":"levelo://app?vid=e56fac8a-9820-411e-a6f7-b51b7301494e"},"vehicle_type_id":"4","last_reported":1698646186,"current_range_meters":29600,"station_id":"ce4bhb92rcd13ifvqen0","pricing_plan_id":"free"},{"bike_id":"9ca4537b-f711-4116-976c-2919518c7d9d","system_id":"levelo_inurba_marseille","lat":43.290995,"lon":5.381361,"is_reserved":false,"is_disabled":false,"rental_uris":{"android":"levelo://app?vid=9ca4537b-f711-4116-976c-2919518c7d9d","ios":"levelo://app?vid=9ca4537b-f711-4116-976c-2919518c7d9d"},"vehicle_type_id":"4","last_reported":1698646186,"current_range_meters":30000,"station_id":"ce4bh512rcd13ifvqe2g","pricing_plan_id":"free"},{"bike_id":"e0d713cd-ec81-44ec-8ba4-571dd76a2b05","system_id":"levelo_inurba_marseille","lat":43.295169,"lon":5.390426,"is_reserved":false,"is_disabled":false,"rental_uris":{"android":"levelo://app?vid=e0d713cd-ec81-44ec-8ba4-571dd76a2b05","ios":"levelo://app?vid=e0d713cd-ec81-44ec-8ba4-571dd76a2b05"},"vehicle_type_id":"4","last_reported":1698646186,"current_range_meters":21600,"station_id":"ce4bh3p2rcd13ifvqdp0","pricing_plan_id":"free"},{"bike_id":"9925f0f1-51f0-496f-bccd-d43ee9d4a6aa","system_id":"levelo_inurba_marseille","lat":43.289743,"lon":5.378304,"is_reserved":false,"is_disabled":false,"rental_uris":{"android":"levelo://app?vid=9925f0f1-51f0-496f-bccd-d43ee9d4a6aa","ios":"levelo://app?vid=9925f0f1-51f0-496f-bccd-d43ee9d4a6aa"},"vehicle_type_id":"4","last_reported":1698646186,"current_range_meters":1600,"station_id":"ce4bh9p2rcd13ifvqed0","pricing_plan_id":"free"},{"bike_id":"d6c2b89a-784d-47e9-ab63-3f943866ae8c","system_id":"levelo_inurba_marseille","lat":43.297815,"lon":5.393548,"is_reserved":false,"is_disabled":false,"rental_uris":{"android":"levelo://app?vid=d6c2b89a-784d-47e9-ab63-3f943866ae8c","ios":"levelo://app?vid=d6c2b89a-784d-47e9-ab63-3f943866ae8c"},"vehicle_type_id":"4","last_reported":1698646186,"current_range_meters":24400,"station_id":"chh1huq6cuj3fo74tm60","pricing_plan_id":"free"},{"bike_id":"2bdbc371-53d7-4d13-893f-d4f8b9e0f8ac","system_id":"levelo_inurba_marseille","lat":43.2883,"lon":5.36861,"is_reserved":false,"is_disabled":false,"rental_uris":{"android":"levelo://app?vid=2bdbc371-53d7-4d13-893f-d4f8b9e0f8ac","ios":"levelo://app?vid=2bdbc371-53d7-4d13-893f-d4f8b9e0f8ac"},"vehicle_type_id":"4","last_reported":1698646186,"current_range_meters":4800,"station_id":"","pricing_plan_id":"free"},{"bike_id":"a10e4a36-4b63-40fd-8a31-ea4d9df9163b","system_id":"levelo_inurba_marseille","lat":43.2901,"lon":5.381269,"is_reserved":false,"is_disabled":false,"rental_uris":{"android":"levelo://app?vid=a10e4a36-4b63-40fd-8a31-ea4d9df9163b","ios":"levelo://app?vid=a10e4a36-4b63-40fd-8a31-ea4d9df9163b"},"vehicle_type_id":"4","last_reported":1698646186,"current_range_meters":28800,"station_id":"ce4bh4p2rcd13ifvqe1g","pricing_plan_id":"free"},{"bike_id":"6e51a15f-3347-433f-8c01-3f3a537f82f1","system_id":"levelo_inurba_marseille","lat":43.28856,"lon":5.358371,"is_reserved":false,"is_disabled":false,"rental_uris":{"android":"levelo://app?vid=6e51a15f-3347-433f-8c01-3f3a537f82f1","ios":"levelo://app?vid=6e51a15f-3347-433f-8c01-3f3a537f82f1"},"vehicle_type_id":"4","last_reported":1698646186,"current_range_meters":28400,"station_id":"ce4bhb12rcd13ifvqem0","pricing_plan_id":"free"},{"bike_id":"7b79906c-0596-4ff7-857e-75b98276907f","system_id":"levelo_inurba_marseille","lat":43.28856,"lon":5.358371,"is_reserved":false,"is_disabled":false,"rental_uris":{"android":"levelo://app?vid=7b79906c-0596-4ff7-857e-75b98276907f","ios":"levelo://app?vid=7b79906c-0596-4ff7-857e-75b98276907f"},"vehicle_type_id":"4","last_reported":1698646186,"current_range_meters":30000,"station_id":"ce4bhb12rcd13ifvqem0","pricing_plan_id":"free"},{"bike_id":"7ee0ef27-faeb-46b1-a529-2252ce86eb86","system_id":"levelo_inurba_marseille","lat":43.28856,"lon":5.358371,"is_reserved":false,"is_disabled":false,"rental_uris":{"android":"levelo://app?vid=7ee0ef27-faeb-46b1-a529-2252ce86eb86","ios":"levelo://app?vid=7ee0ef27-faeb-46b1-a529-2252ce86eb86"},"vehicle_type_id":"4","last_reported":1698646186,"current_range_meters":31200,"station_id":"ce4bhb12rcd13ifvqem0","pricing_plan_id":"free"},{"bike_id":"01b95120-c5a0-41e6-90c3-5ad2ca0dd00a","system_id":"levelo_inurba_marseille","lat":43.309342,"lon":5.401404,"is_reserved":false,"is_disabled":false,"rental_uris":{"android":"levelo://app?vid=01b95120-c5a0-41e6-90c3-5ad2ca0dd00a","ios":"levelo://app?vid=01b95120-c5a0-41e6-90c3-5ad2ca0dd00a"},"vehicle_type_id":"4","last_reported":1698646186,"current_range_meters":25600,"station_id":"ce4bgvp2rcd13ifvqct0","pricing_plan_id":"free"},{"bike_id":"48bdd41a-f670-4a8f-8711-0f1d58014165","system_id":"levelo_inurba_marseille","lat":43.309371,"lon":5.401449,"is_reserved":false,"is_disabled":false,"rental_uris":{"android":"levelo://app?vid=48bdd41a-f670-4a8f-8711-0f1d58014165","ios":"levelo://app?vid=48bdd41a-f670-4a8f-8711-0f1d58014165"},"vehicle_type_id":"4","last_reported":1698646186,"current_range_meters":4000,"station_id":"ce4bgvp2rcd13ifvqct0","pricing_plan_id":"free"},{"bike_id":"eed08c2b-a977-4b94-ac2b-5d046ba5de32","system_id":"levelo_inurba_marseille","lat":43.30931,"lon":5.40143,"is_reserved":false,"is_disabled":false,"rental_uris":{"android":"levelo://app?vid=eed08c2b-a977-4b94-ac2b-5d046ba5de32","ios":"levelo://app?vid=eed08c2b-a977-4b94-ac2b-5d046ba5de32"},"vehicle_type_id":"4","last_reported":1698646186,"current_range_meters":13600,"station_id":"ce4bgvp2rcd13ifvqct0","pricing_plan_id":"free"},{"bike_id":"597f5e94-cd77-4bc4-9f2f-e8e72b8abcec","system_id":"levelo_inurba_marseille","lat":43.309322,"lon":5.401444,"is_reserved":false,"is_disabled":false,"rental_uris":{"android":"levelo://app?vid=597f5e94-cd77-4bc4-9f2f-e8e72b8abcec","ios":"levelo://app?vid=597f5e94-cd77-4bc4-9f2f-e8e72b8abcec"},"vehicle_type_id":"4","last_reported":1698646186,"current_range_meters":13200,"station_id":"ce4bgvp2rcd13ifvqct0","pricing_plan_id":"free"},{"bike_id":"e1811fec-effe-4af0-af82-11ded247f32d","system_id":"levelo_inurba_marseille","lat":43.309371,"lon":5.401449,"is_reserved":false,"is_disabled":false,"rental_uris":{"android":"levelo://app?vid=e1811fec-effe-4af0-af82-11ded247f32d","ios":"levelo://app?vid=e1811fec-effe-4af0-af82-11ded247f32d"},"vehicle_type_id":"4","last_reported":1698646186,"current_range_meters":28800,"station_id":"ce4bgvp2rcd13ifvqct0","pricing_plan_id":"free"},{"bike_id":"5ab8e17e-809e-45e4-9dd3-67440142c155","system_id":"levelo_inurba_marseille","lat":43.309313,"lon":5.40146,"is_reserved":false,"is_disabled":false,"rental_uris":{"android":"levelo://app?vid=5ab8e17e-809e-45e4-9dd3-67440142c155","ios":"levelo://app?vid=5ab8e17e-809e-45e4-9dd3-67440142c155"},"vehicle_type_id":"4","last_reported":1698646186,"current_range_meters":31200,"station_id":"ce4bgvp2rcd13ifvqct0","pricing_plan_id":"free"},{"bike_id":"16e4ce69-c0fd-4161-86bb-1e0e34f37ed7","system_id":"levelo_inurba_marseille","lat":43.309317,"lon":5.401472,"is_reserved":false,"is_disabled":false,"rental_uris":{"android":"levelo://app?vid=16e4ce69-c0fd-4161-86bb-1e0e34f37ed7","ios":"levelo://app?vid=16e4ce69-c0fd-4161-86bb-1e0e34f37ed7"},"vehicle_type_id":"4","last_reported":1698646186,"current_range_meters":20000,"station_id":"ce4bgvp2rcd13ifvqct0","pricing_plan_id":"free"},{"bike_id":"6aafc382-8451-457d-82cc-7267604c6df7","system_id":"levelo_inurba_marseille","lat":43.309233,"lon":5.401463,"is_reserved":false,"is_disabled":false,"rental_uris":{"android":"levelo://app?vid=6aafc382-8451-457d-82cc-7267604c6df7","ios":"levelo://app?vid=6aafc382-8451-457d-82cc-7267604c6df7"},"vehicle_type_id":"4","last_reported":1698646186,"current_range_meters":20800,"station_id":"ce4bgvp2rcd13ifvqct0","pricing_plan_id":"free"},{"bike_id":"bb705bab-98a8-4710-bae6-46825658bf75","system_id":"levelo_inurba_marseille","lat":43.309249,"lon":5.40147,"is_reserved":false,"is_disabled":false,"rental_uris":{"android":"levelo://app?vid=bb705bab-98a8-4710-bae6-46825658bf75","ios":"levelo://app?vid=bb705bab-98a8-4710-bae6-46825658bf75"},"vehicle_type_id":"4","last_reported":1698646186,"current_range_meters":27200,"station_id":"ce4bgvp2rcd13ifvqct0","pricing_plan_id":"free"},{"bike_id":"7fab9072-0767-4b7d-8ce5-b17eb9619afb","system_id":"levelo_inurba_marseille","lat":43.30936,"lon":5.40152,"is_reserved":false,"is_disabled":false,"rental_uris":{"android":"levelo://app?vid=7fab9072-0767-4b7d-8ce5-b17eb9619afb","ios":"levelo://app?vid=7fab9072-0767-4b7d-8ce5-b17eb9619afb"},"vehicle_type_id":"4","last_reported":1698646186,"current_range_meters":18400,"station_id":"ce4bgvp2rcd13ifvqct0","pricing_plan_id":"free"},{"bike_id":"4e0e661b-c3e3-4fb3-846b-16486c4ab64f","system_id":"levelo_inurba_marseille","lat":43.30642,"lon":5.401031,"is_reserved":false,"is_disabled":false,"rental_uris":{"android":"levelo://app?vid=4e0e661b-c3e3-4fb3-846b-16486c4ab64f","ios":"levelo://app?vid=4e0e661b-c3e3-4fb3-846b-16486c4ab64f"},"vehicle_type_id":"4","last_reported":1698646186,"current_range_meters":17600,"station_id":"ce4bh112rcd13ifvqda0","pricing_plan_id":"free"},{"bike_id":"ea05b300-2454-44b0-a78e-1f53848a01e1","system_id":"levelo_inurba_marseille","lat":43.306412,"lon":5.401035,"is_reserved":false,"is_disabled":false,"rental_uris":{"android":"levelo://app?vid=ea05b300-2454-44b0-a78e-1f53848a01e1","ios":"levelo://app?vid=ea05b300-2454-44b0-a78e-1f53848a01e1"},"vehicle_type_id":"4","last_reported":1698646186,"current_range_meters":6000,"station_id":"ce4bh112rcd13ifvqda0","pricing_plan_id":"free"},{"bike_id":"008e2b77-78c4-44d7-9932-2f5baf62ff68","system_id":"levelo_inurba_marseille","lat":43.306412,"lon":5.401035,"is_reserved":false,"is_disabled":false,"rental_uris":{"android":"levelo://app?vid=008e2b77-78c4-44d7-9932-2f5baf62ff68","ios":"levelo://app?vid=008e2b77-78c4-44d7-9932-2f5baf62ff68"},"vehicle_type_id":"4","last_reported":1698646186,"current_range_meters":11200,"station_id":"ce4bh112rcd13ifvqda0","pricing_plan_id":"free"},{"bike_id":"4e8e9bd3-b294-4140-8cca-99cb9742dede","system_id":"levelo_inurba_marseille","lat":43.30642,"lon":5.401031,"is_reserved":false,"is_disabled":false,"rental_uris":{"android":"levelo://app?vid=4e8e9bd3-b294-4140-8cca-99cb9742dede","ios":"levelo://app?vid=4e8e9bd3-b294-4140-8cca-99cb9742dede"},"vehicle_type_id":"4","last_reported":1698646186,"current_range_meters":24800,"station_id":"ce4bh112rcd13ifvqda0","pricing_plan_id":"free"},{"bike_id":"8fa49ebe-2c54-4f44-92f2-404b7cb9f180","system_id":"levelo_inurba_marseille","lat":43.306412,"lon":5.401035,"is_reserved":false,"is_disabled":false,"rental_uris":{"android":"levelo://app?vid=8fa49ebe-2c54-4f44-92f2-404b7cb9f180","ios":"levelo://app?vid=8fa49ebe-2c54-4f44-92f2-404b7cb9f180"},"vehicle_type_id":"4","last_reported":1698646186,"current_range_meters":26800,"station_id":"ce4bh112rcd13ifvqda0","pricing_plan_id":"free"},{"bike_id":"92a0d666-d8db-4747-a1fd-50e1ef92733d","system_id":"levelo_inurba_marseille","lat":43.33773,"lon":5.37424,"is_reserved":false,"is_disabled":false,"rental_uris":{"android":"levelo://app?vid=92a0d666-d8db-4747-a1fd-50e1ef92733d","ios":"levelo://app?vid=92a0d666-d8db-4747-a1fd-50e1ef92733d"},"vehicle_type_id":"4","last_reported":1698646186,"current_range_meters":30000,"station_id":"","pricing_plan_id":"free"},{"bike_id":"719733c6-957a-4c3e-b64a-aef2d958712f","system_id":"levelo_inurba_marseille","lat":43.306412,"lon":5.401035,"is_reserved":false,"is_disabled":false,"rental_uris":{"android":"levelo://app?vid=719733c6-957a-4c3e-b64a-aef2d958712f","ios":"levelo://app?vid=719733c6-957a-4c3e-b64a-aef2d958712f"},"vehicle_type_id":"4","last_reported":1698646186,"current_range_meters":1200,"station_id":"ce4bh112rcd13ifvqda0","pricing_plan_id":"free"},{"bike_id":"c624e6c9-4555-4fa1-94ed-0fdef959fe70","system_id":"levelo_inurba_marseille","lat":43.30151,"lon":5.3987,"is_reserved":false,"is_disabled":false,"rental_uris":{"android":"levelo://app?vid=c624e6c9-4555-4fa1-94ed-0fdef959fe70","ios":"levelo://app?vid=c624e6c9-4555-4fa1-94ed-0fdef959fe70"},"vehicle_type_id":"4","last_reported":1698646186,"current_range_meters":0,"station_id":"ce4bh0h2rcd13ifvqd40","pricing_plan_id":"free"},{"bike_id":"ef1808d4-4ef7-46ef-bd00-143cb54da8ad","system_id":"levelo_inurba_marseille","lat":43.28727,"lon":5.36078,"is_reserved":false,"is_disabled":false,"rental_uris":{"android":"levelo://app?vid=ef1808d4-4ef7-46ef-bd00-143cb54da8ad","ios":"levelo://app?vid=ef1808d4-4ef7-46ef-bd00-143cb54da8ad"},"vehicle_type_id":"4","last_reported":1698646186,"current_range_meters":30000,"station_id":"cki0cbj6b192h4jlfktg","pricing_plan_id":"free"},{"bike_id":"0f6931eb-6f1c-4afb-9de3-a9ff747fac84","system_id":"levelo_inurba_marseille","lat":43.28727,"lon":5.36078,"is_reserved":false,"is_disabled":false,"rental_uris":{"android":"levelo://app?vid=0f6931eb-6f1c-4afb-9de3-a9ff747fac84","ios":"levelo://app?vid=0f6931eb-6f1c-4afb-9de3-a9ff747fac84"},"vehicle_type_id":"4","last_reported":1698646186,"current_range_meters":30800,"station_id":"cki0cbj6b192h4jlfktg","pricing_plan_id":"free"},{"bike_id":"dc435572-d99e-4b7d-b8b8-b663794f782f","system_id":"levelo_inurba_marseille","lat":43.287274,"lon":5.360809,"is_reserved":false,"is_disabled":false,"rental_uris":{"android":"levelo://app?vid=dc435572-d99e-4b7d-b8b8-b663794f782f","ios":"levelo://app?vid=dc435572-d99e-4b7d-b8b8-b663794f782f"},"vehicle_type_id":"4","last_reported":1698646186,"current_range_meters":23200,"station_id":"cki0cbj6b192h4jlfktg","pricing_plan_id":"free"},{"bike_id":"97abed36-146b-4f7a-bf59-cd8799f8738b","system_id":"levelo_inurba_marseille","lat":43.28727,"lon":5.36078,"is_reserved":false,"is_disabled":false,"rental_uris":{"android":"levelo://app?vid=97abed36-146b-4f7a-bf59-cd8799f8738b","ios":"levelo://app?vid=97abed36-146b-4f7a-bf59-cd8799f8738b"},"vehicle_type_id":"4","last_reported":1698646186,"current_range_meters":23200,"station_id":"cki0cbj6b192h4jlfktg","pricing_plan_id":"free"},{"bike_id":"56dce50a-5fce-48dc-a9f1-3e39a230c0d6","system_id":"levelo_inurba_marseille","lat":43.286039,"lon":5.370679,"is_reserved":false,"is_disabled":false,"rental_uris":{"android":"levelo://app?vid=56dce50a-5fce-48dc-a9f1-3e39a230c0d6","ios":"levelo://app?vid=56dce50a-5fce-48dc-a9f1-3e39a230c0d6"},"vehicle_type_id":"4","last_reported":1698646186,"current_range_meters":31200,"station_id":"ce4bht12rcd13ifvqi60","pricing_plan_id":"free"},{"bike_id":"5fb1fda2-ecf7-47e7-89fa-3666ff7fb54b","system_id":"levelo_inurba_marseille","lat":43.286113,"lon":5.370613,"is_reserved":false,"is_disabled":false,"rental_uris":{"android":"levelo://app?vid=5fb1fda2-ecf7-47e7-89fa-3666ff7fb54b","ios":"levelo://app?vid=5fb1fda2-ecf7-47e7-89fa-3666ff7fb54b"},"vehicle_type_id":"4","last_reported":1698646186,"current_range_meters":24000,"station_id":"ce4bht12rcd13ifvqi60","pricing_plan_id":"free"},{"bike_id":"19f1e5d2-f6a1-4c6a-9e6f-57b3008ca1ac","system_id":"levelo_inurba_marseille","lat":43.286039,"lon":5.370679,"is_reserved":false,"is_disabled":false,"rental_uris":{"android":"levelo://app?vid=19f1e5d2-f6a1-4c6a-9e6f-57b3008ca1ac","ios":"levelo://app?vid=19f1e5d2-f6a1-4c6a-9e6f-57b3008ca1ac"},"vehicle_type_id":"4","last_reported":1698646186,"current_range_meters":21200,"station_id":"ce4bht12rcd13ifvqi60","pricing_plan_id":"free"},{"bike_id":"0db9e5d0-a6a2-4bcc-b616-9f5cc668017f","system_id":"levelo_inurba_marseille","lat":43.2861,"lon":5.370597,"is_reserved":false,"is_disabled":false,"rental_uris":{"android":"levelo://app?vid=0db9e5d0-a6a2-4bcc-b616-9f5cc668017f","ios":"levelo://app?vid=0db9e5d0-a6a2-4bcc-b616-9f5cc668017f"},"vehicle_type_id":"4","last_reported":1698646186,"current_range_meters":400,"station_id":"ce4bht12rcd13ifvqi60","pricing_plan_id":"free"},{"bike_id":"932f8acd-e53f-4c5e-bae4-67023857f2fb","system_id":"levelo_inurba_marseille","lat":43.287185,"lon":5.379373,"is_reserved":false,"is_disabled":false,"rental_uris":{"android":"levelo://app?vid=932f8acd-e53f-4c5e-bae4-67023857f2fb","ios":"levelo://app?vid=932f8acd-e53f-4c5e-bae4-67023857f2fb"},"vehicle_type_id":"4","last_reported":1698646186,"current_range_meters":26800,"station_id":"ce4bh9p2rcd13ifvqec0","pricing_plan_id":"free"},{"bike_id":"f7703d74-f674-4bcd-bea0-a7a884b393d2","system_id":"levelo_inurba_marseille","lat":43.31643,"lon":5.40431,"is_reserved":false,"is_disabled":false,"rental_uris":{"android":"levelo://app?vid=f7703d74-f674-4bcd-bea0-a7a884b393d2","ios":"levelo://app?vid=f7703d74-f674-4bcd-bea0-a7a884b393d2"},"vehicle_type_id":"4","last_reported":1698646186,"current_range_meters":7200,"station_id":"ce4bh012rcd13ifvqd00","pricing_plan_id":"free"},{"bike_id":"bbcc36de-359f-493d-813a-d84f546c8c2c","system_id":"levelo_inurba_marseille","lat":43.31647,"lon":5.40441,"is_reserved":false,"is_disabled":false,"rental_uris":{"android":"levelo://app?vid=bbcc36de-359f-493d-813a-d84f546c8c2c","ios":"levelo://app?vid=bbcc36de-359f-493d-813a-d84f546c8c2c"},"vehicle_type_id":"4","last_reported":1698646186,"current_range_meters":6000,"station_id":"ce4bh012rcd13ifvqd00","pricing_plan_id":"free"},{"bike_id":"c5aee890-15dd-435e-b99d-549132d9c092","system_id":"levelo_inurba_marseille","lat":43.316517,"lon":5.404375,"is_reserved":false,"is_disabled":false,"rental_uris":{"android":"levelo://app?vid=c5aee890-15dd-435e-b99d-549132d9c092","ios":"levelo://app?vid=c5aee890-15dd-435e-b99d-549132d9c092"},"vehicle_type_id":"4","last_reported":1698646186,"current_range_meters":9200,"station_id":"ce4bh012rcd13ifvqd00","pricing_plan_id":"free"},{"bike_id":"47dc1a88-a6bc-41f4-8880-fe8b93be6722","system_id":"levelo_inurba_marseille","lat":43.31647,"lon":5.40443,"is_reserved":false,"is_disabled":false,"rental_uris":{"android":"levelo://app?vid=47dc1a88-a6bc-41f4-8880-fe8b93be6722","ios":"levelo://app?vid=47dc1a88-a6bc-41f4-8880-fe8b93be6722"},"vehicle_type_id":"4","last_reported":1698646186,"current_range_meters":24000,"station_id":"ce4bh012rcd13ifvqd00","pricing_plan_id":"free"},{"bike_id":"1161852f-c8df-4db1-8cda-e879360995b1","system_id":"levelo_inurba_marseille","lat":43.291994,"lon":5.392907,"is_reserved":false,"is_disabled":false,"rental_uris":{"android":"levelo://app?vid=1161852f-c8df-4db1-8cda-e879360995b1","ios":"levelo://app?vid=1161852f-c8df-4db1-8cda-e879360995b1"},"vehicle_type_id":"4","last_reported":1698646186,"current_range_meters":31200,"station_id":"ce4bh192rcd13ifvqdd0","pricing_plan_id":"free"},{"bike_id":"b8ff6d02-179d-4174-9f99-fb6f9a8466f9","system_id":"levelo_inurba_marseille","lat":43.284589,"lon":5.358971,"is_reserved":false,"is_disabled":false,"rental_uris":{"android":"levelo://app?vid=b8ff6d02-179d-4174-9f99-fb6f9a8466f9","ios":"levelo://app?vid=b8ff6d02-179d-4174-9f99-fb6f9a8466f9"},"vehicle_type_id":"4","last_reported":1698646186,"current_range_meters":30400,"station_id":"ce4bhah2rcd13ifvqei0","pricing_plan_id":"free"},{"bike_id":"6234cb09-e2e0-45be-9891-60311a96baaa","system_id":"levelo_inurba_marseille","lat":43.294314,"lon":5.397498,"is_reserved":false,"is_disabled":false,"rental_uris":{"android":"levelo://app?vid=6234cb09-e2e0-45be-9891-60311a96baaa","ios":"levelo://app?vid=6234cb09-e2e0-45be-9891-60311a96baaa"},"vehicle_type_id":"4","last_reported":1698646186,"current_range_meters":30400,"station_id":"ce4bh3h2rcd13ifvqdo0","pricing_plan_id":"free"},{"bike_id":"6f16b19f-0d07-4dfe-a3f1-13fef0464ccc","system_id":"levelo_inurba_marseille","lat":43.285856,"lon":5.350771,"is_reserved":false,"is_disabled":false,"rental_uris":{"android":"levelo://app?vid=6f16b19f-0d07-4dfe-a3f1-13fef0464ccc","ios":"levelo://app?vid=6f16b19f-0d07-4dfe-a3f1-13fef0464ccc"},"vehicle_type_id":"4","last_reported":1698646186,"current_range_meters":11600,"station_id":"ce4bhch2rcd13ifvqeug","pricing_plan_id":"free"},{"bike_id":"ec447991-a710-4f88-9ffb-f788f883bd03","system_id":"levelo_inurba_marseille","lat":43.286114,"lon":5.351032,"is_reserved":false,"is_disabled":false,"rental_uris":{"android":"levelo://app?vid=ec447991-a710-4f88-9ffb-f788f883bd03","ios":"levelo://app?vid=ec447991-a710-4f88-9ffb-f788f883bd03"},"vehicle_type_id":"4","last_reported":1698646186,"current_range_meters":10400,"station_id":"ce4bhch2rcd13ifvqeug","pricing_plan_id":"free"},{"bike_id":"4fdb268d-38cf-4cad-929b-d569b625694f","system_id":"levelo_inurba_marseille","lat":43.283998,"lon":5.375062,"is_reserved":false,"is_disabled":false,"rental_uris":{"android":"levelo://app?vid=4fdb268d-38cf-4cad-929b-d569b625694f","ios":"levelo://app?vid=4fdb268d-38cf-4cad-929b-d569b625694f"},"vehicle_type_id":"4","last_reported":1698646186,"current_range_meters":10000,"station_id":"ce4bh412rcd13ifvqds0","pricing_plan_id":"free"},{"bike_id":"69f289b3-17a6-4fa3-bd05-3f381fa2db06","system_id":"levelo_inurba_marseille","lat":43.283998,"lon":5.375062,"is_reserved":false,"is_disabled":false,"rental_uris":{"android":"levelo://app?vid=69f289b3-17a6-4fa3-bd05-3f381fa2db06","ios":"levelo://app?vid=69f289b3-17a6-4fa3-bd05-3f381fa2db06"},"vehicle_type_id":"4","last_reported":1698646186,"current_range_meters":9600,"station_id":"ce4bh412rcd13ifvqds0","pricing_plan_id":"free"},{"bike_id":"0377452f-25b8-4b46-94cb-dbfbc50b14ca","system_id":"levelo_inurba_marseille","lat":43.284114,"lon":5.375166,"is_reserved":false,"is_disabled":false,"rental_uris":{"android":"levelo://app?vid=0377452f-25b8-4b46-94cb-dbfbc50b14ca","ios":"levelo://app?vid=0377452f-25b8-4b46-94cb-dbfbc50b14ca"},"vehicle_type_id":"4","last_reported":1698646186,"current_range_meters":14000,"station_id":"ce4bh412rcd13ifvqds0","pricing_plan_id":"free"},{"bike_id":"d7d5b73e-97b7-4a7f-9d42-552d0f2cc90b","system_id":"levelo_inurba_marseille","lat":43.28412,"lon":5.37522,"is_reserved":false,"is_disabled":false,"rental_uris":{"android":"levelo://app?vid=d7d5b73e-97b7-4a7f-9d42-552d0f2cc90b","ios":"levelo://app?vid=d7d5b73e-97b7-4a7f-9d42-552d0f2cc90b"},"vehicle_type_id":"4","last_reported":1698646186,"current_range_meters":5600,"station_id":"ce4bh412rcd13ifvqds0","pricing_plan_id":"free"},{"bike_id":"b0c04216-63ee-4b29-9c74-294eda51126a","system_id":"levelo_inurba_marseille","lat":43.28407,"lon":5.3752,"is_reserved":false,"is_disabled":false,"rental_uris":{"android":"levelo://app?vid=b0c04216-63ee-4b29-9c74-294eda51126a","ios":"levelo://app?vid=b0c04216-63ee-4b29-9c74-294eda51126a"},"vehicle_type_id":"4","last_reported":1698646186,"current_range_meters":9200,"station_id":"ce4bh412rcd13ifvqds0","pricing_plan_id":"free"},{"bike_id":"495ebd65-97f0-489d-a7f3-c67a4555ad46","system_id":"levelo_inurba_marseille","lat":43.28406,"lon":5.37524,"is_reserved":false,"is_disabled":false,"rental_uris":{"android":"levelo://app?vid=495ebd65-97f0-489d-a7f3-c67a4555ad46","ios":"levelo://app?vid=495ebd65-97f0-489d-a7f3-c67a4555ad46"},"vehicle_type_id":"4","last_reported":1698646186,"current_range_meters":24000,"station_id":"ce4bh412rcd13ifvqds0","pricing_plan_id":"free"},{"bike_id":"8eaf3609-4fb9-4c4c-bec6-4824b5ea1427","system_id":"levelo_inurba_marseille","lat":43.286666,"lon":5.386618,"is_reserved":false,"is_disabled":false,"rental_uris":{"android":"levelo://app?vid=8eaf3609-4fb9-4c4c-bec6-4824b5ea1427","ios":"levelo://app?vid=8eaf3609-4fb9-4c4c-bec6-4824b5ea1427"},"vehicle_type_id":"4","last_reported":1698646186,"current_range_meters":29200,"station_id":"ce4bh492rcd13ifvqdug","pricing_plan_id":"free"},{"bike_id":"1044f570-4945-4a8a-9a66-54e492043d8e","system_id":"levelo_inurba_marseille","lat":43.319179,"lon":5.407725,"is_reserved":false,"is_disabled":false,"rental_uris":{"android":"levelo://app?vid=1044f570-4945-4a8a-9a66-54e492043d8e","ios":"levelo://app?vid=1044f570-4945-4a8a-9a66-54e492043d8e"},"vehicle_type_id":"4","last_reported":1698646186,"current_range_meters":28000,"station_id":"ce4bhq12rcd13ifvqhig","pricing_plan_id":"free"},{"bike_id":"fceb2f5a-6aa3-462f-83db-0b9253193b47","system_id":"levelo_inurba_marseille","lat":43.323464,"lon":5.406297,"is_reserved":false,"is_disabled":false,"rental_uris":{"android":"levelo://app?vid=fceb2f5a-6aa3-462f-83db-0b9253193b47","ios":"levelo://app?vid=fceb2f5a-6aa3-462f-83db-0b9253193b47"},"vehicle_type_id":"4","last_reported":1698646186,"current_range_meters":30800,"station_id":"ce4bhq92rcd13ifvqhjg","pricing_plan_id":"free"},{"bike_id":"6813ae88-63b8-40cc-bba4-fcda150594f0","system_id":"levelo_inurba_marseille","lat":43.323464,"lon":5.406297,"is_reserved":false,"is_disabled":false,"rental_uris":{"android":"levelo://app?vid=6813ae88-63b8-40cc-bba4-fcda150594f0","ios":"levelo://app?vid=6813ae88-63b8-40cc-bba4-fcda150594f0"},"vehicle_type_id":"4","last_reported":1698646186,"current_range_meters":5200,"station_id":"ce4bhq92rcd13ifvqhjg","pricing_plan_id":"free"},{"bike_id":"0d169057-1669-40f1-bbe2-8f4a138735cd","system_id":"levelo_inurba_marseille","lat":43.323464,"lon":5.406297,"is_reserved":false,"is_disabled":false,"rental_uris":{"android":"levelo://app?vid=0d169057-1669-40f1-bbe2-8f4a138735cd","ios":"levelo://app?vid=0d169057-1669-40f1-bbe2-8f4a138735cd"},"vehicle_type_id":"4","last_reported":1698646186,"current_range_meters":12000,"station_id":"ce4bhq92rcd13ifvqhjg","pricing_plan_id":"free"},{"bike_id":"b7d4af58-6dda-455a-82ec-d9026e43abcd","system_id":"levelo_inurba_marseille","lat":43.323464,"lon":5.406297,"is_reserved":false,"is_disabled":false,"rental_uris":{"android":"levelo://app?vid=b7d4af58-6dda-455a-82ec-d9026e43abcd","ios":"levelo://app?vid=b7d4af58-6dda-455a-82ec-d9026e43abcd"},"vehicle_type_id":"4","last_reported":1698646186,"current_range_meters":31200,"station_id":"ce4bhq92rcd13ifvqhjg","pricing_plan_id":"free"},{"bike_id":"dee60840-3a51-43fa-9f4b-75ee88b36672","system_id":"levelo_inurba_marseille","lat":43.323464,"lon":5.406297,"is_reserved":false,"is_disabled":false,"rental_uris":{"android":"levelo://app?vid=dee60840-3a51-43fa-9f4b-75ee88b36672","ios":"levelo://app?vid=dee60840-3a51-43fa-9f4b-75ee88b36672"},"vehicle_type_id":"4","last_reported":1698646186,"current_range_meters":31200,"station_id":"ce4bhq92rcd13ifvqhjg","pricing_plan_id":"free"},{"bike_id":"146760f6-2799-44c8-9f61-62ace2ec8c61","system_id":"levelo_inurba_marseille","lat":43.284793,"lon":5.384119,"is_reserved":false,"is_disabled":false,"rental_uris":{"android":"levelo://app?vid=146760f6-2799-44c8-9f61-62ace2ec8c61","ios":"levelo://app?vid=146760f6-2799-44c8-9f61-62ace2ec8c61"},"vehicle_type_id":"4","last_reported":1698646186,"current_range_meters":28400,"station_id":"ce4bh512rcd13ifvqe3g","pricing_plan_id":"free"},{"bike_id":"2f666bbb-190f-4291-ade2-95e2c0cfd815","system_id":"levelo_inurba_marseille","lat":43.325281,"lon":5.405683,"is_reserved":false,"is_disabled":false,"rental_uris":{"android":"levelo://app?vid=2f666bbb-190f-4291-ade2-95e2c0cfd815","ios":"levelo://app?vid=2f666bbb-190f-4291-ade2-95e2c0cfd815"},"vehicle_type_id":"4","last_reported":1698646186,"current_range_meters":11600,"station_id":"","pricing_plan_id":"free"},{"bike_id":"1acaf38a-2a3d-4fc8-9a01-34d325534e75","system_id":"levelo_inurba_marseille","lat":43.283494,"lon":5.380945,"is_reserved":false,"is_disabled":false,"rental_uris":{"android":"levelo://app?vid=1acaf38a-2a3d-4fc8-9a01-34d325534e75","ios":"levelo://app?vid=1acaf38a-2a3d-4fc8-9a01-34d325534e75"},"vehicle_type_id":"4","last_reported":1698646186,"current_range_meters":28400,"station_id":"ce4bh412rcd13ifvqdr0","pricing_plan_id":"free"},{"bike_id":"be136d25-d0e8-4656-9d5a-0ee1b0e3ab99","system_id":"levelo_inurba_marseille","lat":43.284171,"lon":5.349886,"is_reserved":false,"is_disabled":false,"rental_uris":{"android":"levelo://app?vid=be136d25-d0e8-4656-9d5a-0ee1b0e3ab99","ios":"levelo://app?vid=be136d25-d0e8-4656-9d5a-0ee1b0e3ab99"},"vehicle_type_id":"4","last_reported":1698646186,"current_range_meters":28400,"station_id":"ce4bhbh2rcd13ifvqepg","pricing_plan_id":"free"},{"bike_id":"272cf11a-7f63-4fa7-ad06-ee888f86e563","system_id":"levelo_inurba_marseille","lat":43.283502,"lon":5.386471,"is_reserved":false,"is_disabled":false,"rental_uris":{"android":"levelo://app?vid=272cf11a-7f63-4fa7-ad06-ee888f86e563","ios":"levelo://app?vid=272cf11a-7f63-4fa7-ad06-ee888f86e563"},"vehicle_type_id":"4","last_reported":1698646186,"current_range_meters":28000,"station_id":"ce4bh492rcd13ifvqdvg","pricing_plan_id":"free"},{"bike_id":"cd734fb8-634a-4f13-86b5-143037de2c45","system_id":"levelo_inurba_marseille","lat":43.282744,"lon":5.350533,"is_reserved":false,"is_disabled":false,"rental_uris":{"android":"levelo://app?vid=cd734fb8-634a-4f13-86b5-143037de2c45","ios":"levelo://app?vid=cd734fb8-634a-4f13-86b5-143037de2c45"},"vehicle_type_id":"4","last_reported":1698646186,"current_range_meters":4800,"station_id":"ce4bhbp2rcd13ifvqerg","pricing_plan_id":"free"},{"bike_id":"789aae98-0cdb-4fa5-ade0-b32bc4d903d4","system_id":"levelo_inurba_marseille","lat":43.282755,"lon":5.3507,"is_reserved":false,"is_disabled":false,"rental_uris":{"android":"levelo://app?vid=789aae98-0cdb-4fa5-ade0-b32bc4d903d4","ios":"levelo://app?vid=789aae98-0cdb-4fa5-ade0-b32bc4d903d4"},"vehicle_type_id":"4","last_reported":1698646186,"current_range_meters":21200,"station_id":"ce4bhbp2rcd13ifvqerg","pricing_plan_id":"free"},{"bike_id":"cacab0ba-8a09-4d80-9a85-518a4df0973e","system_id":"levelo_inurba_marseille","lat":43.282725,"lon":5.350697,"is_reserved":false,"is_disabled":false,"rental_uris":{"android":"levelo://app?vid=cacab0ba-8a09-4d80-9a85-518a4df0973e","ios":"levelo://app?vid=cacab0ba-8a09-4d80-9a85-518a4df0973e"},"vehicle_type_id":"4","last_reported":1698646186,"current_range_meters":12800,"station_id":"ce4bhbp2rcd13ifvqerg","pricing_plan_id":"free"},{"bike_id":"3f50daa6-5fa1-45bc-8d2f-86ad35da3139","system_id":"levelo_inurba_marseille","lat":43.282732,"lon":5.350638,"is_reserved":false,"is_disabled":false,"rental_uris":{"android":"levelo://app?vid=3f50daa6-5fa1-45bc-8d2f-86ad35da3139","ios":"levelo://app?vid=3f50daa6-5fa1-45bc-8d2f-86ad35da3139"},"vehicle_type_id":"4","last_reported":1698646186,"current_range_meters":30800,"station_id":"ce4bhbp2rcd13ifvqerg","pricing_plan_id":"free"},{"bike_id":"021016d5-75d5-4c6a-bb23-a6d7991b7979","system_id":"levelo_inurba_marseille","lat":43.282754,"lon":5.350519,"is_reserved":false,"is_disabled":false,"rental_uris":{"android":"levelo://app?vid=021016d5-75d5-4c6a-bb23-a6d7991b7979","ios":"levelo://app?vid=021016d5-75d5-4c6a-bb23-a6d7991b7979"},"vehicle_type_id":"4","last_reported":1698646186,"current_range_meters":19600,"station_id":"ce4bhbp2rcd13ifvqerg","pricing_plan_id":"free"},{"bike_id":"f46fbaa2-97da-457f-9740-4d47a51696f9","system_id":"levelo_inurba_marseille","lat":43.283502,"lon":5.386471,"is_reserved":false,"is_disabled":false,"rental_uris":{"android":"levelo://app?vid=f46fbaa2-97da-457f-9740-4d47a51696f9","ios":"levelo://app?vid=f46fbaa2-97da-457f-9740-4d47a51696f9"},"vehicle_type_id":"4","last_reported":1698646186,"current_range_meters":31200,"station_id":"ce4bh492rcd13ifvqdvg","pricing_plan_id":"free"},{"bike_id":"63f6c7f7-bad5-4438-9bca-dda8deba8994","system_id":"levelo_inurba_marseille","lat":43.283502,"lon":5.386471,"is_reserved":false,"is_disabled":false,"rental_uris":{"android":"levelo://app?vid=63f6c7f7-bad5-4438-9bca-dda8deba8994","ios":"levelo://app?vid=63f6c7f7-bad5-4438-9bca-dda8deba8994"},"vehicle_type_id":"4","last_reported":1698646186,"current_range_meters":28800,"station_id":"ce4bh492rcd13ifvqdvg","pricing_plan_id":"free"},{"bike_id":"fb771c31-2982-4a2a-a1a6-3f60de40afbb","system_id":"levelo_inurba_marseille","lat":43.282744,"lon":5.350533,"is_reserved":false,"is_disabled":false,"rental_uris":{"android":"levelo://app?vid=fb771c31-2982-4a2a-a1a6-3f60de40afbb","ios":"levelo://app?vid=fb771c31-2982-4a2a-a1a6-3f60de40afbb"},"vehicle_type_id":"4","last_reported":1698646186,"current_range_meters":11600,"station_id":"ce4bhbp2rcd13ifvqerg","pricing_plan_id":"free"},{"bike_id":"7ad6af48-555f-43ed-bf9d-36d2345893b6","system_id":"levelo_inurba_marseille","lat":43.28038,"lon":5.36948,"is_reserved":false,"is_disabled":false,"rental_uris":{"android":"levelo://app?vid=7ad6af48-555f-43ed-bf9d-36d2345893b6","ios":"levelo://app?vid=7ad6af48-555f-43ed-bf9d-36d2345893b6"},"vehicle_type_id":"4","last_reported":1698646186,"current_range_meters":26400,"station_id":"ce4bha12rcd13ifvqef0","pricing_plan_id":"free"},{"bike_id":"1ca242fe-6084-4f9b-8b54-35d465872844","system_id":"levelo_inurba_marseille","lat":43.29041,"lon":5.399634,"is_reserved":false,"is_disabled":false,"rental_uris":{"android":"levelo://app?vid=1ca242fe-6084-4f9b-8b54-35d465872844","ios":"levelo://app?vid=1ca242fe-6084-4f9b-8b54-35d465872844"},"vehicle_type_id":"4","last_reported":1698646186,"current_range_meters":21200,"station_id":"ce4bh392rcd13ifvqdm0","pricing_plan_id":"free"},{"bike_id":"bbdb2275-caed-4b4a-8dea-7a48824e3f6b","system_id":"levelo_inurba_marseille","lat":43.29037,"lon":5.39964,"is_reserved":false,"is_disabled":false,"rental_uris":{"android":"levelo://app?vid=bbdb2275-caed-4b4a-8dea-7a48824e3f6b","ios":"levelo://app?vid=bbdb2275-caed-4b4a-8dea-7a48824e3f6b"},"vehicle_type_id":"4","last_reported":1698646186,"current_range_meters":16800,"station_id":"ce4bh392rcd13ifvqdm0","pricing_plan_id":"free"},{"bike_id":"c9ca20c9-feed-4583-915b-d12f197d968d","system_id":"levelo_inurba_marseille","lat":43.290334,"lon":5.399665,"is_reserved":false,"is_disabled":false,"rental_uris":{"android":"levelo://app?vid=c9ca20c9-feed-4583-915b-d12f197d968d","ios":"levelo://app?vid=c9ca20c9-feed-4583-915b-d12f197d968d"},"vehicle_type_id":"4","last_reported":1698646186,"current_range_meters":23200,"station_id":"ce4bh392rcd13ifvqdm0","pricing_plan_id":"free"},{"bike_id":"386a5db9-e276-43eb-a844-b82f1db3373f","system_id":"levelo_inurba_marseille","lat":43.281066,"lon":5.378326,"is_reserved":false,"is_disabled":false,"rental_uris":{"android":"levelo://app?vid=386a5db9-e276-43eb-a844-b82f1db3373f","ios":"levelo://app?vid=386a5db9-e276-43eb-a844-b82f1db3373f"},"vehicle_type_id":"4","last_reported":1698646186,"current_range_meters":24400,"station_id":"ce4bha12rcd13ifvqee0","pricing_plan_id":"free"},{"bike_id":"a71ce030-27c3-40c0-b11d-977dffdc00ae","system_id":"levelo_inurba_marseille","lat":43.29028,"lon":5.39967,"is_reserved":false,"is_disabled":false,"rental_uris":{"android":"levelo://app?vid=a71ce030-27c3-40c0-b11d-977dffdc00ae","ios":"levelo://app?vid=a71ce030-27c3-40c0-b11d-977dffdc00ae"},"vehicle_type_id":"4","last_reported":1698646186,"current_range_meters":30800,"station_id":"ce4bh392rcd13ifvqdm0","pricing_plan_id":"free"},{"bike_id":"d445e7dc-8f39-4198-8d15-1838ad42556e","system_id":"levelo_inurba_marseille","lat":43.296263,"lon":5.40601,"is_reserved":false,"is_disabled":false,"rental_uris":{"android":"levelo://app?vid=d445e7dc-8f39-4198-8d15-1838ad42556e","ios":"levelo://app?vid=d445e7dc-8f39-4198-8d15-1838ad42556e"},"vehicle_type_id":"4","last_reported":1698646186,"current_range_meters":23200,"station_id":"ce4bh0h2rcd13ifvqd60","pricing_plan_id":"free"},{"bike_id":"78bd65f6-e107-4f0f-a92f-7b2c3c292c3b","system_id":"levelo_inurba_marseille","lat":43.296302,"lon":5.405984,"is_reserved":false,"is_disabled":false,"rental_uris":{"android":"levelo://app?vid=78bd65f6-e107-4f0f-a92f-7b2c3c292c3b","ios":"levelo://app?vid=78bd65f6-e107-4f0f-a92f-7b2c3c292c3b"},"vehicle_type_id":"4","last_reported":1698646186,"current_range_meters":0,"station_id":"ce4bh0h2rcd13ifvqd60","pricing_plan_id":"free"},{"bike_id":"545f0b71-ae24-4b2f-b0c0-b29de48628bd","system_id":"levelo_inurba_marseille","lat":43.2963,"lon":5.406004,"is_reserved":false,"is_disabled":false,"rental_uris":{"android":"levelo://app?vid=545f0b71-ae24-4b2f-b0c0-b29de48628bd","ios":"levelo://app?vid=545f0b71-ae24-4b2f-b0c0-b29de48628bd"},"vehicle_type_id":"4","last_reported":1698646186,"current_range_meters":16000,"station_id":"ce4bh0h2rcd13ifvqd60","pricing_plan_id":"free"},{"bike_id":"92a108c8-314c-4087-88dc-ace532aca17c","system_id":"levelo_inurba_marseille","lat":43.29529,"lon":5.385581,"is_reserved":false,"is_disabled":false,"rental_uris":{"android":"levelo://app?vid=92a108c8-314c-4087-88dc-ace532aca17c","ios":"levelo://app?vid=92a108c8-314c-4087-88dc-ace532aca17c"},"vehicle_type_id":"4","last_reported":1698646186,"current_range_meters":16800,"station_id":"ce4bgih2rcd13ifvqba0","pricing_plan_id":"free"},{"bike_id":"5b145b5c-2448-4b06-ad7d-667870f368db","system_id":"levelo_inurba_marseille","lat":43.283419,"lon":5.392528,"is_reserved":false,"is_disabled":false,"rental_uris":{"android":"levelo://app?vid=5b145b5c-2448-4b06-ad7d-667870f368db","ios":"levelo://app?vid=5b145b5c-2448-4b06-ad7d-667870f368db"},"vehicle_type_id":"4","last_reported":1698646186,"current_range_meters":30000,"station_id":"","pricing_plan_id":"free"},{"bike_id":"b7188f09-2eb6-47fa-93c8-385c9f76960d","system_id":"levelo_inurba_marseille","lat":43.287154,"lon":5.399979,"is_reserved":false,"is_disabled":false,"rental_uris":{"android":"levelo://app?vid=b7188f09-2eb6-47fa-93c8-385c9f76960d","ios":"levelo://app?vid=b7188f09-2eb6-47fa-93c8-385c9f76960d"},"vehicle_type_id":"4","last_reported":1698646186,"current_range_meters":31200,"station_id":"ce4bho92rcd13ifvqh3g","pricing_plan_id":"free"},{"bike_id":"b3a6a55d-7b79-4c27-b1bb-37e486a8f5ce","system_id":"levelo_inurba_marseille","lat":43.287154,"lon":5.399979,"is_reserved":false,"is_disabled":false,"rental_uris":{"android":"levelo://app?vid=b3a6a55d-7b79-4c27-b1bb-37e486a8f5ce","ios":"levelo://app?vid=b3a6a55d-7b79-4c27-b1bb-37e486a8f5ce"},"vehicle_type_id":"4","last_reported":1698646186,"current_range_meters":31600,"station_id":"ce4bho92rcd13ifvqh3g","pricing_plan_id":"free"},{"bike_id":"7ec8f44a-445b-4b04-a1a7-bf2fc6d34998","system_id":"levelo_inurba_marseille","lat":43.287154,"lon":5.399979,"is_reserved":false,"is_disabled":false,"rental_uris":{"android":"levelo://app?vid=7ec8f44a-445b-4b04-a1a7-bf2fc6d34998","ios":"levelo://app?vid=7ec8f44a-445b-4b04-a1a7-bf2fc6d34998"},"vehicle_type_id":"4","last_reported":1698646186,"current_range_meters":21600,"station_id":"ce4bho92rcd13ifvqh3g","pricing_plan_id":"free"},{"bike_id":"3704ff44-dbaf-4bf4-942e-eaf9cd0c8eeb","system_id":"levelo_inurba_marseille","lat":43.321887,"lon":5.413747,"is_reserved":false,"is_disabled":false,"rental_uris":{"android":"levelo://app?vid=3704ff44-dbaf-4bf4-942e-eaf9cd0c8eeb","ios":"levelo://app?vid=3704ff44-dbaf-4bf4-942e-eaf9cd0c8eeb"},"vehicle_type_id":"4","last_reported":1698646186,"current_range_meters":0,"station_id":"","pricing_plan_id":"free"},{"bike_id":"820a3d87-4a06-4013-920d-565c3bf08ca1","system_id":"levelo_inurba_marseille","lat":43.320045,"lon":5.415046,"is_reserved":false,"is_disabled":false,"rental_uris":{"android":"levelo://app?vid=820a3d87-4a06-4013-920d-565c3bf08ca1","ios":"levelo://app?vid=820a3d87-4a06-4013-920d-565c3bf08ca1"},"vehicle_type_id":"4","last_reported":1698646186,"current_range_meters":30800,"station_id":"ce4bhq92rcd13ifvqhkg","pricing_plan_id":"free"},{"bike_id":"c899f373-be6f-47f3-b623-59d0b10feca6","system_id":"levelo_inurba_marseille","lat":43.325422,"lon":5.41418,"is_reserved":false,"is_disabled":false,"rental_uris":{"android":"levelo://app?vid=c899f373-be6f-47f3-b623-59d0b10feca6","ios":"levelo://app?vid=c899f373-be6f-47f3-b623-59d0b10feca6"},"vehicle_type_id":"4","last_reported":1698646186,"current_range_meters":18800,"station_id":"ce4bhq12rcd13ifvqhhg","pricing_plan_id":"free"},{"bike_id":"9d570a98-ee1a-445d-9c01-f53797ab522f","system_id":"levelo_inurba_marseille","lat":43.292571,"lon":5.409107,"is_reserved":false,"is_disabled":false,"rental_uris":{"android":"levelo://app?vid=9d570a98-ee1a-445d-9c01-f53797ab522f","ios":"levelo://app?vid=9d570a98-ee1a-445d-9c01-f53797ab522f"},"vehicle_type_id":"4","last_reported":1698646186,"current_range_meters":26800,"station_id":"ce4bh192rcd13ifvqdc0","pricing_plan_id":"free"},{"bike_id":"db142a68-1c4d-4829-a916-93a80b781cc7","system_id":"levelo_inurba_marseille","lat":43.292604,"lon":5.409079,"is_reserved":false,"is_disabled":false,"rental_uris":{"android":"levelo://app?vid=db142a68-1c4d-4829-a916-93a80b781cc7","ios":"levelo://app?vid=db142a68-1c4d-4829-a916-93a80b781cc7"},"vehicle_type_id":"4","last_reported":1698646186,"current_range_meters":15600,"station_id":"ce4bh192rcd13ifvqdc0","pricing_plan_id":"free"},{"bike_id":"c4988116-a7dd-4a51-9766-aa91f4d4b685","system_id":"levelo_inurba_marseille","lat":43.29257,"lon":5.409069,"is_reserved":false,"is_disabled":false,"rental_uris":{"android":"levelo://app?vid=c4988116-a7dd-4a51-9766-aa91f4d4b685","ios":"levelo://app?vid=c4988116-a7dd-4a51-9766-aa91f4d4b685"},"vehicle_type_id":"4","last_reported":1698646186,"current_range_meters":3200,"station_id":"ce4bh192rcd13ifvqdc0","pricing_plan_id":"free"},{"bike_id":"20de384b-cc74-4b01-955f-89188035f0c6","system_id":"levelo_inurba_marseille","lat":43.292542,"lon":5.40905,"is_reserved":false,"is_disabled":false,"rental_uris":{"android":"levelo://app?vid=20de384b-cc74-4b01-955f-89188035f0c6","ios":"levelo://app?vid=20de384b-cc74-4b01-955f-89188035f0c6"},"vehicle_type_id":"4","last_reported":1698646186,"current_range_meters":24400,"station_id":"ce4bh192rcd13ifvqdc0","pricing_plan_id":"free"},{"bike_id":"c82d440a-5e5b-45c9-b76a-e08ab3b7ab47","system_id":"levelo_inurba_marseille","lat":43.292569,"lon":5.409107,"is_reserved":false,"is_disabled":false,"rental_uris":{"android":"levelo://app?vid=c82d440a-5e5b-45c9-b76a-e08ab3b7ab47","ios":"levelo://app?vid=c82d440a-5e5b-45c9-b76a-e08ab3b7ab47"},"vehicle_type_id":"4","last_reported":1698646186,"current_range_meters":22400,"station_id":"ce4bh192rcd13ifvqdc0","pricing_plan_id":"free"},{"bike_id":"ba3361d6-72be-4cac-b81b-535651101d4e","system_id":"levelo_inurba_marseille","lat":43.292569,"lon":5.409107,"is_reserved":false,"is_disabled":false,"rental_uris":{"android":"levelo://app?vid=ba3361d6-72be-4cac-b81b-535651101d4e","ios":"levelo://app?vid=ba3361d6-72be-4cac-b81b-535651101d4e"},"vehicle_type_id":"4","last_reported":1698646186,"current_range_meters":31200,"station_id":"ce4bh192rcd13ifvqdc0","pricing_plan_id":"free"},{"bike_id":"e06c6de6-378e-47d0-afbb-06f3a39ee2b0","system_id":"levelo_inurba_marseille","lat":43.325269,"lon":5.414571,"is_reserved":false,"is_disabled":false,"rental_uris":{"android":"levelo://app?vid=e06c6de6-378e-47d0-afbb-06f3a39ee2b0","ios":"levelo://app?vid=e06c6de6-378e-47d0-afbb-06f3a39ee2b0"},"vehicle_type_id":"4","last_reported":1698646186,"current_range_meters":28000,"station_id":"ce4bhq12rcd13ifvqhhg","pricing_plan_id":"free"},{"bike_id":"ab441268-3e03-4104-94cc-7705d60c6788","system_id":"levelo_inurba_marseille","lat":43.347892,"lon":5.348552,"is_reserved":false,"is_disabled":false,"rental_uris":{"android":"levelo://app?vid=ab441268-3e03-4104-94cc-7705d60c6788","ios":"levelo://app?vid=ab441268-3e03-4104-94cc-7705d60c6788"},"vehicle_type_id":"4","last_reported":1698646186,"current_range_meters":12800,"station_id":"","pricing_plan_id":"free"},{"bike_id":"ca086200-297c-47d1-b468-be13f7e839c0","system_id":"levelo_inurba_marseille","lat":43.280838,"lon":5.396626,"is_reserved":false,"is_disabled":false,"rental_uris":{"android":"levelo://app?vid=ca086200-297c-47d1-b468-be13f7e839c0","ios":"levelo://app?vid=ca086200-297c-47d1-b468-be13f7e839c0"},"vehicle_type_id":"4","last_reported":1698646186,"current_range_meters":0,"station_id":"ce4bho12rcd13ifvqh2g","pricing_plan_id":"free"},{"bike_id":"6f388752-a1d1-471a-804d-4e54112a7c61","system_id":"levelo_inurba_marseille","lat":43.280784,"lon":5.396622,"is_reserved":false,"is_disabled":false,"rental_uris":{"android":"levelo://app?vid=6f388752-a1d1-471a-804d-4e54112a7c61","ios":"levelo://app?vid=6f388752-a1d1-471a-804d-4e54112a7c61"},"vehicle_type_id":"4","last_reported":1698646186,"current_range_meters":30000,"station_id":"ce4bho12rcd13ifvqh2g","pricing_plan_id":"free"},{"bike_id":"39d6afc9-e929-4b37-8aa2-4b03c85a2380","system_id":"levelo_inurba_marseille","lat":43.278401,"lon":5.392152,"is_reserved":false,"is_disabled":false,"rental_uris":{"android":"levelo://app?vid=39d6afc9-e929-4b37-8aa2-4b03c85a2380","ios":"levelo://app?vid=39d6afc9-e929-4b37-8aa2-4b03c85a2380"},"vehicle_type_id":"4","last_reported":1698646186,"current_range_meters":30800,"station_id":"ce4bhjp2rcd13ifvqga0","pricing_plan_id":"free"},{"bike_id":"e0f15cb0-8565-4aa4-b304-3788e7f4e5c3","system_id":"levelo_inurba_marseille","lat":43.278401,"lon":5.392152,"is_reserved":false,"is_disabled":false,"rental_uris":{"android":"levelo://app?vid=e0f15cb0-8565-4aa4-b304-3788e7f4e5c3","ios":"levelo://app?vid=e0f15cb0-8565-4aa4-b304-3788e7f4e5c3"},"vehicle_type_id":"4","last_reported":1698646186,"current_range_meters":28400,"station_id":"ce4bhjp2rcd13ifvqga0","pricing_plan_id":"free"},{"bike_id":"9450a689-fa47-445e-b94b-d601f366ae3a","system_id":"levelo_inurba_marseille","lat":43.278292,"lon":5.392042,"is_reserved":false,"is_disabled":false,"rental_uris":{"android":"levelo://app?vid=9450a689-fa47-445e-b94b-d601f366ae3a","ios":"levelo://app?vid=9450a689-fa47-445e-b94b-d601f366ae3a"},"vehicle_type_id":"4","last_reported":1698646186,"current_range_meters":6000,"station_id":"ce4bhjp2rcd13ifvqga0","pricing_plan_id":"free"},{"bike_id":"cc7cf75c-0ada-4514-ba2a-0f7993876bdb","system_id":"levelo_inurba_marseille","lat":43.273797,"lon":5.362533,"is_reserved":false,"is_disabled":false,"rental_uris":{"android":"levelo://app?vid=cc7cf75c-0ada-4514-ba2a-0f7993876bdb","ios":"levelo://app?vid=cc7cf75c-0ada-4514-ba2a-0f7993876bdb"},"vehicle_type_id":"4","last_reported":1698646186,"current_range_meters":30000,"station_id":"ce4bhbh2rcd13ifvqeo0","pricing_plan_id":"free"},{"bike_id":"007c1643-bc0e-4774-9b08-fd846d27d742","system_id":"levelo_inurba_marseille","lat":43.278189,"lon":5.39201,"is_reserved":false,"is_disabled":false,"rental_uris":{"android":"levelo://app?vid=007c1643-bc0e-4774-9b08-fd846d27d742","ios":"levelo://app?vid=007c1643-bc0e-4774-9b08-fd846d27d742"},"vehicle_type_id":"4","last_reported":1698646186,"current_range_meters":1200,"station_id":"ce4bhjp2rcd13ifvqga0","pricing_plan_id":"free"},{"bike_id":"bdd92ce3-3fac-4b1e-87df-cce7dd768bb0","system_id":"levelo_inurba_marseille","lat":43.275625,"lon":5.384392,"is_reserved":false,"is_disabled":false,"rental_uris":{"android":"levelo://app?vid=bdd92ce3-3fac-4b1e-87df-cce7dd768bb0","ios":"levelo://app?vid=bdd92ce3-3fac-4b1e-87df-cce7dd768bb0"},"vehicle_type_id":"4","last_reported":1698646186,"current_range_meters":30000,"station_id":"ce4bhh92rcd13ifvqfi0","pricing_plan_id":"free"},{"bike_id":"7ce2338d-fd9b-44bf-a2c7-164674f3ec9a","system_id":"levelo_inurba_marseille","lat":43.275625,"lon":5.384392,"is_reserved":false,"is_disabled":false,"rental_uris":{"android":"levelo://app?vid=7ce2338d-fd9b-44bf-a2c7-164674f3ec9a","ios":"levelo://app?vid=7ce2338d-fd9b-44bf-a2c7-164674f3ec9a"},"vehicle_type_id":"4","last_reported":1698646186,"current_range_meters":31200,"station_id":"ce4bhh92rcd13ifvqfi0","pricing_plan_id":"free"},{"bike_id":"62d8c903-71d9-4d51-a1e4-df2279f3b2dc","system_id":"levelo_inurba_marseille","lat":43.273613,"lon":5.362705,"is_reserved":false,"is_disabled":false,"rental_uris":{"android":"levelo://app?vid=62d8c903-71d9-4d51-a1e4-df2279f3b2dc","ios":"levelo://app?vid=62d8c903-71d9-4d51-a1e4-df2279f3b2dc"},"vehicle_type_id":"4","last_reported":1698646186,"current_range_meters":30000,"station_id":"ce4bhbh2rcd13ifvqeo0","pricing_plan_id":"free"},{"bike_id":"292dfae2-df12-48af-9973-e94ba2fe4200","system_id":"levelo_inurba_marseille","lat":43.275589,"lon":5.384164,"is_reserved":false,"is_disabled":false,"rental_uris":{"android":"levelo://app?vid=292dfae2-df12-48af-9973-e94ba2fe4200","ios":"levelo://app?vid=292dfae2-df12-48af-9973-e94ba2fe4200"},"vehicle_type_id":"4","last_reported":1698646186,"current_range_meters":25600,"station_id":"ce4bhh92rcd13ifvqfi0","pricing_plan_id":"free"},{"bike_id":"0c99fd69-48f7-4393-922c-7178789925a8","system_id":"levelo_inurba_marseille","lat":43.275625,"lon":5.384392,"is_reserved":false,"is_disabled":false,"rental_uris":{"android":"levelo://app?vid=0c99fd69-48f7-4393-922c-7178789925a8","ios":"levelo://app?vid=0c99fd69-48f7-4393-922c-7178789925a8"},