{"last_updated":1758625717,"ttl":60,"version":"2.2","data":{"bikes":[{"bike_id":"37b48db8-37f5-4b8b-87a5-f09ae986f443","system_id":"levelo_inurba_marseille","lat":43.2709,"lon":5.42287,"is_reserved":false,"is_disabled":false,"rental_uris":{"android":"levelo://app?vid=37b48db8-37f5-4b8b-87a5-f09ae986f443","ios":"levelo://app?vid=37b48db8-37f5-4b8b-87a5-f09ae986f443"},"vehicle_type_id":"4","last_reported":1758625717,"current_range_meters":2800,"station_id":"ce4bhk92rcd13ifvqgb0","pricing_plan_id":"cebpf4jnsgd1na2vs0mg"},{"bike_id":"6d454a5c-e1fc-481b-bc8e-0711867db759","system_id":"levelo_inurba_marseille","lat":43.30594,"lon":5.39356,"is_reserved":false,"is_disabled":false,"rental_uris":{"android":"levelo://app?vid=6d454a5c-e1fc-481b-bc8e-0711867db759","ios":"levelo://app?vid=6d454a5c-e1fc-481b-bc8e-0711867db759"},"vehicle_type_id":"4","last_reported":1758625717,"current_range_meters":2800,"station_id":"ce4bh0p2rcd13ifvqd80","pricing_plan_id":"cebpf4jnsgd1na2vs0mg"},{"bike_id":"0c3ca556-e466-4c1f-8504-effa3d65dbd4","system_id":"levelo_inurba_marseille","lat":43.28485,"lon":5.3841,"is_reserved":false,"is_disabled":false,"rental_uris":{"android":"levelo://app?vid=0c3ca556-e466-4c1f-8504-effa3d65dbd4","ios":"levelo://app?vid=0c3ca556-e466-4c1f-8504-effa3d65dbd4"},"vehicle_type_id":"4","last_reported":1758625717,"current_range_meters":2800,"station_id":"ce4bh512rcd13ifvqe3g","pricing_plan_id":"cebpf4jnsgd1na2vs0mg"},{"bike_id":"758496cf-60bc-4714-bbe2-1ca81587fe9a","system_id":"levelo_inurba_marseille","lat":43.28483,"lon":5.38415,"is_reserved":false,"is_disabled":false,"rental_uris":{"android":"levelo://app?vid=758496cf-60bc-4714-bbe2-1ca81587fe9a","ios":"levelo://app?vid=758496cf-60bc-4714-bbe2-1ca81587fe9a"},"vehicle_type_id":"4","last_reported":1758625717,"current_range_meters":3200,"station_id":"ce4bh512rcd13ifvqe3g","pricing_plan_id":"cebpf4jnsgd1na2vs0mg"},{"bike_id":"1a736a3e-45ac-4358-8cb6-c01ca17f9987","system_id":"levelo_inurba_marseille","lat":43.34141,"lon":5.40911,"is_reserved":false,"is_disabled":false,"rental_uris":{"android":"levelo://app?vid=1a736a3e-45ac-4358-8cb6-c01ca17f9987","ios":"levelo://app?vid=1a736a3e-45ac-4358-8cb6-c01ca17f9987"},"vehicle_type_id":"4","last_reported":1758625717,"current_range_meters":3200,"station_id":"ce4bhqh2rcd13ifvqhlg","pricing_plan_id":"cebpf4jnsgd1na2vs0mg"},{"bike_id":"e4405f42-3608-4636-b419-04b11e4bed5a","system_id":"levelo_inurba_marseille","lat":43.29592,"lon":5.36735,"is_reserved":false,"is_disabled":false,"rental_uris":{"android":"levelo://app?vid=e4405f42-3608-4636-b419-04b11e4bed5a","ios":"levelo://app?vid=e4405f42-3608-4636-b419-04b11e4bed5a"},"vehicle_type_id":"4","last_reported":1758625717,"current_range_meters":3200,"station_id":"ce4bgph2rcd13ifvqc2g","pricing_plan_id":"cebpf4jnsgd1na2vs0mg"},{"bike_id":"55d1bc08-fd54-4a82-afc7-2adcaa7b1c4e","system_id":"levelo_inurba_marseille","lat":43.30034,"lon":5.37697,"is_reserved":false,"is_disabled":false,"rental_uris":{"android":"levelo://app?vid=55d1bc08-fd54-4a82-afc7-2adcaa7b1c4e","ios":"levelo://app?vid=55d1bc08-fd54-4a82-afc7-2adcaa7b1c4e"},"vehicle_type_id":"4","last_reported":1758625717,"current_range_meters":3200,"station_id":"","pricing_plan_id":"cebpf4jnsgd1na2vs0mg"},{"bike_id":"7e22a5dc-c7ea-46f9-94eb-2d75504fd953","system_id":"levelo_inurba_marseille","lat":43.25821,"lon":5.39436,"is_reserved":false,"is_disabled":false,"rental_uris":{"android":"levelo://app?vid=7e22a5dc-c7ea-46f9-94eb-2d75504fd953","ios":"levelo://app?vid=7e22a5dc-c7ea-46f9-94eb-2d75504fd953"},"vehicle_type_id":"4","last_reported":1758625717,"current_range_meters":3600,"station_id":"ce4bhip2rcd13ifvqft0","pricing_plan_id":"cebpf4jnsgd1na2vs0mg"},{"bike_id":"3c5b64c5-78c9-4b26-afd1-118f5dc7f1d5","system_id":"levelo_inurba_marseille","lat":43.29555,"lon":5.42287,"is_reserved":false,"is_disabled":false,"rental_uris":{"android":"levelo://app?vid=3c5b64c5-78c9-4b26-afd1-118f5dc7f1d5","ios":"levelo://app?vid=3c5b64c5-78c9-4b26-afd1-118f5dc7f1d5"},"vehicle_type_id":"4","last_reported":1758625717,"current_range_meters":3600,"station_id":"ce4bhph2rcd13ifvqhdg","pricing_plan_id":"cebpf4jnsgd1na2vs0mg"},{"bike_id":"93721e99-a22b-4a7b-a13e-017d0b728d5b","system_id":"levelo_inurba_marseille","lat":43.30109,"lon":5.39074,"is_reserved":false,"is_disabled":true,"rental_uris":{"android":"levelo://app?vid=93721e99-a22b-4a7b-a13e-017d0b728d5b","ios":"levelo://app?vid=93721e99-a22b-4a7b-a13e-017d0b728d5b"},"vehicle_type_id":"4","last_reported":1758625717,"current_range_meters":3600,"station_id":"ce4bh192rcd13ifvqdb0","pricing_plan_id":"cebpf4jnsgd1na2vs0mg"},{"bike_id":"68adab37-f5ad-4072-b58a-fe6c68285ca6","system_id":"levelo_inurba_marseille","lat":43.306146,"lon":5.376574,"is_reserved":false,"is_disabled":false,"rental_uris":{"android":"levelo://app?vid=68adab37-f5ad-4072-b58a-fe6c68285ca6","ios":"levelo://app?vid=68adab37-f5ad-4072-b58a-fe6c68285ca6"},"vehicle_type_id":"4","last_reported":1758625717,"current_range_meters":3600,"station_id":"","pricing_plan_id":"cebpf4jnsgd1na2vs0mg"},{"bike_id":"f3449d16-904c-4fd3-8bf1-c83b914ee8cd","system_id":"levelo_inurba_marseille","lat":43.28333,"lon":5.38095,"is_reserved":false,"is_disabled":false,"rental_uris":{"android":"levelo://app?vid=f3449d16-904c-4fd3-8bf1-c83b914ee8cd","ios":"levelo://app?vid=f3449d16-904c-4fd3-8bf1-c83b914ee8cd"},"vehicle_type_id":"4","last_reported":1758625717,"current_range_meters":4000,"station_id":"ce4bh412rcd13ifvqdr0","pricing_plan_id":"cebpf4jnsgd1na2vs0mg"},{"bike_id":"12049056-334e-437c-99bc-d6fd012acbad","system_id":"levelo_inurba_marseille","lat":43.29527,"lon":5.39045,"is_reserved":false,"is_disabled":false,"rental_uris":{"android":"levelo://app?vid=12049056-334e-437c-99bc-d6fd012acbad","ios":"levelo://app?vid=12049056-334e-437c-99bc-d6fd012acbad"},"vehicle_type_id":"4","last_reported":1758625717,"current_range_meters":4000,"station_id":"ce4bh3p2rcd13ifvqdp0","pricing_plan_id":"cebpf4jnsgd1na2vs0mg"},{"bike_id":"922e7484-6e53-4b8d-8a95-cf9f5390d601","system_id":"levelo_inurba_marseille","lat":43.21191,"lon":5.35058,"is_reserved":false,"is_disabled":false,"rental_uris":{"android":"levelo://app?vid=922e7484-6e53-4b8d-8a95-cf9f5390d601","ios":"levelo://app?vid=922e7484-6e53-4b8d-8a95-cf9f5390d601"},"vehicle_type_id":"4","last_reported":1758625717,"current_range_meters":4000,"station_id":"st_cvj6sg6p6f1abm77japg","pricing_plan_id":"cebpf4jnsgd1na2vs0mg"},{"bike_id":"65775524-695b-46e5-ab20-97cebf88cbb0","system_id":"levelo_inurba_marseille","lat":43.290037,"lon":5.399977,"is_reserved":false,"is_disabled":false,"rental_uris":{"android":"levelo://app?vid=65775524-695b-46e5-ab20-97cebf88cbb0","ios":"levelo://app?vid=65775524-695b-46e5-ab20-97cebf88cbb0"},"vehicle_type_id":"4","last_reported":1758625717,"current_range_meters":4000,"station_id":"ce4bh392rcd13ifvqdm0","pricing_plan_id":"cebpf4jnsgd1na2vs0mg"},{"bike_id":"edbe19b7-9c00-4bc0-b6d3-3e8ab8af45bf","system_id":"levelo_inurba_marseille","lat":43.28475,"lon":5.38411,"is_reserved":false,"is_disabled":false,"rental_uris":{"android":"levelo://app?vid=edbe19b7-9c00-4bc0-b6d3-3e8ab8af45bf","ios":"levelo://app?vid=edbe19b7-9c00-4bc0-b6d3-3e8ab8af45bf"},"vehicle_type_id":"4","last_reported":1758625717,"current_range_meters":4000,"station_id":"ce4bh512rcd13ifvqe3g","pricing_plan_id":"cebpf4jnsgd1na2vs0mg"},{"bike_id":"72df89cb-7746-46e6-b269-fbddd2d473fe","system_id":"levelo_inurba_marseille","lat":43.32112,"lon":5.36772,"is_reserved":false,"is_disabled":false,"rental_uris":{"android":"levelo://app?vid=72df89cb-7746-46e6-b269-fbddd2d473fe","ios":"levelo://app?vid=72df89cb-7746-46e6-b269-fbddd2d473fe"},"vehicle_type_id":"4","last_reported":1758625717,"current_range_meters":4000,"station_id":"ce4bhrh2rcd13ifvqhug","pricing_plan_id":"cebpf4jnsgd1na2vs0mg"},{"bike_id":"a96c13ae-cb6e-42d7-a830-b6bceb438df1","system_id":"levelo_inurba_marseille","lat":43.29261,"lon":5.40902,"is_reserved":false,"is_disabled":false,"rental_uris":{"android":"levelo://app?vid=a96c13ae-cb6e-42d7-a830-b6bceb438df1","ios":"levelo://app?vid=a96c13ae-cb6e-42d7-a830-b6bceb438df1"},"vehicle_type_id":"4","last_reported":1758625717,"current_range_meters":4400,"station_id":"ce4bh192rcd13ifvqdc0","pricing_plan_id":"cebpf4jnsgd1na2vs0mg"},{"bike_id":"54502de0-09ba-43cd-a1f2-9f84e6e6c1cb","system_id":"levelo_inurba_marseille","lat":43.290149,"lon":5.381283,"is_reserved":false,"is_disabled":false,"rental_uris":{"android":"levelo://app?vid=54502de0-09ba-43cd-a1f2-9f84e6e6c1cb","ios":"levelo://app?vid=54502de0-09ba-43cd-a1f2-9f84e6e6c1cb"},"vehicle_type_id":"4","last_reported":1758625717,"current_range_meters":4400,"station_id":"","pricing_plan_id":"cebpf4jnsgd1na2vs0mg"},{"bike_id":"1b790372-5d34-489f-a29a-5f2319ad70e0","system_id":"levelo_inurba_marseille","lat":43.28261,"lon":5.35048,"is_reserved":false,"is_disabled":true,"rental_uris":{"android":"levelo://app?vid=1b790372-5d34-489f-a29a-5f2319ad70e0","ios":"levelo://app?vid=1b790372-5d34-489f-a29a-5f2319ad70e0"},"vehicle_type_id":"4","last_reported":1758625717,"current_range_meters":4400,"station_id":"ce4bhbp2rcd13ifvqerg","pricing_plan_id":"cebpf4jnsgd1na2vs0mg"},{"bike_id":"05977a29-4492-4e42-b026-696e72e1cc93","system_id":"levelo_inurba_marseille","lat":43.28261,"lon":5.37274,"is_reserved":false,"is_disabled":false,"rental_uris":{"android":"levelo://app?vid=05977a29-4492-4e42-b026-696e72e1cc93","ios":"levelo://app?vid=05977a29-4492-4e42-b026-696e72e1cc93"},"vehicle_type_id":"4","last_reported":1758625717,"current_range_meters":4800,"station_id":"","pricing_plan_id":"cebpf4jnsgd1na2vs0mg"},{"bike_id":"42704bee-9abe-4e63-b823-b9e5e0082fc5","system_id":"levelo_inurba_marseille","lat":43.31725,"lon":5.43717,"is_reserved":false,"is_disabled":false,"rental_uris":{"android":"levelo://app?vid=42704bee-9abe-4e63-b823-b9e5e0082fc5","ios":"levelo://app?vid=42704bee-9abe-4e63-b823-b9e5e0082fc5"},"vehicle_type_id":"4","last_reported":1758625717,"current_range_meters":4800,"station_id":"ce4bhp92rcd13ifvqhcg","pricing_plan_id":"cebpf4jnsgd1na2vs0mg"},{"bike_id":"6902057c-23c3-4f7a-926d-4bb44943920d","system_id":"levelo_inurba_marseille","lat":43.28419,"lon":5.34978,"is_reserved":false,"is_disabled":false,"rental_uris":{"android":"levelo://app?vid=6902057c-23c3-4f7a-926d-4bb44943920d","ios":"levelo://app?vid=6902057c-23c3-4f7a-926d-4bb44943920d"},"vehicle_type_id":"4","last_reported":1758625717,"current_range_meters":4800,"station_id":"ce4bhbh2rcd13ifvqepg","pricing_plan_id":"cebpf4jnsgd1na2vs0mg"},{"bike_id":"ad31bef2-0dfb-45cd-9795-582130e7554c","system_id":"levelo_inurba_marseille","lat":43.29871,"lon":5.39728,"is_reserved":false,"is_disabled":false,"rental_uris":{"android":"levelo://app?vid=ad31bef2-0dfb-45cd-9795-582130e7554c","ios":"levelo://app?vid=ad31bef2-0dfb-45cd-9795-582130e7554c"},"vehicle_type_id":"4","last_reported":1758625717,"current_range_meters":4800,"station_id":"ce4bh0h2rcd13ifvqd50","pricing_plan_id":"cebpf4jnsgd1na2vs0mg"},{"bike_id":"f8d6c6d2-a76b-4197-a754-9be858267b97","system_id":"levelo_inurba_marseille","lat":43.33023,"lon":5.39042,"is_reserved":false,"is_disabled":false,"rental_uris":{"android":"levelo://app?vid=f8d6c6d2-a76b-4197-a754-9be858267b97","ios":"levelo://app?vid=f8d6c6d2-a76b-4197-a754-9be858267b97"},"vehicle_type_id":"4","last_reported":1758625717,"current_range_meters":4800,"station_id":"ce4bhr92rcd13ifvqhrg","pricing_plan_id":"cebpf4jnsgd1na2vs0mg"},{"bike_id":"2e78b03e-0c3f-4355-b07c-0a438fce47a3","system_id":"levelo_inurba_marseille","lat":43.2418,"lon":5.39731,"is_reserved":false,"is_disabled":false,"rental_uris":{"android":"levelo://app?vid=2e78b03e-0c3f-4355-b07c-0a438fce47a3","ios":"levelo://app?vid=2e78b03e-0c3f-4355-b07c-0a438fce47a3"},"vehicle_type_id":"4","last_reported":1758625717,"current_range_meters":5600,"station_id":"ce4bhn12rcd13ifvqgpg","pricing_plan_id":"cebpf4jnsgd1na2vs0mg"},{"bike_id":"781ec3f5-b9cc-4e84-aa29-d17ad816a188","system_id":"levelo_inurba_marseille","lat":43.29683,"lon":5.37285,"is_reserved":false,"is_disabled":false,"rental_uris":{"android":"levelo://app?vid=781ec3f5-b9cc-4e84-aa29-d17ad816a188","ios":"levelo://app?vid=781ec3f5-b9cc-4e84-aa29-d17ad816a188"},"vehicle_type_id":"4","last_reported":1758625717,"current_range_meters":6000,"station_id":"ce4bgk12rcd13ifvqbj0","pricing_plan_id":"cebpf4jnsgd1na2vs0mg"},{"bike_id":"9176512c-2cc1-4df2-a8e0-6be514fbcdbf","system_id":"levelo_inurba_marseille","lat":43.33748,"lon":5.37465,"is_reserved":false,"is_disabled":false,"rental_uris":{"android":"levelo://app?vid=9176512c-2cc1-4df2-a8e0-6be514fbcdbf","ios":"levelo://app?vid=9176512c-2cc1-4df2-a8e0-6be514fbcdbf"},"vehicle_type_id":"4","last_reported":1758625717,"current_range_meters":6000,"station_id":"","pricing_plan_id":"cebpf4jnsgd1na2vs0mg"},{"bike_id":"438ead59-de14-4fa0-a61d-03a70a4122ae","system_id":"levelo_inurba_marseille","lat":43.97285,"lon":4.89134,"is_reserved":false,"is_disabled":true,"rental_uris":{"android":"levelo://app?vid=438ead59-de14-4fa0-a61d-03a70a4122ae","ios":"levelo://app?vid=438ead59-de14-4fa0-a61d-03a70a4122ae"},"vehicle_type_id":"4","last_reported":1758625717,"current_range_meters":6000,"station_id":"","pricing_plan_id":"cebpf4jnsgd1na2vs0mg"},{"bike_id":"ebb03480-b45b-4f18-94e6-3da4166ad159","system_id":"levelo_inurba_marseille","lat":43.28424,"lon":5.37499,"is_reserved":false,"is_disabled":false,"rental_uris":{"android":"levelo://app?vid=ebb03480-b45b-4f18-94e6-3da4166ad159","ios":"levelo://app?vid=ebb03480-b45b-4f18-94e6-3da4166ad159"},"vehicle_type_id":"4","last_reported":1758625717,"current_range_meters":6400,"station_id":"ce4bh412rcd13ifvqds0","pricing_plan_id":"cebpf4jnsgd1na2vs0mg"},{"bike_id":"698a1659-1be4-4464-8e40-0054e6845364","system_id":"levelo_inurba_marseille","lat":43.29419,"lon":5.40386,"is_reserved":false,"is_disabled":false,"rental_uris":{"android":"levelo://app?vid=698a1659-1be4-4464-8e40-0054e6845364","ios":"levelo://app?vid=698a1659-1be4-4464-8e40-0054e6845364"},"vehicle_type_id":"4","last_reported":1758625717,"current_range_meters":6400,"station_id":"","pricing_plan_id":"cebpf4jnsgd1na2vs0mg"},{"bike_id":"cf15f0ab-4027-43c7-82dc-a40724160eb1","system_id":"levelo_inurba_marseille","lat":43.21755,"lon":5.345969,"is_reserved":false,"is_disabled":false,"rental_uris":{"android":"levelo://app?vid=cf15f0ab-4027-43c7-82dc-a40724160eb1","ios":"levelo://app?vid=cf15f0ab-4027-43c7-82dc-a40724160eb1"},"vehicle_type_id":"4","last_reported":1758625717,"current_range_meters":6400,"station_id":"st_cvj6r9ubvosntc0bgbag","pricing_plan_id":"cebpf4jnsgd1na2vs0mg"},{"bike_id":"2289a0ff-9c3e-4f79-ad38-4b41158d6057","system_id":"levelo_inurba_marseille","lat":43.29882,"lon":5.37911,"is_reserved":false,"is_disabled":false,"rental_uris":{"android":"levelo://app?vid=2289a0ff-9c3e-4f79-ad38-4b41158d6057","ios":"levelo://app?vid=2289a0ff-9c3e-4f79-ad38-4b41158d6057"},"vehicle_type_id":"4","last_reported":1758625717,"current_range_meters":6400,"station_id":"","pricing_plan_id":"cebpf4jnsgd1na2vs0mg"},{"bike_id":"9fd77543-f18d-4c23-af18-b4fabf18caa2","system_id":"levelo_inurba_marseille","lat":43.28154,"lon":5.42642,"is_reserved":false,"is_disabled":false,"rental_uris":{"android":"levelo://app?vid=9fd77543-f18d-4c23-af18-b4fabf18caa2","ios":"levelo://app?vid=9fd77543-f18d-4c23-af18-b4fabf18caa2"},"vehicle_type_id":"4","last_reported":1758625717,"current_range_meters":6400,"station_id":"ce4bhnh2rcd13ifvqgug","pricing_plan_id":"cebpf4jnsgd1na2vs0mg"},{"bike_id":"6e1ad3c0-fd96-43e9-a6b7-d2a1ce587f43","system_id":"levelo_inurba_marseille","lat":43.30537,"lon":5.36715,"is_reserved":false,"is_disabled":false,"rental_uris":{"android":"levelo://app?vid=6e1ad3c0-fd96-43e9-a6b7-d2a1ce587f43","ios":"levelo://app?vid=6e1ad3c0-fd96-43e9-a6b7-d2a1ce587f43"},"vehicle_type_id":"4","last_reported":1758625717,"current_range_meters":6400,"station_id":"ce4bgrp2rcd13ifvqc9g","pricing_plan_id":"cebpf4jnsgd1na2vs0mg"},{"bike_id":"48857604-2d4d-48ce-b33a-30746f3ec036","system_id":"levelo_inurba_marseille","lat":43.2721,"lon":5.3918,"is_reserved":false,"is_disabled":false,"rental_uris":{"android":"levelo://app?vid=48857604-2d4d-48ce-b33a-30746f3ec036","ios":"levelo://app?vid=48857604-2d4d-48ce-b33a-30746f3ec036"},"vehicle_type_id":"4","last_reported":1758625717,"current_range_meters":6800,"station_id":"ce4bhhp2rcd13ifvqfm0","pricing_plan_id":"cebpf4jnsgd1na2vs0mg"},{"bike_id":"e3570447-3723-4cc6-bba8-235627bb2a64","system_id":"levelo_inurba_marseille","lat":43.29098,"lon":5.38148,"is_reserved":false,"is_disabled":false,"rental_uris":{"android":"levelo://app?vid=e3570447-3723-4cc6-bba8-235627bb2a64","ios":"levelo://app?vid=e3570447-3723-4cc6-bba8-235627bb2a64"},"vehicle_type_id":"4","last_reported":1758625717,"current_range_meters":7200,"station_id":"ce4bh512rcd13ifvqe2g","pricing_plan_id":"cebpf4jnsgd1na2vs0mg"},{"bike_id":"1f7155ca-6d5d-46a2-b9d2-aed45ae1cc4a","system_id":"levelo_inurba_marseille","lat":43.30642,"lon":5.40095,"is_reserved":false,"is_disabled":false,"rental_uris":{"android":"levelo://app?vid=1f7155ca-6d5d-46a2-b9d2-aed45ae1cc4a","ios":"levelo://app?vid=1f7155ca-6d5d-46a2-b9d2-aed45ae1cc4a"},"vehicle_type_id":"4","last_reported":1758625717,"current_range_meters":7200,"station_id":"ce4bh112rcd13ifvqda0","pricing_plan_id":"cebpf4jnsgd1na2vs0mg"},{"bike_id":"78b50ca0-8a03-4cc2-b539-656eedaf321e","system_id":"levelo_inurba_marseille","lat":43.29106,"lon":5.38146,"is_reserved":false,"is_disabled":false,"rental_uris":{"android":"levelo://app?vid=78b50ca0-8a03-4cc2-b539-656eedaf321e","ios":"levelo://app?vid=78b50ca0-8a03-4cc2-b539-656eedaf321e"},"vehicle_type_id":"4","last_reported":1758625717,"current_range_meters":6000,"station_id":"ce4bh512rcd13ifvqe2g","pricing_plan_id":"cebpf4jnsgd1na2vs0mg"},{"bike_id":"8724d4a6-861a-4858-a0a5-664e7bd51387","system_id":"levelo_inurba_marseille","lat":43.33734,"lon":5.37499,"is_reserved":false,"is_disabled":false,"rental_uris":{"android":"levelo://app?vid=8724d4a6-861a-4858-a0a5-664e7bd51387","ios":"levelo://app?vid=8724d4a6-861a-4858-a0a5-664e7bd51387"},"vehicle_type_id":"4","last_reported":1758625717,"current_range_meters":7200,"station_id":"","pricing_plan_id":"cebpf4jnsgd1na2vs0mg"},{"bike_id":"a94f9a83-e64d-487d-93be-4833b66927c8","system_id":"levelo_inurba_marseille","lat":43.28422,"lon":5.34977,"is_reserved":false,"is_disabled":false,"rental_uris":{"android":"levelo://app?vid=a94f9a83-e64d-487d-93be-4833b66927c8","ios":"levelo://app?vid=a94f9a83-e64d-487d-93be-4833b66927c8"},"vehicle_type_id":"4","last_reported":1758625717,"current_range_meters":3600,"station_id":"ce4bhbh2rcd13ifvqepg","pricing_plan_id":"cebpf4jnsgd1na2vs0mg"},{"bike_id":"6e16c3bb-b053-4def-a9b7-af0676df93d5","system_id":"levelo_inurba_marseille","lat":43.30538,"lon":5.36717,"is_reserved":false,"is_disabled":false,"rental_uris":{"android":"levelo://app?vid=6e16c3bb-b053-4def-a9b7-af0676df93d5","ios":"levelo://app?vid=6e16c3bb-b053-4def-a9b7-af0676df93d5"},"vehicle_type_id":"4","last_reported":1758625717,"current_range_meters":7200,"station_id":"ce4bgrp2rcd13ifvqc9g","pricing_plan_id":"cebpf4jnsgd1na2vs0mg"},{"bike_id":"41e03531-d926-4714-9cb0-33d759375f30","system_id":"levelo_inurba_marseille","lat":43.312142,"lon":5.368819,"is_reserved":false,"is_disabled":false,"rental_uris":{"android":"levelo://app?vid=41e03531-d926-4714-9cb0-33d759375f30","ios":"levelo://app?vid=41e03531-d926-4714-9cb0-33d759375f30"},"vehicle_type_id":"4","last_reported":1758625717,"current_range_meters":7200,"station_id":"ce4bgl92rcd13ifvqbq0","pricing_plan_id":"cebpf4jnsgd1na2vs0mg"},{"bike_id":"612f5b6d-7a42-49d4-a4a9-cd0d60040cb3","system_id":"levelo_inurba_marseille","lat":43.31669,"lon":5.39013,"is_reserved":false,"is_disabled":false,"rental_uris":{"android":"levelo://app?vid=612f5b6d-7a42-49d4-a4a9-cd0d60040cb3","ios":"levelo://app?vid=612f5b6d-7a42-49d4-a4a9-cd0d60040cb3"},"vehicle_type_id":"4","last_reported":1758625717,"current_range_meters":7200,"station_id":"","pricing_plan_id":"cebpf4jnsgd1na2vs0mg"},{"bike_id":"87828865-c641-4a92-96cc-2a9d2b51cfba","system_id":"levelo_inurba_marseille","lat":43.21755,"lon":5.34608,"is_reserved":false,"is_disabled":false,"rental_uris":{"android":"levelo://app?vid=87828865-c641-4a92-96cc-2a9d2b51cfba","ios":"levelo://app?vid=87828865-c641-4a92-96cc-2a9d2b51cfba"},"vehicle_type_id":"4","last_reported":1758625717,"current_range_meters":8000,"station_id":"st_cvj6r9ubvosntc0bgbag","pricing_plan_id":"cebpf4jnsgd1na2vs0mg"},{"bike_id":"ca000825-5d13-495e-af19-915ae846db43","system_id":"levelo_inurba_marseille","lat":43.33016,"lon":5.39032,"is_reserved":false,"is_disabled":false,"rental_uris":{"android":"levelo://app?vid=ca000825-5d13-495e-af19-915ae846db43","ios":"levelo://app?vid=ca000825-5d13-495e-af19-915ae846db43"},"vehicle_type_id":"4","last_reported":1758625717,"current_range_meters":8000,"station_id":"ce4bhr92rcd13ifvqhrg","pricing_plan_id":"cebpf4jnsgd1na2vs0mg"},{"bike_id":"e19c5dda-6675-468a-990d-c29782705099","system_id":"levelo_inurba_marseille","lat":43.29262,"lon":5.40906,"is_reserved":false,"is_disabled":false,"rental_uris":{"android":"levelo://app?vid=e19c5dda-6675-468a-990d-c29782705099","ios":"levelo://app?vid=e19c5dda-6675-468a-990d-c29782705099"},"vehicle_type_id":"4","last_reported":1758625717,"current_range_meters":8400,"station_id":"ce4bh192rcd13ifvqdc0","pricing_plan_id":"cebpf4jnsgd1na2vs0mg"},{"bike_id":"6606233b-d7ad-41f1-a240-4bcf1162c1c3","system_id":"levelo_inurba_marseille","lat":43.29583,"lon":5.36743,"is_reserved":false,"is_disabled":false,"rental_uris":{"android":"levelo://app?vid=6606233b-d7ad-41f1-a240-4bcf1162c1c3","ios":"levelo://app?vid=6606233b-d7ad-41f1-a240-4bcf1162c1c3"},"vehicle_type_id":"4","last_reported":1758625717,"current_range_meters":8000,"station_id":"ce4bgph2rcd13ifvqc2g","pricing_plan_id":"cebpf4jnsgd1na2vs0mg"},{"bike_id":"af29bd4a-51c0-47f1-bce0-b9ca138339ea","system_id":"levelo_inurba_marseille","lat":43.3171,"lon":5.43705,"is_reserved":false,"is_disabled":false,"rental_uris":{"android":"levelo://app?vid=af29bd4a-51c0-47f1-bce0-b9ca138339ea","ios":"levelo://app?vid=af29bd4a-51c0-47f1-bce0-b9ca138339ea"},"vehicle_type_id":"4","last_reported":1758625717,"current_range_meters":8400,"station_id":"ce4bhp92rcd13ifvqhcg","pricing_plan_id":"cebpf4jnsgd1na2vs0mg"},{"bike_id":"d20fed51-8110-4224-8d70-0ca80c718659","system_id":"levelo_inurba_marseille","lat":43.28082,"lon":5.39614,"is_reserved":false,"is_disabled":false,"rental_uris":{"android":"levelo://app?vid=d20fed51-8110-4224-8d70-0ca80c718659","ios":"levelo://app?vid=d20fed51-8110-4224-8d70-0ca80c718659"},"vehicle_type_id":"4","last_reported":1758625717,"current_range_meters":8400,"station_id":"ce4bho12rcd13ifvqh2g","pricing_plan_id":"cebpf4jnsgd1na2vs0mg"},{"bike_id":"b968685a-9fb9-42dd-8cd7-e7fb7ba27bb6","system_id":"levelo_inurba_marseille","lat":43.31117,"lon":5.37759,"is_reserved":false,"is_disabled":false,"rental_uris":{"android":"levelo://app?vid=b968685a-9fb9-42dd-8cd7-e7fb7ba27bb6","ios":"levelo://app?vid=b968685a-9fb9-42dd-8cd7-e7fb7ba27bb6"},"vehicle_type_id":"4","last_reported":1758625717,"current_range_meters":8400,"station_id":"ce4bgt92rcd13ifvqcg0","pricing_plan_id":"cebpf4jnsgd1na2vs0mg"},{"bike_id":"a15e48c8-16c3-437e-a237-62b9e19d84cb","system_id":"levelo_inurba_marseille","lat":43.21773,"lon":5.34616,"is_reserved":false,"is_disabled":false,"rental_uris":{"android":"levelo://app?vid=a15e48c8-16c3-437e-a237-62b9e19d84cb","ios":"levelo://app?vid=a15e48c8-16c3-437e-a237-62b9e19d84cb"},"vehicle_type_id":"4","last_reported":1758625717,"current_range_meters":8400,"station_id":"st_cvj6r9ubvosntc0bgbag","pricing_plan_id":"cebpf4jnsgd1na2vs0mg"},{"bike_id":"f66334e7-c2f4-4eed-b1fb-4c3f229cf79a","system_id":"levelo_inurba_marseille","lat":43.30144,"lon":5.38064,"is_reserved":false,"is_disabled":false,"rental_uris":{"android":"levelo://app?vid=f66334e7-c2f4-4eed-b1fb-4c3f229cf79a","ios":"levelo://app?vid=f66334e7-c2f4-4eed-b1fb-4c3f229cf79a"},"vehicle_type_id":"4","last_reported":1758625717,"current_range_meters":8400,"station_id":"ce4bgjp2rcd13ifvqbh0","pricing_plan_id":"cebpf4jnsgd1na2vs0mg"},{"bike_id":"fe931e6c-c264-41ef-99a0-c6c5a1ca395f","system_id":"levelo_inurba_marseille","lat":43.2928,"lon":5.40115,"is_reserved":false,"is_disabled":false,"rental_uris":{"android":"levelo://app?vid=fe931e6c-c264-41ef-99a0-c6c5a1ca395f","ios":"levelo://app?vid=fe931e6c-c264-41ef-99a0-c6c5a1ca395f"},"vehicle_type_id":"4","last_reported":1758625717,"current_range_meters":8000,"station_id":"ce4bh312rcd13ifvqdk0","pricing_plan_id":"cebpf4jnsgd1na2vs0mg"},{"bike_id":"d601c5ac-9f40-4413-b704-6528d37b20d6","system_id":"levelo_inurba_marseille","lat":43.29558,"lon":5.38174,"is_reserved":false,"is_disabled":true,"rental_uris":{"android":"levelo://app?vid=d601c5ac-9f40-4413-b704-6528d37b20d6","ios":"levelo://app?vid=d601c5ac-9f40-4413-b704-6528d37b20d6"},"vehicle_type_id":"4","last_reported":1758625717,"current_range_meters":8400,"station_id":"","pricing_plan_id":"cebpf4jnsgd1na2vs0mg"},{"bike_id":"e111295c-a37a-4430-9923-ce146479ffdd","system_id":"levelo_inurba_marseille","lat":43.27336,"lon":5.39081,"is_reserved":false,"is_disabled":false,"rental_uris":{"android":"levelo://app?vid=e111295c-a37a-4430-9923-ce146479ffdd","ios":"levelo://app?vid=e111295c-a37a-4430-9923-ce146479ffdd"},"vehicle_type_id":"4","last_reported":1758625717,"current_range_meters":8400,"station_id":"ce4bhgp2rcd13ifvqfe0","pricing_plan_id":"cebpf4jnsgd1na2vs0mg"},{"bike_id":"75f8e611-4986-4d27-b319-040cf8e3b534","system_id":"levelo_inurba_marseille","lat":43.27813,"lon":5.40712,"is_reserved":false,"is_disabled":false,"rental_uris":{"android":"levelo://app?vid=75f8e611-4986-4d27-b319-040cf8e3b534","ios":"levelo://app?vid=75f8e611-4986-4d27-b319-040cf8e3b534"},"vehicle_type_id":"4","last_reported":1758625717,"current_range_meters":8000,"station_id":"ce4bhnh2rcd13ifvqgtg","pricing_plan_id":"cebpf4jnsgd1na2vs0mg"},{"bike_id":"4706650c-ca41-4d8e-88a0-62c249621ba7","system_id":"levelo_inurba_marseille","lat":43.30595,"lon":5.39352,"is_reserved":false,"is_disabled":false,"rental_uris":{"android":"levelo://app?vid=4706650c-ca41-4d8e-88a0-62c249621ba7","ios":"levelo://app?vid=4706650c-ca41-4d8e-88a0-62c249621ba7"},"vehicle_type_id":"4","last_reported":1758625717,"current_range_meters":8800,"station_id":"ce4bh0p2rcd13ifvqd80","pricing_plan_id":"cebpf4jnsgd1na2vs0mg"},{"bike_id":"4d151432-f0ef-4b84-a542-19b97dbf71dc","system_id":"levelo_inurba_marseille","lat":43.287099,"lon":5.373766,"is_reserved":false,"is_disabled":false,"rental_uris":{"android":"levelo://app?vid=4d151432-f0ef-4b84-a542-19b97dbf71dc","ios":"levelo://app?vid=4d151432-f0ef-4b84-a542-19b97dbf71dc"},"vehicle_type_id":"4","last_reported":1758625717,"current_range_meters":9200,"station_id":"ce4bh3p2rcd13ifvqdq0","pricing_plan_id":"cebpf4jnsgd1na2vs0mg"},{"bike_id":"759e47b9-2553-49c5-b2a0-35471b025155","system_id":"levelo_inurba_marseille","lat":43.30565,"lon":5.39289,"is_reserved":false,"is_disabled":false,"rental_uris":{"android":"levelo://app?vid=759e47b9-2553-49c5-b2a0-35471b025155","ios":"levelo://app?vid=759e47b9-2553-49c5-b2a0-35471b025155"},"vehicle_type_id":"4","last_reported":1758625717,"current_range_meters":9200,"station_id":"","pricing_plan_id":"cebpf4jnsgd1na2vs0mg"},{"bike_id":"d46536c1-b7ad-4df6-a9a1-6c4b8943878b","system_id":"levelo_inurba_marseille","lat":43.32368,"lon":5.38889,"is_reserved":false,"is_disabled":false,"rental_uris":{"android":"levelo://app?vid=d46536c1-b7ad-4df6-a9a1-6c4b8943878b","ios":"levelo://app?vid=d46536c1-b7ad-4df6-a9a1-6c4b8943878b"},"vehicle_type_id":"4","last_reported":1758625717,"current_range_meters":9200,"station_id":"ce4bhqp2rcd13ifvqhog","pricing_plan_id":"cebpf4jnsgd1na2vs0mg"},{"bike_id":"a6d73858-35cc-43aa-8348-ad93879dea43","system_id":"levelo_inurba_marseille","lat":43.29276,"lon":5.3844,"is_reserved":false,"is_disabled":false,"rental_uris":{"android":"levelo://app?vid=a6d73858-35cc-43aa-8348-ad93879dea43","ios":"levelo://app?vid=a6d73858-35cc-43aa-8348-ad93879dea43"},"vehicle_type_id":"4","last_reported":1758625717,"current_range_meters":9600,"station_id":"ce4bh692rcd13ifvqea0","pricing_plan_id":"cebpf4jnsgd1na2vs0mg"},{"bike_id":"91fd0860-5aae-4617-9ab8-7a859c6b4306","system_id":"levelo_inurba_marseille","lat":43.28418,"lon":5.34981,"is_reserved":false,"is_disabled":false,"rental_uris":{"android":"levelo://app?vid=91fd0860-5aae-4617-9ab8-7a859c6b4306","ios":"levelo://app?vid=91fd0860-5aae-4617-9ab8-7a859c6b4306"},"vehicle_type_id":"4","last_reported":1758625717,"current_range_meters":9600,"station_id":"ce4bhbh2rcd13ifvqepg","pricing_plan_id":"cebpf4jnsgd1na2vs0mg"},{"bike_id":"0b2230e3-adb9-421c-91b1-c113eb397705","system_id":"levelo_inurba_marseille","lat":43.288935,"lon":5.376618,"is_reserved":false,"is_disabled":false,"rental_uris":{"android":"levelo://app?vid=0b2230e3-adb9-421c-91b1-c113eb397705","ios":"levelo://app?vid=0b2230e3-adb9-421c-91b1-c113eb397705"},"vehicle_type_id":"4","last_reported":1758625717,"current_range_meters":9600,"station_id":"","pricing_plan_id":"cebpf4jnsgd1na2vs0mg"},{"bike_id":"f2213019-8449-4aca-9b52-9577a0ab61dd","system_id":"levelo_inurba_marseille","lat":43.25868,"lon":5.39897,"is_reserved":false,"is_disabled":false,"rental_uris":{"android":"levelo://app?vid=f2213019-8449-4aca-9b52-9577a0ab61dd","ios":"levelo://app?vid=f2213019-8449-4aca-9b52-9577a0ab61dd"},"vehicle_type_id":"4","last_reported":1758625717,"current_range_meters":9600,"station_id":"ce4bhl92rcd13ifvqghg","pricing_plan_id":"cebpf4jnsgd1na2vs0mg"},{"bike_id":"d6892ced-68b2-4c0a-8b78-e0080257d6fa","system_id":"levelo_inurba_marseille","lat":43.31225,"lon":5.36831,"is_reserved":false,"is_disabled":true,"rental_uris":{"android":"levelo://app?vid=d6892ced-68b2-4c0a-8b78-e0080257d6fa","ios":"levelo://app?vid=d6892ced-68b2-4c0a-8b78-e0080257d6fa"},"vehicle_type_id":"4","last_reported":1758625717,"current_range_meters":10000,"station_id":"ce4bgl92rcd13ifvqbq0","pricing_plan_id":"cebpf4jnsgd1na2vs0mg"},{"bike_id":"4df9a574-4d9f-4588-86b8-56c58bbd80a8","system_id":"levelo_inurba_marseille","lat":43.288756,"lon":5.393912,"is_reserved":false,"is_disabled":false,"rental_uris":{"android":"levelo://app?vid=4df9a574-4d9f-4588-86b8-56c58bbd80a8","ios":"levelo://app?vid=4df9a574-4d9f-4588-86b8-56c58bbd80a8"},"vehicle_type_id":"4","last_reported":1758625717,"current_range_meters":10000,"station_id":"ce4bh2p2rcd13ifvqdi0","pricing_plan_id":"cebpf4jnsgd1na2vs0mg"},{"bike_id":"ad9f1ff7-708f-4e6a-a4cb-1b85afcbfa78","system_id":"levelo_inurba_marseille","lat":43.31174,"lon":5.38704,"is_reserved":false,"is_disabled":true,"rental_uris":{"android":"levelo://app?vid=ad9f1ff7-708f-4e6a-a4cb-1b85afcbfa78","ios":"levelo://app?vid=ad9f1ff7-708f-4e6a-a4cb-1b85afcbfa78"},"vehicle_type_id":"4","last_reported":1758625717,"current_range_meters":10000,"station_id":"ce4bgv12rcd13ifvqcp0","pricing_plan_id":"cebpf4jnsgd1na2vs0mg"},{"bike_id":"1efddf8d-578f-4e4c-8c3f-e3a8bd592ba4","system_id":"levelo_inurba_marseille","lat":43.29574,"lon":5.37409,"is_reserved":false,"is_disabled":false,"rental_uris":{"android":"levelo://app?vid=1efddf8d-578f-4e4c-8c3f-e3a8bd592ba4","ios":"levelo://app?vid=1efddf8d-578f-4e4c-8c3f-e3a8bd592ba4"},"vehicle_type_id":"4","last_reported":1758625717,"current_range_meters":10800,"station_id":"","pricing_plan_id":"cebpf4jnsgd1na2vs0mg"},{"bike_id":"ef75d15d-c28a-4fe7-853a-ed887e41d629","system_id":"levelo_inurba_marseille","lat":43.217584,"lon":5.346085,"is_reserved":false,"is_disabled":false,"rental_uris":{"android":"levelo://app?vid=ef75d15d-c28a-4fe7-853a-ed887e41d629","ios":"levelo://app?vid=ef75d15d-c28a-4fe7-853a-ed887e41d629"},"vehicle_type_id":"4","last_reported":1758625717,"current_range_meters":10800,"station_id":"st_cvj6r9ubvosntc0bgbag","pricing_plan_id":"cebpf4jnsgd1na2vs0mg"},{"bike_id":"5ef75954-5c53-474c-8099-d5b8b4d9fe1c","system_id":"levelo_inurba_marseille","lat":43.30143,"lon":5.37423,"is_reserved":false,"is_disabled":false,"rental_uris":{"android":"levelo://app?vid=5ef75954-5c53-474c-8099-d5b8b4d9fe1c","ios":"levelo://app?vid=5ef75954-5c53-474c-8099-d5b8b4d9fe1c"},"vehicle_type_id":"4","last_reported":1758625717,"current_range_meters":10800,"station_id":"ce4bgs92rcd13ifvqcc0","pricing_plan_id":"cebpf4jnsgd1na2vs0mg"},{"bike_id":"67fe6986-2673-437e-8298-b410a875da84","system_id":"levelo_inurba_marseille","lat":43.336,"lon":5.41029,"is_reserved":false,"is_disabled":false,"rental_uris":{"android":"levelo://app?vid=67fe6986-2673-437e-8298-b410a875da84","ios":"levelo://app?vid=67fe6986-2673-437e-8298-b410a875da84"},"vehicle_type_id":"4","last_reported":1758625717,"current_range_meters":10800,"station_id":"ce4bhqh2rcd13ifvqhmg","pricing_plan_id":"cebpf4jnsgd1na2vs0mg"},{"bike_id":"94d430e6-52b3-4d21-80c9-c6dd4519a8fb","system_id":"levelo_inurba_marseille","lat":43.31775,"lon":5.38284,"is_reserved":false,"is_disabled":false,"rental_uris":{"android":"levelo://app?vid=94d430e6-52b3-4d21-80c9-c6dd4519a8fb","ios":"levelo://app?vid=94d430e6-52b3-4d21-80c9-c6dd4519a8fb"},"vehicle_type_id":"4","last_reported":1758625717,"current_range_meters":10800,"station_id":"","pricing_plan_id":"cebpf4jnsgd1na2vs0mg"},{"bike_id":"be037bdd-a7e2-4d75-bb3f-91bdc78b125c","system_id":"levelo_inurba_marseille","lat":43.29711,"lon":5.36618,"is_reserved":false,"is_disabled":false,"rental_uris":{"android":"levelo://app?vid=be037bdd-a7e2-4d75-bb3f-91bdc78b125c","ios":"levelo://app?vid=be037bdd-a7e2-4d75-bb3f-91bdc78b125c"},"vehicle_type_id":"4","last_reported":1758625717,"current_range_meters":10800,"station_id":"ce4bgn12rcd13ifvqbt0","pricing_plan_id":"cebpf4jnsgd1na2vs0mg"},{"bike_id":"18edbf66-12f3-456f-8d95-15cb7a6dfebe","system_id":"levelo_inurba_marseille","lat":43.29033,"lon":5.39975,"is_reserved":false,"is_disabled":false,"rental_uris":{"android":"levelo://app?vid=18edbf66-12f3-456f-8d95-15cb7a6dfebe","ios":"levelo://app?vid=18edbf66-12f3-456f-8d95-15cb7a6dfebe"},"vehicle_type_id":"4","last_reported":1758625717,"current_range_meters":10800,"station_id":"ce4bh392rcd13ifvqdm0","pricing_plan_id":"cebpf4jnsgd1na2vs0mg"},{"bike_id":"eb510b53-8727-4dfe-b0b3-e41a90802c2f","system_id":"levelo_inurba_marseille","lat":43.26199,"lon":5.37447,"is_reserved":false,"is_disabled":false,"rental_uris":{"android":"levelo://app?vid=eb510b53-8727-4dfe-b0b3-e41a90802c2f","ios":"levelo://app?vid=eb510b53-8727-4dfe-b0b3-e41a90802c2f"},"vehicle_type_id":"4","last_reported":1758625717,"current_range_meters":10800,"station_id":"ce4bhgp2rcd13ifvqfc0","pricing_plan_id":"cebpf4jnsgd1na2vs0mg"},{"bike_id":"156ba3ee-2d05-4060-9b3c-44e608592be0","system_id":"levelo_inurba_marseille","lat":43.27992,"lon":5.41664,"is_reserved":false,"is_disabled":true,"rental_uris":{"android":"levelo://app?vid=156ba3ee-2d05-4060-9b3c-44e608592be0","ios":"levelo://app?vid=156ba3ee-2d05-4060-9b3c-44e608592be0"},"vehicle_type_id":"4","last_reported":1758625717,"current_range_meters":10800,"station_id":"ce4bho12rcd13ifvqh1g","pricing_plan_id":"cebpf4jnsgd1na2vs0mg"},{"bike_id":"05ffe9a6-4a01-4566-a6c5-04b47ca5b439","system_id":"levelo_inurba_marseille","lat":43.240821,"lon":5.377487,"is_reserved":false,"is_disabled":true,"rental_uris":{"android":"levelo://app?vid=05ffe9a6-4a01-4566-a6c5-04b47ca5b439","ios":"levelo://app?vid=05ffe9a6-4a01-4566-a6c5-04b47ca5b439"},"vehicle_type_id":"4","last_reported":1758625717,"current_range_meters":11200,"station_id":"ce4bhnp2rcd13ifvqgvg","pricing_plan_id":"cebpf4jnsgd1na2vs0mg"},{"bike_id":"1a814993-855b-48ed-b31a-9f558045a6ca","system_id":"levelo_inurba_marseille","lat":43.24072,"lon":5.3776,"is_reserved":false,"is_disabled":false,"rental_uris":{"android":"levelo://app?vid=1a814993-855b-48ed-b31a-9f558045a6ca","ios":"levelo://app?vid=1a814993-855b-48ed-b31a-9f558045a6ca"},"vehicle_type_id":"4","last_reported":1758625717,"current_range_meters":11200,"station_id":"ce4bhnp2rcd13ifvqgvg","pricing_plan_id":"cebpf4jnsgd1na2vs0mg"},{"bike_id":"8d243e83-cc74-44d3-bf18-f20421549672","system_id":"levelo_inurba_marseille","lat":43.2895,"lon":5.35973,"is_reserved":false,"is_disabled":false,"rental_uris":{"android":"levelo://app?vid=8d243e83-cc74-44d3-bf18-f20421549672","ios":"levelo://app?vid=8d243e83-cc74-44d3-bf18-f20421549672"},"vehicle_type_id":"4","last_reported":1758625717,"current_range_meters":11200,"station_id":"","pricing_plan_id":"cebpf4jnsgd1na2vs0mg"},{"bike_id":"a5118fd6-8ca6-4e51-a463-60025919293f","system_id":"levelo_inurba_marseille","lat":43.27376,"lon":5.36271,"is_reserved":false,"is_disabled":false,"rental_uris":{"android":"levelo://app?vid=a5118fd6-8ca6-4e51-a463-60025919293f","ios":"levelo://app?vid=a5118fd6-8ca6-4e51-a463-60025919293f"},"vehicle_type_id":"4","last_reported":1758625717,"current_range_meters":11600,"station_id":"ce4bhbh2rcd13ifvqeo0","pricing_plan_id":"cebpf4jnsgd1na2vs0mg"},{"bike_id":"1b932c86-398b-4628-bc46-ea145d909867","system_id":"levelo_inurba_marseille","lat":43.28076,"lon":5.39657,"is_reserved":false,"is_disabled":false,"rental_uris":{"android":"levelo://app?vid=1b932c86-398b-4628-bc46-ea145d909867","ios":"levelo://app?vid=1b932c86-398b-4628-bc46-ea145d909867"},"vehicle_type_id":"4","last_reported":1758625717,"current_range_meters":12000,"station_id":"ce4bho12rcd13ifvqh2g","pricing_plan_id":"cebpf4jnsgd1na2vs0mg"},{"bike_id":"1e42ae31-b1df-4984-a6f0-3e99144f5543","system_id":"levelo_inurba_marseille","lat":43.26498,"lon":5.39539,"is_reserved":false,"is_disabled":false,"rental_uris":{"android":"levelo://app?vid=1e42ae31-b1df-4984-a6f0-3e99144f5543","ios":"levelo://app?vid=1e42ae31-b1df-4984-a6f0-3e99144f5543"},"vehicle_type_id":"4","last_reported":1758625717,"current_range_meters":12000,"station_id":"ce4bhi12rcd13ifvqfq0","pricing_plan_id":"cebpf4jnsgd1na2vs0mg"},{"bike_id":"d8059e5c-019d-4bbe-b4ea-b3f61e77dbe0","system_id":"levelo_inurba_marseille","lat":43.28152,"lon":5.42649,"is_reserved":false,"is_disabled":false,"rental_uris":{"android":"levelo://app?vid=d8059e5c-019d-4bbe-b4ea-b3f61e77dbe0","ios":"levelo://app?vid=d8059e5c-019d-4bbe-b4ea-b3f61e77dbe0"},"vehicle_type_id":"4","last_reported":1758625717,"current_range_meters":11600,"station_id":"ce4bhnh2rcd13ifvqgug","pricing_plan_id":"cebpf4jnsgd1na2vs0mg"},{"bike_id":"77cc7d2e-57b2-4346-8089-f5e39944f276","system_id":"levelo_inurba_marseille","lat":43.264939,"lon":5.395355,"is_reserved":false,"is_disabled":false,"rental_uris":{"android":"levelo://app?vid=77cc7d2e-57b2-4346-8089-f5e39944f276","ios":"levelo://app?vid=77cc7d2e-57b2-4346-8089-f5e39944f276"},"vehicle_type_id":"4","last_reported":1758625717,"current_range_meters":12400,"station_id":"ce4bhi12rcd13ifvqfq0","pricing_plan_id":"cebpf4jnsgd1na2vs0mg"},{"bike_id":"adc2bb92-a71d-4240-a91c-c7f52dfe5d9f","system_id":"levelo_inurba_marseille","lat":43.29619,"lon":5.37725,"is_reserved":false,"is_disabled":false,"rental_uris":{"android":"levelo://app?vid=adc2bb92-a71d-4240-a91c-c7f52dfe5d9f","ios":"levelo://app?vid=adc2bb92-a71d-4240-a91c-c7f52dfe5d9f"},"vehicle_type_id":"4","last_reported":1758625717,"current_range_meters":12800,"station_id":"ce4bgi92rcd13ifvqb90","pricing_plan_id":"cebpf4jnsgd1na2vs0mg"},{"bike_id":"2a2f1ce0-5eb2-4ab6-a692-64d9649dcb94","system_id":"levelo_inurba_marseille","lat":43.22575,"lon":5.41611,"is_reserved":false,"is_disabled":false,"rental_uris":{"android":"levelo://app?vid=2a2f1ce0-5eb2-4ab6-a692-64d9649dcb94","ios":"levelo://app?vid=2a2f1ce0-5eb2-4ab6-a692-64d9649dcb94"},"vehicle_type_id":"4","last_reported":1758625717,"current_range_meters":12800,"station_id":"st_d2o4gvlbi1j2169b742g","pricing_plan_id":"cebpf4jnsgd1na2vs0mg"},{"bike_id":"7d159671-45af-4d17-b545-4846f9662be3","system_id":"levelo_inurba_marseille","lat":43.27374,"lon":5.36247,"is_reserved":false,"is_disabled":false,"rental_uris":{"android":"levelo://app?vid=7d159671-45af-4d17-b545-4846f9662be3","ios":"levelo://app?vid=7d159671-45af-4d17-b545-4846f9662be3"},"vehicle_type_id":"4","last_reported":1758625717,"current_range_meters":12800,"station_id":"ce4bhbh2rcd13ifvqeo0","pricing_plan_id":"cebpf4jnsgd1na2vs0mg"},{"bike_id":"eba01587-aeed-4123-b2ce-9abc98879f91","system_id":"levelo_inurba_marseille","lat":43.27085,"lon":5.42296,"is_reserved":false,"is_disabled":false,"rental_uris":{"android":"levelo://app?vid=eba01587-aeed-4123-b2ce-9abc98879f91","ios":"levelo://app?vid=eba01587-aeed-4123-b2ce-9abc98879f91"},"vehicle_type_id":"4","last_reported":1758625717,"current_range_meters":13600,"station_id":"ce4bhk92rcd13ifvqgb0","pricing_plan_id":"cebpf4jnsgd1na2vs0mg"},{"bike_id":"7083a0b7-c294-4ee7-b4fc-6eb31a5beeb0","system_id":"levelo_inurba_marseille","lat":43.24662,"lon":5.38164,"is_reserved":false,"is_disabled":false,"rental_uris":{"android":"levelo://app?vid=7083a0b7-c294-4ee7-b4fc-6eb31a5beeb0","ios":"levelo://app?vid=7083a0b7-c294-4ee7-b4fc-6eb31a5beeb0"},"vehicle_type_id":"4","last_reported":1758625717,"current_range_meters":13600,"station_id":"ce4bhih2rcd13ifvqfr0","pricing_plan_id":"cebpf4jnsgd1na2vs0mg"},{"bike_id":"36661592-5dde-4b5f-9708-0f6228c83d31","system_id":"levelo_inurba_marseille","lat":43.31111,"lon":5.37785,"is_reserved":false,"is_disabled":false,"rental_uris":{"android":"levelo://app?vid=36661592-5dde-4b5f-9708-0f6228c83d31","ios":"levelo://app?vid=36661592-5dde-4b5f-9708-0f6228c83d31"},"vehicle_type_id":"4","last_reported":1758625717,"current_range_meters":13600,"station_id":"ce4bgt92rcd13ifvqcg0","pricing_plan_id":"cebpf4jnsgd1na2vs0mg"},{"bike_id":"d85eb567-d829-4346-9fef-2a13d2a0556a","system_id":"levelo_inurba_marseille","lat":43.2963,"lon":5.40593,"is_reserved":false,"is_disabled":false,"rental_uris":{"android":"levelo://app?vid=d85eb567-d829-4346-9fef-2a13d2a0556a","ios":"levelo://app?vid=d85eb567-d829-4346-9fef-2a13d2a0556a"},"vehicle_type_id":"4","last_reported":1758625717,"current_range_meters":13600,"station_id":"ce4bh0h2rcd13ifvqd60","pricing_plan_id":"cebpf4jnsgd1na2vs0mg"},{"bike_id":"bab84233-5527-44cb-bda6-175260662d4c","system_id":"levelo_inurba_marseille","lat":43.30273,"lon":5.37717,"is_reserved":false,"is_disabled":false,"rental_uris":{"android":"levelo://app?vid=bab84233-5527-44cb-bda6-175260662d4c","ios":"levelo://app?vid=bab84233-5527-44cb-bda6-175260662d4c"},"vehicle_type_id":"4","last_reported":1758625717,"current_range_meters":12800,"station_id":"ce4bguh2rcd13ifvqcj0","pricing_plan_id":"cebpf4jnsgd1na2vs0mg"},{"bike_id":"0d93d80f-23fc-4b4f-918d-28fde704208b","system_id":"levelo_inurba_marseille","lat":43.24173,"lon":5.36401,"is_reserved":false,"is_disabled":false,"rental_uris":{"android":"levelo://app?vid=0d93d80f-23fc-4b4f-918d-28fde704208b","ios":"levelo://app?vid=0d93d80f-23fc-4b4f-918d-28fde704208b"},"vehicle_type_id":"4","last_reported":1758625717,"current_range_meters":13600,"station_id":"cpo36qri1sfpv3e86is0","pricing_plan_id":"cebpf4jnsgd1na2vs0mg"},{"bike_id":"bb8378cf-8ff1-4433-b1a7-5492596ea123","system_id":"levelo_inurba_marseille","lat":43.305928,"lon":5.393573,"is_reserved":false,"is_disabled":false,"rental_uris":{"android":"levelo://app?vid=bb8378cf-8ff1-4433-b1a7-5492596ea123","ios":"levelo://app?vid=bb8378cf-8ff1-4433-b1a7-5492596ea123"},"vehicle_type_id":"4","last_reported":1758625717,"current_range_meters":13600,"station_id":"ce4bh0p2rcd13ifvqd80","pricing_plan_id":"cebpf4jnsgd1na2vs0mg"},{"bike_id":"00efbc28-8cc7-4339-9ae0-0f513db5e2e9","system_id":"levelo_inurba_marseille","lat":43.299618,"lon":5.384938,"is_reserved":false,"is_disabled":false,"rental_uris":{"android":"levelo://app?vid=00efbc28-8cc7-4339-9ae0-0f513db5e2e9","ios":"levelo://app?vid=00efbc28-8cc7-4339-9ae0-0f513db5e2e9"},"vehicle_type_id":"4","last_reported":1758625717,"current_range_meters":13600,"station_id":"ce4bgj92rcd13ifvqbd0","pricing_plan_id":"cebpf4jnsgd1na2vs0mg"},{"bike_id":"977dc668-9a36-4ff8-836f-212846f06f6f","system_id":"levelo_inurba_marseille","lat":43.28659,"lon":5.36347,"is_reserved":false,"is_disabled":false,"rental_uris":{"android":"levelo://app?vid=977dc668-9a36-4ff8-836f-212846f06f6f","ios":"levelo://app?vid=977dc668-9a36-4ff8-836f-212846f06f6f"},"vehicle_type_id":"4","last_reported":1758625717,"current_range_meters":13600,"station_id":"ce4bhah2rcd13ifvqej0","pricing_plan_id":"cebpf4jnsgd1na2vs0mg"},{"bike_id":"1b4d0107-4def-4e5a-82f9-78bf4e161ea2","system_id":"levelo_inurba_marseille","lat":43.30593,"lon":5.39357,"is_reserved":false,"is_disabled":false,"rental_uris":{"android":"levelo://app?vid=1b4d0107-4def-4e5a-82f9-78bf4e161ea2","ios":"levelo://app?vid=1b4d0107-4def-4e5a-82f9-78bf4e161ea2"},"vehicle_type_id":"4","last_reported":1758625717,"current_range_meters":13600,"station_id":"ce4bh0p2rcd13ifvqd80","pricing_plan_id":"cebpf4jnsgd1na2vs0mg"},{"bike_id":"45ca5de6-d00a-4542-8b81-830cc6a6c456","system_id":"levelo_inurba_marseille","lat":43.290376,"lon":5.399627,"is_reserved":false,"is_disabled":false,"rental_uris":{"android":"levelo://app?vid=45ca5de6-d00a-4542-8b81-830cc6a6c456","ios":"levelo://app?vid=45ca5de6-d00a-4542-8b81-830cc6a6c456"},"vehicle_type_id":"4","last_reported":1758625717,"current_range_meters":14000,"station_id":"ce4bh392rcd13ifvqdm0","pricing_plan_id":"cebpf4jnsgd1na2vs0mg"},{"bike_id":"7070de1f-a3b9-410d-8f8c-e6c2efad664f","system_id":"levelo_inurba_marseille","lat":43.30604,"lon":5.39362,"is_reserved":false,"is_disabled":false,"rental_uris":{"android":"levelo://app?vid=7070de1f-a3b9-410d-8f8c-e6c2efad664f","ios":"levelo://app?vid=7070de1f-a3b9-410d-8f8c-e6c2efad664f"},"vehicle_type_id":"4","last_reported":1758625717,"current_range_meters":14000,"station_id":"ce4bh0p2rcd13ifvqd80","pricing_plan_id":"cebpf4jnsgd1na2vs0mg"},{"bike_id":"769f1e28-7007-4b21-9d1f-c77defb80909","system_id":"levelo_inurba_marseille","lat":43.25727,"lon":5.41108,"is_reserved":false,"is_disabled":false,"rental_uris":{"android":"levelo://app?vid=769f1e28-7007-4b21-9d1f-c77defb80909","ios":"levelo://app?vid=769f1e28-7007-4b21-9d1f-c77defb80909"},"vehicle_type_id":"4","last_reported":1758625717,"current_range_meters":14000,"station_id":"ce4bhkp2rcd13ifvqgd0","pricing_plan_id":"cebpf4jnsgd1na2vs0mg"},{"bike_id":"30bb83fe-1759-4439-94c7-873da2c2a5e5","system_id":"levelo_inurba_marseille","lat":43.23146,"lon":5.43728,"is_reserved":false,"is_disabled":false,"rental_uris":{"android":"levelo://app?vid=30bb83fe-1759-4439-94c7-873da2c2a5e5","ios":"levelo://app?vid=30bb83fe-1759-4439-94c7-873da2c2a5e5"},"vehicle_type_id":"4","last_reported":1758625717,"current_range_meters":14000,"station_id":"ce4bhmp2rcd13ifvqgog","pricing_plan_id":"cebpf4jnsgd1na2vs0mg"},{"bike_id":"84256f71-1366-4474-878b-e32a3ada6c93","system_id":"levelo_inurba_marseille","lat":43.3059,"lon":5.39362,"is_reserved":false,"is_disabled":false,"rental_uris":{"android":"levelo://app?vid=84256f71-1366-4474-878b-e32a3ada6c93","ios":"levelo://app?vid=84256f71-1366-4474-878b-e32a3ada6c93"},"vehicle_type_id":"4","last_reported":1758625717,"current_range_meters":14000,"station_id":"ce4bh0p2rcd13ifvqd80","pricing_plan_id":"cebpf4jnsgd1na2vs0mg"},{"bike_id":"6ac17a81-0487-4557-9f83-8f554f6e083e","system_id":"levelo_inurba_marseille","lat":43.32029,"lon":5.37137,"is_reserved":false,"is_disabled":false,"rental_uris":{"android":"levelo://app?vid=6ac17a81-0487-4557-9f83-8f554f6e083e","ios":"levelo://app?vid=6ac17a81-0487-4557-9f83-8f554f6e083e"},"vehicle_type_id":"4","last_reported":1758625717,"current_range_meters":14400,"station_id":"","pricing_plan_id":"cebpf4jnsgd1na2vs0mg"},{"bike_id":"4c657e84-6818-4929-a977-8506ea5f576e","system_id":"levelo_inurba_marseille","lat":43.24948,"lon":5.40486,"is_reserved":false,"is_disabled":false,"rental_uris":{"android":"levelo://app?vid=4c657e84-6818-4929-a977-8506ea5f576e","ios":"levelo://app?vid=4c657e84-6818-4929-a977-8506ea5f576e"},"vehicle_type_id":"4","last_reported":1758625717,"current_range_meters":14400,"station_id":"st_d2ngiaodas8pm72gd1h0","pricing_plan_id":"cebpf4jnsgd1na2vs0mg"},{"bike_id":"4ab38cc0-0684-4e43-87c2-992fcfdb0c6a","system_id":"levelo_inurba_marseille","lat":43.28085,"lon":5.39659,"is_reserved":false,"is_disabled":false,"rental_uris":{"android":"levelo://app?vid=4ab38cc0-0684-4e43-87c2-992fcfdb0c6a","ios":"levelo://app?vid=4ab38cc0-0684-4e43-87c2-992fcfdb0c6a"},"vehicle_type_id":"4","last_reported":1758625717,"current_range_meters":14400,"station_id":"ce4bho12rcd13ifvqh2g","pricing_plan_id":"cebpf4jnsgd1na2vs0mg"},{"bike_id":"fdebc40e-6ce1-4836-b649-c8a99b7c4431","system_id":"levelo_inurba_marseille","lat":43.24806,"lon":5.37454,"is_reserved":false,"is_disabled":false,"rental_uris":{"android":"levelo://app?vid=fdebc40e-6ce1-4836-b649-c8a99b7c4431","ios":"levelo://app?vid=fdebc40e-6ce1-4836-b649-c8a99b7c4431"},"vehicle_type_id":"4","last_reported":1758625717,"current_range_meters":14800,"station_id":"ce4bhgh2rcd13ifvqfb0","pricing_plan_id":"cebpf4jnsgd1na2vs0mg"},{"bike_id":"675c21f6-962e-439e-8183-f960512963ac","system_id":"levelo_inurba_marseille","lat":43.292611,"lon":5.409053,"is_reserved":false,"is_disabled":false,"rental_uris":{"android":"levelo://app?vid=675c21f6-962e-439e-8183-f960512963ac","ios":"levelo://app?vid=675c21f6-962e-439e-8183-f960512963ac"},"vehicle_type_id":"4","last_reported":1758625717,"current_range_meters":14400,"station_id":"ce4bh192rcd13ifvqdc0","pricing_plan_id":"cebpf4jnsgd1na2vs0mg"},{"bike_id":"7c0482c3-9253-4d1b-b4f3-be55cdb7721d","system_id":"levelo_inurba_marseille","lat":43.33757,"lon":5.37466,"is_reserved":false,"is_disabled":false,"rental_uris":{"android":"levelo://app?vid=7c0482c3-9253-4d1b-b4f3-be55cdb7721d","ios":"levelo://app?vid=7c0482c3-9253-4d1b-b4f3-be55cdb7721d"},"vehicle_type_id":"4","last_reported":1758625717,"current_range_meters":14800,"station_id":"","pricing_plan_id":"cebpf4jnsgd1na2vs0mg"},{"bike_id":"84ed6c5f-ee83-4d29-9c03-bc2c90d6c59c","system_id":"levelo_inurba_marseille","lat":43.30523,"lon":5.36721,"is_reserved":false,"is_disabled":false,"rental_uris":{"android":"levelo://app?vid=84ed6c5f-ee83-4d29-9c03-bc2c90d6c59c","ios":"levelo://app?vid=84ed6c5f-ee83-4d29-9c03-bc2c90d6c59c"},"vehicle_type_id":"4","last_reported":1758625717,"current_range_meters":14800,"station_id":"ce4bgrp2rcd13ifvqc9g","pricing_plan_id":"cebpf4jnsgd1na2vs0mg"},{"bike_id":"8f63bb28-daf3-434a-b520-4ffc9e66dc1c","system_id":"levelo_inurba_marseille","lat":43.2563,"lon":5.41215,"is_reserved":false,"is_disabled":false,"rental_uris":{"android":"levelo://app?vid=8f63bb28-daf3-434a-b520-4ffc9e66dc1c","ios":"levelo://app?vid=8f63bb28-daf3-434a-b520-4ffc9e66dc1c"},"vehicle_type_id":"4","last_reported":1758625717,"current_range_meters":14800,"station_id":"","pricing_plan_id":"cebpf4jnsgd1na2vs0mg"},{"bike_id":"1cd32492-01d3-4698-85a3-f552c709f67e","system_id":"levelo_inurba_marseille","lat":43.2873,"lon":5.39987,"is_reserved":false,"is_disabled":false,"rental_uris":{"android":"levelo://app?vid=1cd32492-01d3-4698-85a3-f552c709f67e","ios":"levelo://app?vid=1cd32492-01d3-4698-85a3-f552c709f67e"},"vehicle_type_id":"4","last_reported":1758625717,"current_range_meters":14800,"station_id":"ce4bho92rcd13ifvqh3g","pricing_plan_id":"cebpf4jnsgd1na2vs0mg"},{"bike_id":"daa8c5e0-271c-4473-9fcf-fef1f6636825","system_id":"levelo_inurba_marseille","lat":43.28413,"lon":5.37515,"is_reserved":false,"is_disabled":true,"rental_uris":{"android":"levelo://app?vid=daa8c5e0-271c-4473-9fcf-fef1f6636825","ios":"levelo://app?vid=daa8c5e0-271c-4473-9fcf-fef1f6636825"},"vehicle_type_id":"4","last_reported":1758625717,"current_range_meters":14800,"station_id":"ce4bh412rcd13ifvqds0","pricing_plan_id":"cebpf4jnsgd1na2vs0mg"},{"bike_id":"5b1a36c8-304b-48bf-aa9d-28113bdf9ed6","system_id":"levelo_inurba_marseille","lat":43.30372,"lon":5.42495,"is_reserved":false,"is_disabled":false,"rental_uris":{"android":"levelo://app?vid=5b1a36c8-304b-48bf-aa9d-28113bdf9ed6","ios":"levelo://app?vid=5b1a36c8-304b-48bf-aa9d-28113bdf9ed6"},"vehicle_type_id":"4","last_reported":1758625717,"current_range_meters":14800,"station_id":"ce4bhoh2rcd13ifvqh6g","pricing_plan_id":"cebpf4jnsgd1na2vs0mg"},{"bike_id":"9b5a1fcd-8c6c-45c0-b1c4-9babc632983e","system_id":"levelo_inurba_marseille","lat":43.28482,"lon":5.38411,"is_reserved":false,"is_disabled":false,"rental_uris":{"android":"levelo://app?vid=9b5a1fcd-8c6c-45c0-b1c4-9babc632983e","ios":"levelo://app?vid=9b5a1fcd-8c6c-45c0-b1c4-9babc632983e"},"vehicle_type_id":"4","last_reported":1758625717,"current_range_meters":14800,"station_id":"ce4bh512rcd13ifvqe3g","pricing_plan_id":"cebpf4jnsgd1na2vs0mg"},{"bike_id":"43d57fd4-047e-4ac8-97e5-ec9b96239472","system_id":"levelo_inurba_marseille","lat":43.33231,"lon":5.39821,"is_reserved":false,"is_disabled":false,"rental_uris":{"android":"levelo://app?vid=43d57fd4-047e-4ac8-97e5-ec9b96239472","ios":"levelo://app?vid=43d57fd4-047e-4ac8-97e5-ec9b96239472"},"vehicle_type_id":"4","last_reported":1758625717,"current_range_meters":14800,"station_id":"","pricing_plan_id":"cebpf4jnsgd1na2vs0mg"},{"bike_id":"4d1696d1-fee5-4cbb-b6cf-473bb9852d90","system_id":"levelo_inurba_marseille","lat":43.29684,"lon":5.37707,"is_reserved":false,"is_disabled":false,"rental_uris":{"android":"levelo://app?vid=4d1696d1-fee5-4cbb-b6cf-473bb9852d90","ios":"levelo://app?vid=4d1696d1-fee5-4cbb-b6cf-473bb9852d90"},"vehicle_type_id":"4","last_reported":1758625717,"current_range_meters":15200,"station_id":"ce4bgkh2rcd13ifvqbl0","pricing_plan_id":"cebpf4jnsgd1na2vs0mg"},{"bike_id":"06a24bce-028d-4b4a-b4a3-d45296145db5","system_id":"levelo_inurba_marseille","lat":43.28425,"lon":5.34991,"is_reserved":false,"is_disabled":true,"rental_uris":{"android":"levelo://app?vid=06a24bce-028d-4b4a-b4a3-d45296145db5","ios":"levelo://app?vid=06a24bce-028d-4b4a-b4a3-d45296145db5"},"vehicle_type_id":"4","last_reported":1758625717,"current_range_meters":15200,"station_id":"ce4bhch2rcd13ifvqeug","pricing_plan_id":"cebpf4jnsgd1na2vs0mg"},{"bike_id":"9c7a180f-bee6-48c2-9ad2-181dea55ce36","system_id":"levelo_inurba_marseille","lat":43.31721,"lon":5.43706,"is_reserved":false,"is_disabled":false,"rental_uris":{"android":"levelo://app?vid=9c7a180f-bee6-48c2-9ad2-181dea55ce36","ios":"levelo://app?vid=9c7a180f-bee6-48c2-9ad2-181dea55ce36"},"vehicle_type_id":"4","last_reported":1758625717,"current_range_meters":16000,"station_id":"ce4bhp92rcd13ifvqhcg","pricing_plan_id":"cebpf4jnsgd1na2vs0mg"},{"bike_id":"0ba514cd-4175-467e-b974-90c3b1137bfa","system_id":"levelo_inurba_marseille","lat":43.28343,"lon":5.38103,"is_reserved":false,"is_disabled":false,"rental_uris":{"android":"levelo://app?vid=0ba514cd-4175-467e-b974-90c3b1137bfa","ios":"levelo://app?vid=0ba514cd-4175-467e-b974-90c3b1137bfa"},"vehicle_type_id":"4","last_reported":1758625717,"current_range_meters":16000,"station_id":"ce4bh412rcd13ifvqdr0","pricing_plan_id":"cebpf4jnsgd1na2vs0mg"},{"bike_id":"2e86854b-25f6-4d9b-a3a1-fb7c707a145b","system_id":"levelo_inurba_marseille","lat":43.24175,"lon":5.39729,"is_reserved":false,"is_disabled":false,"rental_uris":{"android":"levelo://app?vid=2e86854b-25f6-4d9b-a3a1-fb7c707a145b","ios":"levelo://app?vid=2e86854b-25f6-4d9b-a3a1-fb7c707a145b"},"vehicle_type_id":"4","last_reported":1758625717,"current_range_meters":16000,"station_id":"ce4bhn12rcd13ifvqgpg","pricing_plan_id":"cebpf4jnsgd1na2vs0mg"},{"bike_id":"1837c309-3119-4352-a2cb-9fba2d4f5e1b","system_id":"levelo_inurba_marseille","lat":43.27175,"lon":5.40997,"is_reserved":false,"is_disabled":false,"rental_uris":{"android":"levelo://app?vid=1837c309-3119-4352-a2cb-9fba2d4f5e1b","ios":"levelo://app?vid=1837c309-3119-4352-a2cb-9fba2d4f5e1b"},"vehicle_type_id":"4","last_reported":1758625717,"current_range_meters":16000,"station_id":"ce4bhl12rcd13ifvqgf0","pricing_plan_id":"cebpf4jnsgd1na2vs0mg"},{"bike_id":"f80f318c-9dd2-4c2c-b730-86c451cb981c","system_id":"levelo_inurba_marseille","lat":43.30134,"lon":5.37408,"is_reserved":false,"is_disabled":false,"rental_uris":{"android":"levelo://app?vid=f80f318c-9dd2-4c2c-b730-86c451cb981c","ios":"levelo://app?vid=f80f318c-9dd2-4c2c-b730-86c451cb981c"},"vehicle_type_id":"4","last_reported":1758625717,"current_range_meters":16000,"station_id":"ce4bgs92rcd13ifvqcc0","pricing_plan_id":"cebpf4jnsgd1na2vs0mg"},{"bike_id":"5e457a93-61cc-4aaf-947c-4513ca6b2be3","system_id":"levelo_inurba_marseille","lat":43.29056,"lon":5.35913,"is_reserved":false,"is_disabled":false,"rental_uris":{"android":"levelo://app?vid=5e457a93-61cc-4aaf-947c-4513ca6b2be3","ios":"levelo://app?vid=5e457a93-61cc-4aaf-947c-4513ca6b2be3"},"vehicle_type_id":"4","last_reported":1758625717,"current_range_meters":16000,"station_id":"ce4bha92rcd13ifvqeg0","pricing_plan_id":"cebpf4jnsgd1na2vs0mg"},{"bike_id":"ec998397-70b6-4c87-8660-ea0f660bcbd7","system_id":"levelo_inurba_marseille","lat":43.280755,"lon":5.3966,"is_reserved":false,"is_disabled":false,"rental_uris":{"android":"levelo://app?vid=ec998397-70b6-4c87-8660-ea0f660bcbd7","ios":"levelo://app?vid=ec998397-70b6-4c87-8660-ea0f660bcbd7"},"vehicle_type_id":"4","last_reported":1758625717,"current_range_meters":16000,"station_id":"ce4bho12rcd13ifvqh2g","pricing_plan_id":"cebpf4jnsgd1na2vs0mg"},{"bike_id":"15f0126c-7e31-410d-8d88-412d27fe5839","system_id":"levelo_inurba_marseille","lat":43.28283,"lon":5.3505,"is_reserved":false,"is_disabled":false,"rental_uris":{"android":"levelo://app?vid=15f0126c-7e31-410d-8d88-412d27fe5839","ios":"levelo://app?vid=15f0126c-7e31-410d-8d88-412d27fe5839"},"vehicle_type_id":"4","last_reported":1758625717,"current_range_meters":16000,"station_id":"ce4bhbp2rcd13ifvqerg","pricing_plan_id":"cebpf4jnsgd1na2vs0mg"},{"bike_id":"9eeee75b-e4bf-49cb-a294-9d827c929b26","system_id":"levelo_inurba_marseille","lat":43.23194,"lon":5.35554,"is_reserved":false,"is_disabled":false,"rental_uris":{"android":"levelo://app?vid=9eeee75b-e4bf-49cb-a294-9d827c929b26","ios":"levelo://app?vid=9eeee75b-e4bf-49cb-a294-9d827c929b26"},"vehicle_type_id":"4","last_reported":1758625717,"current_range_meters":16400,"station_id":"ce4bhu92rcd13ifvqi70","pricing_plan_id":"cebpf4jnsgd1na2vs0mg"},{"bike_id":"adc9b767-fa5a-487c-b17d-fb3c376c3f08","system_id":"levelo_inurba_marseille","lat":43.2976,"lon":5.37708,"is_reserved":false,"is_disabled":false,"rental_uris":{"android":"levelo://app?vid=adc9b767-fa5a-487c-b17d-fb3c376c3f08","ios":"levelo://app?vid=adc9b767-fa5a-487c-b17d-fb3c376c3f08"},"vehicle_type_id":"4","last_reported":1758625717,"current_range_meters":16400,"station_id":"","pricing_plan_id":"cebpf4jnsgd1na2vs0mg"},{"bike_id":"f707ac66-d658-4e30-8966-865d09dc459d","system_id":"levelo_inurba_marseille","lat":43.306178,"lon":5.393528,"is_reserved":false,"is_disabled":false,"rental_uris":{"android":"levelo://app?vid=f707ac66-d658-4e30-8966-865d09dc459d","ios":"levelo://app?vid=f707ac66-d658-4e30-8966-865d09dc459d"},"vehicle_type_id":"4","last_reported":1758625717,"current_range_meters":16400,"station_id":"ce4bh0p2rcd13ifvqd80","pricing_plan_id":"cebpf4jnsgd1na2vs0mg"},{"bike_id":"ca5534d1-158a-4ad4-8599-5de4f2ca998c","system_id":"levelo_inurba_marseille","lat":43.29028,"lon":5.39974,"is_reserved":false,"is_disabled":false,"rental_uris":{"android":"levelo://app?vid=ca5534d1-158a-4ad4-8599-5de4f2ca998c","ios":"levelo://app?vid=ca5534d1-158a-4ad4-8599-5de4f2ca998c"},"vehicle_type_id":"4","last_reported":1758625717,"current_range_meters":16400,"station_id":"ce4bh392rcd13ifvqdm0","pricing_plan_id":"cebpf4jnsgd1na2vs0mg"},{"bike_id":"d348838d-dddb-4920-a15f-0af06cb1a6f2","system_id":"levelo_inurba_marseille","lat":43.29531,"lon":5.38546,"is_reserved":false,"is_disabled":true,"rental_uris":{"android":"levelo://app?vid=d348838d-dddb-4920-a15f-0af06cb1a6f2","ios":"levelo://app?vid=d348838d-dddb-4920-a15f-0af06cb1a6f2"},"vehicle_type_id":"4","last_reported":1758625717,"current_range_meters":16400,"station_id":"","pricing_plan_id":"cebpf4jnsgd1na2vs0mg"},{"bike_id":"6809f40a-26db-47eb-bde4-6db28932a35e","system_id":"levelo_inurba_marseille","lat":43.27905,"lon":5.3801,"is_reserved":false,"is_disabled":false,"rental_uris":{"android":"levelo://app?vid=6809f40a-26db-47eb-bde4-6db28932a35e","ios":"levelo://app?vid=6809f40a-26db-47eb-bde4-6db28932a35e"},"vehicle_type_id":"4","last_reported":1758625717,"current_range_meters":16400,"station_id":"ce4bhf92rcd13ifvqf50","pricing_plan_id":"cebpf4jnsgd1na2vs0mg"},{"bike_id":"968f6de8-def4-4bd0-8d64-9bd0a722a433","system_id":"levelo_inurba_marseille","lat":43.28005,"lon":5.40021,"is_reserved":false,"is_disabled":false,"rental_uris":{"android":"levelo://app?vid=968f6de8-def4-4bd0-8d64-9bd0a722a433","ios":"levelo://app?vid=968f6de8-def4-4bd0-8d64-9bd0a722a433"},"vehicle_type_id":"4","last_reported":1758625717,"current_range_meters":16400,"station_id":"ce4bho92rcd13ifvqh4g","pricing_plan_id":"cebpf4jnsgd1na2vs0mg"},{"bike_id":"8552fe36-10d8-46fd-997b-c97d2970480a","system_id":"levelo_inurba_marseille","lat":43.32354,"lon":5.36736,"is_reserved":false,"is_disabled":false,"rental_uris":{"android":"levelo://app?vid=8552fe36-10d8-46fd-997b-c97d2970480a","ios":"levelo://app?vid=8552fe36-10d8-46fd-997b-c97d2970480a"},"vehicle_type_id":"4","last_reported":1758625717,"current_range_meters":16400,"station_id":"ce4bhsh2rcd13ifvqi2g","pricing_plan_id":"cebpf4jnsgd1na2vs0mg"},{"bike_id":"4c0b651b-953c-4759-a0f7-0074f59a45eb","system_id":"levelo_inurba_marseille","lat":43.25796,"lon":5.39288,"is_reserved":false,"is_disabled":false,"rental_uris":{"android":"levelo://app?vid=4c0b651b-953c-4759-a0f7-0074f59a45eb","ios":"levelo://app?vid=4c0b651b-953c-4759-a0f7-0074f59a45eb"},"vehicle_type_id":"4","last_reported":1758625717,"current_range_meters":16800,"station_id":"","pricing_plan_id":"cebpf4jnsgd1na2vs0mg"},{"bike_id":"595b7c4d-95eb-4240-aa90-abf0e3a3f7aa","system_id":"levelo_inurba_marseille","lat":43.29778,"lon":5.39352,"is_reserved":false,"is_disabled":false,"rental_uris":{"android":"levelo://app?vid=595b7c4d-95eb-4240-aa90-abf0e3a3f7aa","ios":"levelo://app?vid=595b7c4d-95eb-4240-aa90-abf0e3a3f7aa"},"vehicle_type_id":"4","last_reported":1758625717,"current_range_meters":16800,"station_id":"chh1huq6cuj3fo74tm60","pricing_plan_id":"cebpf4jnsgd1na2vs0mg"},{"bike_id":"3c0fa725-f739-4599-965d-e73d3e7b2c8f","system_id":"levelo_inurba_marseille","lat":43.3236,"lon":5.36767,"is_reserved":false,"is_disabled":false,"rental_uris":{"android":"levelo://app?vid=3c0fa725-f739-4599-965d-e73d3e7b2c8f","ios":"levelo://app?vid=3c0fa725-f739-4599-965d-e73d3e7b2c8f"},"vehicle_type_id":"4","last_reported":1758625717,"current_range_meters":16800,"station_id":"ce4bhsh2rcd13ifvqi2g","pricing_plan_id":"cebpf4jnsgd1na2vs0mg"},{"bike_id":"dddca5ef-4a33-499b-936a-6d8e6136a417","system_id":"levelo_inurba_marseille","lat":43.229342,"lon":5.353821,"is_reserved":false,"is_disabled":false,"rental_uris":{"android":"levelo://app?vid=dddca5ef-4a33-499b-936a-6d8e6136a417","ios":"levelo://app?vid=dddca5ef-4a33-499b-936a-6d8e6136a417"},"vehicle_type_id":"4","last_reported":1758625717,"current_range_meters":16800,"station_id":"cpo3532slgdg3j2ikp40","pricing_plan_id":"cebpf4jnsgd1na2vs0mg"},{"bike_id":"547121a6-ed50-4d48-bad3-f73539aaa9d7","system_id":"levelo_inurba_marseille","lat":43.21193,"lon":5.350696,"is_reserved":false,"is_disabled":false,"rental_uris":{"android":"levelo://app?vid=547121a6-ed50-4d48-bad3-f73539aaa9d7","ios":"levelo://app?vid=547121a6-ed50-4d48-bad3-f73539aaa9d7"},"vehicle_type_id":"4","last_reported":1758625717,"current_range_meters":16800,"station_id":"st_cvj6sg6p6f1abm77japg","pricing_plan_id":"cebpf4jnsgd1na2vs0mg"},{"bike_id":"1ee2e3a7-0129-4f7e-bddc-803fa343746b","system_id":"levelo_inurba_marseille","lat":43.34149,"lon":5.40902,"is_reserved":false,"is_disabled":false,"rental_uris":{"android":"levelo://app?vid=1ee2e3a7-0129-4f7e-bddc-803fa343746b","ios":"levelo://app?vid=1ee2e3a7-0129-4f7e-bddc-803fa343746b"},"vehicle_type_id":"4","last_reported":1758625717,"current_range_meters":17200,"station_id":"ce4bhqh2rcd13ifvqhlg","pricing_plan_id":"cebpf4jnsgd1na2vs0mg"},{"bike_id":"1cd420c9-83fb-4bc1-b7d7-4ff4e3fc796c","system_id":"levelo_inurba_marseille","lat":43.32108,"lon":5.36781,"is_reserved":false,"is_disabled":false,"rental_uris":{"android":"levelo://app?vid=1cd420c9-83fb-4bc1-b7d7-4ff4e3fc796c","ios":"levelo://app?vid=1cd420c9-83fb-4bc1-b7d7-4ff4e3fc796c"},"vehicle_type_id":"4","last_reported":1758625717,"current_range_meters":17200,"station_id":"ce4bhrh2rcd13ifvqhug","pricing_plan_id":"cebpf4jnsgd1na2vs0mg"},{"bike_id":"a67ba437-7413-429b-9b2c-8a9d296a6db8","system_id":"levelo_inurba_marseille","lat":43.33613,"lon":5.41032,"is_reserved":false,"is_disabled":false,"rental_uris":{"android":"levelo://app?vid=a67ba437-7413-429b-9b2c-8a9d296a6db8","ios":"levelo://app?vid=a67ba437-7413-429b-9b2c-8a9d296a6db8"},"vehicle_type_id":"4","last_reported":1758625717,"current_range_meters":17200,"station_id":"ce4bhqh2rcd13ifvqhmg","pricing_plan_id":"cebpf4jnsgd1na2vs0mg"},{"bike_id":"9524be74-c097-42b1-a700-a43986d10e9c","system_id":"levelo_inurba_marseille","lat":43.26223,"lon":5.404696,"is_reserved":false,"is_disabled":false,"rental_uris":{"android":"levelo://app?vid=9524be74-c097-42b1-a700-a43986d10e9c","ios":"levelo://app?vid=9524be74-c097-42b1-a700-a43986d10e9c"},"vehicle_type_id":"4","last_reported":1758625717,"current_range_meters":17200,"station_id":"ce4bhmh2rcd13ifvqgmg","pricing_plan_id":"cebpf4jnsgd1na2vs0mg"},{"bike_id":"c8f3c8da-edc9-4118-a2a2-80f74b9d6e48","system_id":"levelo_inurba_marseille","lat":43.25102,"lon":5.39517,"is_reserved":false,"is_disabled":false,"rental_uris":{"android":"levelo://app?vid=c8f3c8da-edc9-4118-a2a2-80f74b9d6e48","ios":"levelo://app?vid=c8f3c8da-edc9-4118-a2a2-80f74b9d6e48"},"vehicle_type_id":"4","last_reported":1758625717,"current_range_meters":17200,"station_id":"ce4bhm12rcd13ifvqgkg","pricing_plan_id":"cebpf4jnsgd1na2vs0mg"},{"bike_id":"9feb0e0f-24fa-4463-b0f3-30472830c043","system_id":"levelo_inurba_marseille","lat":43.31757,"lon":5.39002,"is_reserved":false,"is_disabled":false,"rental_uris":{"android":"levelo://app?vid=9feb0e0f-24fa-4463-b0f3-30472830c043","ios":"levelo://app?vid=9feb0e0f-24fa-4463-b0f3-30472830c043"},"vehicle_type_id":"4","last_reported":1758625717,"current_range_meters":17600,"station_id":"ce4bhqp2rcd13ifvqhng","pricing_plan_id":"cebpf4jnsgd1na2vs0mg"},{"bike_id":"4758e164-3623-403d-892f-085555656fa2","system_id":"levelo_inurba_marseille","lat":43.28271,"lon":5.35065,"is_reserved":false,"is_disabled":false,"rental_uris":{"android":"levelo://app?vid=4758e164-3623-403d-892f-085555656fa2","ios":"levelo://app?vid=4758e164-3623-403d-892f-085555656fa2"},"vehicle_type_id":"4","last_reported":1758625717,"current_range_meters":17600,"station_id":"ce4bhbp2rcd13ifvqerg","pricing_plan_id":"cebpf4jnsgd1na2vs0mg"},{"bike_id":"a60abba9-f9b8-477b-8786-175fc2b6218b","system_id":"levelo_inurba_marseille","lat":43.30869,"lon":5.37167,"is_reserved":false,"is_disabled":false,"rental_uris":{"android":"levelo://app?vid=a60abba9-f9b8-477b-8786-175fc2b6218b","ios":"levelo://app?vid=a60abba9-f9b8-477b-8786-175fc2b6218b"},"vehicle_type_id":"4","last_reported":1758625717,"current_range_meters":17600,"station_id":"ce4bguh2rcd13ifvqckg","pricing_plan_id":"cebpf4jnsgd1na2vs0mg"},{"bike_id":"49d9eb13-9c16-42a5-8b0a-553a0ab4ac5f","system_id":"levelo_inurba_marseille","lat":43.33611,"lon":5.41028,"is_reserved":false,"is_disabled":false,"rental_uris":{"android":"levelo://app?vid=49d9eb13-9c16-42a5-8b0a-553a0ab4ac5f","ios":"levelo://app?vid=49d9eb13-9c16-42a5-8b0a-553a0ab4ac5f"},"vehicle_type_id":"4","last_reported":1758625717,"current_range_meters":17600,"station_id":"ce4bhqh2rcd13ifvqhmg","pricing_plan_id":"cebpf4jnsgd1na2vs0mg"},{"bike_id":"d930a7c0-e667-4833-beec-97a38a7dd123","system_id":"levelo_inurba_marseille","lat":43.28419,"lon":5.34979,"is_reserved":false,"is_disabled":false,"rental_uris":{"android":"levelo://app?vid=d930a7c0-e667-4833-beec-97a38a7dd123","ios":"levelo://app?vid=d930a7c0-e667-4833-beec-97a38a7dd123"},"vehicle_type_id":"4","last_reported":1758625717,"current_range_meters":17600,"station_id":"ce4bhbh2rcd13ifvqepg","pricing_plan_id":"cebpf4jnsgd1na2vs0mg"},{"bike_id":"da91d260-339e-4c39-a760-670b83ff3884","system_id":"levelo_inurba_marseille","lat":43.290425,"lon":5.399867,"is_reserved":false,"is_disabled":false,"rental_uris":{"android":"levelo://app?vid=da91d260-339e-4c39-a760-670b83ff3884","ios":"levelo://app?vid=da91d260-339e-4c39-a760-670b83ff3884"},"vehicle_type_id":"4","last_reported":1758625717,"current_range_meters":17600,"station_id":"ce4bh392rcd13ifvqdm0","pricing_plan_id":"cebpf4jnsgd1na2vs0mg"},{"bike_id":"95092148-5f75-4663-be7d-7c8aa2863391","system_id":"levelo_inurba_marseille","lat":43.24173,"lon":5.36386,"is_reserved":false,"is_disabled":false,"rental_uris":{"android":"levelo://app?vid=95092148-5f75-4663-be7d-7c8aa2863391","ios":"levelo://app?vid=95092148-5f75-4663-be7d-7c8aa2863391"},"vehicle_type_id":"4","last_reported":1758625717,"current_range_meters":17600,"station_id":"cpo36qri1sfpv3e86is0","pricing_plan_id":"cebpf4jnsgd1na2vs0mg"},{"bike_id":"1205dd53-ebf6-4e9a-839f-2305d790dffb","system_id":"levelo_inurba_marseille","lat":43.30445,"lon":5.38876,"is_reserved":false,"is_disabled":false,"rental_uris":{"android":"levelo://app?vid=1205dd53-ebf6-4e9a-839f-2305d790dffb","ios":"levelo://app?vid=1205dd53-ebf6-4e9a-839f-2305d790dffb"},"vehicle_type_id":"4","last_reported":1758625717,"current_range_meters":18000,"station_id":"ce4bgk12rcd13ifvqbi0","pricing_plan_id":"cebpf4jnsgd1na2vs0mg"},{"bike_id":"f7066c79-4096-4eae-94b1-afe90980f6af","system_id":"levelo_inurba_marseille","lat":43.28857,"lon":5.39318,"is_reserved":false,"is_disabled":true,"rental_uris":{"android":"levelo://app?vid=f7066c79-4096-4eae-94b1-afe90980f6af","ios":"levelo://app?vid=f7066c79-4096-4eae-94b1-afe90980f6af"},"vehicle_type_id":"4","last_reported":1758625717,"current_range_meters":18000,"station_id":"ce4bh2p2rcd13ifvqdi0","pricing_plan_id":"cebpf4jnsgd1na2vs0mg"},{"bike_id":"b5097eea-9912-4be2-9cf9-14c224c5fab6","system_id":"levelo_inurba_marseille","lat":43.23202,"lon":5.35544,"is_reserved":false,"is_disabled":false,"rental_uris":{"android":"levelo://app?vid=b5097eea-9912-4be2-9cf9-14c224c5fab6","ios":"levelo://app?vid=b5097eea-9912-4be2-9cf9-14c224c5fab6"},"vehicle_type_id":"4","last_reported":1758625717,"current_range_meters":18000,"station_id":"ce4bhu92rcd13ifvqi70","pricing_plan_id":"cebpf4jnsgd1na2vs0mg"},{"bike_id":"e34a534e-40a2-424f-9a9f-8dd078555d70","system_id":"levelo_inurba_marseille","lat":43.31403,"lon":5.36766,"is_reserved":false,"is_disabled":false,"rental_uris":{"android":"levelo://app?vid=e34a534e-40a2-424f-9a9f-8dd078555d70","ios":"levelo://app?vid=e34a534e-40a2-424f-9a9f-8dd078555d70"},"vehicle_type_id":"4","last_reported":1758625717,"current_range_meters":18000,"station_id":"","pricing_plan_id":"cebpf4jnsgd1na2vs0mg"},{"bike_id":"ffa949f9-9931-4e3f-a386-c573d597b61a","system_id":"levelo_inurba_marseille","lat":43.29618,"lon":5.37727,"is_reserved":false,"is_disabled":false,"rental_uris":{"android":"levelo://app?vid=ffa949f9-9931-4e3f-a386-c573d597b61a","ios":"levelo://app?vid=ffa949f9-9931-4e3f-a386-c573d597b61a"},"vehicle_type_id":"4","last_reported":1758625717,"current_range_meters":18000,"station_id":"ce4bgi92rcd13ifvqb90","pricing_plan_id":"cebpf4jnsgd1na2vs0mg"},{"bike_id":"a244e5ab-9ac2-41c1-9865-cde0254ecd9d","system_id":"levelo_inurba_marseille","lat":43.26806,"lon":5.40267,"is_reserved":false,"is_disabled":false,"rental_uris":{"android":"levelo://app?vid=a244e5ab-9ac2-41c1-9865-cde0254ecd9d","ios":"levelo://app?vid=a244e5ab-9ac2-41c1-9865-cde0254ecd9d"},"vehicle_type_id":"4","last_reported":1758625717,"current_range_meters":18000,"station_id":"ce501612rcd8frsf0b60","pricing_plan_id":"cebpf4jnsgd1na2vs0mg"},{"bike_id":"aae47d4d-10f5-4a0e-a4b0-301945c3b87c","system_id":"levelo_inurba_marseille","lat":43.309347,"lon":5.401433,"is_reserved":false,"is_disabled":false,"rental_uris":{"android":"levelo://app?vid=aae47d4d-10f5-4a0e-a4b0-301945c3b87c","ios":"levelo://app?vid=aae47d4d-10f5-4a0e-a4b0-301945c3b87c"},"vehicle_type_id":"4","last_reported":1758625717,"current_range_meters":18000,"station_id":"ce4bgvp2rcd13ifvqct0","pricing_plan_id":"cebpf4jnsgd1na2vs0mg"},{"bike_id":"d9c5df48-290a-4518-a72c-b03cb7b1466c","system_id":"levelo_inurba_marseille","lat":43.28668,"lon":5.38659,"is_reserved":false,"is_disabled":false,"rental_uris":{"android":"levelo://app?vid=d9c5df48-290a-4518-a72c-b03cb7b1466c","ios":"levelo://app?vid=d9c5df48-290a-4518-a72c-b03cb7b1466c"},"vehicle_type_id":"4","last_reported":1758625717,"current_range_meters":18000,"station_id":"ce4bh492rcd13ifvqdug","pricing_plan_id":"cebpf4jnsgd1na2vs0mg"},{"bike_id":"acd73526-8b4b-4674-b73a-92ebac5d8098","system_id":"levelo_inurba_marseille","lat":43.32069,"lon":5.41555,"is_reserved":false,"is_disabled":false,"rental_uris":{"android":"levelo://app?vid=acd73526-8b4b-4674-b73a-92ebac5d8098","ios":"levelo://app?vid=acd73526-8b4b-4674-b73a-92ebac5d8098"},"vehicle_type_id":"4","last_reported":1758625717,"current_range_meters":18000,"station_id":"ce4bhq92rcd13ifvqhkg","pricing_plan_id":"cebpf4jnsgd1na2vs0mg"},{"bike_id":"b816d576-d71a-41a1-96e0-049d5941d5d6","system_id":"levelo_inurba_marseille","lat":43.26697,"lon":5.38252,"is_reserved":false,"is_disabled":false,"rental_uris":{"android":"levelo://app?vid=b816d576-d71a-41a1-96e0-049d5941d5d6","ios":"levelo://app?vid=b816d576-d71a-41a1-96e0-049d5941d5d6"},"vehicle_type_id":"4","last_reported":1758625717,"current_range_meters":18800,"station_id":"ce4bhg92rcd13ifvqf90","pricing_plan_id":"cebpf4jnsgd1na2vs0mg"},{"bike_id":"c0e68bf7-21fd-4165-bde1-3bbbb2dc294b","system_id":"levelo_inurba_marseille","lat":43.29558,"lon":5.37504,"is_reserved":false,"is_disabled":true,"rental_uris":{"android":"levelo://app?vid=c0e68bf7-21fd-4165-bde1-3bbbb2dc294b","ios":"levelo://app?vid=c0e68bf7-21fd-4165-bde1-3bbbb2dc294b"},"vehicle_type_id":"4","last_reported":1758625717,"current_range_meters":18800,"station_id":"ce4bgh92rcd13ifvqb50","pricing_plan_id":"cebpf4jnsgd1na2vs0mg"},{"bike_id":"7d0caa8a-aeb2-418d-ae62-a6b7b9bc68f2","system_id":"levelo_inurba_marseille","lat":43.29906,"lon":5.38156,"is_reserved":false,"is_disabled":false,"rental_uris":{"android":"levelo://app?vid=7d0caa8a-aeb2-418d-ae62-a6b7b9bc68f2","ios":"levelo://app?vid=7d0caa8a-aeb2-418d-ae62-a6b7b9bc68f2"},"vehicle_type_id":"4","last_reported":1758625717,"current_range_meters":18800,"station_id":"ce4bgj12rcd13ifvqbc0","pricing_plan_id":"cebpf4jnsgd1na2vs0mg"},{"bike_id":"33c3bc37-b0fb-4bbc-94c6-23e7c0c2d46f","system_id":"levelo_inurba_marseille","lat":43.31311,"lon":5.36776,"is_reserved":false,"is_disabled":false,"rental_uris":{"android":"levelo://app?vid=33c3bc37-b0fb-4bbc-94c6-23e7c0c2d46f","ios":"levelo://app?vid=33c3bc37-b0fb-4bbc-94c6-23e7c0c2d46f"},"vehicle_type_id":"4","last_reported":1758625717,"current_range_meters":18800,"station_id":"ce4bgr92rcd13ifvqc6g","pricing_plan_id":"cebpf4jnsgd1na2vs0mg"},{"bike_id":"ce503b47-64ba-420a-bc2e-5b9d3694509f","system_id":"levelo_inurba_marseille","lat":43.30588,"lon":5.37207,"is_reserved":false,"is_disabled":false,"rental_uris":{"android":"levelo://app?vid=ce503b47-64ba-420a-bc2e-5b9d3694509f","ios":"levelo://app?vid=ce503b47-64ba-420a-bc2e-5b9d3694509f"},"vehicle_type_id":"4","last_reported":1758625717,"current_range_meters":18800,"station_id":"ce4bgqh2rcd13ifvqc4g","pricing_plan_id":"cebpf4jnsgd1na2vs0mg"},{"bike_id":"9ea05566-3b94-432b-b3e5-db100f99f124","system_id":"levelo_inurba_marseille","lat":43.25658,"lon":5.41003,"is_reserved":false,"is_disabled":false,"rental_uris":{"android":"levelo://app?vid=9ea05566-3b94-432b-b3e5-db100f99f124","ios":"levelo://app?vid=9ea05566-3b94-432b-b3e5-db100f99f124"},"vehicle_type_id":"4","last_reported":1758625717,"current_range_meters":18800,"station_id":"","pricing_plan_id":"cebpf4jnsgd1na2vs0mg"},{"bike_id":"65807e95-9edf-43d6-9580-03406018b35c","system_id":"levelo_inurba_marseille","lat":43.30648,"lon":5.4008,"is_reserved":false,"is_disabled":false,"rental_uris":{"android":"levelo://app?vid=65807e95-9edf-43d6-9580-03406018b35c","ios":"levelo://app?vid=65807e95-9edf-43d6-9580-03406018b35c"},"vehicle_type_id":"4","last_reported":1758625717,"current_range_meters":18800,"station_id":"ce4bh112rcd13ifvqda0","pricing_plan_id":"cebpf4jnsgd1na2vs0mg"},{"bike_id":"a23c1a85-07ab-4f18-9701-3141e7707585","system_id":"levelo_inurba_marseille","lat":43.30156,"lon":5.38067,"is_reserved":false,"is_disabled":false,"rental_uris":{"android":"levelo://app?vid=a23c1a85-07ab-4f18-9701-3141e7707585","ios":"levelo://app?vid=a23c1a85-07ab-4f18-9701-3141e7707585"},"vehicle_type_id":"4","last_reported":1758625717,"current_range_meters":18800,"station_id":"ce4bgjp2rcd13ifvqbh0","pricing_plan_id":"cebpf4jnsgd1na2vs0mg"},{"bike_id":"b312f3fd-1c71-4ab3-8166-99a5e0aff6b3","system_id":"levelo_inurba_marseille","lat":43.31244,"lon":5.36892,"is_reserved":false,"is_disabled":false,"rental_uris":{"android":"levelo://app?vid=b312f3fd-1c71-4ab3-8166-99a5e0aff6b3","ios":"levelo://app?vid=b312f3fd-1c71-4ab3-8166-99a5e0aff6b3"},"vehicle_type_id":"4","last_reported":1758625717,"current_range_meters":18800,"station_id":"ce4bgl92rcd13ifvqbq0","pricing_plan_id":"cebpf4jnsgd1na2vs0mg"},{"bike_id":"d68b9cdd-055c-48e6-b5c7-c6c683b923e5","system_id":"levelo_inurba_marseille","lat":43.28617,"lon":5.35105,"is_reserved":false,"is_disabled":true,"rental_uris":{"android":"levelo://app?vid=d68b9cdd-055c-48e6-b5c7-c6c683b923e5","ios":"levelo://app?vid=d68b9cdd-055c-48e6-b5c7-c6c683b923e5"},"vehicle_type_id":"4","last_reported":1758625717,"current_range_meters":18800,"station_id":"ce4bhch2rcd13ifvqeug","pricing_plan_id":"cebpf4jnsgd1na2vs0mg"},{"bike_id":"d8776e6e-502b-419b-a2ba-53f094ba2c15","system_id":"levelo_inurba_marseille","lat":43.25728,"lon":5.41108,"is_reserved":false,"is_disabled":false,"rental_uris":{"android":"levelo://app?vid=d8776e6e-502b-419b-a2ba-53f094ba2c15","ios":"levelo://app?vid=d8776e6e-502b-419b-a2ba-53f094ba2c15"},"vehicle_type_id":"4","last_reported":1758625717,"current_range_meters":18800,"station_id":"ce4bhkp2rcd13ifvqgd0","pricing_plan_id":"cebpf4jnsgd1na2vs0mg"},{"bike_id":"fb9472cd-19fa-40f2-bed4-53a5198a7a5a","system_id":"levelo_inurba_marseille","lat":43.2316,"lon":5.4372,"is_reserved":false,"is_disabled":false,"rental_uris":{"android":"levelo://app?vid=fb9472cd-19fa-40f2-bed4-53a5198a7a5a","ios":"levelo://app?vid=fb9472cd-19fa-40f2-bed4-53a5198a7a5a"},"vehicle_type_id":"4","last_reported":1758625717,"current_range_meters":18800,"station_id":"ce4bhmp2rcd13ifvqgog","pricing_plan_id":"cebpf4jnsgd1na2vs0mg"},{"bike_id":"d36bc5f5-be4b-4ba1-b161-77b473b62d9e","system_id":"levelo_inurba_marseille","lat":43.2721,"lon":5.39182,"is_reserved":false,"is_disabled":false,"rental_uris":{"android":"levelo://app?vid=d36bc5f5-be4b-4ba1-b161-77b473b62d9e","ios":"levelo://app?vid=d36bc5f5-be4b-4ba1-b161-77b473b62d9e"},"vehicle_type_id":"4","last_reported":1758625717,"current_range_meters":18800,"station_id":"ce4bhhp2rcd13ifvqfm0","pricing_plan_id":"cebpf4jnsgd1na2vs0mg"},{"bike_id":"e9835ecd-9503-4633-8257-f774dc2ffc2a","system_id":"levelo_inurba_marseille","lat":43.32662,"lon":5.40998,"is_reserved":false,"is_disabled":false,"rental_uris":{"android":"levelo://app?vid=e9835ecd-9503-4633-8257-f774dc2ffc2a","ios":"levelo://app?vid=e9835ecd-9503-4633-8257-f774dc2ffc2a"},"vehicle_type_id":"4","last_reported":1758625717,"current_range_meters":19200,"station_id":"","pricing_plan_id":"cebpf4jnsgd1na2vs0mg"},{"bike_id":"ef00c611-56e3-4d87-83a8-6fad9627913a","system_id":"levelo_inurba_marseille","lat":43.308894,"lon":5.371943,"is_reserved":false,"is_disabled":false,"rental_uris":{"android":"levelo://app?vid=ef00c611-56e3-4d87-83a8-6fad9627913a","ios":"levelo://app?vid=ef00c611-56e3-4d87-83a8-6fad9627913a"},"vehicle_type_id":"4","last_reported":1758625717,"current_range_meters":19200,"station_id":"ce4bguh2rcd13ifvqckg","pricing_plan_id":"cebpf4jnsgd1na2vs0mg"},{"bike_id":"0306c5d5-8061-4818-a9c1-9604d16570d9","system_id":"levelo_inurba_marseille","lat":43.24165,"lon":5.36397,"is_reserved":false,"is_disabled":false,"rental_uris":{"android":"levelo://app?vid=0306c5d5-8061-4818-a9c1-9604d16570d9","ios":"levelo://app?vid=0306c5d5-8061-4818-a9c1-9604d16570d9"},"vehicle_type_id":"4","last_reported":1758625717,"current_range_meters":19200,"station_id":"cpo36qri1sfpv3e86is0","pricing_plan_id":"cebpf4jnsgd1na2vs0mg"},{"bike_id":"4a9a978a-712d-4a16-907b-c03240f6abbd","system_id":"levelo_inurba_marseille","lat":43.23072,"lon":5.35489,"is_reserved":false,"is_disabled":false,"rental_uris":{"android":"levelo://app?vid=4a9a978a-712d-4a16-907b-c03240f6abbd","ios":"levelo://app?vid=4a9a978a-712d-4a16-907b-c03240f6abbd"},"vehicle_type_id":"4","last_reported":1758625717,"current_range_meters":19200,"station_id":"cpo3342slgdg3j2ifvpg","pricing_plan_id":"cebpf4jnsgd1na2vs0mg"},{"bike_id":"bb50c936-9c44-48aa-8a0c-a1c7295ef5ab","system_id":"levelo_inurba_marseille","lat":43.23151,"lon":5.43725,"is_reserved":false,"is_disabled":false,"rental_uris":{"android":"levelo://app?vid=bb50c936-9c44-48aa-8a0c-a1c7295ef5ab","ios":"levelo://app?vid=bb50c936-9c44-48aa-8a0c-a1c7295ef5ab"},"vehicle_type_id":"4","last_reported":1758625717,"current_range_meters":19200,"station_id":"ce4bhmp2rcd13ifvqgog","pricing_plan_id":"cebpf4jnsgd1na2vs0mg"},{"bike_id":"e2017298-7010-4fcc-9644-9ccfb0f46125","system_id":"levelo_inurba_marseille","lat":43.30102,"lon":5.41524,"is_reserved":false,"is_disabled":false,"rental_uris":{"android":"levelo://app?vid=e2017298-7010-4fcc-9644-9ccfb0f46125","ios":"levelo://app?vid=e2017298-7010-4fcc-9644-9ccfb0f46125"},"vehicle_type_id":"4","last_reported":1758625717,"current_range_meters":19200,"station_id":"","pricing_plan_id":"cebpf4jnsgd1na2vs0mg"},{"bike_id":"27cec588-8cd4-472f-aef2-1c5f79e15629","system_id":"levelo_inurba_marseille","lat":43.30179,"lon":5.36958,"is_reserved":false,"is_disabled":false,"rental_uris":{"android":"levelo://app?vid=27cec588-8cd4-472f-aef2-1c5f79e15629","ios":"levelo://app?vid=27cec588-8cd4-472f-aef2-1c5f79e15629"},"vehicle_type_id":"4","last_reported":1758625717,"current_range_meters":19600,"station_id":"ce4bgqh2rcd13ifvqc5g","pricing_plan_id":"cebpf4jnsgd1na2vs0mg"},{"bike_id":"e75c1918-85d6-4068-96bb-18e633d75400","system_id":"levelo_inurba_marseille","lat":43.32663,"lon":5.4099,"is_reserved":false,"is_disabled":false,"rental_uris":{"android":"levelo://app?vid=e75c1918-85d6-4068-96bb-18e633d75400","ios":"levelo://app?vid=e75c1918-85d6-4068-96bb-18e633d75400"},"vehicle_type_id":"4","last_reported":1758625717,"current_range_meters":19600,"station_id":"ce4bhpp2rcd13ifvqhgg","pricing_plan_id":"cebpf4jnsgd1na2vs0mg"},{"bike_id":"1b8e4c2d-e7e7-47de-bd66-d5d0e6c8f37e","system_id":"levelo_inurba_marseille","lat":43.26568,"lon":5.40327,"is_reserved":false,"is_disabled":false,"rental_uris":{"android":"levelo://app?vid=1b8e4c2d-e7e7-47de-bd66-d5d0e6c8f37e","ios":"levelo://app?vid=1b8e4c2d-e7e7-47de-bd66-d5d0e6c8f37e"},"vehicle_type_id":"4","last_reported":1758625717,"current_range_meters":19600,"station_id":"ce4bhmp2rcd13ifvqgng","pricing_plan_id":"cebpf4jnsgd1na2vs0mg"},{"bike_id":"446f3eab-10ce-4b38-a7a9-db657e341e0a","system_id":"levelo_inurba_marseille","lat":43.28432,"lon":5.37526,"is_reserved":false,"is_disabled":false,"rental_uris":{"android":"levelo://app?vid=446f3eab-10ce-4b38-a7a9-db657e341e0a","ios":"levelo://app?vid=446f3eab-10ce-4b38-a7a9-db657e341e0a"},"vehicle_type_id":"4","last_reported":1758625717,"current_range_meters":19600,"station_id":"ce4bh412rcd13ifvqds0","pricing_plan_id":"cebpf4jnsgd1na2vs0mg"},{"bike_id":"754974bb-5c6e-4a33-9f19-b53a83c64784","system_id":"levelo_inurba_marseille","lat":43.27656,"lon":5.38923,"is_reserved":false,"is_disabled":false,"rental_uris":{"android":"levelo://app?vid=754974bb-5c6e-4a33-9f19-b53a83c64784","ios":"levelo://app?vid=754974bb-5c6e-4a33-9f19-b53a83c64784"},"vehicle_type_id":"4","last_reported":1758625717,"current_range_meters":19600,"station_id":"ce4bhi12rcd13ifvqfo0","pricing_plan_id":"cebpf4jnsgd1na2vs0mg"},{"bike_id":"36e14a01-13aa-45ae-8743-fe096043a807","system_id":"levelo_inurba_marseille","lat":43.32484,"lon":5.36578,"is_reserved":false,"is_disabled":false,"rental_uris":{"android":"levelo://app?vid=36e14a01-13aa-45ae-8743-fe096043a807","ios":"levelo://app?vid=36e14a01-13aa-45ae-8743-fe096043a807"},"vehicle_type_id":"4","last_reported":1758625717,"current_range_meters":19600,"station_id":"ce4bhs12rcd13ifvqhvg","pricing_plan_id":"cebpf4jnsgd1na2vs0mg"},{"bike_id":"05898643-5caf-4058-8b8a-1a1a6e1b823b","system_id":"levelo_inurba_marseille","lat":43.299282,"lon":5.365406,"is_reserved":false,"is_disabled":false,"rental_uris":{"android":"levelo://app?vid=05898643-5caf-4058-8b8a-1a1a6e1b823b","ios":"levelo://app?vid=05898643-5caf-4058-8b8a-1a1a6e1b823b"},"vehicle_type_id":"4","last_reported":1758625717,"current_range_meters":19600,"station_id":"ce4bgm92rcd13ifvqbr0","pricing_plan_id":"cebpf4jnsgd1na2vs0mg"},{"bike_id":"4384775e-b08d-48e9-a938-88e25ce95232","system_id":"levelo_inurba_marseille","lat":43.30139,"lon":5.38778,"is_reserved":false,"is_disabled":false,"rental_uris":{"android":"levelo://app?vid=4384775e-b08d-48e9-a938-88e25ce95232","ios":"levelo://app?vid=4384775e-b08d-48e9-a938-88e25ce95232"},"vehicle_type_id":"4","last_reported":1758625717,"current_range_meters":19600,"station_id":"ce4bghh2rcd13ifvqb60","pricing_plan_id":"cebpf4jnsgd1na2vs0mg"},{"bike_id":"799e6e6e-0ed5-4426-9453-0d745cb69c4a","system_id":"levelo_inurba_marseille","lat":43.29531,"lon":5.39027,"is_reserved":false,"is_disabled":false,"rental_uris":{"android":"levelo://app?vid=799e6e6e-0ed5-4426-9453-0d745cb69c4a","ios":"levelo://app?vid=799e6e6e-0ed5-4426-9453-0d745cb69c4a"},"vehicle_type_id":"4","last_reported":1758625717,"current_range_meters":19600,"station_id":"ce4bh3p2rcd13ifvqdp0","pricing_plan_id":"cebpf4jnsgd1na2vs0mg"},{"bike_id":"3b214ee6-aedb-47cd-8acc-f9c5938279d8","system_id":"levelo_inurba_marseille","lat":43.32339,"lon":5.40622,"is_reserved":false,"is_disabled":false,"rental_uris":{"android":"levelo://app?vid=3b214ee6-aedb-47cd-8acc-f9c5938279d8","ios":"levelo://app?vid=3b214ee6-aedb-47cd-8acc-f9c5938279d8"},"vehicle_type_id":"4","last_reported":1758625717,"current_range_meters":19600,"station_id":"ce4bhq92rcd13ifvqhjg","pricing_plan_id":"cebpf4jnsgd1na2vs0mg"},{"bike_id":"7ca6619c-e6ad-4730-802f-f97b0fc8d6b5","system_id":"levelo_inurba_marseille","lat":43.29601,"lon":5.36738,"is_reserved":false,"is_disabled":false,"rental_uris":{"android":"levelo://app?vid=7ca6619c-e6ad-4730-802f-f97b0fc8d6b5","ios":"levelo://app?vid=7ca6619c-e6ad-4730-802f-f97b0fc8d6b5"},"vehicle_type_id":"4","last_reported":1758625717,"current_range_meters":19600,"station_id":"ce4bgph2rcd13ifvqc2g","pricing_plan_id":"cebpf4jnsgd1na2vs0mg"},{"bike_id":"6fdec039-cefc-4454-9d2b-e739f8be9182","system_id":"levelo_inurba_marseille","lat":43.28417,"lon":5.34993,"is_reserved":false,"is_disabled":false,"rental_uris":{"android":"levelo://app?vid=6fdec039-cefc-4454-9d2b-e739f8be9182","ios":"levelo://app?vid=6fdec039-cefc-4454-9d2b-e739f8be9182"},"vehicle_type_id":"4","last_reported":1758625717,"current_range_meters":19200,"station_id":"ce4bhbh2rcd13ifvqepg","pricing_plan_id":"cebpf4jnsgd1na2vs0mg"},{"bike_id":"cfef7602-756f-4877-88ee-cca28e0c8487","system_id":"levelo_inurba_marseille","lat":43.274231,"lon":5.394202,"is_reserved":false,"is_disabled":false,"rental_uris":{"android":"levelo://app?vid=cfef7602-756f-4877-88ee-cca28e0c8487","ios":"levelo://app?vid=cfef7602-756f-4877-88ee-cca28e0c8487"},"vehicle_type_id":"4","last_reported":1758625717,"current_range_meters":20000,"station_id":"ce4bhdp2rcd13ifvqf20","pricing_plan_id":"cebpf4jnsgd1na2vs0mg"},{"bike_id":"1e2b0923-7c0f-4134-bff6-a7f0c0a8fdc5","system_id":"levelo_inurba_marseille","lat":43.324727,"lon":5.365797,"is_reserved":false,"is_disabled":false,"rental_uris":{"android":"levelo://app?vid=1e2b0923-7c0f-4134-bff6-a7f0c0a8fdc5","ios":"levelo://app?vid=1e2b0923-7c0f-4134-bff6-a7f0c0a8fdc5"},"vehicle_type_id":"4","last_reported":1758625717,"current_range_meters":20000,"station_id":"ce4bhs12rcd13ifvqhvg","pricing_plan_id":"cebpf4jnsgd1na2vs0mg"},{"bike_id":"587c79b4-e645-4d6c-a41b-8250cdf05b2c","system_id":"levelo_inurba_marseille","lat":43.26974,"lon":5.38661,"is_reserved":false,"is_disabled":false,"rental_uris":{"android":"levelo://app?vid=587c79b4-e645-4d6c-a41b-8250cdf05b2c","ios":"levelo://app?vid=587c79b4-e645-4d6c-a41b-8250cdf05b2c"},"vehicle_type_id":"4","last_reported":1758625717,"current_range_meters":19600,"station_id":"ce4bhh92rcd13ifvqfh0","pricing_plan_id":"cebpf4jnsgd1na2vs0mg"},{"bike_id":"2236477b-05bd-4924-9ebe-f6ee7f735bb2","system_id":"levelo_inurba_marseille","lat":43.32653,"lon":5.40991,"is_reserved":false,"is_disabled":false,"rental_uris":{"android":"levelo://app?vid=2236477b-05bd-4924-9ebe-f6ee7f735bb2","ios":"levelo://app?vid=2236477b-05bd-4924-9ebe-f6ee7f735bb2"},"vehicle_type_id":"4","last_reported":1758625717,"current_range_meters":20000,"station_id":"ce4bhpp2rcd13ifvqhgg","pricing_plan_id":"cebpf4jnsgd1na2vs0mg"},{"bike_id":"bed7111f-2aa6-4c82-bb10-9ab8f57ca0ba","system_id":"levelo_inurba_marseille","lat":43.30163,"lon":5.38083,"is_reserved":false,"is_disabled":false,"rental_uris":{"android":"levelo://app?vid=bed7111f-2aa6-4c82-bb10-9ab8f57ca0ba","ios":"levelo://app?vid=bed7111f-2aa6-4c82-bb10-9ab8f57ca0ba"},"vehicle_type_id":"4","last_reported":1758625717,"current_range_meters":20000,"station_id":"ce4bgjp2rcd13ifvqbh0","pricing_plan_id":"cebpf4jnsgd1na2vs0mg"},{"bike_id":"6fc90bd1-7f14-43cf-9cb5-c5d761c8ec85","system_id":"levelo_inurba_marseille","lat":43.32357,"lon":5.36749,"is_reserved":false,"is_disabled":false,"rental_uris":{"android":"levelo://app?vid=6fc90bd1-7f14-43cf-9cb5-c5d761c8ec85","ios":"levelo://app?vid=6fc90bd1-7f14-43cf-9cb5-c5d761c8ec85"},"vehicle_type_id":"4","last_reported":1758625717,"current_range_meters":20000,"station_id":"ce4bhsh2rcd13ifvqi2g","pricing_plan_id":"cebpf4jnsgd1na2vs0mg"},{"bike_id":"d0f7480c-e5ca-49b8-910b-2a2a89a51c6d","system_id":"levelo_inurba_marseille","lat":43.23158,"lon":5.43773,"is_reserved":false,"is_disabled":false,"rental_uris":{"android":"levelo://app?vid=d0f7480c-e5ca-49b8-910b-2a2a89a51c6d","ios":"levelo://app?vid=d0f7480c-e5ca-49b8-910b-2a2a89a51c6d"},"vehicle_type_id":"4","last_reported":1758625717,"current_range_meters":20000,"station_id":"ce4bhmp2rcd13ifvqgog","pricing_plan_id":"cebpf4jnsgd1na2vs0mg"},{"bike_id":"198251fc-00cf-4793-b637-bdecd3c7b9b0","system_id":"levelo_inurba_marseille","lat":43.26956,"lon":5.38639,"is_reserved":false,"is_disabled":false,"rental_uris":{"android":"levelo://app?vid=198251fc-00cf-4793-b637-bdecd3c7b9b0","ios":"levelo://app?vid=198251fc-00cf-4793-b637-bdecd3c7b9b0"},"vehicle_type_id":"4","last_reported":1758625717,"current_range_meters":20000,"station_id":"ce4bhh92rcd13ifvqfh0","pricing_plan_id":"cebpf4jnsgd1na2vs0mg"},{"bike_id":"0b8e7b60-dac3-445b-8e56-f5f5d2a5353e","system_id":"levelo_inurba_marseille","lat":43.26561,"lon":5.39008,"is_reserved":false,"is_disabled":false,"rental_uris":{"android":"levelo://app?vid=0b8e7b60-dac3-445b-8e56-f5f5d2a5353e","ios":"levelo://app?vid=0b8e7b60-dac3-445b-8e56-f5f5d2a5353e"},"vehicle_type_id":"4","last_reported":1758625717,"current_range_meters":20000,"station_id":"ce4bhe12rcd13ifvqf30","pricing_plan_id":"cebpf4jnsgd1na2vs0mg"},{"bike_id":"05f8a986-97a9-4c24-bfce-7adc5dfeb1ec","system_id":"levelo_inurba_marseille","lat":43.27177,"lon":5.41,"is_reserved":false,"is_disabled":false,"rental_uris":{"android":"levelo://app?vid=05f8a986-97a9-4c24-bfce-7adc5dfeb1ec","ios":"levelo://app?vid=05f8a986-97a9-4c24-bfce-7adc5dfeb1ec"},"vehicle_type_id":"4","last_reported":1758625717,"current_range_meters":20000,"station_id":"ce4bhl12rcd13ifvqgf0","pricing_plan_id":"cebpf4jnsgd1na2vs0mg"},{"bike_id":"a123c206-6ddc-4251-8884-33197f793017","system_id":"levelo_inurba_marseille","lat":43.2952,"lon":5.39053,"is_reserved":false,"is_disabled":false,"rental_uris":{"android":"levelo://app?vid=a123c206-6ddc-4251-8884-33197f793017","ios":"levelo://app?vid=a123c206-6ddc-4251-8884-33197f793017"},"vehicle_type_id":"4","last_reported":1758625717,"current_range_meters":20000,"station_id":"ce4bh3p2rcd13ifvqdp0","pricing_plan_id":"cebpf4jnsgd1na2vs0mg"},{"bike_id":"8c0227e3-55e8-4994-aa0c-9b6ee99b7e26","system_id":"levelo_inurba_marseille","lat":43.23056,"lon":5.35494,"is_reserved":false,"is_disabled":false,"rental_uris":{"android":"levelo://app?vid=8c0227e3-55e8-4994-aa0c-9b6ee99b7e26","ios":"levelo://app?vid=8c0227e3-55e8-4994-aa0c-9b6ee99b7e26"},"vehicle_type_id":"4","last_reported":1758625717,"current_range_meters":20400,"station_id":"cpo3342slgdg3j2ifvpg","pricing_plan_id":"cebpf4jnsgd1na2vs0mg"},{"bike_id":"be24f142-2980-41c8-aadc-89fa24406424","system_id":"levelo_inurba_marseille","lat":43.27334,"lon":5.39075,"is_reserved":false,"is_disabled":false,"rental_uris":{"android":"levelo://app?vid=be24f142-2980-41c8-aadc-89fa24406424","ios":"levelo://app?vid=be24f142-2980-41c8-aadc-89fa24406424"},"vehicle_type_id":"4","last_reported":1758625717,"current_range_meters":20400,"station_id":"ce4bhgp2rcd13ifvqfe0","pricing_plan_id":"cebpf4jnsgd1na2vs0mg"},{"bike_id":"ba380dc0-5aaf-42da-bea7-8cd6a75f291b","system_id":"levelo_inurba_marseille","lat":43.24172,"lon":5.36406,"is_reserved":false,"is_disabled":false,"rental_uris":{"android":"levelo://app?vid=ba380dc0-5aaf-42da-bea7-8cd6a75f291b","ios":"levelo://app?vid=ba380dc0-5aaf-42da-bea7-8cd6a75f291b"},"vehicle_type_id":"4","last_reported":1758625717,"current_range_meters":20400,"station_id":"cpo36qri1sfpv3e86is0","pricing_plan_id":"cebpf4jnsgd1na2vs0mg"},{"bike_id":"92085d91-3c17-49c3-8fcd-43f1ab4d0615","system_id":"levelo_inurba_marseille","lat":43.22932,"lon":5.35396,"is_reserved":false,"is_disabled":false,"rental_uris":{"android":"levelo://app?vid=92085d91-3c17-49c3-8fcd-43f1ab4d0615","ios":"levelo://app?vid=92085d91-3c17-49c3-8fcd-43f1ab4d0615"},"vehicle_type_id":"4","last_reported":1758625717,"current_range_meters":20400,"station_id":"cpo3532slgdg3j2ikp40","pricing_plan_id":"cebpf4jnsgd1na2vs0mg"},{"bike_id":"cba1f775-b431-4f7f-b248-19e04c3a2aa2","system_id":"levelo_inurba_marseille","lat":43.33604,"lon":5.41018,"is_reserved":false,"is_disabled":false,"rental_uris":{"android":"levelo://app?vid=cba1f775-b431-4f7f-b248-19e04c3a2aa2","ios":"levelo://app?vid=cba1f775-b431-4f7f-b248-19e04c3a2aa2"},"vehicle_type_id":"4","last_reported":1758625717,"current_range_meters":20400,"station_id":"ce4bhqh2rcd13ifvqhmg","pricing_plan_id":"cebpf4jnsgd1na2vs0mg"},{"bike_id":"f2f94672-35c7-4d06-ab32-76b1e6848668","system_id":"levelo_inurba_marseille","lat":43.31167,"lon":5.38723,"is_reserved":false,"is_disabled":false,"rental_uris":{"android":"levelo://app?vid=f2f94672-35c7-4d06-ab32-76b1e6848668","ios":"levelo://app?vid=f2f94672-35c7-4d06-ab32-76b1e6848668"},"vehicle_type_id":"4","last_reported":1758625717,"current_range_meters":20000,"station_id":"ce4bgv12rcd13ifvqcp0","pricing_plan_id":"cebpf4jnsgd1na2vs0mg"},{"bike_id":"178af37d-dd54-4cf7-b80a-b996e0f2a163","system_id":"levelo_inurba_marseille","lat":43.21194,"lon":5.35061,"is_reserved":false,"is_disabled":false,"rental_uris":{"android":"levelo://app?vid=178af37d-dd54-4cf7-b80a-b996e0f2a163","ios":"levelo://app?vid=178af37d-dd54-4cf7-b80a-b996e0f2a163"},"vehicle_type_id":"4","last_reported":1758625717,"current_range_meters":20400,"station_id":"st_cvj6sg6p6f1abm77japg","pricing_plan_id":"cebpf4jnsgd1na2vs0mg"},{"bike_id":"8ef3db65-05aa-440e-83e1-c5ee675df7b4","system_id":"levelo_inurba_marseille","lat":43.29918,"lon":5.3748,"is_reserved":false,"is_disabled":false,"rental_uris":{"android":"levelo://app?vid=8ef3db65-05aa-440e-83e1-c5ee675df7b4","ios":"levelo://app?vid=8ef3db65-05aa-440e-83e1-c5ee675df7b4"},"vehicle_type_id":"4","last_reported":1758625717,"current_range_meters":20400,"station_id":"ce4bgjh2rcd13ifvqbg0","pricing_plan_id":"cebpf4jnsgd1na2vs0mg"},{"bike_id":"54e6d85e-fad7-41b6-a04c-be1851d6adf4","system_id":"levelo_inurba_marseille","lat":43.34141,"lon":5.4091,"is_reserved":false,"is_disabled":false,"rental_uris":{"android":"levelo://app?vid=54e6d85e-fad7-41b6-a04c-be1851d6adf4","ios":"levelo://app?vid=54e6d85e-fad7-41b6-a04c-be1851d6adf4"},"vehicle_type_id":"4","last_reported":1758625717,"current_range_meters":20400,"station_id":"ce4bhqh2rcd13ifvqhlg","pricing_plan_id":"cebpf4jnsgd1na2vs0mg"},{"bike_id":"aefe508e-c79d-4a10-8762-0be66782dcaa","system_id":"levelo_inurba_marseille","lat":43.23155,"lon":5.4371,"is_reserved":false,"is_disabled":false,"rental_uris":{"android":"levelo://app?vid=aefe508e-c79d-4a10-8762-0be66782dcaa","ios":"levelo://app?vid=aefe508e-c79d-4a10-8762-0be66782dcaa"},"vehicle_type_id":"4","last_reported":1758625717,"current_range_meters":20400,"station_id":"ce4bhmp2rcd13ifvqgog","pricing_plan_id":"cebpf4jnsgd1na2vs0mg"},{"bike_id":"1c6d9206-58f8-43b9-983b-322467dc42d0","system_id":"levelo_inurba_marseille","lat":43.33614,"lon":5.41031,"is_reserved":false,"is_disabled":false,"rental_uris":{"android":"levelo://app?vid=1c6d9206-58f8-43b9-983b-322467dc42d0","ios":"levelo://app?vid=1c6d9206-58f8-43b9-983b-322467dc42d0"},"vehicle_type_id":"4","last_reported":1758625717,"current_range_meters":20400,"station_id":"ce4bhqh2rcd13ifvqhmg","pricing_plan_id":"cebpf4jnsgd1na2vs0mg"},{"bike_id":"e19472f1-87e0-4943-97f3-e785d2a10054","system_id":"levelo_inurba_marseille","lat":43.288668,"lon":5.425053,"is_reserved":false,"is_disabled":false,"rental_uris":{"android":"levelo://app?vid=e19472f1-87e0-4943-97f3-e785d2a10054","ios":"levelo://app?vid=e19472f1-87e0-4943-97f3-e785d2a10054"},"vehicle_type_id":"4","last_reported":1758625717,"current_range_meters":20400,"station_id":"","pricing_plan_id":"cebpf4jnsgd1na2vs0mg"},{"bike_id":"3b296c28-8559-4de5-b60b-1f7310853968","system_id":"levelo_inurba_marseille","lat":43.3015,"lon":5.38072,"is_reserved":false,"is_disabled":false,"rental_uris":{"android":"levelo://app?vid=3b296c28-8559-4de5-b60b-1f7310853968","ios":"levelo://app?vid=3b296c28-8559-4de5-b60b-1f7310853968"},"vehicle_type_id":"4","last_reported":1758625717,"current_range_meters":20400,"station_id":"ce4bgjp2rcd13ifvqbh0","pricing_plan_id":"cebpf4jnsgd1na2vs0mg"},{"bike_id":"d448b74b-b8f7-4053-955b-1df9c58f6926","system_id":"levelo_inurba_marseille","lat":43.27838,"lon":5.38534,"is_reserved":false,"is_disabled":false,"rental_uris":{"android":"levelo://app?vid=d448b74b-b8f7-4053-955b-1df9c58f6926","ios":"levelo://app?vid=d448b74b-b8f7-4053-955b-1df9c58f6926"},"vehicle_type_id":"4","last_reported":1758625717,"current_range_meters":20800,"station_id":"","pricing_plan_id":"cebpf4jnsgd1na2vs0mg"},{"bike_id":"400dd7d3-1e40-4d1f-b6d4-dadeeedefd08","system_id":"levelo_inurba_marseille","lat":43.23955,"lon":5.36633,"is_reserved":false,"is_disabled":false,"rental_uris":{"android":"levelo://app?vid=400dd7d3-1e40-4d1f-b6d4-dadeeedefd08","ios":"levelo://app?vid=400dd7d3-1e40-4d1f-b6d4-dadeeedefd08"},"vehicle_type_id":"4","last_reported":1758625717,"current_range_meters":20800,"station_id":"ce4bhi12rcd13ifvqfp0","pricing_plan_id":"cebpf4jnsgd1na2vs0mg"},{"bike_id":"c2514feb-e733-4d9b-8be9-436df88df011","system_id":"levelo_inurba_marseille","lat":43.29034,"lon":5.39971,"is_reserved":false,"is_disabled":false,"rental_uris":{"android":"levelo://app?vid=c2514feb-e733-4d9b-8be9-436df88df011","ios":"levelo://app?vid=c2514feb-e733-4d9b-8be9-436df88df011"},"vehicle_type_id":"4","last_reported":1758625717,"current_range_meters":20800,"station_id":"ce4bh392rcd13ifvqdm0","pricing_plan_id":"cebpf4jnsgd1na2vs0mg"},{"bike_id":"9e07e9f6-e27c-4be8-8732-88dc7699e818","system_id":"levelo_inurba_marseille","lat":43.25937,"lon":5.40908,"is_reserved":false,"is_disabled":false,"rental_uris":{"android":"levelo://app?vid=9e07e9f6-e27c-4be8-8732-88dc7699e818","ios":"levelo://app?vid=9e07e9f6-e27c-4be8-8732-88dc7699e818"},"vehicle_type_id":"4","last_reported":1758625717,"current_range_meters":20800,"station_id":"ce4bhm92rcd13ifvqglg","pricing_plan_id":"cebpf4jnsgd1na2vs0mg"},{"bike_id":"91e78805-3dd0-407d-bb09-5425b632b050","system_id":"levelo_inurba_marseille","lat":43.25916,"lon":5.40902,"is_reserved":false,"is_disabled":false,"rental_uris":{"android":"levelo://app?vid=91e78805-3dd0-407d-bb09-5425b632b050","ios":"levelo://app?vid=91e78805-3dd0-407d-bb09-5425b632b050"},"vehicle_type_id":"4","last_reported":1758625717,"current_range_meters":20800,"station_id":"ce4bhm92rcd13ifvqglg","pricing_plan_id":"cebpf4jnsgd1na2vs0mg"},