{"last_updated":1706994345,"ttl":30,"version":"2.2","data":{"bikes":[{"bike_id":"3682491c-2452-401f-a4eb-26d8232b3601","system_id":"levelo_inurba_marseille","lat":43.313391,"lon":5.36706,"is_reserved":false,"is_disabled":false,"rental_uris":{"android":"levelo://app?vid=3682491c-2452-401f-a4eb-26d8232b3601","ios":"levelo://app?vid=3682491c-2452-401f-a4eb-26d8232b3601"},"vehicle_type_id":"4","last_reported":1706994345,"current_range_meters":24000,"station_id":"ce4bgr92rcd13ifvqc6g","pricing_plan_id":"free"},{"bike_id":"d95e2387-434c-4b69-8908-9707087feaf0","system_id":"levelo_inurba_marseille","lat":43.312239,"lon":5.368562,"is_reserved":false,"is_disabled":false,"rental_uris":{"android":"levelo://app?vid=d95e2387-434c-4b69-8908-9707087feaf0","ios":"levelo://app?vid=d95e2387-434c-4b69-8908-9707087feaf0"},"vehicle_type_id":"4","last_reported":1706994345,"current_range_meters":2000,"station_id":"ce4bgl92rcd13ifvqbq0","pricing_plan_id":"free"},{"bike_id":"7e0a838d-7791-457e-86d0-530999bbeddc","system_id":"levelo_inurba_marseille","lat":43.312239,"lon":5.368562,"is_reserved":false,"is_disabled":false,"rental_uris":{"android":"levelo://app?vid=7e0a838d-7791-457e-86d0-530999bbeddc","ios":"levelo://app?vid=7e0a838d-7791-457e-86d0-530999bbeddc"},"vehicle_type_id":"4","last_reported":1706994345,"current_range_meters":30400,"station_id":"ce4bgl92rcd13ifvqbq0","pricing_plan_id":"free"},{"bike_id":"2ccf7cd2-896d-4817-bd07-b8197e19c113","system_id":"levelo_inurba_marseille","lat":43.312239,"lon":5.368562,"is_reserved":false,"is_disabled":false,"rental_uris":{"android":"levelo://app?vid=2ccf7cd2-896d-4817-bd07-b8197e19c113","ios":"levelo://app?vid=2ccf7cd2-896d-4817-bd07-b8197e19c113"},"vehicle_type_id":"4","last_reported":1706994345,"current_range_meters":27600,"station_id":"ce4bgl92rcd13ifvqbq0","pricing_plan_id":"free"},{"bike_id":"66e13aa0-cde2-4fb4-8ce3-e882394c6f10","system_id":"levelo_inurba_marseille","lat":43.309076,"lon":5.368465,"is_reserved":false,"is_disabled":false,"rental_uris":{"android":"levelo://app?vid=66e13aa0-cde2-4fb4-8ce3-e882394c6f10","ios":"levelo://app?vid=66e13aa0-cde2-4fb4-8ce3-e882394c6f10"},"vehicle_type_id":"4","last_reported":1706994345,"current_range_meters":22800,"station_id":"ce4bgn92rcd13ifvqbvg","pricing_plan_id":"free"},{"bike_id":"434cbdda-39ec-43b1-8c37-018a1391e2bd","system_id":"levelo_inurba_marseille","lat":43.30915,"lon":5.36853,"is_reserved":false,"is_disabled":false,"rental_uris":{"android":"levelo://app?vid=434cbdda-39ec-43b1-8c37-018a1391e2bd","ios":"levelo://app?vid=434cbdda-39ec-43b1-8c37-018a1391e2bd"},"vehicle_type_id":"4","last_reported":1706994345,"current_range_meters":0,"station_id":"ce4bgn92rcd13ifvqbvg","pricing_plan_id":"free"},{"bike_id":"3585d3c5-13b7-451a-986e-ce99884f7a7f","system_id":"levelo_inurba_marseille","lat":43.309076,"lon":5.368465,"is_reserved":false,"is_disabled":false,"rental_uris":{"android":"levelo://app?vid=3585d3c5-13b7-451a-986e-ce99884f7a7f","ios":"levelo://app?vid=3585d3c5-13b7-451a-986e-ce99884f7a7f"},"vehicle_type_id":"4","last_reported":1706994345,"current_range_meters":6800,"station_id":"ce4bgn92rcd13ifvqbvg","pricing_plan_id":"free"},{"bike_id":"e19264bb-9f60-40ad-a915-48a2975f667d","system_id":"levelo_inurba_marseille","lat":43.309076,"lon":5.368465,"is_reserved":false,"is_disabled":false,"rental_uris":{"android":"levelo://app?vid=e19264bb-9f60-40ad-a915-48a2975f667d","ios":"levelo://app?vid=e19264bb-9f60-40ad-a915-48a2975f667d"},"vehicle_type_id":"4","last_reported":1706994345,"current_range_meters":29600,"station_id":"ce4bgn92rcd13ifvqbvg","pricing_plan_id":"free"},{"bike_id":"d2be7cfc-cbe4-40df-b202-480ca2ed1165","system_id":"levelo_inurba_marseille","lat":43.314811,"lon":5.373103,"is_reserved":false,"is_disabled":false,"rental_uris":{"android":"levelo://app?vid=d2be7cfc-cbe4-40df-b202-480ca2ed1165","ios":"levelo://app?vid=d2be7cfc-cbe4-40df-b202-480ca2ed1165"},"vehicle_type_id":"4","last_reported":1706994345,"current_range_meters":22400,"station_id":"ce4bgt12rcd13ifvqcd0","pricing_plan_id":"free"},{"bike_id":"5e22cb5d-f475-4791-8b93-155199aa939f","system_id":"levelo_inurba_marseille","lat":43.314811,"lon":5.373104,"is_reserved":false,"is_disabled":false,"rental_uris":{"android":"levelo://app?vid=5e22cb5d-f475-4791-8b93-155199aa939f","ios":"levelo://app?vid=5e22cb5d-f475-4791-8b93-155199aa939f"},"vehicle_type_id":"4","last_reported":1706994345,"current_range_meters":4400,"station_id":"ce4bgt12rcd13ifvqcd0","pricing_plan_id":"free"},{"bike_id":"b44abb74-8fe1-4fab-a846-caacebf26eaf","system_id":"levelo_inurba_marseille","lat":43.30907,"lon":5.37179,"is_reserved":false,"is_disabled":false,"rental_uris":{"android":"levelo://app?vid=b44abb74-8fe1-4fab-a846-caacebf26eaf","ios":"levelo://app?vid=b44abb74-8fe1-4fab-a846-caacebf26eaf"},"vehicle_type_id":"4","last_reported":1706994345,"current_range_meters":6400,"station_id":"ce4bguh2rcd13ifvqckg","pricing_plan_id":"free"},{"bike_id":"217ff296-865e-4220-8081-9c4be12fc8e6","system_id":"levelo_inurba_marseille","lat":43.30537,"lon":5.367345,"is_reserved":false,"is_disabled":false,"rental_uris":{"android":"levelo://app?vid=217ff296-865e-4220-8081-9c4be12fc8e6","ios":"levelo://app?vid=217ff296-865e-4220-8081-9c4be12fc8e6"},"vehicle_type_id":"4","last_reported":1706994345,"current_range_meters":5200,"station_id":"ce4bgrp2rcd13ifvqc9g","pricing_plan_id":"free"},{"bike_id":"61530c91-0053-4aae-9ed1-6d7f39301cc9","system_id":"levelo_inurba_marseille","lat":43.305368,"lon":5.367343,"is_reserved":false,"is_disabled":false,"rental_uris":{"android":"levelo://app?vid=61530c91-0053-4aae-9ed1-6d7f39301cc9","ios":"levelo://app?vid=61530c91-0053-4aae-9ed1-6d7f39301cc9"},"vehicle_type_id":"4","last_reported":1706994345,"current_range_meters":1200,"station_id":"ce4bgrp2rcd13ifvqc9g","pricing_plan_id":"free"},{"bike_id":"2b95af9a-7380-4192-9d96-689924d30f20","system_id":"levelo_inurba_marseille","lat":43.30537,"lon":5.367345,"is_reserved":false,"is_disabled":false,"rental_uris":{"android":"levelo://app?vid=2b95af9a-7380-4192-9d96-689924d30f20","ios":"levelo://app?vid=2b95af9a-7380-4192-9d96-689924d30f20"},"vehicle_type_id":"4","last_reported":1706994345,"current_range_meters":19200,"station_id":"ce4bgrp2rcd13ifvqc9g","pricing_plan_id":"free"},{"bike_id":"b9276786-ce20-402b-9a54-e69e0dd37b93","system_id":"levelo_inurba_marseille","lat":43.30537,"lon":5.367345,"is_reserved":false,"is_disabled":false,"rental_uris":{"android":"levelo://app?vid=b9276786-ce20-402b-9a54-e69e0dd37b93","ios":"levelo://app?vid=b9276786-ce20-402b-9a54-e69e0dd37b93"},"vehicle_type_id":"4","last_reported":1706994345,"current_range_meters":3600,"station_id":"ce4bgrp2rcd13ifvqc9g","pricing_plan_id":"free"},{"bike_id":"add821f0-e3f0-47b9-8908-5abe0bda6542","system_id":"levelo_inurba_marseille","lat":43.30537,"lon":5.367345,"is_reserved":false,"is_disabled":false,"rental_uris":{"android":"levelo://app?vid=add821f0-e3f0-47b9-8908-5abe0bda6542","ios":"levelo://app?vid=add821f0-e3f0-47b9-8908-5abe0bda6542"},"vehicle_type_id":"4","last_reported":1706994345,"current_range_meters":21200,"station_id":"ce4bgrp2rcd13ifvqc9g","pricing_plan_id":"free"},{"bike_id":"68589f66-04d2-48a2-aa32-8c6bde3aab2e","system_id":"levelo_inurba_marseille","lat":43.305989,"lon":5.37225,"is_reserved":false,"is_disabled":false,"rental_uris":{"android":"levelo://app?vid=68589f66-04d2-48a2-aa32-8c6bde3aab2e","ios":"levelo://app?vid=68589f66-04d2-48a2-aa32-8c6bde3aab2e"},"vehicle_type_id":"4","last_reported":1706994345,"current_range_meters":16400,"station_id":"ce4bgqh2rcd13ifvqc4g","pricing_plan_id":"free"},{"bike_id":"c10c6754-bcff-411c-b800-a7c2f74bccc7","system_id":"levelo_inurba_marseille","lat":43.305989,"lon":5.37225,"is_reserved":false,"is_disabled":false,"rental_uris":{"android":"levelo://app?vid=c10c6754-bcff-411c-b800-a7c2f74bccc7","ios":"levelo://app?vid=c10c6754-bcff-411c-b800-a7c2f74bccc7"},"vehicle_type_id":"4","last_reported":1706994345,"current_range_meters":26800,"station_id":"ce4bgqh2rcd13ifvqc4g","pricing_plan_id":"free"},{"bike_id":"9f8f8c4c-ba49-4e33-b8a5-887f32b8a5e2","system_id":"levelo_inurba_marseille","lat":43.311131,"lon":5.377651,"is_reserved":false,"is_disabled":false,"rental_uris":{"android":"levelo://app?vid=9f8f8c4c-ba49-4e33-b8a5-887f32b8a5e2","ios":"levelo://app?vid=9f8f8c4c-ba49-4e33-b8a5-887f32b8a5e2"},"vehicle_type_id":"4","last_reported":1706994345,"current_range_meters":0,"station_id":"ce4bgt92rcd13ifvqcg0","pricing_plan_id":"free"},{"bike_id":"3375884e-ac64-434e-b56e-8ffea700c23c","system_id":"levelo_inurba_marseille","lat":43.305989,"lon":5.37225,"is_reserved":false,"is_disabled":false,"rental_uris":{"android":"levelo://app?vid=3375884e-ac64-434e-b56e-8ffea700c23c","ios":"levelo://app?vid=3375884e-ac64-434e-b56e-8ffea700c23c"},"vehicle_type_id":"4","last_reported":1706994345,"current_range_meters":0,"station_id":"ce4bgqh2rcd13ifvqc4g","pricing_plan_id":"free"},{"bike_id":"99bfa85a-611a-4927-a3f1-11966d02b1be","system_id":"levelo_inurba_marseille","lat":43.317075,"lon":5.377367,"is_reserved":false,"is_disabled":false,"rental_uris":{"android":"levelo://app?vid=99bfa85a-611a-4927-a3f1-11966d02b1be","ios":"levelo://app?vid=99bfa85a-611a-4927-a3f1-11966d02b1be"},"vehicle_type_id":"4","last_reported":1706994345,"current_range_meters":14000,"station_id":"ce4bgth2rcd13ifvqch0","pricing_plan_id":"free"},{"bike_id":"5350492e-9a31-4cc2-9dd3-24bb9c6e20c8","system_id":"levelo_inurba_marseille","lat":43.316962,"lon":5.377529,"is_reserved":false,"is_disabled":false,"rental_uris":{"android":"levelo://app?vid=5350492e-9a31-4cc2-9dd3-24bb9c6e20c8","ios":"levelo://app?vid=5350492e-9a31-4cc2-9dd3-24bb9c6e20c8"},"vehicle_type_id":"4","last_reported":1706994345,"current_range_meters":0,"station_id":"ce4bgth2rcd13ifvqch0","pricing_plan_id":"free"},{"bike_id":"7990937b-7025-4041-ae07-d0d631c4b855","system_id":"levelo_inurba_marseille","lat":43.317089,"lon":5.377439,"is_reserved":false,"is_disabled":false,"rental_uris":{"android":"levelo://app?vid=7990937b-7025-4041-ae07-d0d631c4b855","ios":"levelo://app?vid=7990937b-7025-4041-ae07-d0d631c4b855"},"vehicle_type_id":"4","last_reported":1706994345,"current_range_meters":0,"station_id":"ce4bgth2rcd13ifvqch0","pricing_plan_id":"free"},{"bike_id":"7cff3bef-b381-4d0c-a6aa-548ec737dc42","system_id":"levelo_inurba_marseille","lat":43.303046,"lon":5.368981,"is_reserved":false,"is_disabled":false,"rental_uris":{"android":"levelo://app?vid=7cff3bef-b381-4d0c-a6aa-548ec737dc42","ios":"levelo://app?vid=7cff3bef-b381-4d0c-a6aa-548ec737dc42"},"vehicle_type_id":"4","last_reported":1706994345,"current_range_meters":30000,"station_id":"ce4bgqh2rcd13ifvqc5g","pricing_plan_id":"free"},{"bike_id":"830bf01c-f742-40ba-a825-a8e35c30e090","system_id":"levelo_inurba_marseille","lat":43.30304,"lon":5.368987,"is_reserved":false,"is_disabled":false,"rental_uris":{"android":"levelo://app?vid=830bf01c-f742-40ba-a825-a8e35c30e090","ios":"levelo://app?vid=830bf01c-f742-40ba-a825-a8e35c30e090"},"vehicle_type_id":"4","last_reported":1706994345,"current_range_meters":14800,"station_id":"ce4bgqh2rcd13ifvqc5g","pricing_plan_id":"free"},{"bike_id":"b3fdee80-37a0-47bb-b8ca-a3c133c6ab3b","system_id":"levelo_inurba_marseille","lat":43.30304,"lon":5.368987,"is_reserved":false,"is_disabled":false,"rental_uris":{"android":"levelo://app?vid=b3fdee80-37a0-47bb-b8ca-a3c133c6ab3b","ios":"levelo://app?vid=b3fdee80-37a0-47bb-b8ca-a3c133c6ab3b"},"vehicle_type_id":"4","last_reported":1706994345,"current_range_meters":14000,"station_id":"ce4bgqh2rcd13ifvqc5g","pricing_plan_id":"free"},{"bike_id":"d26371b5-2ae4-44cc-9101-a1b52894f775","system_id":"levelo_inurba_marseille","lat":43.30304,"lon":5.368987,"is_reserved":false,"is_disabled":false,"rental_uris":{"android":"levelo://app?vid=d26371b5-2ae4-44cc-9101-a1b52894f775","ios":"levelo://app?vid=d26371b5-2ae4-44cc-9101-a1b52894f775"},"vehicle_type_id":"4","last_reported":1706994345,"current_range_meters":13600,"station_id":"ce4bgqh2rcd13ifvqc5g","pricing_plan_id":"free"},{"bike_id":"083b5ed0-d60b-4ae4-8c3b-8fd379837c99","system_id":"levelo_inurba_marseille","lat":43.30304,"lon":5.368987,"is_reserved":false,"is_disabled":false,"rental_uris":{"android":"levelo://app?vid=083b5ed0-d60b-4ae4-8c3b-8fd379837c99","ios":"levelo://app?vid=083b5ed0-d60b-4ae4-8c3b-8fd379837c99"},"vehicle_type_id":"4","last_reported":1706994345,"current_range_meters":26000,"station_id":"ce4bgqh2rcd13ifvqc5g","pricing_plan_id":"free"},{"bike_id":"61e7bb9b-97da-4b81-bada-17ae0b233613","system_id":"levelo_inurba_marseille","lat":43.30304,"lon":5.368987,"is_reserved":false,"is_disabled":false,"rental_uris":{"android":"levelo://app?vid=61e7bb9b-97da-4b81-bada-17ae0b233613","ios":"levelo://app?vid=61e7bb9b-97da-4b81-bada-17ae0b233613"},"vehicle_type_id":"4","last_reported":1706994345,"current_range_meters":16400,"station_id":"ce4bgqh2rcd13ifvqc5g","pricing_plan_id":"free"},{"bike_id":"adcad12f-a841-49e7-8325-aefff59fe17a","system_id":"levelo_inurba_marseille","lat":43.315293,"lon":5.380349,"is_reserved":false,"is_disabled":false,"rental_uris":{"android":"levelo://app?vid=adcad12f-a841-49e7-8325-aefff59fe17a","ios":"levelo://app?vid=adcad12f-a841-49e7-8325-aefff59fe17a"},"vehicle_type_id":"4","last_reported":1706994345,"current_range_meters":23200,"station_id":"ce4bhsp2rcd13ifvqi50","pricing_plan_id":"free"},{"bike_id":"e1d71705-c7b3-46f2-8728-10e9a8b57101","system_id":"levelo_inurba_marseille","lat":43.30198,"lon":5.36624,"is_reserved":false,"is_disabled":false,"rental_uris":{"android":"levelo://app?vid=e1d71705-c7b3-46f2-8728-10e9a8b57101","ios":"levelo://app?vid=e1d71705-c7b3-46f2-8728-10e9a8b57101"},"vehicle_type_id":"4","last_reported":1706994345,"current_range_meters":6000,"station_id":"ce4bgrh2rcd13ifvqc8g","pricing_plan_id":"free"},{"bike_id":"4e849d44-950a-4b2c-8153-b70003171aba","system_id":"levelo_inurba_marseille","lat":43.30198,"lon":5.36618,"is_reserved":false,"is_disabled":false,"rental_uris":{"android":"levelo://app?vid=4e849d44-950a-4b2c-8153-b70003171aba","ios":"levelo://app?vid=4e849d44-950a-4b2c-8153-b70003171aba"},"vehicle_type_id":"4","last_reported":1706994345,"current_range_meters":12400,"station_id":"ce4bgrh2rcd13ifvqc8g","pricing_plan_id":"free"},{"bike_id":"60f2122f-510e-41c0-b632-b1e3ca9d2267","system_id":"levelo_inurba_marseille","lat":43.301977,"lon":5.366267,"is_reserved":false,"is_disabled":false,"rental_uris":{"android":"levelo://app?vid=60f2122f-510e-41c0-b632-b1e3ca9d2267","ios":"levelo://app?vid=60f2122f-510e-41c0-b632-b1e3ca9d2267"},"vehicle_type_id":"4","last_reported":1706994345,"current_range_meters":7600,"station_id":"ce4bgrh2rcd13ifvqc8g","pricing_plan_id":"free"},{"bike_id":"735c50ad-d80a-4ca6-88c3-abdb3c3fced6","system_id":"levelo_inurba_marseille","lat":43.301939,"lon":5.366286,"is_reserved":false,"is_disabled":false,"rental_uris":{"android":"levelo://app?vid=735c50ad-d80a-4ca6-88c3-abdb3c3fced6","ios":"levelo://app?vid=735c50ad-d80a-4ca6-88c3-abdb3c3fced6"},"vehicle_type_id":"4","last_reported":1706994345,"current_range_meters":6400,"station_id":"ce4bgrh2rcd13ifvqc8g","pricing_plan_id":"free"},{"bike_id":"85b3887b-a606-409c-a4e1-4b7556ee044e","system_id":"levelo_inurba_marseille","lat":43.301939,"lon":5.366286,"is_reserved":false,"is_disabled":false,"rental_uris":{"android":"levelo://app?vid=85b3887b-a606-409c-a4e1-4b7556ee044e","ios":"levelo://app?vid=85b3887b-a606-409c-a4e1-4b7556ee044e"},"vehicle_type_id":"4","last_reported":1706994345,"current_range_meters":31600,"station_id":"ce4bgrh2rcd13ifvqc8g","pricing_plan_id":"free"},{"bike_id":"532654a0-4b95-48cc-b919-8bc35c0e2009","system_id":"levelo_inurba_marseille","lat":43.301797,"lon":5.366343,"is_reserved":false,"is_disabled":false,"rental_uris":{"android":"levelo://app?vid=532654a0-4b95-48cc-b919-8bc35c0e2009","ios":"levelo://app?vid=532654a0-4b95-48cc-b919-8bc35c0e2009"},"vehicle_type_id":"4","last_reported":1706994345,"current_range_meters":31200,"station_id":"ce4bgrh2rcd13ifvqc8g","pricing_plan_id":"free"},{"bike_id":"99a787cb-232b-4fb7-85f2-c3354ae36a10","system_id":"levelo_inurba_marseille","lat":43.301939,"lon":5.366286,"is_reserved":false,"is_disabled":false,"rental_uris":{"android":"levelo://app?vid=99a787cb-232b-4fb7-85f2-c3354ae36a10","ios":"levelo://app?vid=99a787cb-232b-4fb7-85f2-c3354ae36a10"},"vehicle_type_id":"4","last_reported":1706994345,"current_range_meters":31200,"station_id":"ce4bgrh2rcd13ifvqc8g","pricing_plan_id":"free"},{"bike_id":"1d7858e4-b370-46e1-b0a2-da8fd6a451f0","system_id":"levelo_inurba_marseille","lat":43.308012,"lon":5.381511,"is_reserved":false,"is_disabled":false,"rental_uris":{"android":"levelo://app?vid=1d7858e4-b370-46e1-b0a2-da8fd6a451f0","ios":"levelo://app?vid=1d7858e4-b370-46e1-b0a2-da8fd6a451f0"},"vehicle_type_id":"4","last_reported":1706994345,"current_range_meters":25200,"station_id":"ce4bgt12rcd13ifvqce0","pricing_plan_id":"free"},{"bike_id":"6405c038-95ab-4022-9545-c9d9b5987a91","system_id":"levelo_inurba_marseille","lat":43.304606,"lon":5.379026,"is_reserved":false,"is_disabled":false,"rental_uris":{"android":"levelo://app?vid=6405c038-95ab-4022-9545-c9d9b5987a91","ios":"levelo://app?vid=6405c038-95ab-4022-9545-c9d9b5987a91"},"vehicle_type_id":"4","last_reported":1706994345,"current_range_meters":23200,"station_id":"ce4bgup2rcd13ifvqcn0","pricing_plan_id":"free"},{"bike_id":"16c453ae-fa58-488b-809a-e7cd1c664b94","system_id":"levelo_inurba_marseille","lat":43.304606,"lon":5.379026,"is_reserved":false,"is_disabled":false,"rental_uris":{"android":"levelo://app?vid=16c453ae-fa58-488b-809a-e7cd1c664b94","ios":"levelo://app?vid=16c453ae-fa58-488b-809a-e7cd1c664b94"},"vehicle_type_id":"4","last_reported":1706994345,"current_range_meters":0,"station_id":"ce4bgup2rcd13ifvqcn0","pricing_plan_id":"free"},{"bike_id":"3afd96f5-310f-4873-bc5f-83651d54c8df","system_id":"levelo_inurba_marseille","lat":43.32481,"lon":5.36571,"is_reserved":false,"is_disabled":false,"rental_uris":{"android":"levelo://app?vid=3afd96f5-310f-4873-bc5f-83651d54c8df","ios":"levelo://app?vid=3afd96f5-310f-4873-bc5f-83651d54c8df"},"vehicle_type_id":"4","last_reported":1706994345,"current_range_meters":20400,"station_id":"ce4bhs12rcd13ifvqhvg","pricing_plan_id":"free"},{"bike_id":"e3d3782c-aad7-4ee4-839c-29342838b574","system_id":"levelo_inurba_marseille","lat":43.324771,"lon":5.36557,"is_reserved":false,"is_disabled":false,"rental_uris":{"android":"levelo://app?vid=e3d3782c-aad7-4ee4-839c-29342838b574","ios":"levelo://app?vid=e3d3782c-aad7-4ee4-839c-29342838b574"},"vehicle_type_id":"4","last_reported":1706994345,"current_range_meters":15200,"station_id":"ce4bhs12rcd13ifvqhvg","pricing_plan_id":"free"},{"bike_id":"5f03f1c4-3daf-4132-9b83-4053847d344c","system_id":"levelo_inurba_marseille","lat":43.310678,"lon":5.383506,"is_reserved":false,"is_disabled":false,"rental_uris":{"android":"levelo://app?vid=5f03f1c4-3daf-4132-9b83-4053847d344c","ios":"levelo://app?vid=5f03f1c4-3daf-4132-9b83-4053847d344c"},"vehicle_type_id":"4","last_reported":1706994345,"current_range_meters":0,"station_id":"ce4bgv92rcd13ifvqcr0","pricing_plan_id":"free"},{"bike_id":"62d73b02-0263-4d82-b3a3-8cd251bf0bf4","system_id":"levelo_inurba_marseille","lat":43.310804,"lon":5.38359,"is_reserved":false,"is_disabled":false,"rental_uris":{"android":"levelo://app?vid=62d73b02-0263-4d82-b3a3-8cd251bf0bf4","ios":"levelo://app?vid=62d73b02-0263-4d82-b3a3-8cd251bf0bf4"},"vehicle_type_id":"4","last_reported":1706994345,"current_range_meters":0,"station_id":"ce4bgv92rcd13ifvqcr0","pricing_plan_id":"free"},{"bike_id":"58f6962a-4afe-4053-b5a4-f736e3070019","system_id":"levelo_inurba_marseille","lat":43.301429,"lon":5.37413,"is_reserved":false,"is_disabled":false,"rental_uris":{"android":"levelo://app?vid=58f6962a-4afe-4053-b5a4-f736e3070019","ios":"levelo://app?vid=58f6962a-4afe-4053-b5a4-f736e3070019"},"vehicle_type_id":"4","last_reported":1706994345,"current_range_meters":22400,"station_id":"ce4bgs92rcd13ifvqcc0","pricing_plan_id":"free"},{"bike_id":"09af8e1b-27da-4a25-8a22-6c45042b486f","system_id":"levelo_inurba_marseille","lat":43.30136,"lon":5.374055,"is_reserved":false,"is_disabled":false,"rental_uris":{"android":"levelo://app?vid=09af8e1b-27da-4a25-8a22-6c45042b486f","ios":"levelo://app?vid=09af8e1b-27da-4a25-8a22-6c45042b486f"},"vehicle_type_id":"4","last_reported":1706994345,"current_range_meters":5600,"station_id":"ce4bgs92rcd13ifvqcc0","pricing_plan_id":"free"},{"bike_id":"3c58f41d-9a7a-4d49-8cec-b2ba77af198c","system_id":"levelo_inurba_marseille","lat":43.319935,"lon":5.381699,"is_reserved":false,"is_disabled":false,"rental_uris":{"android":"levelo://app?vid=3c58f41d-9a7a-4d49-8cec-b2ba77af198c","ios":"levelo://app?vid=3c58f41d-9a7a-4d49-8cec-b2ba77af198c"},"vehicle_type_id":"4","last_reported":1706994345,"current_range_meters":0,"station_id":"ce4bhr12rcd13ifvqhpg","pricing_plan_id":"free"},{"bike_id":"245843ad-bfeb-465e-a2d5-e97ffa7d3f53","system_id":"levelo_inurba_marseille","lat":43.31366,"lon":5.38482,"is_reserved":false,"is_disabled":false,"rental_uris":{"android":"levelo://app?vid=245843ad-bfeb-465e-a2d5-e97ffa7d3f53","ios":"levelo://app?vid=245843ad-bfeb-465e-a2d5-e97ffa7d3f53"},"vehicle_type_id":"4","last_reported":1706994345,"current_range_meters":28000,"station_id":"ce4bgt92rcd13ifvqcf0","pricing_plan_id":"free"},{"bike_id":"8a444673-23a8-4411-98c6-ef975a1814ff","system_id":"levelo_inurba_marseille","lat":43.313571,"lon":5.384829,"is_reserved":false,"is_disabled":false,"rental_uris":{"android":"levelo://app?vid=8a444673-23a8-4411-98c6-ef975a1814ff","ios":"levelo://app?vid=8a444673-23a8-4411-98c6-ef975a1814ff"},"vehicle_type_id":"4","last_reported":1706994345,"current_range_meters":3200,"station_id":"ce4bgt92rcd13ifvqcf0","pricing_plan_id":"free"},{"bike_id":"c830ae16-0cd4-40bc-9df6-4bac34575bf0","system_id":"levelo_inurba_marseille","lat":43.31362,"lon":5.38493,"is_reserved":false,"is_disabled":false,"rental_uris":{"android":"levelo://app?vid=c830ae16-0cd4-40bc-9df6-4bac34575bf0","ios":"levelo://app?vid=c830ae16-0cd4-40bc-9df6-4bac34575bf0"},"vehicle_type_id":"4","last_reported":1706994345,"current_range_meters":14400,"station_id":"ce4bgt92rcd13ifvqcf0","pricing_plan_id":"free"},{"bike_id":"ca0c5030-70d0-43db-aed9-13e4b8bf6323","system_id":"levelo_inurba_marseille","lat":43.313571,"lon":5.384829,"is_reserved":false,"is_disabled":false,"rental_uris":{"android":"levelo://app?vid=ca0c5030-70d0-43db-aed9-13e4b8bf6323","ios":"levelo://app?vid=ca0c5030-70d0-43db-aed9-13e4b8bf6323"},"vehicle_type_id":"4","last_reported":1706994345,"current_range_meters":10000,"station_id":"ce4bgt92rcd13ifvqcf0","pricing_plan_id":"free"},{"bike_id":"661461d7-eb6d-45a0-a026-7ec1903cd028","system_id":"levelo_inurba_marseille","lat":43.313571,"lon":5.384829,"is_reserved":false,"is_disabled":false,"rental_uris":{"android":"levelo://app?vid=661461d7-eb6d-45a0-a026-7ec1903cd028","ios":"levelo://app?vid=661461d7-eb6d-45a0-a026-7ec1903cd028"},"vehicle_type_id":"4","last_reported":1706994345,"current_range_meters":31600,"station_id":"ce4bgt92rcd13ifvqcf0","pricing_plan_id":"free"},{"bike_id":"66db58e9-b0d4-4e9d-9cd1-c80ea0c7f267","system_id":"levelo_inurba_marseille","lat":43.31373,"lon":5.385,"is_reserved":false,"is_disabled":false,"rental_uris":{"android":"levelo://app?vid=66db58e9-b0d4-4e9d-9cd1-c80ea0c7f267","ios":"levelo://app?vid=66db58e9-b0d4-4e9d-9cd1-c80ea0c7f267"},"vehicle_type_id":"4","last_reported":1706994345,"current_range_meters":19600,"station_id":"ce4bgt92rcd13ifvqcf0","pricing_plan_id":"free"},{"bike_id":"4328fd2d-9c51-4873-9650-e98bccac7e18","system_id":"levelo_inurba_marseille","lat":43.299222,"lon":5.365554,"is_reserved":false,"is_disabled":false,"rental_uris":{"android":"levelo://app?vid=4328fd2d-9c51-4873-9650-e98bccac7e18","ios":"levelo://app?vid=4328fd2d-9c51-4873-9650-e98bccac7e18"},"vehicle_type_id":"4","last_reported":1706994345,"current_range_meters":14800,"station_id":"ce4bgm92rcd13ifvqbr0","pricing_plan_id":"free"},{"bike_id":"93d50297-eef9-4bd2-94f7-0f2a07284133","system_id":"levelo_inurba_marseille","lat":43.299222,"lon":5.365554,"is_reserved":false,"is_disabled":false,"rental_uris":{"android":"levelo://app?vid=93d50297-eef9-4bd2-94f7-0f2a07284133","ios":"levelo://app?vid=93d50297-eef9-4bd2-94f7-0f2a07284133"},"vehicle_type_id":"4","last_reported":1706994345,"current_range_meters":8000,"station_id":"ce4bgm92rcd13ifvqbr0","pricing_plan_id":"free"},{"bike_id":"1966ba41-97e7-40ea-9f25-e60a0d24b074","system_id":"levelo_inurba_marseille","lat":43.298433,"lon":5.362774,"is_reserved":false,"is_disabled":false,"rental_uris":{"android":"levelo://app?vid=1966ba41-97e7-40ea-9f25-e60a0d24b074","ios":"levelo://app?vid=1966ba41-97e7-40ea-9f25-e60a0d24b074"},"vehicle_type_id":"4","last_reported":1706994345,"current_range_meters":11600,"station_id":"ce4bgpp2rcd13ifvqc3g","pricing_plan_id":"free"},{"bike_id":"b67da63e-4b35-440b-adbc-3fea544190b5","system_id":"levelo_inurba_marseille","lat":43.299243,"lon":5.374807,"is_reserved":false,"is_disabled":false,"rental_uris":{"android":"levelo://app?vid=b67da63e-4b35-440b-adbc-3fea544190b5","ios":"levelo://app?vid=b67da63e-4b35-440b-adbc-3fea544190b5"},"vehicle_type_id":"4","last_reported":1706994345,"current_range_meters":22000,"station_id":"ce4bgjh2rcd13ifvqbg0","pricing_plan_id":"free"},{"bike_id":"b6caa35e-af12-4fb2-a4be-23d823c21f00","system_id":"levelo_inurba_marseille","lat":43.298433,"lon":5.362774,"is_reserved":false,"is_disabled":false,"rental_uris":{"android":"levelo://app?vid=b6caa35e-af12-4fb2-a4be-23d823c21f00","ios":"levelo://app?vid=b6caa35e-af12-4fb2-a4be-23d823c21f00"},"vehicle_type_id":"4","last_reported":1706994345,"current_range_meters":15200,"station_id":"ce4bgpp2rcd13ifvqc3g","pricing_plan_id":"free"},{"bike_id":"b5328ea9-154c-4016-a636-b0962a42f351","system_id":"levelo_inurba_marseille","lat":43.299174,"lon":5.374744,"is_reserved":false,"is_disabled":false,"rental_uris":{"android":"levelo://app?vid=b5328ea9-154c-4016-a636-b0962a42f351","ios":"levelo://app?vid=b5328ea9-154c-4016-a636-b0962a42f351"},"vehicle_type_id":"4","last_reported":1706994345,"current_range_meters":0,"station_id":"ce4bgjh2rcd13ifvqbg0","pricing_plan_id":"free"},{"bike_id":"1c0ee3ec-24c7-4c1c-a687-d92aa435bf2b","system_id":"levelo_inurba_marseille","lat":43.29916,"lon":5.37479,"is_reserved":false,"is_disabled":false,"rental_uris":{"android":"levelo://app?vid=1c0ee3ec-24c7-4c1c-a687-d92aa435bf2b","ios":"levelo://app?vid=1c0ee3ec-24c7-4c1c-a687-d92aa435bf2b"},"vehicle_type_id":"4","last_reported":1706994345,"current_range_meters":6800,"station_id":"ce4bgjh2rcd13ifvqbg0","pricing_plan_id":"free"},{"bike_id":"5a51313f-e536-4058-8566-6a58517eac52","system_id":"levelo_inurba_marseille","lat":43.29912,"lon":5.37468,"is_reserved":false,"is_disabled":false,"rental_uris":{"android":"levelo://app?vid=5a51313f-e536-4058-8566-6a58517eac52","ios":"levelo://app?vid=5a51313f-e536-4058-8566-6a58517eac52"},"vehicle_type_id":"4","last_reported":1706994345,"current_range_meters":16400,"station_id":"ce4bgjh2rcd13ifvqbg0","pricing_plan_id":"free"},{"bike_id":"1eeed3ec-ee0c-4b35-bd80-fbb0c5c60a1e","system_id":"levelo_inurba_marseille","lat":43.311722,"lon":5.387247,"is_reserved":false,"is_disabled":false,"rental_uris":{"android":"levelo://app?vid=1eeed3ec-ee0c-4b35-bd80-fbb0c5c60a1e","ios":"levelo://app?vid=1eeed3ec-ee0c-4b35-bd80-fbb0c5c60a1e"},"vehicle_type_id":"4","last_reported":1706994345,"current_range_meters":22800,"station_id":"ce4bgv12rcd13ifvqcp0","pricing_plan_id":"free"},{"bike_id":"216b855f-e444-42bd-9d2d-29b07dc056b3","system_id":"levelo_inurba_marseille","lat":43.311722,"lon":5.387247,"is_reserved":false,"is_disabled":false,"rental_uris":{"android":"levelo://app?vid=216b855f-e444-42bd-9d2d-29b07dc056b3","ios":"levelo://app?vid=216b855f-e444-42bd-9d2d-29b07dc056b3"},"vehicle_type_id":"4","last_reported":1706994345,"current_range_meters":18000,"station_id":"ce4bgv12rcd13ifvqcp0","pricing_plan_id":"free"},{"bike_id":"d3067c66-e7e2-46f1-8f0d-eabc61ae0d41","system_id":"levelo_inurba_marseille","lat":43.322877,"lon":5.382635,"is_reserved":false,"is_disabled":false,"rental_uris":{"android":"levelo://app?vid=d3067c66-e7e2-46f1-8f0d-eabc61ae0d41","ios":"levelo://app?vid=d3067c66-e7e2-46f1-8f0d-eabc61ae0d41"},"vehicle_type_id":"4","last_reported":1706994345,"current_range_meters":7200,"station_id":"ce4bhr12rcd13ifvqhqg","pricing_plan_id":"free"},{"bike_id":"8b023912-5267-4e1c-a403-4d70b425cebe","system_id":"levelo_inurba_marseille","lat":43.322868,"lon":5.382768,"is_reserved":false,"is_disabled":false,"rental_uris":{"android":"levelo://app?vid=8b023912-5267-4e1c-a403-4d70b425cebe","ios":"levelo://app?vid=8b023912-5267-4e1c-a403-4d70b425cebe"},"vehicle_type_id":"4","last_reported":1706994345,"current_range_meters":31200,"station_id":"ce4bhr12rcd13ifvqhqg","pricing_plan_id":"free"},{"bike_id":"dec8b008-992e-4c64-b540-1c9b2b5e6fc3","system_id":"levelo_inurba_marseille","lat":43.32294,"lon":5.38284,"is_reserved":false,"is_disabled":false,"rental_uris":{"android":"levelo://app?vid=dec8b008-992e-4c64-b540-1c9b2b5e6fc3","ios":"levelo://app?vid=dec8b008-992e-4c64-b540-1c9b2b5e6fc3"},"vehicle_type_id":"4","last_reported":1706994345,"current_range_meters":4800,"station_id":"ce4bhr12rcd13ifvqhqg","pricing_plan_id":"free"},{"bike_id":"1900e2ea-9239-49b1-933e-57903fa99707","system_id":"levelo_inurba_marseille","lat":43.32826,"lon":5.36695,"is_reserved":false,"is_disabled":false,"rental_uris":{"android":"levelo://app?vid=1900e2ea-9239-49b1-933e-57903fa99707","ios":"levelo://app?vid=1900e2ea-9239-49b1-933e-57903fa99707"},"vehicle_type_id":"4","last_reported":1706994345,"current_range_meters":13600,"station_id":"ce4bhs92rcd13ifvqi0g","pricing_plan_id":"free"},{"bike_id":"107712ff-eb45-4233-82fe-b868c05aeb11","system_id":"levelo_inurba_marseille","lat":43.328371,"lon":5.366909,"is_reserved":false,"is_disabled":false,"rental_uris":{"android":"levelo://app?vid=107712ff-eb45-4233-82fe-b868c05aeb11","ios":"levelo://app?vid=107712ff-eb45-4233-82fe-b868c05aeb11"},"vehicle_type_id":"4","last_reported":1706994345,"current_range_meters":6000,"station_id":"ce4bhs92rcd13ifvqi0g","pricing_plan_id":"free"},{"bike_id":"757c94ef-0260-4e65-8f42-9a2ff02436ff","system_id":"levelo_inurba_marseille","lat":43.3283,"lon":5.36681,"is_reserved":false,"is_disabled":false,"rental_uris":{"android":"levelo://app?vid=757c94ef-0260-4e65-8f42-9a2ff02436ff","ios":"levelo://app?vid=757c94ef-0260-4e65-8f42-9a2ff02436ff"},"vehicle_type_id":"4","last_reported":1706994345,"current_range_meters":0,"station_id":"ce4bhs92rcd13ifvqi0g","pricing_plan_id":"free"},{"bike_id":"4c60f124-983d-4709-a95c-31ae5c64ae30","system_id":"levelo_inurba_marseille","lat":43.32835,"lon":5.366783,"is_reserved":false,"is_disabled":false,"rental_uris":{"android":"levelo://app?vid=4c60f124-983d-4709-a95c-31ae5c64ae30","ios":"levelo://app?vid=4c60f124-983d-4709-a95c-31ae5c64ae30"},"vehicle_type_id":"4","last_reported":1706994345,"current_range_meters":0,"station_id":"ce4bhs92rcd13ifvqi0g","pricing_plan_id":"free"},{"bike_id":"eb693acf-24cc-46c6-9dfc-6a5e5c4efea8","system_id":"levelo_inurba_marseille","lat":43.297163,"lon":5.365866,"is_reserved":false,"is_disabled":false,"rental_uris":{"android":"levelo://app?vid=eb693acf-24cc-46c6-9dfc-6a5e5c4efea8","ios":"levelo://app?vid=eb693acf-24cc-46c6-9dfc-6a5e5c4efea8"},"vehicle_type_id":"4","last_reported":1706994345,"current_range_meters":25600,"station_id":"ce4bgn12rcd13ifvqbt0","pricing_plan_id":"free"},{"bike_id":"a43029a4-6bf7-48a1-93fb-f538a9716136","system_id":"levelo_inurba_marseille","lat":43.2968,"lon":5.37291,"is_reserved":false,"is_disabled":false,"rental_uris":{"android":"levelo://app?vid=a43029a4-6bf7-48a1-93fb-f538a9716136","ios":"levelo://app?vid=a43029a4-6bf7-48a1-93fb-f538a9716136"},"vehicle_type_id":"4","last_reported":1706994345,"current_range_meters":23600,"station_id":"ce4bgk12rcd13ifvqbj0","pricing_plan_id":"free"},{"bike_id":"8870af25-7e01-4e95-8ddc-677ae2d4869d","system_id":"levelo_inurba_marseille","lat":43.2968,"lon":5.37291,"is_reserved":false,"is_disabled":false,"rental_uris":{"android":"levelo://app?vid=8870af25-7e01-4e95-8ddc-677ae2d4869d","ios":"levelo://app?vid=8870af25-7e01-4e95-8ddc-677ae2d4869d"},"vehicle_type_id":"4","last_reported":1706994345,"current_range_meters":19600,"station_id":"ce4bgk12rcd13ifvqbj0","pricing_plan_id":"free"},{"bike_id":"cf1c4ed4-2b53-4719-9d69-b44bdf3f79d5","system_id":"levelo_inurba_marseille","lat":43.2968,"lon":5.37291,"is_reserved":false,"is_disabled":false,"rental_uris":{"android":"levelo://app?vid=cf1c4ed4-2b53-4719-9d69-b44bdf3f79d5","ios":"levelo://app?vid=cf1c4ed4-2b53-4719-9d69-b44bdf3f79d5"},"vehicle_type_id":"4","last_reported":1706994345,"current_range_meters":19600,"station_id":"ce4bgk12rcd13ifvqbj0","pricing_plan_id":"free"},{"bike_id":"4a162a07-9827-4581-b43a-e610ce807deb","system_id":"levelo_inurba_marseille","lat":43.29671,"lon":5.37288,"is_reserved":false,"is_disabled":false,"rental_uris":{"android":"levelo://app?vid=4a162a07-9827-4581-b43a-e610ce807deb","ios":"levelo://app?vid=4a162a07-9827-4581-b43a-e610ce807deb"},"vehicle_type_id":"4","last_reported":1706994345,"current_range_meters":4800,"station_id":"ce4bgk12rcd13ifvqbj0","pricing_plan_id":"free"},{"bike_id":"a714b53e-9806-4833-b171-edd8e87daf6c","system_id":"levelo_inurba_marseille","lat":43.29723,"lon":5.37691,"is_reserved":false,"is_disabled":false,"rental_uris":{"android":"levelo://app?vid=a714b53e-9806-4833-b171-edd8e87daf6c","ios":"levelo://app?vid=a714b53e-9806-4833-b171-edd8e87daf6c"},"vehicle_type_id":"4","last_reported":1706994345,"current_range_meters":0,"station_id":"ce4bgkh2rcd13ifvqbl0","pricing_plan_id":"free"},{"bike_id":"e71dbeb2-bdcd-41a9-9e92-b0477debf34d","system_id":"levelo_inurba_marseille","lat":43.296513,"lon":5.374753,"is_reserved":false,"is_disabled":false,"rental_uris":{"android":"levelo://app?vid=e71dbeb2-bdcd-41a9-9e92-b0477debf34d","ios":"levelo://app?vid=e71dbeb2-bdcd-41a9-9e92-b0477debf34d"},"vehicle_type_id":"4","last_reported":1706994345,"current_range_meters":15600,"station_id":"","pricing_plan_id":"free"},{"bike_id":"211c16f2-102b-4eec-b776-989dd9cbfd71","system_id":"levelo_inurba_marseille","lat":43.296921,"lon":5.376579,"is_reserved":false,"is_disabled":false,"rental_uris":{"android":"levelo://app?vid=211c16f2-102b-4eec-b776-989dd9cbfd71","ios":"levelo://app?vid=211c16f2-102b-4eec-b776-989dd9cbfd71"},"vehicle_type_id":"4","last_reported":1706994345,"current_range_meters":10400,"station_id":"ce4bgkh2rcd13ifvqbl0","pricing_plan_id":"free"},{"bike_id":"85b77fa4-36c1-48b9-bae4-74fbfc2c9e15","system_id":"levelo_inurba_marseille","lat":43.309589,"lon":5.390258,"is_reserved":false,"is_disabled":false,"rental_uris":{"android":"levelo://app?vid=85b77fa4-36c1-48b9-bae4-74fbfc2c9e15","ios":"levelo://app?vid=85b77fa4-36c1-48b9-bae4-74fbfc2c9e15"},"vehicle_type_id":"4","last_reported":1706994345,"current_range_meters":16800,"station_id":"ce4bgup2rcd13ifvqco0","pricing_plan_id":"free"},{"bike_id":"c8bcc308-97c3-45bd-981c-22c103baca16","system_id":"levelo_inurba_marseille","lat":43.309589,"lon":5.390258,"is_reserved":false,"is_disabled":false,"rental_uris":{"android":"levelo://app?vid=c8bcc308-97c3-45bd-981c-22c103baca16","ios":"levelo://app?vid=c8bcc308-97c3-45bd-981c-22c103baca16"},"vehicle_type_id":"4","last_reported":1706994345,"current_range_meters":24000,"station_id":"ce4bgup2rcd13ifvqco0","pricing_plan_id":"free"},{"bike_id":"f8c642ce-c26d-4312-a4f6-6dc2fd17d4ce","system_id":"levelo_inurba_marseille","lat":43.317557,"lon":5.390173,"is_reserved":false,"is_disabled":false,"rental_uris":{"android":"levelo://app?vid=f8c642ce-c26d-4312-a4f6-6dc2fd17d4ce","ios":"levelo://app?vid=f8c642ce-c26d-4312-a4f6-6dc2fd17d4ce"},"vehicle_type_id":"4","last_reported":1706994345,"current_range_meters":0,"station_id":"ce4bhqp2rcd13ifvqhng","pricing_plan_id":"free"},{"bike_id":"0b49491c-81b8-4ed9-9fa4-1ac082e034fe","system_id":"levelo_inurba_marseille","lat":43.317557,"lon":5.390173,"is_reserved":false,"is_disabled":false,"rental_uris":{"android":"levelo://app?vid=0b49491c-81b8-4ed9-9fa4-1ac082e034fe","ios":"levelo://app?vid=0b49491c-81b8-4ed9-9fa4-1ac082e034fe"},"vehicle_type_id":"4","last_reported":1706994345,"current_range_meters":31600,"station_id":"ce4bhqp2rcd13ifvqhng","pricing_plan_id":"free"},{"bike_id":"86eba5ee-3f3e-465e-879d-a26eca611b6f","system_id":"levelo_inurba_marseille","lat":43.31825,"lon":5.39018,"is_reserved":false,"is_disabled":false,"rental_uris":{"android":"levelo://app?vid=86eba5ee-3f3e-465e-879d-a26eca611b6f","ios":"levelo://app?vid=86eba5ee-3f3e-465e-879d-a26eca611b6f"},"vehicle_type_id":"4","last_reported":1706994345,"current_range_meters":20000,"station_id":"","pricing_plan_id":"free"},{"bike_id":"3368b764-b8a2-493b-a4cb-d818764cc939","system_id":"levelo_inurba_marseille","lat":43.298037,"lon":5.381066,"is_reserved":false,"is_disabled":false,"rental_uris":{"android":"levelo://app?vid=3368b764-b8a2-493b-a4cb-d818764cc939","ios":"levelo://app?vid=3368b764-b8a2-493b-a4cb-d818764cc939"},"vehicle_type_id":"4","last_reported":1706994345,"current_range_meters":0,"station_id":"ce4bgip2rcd13ifvqbb0","pricing_plan_id":"free"},{"bike_id":"0ab7b99f-1b06-4151-8845-0bc29bddea83","system_id":"levelo_inurba_marseille","lat":43.298037,"lon":5.381066,"is_reserved":false,"is_disabled":false,"rental_uris":{"android":"levelo://app?vid=0ab7b99f-1b06-4151-8845-0bc29bddea83","ios":"levelo://app?vid=0ab7b99f-1b06-4151-8845-0bc29bddea83"},"vehicle_type_id":"4","last_reported":1706994345,"current_range_meters":22400,"station_id":"ce4bgip2rcd13ifvqbb0","pricing_plan_id":"free"},{"bike_id":"e985b513-7e2b-4d4e-8065-d11fc25fd78d","system_id":"levelo_inurba_marseille","lat":43.295748,"lon":5.37522,"is_reserved":false,"is_disabled":false,"rental_uris":{"android":"levelo://app?vid=e985b513-7e2b-4d4e-8065-d11fc25fd78d","ios":"levelo://app?vid=e985b513-7e2b-4d4e-8065-d11fc25fd78d"},"vehicle_type_id":"4","last_reported":1706994345,"current_range_meters":10000,"station_id":"ce4bgh92rcd13ifvqb50","pricing_plan_id":"free"},{"bike_id":"aa3faadc-420c-43a9-8a9a-8c812f70953c","system_id":"levelo_inurba_marseille","lat":43.304274,"lon":5.388873,"is_reserved":false,"is_disabled":false,"rental_uris":{"android":"levelo://app?vid=aa3faadc-420c-43a9-8a9a-8c812f70953c","ios":"levelo://app?vid=aa3faadc-420c-43a9-8a9a-8c812f70953c"},"vehicle_type_id":"4","last_reported":1706994345,"current_range_meters":6400,"station_id":"ce4bgk12rcd13ifvqbi0","pricing_plan_id":"free"},{"bike_id":"7accbef1-1e0a-42cb-b534-e95b32c40bbf","system_id":"levelo_inurba_marseille","lat":43.304274,"lon":5.388873,"is_reserved":false,"is_disabled":false,"rental_uris":{"android":"levelo://app?vid=7accbef1-1e0a-42cb-b534-e95b32c40bbf","ios":"levelo://app?vid=7accbef1-1e0a-42cb-b534-e95b32c40bbf"},"vehicle_type_id":"4","last_reported":1706994345,"current_range_meters":26400,"station_id":"ce4bgk12rcd13ifvqbi0","pricing_plan_id":"free"},{"bike_id":"bf6cb17b-c68d-4463-8517-ac0b6075e752","system_id":"levelo_inurba_marseille","lat":43.304274,"lon":5.388873,"is_reserved":false,"is_disabled":false,"rental_uris":{"android":"levelo://app?vid=bf6cb17b-c68d-4463-8517-ac0b6075e752","ios":"levelo://app?vid=bf6cb17b-c68d-4463-8517-ac0b6075e752"},"vehicle_type_id":"4","last_reported":1706994345,"current_range_meters":4800,"station_id":"ce4bgk12rcd13ifvqbi0","pricing_plan_id":"free"},{"bike_id":"32bab5bd-51e6-4aff-8d2f-816df3783aa0","system_id":"levelo_inurba_marseille","lat":43.29571,"lon":5.37513,"is_reserved":false,"is_disabled":false,"rental_uris":{"android":"levelo://app?vid=32bab5bd-51e6-4aff-8d2f-816df3783aa0","ios":"levelo://app?vid=32bab5bd-51e6-4aff-8d2f-816df3783aa0"},"vehicle_type_id":"4","last_reported":1706994345,"current_range_meters":0,"station_id":"ce4bgh92rcd13ifvqb50","pricing_plan_id":"free"},{"bike_id":"a234ecca-4f1d-40fd-a9c9-fbb135769320","system_id":"levelo_inurba_marseille","lat":43.304278,"lon":5.388868,"is_reserved":false,"is_disabled":false,"rental_uris":{"android":"levelo://app?vid=a234ecca-4f1d-40fd-a9c9-fbb135769320","ios":"levelo://app?vid=a234ecca-4f1d-40fd-a9c9-fbb135769320"},"vehicle_type_id":"4","last_reported":1706994345,"current_range_meters":4800,"station_id":"ce4bgk12rcd13ifvqbi0","pricing_plan_id":"free"},{"bike_id":"ec317815-3fb8-40a1-abec-cc0abf2ea51e","system_id":"levelo_inurba_marseille","lat":43.304278,"lon":5.388868,"is_reserved":false,"is_disabled":false,"rental_uris":{"android":"levelo://app?vid=ec317815-3fb8-40a1-abec-cc0abf2ea51e","ios":"levelo://app?vid=ec317815-3fb8-40a1-abec-cc0abf2ea51e"},"vehicle_type_id":"4","last_reported":1706994345,"current_range_meters":4800,"station_id":"ce4bgk12rcd13ifvqbi0","pricing_plan_id":"free"},{"bike_id":"d301ba22-2149-42ef-a620-45b6f9cbe64c","system_id":"levelo_inurba_marseille","lat":43.295748,"lon":5.37522,"is_reserved":false,"is_disabled":false,"rental_uris":{"android":"levelo://app?vid=d301ba22-2149-42ef-a620-45b6f9cbe64c","ios":"levelo://app?vid=d301ba22-2149-42ef-a620-45b6f9cbe64c"},"vehicle_type_id":"4","last_reported":1706994345,"current_range_meters":12400,"station_id":"ce4bgh92rcd13ifvqb50","pricing_plan_id":"free"},{"bike_id":"96a04b4e-5be1-4b34-98d8-a58979be13e2","system_id":"levelo_inurba_marseille","lat":43.295279,"lon":5.375048,"is_reserved":false,"is_disabled":false,"rental_uris":{"android":"levelo://app?vid=96a04b4e-5be1-4b34-98d8-a58979be13e2","ios":"levelo://app?vid=96a04b4e-5be1-4b34-98d8-a58979be13e2"},"vehicle_type_id":"4","last_reported":1706994345,"current_range_meters":0,"station_id":"ce4bgkp2rcd13ifvqbmg","pricing_plan_id":"free"},{"bike_id":"2bd11afe-dd03-4397-8323-c5994db93c4e","system_id":"levelo_inurba_marseille","lat":43.295279,"lon":5.375048,"is_reserved":false,"is_disabled":false,"rental_uris":{"android":"levelo://app?vid=2bd11afe-dd03-4397-8323-c5994db93c4e","ios":"levelo://app?vid=2bd11afe-dd03-4397-8323-c5994db93c4e"},"vehicle_type_id":"4","last_reported":1706994345,"current_range_meters":15200,"station_id":"ce4bgkp2rcd13ifvqbmg","pricing_plan_id":"free"},{"bike_id":"dc906e72-3929-4ac4-904f-ae3865ea0075","system_id":"levelo_inurba_marseille","lat":43.29975,"lon":5.38488,"is_reserved":false,"is_disabled":false,"rental_uris":{"android":"levelo://app?vid=dc906e72-3929-4ac4-904f-ae3865ea0075","ios":"levelo://app?vid=dc906e72-3929-4ac4-904f-ae3865ea0075"},"vehicle_type_id":"4","last_reported":1706994345,"current_range_meters":19600,"station_id":"ce4bgj92rcd13ifvqbd0","pricing_plan_id":"free"},{"bike_id":"48af7761-1324-408e-b44b-1e5bceca3953","system_id":"levelo_inurba_marseille","lat":43.295279,"lon":5.375048,"is_reserved":false,"is_disabled":false,"rental_uris":{"android":"levelo://app?vid=48af7761-1324-408e-b44b-1e5bceca3953","ios":"levelo://app?vid=48af7761-1324-408e-b44b-1e5bceca3953"},"vehicle_type_id":"4","last_reported":1706994345,"current_range_meters":14400,"station_id":"ce4bgkp2rcd13ifvqbmg","pricing_plan_id":"free"},{"bike_id":"0baed055-a7b1-4b16-9361-7470a6e55511","system_id":"levelo_inurba_marseille","lat":43.299724,"lon":5.384848,"is_reserved":false,"is_disabled":false,"rental_uris":{"android":"levelo://app?vid=0baed055-a7b1-4b16-9361-7470a6e55511","ios":"levelo://app?vid=0baed055-a7b1-4b16-9361-7470a6e55511"},"vehicle_type_id":"4","last_reported":1706994345,"current_range_meters":0,"station_id":"ce4bgj92rcd13ifvqbd0","pricing_plan_id":"free"},{"bike_id":"b564cad4-c581-46c7-9c50-8440bce08863","system_id":"levelo_inurba_marseille","lat":43.29965,"lon":5.38493,"is_reserved":false,"is_disabled":false,"rental_uris":{"android":"levelo://app?vid=b564cad4-c581-46c7-9c50-8440bce08863","ios":"levelo://app?vid=b564cad4-c581-46c7-9c50-8440bce08863"},"vehicle_type_id":"4","last_reported":1706994345,"current_range_meters":16400,"station_id":"ce4bgj92rcd13ifvqbd0","pricing_plan_id":"free"},{"bike_id":"c6478534-8a92-48aa-87e2-bf565bc04fb6","system_id":"levelo_inurba_marseille","lat":43.32367,"lon":5.388836,"is_reserved":false,"is_disabled":false,"rental_uris":{"android":"levelo://app?vid=c6478534-8a92-48aa-87e2-bf565bc04fb6","ios":"levelo://app?vid=c6478534-8a92-48aa-87e2-bf565bc04fb6"},"vehicle_type_id":"4","last_reported":1706994345,"current_range_meters":5600,"station_id":"ce4bhqp2rcd13ifvqhog","pricing_plan_id":"free"},{"bike_id":"02e5c3ba-d57f-45cd-83a5-34e8a95ace48","system_id":"levelo_inurba_marseille","lat":43.32367,"lon":5.388836,"is_reserved":false,"is_disabled":false,"rental_uris":{"android":"levelo://app?vid=02e5c3ba-d57f-45cd-83a5-34e8a95ace48","ios":"levelo://app?vid=02e5c3ba-d57f-45cd-83a5-34e8a95ace48"},"vehicle_type_id":"4","last_reported":1706994345,"current_range_meters":14000,"station_id":"ce4bhqp2rcd13ifvqhog","pricing_plan_id":"free"},{"bike_id":"cee66d04-5de1-4164-8450-732819dac0ea","system_id":"levelo_inurba_marseille","lat":43.32362,"lon":5.38883,"is_reserved":false,"is_disabled":false,"rental_uris":{"android":"levelo://app?vid=cee66d04-5de1-4164-8450-732819dac0ea","ios":"levelo://app?vid=cee66d04-5de1-4164-8450-732819dac0ea"},"vehicle_type_id":"4","last_reported":1706994345,"current_range_meters":800,"station_id":"ce4bhqp2rcd13ifvqhog","pricing_plan_id":"free"},{"bike_id":"62a9b393-09b1-4b3b-91a3-6352eceb9b04","system_id":"levelo_inurba_marseille","lat":43.32367,"lon":5.388836,"is_reserved":false,"is_disabled":false,"rental_uris":{"android":"levelo://app?vid=62a9b393-09b1-4b3b-91a3-6352eceb9b04","ios":"levelo://app?vid=62a9b393-09b1-4b3b-91a3-6352eceb9b04"},"vehicle_type_id":"4","last_reported":1706994345,"current_range_meters":7600,"station_id":"ce4bhqp2rcd13ifvqhog","pricing_plan_id":"free"},{"bike_id":"5301d215-ac37-4c0b-8c85-e55b2e7ac30e","system_id":"levelo_inurba_marseille","lat":43.32367,"lon":5.38883,"is_reserved":false,"is_disabled":false,"rental_uris":{"android":"levelo://app?vid=5301d215-ac37-4c0b-8c85-e55b2e7ac30e","ios":"levelo://app?vid=5301d215-ac37-4c0b-8c85-e55b2e7ac30e"},"vehicle_type_id":"4","last_reported":1706994345,"current_range_meters":18800,"station_id":"ce4bhqp2rcd13ifvqhog","pricing_plan_id":"free"},{"bike_id":"75ed1df4-b7df-4e88-9e9a-696a19f1762a","system_id":"levelo_inurba_marseille","lat":43.32364,"lon":5.38888,"is_reserved":false,"is_disabled":false,"rental_uris":{"android":"levelo://app?vid=75ed1df4-b7df-4e88-9e9a-696a19f1762a","ios":"levelo://app?vid=75ed1df4-b7df-4e88-9e9a-696a19f1762a"},"vehicle_type_id":"4","last_reported":1706994345,"current_range_meters":9200,"station_id":"ce4bhqp2rcd13ifvqhog","pricing_plan_id":"free"},{"bike_id":"86690f2d-bc79-4602-9fc0-888cbe1590d1","system_id":"levelo_inurba_marseille","lat":43.32366,"lon":5.38889,"is_reserved":false,"is_disabled":false,"rental_uris":{"android":"levelo://app?vid=86690f2d-bc79-4602-9fc0-888cbe1590d1","ios":"levelo://app?vid=86690f2d-bc79-4602-9fc0-888cbe1590d1"},"vehicle_type_id":"4","last_reported":1706994345,"current_range_meters":21200,"station_id":"ce4bhqp2rcd13ifvqhog","pricing_plan_id":"free"},{"bike_id":"c25fc67a-bf97-4f21-9916-d0fe78b3e657","system_id":"levelo_inurba_marseille","lat":43.32363,"lon":5.38892,"is_reserved":false,"is_disabled":false,"rental_uris":{"android":"levelo://app?vid=c25fc67a-bf97-4f21-9916-d0fe78b3e657","ios":"levelo://app?vid=c25fc67a-bf97-4f21-9916-d0fe78b3e657"},"vehicle_type_id":"4","last_reported":1706994345,"current_range_meters":24000,"station_id":"ce4bhqp2rcd13ifvqhog","pricing_plan_id":"free"},{"bike_id":"6ddd6644-0475-4d38-97ea-3c5cc97bcc31","system_id":"levelo_inurba_marseille","lat":43.32367,"lon":5.388836,"is_reserved":false,"is_disabled":false,"rental_uris":{"android":"levelo://app?vid=6ddd6644-0475-4d38-97ea-3c5cc97bcc31","ios":"levelo://app?vid=6ddd6644-0475-4d38-97ea-3c5cc97bcc31"},"vehicle_type_id":"4","last_reported":1706994345,"current_range_meters":12000,"station_id":"ce4bhqp2rcd13ifvqhog","pricing_plan_id":"free"},{"bike_id":"9b081c91-637e-47ff-a6d8-ba13bb5f1be4","system_id":"levelo_inurba_marseille","lat":43.32367,"lon":5.388836,"is_reserved":false,"is_disabled":false,"rental_uris":{"android":"levelo://app?vid=9b081c91-637e-47ff-a6d8-ba13bb5f1be4","ios":"levelo://app?vid=9b081c91-637e-47ff-a6d8-ba13bb5f1be4"},"vehicle_type_id":"4","last_reported":1706994345,"current_range_meters":30000,"station_id":"ce4bhqp2rcd13ifvqhog","pricing_plan_id":"free"},{"bike_id":"9e7fd5e4-ad39-4da2-8f46-53a757458df4","system_id":"levelo_inurba_marseille","lat":43.29602,"lon":5.381084,"is_reserved":false,"is_disabled":false,"rental_uris":{"android":"levelo://app?vid=9e7fd5e4-ad39-4da2-8f46-53a757458df4","ios":"levelo://app?vid=9e7fd5e4-ad39-4da2-8f46-53a757458df4"},"vehicle_type_id":"4","last_reported":1706994345,"current_range_meters":26000,"station_id":"ce4bgl12rcd13ifvqbo0","pricing_plan_id":"free"},{"bike_id":"93f63e7d-522b-44f4-9164-c85a54337842","system_id":"levelo_inurba_marseille","lat":43.2961,"lon":5.38105,"is_reserved":false,"is_disabled":false,"rental_uris":{"android":"levelo://app?vid=93f63e7d-522b-44f4-9164-c85a54337842","ios":"levelo://app?vid=93f63e7d-522b-44f4-9164-c85a54337842"},"vehicle_type_id":"4","last_reported":1706994345,"current_range_meters":8400,"station_id":"ce4bgl12rcd13ifvqbo0","pricing_plan_id":"free"},{"bike_id":"816f64e3-f285-49a2-be08-54797e0cf38e","system_id":"levelo_inurba_marseille","lat":43.29602,"lon":5.381084,"is_reserved":false,"is_disabled":false,"rental_uris":{"android":"levelo://app?vid=816f64e3-f285-49a2-be08-54797e0cf38e","ios":"levelo://app?vid=816f64e3-f285-49a2-be08-54797e0cf38e"},"vehicle_type_id":"4","last_reported":1706994345,"current_range_meters":2400,"station_id":"ce4bgl12rcd13ifvqbo0","pricing_plan_id":"free"},{"bike_id":"eb4b0f1c-2468-4e49-b385-e79bb7f3f706","system_id":"levelo_inurba_marseille","lat":43.29602,"lon":5.381084,"is_reserved":false,"is_disabled":false,"rental_uris":{"android":"levelo://app?vid=eb4b0f1c-2468-4e49-b385-e79bb7f3f706","ios":"levelo://app?vid=eb4b0f1c-2468-4e49-b385-e79bb7f3f706"},"vehicle_type_id":"4","last_reported":1706994345,"current_range_meters":2800,"station_id":"ce4bgl12rcd13ifvqbo0","pricing_plan_id":"free"},{"bike_id":"20071613-30c5-4b0d-b994-0116ed78292f","system_id":"levelo_inurba_marseille","lat":43.296169,"lon":5.381288,"is_reserved":false,"is_disabled":false,"rental_uris":{"android":"levelo://app?vid=20071613-30c5-4b0d-b994-0116ed78292f","ios":"levelo://app?vid=20071613-30c5-4b0d-b994-0116ed78292f"},"vehicle_type_id":"4","last_reported":1706994345,"current_range_meters":0,"station_id":"","pricing_plan_id":"free"},{"bike_id":"b58f6d08-53ca-4365-a518-aa98e59fb592","system_id":"levelo_inurba_marseille","lat":43.29602,"lon":5.381084,"is_reserved":false,"is_disabled":false,"rental_uris":{"android":"levelo://app?vid=b58f6d08-53ca-4365-a518-aa98e59fb592","ios":"levelo://app?vid=b58f6d08-53ca-4365-a518-aa98e59fb592"},"vehicle_type_id":"4","last_reported":1706994345,"current_range_meters":4000,"station_id":"ce4bgl12rcd13ifvqbo0","pricing_plan_id":"free"},{"bike_id":"0d5e9b41-dd05-4089-9fe8-0d2e1981e447","system_id":"levelo_inurba_marseille","lat":43.29594,"lon":5.3808,"is_reserved":false,"is_disabled":false,"rental_uris":{"android":"levelo://app?vid=0d5e9b41-dd05-4089-9fe8-0d2e1981e447","ios":"levelo://app?vid=0d5e9b41-dd05-4089-9fe8-0d2e1981e447"},"vehicle_type_id":"4","last_reported":1706994345,"current_range_meters":5200,"station_id":"ce4bgl12rcd13ifvqbo0","pricing_plan_id":"free"},{"bike_id":"696f342c-cb2a-4ba0-a210-7728cf466460","system_id":"levelo_inurba_marseille","lat":43.29598,"lon":5.38097,"is_reserved":false,"is_disabled":false,"rental_uris":{"android":"levelo://app?vid=696f342c-cb2a-4ba0-a210-7728cf466460","ios":"levelo://app?vid=696f342c-cb2a-4ba0-a210-7728cf466460"},"vehicle_type_id":"4","last_reported":1706994345,"current_range_meters":0,"station_id":"","pricing_plan_id":"free"},{"bike_id":"d317bed4-9b6c-4650-ad43-df329629272b","system_id":"levelo_inurba_marseille","lat":43.29596,"lon":5.380983,"is_reserved":false,"is_disabled":false,"rental_uris":{"android":"levelo://app?vid=d317bed4-9b6c-4650-ad43-df329629272b","ios":"levelo://app?vid=d317bed4-9b6c-4650-ad43-df329629272b"},"vehicle_type_id":"4","last_reported":1706994345,"current_range_meters":2800,"station_id":"ce4bgl12rcd13ifvqbo0","pricing_plan_id":"free"},{"bike_id":"5f474e8c-9291-4de6-96fe-cf74b315652c","system_id":"levelo_inurba_marseille","lat":43.29592,"lon":5.3809,"is_reserved":false,"is_disabled":false,"rental_uris":{"android":"levelo://app?vid=5f474e8c-9291-4de6-96fe-cf74b315652c","ios":"levelo://app?vid=5f474e8c-9291-4de6-96fe-cf74b315652c"},"vehicle_type_id":"4","last_reported":1706994345,"current_range_meters":12800,"station_id":"ce4bgl12rcd13ifvqbo0","pricing_plan_id":"free"},{"bike_id":"92ad2b5c-bb22-41da-9911-85c2fb8fbcd3","system_id":"levelo_inurba_marseille","lat":43.29602,"lon":5.381084,"is_reserved":false,"is_disabled":false,"rental_uris":{"android":"levelo://app?vid=92ad2b5c-bb22-41da-9911-85c2fb8fbcd3","ios":"levelo://app?vid=92ad2b5c-bb22-41da-9911-85c2fb8fbcd3"},"vehicle_type_id":"4","last_reported":1706994345,"current_range_meters":28000,"station_id":"ce4bgl12rcd13ifvqbo0","pricing_plan_id":"free"},{"bike_id":"c554a40e-7bd2-4cd3-b58a-aa5c122a537d","system_id":"levelo_inurba_marseille","lat":43.293259,"lon":5.371586,"is_reserved":false,"is_disabled":false,"rental_uris":{"android":"levelo://app?vid=c554a40e-7bd2-4cd3-b58a-aa5c122a537d","ios":"levelo://app?vid=c554a40e-7bd2-4cd3-b58a-aa5c122a537d"},"vehicle_type_id":"4","last_reported":1706994345,"current_range_meters":7600,"station_id":"ce4bgh92rcd13ifvqb40","pricing_plan_id":"free"},{"bike_id":"e6b525b6-1a90-4612-aea8-5f501996728a","system_id":"levelo_inurba_marseille","lat":43.292749,"lon":5.368402,"is_reserved":false,"is_disabled":false,"rental_uris":{"android":"levelo://app?vid=e6b525b6-1a90-4612-aea8-5f501996728a","ios":"levelo://app?vid=e6b525b6-1a90-4612-aea8-5f501996728a"},"vehicle_type_id":"4","last_reported":1706994345,"current_range_meters":0,"station_id":"ce4bhbp2rcd13ifvqesg","pricing_plan_id":"free"},{"bike_id":"7e75c1ea-826e-4877-8691-00fc6f0f531f","system_id":"levelo_inurba_marseille","lat":43.293259,"lon":5.371586,"is_reserved":false,"is_disabled":false,"rental_uris":{"android":"levelo://app?vid=7e75c1ea-826e-4877-8691-00fc6f0f531f","ios":"levelo://app?vid=7e75c1ea-826e-4877-8691-00fc6f0f531f"},"vehicle_type_id":"4","last_reported":1706994345,"current_range_meters":31200,"station_id":"ce4bgh92rcd13ifvqb40","pricing_plan_id":"free"},{"bike_id":"c66b07cd-dd48-4a2a-913e-08cdb77474a1","system_id":"levelo_inurba_marseille","lat":43.29268,"lon":5.36842,"is_reserved":false,"is_disabled":false,"rental_uris":{"android":"levelo://app?vid=c66b07cd-dd48-4a2a-913e-08cdb77474a1","ios":"levelo://app?vid=c66b07cd-dd48-4a2a-913e-08cdb77474a1"},"vehicle_type_id":"4","last_reported":1706994345,"current_range_meters":28000,"station_id":"ce4bhbp2rcd13ifvqesg","pricing_plan_id":"free"},{"bike_id":"782a2e8f-5045-49aa-a6e0-d74a4695ea01","system_id":"levelo_inurba_marseille","lat":43.293009,"lon":5.374584,"is_reserved":false,"is_disabled":false,"rental_uris":{"android":"levelo://app?vid=782a2e8f-5045-49aa-a6e0-d74a4695ea01","ios":"levelo://app?vid=782a2e8f-5045-49aa-a6e0-d74a4695ea01"},"vehicle_type_id":"4","last_reported":1706994345,"current_range_meters":4800,"station_id":"ce4bgi12rcd13ifvqb70","pricing_plan_id":"free"},{"bike_id":"a5fe5087-d221-4814-84af-d60a17492723","system_id":"levelo_inurba_marseille","lat":43.305994,"lon":5.393687,"is_reserved":false,"is_disabled":false,"rental_uris":{"android":"levelo://app?vid=a5fe5087-d221-4814-84af-d60a17492723","ios":"levelo://app?vid=a5fe5087-d221-4814-84af-d60a17492723"},"vehicle_type_id":"4","last_reported":1706994345,"current_range_meters":6400,"station_id":"ce4bh0p2rcd13ifvqd80","pricing_plan_id":"free"},{"bike_id":"fa27b209-ee14-4d62-89b4-87f7a2a570e8","system_id":"levelo_inurba_marseille","lat":43.287184,"lon":5.37937,"is_reserved":false,"is_disabled":false,"rental_uris":{"android":"levelo://app?vid=fa27b209-ee14-4d62-89b4-87f7a2a570e8","ios":"levelo://app?vid=fa27b209-ee14-4d62-89b4-87f7a2a570e8"},"vehicle_type_id":"4","last_reported":1706994345,"current_range_meters":14800,"station_id":"ce4bh9p2rcd13ifvqec0","pricing_plan_id":"free"},{"bike_id":"43df9064-4bae-4055-b31b-3c57815886c1","system_id":"levelo_inurba_marseille","lat":43.305994,"lon":5.393687,"is_reserved":false,"is_disabled":false,"rental_uris":{"android":"levelo://app?vid=43df9064-4bae-4055-b31b-3c57815886c1","ios":"levelo://app?vid=43df9064-4bae-4055-b31b-3c57815886c1"},"vehicle_type_id":"4","last_reported":1706994345,"current_range_meters":12800,"station_id":"ce4bh0p2rcd13ifvqd80","pricing_plan_id":"free"},{"bike_id":"50eb678a-9818-4510-a6fe-bd42bb58be2c","system_id":"levelo_inurba_marseille","lat":43.305994,"lon":5.393687,"is_reserved":false,"is_disabled":false,"rental_uris":{"android":"levelo://app?vid=50eb678a-9818-4510-a6fe-bd42bb58be2c","ios":"levelo://app?vid=50eb678a-9818-4510-a6fe-bd42bb58be2c"},"vehicle_type_id":"4","last_reported":1706994345,"current_range_meters":14400,"station_id":"ce4bh0p2rcd13ifvqd80","pricing_plan_id":"free"},{"bike_id":"38b7eb24-1b3d-4420-9134-461634629715","system_id":"levelo_inurba_marseille","lat":43.305994,"lon":5.393687,"is_reserved":false,"is_disabled":false,"rental_uris":{"android":"levelo://app?vid=38b7eb24-1b3d-4420-9134-461634629715","ios":"levelo://app?vid=38b7eb24-1b3d-4420-9134-461634629715"},"vehicle_type_id":"4","last_reported":1706994345,"current_range_meters":0,"station_id":"ce4bh0p2rcd13ifvqd80","pricing_plan_id":"free"},{"bike_id":"6032e271-4181-4574-a521-323280f614c5","system_id":"levelo_inurba_marseille","lat":43.305994,"lon":5.393687,"is_reserved":false,"is_disabled":false,"rental_uris":{"android":"levelo://app?vid=6032e271-4181-4574-a521-323280f614c5","ios":"levelo://app?vid=6032e271-4181-4574-a521-323280f614c5"},"vehicle_type_id":"4","last_reported":1706994345,"current_range_meters":2000,"station_id":"ce4bh0p2rcd13ifvqd80","pricing_plan_id":"free"},{"bike_id":"23ef7f18-f2f6-4c9a-99e0-8b5996a1cce3","system_id":"levelo_inurba_marseille","lat":43.305994,"lon":5.393687,"is_reserved":false,"is_disabled":false,"rental_uris":{"android":"levelo://app?vid=23ef7f18-f2f6-4c9a-99e0-8b5996a1cce3","ios":"levelo://app?vid=23ef7f18-f2f6-4c9a-99e0-8b5996a1cce3"},"vehicle_type_id":"4","last_reported":1706994345,"current_range_meters":3600,"station_id":"ce4bh0p2rcd13ifvqd80","pricing_plan_id":"free"},{"bike_id":"77f81901-361c-4f9d-852c-785dea0a41de","system_id":"levelo_inurba_marseille","lat":43.305994,"lon":5.393687,"is_reserved":false,"is_disabled":false,"rental_uris":{"android":"levelo://app?vid=77f81901-361c-4f9d-852c-785dea0a41de","ios":"levelo://app?vid=77f81901-361c-4f9d-852c-785dea0a41de"},"vehicle_type_id":"4","last_reported":1706994345,"current_range_meters":2400,"station_id":"ce4bh0p2rcd13ifvqd80","pricing_plan_id":"free"},{"bike_id":"fa328822-48f6-4f94-943c-09beb1b6b590","system_id":"levelo_inurba_marseille","lat":43.305994,"lon":5.393687,"is_reserved":false,"is_disabled":false,"rental_uris":{"android":"levelo://app?vid=fa328822-48f6-4f94-943c-09beb1b6b590","ios":"levelo://app?vid=fa328822-48f6-4f94-943c-09beb1b6b590"},"vehicle_type_id":"4","last_reported":1706994345,"current_range_meters":10000,"station_id":"ce4bh0p2rcd13ifvqd80","pricing_plan_id":"free"},{"bike_id":"53159149-cd28-47d4-9e4c-d39c68ceaa5b","system_id":"levelo_inurba_marseille","lat":43.305994,"lon":5.393687,"is_reserved":false,"is_disabled":false,"rental_uris":{"android":"levelo://app?vid=53159149-cd28-47d4-9e4c-d39c68ceaa5b","ios":"levelo://app?vid=53159149-cd28-47d4-9e4c-d39c68ceaa5b"},"vehicle_type_id":"4","last_reported":1706994345,"current_range_meters":0,"station_id":"ce4bh0p2rcd13ifvqd80","pricing_plan_id":"free"},{"bike_id":"607ac5d1-f901-4b46-b15a-1be737f5174c","system_id":"levelo_inurba_marseille","lat":43.305994,"lon":5.393687,"is_reserved":false,"is_disabled":false,"rental_uris":{"android":"levelo://app?vid=607ac5d1-f901-4b46-b15a-1be737f5174c","ios":"levelo://app?vid=607ac5d1-f901-4b46-b15a-1be737f5174c"},"vehicle_type_id":"4","last_reported":1706994345,"current_range_meters":8800,"station_id":"ce4bh0p2rcd13ifvqd80","pricing_plan_id":"free"},{"bike_id":"96cccf2d-f550-44c7-856b-89a6fd93b509","system_id":"levelo_inurba_marseille","lat":43.305994,"lon":5.393687,"is_reserved":false,"is_disabled":false,"rental_uris":{"android":"levelo://app?vid=96cccf2d-f550-44c7-856b-89a6fd93b509","ios":"levelo://app?vid=96cccf2d-f550-44c7-856b-89a6fd93b509"},"vehicle_type_id":"4","last_reported":1706994345,"current_range_meters":14400,"station_id":"ce4bh0p2rcd13ifvqd80","pricing_plan_id":"free"},{"bike_id":"8c0e7f60-2783-4d9e-8a14-997e9f640f66","system_id":"levelo_inurba_marseille","lat":43.305994,"lon":5.393687,"is_reserved":false,"is_disabled":false,"rental_uris":{"android":"levelo://app?vid=8c0e7f60-2783-4d9e-8a14-997e9f640f66","ios":"levelo://app?vid=8c0e7f60-2783-4d9e-8a14-997e9f640f66"},"vehicle_type_id":"4","last_reported":1706994345,"current_range_meters":22400,"station_id":"ce4bh0p2rcd13ifvqd80","pricing_plan_id":"free"},{"bike_id":"7965568b-9177-47cb-92f7-c659ca55bbe1","system_id":"levelo_inurba_marseille","lat":43.2936,"lon":5.37835,"is_reserved":false,"is_disabled":false,"rental_uris":{"android":"levelo://app?vid=7965568b-9177-47cb-92f7-c659ca55bbe1","ios":"levelo://app?vid=7965568b-9177-47cb-92f7-c659ca55bbe1"},"vehicle_type_id":"4","last_reported":1706994345,"current_range_meters":0,"station_id":"ce4bgjh2rcd13ifvqbf0","pricing_plan_id":"free"},{"bike_id":"71c86178-b5e8-46a1-a169-62d631148e3f","system_id":"levelo_inurba_marseille","lat":43.292311,"lon":5.360731,"is_reserved":false,"is_disabled":false,"rental_uris":{"android":"levelo://app?vid=71c86178-b5e8-46a1-a169-62d631148e3f","ios":"levelo://app?vid=71c86178-b5e8-46a1-a169-62d631148e3f"},"vehicle_type_id":"4","last_reported":1706994345,"current_range_meters":4800,"station_id":"ce4bhbh2rcd13ifvqeqg","pricing_plan_id":"free"},{"bike_id":"4e0054aa-4f00-4366-8da1-c1d56c8cd10e","system_id":"levelo_inurba_marseille","lat":43.292311,"lon":5.360731,"is_reserved":false,"is_disabled":false,"rental_uris":{"android":"levelo://app?vid=4e0054aa-4f00-4366-8da1-c1d56c8cd10e","ios":"levelo://app?vid=4e0054aa-4f00-4366-8da1-c1d56c8cd10e"},"vehicle_type_id":"4","last_reported":1706994345,"current_range_meters":2000,"station_id":"ce4bhbh2rcd13ifvqeqg","pricing_plan_id":"free"},{"bike_id":"6ce064ac-08cd-4323-a3e0-dd759cc1132e","system_id":"levelo_inurba_marseille","lat":43.29228,"lon":5.36057,"is_reserved":false,"is_disabled":false,"rental_uris":{"android":"levelo://app?vid=6ce064ac-08cd-4323-a3e0-dd759cc1132e","ios":"levelo://app?vid=6ce064ac-08cd-4323-a3e0-dd759cc1132e"},"vehicle_type_id":"4","last_reported":1706994345,"current_range_meters":22400,"station_id":"ce4bhbh2rcd13ifvqeqg","pricing_plan_id":"free"},{"bike_id":"3ca1ccad-b215-4a4c-8cf9-b4e48a44cf0d","system_id":"levelo_inurba_marseille","lat":43.292311,"lon":5.360731,"is_reserved":false,"is_disabled":false,"rental_uris":{"android":"levelo://app?vid=3ca1ccad-b215-4a4c-8cf9-b4e48a44cf0d","ios":"levelo://app?vid=3ca1ccad-b215-4a4c-8cf9-b4e48a44cf0d"},"vehicle_type_id":"4","last_reported":1706994345,"current_range_meters":0,"station_id":"ce4bhbh2rcd13ifvqeqg","pricing_plan_id":"free"},{"bike_id":"95e75154-bb11-4fe7-a421-5a0718287c4b","system_id":"levelo_inurba_marseille","lat":43.293009,"lon":5.374584,"is_reserved":false,"is_disabled":false,"rental_uris":{"android":"levelo://app?vid=95e75154-bb11-4fe7-a421-5a0718287c4b","ios":"levelo://app?vid=95e75154-bb11-4fe7-a421-5a0718287c4b"},"vehicle_type_id":"4","last_reported":1706994345,"current_range_meters":14000,"station_id":"ce4bgi12rcd13ifvqb70","pricing_plan_id":"free"},{"bike_id":"f20ebac8-851c-4e23-93e7-e3113c7f799a","system_id":"levelo_inurba_marseille","lat":43.293009,"lon":5.374584,"is_reserved":false,"is_disabled":false,"rental_uris":{"android":"levelo://app?vid=f20ebac8-851c-4e23-93e7-e3113c7f799a","ios":"levelo://app?vid=f20ebac8-851c-4e23-93e7-e3113c7f799a"},"vehicle_type_id":"4","last_reported":1706994345,"current_range_meters":11200,"station_id":"ce4bgi12rcd13ifvqb70","pricing_plan_id":"free"},{"bike_id":"49793b17-294e-4d00-8b51-8e2a6dc18fc4","system_id":"levelo_inurba_marseille","lat":43.298764,"lon":5.388973,"is_reserved":false,"is_disabled":false,"rental_uris":{"android":"levelo://app?vid=49793b17-294e-4d00-8b51-8e2a6dc18fc4","ios":"levelo://app?vid=49793b17-294e-4d00-8b51-8e2a6dc18fc4"},"vehicle_type_id":"4","last_reported":1706994345,"current_range_meters":4000,"station_id":"ce4bh392rcd13ifvqdl0","pricing_plan_id":"free"},{"bike_id":"74f2d920-ccf9-4c3b-9cd7-57a24e774103","system_id":"levelo_inurba_marseille","lat":43.293009,"lon":5.374584,"is_reserved":false,"is_disabled":false,"rental_uris":{"android":"levelo://app?vid=74f2d920-ccf9-4c3b-9cd7-57a24e774103","ios":"levelo://app?vid=74f2d920-ccf9-4c3b-9cd7-57a24e774103"},"vehicle_type_id":"4","last_reported":1706994345,"current_range_meters":15600,"station_id":"ce4bgi12rcd13ifvqb70","pricing_plan_id":"free"},{"bike_id":"bcc77671-a74a-432e-8d9a-477e0ddd5ea7","system_id":"levelo_inurba_marseille","lat":43.298764,"lon":5.388973,"is_reserved":false,"is_disabled":false,"rental_uris":{"android":"levelo://app?vid=bcc77671-a74a-432e-8d9a-477e0ddd5ea7","ios":"levelo://app?vid=bcc77671-a74a-432e-8d9a-477e0ddd5ea7"},"vehicle_type_id":"4","last_reported":1706994345,"current_range_meters":23600,"station_id":"ce4bh392rcd13ifvqdl0","pricing_plan_id":"free"},{"bike_id":"d183db44-9f43-496d-aa54-b74013ce8803","system_id":"levelo_inurba_marseille","lat":43.298764,"lon":5.388973,"is_reserved":false,"is_disabled":false,"rental_uris":{"android":"levelo://app?vid=d183db44-9f43-496d-aa54-b74013ce8803","ios":"levelo://app?vid=d183db44-9f43-496d-aa54-b74013ce8803"},"vehicle_type_id":"4","last_reported":1706994345,"current_range_meters":14800,"station_id":"ce4bh392rcd13ifvqdl0","pricing_plan_id":"free"},{"bike_id":"fa4d3da2-6a16-4791-9fa7-756dcde6677b","system_id":"levelo_inurba_marseille","lat":43.291675,"lon":5.371583,"is_reserved":false,"is_disabled":false,"rental_uris":{"android":"levelo://app?vid=fa4d3da2-6a16-4791-9fa7-756dcde6677b","ios":"levelo://app?vid=fa4d3da2-6a16-4791-9fa7-756dcde6677b"},"vehicle_type_id":"4","last_reported":1706994345,"current_range_meters":27200,"station_id":"ce4bha92rcd13ifvqeh0","pricing_plan_id":"free"},{"bike_id":"4c8982e9-a056-466d-b0fe-bf3661d7ce7c","system_id":"levelo_inurba_marseille","lat":43.2936,"lon":5.37835,"is_reserved":false,"is_disabled":false,"rental_uris":{"android":"levelo://app?vid=4c8982e9-a056-466d-b0fe-bf3661d7ce7c","ios":"levelo://app?vid=4c8982e9-a056-466d-b0fe-bf3661d7ce7c"},"vehicle_type_id":"4","last_reported":1706994345,"current_range_meters":23600,"station_id":"ce4bgjh2rcd13ifvqbf0","pricing_plan_id":"free"},{"bike_id":"09f74dfb-6171-4296-997d-df467c54af6d","system_id":"levelo_inurba_marseille","lat":43.29541,"lon":5.38544,"is_reserved":false,"is_disabled":false,"rental_uris":{"android":"levelo://app?vid=09f74dfb-6171-4296-997d-df467c54af6d","ios":"levelo://app?vid=09f74dfb-6171-4296-997d-df467c54af6d"},"vehicle_type_id":"4","last_reported":1706994345,"current_range_meters":3600,"station_id":"ce4bgih2rcd13ifvqba0","pricing_plan_id":"free"},{"bike_id":"7b364ced-c775-48d8-8c31-508189967e7a","system_id":"levelo_inurba_marseille","lat":43.29529,"lon":5.385581,"is_reserved":false,"is_disabled":false,"rental_uris":{"android":"levelo://app?vid=7b364ced-c775-48d8-8c31-508189967e7a","ios":"levelo://app?vid=7b364ced-c775-48d8-8c31-508189967e7a"},"vehicle_type_id":"4","last_reported":1706994345,"current_range_meters":25200,"station_id":"ce4bgih2rcd13ifvqba0","pricing_plan_id":"free"},{"bike_id":"7a8390f0-53de-458f-8f00-2db9ea67597d","system_id":"levelo_inurba_marseille","lat":43.29538,"lon":5.38542,"is_reserved":false,"is_disabled":false,"rental_uris":{"android":"levelo://app?vid=7a8390f0-53de-458f-8f00-2db9ea67597d","ios":"levelo://app?vid=7a8390f0-53de-458f-8f00-2db9ea67597d"},"vehicle_type_id":"4","last_reported":1706994345,"current_range_meters":0,"station_id":"ce4bgih2rcd13ifvqba0","pricing_plan_id":"free"},{"bike_id":"a74bd65e-c6eb-45e6-afa4-6b8187ce442d","system_id":"levelo_inurba_marseille","lat":43.29529,"lon":5.385581,"is_reserved":false,"is_disabled":false,"rental_uris":{"android":"levelo://app?vid=a74bd65e-c6eb-45e6-afa4-6b8187ce442d","ios":"levelo://app?vid=a74bd65e-c6eb-45e6-afa4-6b8187ce442d"},"vehicle_type_id":"4","last_reported":1706994345,"current_range_meters":5600,"station_id":"ce4bgih2rcd13ifvqba0","pricing_plan_id":"free"},{"bike_id":"d0912c8c-fc4a-44f6-b3b0-e65ebb7d30f0","system_id":"levelo_inurba_marseille","lat":43.29529,"lon":5.385581,"is_reserved":false,"is_disabled":false,"rental_uris":{"android":"levelo://app?vid=d0912c8c-fc4a-44f6-b3b0-e65ebb7d30f0","ios":"levelo://app?vid=d0912c8c-fc4a-44f6-b3b0-e65ebb7d30f0"},"vehicle_type_id":"4","last_reported":1706994345,"current_range_meters":12000,"station_id":"ce4bgih2rcd13ifvqba0","pricing_plan_id":"free"},{"bike_id":"4eccf977-b3b8-48ac-8463-2ab595d9b96a","system_id":"levelo_inurba_marseille","lat":43.29536,"lon":5.38545,"is_reserved":false,"is_disabled":false,"rental_uris":{"android":"levelo://app?vid=4eccf977-b3b8-48ac-8463-2ab595d9b96a","ios":"levelo://app?vid=4eccf977-b3b8-48ac-8463-2ab595d9b96a"},"vehicle_type_id":"4","last_reported":1706994345,"current_range_meters":28800,"station_id":"ce4bgih2rcd13ifvqba0","pricing_plan_id":"free"},{"bike_id":"ab8ddc13-55d8-4d59-8a4c-f3ea04742a12","system_id":"levelo_inurba_marseille","lat":43.29529,"lon":5.385581,"is_reserved":false,"is_disabled":false,"rental_uris":{"android":"levelo://app?vid=ab8ddc13-55d8-4d59-8a4c-f3ea04742a12","ios":"levelo://app?vid=ab8ddc13-55d8-4d59-8a4c-f3ea04742a12"},"vehicle_type_id":"4","last_reported":1706994345,"current_range_meters":0,"station_id":"ce4bgih2rcd13ifvqba0","pricing_plan_id":"free"},{"bike_id":"31721019-c595-405f-84a5-8c32dfbedc9f","system_id":"levelo_inurba_marseille","lat":43.29533,"lon":5.3854,"is_reserved":false,"is_disabled":false,"rental_uris":{"android":"levelo://app?vid=31721019-c595-405f-84a5-8c32dfbedc9f","ios":"levelo://app?vid=31721019-c595-405f-84a5-8c32dfbedc9f"},"vehicle_type_id":"4","last_reported":1706994345,"current_range_meters":21200,"station_id":"ce4bgih2rcd13ifvqba0","pricing_plan_id":"free"},{"bike_id":"176d7b75-3970-4429-9d06-3be7dccaf730","system_id":"levelo_inurba_marseille","lat":43.29529,"lon":5.385581,"is_reserved":false,"is_disabled":false,"rental_uris":{"android":"levelo://app?vid=176d7b75-3970-4429-9d06-3be7dccaf730","ios":"levelo://app?vid=176d7b75-3970-4429-9d06-3be7dccaf730"},"vehicle_type_id":"4","last_reported":1706994345,"current_range_meters":400,"station_id":"ce4bgih2rcd13ifvqba0","pricing_plan_id":"free"},{"bike_id":"89c02aec-6259-4c1c-a08e-2fa151b567ae","system_id":"levelo_inurba_marseille","lat":43.29529,"lon":5.385581,"is_reserved":false,"is_disabled":false,"rental_uris":{"android":"levelo://app?vid=89c02aec-6259-4c1c-a08e-2fa151b567ae","ios":"levelo://app?vid=89c02aec-6259-4c1c-a08e-2fa151b567ae"},"vehicle_type_id":"4","last_reported":1706994345,"current_range_meters":2400,"station_id":"ce4bgih2rcd13ifvqba0","pricing_plan_id":"free"},{"bike_id":"7343c16a-fe69-4304-a61c-787ef2101b73","system_id":"levelo_inurba_marseille","lat":43.29529,"lon":5.385581,"is_reserved":false,"is_disabled":false,"rental_uris":{"android":"levelo://app?vid=7343c16a-fe69-4304-a61c-787ef2101b73","ios":"levelo://app?vid=7343c16a-fe69-4304-a61c-787ef2101b73"},"vehicle_type_id":"4","last_reported":1706994345,"current_range_meters":0,"station_id":"ce4bgih2rcd13ifvqba0","pricing_plan_id":"free"},{"bike_id":"a99648ad-b555-4a3c-9e95-1d1a1ee13292","system_id":"levelo_inurba_marseille","lat":43.29529,"lon":5.385581,"is_reserved":false,"is_disabled":false,"rental_uris":{"android":"levelo://app?vid=a99648ad-b555-4a3c-9e95-1d1a1ee13292","ios":"levelo://app?vid=a99648ad-b555-4a3c-9e95-1d1a1ee13292"},"vehicle_type_id":"4","last_reported":1706994345,"current_range_meters":7600,"station_id":"ce4bgih2rcd13ifvqba0","pricing_plan_id":"free"},{"bike_id":"b419e424-22b8-44a1-be74-4eea51d4beef","system_id":"levelo_inurba_marseille","lat":43.29529,"lon":5.385581,"is_reserved":false,"is_disabled":false,"rental_uris":{"android":"levelo://app?vid=b419e424-22b8-44a1-be74-4eea51d4beef","ios":"levelo://app?vid=b419e424-22b8-44a1-be74-4eea51d4beef"},"vehicle_type_id":"4","last_reported":1706994345,"current_range_meters":10000,"station_id":"ce4bgih2rcd13ifvqba0","pricing_plan_id":"free"},{"bike_id":"283917dc-24b1-4590-889d-489b3433ba59","system_id":"levelo_inurba_marseille","lat":43.29529,"lon":5.385581,"is_reserved":false,"is_disabled":false,"rental_uris":{"android":"levelo://app?vid=283917dc-24b1-4590-889d-489b3433ba59","ios":"levelo://app?vid=283917dc-24b1-4590-889d-489b3433ba59"},"vehicle_type_id":"4","last_reported":1706994345,"current_range_meters":1600,"station_id":"ce4bgih2rcd13ifvqba0","pricing_plan_id":"free"},{"bike_id":"07e76bd0-05a4-4ac7-91ce-a5223c00e267","system_id":"levelo_inurba_marseille","lat":43.29529,"lon":5.385581,"is_reserved":false,"is_disabled":false,"rental_uris":{"android":"levelo://app?vid=07e76bd0-05a4-4ac7-91ce-a5223c00e267","ios":"levelo://app?vid=07e76bd0-05a4-4ac7-91ce-a5223c00e267"},"vehicle_type_id":"4","last_reported":1706994345,"current_range_meters":30400,"station_id":"ce4bgih2rcd13ifvqba0","pricing_plan_id":"free"},{"bike_id":"a1a9a077-3678-4c11-a2ce-095917fb7f22","system_id":"levelo_inurba_marseille","lat":43.29529,"lon":5.385581,"is_reserved":false,"is_disabled":false,"rental_uris":{"android":"levelo://app?vid=a1a9a077-3678-4c11-a2ce-095917fb7f22","ios":"levelo://app?vid=a1a9a077-3678-4c11-a2ce-095917fb7f22"},"vehicle_type_id":"4","last_reported":1706994345,"current_range_meters":20400,"station_id":"ce4bgih2rcd13ifvqba0","pricing_plan_id":"free"},{"bike_id":"c05e9543-37b6-4b5c-8a4d-f0be0f039227","system_id":"levelo_inurba_marseille","lat":43.289307,"lon":5.38406,"is_reserved":false,"is_disabled":false,"rental_uris":{"android":"levelo://app?vid=c05e9543-37b6-4b5c-8a4d-f0be0f039227","ios":"levelo://app?vid=c05e9543-37b6-4b5c-8a4d-f0be0f039227"},"vehicle_type_id":"4","last_reported":1706994345,"current_range_meters":29200,"station_id":"ce4bh612rcd13ifvqe6g","pricing_plan_id":"free"},{"bike_id":"86cb381e-c41a-41ed-a558-29d64916ba4b","system_id":"levelo_inurba_marseille","lat":43.302008,"lon":5.394694,"is_reserved":false,"is_disabled":false,"rental_uris":{"android":"levelo://app?vid=86cb381e-c41a-41ed-a558-29d64916ba4b","ios":"levelo://app?vid=86cb381e-c41a-41ed-a558-29d64916ba4b"},"vehicle_type_id":"4","last_reported":1706994345,"current_range_meters":1600,"station_id":"ce4bh0p2rcd13ifvqd70","pricing_plan_id":"free"},{"bike_id":"9ad8414e-0408-4d32-ae90-b2b5dbe60e96","system_id":"levelo_inurba_marseille","lat":43.302008,"lon":5.394694,"is_reserved":false,"is_disabled":false,"rental_uris":{"android":"levelo://app?vid=9ad8414e-0408-4d32-ae90-b2b5dbe60e96","ios":"levelo://app?vid=9ad8414e-0408-4d32-ae90-b2b5dbe60e96"},"vehicle_type_id":"4","last_reported":1706994345,"current_range_meters":28400,"station_id":"ce4bh0p2rcd13ifvqd70","pricing_plan_id":"free"},{"bike_id":"c4798468-a078-4c17-a145-95c8a6977241","system_id":"levelo_inurba_marseille","lat":43.290631,"lon":5.359244,"is_reserved":false,"is_disabled":false,"rental_uris":{"android":"levelo://app?vid=c4798468-a078-4c17-a145-95c8a6977241","ios":"levelo://app?vid=c4798468-a078-4c17-a145-95c8a6977241"},"vehicle_type_id":"4","last_reported":1706994345,"current_range_meters":27600,"station_id":"ce4bha92rcd13ifvqeg0","pricing_plan_id":"free"},{"bike_id":"02a39fd0-5de0-434f-bd36-bc28f49d8a49","system_id":"levelo_inurba_marseille","lat":43.30216,"lon":5.39473,"is_reserved":false,"is_disabled":false,"rental_uris":{"android":"levelo://app?vid=02a39fd0-5de0-434f-bd36-bc28f49d8a49","ios":"levelo://app?vid=02a39fd0-5de0-434f-bd36-bc28f49d8a49"},"vehicle_type_id":"4","last_reported":1706994345,"current_range_meters":0,"station_id":"ce4bh0p2rcd13ifvqd70","pricing_plan_id":"free"},{"bike_id":"accef661-0fc8-46f5-8498-194658a1b481","system_id":"levelo_inurba_marseille","lat":43.3021,"lon":5.39473,"is_reserved":false,"is_disabled":false,"rental_uris":{"android":"levelo://app?vid=accef661-0fc8-46f5-8498-194658a1b481","ios":"levelo://app?vid=accef661-0fc8-46f5-8498-194658a1b481"},"vehicle_type_id":"4","last_reported":1706994345,"current_range_meters":8400,"station_id":"ce4bh0p2rcd13ifvqd70","pricing_plan_id":"free"},{"bike_id":"ec66700f-687c-40bb-beb3-439e94f189d1","system_id":"levelo_inurba_marseille","lat":43.302008,"lon":5.394694,"is_reserved":false,"is_disabled":false,"rental_uris":{"android":"levelo://app?vid=ec66700f-687c-40bb-beb3-439e94f189d1","ios":"levelo://app?vid=ec66700f-687c-40bb-beb3-439e94f189d1"},"vehicle_type_id":"4","last_reported":1706994345,"current_range_meters":0,"station_id":"ce4bh0p2rcd13ifvqd70","pricing_plan_id":"free"},{"bike_id":"7c755874-04f4-49a7-881c-3dccfea2f0df","system_id":"levelo_inurba_marseille","lat":43.290441,"lon":5.359123,"is_reserved":false,"is_disabled":false,"rental_uris":{"android":"levelo://app?vid=7c755874-04f4-49a7-881c-3dccfea2f0df","ios":"levelo://app?vid=7c755874-04f4-49a7-881c-3dccfea2f0df"},"vehicle_type_id":"4","last_reported":1706994345,"current_range_meters":1200,"station_id":"","pricing_plan_id":"free"},{"bike_id":"8243b683-e2bf-4de0-8f7e-ad7e6c26283d","system_id":"levelo_inurba_marseille","lat":43.29426,"lon":5.38616,"is_reserved":false,"is_disabled":false,"rental_uris":{"android":"levelo://app?vid=8243b683-e2bf-4de0-8f7e-ad7e6c26283d","ios":"levelo://app?vid=8243b683-e2bf-4de0-8f7e-ad7e6c26283d"},"vehicle_type_id":"4","last_reported":1706994345,"current_range_meters":3600,"station_id":"ce4bh2h2rcd13ifvqdh0","pricing_plan_id":"free"},{"bike_id":"ebf272b7-1cff-4c06-a4bd-8bc535caa77b","system_id":"levelo_inurba_marseille","lat":43.29427,"lon":5.3862,"is_reserved":false,"is_disabled":false,"rental_uris":{"android":"levelo://app?vid=ebf272b7-1cff-4c06-a4bd-8bc535caa77b","ios":"levelo://app?vid=ebf272b7-1cff-4c06-a4bd-8bc535caa77b"},"vehicle_type_id":"4","last_reported":1706994345,"current_range_meters":7200,"station_id":"ce4bh2h2rcd13ifvqdh0","pricing_plan_id":"free"},{"bike_id":"4b922d65-da28-43ff-8566-e7a2faaec821","system_id":"levelo_inurba_marseille","lat":43.29425,"lon":5.38617,"is_reserved":false,"is_disabled":false,"rental_uris":{"android":"levelo://app?vid=4b922d65-da28-43ff-8566-e7a2faaec821","ios":"levelo://app?vid=4b922d65-da28-43ff-8566-e7a2faaec821"},"vehicle_type_id":"4","last_reported":1706994345,"current_range_meters":9200,"station_id":"ce4bh2h2rcd13ifvqdh0","pricing_plan_id":"free"},{"bike_id":"cc40d126-1142-4763-a12d-55dafbcd3ad0","system_id":"levelo_inurba_marseille","lat":43.29422,"lon":5.3862,"is_reserved":false,"is_disabled":false,"rental_uris":{"android":"levelo://app?vid=cc40d126-1142-4763-a12d-55dafbcd3ad0","ios":"levelo://app?vid=cc40d126-1142-4763-a12d-55dafbcd3ad0"},"vehicle_type_id":"4","last_reported":1706994345,"current_range_meters":25600,"station_id":"ce4bh2h2rcd13ifvqdh0","pricing_plan_id":"free"},{"bike_id":"2f2c004b-d174-47a3-a02e-153d0f7f6ae9","system_id":"levelo_inurba_marseille","lat":43.29426,"lon":5.38629,"is_reserved":false,"is_disabled":false,"rental_uris":{"android":"levelo://app?vid=2f2c004b-d174-47a3-a02e-153d0f7f6ae9","ios":"levelo://app?vid=2f2c004b-d174-47a3-a02e-153d0f7f6ae9"},"vehicle_type_id":"4","last_reported":1706994345,"current_range_meters":17600,"station_id":"ce4bh2h2rcd13ifvqdh0","pricing_plan_id":"free"},{"bike_id":"1ef796cc-5886-4f6d-9af8-5c6417fcf41e","system_id":"levelo_inurba_marseille","lat":43.29421,"lon":5.386206,"is_reserved":false,"is_disabled":false,"rental_uris":{"android":"levelo://app?vid=1ef796cc-5886-4f6d-9af8-5c6417fcf41e","ios":"levelo://app?vid=1ef796cc-5886-4f6d-9af8-5c6417fcf41e"},"vehicle_type_id":"4","last_reported":1706994345,"current_range_meters":27200,"station_id":"ce4bh2h2rcd13ifvqdh0","pricing_plan_id":"free"},{"bike_id":"8ea5725e-f694-4591-8b09-bdf71cc64971","system_id":"levelo_inurba_marseille","lat":43.29424,"lon":5.38628,"is_reserved":false,"is_disabled":false,"rental_uris":{"android":"levelo://app?vid=8ea5725e-f694-4591-8b09-bdf71cc64971","ios":"levelo://app?vid=8ea5725e-f694-4591-8b09-bdf71cc64971"},"vehicle_type_id":"4","last_reported":1706994345,"current_range_meters":20000,"station_id":"ce4bh2h2rcd13ifvqdh0","pricing_plan_id":"free"},{"bike_id":"5d1ed8d8-9e1e-4a03-896f-e1df5d3ce110","system_id":"levelo_inurba_marseille","lat":43.2942,"lon":5.38622,"is_reserved":false,"is_disabled":false,"rental_uris":{"android":"levelo://app?vid=5d1ed8d8-9e1e-4a03-896f-e1df5d3ce110","ios":"levelo://app?vid=5d1ed8d8-9e1e-4a03-896f-e1df5d3ce110"},"vehicle_type_id":"4","last_reported":1706994345,"current_range_meters":4000,"station_id":"ce4bh2h2rcd13ifvqdh0","pricing_plan_id":"free"},{"bike_id":"5487031a-2a84-46e0-b610-f4bfd6922271","system_id":"levelo_inurba_marseille","lat":43.294173,"lon":5.38618,"is_reserved":false,"is_disabled":false,"rental_uris":{"android":"levelo://app?vid=5487031a-2a84-46e0-b610-f4bfd6922271","ios":"levelo://app?vid=5487031a-2a84-46e0-b610-f4bfd6922271"},"vehicle_type_id":"4","last_reported":1706994345,"current_range_meters":14000,"station_id":"ce4bh2h2rcd13ifvqdh0","pricing_plan_id":"free"},{"bike_id":"dc84bcd3-8cd6-4f1c-a8e9-158f2664e737","system_id":"levelo_inurba_marseille","lat":43.29422,"lon":5.38628,"is_reserved":false,"is_disabled":false,"rental_uris":{"android":"levelo://app?vid=dc84bcd3-8cd6-4f1c-a8e9-158f2664e737","ios":"levelo://app?vid=dc84bcd3-8cd6-4f1c-a8e9-158f2664e737"},"vehicle_type_id":"4","last_reported":1706994345,"current_range_meters":3600,"station_id":"ce4bh2h2rcd13ifvqdh0","pricing_plan_id":"free"},{"bike_id":"660f72ce-789f-4948-80f7-770c8ef78ce7","system_id":"levelo_inurba_marseille","lat":43.2942,"lon":5.38625,"is_reserved":false,"is_disabled":false,"rental_uris":{"android":"levelo://app?vid=660f72ce-789f-4948-80f7-770c8ef78ce7","ios":"levelo://app?vid=660f72ce-789f-4948-80f7-770c8ef78ce7"},"vehicle_type_id":"4","last_reported":1706994345,"current_range_meters":24000,"station_id":"ce4bh2h2rcd13ifvqdh0","pricing_plan_id":"free"},{"bike_id":"2e0ca400-2d0c-4bbf-95b6-9290c083d3c1","system_id":"levelo_inurba_marseille","lat":43.29417,"lon":5.38623,"is_reserved":false,"is_disabled":false,"rental_uris":{"android":"levelo://app?vid=2e0ca400-2d0c-4bbf-95b6-9290c083d3c1","ios":"levelo://app?vid=2e0ca400-2d0c-4bbf-95b6-9290c083d3c1"},"vehicle_type_id":"4","last_reported":1706994345,"current_range_meters":15200,"station_id":"ce4bh2h2rcd13ifvqdh0","pricing_plan_id":"free"},{"bike_id":"1a02061d-9da2-41db-947a-db71348b5675","system_id":"levelo_inurba_marseille","lat":43.29414,"lon":5.38618,"is_reserved":false,"is_disabled":false,"rental_uris":{"android":"levelo://app?vid=1a02061d-9da2-41db-947a-db71348b5675","ios":"levelo://app?vid=1a02061d-9da2-41db-947a-db71348b5675"},"vehicle_type_id":"4","last_reported":1706994345,"current_range_meters":15600,"station_id":"ce4bh2h2rcd13ifvqdh0","pricing_plan_id":"free"},{"bike_id":"1df83f75-787a-4bd5-9532-598b4a173ab6","system_id":"levelo_inurba_marseille","lat":43.29418,"lon":5.38626,"is_reserved":false,"is_disabled":false,"rental_uris":{"android":"levelo://app?vid=1df83f75-787a-4bd5-9532-598b4a173ab6","ios":"levelo://app?vid=1df83f75-787a-4bd5-9532-598b4a173ab6"},"vehicle_type_id":"4","last_reported":1706994345,"current_range_meters":7600,"station_id":"ce4bh2h2rcd13ifvqdh0","pricing_plan_id":"free"},{"bike_id":"fb513d5c-4ac7-44de-8998-fc9bd9635ac6","system_id":"levelo_inurba_marseille","lat":43.289184,"lon":5.366408,"is_reserved":false,"is_disabled":false,"rental_uris":{"android":"levelo://app?vid=fb513d5c-4ac7-44de-8998-fc9bd9635ac6","ios":"levelo://app?vid=fb513d5c-4ac7-44de-8998-fc9bd9635ac6"},"vehicle_type_id":"4","last_reported":1706994345,"current_range_meters":20400,"station_id":"ce4bhap2rcd13ifvqek0","pricing_plan_id":"free"},{"bike_id":"a05ed984-489a-47db-82d1-e1760450fef8","system_id":"levelo_inurba_marseille","lat":43.29416,"lon":5.38626,"is_reserved":false,"is_disabled":false,"rental_uris":{"android":"levelo://app?vid=a05ed984-489a-47db-82d1-e1760450fef8","ios":"levelo://app?vid=a05ed984-489a-47db-82d1-e1760450fef8"},"vehicle_type_id":"4","last_reported":1706994345,"current_range_meters":9600,"station_id":"ce4bh2h2rcd13ifvqdh0","pricing_plan_id":"free"},{"bike_id":"de40eb8c-9ad8-44c7-88ed-a36f83e9d2cd","system_id":"levelo_inurba_marseille","lat":43.29416,"lon":5.38626,"is_reserved":false,"is_disabled":false,"rental_uris":{"android":"levelo://app?vid=de40eb8c-9ad8-44c7-88ed-a36f83e9d2cd","ios":"levelo://app?vid=de40eb8c-9ad8-44c7-88ed-a36f83e9d2cd"},"vehicle_type_id":"4","last_reported":1706994345,"current_range_meters":23200,"station_id":"ce4bh2h2rcd13ifvqdh0","pricing_plan_id":"free"},{"bike_id":"e39ad106-7e92-40ab-a605-77080dfb0486","system_id":"levelo_inurba_marseille","lat":43.289468,"lon":5.363719,"is_reserved":false,"is_disabled":false,"rental_uris":{"android":"levelo://app?vid=e39ad106-7e92-40ab-a605-77080dfb0486","ios":"levelo://app?vid=e39ad106-7e92-40ab-a605-77080dfb0486"},"vehicle_type_id":"4","last_reported":1706994345,"current_range_meters":5600,"station_id":"ce4bhc92rcd13ifvqetg","pricing_plan_id":"free"},{"bike_id":"f7a565cb-a2d5-43a1-bee7-37efa3e6f4cb","system_id":"levelo_inurba_marseille","lat":43.289184,"lon":5.366408,"is_reserved":false,"is_disabled":false,"rental_uris":{"android":"levelo://app?vid=f7a565cb-a2d5-43a1-bee7-37efa3e6f4cb","ios":"levelo://app?vid=f7a565cb-a2d5-43a1-bee7-37efa3e6f4cb"},"vehicle_type_id":"4","last_reported":1706994345,"current_range_meters":31600,"station_id":"ce4bhap2rcd13ifvqek0","pricing_plan_id":"free"},{"bike_id":"c2e52dd0-2c31-4941-a9ad-8b4da2daea66","system_id":"levelo_inurba_marseille","lat":43.2941,"lon":5.38629,"is_reserved":false,"is_disabled":false,"rental_uris":{"android":"levelo://app?vid=c2e52dd0-2c31-4941-a9ad-8b4da2daea66","ios":"levelo://app?vid=c2e52dd0-2c31-4941-a9ad-8b4da2daea66"},"vehicle_type_id":"4","last_reported":1706994345,"current_range_meters":15600,"station_id":"ce4bh2h2rcd13ifvqdh0","pricing_plan_id":"free"},{"bike_id":"f9c0f016-f38a-412e-b18d-a3d41f296c94","system_id":"levelo_inurba_marseille","lat":43.289184,"lon":5.366408,"is_reserved":false,"is_disabled":false,"rental_uris":{"android":"levelo://app?vid=f9c0f016-f38a-412e-b18d-a3d41f296c94","ios":"levelo://app?vid=f9c0f016-f38a-412e-b18d-a3d41f296c94"},"vehicle_type_id":"4","last_reported":1706994345,"current_range_meters":11600,"station_id":"ce4bhap2rcd13ifvqek0","pricing_plan_id":"free"},{"bike_id":"2a09a33d-d5eb-443f-a660-33c05bc1bb9e","system_id":"levelo_inurba_marseille","lat":43.289184,"lon":5.366408,"is_reserved":false,"is_disabled":false,"rental_uris":{"android":"levelo://app?vid=2a09a33d-d5eb-443f-a660-33c05bc1bb9e","ios":"levelo://app?vid=2a09a33d-d5eb-443f-a660-33c05bc1bb9e"},"vehicle_type_id":"4","last_reported":1706994345,"current_range_meters":19600,"station_id":"ce4bhap2rcd13ifvqek0","pricing_plan_id":"free"},{"bike_id":"90615a0e-770e-4983-8ffd-cacdd2df2ec2","system_id":"levelo_inurba_marseille","lat":43.289468,"lon":5.363719,"is_reserved":false,"is_disabled":false,"rental_uris":{"android":"levelo://app?vid=90615a0e-770e-4983-8ffd-cacdd2df2ec2","ios":"levelo://app?vid=90615a0e-770e-4983-8ffd-cacdd2df2ec2"},"vehicle_type_id":"4","last_reported":1706994345,"current_range_meters":0,"station_id":"ce4bhc92rcd13ifvqetg","pricing_plan_id":"free"},{"bike_id":"a44fd258-c0b9-4768-ba2f-9a57ed298d7a","system_id":"levelo_inurba_marseille","lat":43.292642,"lon":5.384254,"is_reserved":false,"is_disabled":false,"rental_uris":{"android":"levelo://app?vid=a44fd258-c0b9-4768-ba2f-9a57ed298d7a","ios":"levelo://app?vid=a44fd258-c0b9-4768-ba2f-9a57ed298d7a"},"vehicle_type_id":"4","last_reported":1706994345,"current_range_meters":25200,"station_id":"ce4bh692rcd13ifvqea0","pricing_plan_id":"free"},{"bike_id":"72ae8e4d-e832-4ee3-99f5-f9f32284e4c0","system_id":"levelo_inurba_marseille","lat":43.2927,"lon":5.38441,"is_reserved":false,"is_disabled":false,"rental_uris":{"android":"levelo://app?vid=72ae8e4d-e832-4ee3-99f5-f9f32284e4c0","ios":"levelo://app?vid=72ae8e4d-e832-4ee3-99f5-f9f32284e4c0"},"vehicle_type_id":"4","last_reported":1706994345,"current_range_meters":15200,"station_id":"ce4bh692rcd13ifvqea0","pricing_plan_id":"free"},{"bike_id":"c962390a-2bc9-49d9-a368-b54515269491","system_id":"levelo_inurba_marseille","lat":43.292642,"lon":5.384254,"is_reserved":false,"is_disabled":false,"rental_uris":{"android":"levelo://app?vid=c962390a-2bc9-49d9-a368-b54515269491","ios":"levelo://app?vid=c962390a-2bc9-49d9-a368-b54515269491"},"vehicle_type_id":"4","last_reported":1706994345,"current_range_meters":10400,"station_id":"ce4bh692rcd13ifvqea0","pricing_plan_id":"free"},{"bike_id":"22ab2ae5-b3f8-408d-9819-aa1f34eaeaf7","system_id":"levelo_inurba_marseille","lat":43.292685,"lon":5.384405,"is_reserved":false,"is_disabled":false,"rental_uris":{"android":"levelo://app?vid=22ab2ae5-b3f8-408d-9819-aa1f34eaeaf7","ios":"levelo://app?vid=22ab2ae5-b3f8-408d-9819-aa1f34eaeaf7"},"vehicle_type_id":"4","last_reported":1706994345,"current_range_meters":0,"station_id":"ce4bh692rcd13ifvqea0","pricing_plan_id":"free"},{"bike_id":"d58c80d0-1ba8-45e2-ac7f-27bc719c3e32","system_id":"levelo_inurba_marseille","lat":43.292671,"lon":5.384391,"is_reserved":false,"is_disabled":false,"rental_uris":{"android":"levelo://app?vid=d58c80d0-1ba8-45e2-ac7f-27bc719c3e32","ios":"levelo://app?vid=d58c80d0-1ba8-45e2-ac7f-27bc719c3e32"},"vehicle_type_id":"4","last_reported":1706994345,"current_range_meters":6800,"station_id":"ce4bh692rcd13ifvqea0","pricing_plan_id":"free"},{"bike_id":"fcb3f6b4-6384-4aeb-abe6-befa04f95874","system_id":"levelo_inurba_marseille","lat":43.29267,"lon":5.3844,"is_reserved":false,"is_disabled":false,"rental_uris":{"android":"levelo://app?vid=fcb3f6b4-6384-4aeb-abe6-befa04f95874","ios":"levelo://app?vid=fcb3f6b4-6384-4aeb-abe6-befa04f95874"},"vehicle_type_id":"4","last_reported":1706994345,"current_range_meters":18000,"station_id":"ce4bh692rcd13ifvqea0","pricing_plan_id":"free"},{"bike_id":"d9bf2a45-4eea-46cb-ba90-89d977e571aa","system_id":"levelo_inurba_marseille","lat":43.292642,"lon":5.384254,"is_reserved":false,"is_disabled":false,"rental_uris":{"android":"levelo://app?vid=d9bf2a45-4eea-46cb-ba90-89d977e571aa","ios":"levelo://app?vid=d9bf2a45-4eea-46cb-ba90-89d977e571aa"},"vehicle_type_id":"4","last_reported":1706994345,"current_range_meters":20000,"station_id":"ce4bh692rcd13ifvqea0","pricing_plan_id":"free"},{"bike_id":"954f85cf-6591-4540-b493-92c1f830e4fe","system_id":"levelo_inurba_marseille","lat":43.29262,"lon":5.3843,"is_reserved":false,"is_disabled":false,"rental_uris":{"android":"levelo://app?vid=954f85cf-6591-4540-b493-92c1f830e4fe","ios":"levelo://app?vid=954f85cf-6591-4540-b493-92c1f830e4fe"},"vehicle_type_id":"4","last_reported":1706994345,"current_range_meters":4000,"station_id":"ce4bh692rcd13ifvqea0","pricing_plan_id":"free"},{"bike_id":"3ec79603-f20c-4f51-a833-f132ef4b68d1","system_id":"levelo_inurba_marseille","lat":43.29272,"lon":5.38453,"is_reserved":false,"is_disabled":false,"rental_uris":{"android":"levelo://app?vid=3ec79603-f20c-4f51-a833-f132ef4b68d1","ios":"levelo://app?vid=3ec79603-f20c-4f51-a833-f132ef4b68d1"},"vehicle_type_id":"4","last_reported":1706994345,"current_range_meters":4400,"station_id":"ce4bh692rcd13ifvqea0","pricing_plan_id":"free"},{"bike_id":"52fa2a2d-9a40-4417-89d6-99d84be2536a","system_id":"levelo_inurba_marseille","lat":43.292642,"lon":5.384254,"is_reserved":false,"is_disabled":false,"rental_uris":{"android":"levelo://app?vid=52fa2a2d-9a40-4417-89d6-99d84be2536a","ios":"levelo://app?vid=52fa2a2d-9a40-4417-89d6-99d84be2536a"},"vehicle_type_id":"4","last_reported":1706994345,"current_range_meters":30800,"station_id":"ce4bh692rcd13ifvqea0","pricing_plan_id":"free"},{"bike_id":"a551f69f-23c2-403e-a4eb-1c90f13a2a3e","system_id":"levelo_inurba_marseille","lat":43.29258,"lon":5.38425,"is_reserved":false,"is_disabled":false,"rental_uris":{"android":"levelo://app?vid=a551f69f-23c2-403e-a4eb-1c90f13a2a3e","ios":"levelo://app?vid=a551f69f-23c2-403e-a4eb-1c90f13a2a3e"},"vehicle_type_id":"4","last_reported":1706994345,"current_range_meters":16000,"station_id":"ce4bh692rcd13ifvqea0","pricing_plan_id":"free"},{"bike_id":"40b4fb63-95b1-439d-b965-b05f612ee7aa","system_id":"levelo_inurba_marseille","lat":43.292642,"lon":5.384254,"is_reserved":false,"is_disabled":false,"rental_uris":{"android":"levelo://app?vid=40b4fb63-95b1-439d-b965-b05f612ee7aa","ios":"levelo://app?vid=40b4fb63-95b1-439d-b965-b05f612ee7aa"},"vehicle_type_id":"4","last_reported":1706994345,"current_range_meters":15600,"station_id":"ce4bh692rcd13ifvqea0","pricing_plan_id":"free"},{"bike_id":"066862ef-ec48-469d-a3d1-76111dc51716","system_id":"levelo_inurba_marseille","lat":43.292659,"lon":5.384476,"is_reserved":false,"is_disabled":false,"rental_uris":{"android":"levelo://app?vid=066862ef-ec48-469d-a3d1-76111dc51716","ios":"levelo://app?vid=066862ef-ec48-469d-a3d1-76111dc51716"},"vehicle_type_id":"4","last_reported":1706994345,"current_range_meters":15200,"station_id":"ce4bh692rcd13ifvqea0","pricing_plan_id":"free"},{"bike_id":"bc502e62-2d7d-4c4b-a3a9-36d44edb3f67","system_id":"levelo_inurba_marseille","lat":43.292671,"lon":5.384506,"is_reserved":false,"is_disabled":false,"rental_uris":{"android":"levelo://app?vid=bc502e62-2d7d-4c4b-a3a9-36d44edb3f67","ios":"levelo://app?vid=bc502e62-2d7d-4c4b-a3a9-36d44edb3f67"},"vehicle_type_id":"4","last_reported":1706994345,"current_range_meters":20000,"station_id":"ce4bh692rcd13ifvqea0","pricing_plan_id":"free"},{"bike_id":"70c62f34-e180-4888-8470-506a8bd331c8","system_id":"levelo_inurba_marseille","lat":43.29257,"lon":5.38431,"is_reserved":false,"is_disabled":false,"rental_uris":{"android":"levelo://app?vid=70c62f34-e180-4888-8470-506a8bd331c8","ios":"levelo://app?vid=70c62f34-e180-4888-8470-506a8bd331c8"},"vehicle_type_id":"4","last_reported":1706994345,"current_range_meters":0,"station_id":"ce4bh692rcd13ifvqea0","pricing_plan_id":"free"},{"bike_id":"fbfc43e4-be8d-4ccf-af14-f13566906234","system_id":"levelo_inurba_marseille","lat":43.292642,"lon":5.384254,"is_reserved":false,"is_disabled":false,"rental_uris":{"android":"levelo://app?vid=fbfc43e4-be8d-4ccf-af14-f13566906234","ios":"levelo://app?vid=fbfc43e4-be8d-4ccf-af14-f13566906234"},"vehicle_type_id":"4","last_reported":1706994345,"current_range_meters":26800,"station_id":"ce4bh692rcd13ifvqea0","pricing_plan_id":"free"},{"bike_id":"06824ab9-6011-449a-8c6b-6d4569ca9bf3","system_id":"levelo_inurba_marseille","lat":43.29267,"lon":5.384533,"is_reserved":false,"is_disabled":false,"rental_uris":{"android":"levelo://app?vid=06824ab9-6011-449a-8c6b-6d4569ca9bf3","ios":"levelo://app?vid=06824ab9-6011-449a-8c6b-6d4569ca9bf3"},"vehicle_type_id":"4","last_reported":1706994345,"current_range_meters":13200,"station_id":"ce4bh692rcd13ifvqea0","pricing_plan_id":"free"},{"bike_id":"25baae67-9728-46a3-b27a-9efd2cb85ef9","system_id":"levelo_inurba_marseille","lat":43.29264,"lon":5.38447,"is_reserved":false,"is_disabled":false,"rental_uris":{"android":"levelo://app?vid=25baae67-9728-46a3-b27a-9efd2cb85ef9","ios":"levelo://app?vid=25baae67-9728-46a3-b27a-9efd2cb85ef9"},"vehicle_type_id":"4","last_reported":1706994345,"current_range_meters":10800,"station_id":"ce4bh692rcd13ifvqea0","pricing_plan_id":"free"},{"bike_id":"0d7ac06f-87bd-4dc9-92a1-01574d6eeba3","system_id":"levelo_inurba_marseille","lat":43.292634,"lon":5.38446,"is_reserved":false,"is_disabled":false,"rental_uris":{"android":"levelo://app?vid=0d7ac06f-87bd-4dc9-92a1-01574d6eeba3","ios":"levelo://app?vid=0d7ac06f-87bd-4dc9-92a1-01574d6eeba3"},"vehicle_type_id":"4","last_reported":1706994345,"current_range_meters":3200,"station_id":"ce4bh692rcd13ifvqea0","pricing_plan_id":"free"},{"bike_id":"aefed0d3-03ef-45a5-b47a-4c1bb53bca9e","system_id":"levelo_inurba_marseille","lat":43.29257,"lon":5.38433,"is_reserved":false,"is_disabled":false,"rental_uris":{"android":"levelo://app?vid=aefed0d3-03ef-45a5-b47a-4c1bb53bca9e","ios":"levelo://app?vid=aefed0d3-03ef-45a5-b47a-4c1bb53bca9e"},"vehicle_type_id":"4","last_reported":1706994345,"current_range_meters":25200,"station_id":"ce4bh692rcd13ifvqea0","pricing_plan_id":"free"},{"bike_id":"80263db5-507b-4e6d-bc60-35b4b72d3dbc","system_id":"levelo_inurba_marseille","lat":43.292642,"lon":5.384254,"is_reserved":false,"is_disabled":false,"rental_uris":{"android":"levelo://app?vid=80263db5-507b-4e6d-bc60-35b4b72d3dbc","ios":"levelo://app?vid=80263db5-507b-4e6d-bc60-35b4b72d3dbc"},"vehicle_type_id":"4","last_reported":1706994345,"current_range_meters":17200,"station_id":"ce4bh692rcd13ifvqea0","pricing_plan_id":"free"},{"bike_id":"d2a9d9be-9f41-4714-b4eb-03d44fda09ac","system_id":"levelo_inurba_marseille","lat":43.292616,"lon":5.384434,"is_reserved":false,"is_disabled":false,"rental_uris":{"android":"levelo://app?vid=d2a9d9be-9f41-4714-b4eb-03d44fda09ac","ios":"levelo://app?vid=d2a9d9be-9f41-4714-b4eb-03d44fda09ac"},"vehicle_type_id":"4","last_reported":1706994345,"current_range_meters":26400,"station_id":"ce4bh692rcd13ifvqea0","pricing_plan_id":"free"},{"bike_id":"d9217267-b438-4341-ade9-413e6896d64f","system_id":"levelo_inurba_marseille","lat":43.292644,"lon":5.384257,"is_reserved":false,"is_disabled":false,"rental_uris":{"android":"levelo://app?vid=d9217267-b438-4341-ade9-413e6896d64f","ios":"levelo://app?vid=d9217267-b438-4341-ade9-413e6896d64f"},"vehicle_type_id":"4","last_reported":1706994345,"current_range_meters":20800,"station_id":"ce4bh692rcd13ifvqea0","pricing_plan_id":"free"},{"bike_id":"19b5fc13-f758-43e9-8f2a-547b026c10bb","system_id":"levelo_inurba_marseille","lat":43.301539,"lon":5.39609,"is_reserved":false,"is_disabled":false,"rental_uris":{"android":"levelo://app?vid=19b5fc13-f758-43e9-8f2a-547b026c10bb","ios":"levelo://app?vid=19b5fc13-f758-43e9-8f2a-547b026c10bb"},"vehicle_type_id":"4","last_reported":1706994345,"current_range_meters":20400,"station_id":"","pricing_plan_id":"free"},{"bike_id":"57d1408c-9314-4969-ab4b-64cf2bcb8dda","system_id":"levelo_inurba_marseille","lat":43.290104,"lon":5.356111,"is_reserved":false,"is_disabled":false,"rental_uris":{"android":"levelo://app?vid=57d1408c-9314-4969-ab4b-64cf2bcb8dda","ios":"levelo://app?vid=57d1408c-9314-4969-ab4b-64cf2bcb8dda"},"vehicle_type_id":"4","last_reported":1706994345,"current_range_meters":4000,"station_id":"ce4bhb92rcd13ifvqen0","pricing_plan_id":"free"},{"bike_id":"d16c55f2-0c91-4633-8dca-be9564af9c56","system_id":"levelo_inurba_marseille","lat":43.29526,"lon":5.39032,"is_reserved":false,"is_disabled":false,"rental_uris":{"android":"levelo://app?vid=d16c55f2-0c91-4633-8dca-be9564af9c56","ios":"levelo://app?vid=d16c55f2-0c91-4633-8dca-be9564af9c56"},"vehicle_type_id":"4","last_reported":1706994345,"current_range_meters":0,"station_id":"ce4bh3p2rcd13ifvqdp0","pricing_plan_id":"free"},{"bike_id":"b2ad9a2f-b3b9-41e6-a4dc-0b0347eec2c5","system_id":"levelo_inurba_marseille","lat":43.330442,"lon":5.389148,"is_reserved":false,"is_disabled":false,"rental_uris":{"android":"levelo://app?vid=b2ad9a2f-b3b9-41e6-a4dc-0b0347eec2c5","ios":"levelo://app?vid=b2ad9a2f-b3b9-41e6-a4dc-0b0347eec2c5"},"vehicle_type_id":"4","last_reported":1706994345,"current_range_meters":0,"station_id":"ce4bhr92rcd13ifvqhrg","pricing_plan_id":"free"},{"bike_id":"716bc777-24c0-49b4-bbdd-34a004e99eb0","system_id":"levelo_inurba_marseille","lat":43.330442,"lon":5.389148,"is_reserved":false,"is_disabled":false,"rental_uris":{"android":"levelo://app?vid=716bc777-24c0-49b4-bbdd-34a004e99eb0","ios":"levelo://app?vid=716bc777-24c0-49b4-bbdd-34a004e99eb0"},"vehicle_type_id":"4","last_reported":1706994345,"current_range_meters":10400,"station_id":"ce4bhr92rcd13ifvqhrg","pricing_plan_id":"free"},{"bike_id":"e3517781-f0ab-4fe7-a3cd-937fcf38462b","system_id":"levelo_inurba_marseille","lat":43.28849,"lon":5.358446,"is_reserved":false,"is_disabled":false,"rental_uris":{"android":"levelo://app?vid=e3517781-f0ab-4fe7-a3cd-937fcf38462b","ios":"levelo://app?vid=e3517781-f0ab-4fe7-a3cd-937fcf38462b"},