{"last_updated":1691010360,"ttl":30,"version":"2.2","data":{"bikes":[{"bike_id":"c5aa4a5a-b9d0-4802-8c42-193cb8f6f3c4","system_id":"levelo_inurba_marseille","lat":43.313391,"lon":5.36706,"is_reserved":false,"is_disabled":false,"rental_uris":{"android":"levelo://app?vid=c5aa4a5a-b9d0-4802-8c42-193cb8f6f3c4","ios":"levelo://app?vid=c5aa4a5a-b9d0-4802-8c42-193cb8f6f3c4"},"vehicle_type_id":"4","last_reported":1691010360,"current_range_meters":16000,"station_id":"ce4bgr92rcd13ifvqc6g","pricing_plan_id":"free"},{"bike_id":"53d1efb2-e545-43d4-9520-c2d540b82606","system_id":"levelo_inurba_marseille","lat":43.313391,"lon":5.36706,"is_reserved":false,"is_disabled":false,"rental_uris":{"android":"levelo://app?vid=53d1efb2-e545-43d4-9520-c2d540b82606","ios":"levelo://app?vid=53d1efb2-e545-43d4-9520-c2d540b82606"},"vehicle_type_id":"4","last_reported":1691010360,"current_range_meters":4000,"station_id":"ce4bgr92rcd13ifvqc6g","pricing_plan_id":"free"},{"bike_id":"566d5eb0-98db-4d3a-99f2-4178b1d51128","system_id":"levelo_inurba_marseille","lat":43.313391,"lon":5.36706,"is_reserved":false,"is_disabled":false,"rental_uris":{"android":"levelo://app?vid=566d5eb0-98db-4d3a-99f2-4178b1d51128","ios":"levelo://app?vid=566d5eb0-98db-4d3a-99f2-4178b1d51128"},"vehicle_type_id":"4","last_reported":1691010360,"current_range_meters":16000,"station_id":"ce4bgr92rcd13ifvqc6g","pricing_plan_id":"free"},{"bike_id":"9fe309c3-4f5a-44e9-b9d8-609983cccf0d","system_id":"levelo_inurba_marseille","lat":43.313391,"lon":5.36706,"is_reserved":false,"is_disabled":false,"rental_uris":{"android":"levelo://app?vid=9fe309c3-4f5a-44e9-b9d8-609983cccf0d","ios":"levelo://app?vid=9fe309c3-4f5a-44e9-b9d8-609983cccf0d"},"vehicle_type_id":"4","last_reported":1691010360,"current_range_meters":27600,"station_id":"ce4bgr92rcd13ifvqc6g","pricing_plan_id":"free"},{"bike_id":"8a557fc4-2fbd-4af9-bf2a-caba4bbad9dd","system_id":"levelo_inurba_marseille","lat":43.313391,"lon":5.36706,"is_reserved":false,"is_disabled":false,"rental_uris":{"android":"levelo://app?vid=8a557fc4-2fbd-4af9-bf2a-caba4bbad9dd","ios":"levelo://app?vid=8a557fc4-2fbd-4af9-bf2a-caba4bbad9dd"},"vehicle_type_id":"4","last_reported":1691010360,"current_range_meters":8000,"station_id":"ce4bgr92rcd13ifvqc6g","pricing_plan_id":"free"},{"bike_id":"4dfe378b-d318-4b5f-8b2f-3d29abe7d269","system_id":"levelo_inurba_marseille","lat":43.313391,"lon":5.36706,"is_reserved":false,"is_disabled":false,"rental_uris":{"android":"levelo://app?vid=4dfe378b-d318-4b5f-8b2f-3d29abe7d269","ios":"levelo://app?vid=4dfe378b-d318-4b5f-8b2f-3d29abe7d269"},"vehicle_type_id":"4","last_reported":1691010360,"current_range_meters":30000,"station_id":"ce4bgr92rcd13ifvqc6g","pricing_plan_id":"free"},{"bike_id":"b6752f11-238d-4e03-b14d-24b1f55d639f","system_id":"levelo_inurba_marseille","lat":43.313391,"lon":5.36706,"is_reserved":false,"is_disabled":false,"rental_uris":{"android":"levelo://app?vid=b6752f11-238d-4e03-b14d-24b1f55d639f","ios":"levelo://app?vid=b6752f11-238d-4e03-b14d-24b1f55d639f"},"vehicle_type_id":"4","last_reported":1691010360,"current_range_meters":31600,"station_id":"ce4bgr92rcd13ifvqc6g","pricing_plan_id":"free"},{"bike_id":"34f35be5-0c2f-4335-8a72-d787d5dcf7a9","system_id":"levelo_inurba_marseille","lat":43.312239,"lon":5.368562,"is_reserved":false,"is_disabled":false,"rental_uris":{"android":"levelo://app?vid=34f35be5-0c2f-4335-8a72-d787d5dcf7a9","ios":"levelo://app?vid=34f35be5-0c2f-4335-8a72-d787d5dcf7a9"},"vehicle_type_id":"4","last_reported":1691010360,"current_range_meters":28800,"station_id":"ce4bgl92rcd13ifvqbq0","pricing_plan_id":"free"},{"bike_id":"c34994d0-abd4-494b-844d-ef89a366a51a","system_id":"levelo_inurba_marseille","lat":43.31234,"lon":5.36859,"is_reserved":false,"is_disabled":false,"rental_uris":{"android":"levelo://app?vid=c34994d0-abd4-494b-844d-ef89a366a51a","ios":"levelo://app?vid=c34994d0-abd4-494b-844d-ef89a366a51a"},"vehicle_type_id":"4","last_reported":1691010360,"current_range_meters":30400,"station_id":"ce4bgl92rcd13ifvqbq0","pricing_plan_id":"free"},{"bike_id":"7f1ae7b2-2cd8-4869-8cfc-6399e4c03dae","system_id":"levelo_inurba_marseille","lat":43.312239,"lon":5.368562,"is_reserved":false,"is_disabled":false,"rental_uris":{"android":"levelo://app?vid=7f1ae7b2-2cd8-4869-8cfc-6399e4c03dae","ios":"levelo://app?vid=7f1ae7b2-2cd8-4869-8cfc-6399e4c03dae"},"vehicle_type_id":"4","last_reported":1691010360,"current_range_meters":22000,"station_id":"ce4bgl92rcd13ifvqbq0","pricing_plan_id":"free"},{"bike_id":"f996839e-2999-47cf-a6f0-39ae0a9d82af","system_id":"levelo_inurba_marseille","lat":43.312181,"lon":5.36854,"is_reserved":false,"is_disabled":false,"rental_uris":{"android":"levelo://app?vid=f996839e-2999-47cf-a6f0-39ae0a9d82af","ios":"levelo://app?vid=f996839e-2999-47cf-a6f0-39ae0a9d82af"},"vehicle_type_id":"4","last_reported":1691010360,"current_range_meters":29200,"station_id":"ce4bgl92rcd13ifvqbq0","pricing_plan_id":"free"},{"bike_id":"a3c52369-cd43-4a5f-92bc-854d69c252c4","system_id":"levelo_inurba_marseille","lat":43.312239,"lon":5.368562,"is_reserved":false,"is_disabled":false,"rental_uris":{"android":"levelo://app?vid=a3c52369-cd43-4a5f-92bc-854d69c252c4","ios":"levelo://app?vid=a3c52369-cd43-4a5f-92bc-854d69c252c4"},"vehicle_type_id":"4","last_reported":1691010360,"current_range_meters":18400,"station_id":"ce4bgl92rcd13ifvqbq0","pricing_plan_id":"free"},{"bike_id":"7f1df3ac-b1e9-4158-be6b-cebe461102b5","system_id":"levelo_inurba_marseille","lat":43.31224,"lon":5.3686,"is_reserved":false,"is_disabled":false,"rental_uris":{"android":"levelo://app?vid=7f1df3ac-b1e9-4158-be6b-cebe461102b5","ios":"levelo://app?vid=7f1df3ac-b1e9-4158-be6b-cebe461102b5"},"vehicle_type_id":"4","last_reported":1691010360,"current_range_meters":30000,"station_id":"ce4bgl92rcd13ifvqbq0","pricing_plan_id":"free"},{"bike_id":"0b2e9183-1824-4d42-bf1c-dc60f4818407","system_id":"levelo_inurba_marseille","lat":43.31247,"lon":5.3687,"is_reserved":false,"is_disabled":false,"rental_uris":{"android":"levelo://app?vid=0b2e9183-1824-4d42-bf1c-dc60f4818407","ios":"levelo://app?vid=0b2e9183-1824-4d42-bf1c-dc60f4818407"},"vehicle_type_id":"4","last_reported":1691010360,"current_range_meters":3600,"station_id":"ce4bgl92rcd13ifvqbq0","pricing_plan_id":"free"},{"bike_id":"3c8b8dbc-83bd-4bc2-9522-cb5d533e9d09","system_id":"levelo_inurba_marseille","lat":43.31229,"lon":5.36865,"is_reserved":false,"is_disabled":false,"rental_uris":{"android":"levelo://app?vid=3c8b8dbc-83bd-4bc2-9522-cb5d533e9d09","ios":"levelo://app?vid=3c8b8dbc-83bd-4bc2-9522-cb5d533e9d09"},"vehicle_type_id":"4","last_reported":1691010360,"current_range_meters":22400,"station_id":"ce4bgl92rcd13ifvqbq0","pricing_plan_id":"free"},{"bike_id":"5c0c0735-b636-41bc-9882-0fb0d1ae857c","system_id":"levelo_inurba_marseille","lat":43.312536,"lon":5.368736,"is_reserved":false,"is_disabled":false,"rental_uris":{"android":"levelo://app?vid=5c0c0735-b636-41bc-9882-0fb0d1ae857c","ios":"levelo://app?vid=5c0c0735-b636-41bc-9882-0fb0d1ae857c"},"vehicle_type_id":"4","last_reported":1691010360,"current_range_meters":24400,"station_id":"ce4bgl92rcd13ifvqbq0","pricing_plan_id":"free"},{"bike_id":"72ce146c-4fff-490b-a17a-f98c0a3a5e08","system_id":"levelo_inurba_marseille","lat":43.3091,"lon":5.36855,"is_reserved":false,"is_disabled":false,"rental_uris":{"android":"levelo://app?vid=72ce146c-4fff-490b-a17a-f98c0a3a5e08","ios":"levelo://app?vid=72ce146c-4fff-490b-a17a-f98c0a3a5e08"},"vehicle_type_id":"4","last_reported":1691010360,"current_range_meters":30400,"station_id":"","pricing_plan_id":"free"},{"bike_id":"7b87d43a-ae36-4684-a224-fb8d0995c44b","system_id":"levelo_inurba_marseille","lat":43.309039,"lon":5.371797,"is_reserved":false,"is_disabled":false,"rental_uris":{"android":"levelo://app?vid=7b87d43a-ae36-4684-a224-fb8d0995c44b","ios":"levelo://app?vid=7b87d43a-ae36-4684-a224-fb8d0995c44b"},"vehicle_type_id":"4","last_reported":1691010360,"current_range_meters":28400,"station_id":"ce4bguh2rcd13ifvqckg","pricing_plan_id":"free"},{"bike_id":"4396d199-3c72-4e07-9c49-8e46440cc37a","system_id":"levelo_inurba_marseille","lat":43.316723,"lon":5.374478,"is_reserved":false,"is_disabled":false,"rental_uris":{"android":"levelo://app?vid=4396d199-3c72-4e07-9c49-8e46440cc37a","ios":"levelo://app?vid=4396d199-3c72-4e07-9c49-8e46440cc37a"},"vehicle_type_id":"4","last_reported":1691010360,"current_range_meters":21600,"station_id":"","pricing_plan_id":"free"},{"bike_id":"fa4f6d32-35d2-4f0a-93f0-9a401f1f1c73","system_id":"levelo_inurba_marseille","lat":43.305712,"lon":5.365641,"is_reserved":false,"is_disabled":false,"rental_uris":{"android":"levelo://app?vid=fa4f6d32-35d2-4f0a-93f0-9a401f1f1c73","ios":"levelo://app?vid=fa4f6d32-35d2-4f0a-93f0-9a401f1f1c73"},"vehicle_type_id":"4","last_reported":1691010360,"current_range_meters":6400,"station_id":"ce4bgs12rcd13ifvqcag","pricing_plan_id":"free"},{"bike_id":"d8ed5982-37ac-43d2-a475-b7e78b960ea8","system_id":"levelo_inurba_marseille","lat":43.30539,"lon":5.36693,"is_reserved":false,"is_disabled":false,"rental_uris":{"android":"levelo://app?vid=d8ed5982-37ac-43d2-a475-b7e78b960ea8","ios":"levelo://app?vid=d8ed5982-37ac-43d2-a475-b7e78b960ea8"},"vehicle_type_id":"4","last_reported":1691010360,"current_range_meters":6000,"station_id":"ce4bgrp2rcd13ifvqc9g","pricing_plan_id":"free"},{"bike_id":"d267e70c-b846-478d-b0b5-69fd4cdde5ae","system_id":"levelo_inurba_marseille","lat":43.30538,"lon":5.36697,"is_reserved":false,"is_disabled":false,"rental_uris":{"android":"levelo://app?vid=d267e70c-b846-478d-b0b5-69fd4cdde5ae","ios":"levelo://app?vid=d267e70c-b846-478d-b0b5-69fd4cdde5ae"},"vehicle_type_id":"4","last_reported":1691010360,"current_range_meters":22400,"station_id":"ce4bgrp2rcd13ifvqc9g","pricing_plan_id":"free"},{"bike_id":"018683fa-9909-4e2a-8e96-01e9d1cf8fe3","system_id":"levelo_inurba_marseille","lat":43.30537,"lon":5.36702,"is_reserved":false,"is_disabled":false,"rental_uris":{"android":"levelo://app?vid=018683fa-9909-4e2a-8e96-01e9d1cf8fe3","ios":"levelo://app?vid=018683fa-9909-4e2a-8e96-01e9d1cf8fe3"},"vehicle_type_id":"4","last_reported":1691010360,"current_range_meters":0,"station_id":"ce4bgrp2rcd13ifvqc9g","pricing_plan_id":"free"},{"bike_id":"adce963a-0650-4ba3-96a8-03dc61058bbf","system_id":"levelo_inurba_marseille","lat":43.305714,"lon":5.365633,"is_reserved":false,"is_disabled":false,"rental_uris":{"android":"levelo://app?vid=adce963a-0650-4ba3-96a8-03dc61058bbf","ios":"levelo://app?vid=adce963a-0650-4ba3-96a8-03dc61058bbf"},"vehicle_type_id":"4","last_reported":1691010360,"current_range_meters":18800,"station_id":"ce4bgs12rcd13ifvqcag","pricing_plan_id":"free"},{"bike_id":"0582c4ec-28c3-4ded-9b15-0775b826a140","system_id":"levelo_inurba_marseille","lat":43.305714,"lon":5.365633,"is_reserved":false,"is_disabled":false,"rental_uris":{"android":"levelo://app?vid=0582c4ec-28c3-4ded-9b15-0775b826a140","ios":"levelo://app?vid=0582c4ec-28c3-4ded-9b15-0775b826a140"},"vehicle_type_id":"4","last_reported":1691010360,"current_range_meters":27200,"station_id":"ce4bgs12rcd13ifvqcag","pricing_plan_id":"free"},{"bike_id":"f2c3dcf4-b999-4385-903e-76ff8cf4cf4e","system_id":"levelo_inurba_marseille","lat":43.305714,"lon":5.365633,"is_reserved":false,"is_disabled":false,"rental_uris":{"android":"levelo://app?vid=f2c3dcf4-b999-4385-903e-76ff8cf4cf4e","ios":"levelo://app?vid=f2c3dcf4-b999-4385-903e-76ff8cf4cf4e"},"vehicle_type_id":"4","last_reported":1691010360,"current_range_meters":23200,"station_id":"ce4bgs12rcd13ifvqcag","pricing_plan_id":"free"},{"bike_id":"06f5a071-7bdb-485c-8ed7-b82622f3f14d","system_id":"levelo_inurba_marseille","lat":43.305714,"lon":5.365633,"is_reserved":false,"is_disabled":false,"rental_uris":{"android":"levelo://app?vid=06f5a071-7bdb-485c-8ed7-b82622f3f14d","ios":"levelo://app?vid=06f5a071-7bdb-485c-8ed7-b82622f3f14d"},"vehicle_type_id":"4","last_reported":1691010360,"current_range_meters":17600,"station_id":"ce4bgs12rcd13ifvqcag","pricing_plan_id":"free"},{"bike_id":"f20ea888-8740-440b-bfeb-8eb2a7c1f652","system_id":"levelo_inurba_marseille","lat":43.305989,"lon":5.37225,"is_reserved":false,"is_disabled":false,"rental_uris":{"android":"levelo://app?vid=f20ea888-8740-440b-bfeb-8eb2a7c1f652","ios":"levelo://app?vid=f20ea888-8740-440b-bfeb-8eb2a7c1f652"},"vehicle_type_id":"4","last_reported":1691010360,"current_range_meters":30800,"station_id":"ce4bgqh2rcd13ifvqc4g","pricing_plan_id":"free"},{"bike_id":"1acb5213-12b6-4e73-9be5-c467492dfead","system_id":"levelo_inurba_marseille","lat":43.305989,"lon":5.37225,"is_reserved":false,"is_disabled":false,"rental_uris":{"android":"levelo://app?vid=1acb5213-12b6-4e73-9be5-c467492dfead","ios":"levelo://app?vid=1acb5213-12b6-4e73-9be5-c467492dfead"},"vehicle_type_id":"4","last_reported":1691010360,"current_range_meters":9200,"station_id":"ce4bgqh2rcd13ifvqc4g","pricing_plan_id":"free"},{"bike_id":"281ad373-7b67-4fb3-bc36-cbf58bebca3a","system_id":"levelo_inurba_marseille","lat":43.311125,"lon":5.377624,"is_reserved":false,"is_disabled":false,"rental_uris":{"android":"levelo://app?vid=281ad373-7b67-4fb3-bc36-cbf58bebca3a","ios":"levelo://app?vid=281ad373-7b67-4fb3-bc36-cbf58bebca3a"},"vehicle_type_id":"4","last_reported":1691010360,"current_range_meters":12000,"station_id":"ce4bgt92rcd13ifvqcg0","pricing_plan_id":"free"},{"bike_id":"6296719f-b4eb-48f5-8051-6ed08e298dda","system_id":"levelo_inurba_marseille","lat":43.311125,"lon":5.377624,"is_reserved":false,"is_disabled":false,"rental_uris":{"android":"levelo://app?vid=6296719f-b4eb-48f5-8051-6ed08e298dda","ios":"levelo://app?vid=6296719f-b4eb-48f5-8051-6ed08e298dda"},"vehicle_type_id":"4","last_reported":1691010360,"current_range_meters":30400,"station_id":"ce4bgt92rcd13ifvqcg0","pricing_plan_id":"free"},{"bike_id":"bdf4fe18-c9d9-4060-8334-31e4d8a8969b","system_id":"levelo_inurba_marseille","lat":43.317075,"lon":5.377367,"is_reserved":false,"is_disabled":false,"rental_uris":{"android":"levelo://app?vid=bdf4fe18-c9d9-4060-8334-31e4d8a8969b","ios":"levelo://app?vid=bdf4fe18-c9d9-4060-8334-31e4d8a8969b"},"vehicle_type_id":"4","last_reported":1691010360,"current_range_meters":27200,"station_id":"ce4bgth2rcd13ifvqch0","pricing_plan_id":"free"},{"bike_id":"9faf47ab-4756-454d-8a0e-99d16bbe9366","system_id":"levelo_inurba_marseille","lat":43.30307,"lon":5.3689,"is_reserved":false,"is_disabled":false,"rental_uris":{"android":"levelo://app?vid=9faf47ab-4756-454d-8a0e-99d16bbe9366","ios":"levelo://app?vid=9faf47ab-4756-454d-8a0e-99d16bbe9366"},"vehicle_type_id":"4","last_reported":1691010360,"current_range_meters":7200,"station_id":"ce4bgqh2rcd13ifvqc5g","pricing_plan_id":"free"},{"bike_id":"bd3c31ff-cbdc-4776-9412-f4728cafdfdb","system_id":"levelo_inurba_marseille","lat":43.315289,"lon":5.380349,"is_reserved":false,"is_disabled":false,"rental_uris":{"android":"levelo://app?vid=bd3c31ff-cbdc-4776-9412-f4728cafdfdb","ios":"levelo://app?vid=bd3c31ff-cbdc-4776-9412-f4728cafdfdb"},"vehicle_type_id":"4","last_reported":1691010360,"current_range_meters":30000,"station_id":"ce4bhsp2rcd13ifvqi50","pricing_plan_id":"free"},{"bike_id":"7b64c68b-8b43-45b3-bf18-519d523ee28a","system_id":"levelo_inurba_marseille","lat":43.301939,"lon":5.366286,"is_reserved":false,"is_disabled":false,"rental_uris":{"android":"levelo://app?vid=7b64c68b-8b43-45b3-bf18-519d523ee28a","ios":"levelo://app?vid=7b64c68b-8b43-45b3-bf18-519d523ee28a"},"vehicle_type_id":"4","last_reported":1691010360,"current_range_meters":29600,"station_id":"ce4bgrh2rcd13ifvqc8g","pricing_plan_id":"free"},{"bike_id":"b9dcf736-47f3-4ada-a347-71929cc27f87","system_id":"levelo_inurba_marseille","lat":43.30478,"lon":5.37915,"is_reserved":false,"is_disabled":false,"rental_uris":{"android":"levelo://app?vid=b9dcf736-47f3-4ada-a347-71929cc27f87","ios":"levelo://app?vid=b9dcf736-47f3-4ada-a347-71929cc27f87"},"vehicle_type_id":"4","last_reported":1691010360,"current_range_meters":29600,"station_id":"ce4bgup2rcd13ifvqcn0","pricing_plan_id":"free"},{"bike_id":"69efd253-fbbb-4a73-9ba0-16d8244fa080","system_id":"levelo_inurba_marseille","lat":43.304606,"lon":5.379026,"is_reserved":false,"is_disabled":false,"rental_uris":{"android":"levelo://app?vid=69efd253-fbbb-4a73-9ba0-16d8244fa080","ios":"levelo://app?vid=69efd253-fbbb-4a73-9ba0-16d8244fa080"},"vehicle_type_id":"4","last_reported":1691010360,"current_range_meters":31200,"station_id":"ce4bgup2rcd13ifvqcn0","pricing_plan_id":"free"},{"bike_id":"0886a390-efb9-4673-9e83-a3ffa18ed0b0","system_id":"levelo_inurba_marseille","lat":43.304606,"lon":5.379026,"is_reserved":false,"is_disabled":false,"rental_uris":{"android":"levelo://app?vid=0886a390-efb9-4673-9e83-a3ffa18ed0b0","ios":"levelo://app?vid=0886a390-efb9-4673-9e83-a3ffa18ed0b0"},"vehicle_type_id":"4","last_reported":1691010360,"current_range_meters":28400,"station_id":"ce4bgup2rcd13ifvqcn0","pricing_plan_id":"free"},{"bike_id":"71d93e87-97c2-447c-be63-88e21fd2a795","system_id":"levelo_inurba_marseille","lat":43.304606,"lon":5.379026,"is_reserved":false,"is_disabled":false,"rental_uris":{"android":"levelo://app?vid=71d93e87-97c2-447c-be63-88e21fd2a795","ios":"levelo://app?vid=71d93e87-97c2-447c-be63-88e21fd2a795"},"vehicle_type_id":"4","last_reported":1691010360,"current_range_meters":1200,"station_id":"ce4bgup2rcd13ifvqcn0","pricing_plan_id":"free"},{"bike_id":"a2b51e1b-a150-44aa-8e94-a8415a8616cd","system_id":"levelo_inurba_marseille","lat":43.3046,"lon":5.37906,"is_reserved":false,"is_disabled":false,"rental_uris":{"android":"levelo://app?vid=a2b51e1b-a150-44aa-8e94-a8415a8616cd","ios":"levelo://app?vid=a2b51e1b-a150-44aa-8e94-a8415a8616cd"},"vehicle_type_id":"4","last_reported":1691010360,"current_range_meters":6800,"station_id":"ce4bgup2rcd13ifvqcn0","pricing_plan_id":"free"},{"bike_id":"829c9770-af89-4ecf-ab1f-b1b72284388f","system_id":"levelo_inurba_marseille","lat":43.304606,"lon":5.379026,"is_reserved":false,"is_disabled":false,"rental_uris":{"android":"levelo://app?vid=829c9770-af89-4ecf-ab1f-b1b72284388f","ios":"levelo://app?vid=829c9770-af89-4ecf-ab1f-b1b72284388f"},"vehicle_type_id":"4","last_reported":1691010360,"current_range_meters":12400,"station_id":"ce4bgup2rcd13ifvqcn0","pricing_plan_id":"free"},{"bike_id":"b5777348-7d7b-4275-9036-8fe63155d08e","system_id":"levelo_inurba_marseille","lat":43.304606,"lon":5.379026,"is_reserved":false,"is_disabled":false,"rental_uris":{"android":"levelo://app?vid=b5777348-7d7b-4275-9036-8fe63155d08e","ios":"levelo://app?vid=b5777348-7d7b-4275-9036-8fe63155d08e"},"vehicle_type_id":"4","last_reported":1691010360,"current_range_meters":25200,"station_id":"ce4bgup2rcd13ifvqcn0","pricing_plan_id":"free"},{"bike_id":"324c6396-a5a7-4c01-9859-742328b128b1","system_id":"levelo_inurba_marseille","lat":43.302784,"lon":5.377158,"is_reserved":false,"is_disabled":false,"rental_uris":{"android":"levelo://app?vid=324c6396-a5a7-4c01-9859-742328b128b1","ios":"levelo://app?vid=324c6396-a5a7-4c01-9859-742328b128b1"},"vehicle_type_id":"4","last_reported":1691010360,"current_range_meters":7200,"station_id":"ce4bguh2rcd13ifvqcj0","pricing_plan_id":"free"},{"bike_id":"c66830ff-e16a-43fc-8dda-8cb4172ee6d3","system_id":"levelo_inurba_marseille","lat":43.30274,"lon":5.37698,"is_reserved":false,"is_disabled":false,"rental_uris":{"android":"levelo://app?vid=c66830ff-e16a-43fc-8dda-8cb4172ee6d3","ios":"levelo://app?vid=c66830ff-e16a-43fc-8dda-8cb4172ee6d3"},"vehicle_type_id":"4","last_reported":1691010360,"current_range_meters":29200,"station_id":"","pricing_plan_id":"free"},{"bike_id":"3f068c95-ed0c-430d-85cd-64d8718bf876","system_id":"levelo_inurba_marseille","lat":43.302784,"lon":5.377158,"is_reserved":false,"is_disabled":false,"rental_uris":{"android":"levelo://app?vid=3f068c95-ed0c-430d-85cd-64d8718bf876","ios":"levelo://app?vid=3f068c95-ed0c-430d-85cd-64d8718bf876"},"vehicle_type_id":"4","last_reported":1691010360,"current_range_meters":26000,"station_id":"ce4bguh2rcd13ifvqcj0","pricing_plan_id":"free"},{"bike_id":"1c1df564-9c75-4b53-b94c-2648e0584849","system_id":"levelo_inurba_marseille","lat":43.302784,"lon":5.377158,"is_reserved":false,"is_disabled":false,"rental_uris":{"android":"levelo://app?vid=1c1df564-9c75-4b53-b94c-2648e0584849","ios":"levelo://app?vid=1c1df564-9c75-4b53-b94c-2648e0584849"},"vehicle_type_id":"4","last_reported":1691010360,"current_range_meters":16800,"station_id":"ce4bguh2rcd13ifvqcj0","pricing_plan_id":"free"},{"bike_id":"f77115a4-86df-4a94-aae9-060e4a16199f","system_id":"levelo_inurba_marseille","lat":43.30137,"lon":5.37417,"is_reserved":false,"is_disabled":false,"rental_uris":{"android":"levelo://app?vid=f77115a4-86df-4a94-aae9-060e4a16199f","ios":"levelo://app?vid=f77115a4-86df-4a94-aae9-060e4a16199f"},"vehicle_type_id":"4","last_reported":1691010360,"current_range_meters":14000,"station_id":"ce4bgs92rcd13ifvqcc0","pricing_plan_id":"free"},{"bike_id":"55dd5fcd-36ad-42f6-8556-53424bf55a33","system_id":"levelo_inurba_marseille","lat":43.31994,"lon":5.38152,"is_reserved":false,"is_disabled":false,"rental_uris":{"android":"levelo://app?vid=55dd5fcd-36ad-42f6-8556-53424bf55a33","ios":"levelo://app?vid=55dd5fcd-36ad-42f6-8556-53424bf55a33"},"vehicle_type_id":"4","last_reported":1691010360,"current_range_meters":0,"station_id":"ce4bhr12rcd13ifvqhpg","pricing_plan_id":"free"},{"bike_id":"f57a254a-a3be-45b4-920e-65d1f46a9c9d","system_id":"levelo_inurba_marseille","lat":43.31994,"lon":5.38167,"is_reserved":false,"is_disabled":false,"rental_uris":{"android":"levelo://app?vid=f57a254a-a3be-45b4-920e-65d1f46a9c9d","ios":"levelo://app?vid=f57a254a-a3be-45b4-920e-65d1f46a9c9d"},"vehicle_type_id":"4","last_reported":1691010360,"current_range_meters":7600,"station_id":"ce4bhr12rcd13ifvqhpg","pricing_plan_id":"free"},{"bike_id":"7153d8c7-55b2-466a-a442-d75ee1ce4209","system_id":"levelo_inurba_marseille","lat":43.31995,"lon":5.3817,"is_reserved":false,"is_disabled":false,"rental_uris":{"android":"levelo://app?vid=7153d8c7-55b2-466a-a442-d75ee1ce4209","ios":"levelo://app?vid=7153d8c7-55b2-466a-a442-d75ee1ce4209"},"vehicle_type_id":"4","last_reported":1691010360,"current_range_meters":25200,"station_id":"ce4bhr12rcd13ifvqhpg","pricing_plan_id":"free"},{"bike_id":"73ec2152-7c2b-4622-bc98-fafb6196eb19","system_id":"levelo_inurba_marseille","lat":43.313571,"lon":5.384829,"is_reserved":false,"is_disabled":false,"rental_uris":{"android":"levelo://app?vid=73ec2152-7c2b-4622-bc98-fafb6196eb19","ios":"levelo://app?vid=73ec2152-7c2b-4622-bc98-fafb6196eb19"},"vehicle_type_id":"4","last_reported":1691010360,"current_range_meters":13600,"station_id":"ce4bgt92rcd13ifvqcf0","pricing_plan_id":"free"},{"bike_id":"213d9d68-6388-4c52-ad85-d31c12b56976","system_id":"levelo_inurba_marseille","lat":43.313571,"lon":5.384829,"is_reserved":false,"is_disabled":false,"rental_uris":{"android":"levelo://app?vid=213d9d68-6388-4c52-ad85-d31c12b56976","ios":"levelo://app?vid=213d9d68-6388-4c52-ad85-d31c12b56976"},"vehicle_type_id":"4","last_reported":1691010360,"current_range_meters":22400,"station_id":"ce4bgt92rcd13ifvqcf0","pricing_plan_id":"free"},{"bike_id":"4cd8012d-cc57-40f5-818d-bddc80980431","system_id":"levelo_inurba_marseille","lat":43.313571,"lon":5.384829,"is_reserved":false,"is_disabled":false,"rental_uris":{"android":"levelo://app?vid=4cd8012d-cc57-40f5-818d-bddc80980431","ios":"levelo://app?vid=4cd8012d-cc57-40f5-818d-bddc80980431"},"vehicle_type_id":"4","last_reported":1691010360,"current_range_meters":6800,"station_id":"ce4bgt92rcd13ifvqcf0","pricing_plan_id":"free"},{"bike_id":"fdde88fc-11d6-411e-b415-dce19e86d483","system_id":"levelo_inurba_marseille","lat":43.31353,"lon":5.38499,"is_reserved":false,"is_disabled":false,"rental_uris":{"android":"levelo://app?vid=fdde88fc-11d6-411e-b415-dce19e86d483","ios":"levelo://app?vid=fdde88fc-11d6-411e-b415-dce19e86d483"},"vehicle_type_id":"4","last_reported":1691010360,"current_range_meters":6400,"station_id":"","pricing_plan_id":"free"},{"bike_id":"83fe3dcb-0530-440e-aa62-bdca15457669","system_id":"levelo_inurba_marseille","lat":43.313571,"lon":5.384829,"is_reserved":false,"is_disabled":false,"rental_uris":{"android":"levelo://app?vid=83fe3dcb-0530-440e-aa62-bdca15457669","ios":"levelo://app?vid=83fe3dcb-0530-440e-aa62-bdca15457669"},"vehicle_type_id":"4","last_reported":1691010360,"current_range_meters":26000,"station_id":"ce4bgt92rcd13ifvqcf0","pricing_plan_id":"free"},{"bike_id":"3dd629bb-2e23-4d4c-8783-235e452d3f3a","system_id":"levelo_inurba_marseille","lat":43.30548,"lon":5.38417,"is_reserved":false,"is_disabled":false,"rental_uris":{"android":"levelo://app?vid=3dd629bb-2e23-4d4c-8783-235e452d3f3a","ios":"levelo://app?vid=3dd629bb-2e23-4d4c-8783-235e452d3f3a"},"vehicle_type_id":"4","last_reported":1691010360,"current_range_meters":8400,"station_id":"ce4bgg92rcd13ifvqb30","pricing_plan_id":"free"},{"bike_id":"30537d43-af02-4a10-b928-7b9b8cf633d2","system_id":"levelo_inurba_marseille","lat":43.30531,"lon":5.38427,"is_reserved":false,"is_disabled":false,"rental_uris":{"android":"levelo://app?vid=30537d43-af02-4a10-b928-7b9b8cf633d2","ios":"levelo://app?vid=30537d43-af02-4a10-b928-7b9b8cf633d2"},"vehicle_type_id":"4","last_reported":1691010360,"current_range_meters":28400,"station_id":"ce4bgg92rcd13ifvqb30","pricing_plan_id":"free"},{"bike_id":"94d385b1-f593-4755-838a-e18d17d60e87","system_id":"levelo_inurba_marseille","lat":43.32282,"lon":5.38259,"is_reserved":false,"is_disabled":false,"rental_uris":{"android":"levelo://app?vid=94d385b1-f593-4755-838a-e18d17d60e87","ios":"levelo://app?vid=94d385b1-f593-4755-838a-e18d17d60e87"},"vehicle_type_id":"4","last_reported":1691010360,"current_range_meters":28000,"station_id":"ce4bhr12rcd13ifvqhqg","pricing_plan_id":"free"},{"bike_id":"7cf1aab8-38a1-47db-af16-2123c0ca6e97","system_id":"levelo_inurba_marseille","lat":43.32284,"lon":5.38266,"is_reserved":false,"is_disabled":false,"rental_uris":{"android":"levelo://app?vid=7cf1aab8-38a1-47db-af16-2123c0ca6e97","ios":"levelo://app?vid=7cf1aab8-38a1-47db-af16-2123c0ca6e97"},"vehicle_type_id":"4","last_reported":1691010360,"current_range_meters":24400,"station_id":"ce4bhr12rcd13ifvqhqg","pricing_plan_id":"free"},{"bike_id":"027f92b8-71a5-4c9f-a663-1a55a6bfb197","system_id":"levelo_inurba_marseille","lat":43.322872,"lon":5.382756,"is_reserved":false,"is_disabled":false,"rental_uris":{"android":"levelo://app?vid=027f92b8-71a5-4c9f-a663-1a55a6bfb197","ios":"levelo://app?vid=027f92b8-71a5-4c9f-a663-1a55a6bfb197"},"vehicle_type_id":"4","last_reported":1691010360,"current_range_meters":24400,"station_id":"ce4bhr12rcd13ifvqhqg","pricing_plan_id":"free"},{"bike_id":"04041c0e-725a-4973-8c34-0479d8f8c3e9","system_id":"levelo_inurba_marseille","lat":43.322872,"lon":5.382756,"is_reserved":false,"is_disabled":false,"rental_uris":{"android":"levelo://app?vid=04041c0e-725a-4973-8c34-0479d8f8c3e9","ios":"levelo://app?vid=04041c0e-725a-4973-8c34-0479d8f8c3e9"},"vehicle_type_id":"4","last_reported":1691010360,"current_range_meters":29200,"station_id":"ce4bhr12rcd13ifvqhqg","pricing_plan_id":"free"},{"bike_id":"296f0fb6-14b4-4f6a-ba10-9693b7046a0f","system_id":"levelo_inurba_marseille","lat":43.297794,"lon":5.370888,"is_reserved":false,"is_disabled":false,"rental_uris":{"android":"levelo://app?vid=296f0fb6-14b4-4f6a-ba10-9693b7046a0f","ios":"levelo://app?vid=296f0fb6-14b4-4f6a-ba10-9693b7046a0f"},"vehicle_type_id":"4","last_reported":1691010360,"current_range_meters":21200,"station_id":"ce4bgop2rcd13ifvqc1g","pricing_plan_id":"free"},{"bike_id":"dddbedc8-6a42-40c6-936f-790bd1069b29","system_id":"levelo_inurba_marseille","lat":43.328261,"lon":5.366975,"is_reserved":false,"is_disabled":false,"rental_uris":{"android":"levelo://app?vid=dddbedc8-6a42-40c6-936f-790bd1069b29","ios":"levelo://app?vid=dddbedc8-6a42-40c6-936f-790bd1069b29"},"vehicle_type_id":"4","last_reported":1691010360,"current_range_meters":17200,"station_id":"ce4bhs92rcd13ifvqi0g","pricing_plan_id":"free"},{"bike_id":"dd789220-e7b5-42c1-b9dc-dc4243148021","system_id":"levelo_inurba_marseille","lat":43.29694,"lon":5.36589,"is_reserved":false,"is_disabled":false,"rental_uris":{"android":"levelo://app?vid=dd789220-e7b5-42c1-b9dc-dc4243148021","ios":"levelo://app?vid=dd789220-e7b5-42c1-b9dc-dc4243148021"},"vehicle_type_id":"4","last_reported":1691010360,"current_range_meters":31200,"station_id":"ce4bgn12rcd13ifvqbt0","pricing_plan_id":"free"},{"bike_id":"6800b794-c5e0-4355-8ba7-e72f0f3de1c4","system_id":"levelo_inurba_marseille","lat":43.29614,"lon":5.37147,"is_reserved":false,"is_disabled":false,"rental_uris":{"android":"levelo://app?vid=6800b794-c5e0-4355-8ba7-e72f0f3de1c4","ios":"levelo://app?vid=6800b794-c5e0-4355-8ba7-e72f0f3de1c4"},"vehicle_type_id":"4","last_reported":1691010360,"current_range_meters":6000,"station_id":"","pricing_plan_id":"free"},{"bike_id":"2c8d1d11-b59e-449d-b4d1-941272b04863","system_id":"levelo_inurba_marseille","lat":43.299028,"lon":5.381509,"is_reserved":false,"is_disabled":false,"rental_uris":{"android":"levelo://app?vid=2c8d1d11-b59e-449d-b4d1-941272b04863","ios":"levelo://app?vid=2c8d1d11-b59e-449d-b4d1-941272b04863"},"vehicle_type_id":"4","last_reported":1691010360,"current_range_meters":10400,"station_id":"ce4bgj12rcd13ifvqbc0","pricing_plan_id":"free"},{"bike_id":"fe1ecc2d-1dbb-4bf2-a83d-3aa44c7db316","system_id":"levelo_inurba_marseille","lat":43.299028,"lon":5.381509,"is_reserved":false,"is_disabled":false,"rental_uris":{"android":"levelo://app?vid=fe1ecc2d-1dbb-4bf2-a83d-3aa44c7db316","ios":"levelo://app?vid=fe1ecc2d-1dbb-4bf2-a83d-3aa44c7db316"},"vehicle_type_id":"4","last_reported":1691010360,"current_range_meters":1200,"station_id":"ce4bgj12rcd13ifvqbc0","pricing_plan_id":"free"},{"bike_id":"f0b1921d-8fc5-42f6-8214-26455e772ce5","system_id":"levelo_inurba_marseille","lat":43.309589,"lon":5.390258,"is_reserved":false,"is_disabled":false,"rental_uris":{"android":"levelo://app?vid=f0b1921d-8fc5-42f6-8214-26455e772ce5","ios":"levelo://app?vid=f0b1921d-8fc5-42f6-8214-26455e772ce5"},"vehicle_type_id":"4","last_reported":1691010360,"current_range_meters":15600,"station_id":"ce4bgup2rcd13ifvqco0","pricing_plan_id":"free"},{"bike_id":"06d9d5f9-093a-4738-9745-188edef73dc7","system_id":"levelo_inurba_marseille","lat":43.299028,"lon":5.381509,"is_reserved":false,"is_disabled":false,"rental_uris":{"android":"levelo://app?vid=06d9d5f9-093a-4738-9745-188edef73dc7","ios":"levelo://app?vid=06d9d5f9-093a-4738-9745-188edef73dc7"},"vehicle_type_id":"4","last_reported":1691010360,"current_range_meters":31600,"station_id":"ce4bgj12rcd13ifvqbc0","pricing_plan_id":"free"},{"bike_id":"db006f62-b600-4b57-b201-7d663fe6f5c4","system_id":"levelo_inurba_marseille","lat":43.296982,"lon":5.376861,"is_reserved":false,"is_disabled":false,"rental_uris":{"android":"levelo://app?vid=db006f62-b600-4b57-b201-7d663fe6f5c4","ios":"levelo://app?vid=db006f62-b600-4b57-b201-7d663fe6f5c4"},"vehicle_type_id":"4","last_reported":1691010360,"current_range_meters":29600,"station_id":"ce4bgkh2rcd13ifvqbl0","pricing_plan_id":"free"},{"bike_id":"ae3ec0bd-45e1-46de-b6eb-5cc01633fbda","system_id":"levelo_inurba_marseille","lat":43.299028,"lon":5.381509,"is_reserved":false,"is_disabled":false,"rental_uris":{"android":"levelo://app?vid=ae3ec0bd-45e1-46de-b6eb-5cc01633fbda","ios":"levelo://app?vid=ae3ec0bd-45e1-46de-b6eb-5cc01633fbda"},"vehicle_type_id":"4","last_reported":1691010360,"current_range_meters":23600,"station_id":"ce4bgj12rcd13ifvqbc0","pricing_plan_id":"free"},{"bike_id":"7913d72a-164d-4f71-895f-f29b5a57d40c","system_id":"levelo_inurba_marseille","lat":43.299028,"lon":5.381509,"is_reserved":false,"is_disabled":false,"rental_uris":{"android":"levelo://app?vid=7913d72a-164d-4f71-895f-f29b5a57d40c","ios":"levelo://app?vid=7913d72a-164d-4f71-895f-f29b5a57d40c"},"vehicle_type_id":"4","last_reported":1691010360,"current_range_meters":25600,"station_id":"ce4bgj12rcd13ifvqbc0","pricing_plan_id":"free"},{"bike_id":"cae2b2c7-be80-4277-9a92-fdf7e4fe2590","system_id":"levelo_inurba_marseille","lat":43.317557,"lon":5.390173,"is_reserved":false,"is_disabled":false,"rental_uris":{"android":"levelo://app?vid=cae2b2c7-be80-4277-9a92-fdf7e4fe2590","ios":"levelo://app?vid=cae2b2c7-be80-4277-9a92-fdf7e4fe2590"},"vehicle_type_id":"4","last_reported":1691010360,"current_range_meters":24000,"station_id":"ce4bhqp2rcd13ifvqhng","pricing_plan_id":"free"},{"bike_id":"3e98b8b4-07d6-4995-a392-97dabac14f7d","system_id":"levelo_inurba_marseille","lat":43.317557,"lon":5.390173,"is_reserved":false,"is_disabled":false,"rental_uris":{"android":"levelo://app?vid=3e98b8b4-07d6-4995-a392-97dabac14f7d","ios":"levelo://app?vid=3e98b8b4-07d6-4995-a392-97dabac14f7d"},"vehicle_type_id":"4","last_reported":1691010360,"current_range_meters":32000,"station_id":"ce4bhqp2rcd13ifvqhng","pricing_plan_id":"free"},{"bike_id":"da912af9-899a-4251-aa0b-848a34434fe7","system_id":"levelo_inurba_marseille","lat":43.31757,"lon":5.39019,"is_reserved":false,"is_disabled":false,"rental_uris":{"android":"levelo://app?vid=da912af9-899a-4251-aa0b-848a34434fe7","ios":"levelo://app?vid=da912af9-899a-4251-aa0b-848a34434fe7"},"vehicle_type_id":"4","last_reported":1691010360,"current_range_meters":20000,"station_id":"ce4bhqp2rcd13ifvqhng","pricing_plan_id":"free"},{"bike_id":"46bdf69a-5221-4970-bf44-c4b668124c91","system_id":"levelo_inurba_marseille","lat":43.317557,"lon":5.390173,"is_reserved":false,"is_disabled":false,"rental_uris":{"android":"levelo://app?vid=46bdf69a-5221-4970-bf44-c4b668124c91","ios":"levelo://app?vid=46bdf69a-5221-4970-bf44-c4b668124c91"},"vehicle_type_id":"4","last_reported":1691010360,"current_range_meters":14400,"station_id":"ce4bhqp2rcd13ifvqhng","pricing_plan_id":"free"},{"bike_id":"2654e44a-812b-433a-96f1-7ec823d8076e","system_id":"levelo_inurba_marseille","lat":43.298037,"lon":5.381066,"is_reserved":false,"is_disabled":false,"rental_uris":{"android":"levelo://app?vid=2654e44a-812b-433a-96f1-7ec823d8076e","ios":"levelo://app?vid=2654e44a-812b-433a-96f1-7ec823d8076e"},"vehicle_type_id":"4","last_reported":1691010360,"current_range_meters":800,"station_id":"ce4bgip2rcd13ifvqbb0","pricing_plan_id":"free"},{"bike_id":"cc8368ee-a8d4-4d39-a779-90197a1cbb18","system_id":"levelo_inurba_marseille","lat":43.298037,"lon":5.381066,"is_reserved":false,"is_disabled":false,"rental_uris":{"android":"levelo://app?vid=cc8368ee-a8d4-4d39-a779-90197a1cbb18","ios":"levelo://app?vid=cc8368ee-a8d4-4d39-a779-90197a1cbb18"},"vehicle_type_id":"4","last_reported":1691010360,"current_range_meters":14400,"station_id":"ce4bgip2rcd13ifvqbb0","pricing_plan_id":"free"},{"bike_id":"5e4f0b38-fed2-4ea8-a8ec-0561bc5217ba","system_id":"levelo_inurba_marseille","lat":43.298037,"lon":5.381066,"is_reserved":false,"is_disabled":false,"rental_uris":{"android":"levelo://app?vid=5e4f0b38-fed2-4ea8-a8ec-0561bc5217ba","ios":"levelo://app?vid=5e4f0b38-fed2-4ea8-a8ec-0561bc5217ba"},"vehicle_type_id":"4","last_reported":1691010360,"current_range_meters":31200,"station_id":"ce4bgip2rcd13ifvqbb0","pricing_plan_id":"free"},{"bike_id":"b40669e6-831d-4c2d-9496-5a737d6c61de","system_id":"levelo_inurba_marseille","lat":43.30427,"lon":5.38887,"is_reserved":false,"is_disabled":false,"rental_uris":{"android":"levelo://app?vid=b40669e6-831d-4c2d-9496-5a737d6c61de","ios":"levelo://app?vid=b40669e6-831d-4c2d-9496-5a737d6c61de"},"vehicle_type_id":"4","last_reported":1691010360,"current_range_meters":0,"station_id":"ce4bgk12rcd13ifvqbi0","pricing_plan_id":"free"},{"bike_id":"916f0418-1a5f-4b17-9c40-f5161bb50f69","system_id":"levelo_inurba_marseille","lat":43.304372,"lon":5.388955,"is_reserved":false,"is_disabled":false,"rental_uris":{"android":"levelo://app?vid=916f0418-1a5f-4b17-9c40-f5161bb50f69","ios":"levelo://app?vid=916f0418-1a5f-4b17-9c40-f5161bb50f69"},"vehicle_type_id":"4","last_reported":1691010360,"current_range_meters":26400,"station_id":"ce4bgk12rcd13ifvqbi0","pricing_plan_id":"free"},{"bike_id":"af1141f0-07c3-4ed7-8665-a879025fb2ea","system_id":"levelo_inurba_marseille","lat":43.29779,"lon":5.38108,"is_reserved":false,"is_disabled":false,"rental_uris":{"android":"levelo://app?vid=af1141f0-07c3-4ed7-8665-a879025fb2ea","ios":"levelo://app?vid=af1141f0-07c3-4ed7-8665-a879025fb2ea"},"vehicle_type_id":"4","last_reported":1691010360,"current_range_meters":13200,"station_id":"ce4bgip2rcd13ifvqbb0","pricing_plan_id":"free"},{"bike_id":"b52cf151-fdd6-4711-bf26-f142546b7075","system_id":"levelo_inurba_marseille","lat":43.29542,"lon":5.37476,"is_reserved":false,"is_disabled":false,"rental_uris":{"android":"levelo://app?vid=b52cf151-fdd6-4711-bf26-f142546b7075","ios":"levelo://app?vid=b52cf151-fdd6-4711-bf26-f142546b7075"},"vehicle_type_id":"4","last_reported":1691010360,"current_range_meters":21600,"station_id":"ce4bgkp2rcd13ifvqbmg","pricing_plan_id":"free"},{"bike_id":"d481be01-ca42-4080-95c7-9301021163c4","system_id":"levelo_inurba_marseille","lat":43.299717,"lon":5.384845,"is_reserved":false,"is_disabled":false,"rental_uris":{"android":"levelo://app?vid=d481be01-ca42-4080-95c7-9301021163c4","ios":"levelo://app?vid=d481be01-ca42-4080-95c7-9301021163c4"},"vehicle_type_id":"4","last_reported":1691010360,"current_range_meters":16400,"station_id":"ce4bgj92rcd13ifvqbd0","pricing_plan_id":"free"},{"bike_id":"35bf2b60-a96b-44f4-ae00-b0841254aa61","system_id":"levelo_inurba_marseille","lat":43.299717,"lon":5.384845,"is_reserved":false,"is_disabled":false,"rental_uris":{"android":"levelo://app?vid=35bf2b60-a96b-44f4-ae00-b0841254aa61","ios":"levelo://app?vid=35bf2b60-a96b-44f4-ae00-b0841254aa61"},"vehicle_type_id":"4","last_reported":1691010360,"current_range_meters":31200,"station_id":"ce4bgj92rcd13ifvqbd0","pricing_plan_id":"free"},{"bike_id":"e5a3143b-79d8-4f7d-b637-4d39bceddc6c","system_id":"levelo_inurba_marseille","lat":43.299724,"lon":5.384848,"is_reserved":false,"is_disabled":false,"rental_uris":{"android":"levelo://app?vid=e5a3143b-79d8-4f7d-b637-4d39bceddc6c","ios":"levelo://app?vid=e5a3143b-79d8-4f7d-b637-4d39bceddc6c"},"vehicle_type_id":"4","last_reported":1691010360,"current_range_meters":0,"station_id":"ce4bgj92rcd13ifvqbd0","pricing_plan_id":"free"},{"bike_id":"419713fa-7cc1-4cfe-93fa-32add7c4fc42","system_id":"levelo_inurba_marseille","lat":43.32364,"lon":5.38876,"is_reserved":false,"is_disabled":false,"rental_uris":{"android":"levelo://app?vid=419713fa-7cc1-4cfe-93fa-32add7c4fc42","ios":"levelo://app?vid=419713fa-7cc1-4cfe-93fa-32add7c4fc42"},"vehicle_type_id":"4","last_reported":1691010360,"current_range_meters":13600,"station_id":"ce4bhqp2rcd13ifvqhog","pricing_plan_id":"free"},{"bike_id":"3ea7f0f4-0c54-414e-a516-428023527452","system_id":"levelo_inurba_marseille","lat":43.32367,"lon":5.388836,"is_reserved":false,"is_disabled":false,"rental_uris":{"android":"levelo://app?vid=3ea7f0f4-0c54-414e-a516-428023527452","ios":"levelo://app?vid=3ea7f0f4-0c54-414e-a516-428023527452"},"vehicle_type_id":"4","last_reported":1691010360,"current_range_meters":800,"station_id":"ce4bhqp2rcd13ifvqhog","pricing_plan_id":"free"},{"bike_id":"cd4a523e-8d3b-4293-ae99-607c45dccde9","system_id":"levelo_inurba_marseille","lat":43.32367,"lon":5.388836,"is_reserved":false,"is_disabled":false,"rental_uris":{"android":"levelo://app?vid=cd4a523e-8d3b-4293-ae99-607c45dccde9","ios":"levelo://app?vid=cd4a523e-8d3b-4293-ae99-607c45dccde9"},"vehicle_type_id":"4","last_reported":1691010360,"current_range_meters":4800,"station_id":"ce4bhqp2rcd13ifvqhog","pricing_plan_id":"free"},{"bike_id":"86b994c0-4814-4056-a0a6-3895ff71af24","system_id":"levelo_inurba_marseille","lat":43.32365,"lon":5.38881,"is_reserved":false,"is_disabled":false,"rental_uris":{"android":"levelo://app?vid=86b994c0-4814-4056-a0a6-3895ff71af24","ios":"levelo://app?vid=86b994c0-4814-4056-a0a6-3895ff71af24"},"vehicle_type_id":"4","last_reported":1691010360,"current_range_meters":18400,"station_id":"ce4bhqp2rcd13ifvqhog","pricing_plan_id":"free"},{"bike_id":"83e40035-5ae5-4bb2-89ae-adf2ef147026","system_id":"levelo_inurba_marseille","lat":43.323665,"lon":5.388845,"is_reserved":false,"is_disabled":false,"rental_uris":{"android":"levelo://app?vid=83e40035-5ae5-4bb2-89ae-adf2ef147026","ios":"levelo://app?vid=83e40035-5ae5-4bb2-89ae-adf2ef147026"},"vehicle_type_id":"4","last_reported":1691010360,"current_range_meters":17600,"station_id":"","pricing_plan_id":"free"},{"bike_id":"633bcaa6-bb87-4d19-84c1-3b18709aa731","system_id":"levelo_inurba_marseille","lat":43.32363,"lon":5.38889,"is_reserved":false,"is_disabled":false,"rental_uris":{"android":"levelo://app?vid=633bcaa6-bb87-4d19-84c1-3b18709aa731","ios":"levelo://app?vid=633bcaa6-bb87-4d19-84c1-3b18709aa731"},"vehicle_type_id":"4","last_reported":1691010360,"current_range_meters":0,"station_id":"ce4bhqp2rcd13ifvqhog","pricing_plan_id":"free"},{"bike_id":"188ddacc-b314-4797-a176-01b6af8effc5","system_id":"levelo_inurba_marseille","lat":43.29601,"lon":5.381084,"is_reserved":false,"is_disabled":false,"rental_uris":{"android":"levelo://app?vid=188ddacc-b314-4797-a176-01b6af8effc5","ios":"levelo://app?vid=188ddacc-b314-4797-a176-01b6af8effc5"},"vehicle_type_id":"4","last_reported":1691010360,"current_range_meters":14800,"station_id":"ce4bgl12rcd13ifvqbo0","pricing_plan_id":"free"},{"bike_id":"3aaf83cb-65e1-4a67-ad16-04d6edd6c427","system_id":"levelo_inurba_marseille","lat":43.29601,"lon":5.381084,"is_reserved":false,"is_disabled":false,"rental_uris":{"android":"levelo://app?vid=3aaf83cb-65e1-4a67-ad16-04d6edd6c427","ios":"levelo://app?vid=3aaf83cb-65e1-4a67-ad16-04d6edd6c427"},"vehicle_type_id":"4","last_reported":1691010360,"current_range_meters":14800,"station_id":"ce4bgl12rcd13ifvqbo0","pricing_plan_id":"free"},{"bike_id":"d7893f0d-4aec-40e8-841e-0f62a424d819","system_id":"levelo_inurba_marseille","lat":43.293009,"lon":5.374584,"is_reserved":false,"is_disabled":false,"rental_uris":{"android":"levelo://app?vid=d7893f0d-4aec-40e8-841e-0f62a424d819","ios":"levelo://app?vid=d7893f0d-4aec-40e8-841e-0f62a424d819"},"vehicle_type_id":"4","last_reported":1691010360,"current_range_meters":3200,"station_id":"ce4bgi12rcd13ifvqb70","pricing_plan_id":"free"},{"bike_id":"e913ecf6-e0b9-4240-a7f7-46d7f9d792f5","system_id":"levelo_inurba_marseille","lat":43.30295,"lon":5.39206,"is_reserved":false,"is_disabled":false,"rental_uris":{"android":"levelo://app?vid=e913ecf6-e0b9-4240-a7f7-46d7f9d792f5","ios":"levelo://app?vid=e913ecf6-e0b9-4240-a7f7-46d7f9d792f5"},"vehicle_type_id":"4","last_reported":1691010360,"current_range_meters":0,"station_id":"ce4bgkh2rcd13ifvqbk0","pricing_plan_id":"free"},{"bike_id":"38a8b3ee-7644-4b1d-af7c-67f48efba7cf","system_id":"levelo_inurba_marseille","lat":43.30297,"lon":5.39215,"is_reserved":false,"is_disabled":false,"rental_uris":{"android":"levelo://app?vid=38a8b3ee-7644-4b1d-af7c-67f48efba7cf","ios":"levelo://app?vid=38a8b3ee-7644-4b1d-af7c-67f48efba7cf"},"vehicle_type_id":"4","last_reported":1691010360,"current_range_meters":3200,"station_id":"ce4bgkh2rcd13ifvqbk0","pricing_plan_id":"free"},{"bike_id":"79771b64-879d-4880-a30a-a3bff30b9d43","system_id":"levelo_inurba_marseille","lat":43.2936,"lon":5.37835,"is_reserved":false,"is_disabled":false,"rental_uris":{"android":"levelo://app?vid=79771b64-879d-4880-a30a-a3bff30b9d43","ios":"levelo://app?vid=79771b64-879d-4880-a30a-a3bff30b9d43"},"vehicle_type_id":"4","last_reported":1691010360,"current_range_meters":19600,"station_id":"ce4bgjh2rcd13ifvqbf0","pricing_plan_id":"free"},{"bike_id":"4b16db6e-dfa2-4b9a-9685-057362ecb319","system_id":"levelo_inurba_marseille","lat":43.29884,"lon":5.38891,"is_reserved":false,"is_disabled":false,"rental_uris":{"android":"levelo://app?vid=4b16db6e-dfa2-4b9a-9685-057362ecb319","ios":"levelo://app?vid=4b16db6e-dfa2-4b9a-9685-057362ecb319"},"vehicle_type_id":"4","last_reported":1691010360,"current_range_meters":10800,"station_id":"ce4bh392rcd13ifvqdl0","pricing_plan_id":"free"},{"bike_id":"818bb37c-95d6-4334-879f-38cb647a2346","system_id":"levelo_inurba_marseille","lat":43.29866,"lon":5.38906,"is_reserved":false,"is_disabled":false,"rental_uris":{"android":"levelo://app?vid=818bb37c-95d6-4334-879f-38cb647a2346","ios":"levelo://app?vid=818bb37c-95d6-4334-879f-38cb647a2346"},"vehicle_type_id":"4","last_reported":1691010360,"current_range_meters":8000,"station_id":"ce4bh392rcd13ifvqdl0","pricing_plan_id":"free"},{"bike_id":"1e98ab71-d09e-4746-9eef-c0a3c87d1169","system_id":"levelo_inurba_marseille","lat":43.298764,"lon":5.388973,"is_reserved":false,"is_disabled":false,"rental_uris":{"android":"levelo://app?vid=1e98ab71-d09e-4746-9eef-c0a3c87d1169","ios":"levelo://app?vid=1e98ab71-d09e-4746-9eef-c0a3c87d1169"},"vehicle_type_id":"4","last_reported":1691010360,"current_range_meters":15200,"station_id":"ce4bh392rcd13ifvqdl0","pricing_plan_id":"free"},{"bike_id":"d9998d54-4db0-45e2-b574-41c0c0a3c478","system_id":"levelo_inurba_marseille","lat":43.31328,"lon":5.39689,"is_reserved":false,"is_disabled":false,"rental_uris":{"android":"levelo://app?vid=d9998d54-4db0-45e2-b574-41c0c0a3c478","ios":"levelo://app?vid=d9998d54-4db0-45e2-b574-41c0c0a3c478"},"vehicle_type_id":"4","last_reported":1691010360,"current_range_meters":1200,"station_id":"ce4bgvp2rcd13ifvqcu0","pricing_plan_id":"free"},{"bike_id":"151624d5-41ab-40fb-9fd2-1b7b5e0b04b2","system_id":"levelo_inurba_marseille","lat":43.31328,"lon":5.3969,"is_reserved":false,"is_disabled":false,"rental_uris":{"android":"levelo://app?vid=151624d5-41ab-40fb-9fd2-1b7b5e0b04b2","ios":"levelo://app?vid=151624d5-41ab-40fb-9fd2-1b7b5e0b04b2"},"vehicle_type_id":"4","last_reported":1691010360,"current_range_meters":16800,"station_id":"ce4bgvp2rcd13ifvqcu0","pricing_plan_id":"free"},{"bike_id":"521c9354-9d9a-48a4-8bb5-73c33004c0dc","system_id":"levelo_inurba_marseille","lat":43.313291,"lon":5.396838,"is_reserved":false,"is_disabled":false,"rental_uris":{"android":"levelo://app?vid=521c9354-9d9a-48a4-8bb5-73c33004c0dc","ios":"levelo://app?vid=521c9354-9d9a-48a4-8bb5-73c33004c0dc"},"vehicle_type_id":"4","last_reported":1691010360,"current_range_meters":6000,"station_id":"ce4bgvp2rcd13ifvqcu0","pricing_plan_id":"free"},{"bike_id":"0454ffce-87a0-40eb-a183-c6a4b3496905","system_id":"levelo_inurba_marseille","lat":43.31328,"lon":5.39693,"is_reserved":false,"is_disabled":false,"rental_uris":{"android":"levelo://app?vid=0454ffce-87a0-40eb-a183-c6a4b3496905","ios":"levelo://app?vid=0454ffce-87a0-40eb-a183-c6a4b3496905"},"vehicle_type_id":"4","last_reported":1691010360,"current_range_meters":31200,"station_id":"ce4bgvp2rcd13ifvqcu0","pricing_plan_id":"free"},{"bike_id":"f2e6f996-d1eb-4274-820f-60e0db2b66e0","system_id":"levelo_inurba_marseille","lat":43.31329,"lon":5.39693,"is_reserved":false,"is_disabled":false,"rental_uris":{"android":"levelo://app?vid=f2e6f996-d1eb-4274-820f-60e0db2b66e0","ios":"levelo://app?vid=f2e6f996-d1eb-4274-820f-60e0db2b66e0"},"vehicle_type_id":"4","last_reported":1691010360,"current_range_meters":12800,"station_id":"ce4bgvp2rcd13ifvqcu0","pricing_plan_id":"free"},{"bike_id":"00a51f48-f99c-4abf-a06d-c1702832f015","system_id":"levelo_inurba_marseille","lat":43.30881,"lon":5.39646,"is_reserved":false,"is_disabled":false,"rental_uris":{"android":"levelo://app?vid=00a51f48-f99c-4abf-a06d-c1702832f015","ios":"levelo://app?vid=00a51f48-f99c-4abf-a06d-c1702832f015"},"vehicle_type_id":"4","last_reported":1691010360,"current_range_meters":6000,"station_id":"ce4bh012rcd13ifvqcv0","pricing_plan_id":"free"},{"bike_id":"33e56278-1758-4340-a0b1-18a94aa4f46b","system_id":"levelo_inurba_marseille","lat":43.313291,"lon":5.396838,"is_reserved":false,"is_disabled":false,"rental_uris":{"android":"levelo://app?vid=33e56278-1758-4340-a0b1-18a94aa4f46b","ios":"levelo://app?vid=33e56278-1758-4340-a0b1-18a94aa4f46b"},"vehicle_type_id":"4","last_reported":1691010360,"current_range_meters":5200,"station_id":"ce4bgvp2rcd13ifvqcu0","pricing_plan_id":"free"},{"bike_id":"6e949596-c6bb-4655-85a8-3c5c1bcc04e6","system_id":"levelo_inurba_marseille","lat":43.31328,"lon":5.39699,"is_reserved":false,"is_disabled":false,"rental_uris":{"android":"levelo://app?vid=6e949596-c6bb-4655-85a8-3c5c1bcc04e6","ios":"levelo://app?vid=6e949596-c6bb-4655-85a8-3c5c1bcc04e6"},"vehicle_type_id":"4","last_reported":1691010360,"current_range_meters":28800,"station_id":"ce4bgvp2rcd13ifvqcu0","pricing_plan_id":"free"},{"bike_id":"910c3553-ea7f-4548-99e1-f9e12992f64b","system_id":"levelo_inurba_marseille","lat":43.284462,"lon":5.392121,"is_reserved":false,"is_disabled":false,"rental_uris":{"android":"levelo://app?vid=910c3553-ea7f-4548-99e1-f9e12992f64b","ios":"levelo://app?vid=910c3553-ea7f-4548-99e1-f9e12992f64b"},"vehicle_type_id":"4","last_reported":1691010360,"current_range_meters":19600,"station_id":"ce4bhoh2rcd13ifvqh5g","pricing_plan_id":"free"},{"bike_id":"abc9b41e-3086-4e20-b9bf-ccc4d0698a83","system_id":"levelo_inurba_marseille","lat":43.29533,"lon":5.3854,"is_reserved":false,"is_disabled":false,"rental_uris":{"android":"levelo://app?vid=abc9b41e-3086-4e20-b9bf-ccc4d0698a83","ios":"levelo://app?vid=abc9b41e-3086-4e20-b9bf-ccc4d0698a83"},"vehicle_type_id":"4","last_reported":1691010360,"current_range_meters":5200,"station_id":"ce4bgih2rcd13ifvqba0","pricing_plan_id":"free"},{"bike_id":"520492df-c4d3-4e4b-9a98-95ed80d76bae","system_id":"levelo_inurba_marseille","lat":43.29529,"lon":5.385581,"is_reserved":false,"is_disabled":false,"rental_uris":{"android":"levelo://app?vid=520492df-c4d3-4e4b-9a98-95ed80d76bae","ios":"levelo://app?vid=520492df-c4d3-4e4b-9a98-95ed80d76bae"},"vehicle_type_id":"4","last_reported":1691010360,"current_range_meters":7200,"station_id":"ce4bgih2rcd13ifvqba0","pricing_plan_id":"free"},{"bike_id":"edce8aed-dcf5-418d-97aa-7fc6846c048e","system_id":"levelo_inurba_marseille","lat":43.29529,"lon":5.385581,"is_reserved":false,"is_disabled":false,"rental_uris":{"android":"levelo://app?vid=edce8aed-dcf5-418d-97aa-7fc6846c048e","ios":"levelo://app?vid=edce8aed-dcf5-418d-97aa-7fc6846c048e"},"vehicle_type_id":"4","last_reported":1691010360,"current_range_meters":28000,"station_id":"ce4bgih2rcd13ifvqba0","pricing_plan_id":"free"},{"bike_id":"f18855c8-ceb9-4861-aed7-268fa7d967cf","system_id":"levelo_inurba_marseille","lat":43.29529,"lon":5.385581,"is_reserved":false,"is_disabled":false,"rental_uris":{"android":"levelo://app?vid=f18855c8-ceb9-4861-aed7-268fa7d967cf","ios":"levelo://app?vid=f18855c8-ceb9-4861-aed7-268fa7d967cf"},"vehicle_type_id":"4","last_reported":1691010360,"current_range_meters":24400,"station_id":"ce4bgih2rcd13ifvqba0","pricing_plan_id":"free"},{"bike_id":"ab1f3951-593e-475b-9a20-4123bc246772","system_id":"levelo_inurba_marseille","lat":43.29529,"lon":5.385581,"is_reserved":false,"is_disabled":false,"rental_uris":{"android":"levelo://app?vid=ab1f3951-593e-475b-9a20-4123bc246772","ios":"levelo://app?vid=ab1f3951-593e-475b-9a20-4123bc246772"},"vehicle_type_id":"4","last_reported":1691010360,"current_range_meters":30400,"station_id":"ce4bgih2rcd13ifvqba0","pricing_plan_id":"free"},{"bike_id":"c2c03e7d-119e-4e32-b037-e715b4f24c55","system_id":"levelo_inurba_marseille","lat":43.29529,"lon":5.385581,"is_reserved":false,"is_disabled":false,"rental_uris":{"android":"levelo://app?vid=c2c03e7d-119e-4e32-b037-e715b4f24c55","ios":"levelo://app?vid=c2c03e7d-119e-4e32-b037-e715b4f24c55"},"vehicle_type_id":"4","last_reported":1691010360,"current_range_meters":6800,"station_id":"ce4bgih2rcd13ifvqba0","pricing_plan_id":"free"},{"bike_id":"5ee97080-4928-422d-909e-0f49721fff5a","system_id":"levelo_inurba_marseille","lat":43.29529,"lon":5.385581,"is_reserved":false,"is_disabled":false,"rental_uris":{"android":"levelo://app?vid=5ee97080-4928-422d-909e-0f49721fff5a","ios":"levelo://app?vid=5ee97080-4928-422d-909e-0f49721fff5a"},"vehicle_type_id":"4","last_reported":1691010360,"current_range_meters":4000,"station_id":"ce4bgih2rcd13ifvqba0","pricing_plan_id":"free"},{"bike_id":"1542ee7d-01d4-4b81-a490-bac2ef45701d","system_id":"levelo_inurba_marseille","lat":43.2953,"lon":5.38553,"is_reserved":false,"is_disabled":false,"rental_uris":{"android":"levelo://app?vid=1542ee7d-01d4-4b81-a490-bac2ef45701d","ios":"levelo://app?vid=1542ee7d-01d4-4b81-a490-bac2ef45701d"},"vehicle_type_id":"4","last_reported":1691010360,"current_range_meters":0,"station_id":"ce4bgih2rcd13ifvqba0","pricing_plan_id":"free"},{"bike_id":"ba4ce0aa-d639-4c93-baf8-419f7ec13765","system_id":"levelo_inurba_marseille","lat":43.29529,"lon":5.385581,"is_reserved":false,"is_disabled":false,"rental_uris":{"android":"levelo://app?vid=ba4ce0aa-d639-4c93-baf8-419f7ec13765","ios":"levelo://app?vid=ba4ce0aa-d639-4c93-baf8-419f7ec13765"},"vehicle_type_id":"4","last_reported":1691010360,"current_range_meters":9200,"station_id":"ce4bgih2rcd13ifvqba0","pricing_plan_id":"free"},{"bike_id":"9dcee87c-c824-44b4-8dc1-3cff8a1f9d34","system_id":"levelo_inurba_marseille","lat":43.294183,"lon":5.386222,"is_reserved":false,"is_disabled":false,"rental_uris":{"android":"levelo://app?vid=9dcee87c-c824-44b4-8dc1-3cff8a1f9d34","ios":"levelo://app?vid=9dcee87c-c824-44b4-8dc1-3cff8a1f9d34"},"vehicle_type_id":"4","last_reported":1691010360,"current_range_meters":12400,"station_id":"ce4bh2h2rcd13ifvqdh0","pricing_plan_id":"free"},{"bike_id":"b522b45c-3dba-4379-890a-81c38ea4bd7e","system_id":"levelo_inurba_marseille","lat":43.29418,"lon":5.38625,"is_reserved":false,"is_disabled":false,"rental_uris":{"android":"levelo://app?vid=b522b45c-3dba-4379-890a-81c38ea4bd7e","ios":"levelo://app?vid=b522b45c-3dba-4379-890a-81c38ea4bd7e"},"vehicle_type_id":"4","last_reported":1691010360,"current_range_meters":5600,"station_id":"ce4bh2h2rcd13ifvqdh0","pricing_plan_id":"free"},{"bike_id":"fc617bee-1a35-4a5f-9376-d88cc0fd99d2","system_id":"levelo_inurba_marseille","lat":43.294153,"lon":5.386305,"is_reserved":false,"is_disabled":false,"rental_uris":{"android":"levelo://app?vid=fc617bee-1a35-4a5f-9376-d88cc0fd99d2","ios":"levelo://app?vid=fc617bee-1a35-4a5f-9376-d88cc0fd99d2"},"vehicle_type_id":"4","last_reported":1691010360,"current_range_meters":20800,"station_id":"ce4bh2h2rcd13ifvqdh0","pricing_plan_id":"free"},{"bike_id":"d0d2a681-fdf3-4e65-b7d2-7f6928b45c63","system_id":"levelo_inurba_marseille","lat":43.294162,"lon":5.386292,"is_reserved":false,"is_disabled":false,"rental_uris":{"android":"levelo://app?vid=d0d2a681-fdf3-4e65-b7d2-7f6928b45c63","ios":"levelo://app?vid=d0d2a681-fdf3-4e65-b7d2-7f6928b45c63"},"vehicle_type_id":"4","last_reported":1691010360,"current_range_meters":23200,"station_id":"ce4bh2h2rcd13ifvqdh0","pricing_plan_id":"free"},{"bike_id":"d24f52f9-4875-42bd-acc8-6f4050b626d8","system_id":"levelo_inurba_marseille","lat":43.29415,"lon":5.38623,"is_reserved":false,"is_disabled":false,"rental_uris":{"android":"levelo://app?vid=d24f52f9-4875-42bd-acc8-6f4050b626d8","ios":"levelo://app?vid=d24f52f9-4875-42bd-acc8-6f4050b626d8"},"vehicle_type_id":"4","last_reported":1691010360,"current_range_meters":18800,"station_id":"ce4bh2h2rcd13ifvqdh0","pricing_plan_id":"free"},{"bike_id":"9bd4050c-256f-461d-88c3-4a023ab4a118","system_id":"levelo_inurba_marseille","lat":43.29414,"lon":5.38624,"is_reserved":false,"is_disabled":false,"rental_uris":{"android":"levelo://app?vid=9bd4050c-256f-461d-88c3-4a023ab4a118","ios":"levelo://app?vid=9bd4050c-256f-461d-88c3-4a023ab4a118"},"vehicle_type_id":"4","last_reported":1691010360,"current_range_meters":28800,"station_id":"ce4bh2h2rcd13ifvqdh0","pricing_plan_id":"free"},{"bike_id":"f0a7e927-f653-4bb4-b7ce-eded163281ec","system_id":"levelo_inurba_marseille","lat":43.29417,"lon":5.3863,"is_reserved":false,"is_disabled":false,"rental_uris":{"android":"levelo://app?vid=f0a7e927-f653-4bb4-b7ce-eded163281ec","ios":"levelo://app?vid=f0a7e927-f653-4bb4-b7ce-eded163281ec"},"vehicle_type_id":"4","last_reported":1691010360,"current_range_meters":10000,"station_id":"ce4bh2h2rcd13ifvqdh0","pricing_plan_id":"free"},{"bike_id":"dd720e63-4efe-44ea-82c7-6fdd58ea3977","system_id":"levelo_inurba_marseille","lat":43.29413,"lon":5.38623,"is_reserved":false,"is_disabled":false,"rental_uris":{"android":"levelo://app?vid=dd720e63-4efe-44ea-82c7-6fdd58ea3977","ios":"levelo://app?vid=dd720e63-4efe-44ea-82c7-6fdd58ea3977"},"vehicle_type_id":"4","last_reported":1691010360,"current_range_meters":17600,"station_id":"ce4bh2h2rcd13ifvqdh0","pricing_plan_id":"free"},{"bike_id":"a061cb1e-e046-4041-a475-de928e9992f7","system_id":"levelo_inurba_marseille","lat":43.29415,"lon":5.38627,"is_reserved":false,"is_disabled":false,"rental_uris":{"android":"levelo://app?vid=a061cb1e-e046-4041-a475-de928e9992f7","ios":"levelo://app?vid=a061cb1e-e046-4041-a475-de928e9992f7"},"vehicle_type_id":"4","last_reported":1691010360,"current_range_meters":31600,"station_id":"ce4bh2h2rcd13ifvqdh0","pricing_plan_id":"free"},{"bike_id":"46e5fc50-fa1f-41c0-86f2-3c0ed9fb7745","system_id":"levelo_inurba_marseille","lat":43.294153,"lon":5.386305,"is_reserved":false,"is_disabled":false,"rental_uris":{"android":"levelo://app?vid=46e5fc50-fa1f-41c0-86f2-3c0ed9fb7745","ios":"levelo://app?vid=46e5fc50-fa1f-41c0-86f2-3c0ed9fb7745"},"vehicle_type_id":"4","last_reported":1691010360,"current_range_meters":27200,"station_id":"ce4bh2h2rcd13ifvqdh0","pricing_plan_id":"free"},{"bike_id":"c5894aee-e47c-4abe-8bec-d00015c3a76f","system_id":"levelo_inurba_marseille","lat":43.29415,"lon":5.38628,"is_reserved":false,"is_disabled":false,"rental_uris":{"android":"levelo://app?vid=c5894aee-e47c-4abe-8bec-d00015c3a76f","ios":"levelo://app?vid=c5894aee-e47c-4abe-8bec-d00015c3a76f"},"vehicle_type_id":"4","last_reported":1691010360,"current_range_meters":19600,"station_id":"ce4bh2h2rcd13ifvqdh0","pricing_plan_id":"free"},{"bike_id":"f3f703af-ae52-4394-b8ca-c01f497c1605","system_id":"levelo_inurba_marseille","lat":43.29414,"lon":5.38627,"is_reserved":false,"is_disabled":false,"rental_uris":{"android":"levelo://app?vid=f3f703af-ae52-4394-b8ca-c01f497c1605","ios":"levelo://app?vid=f3f703af-ae52-4394-b8ca-c01f497c1605"},"vehicle_type_id":"4","last_reported":1691010360,"current_range_meters":20400,"station_id":"ce4bh2h2rcd13ifvqdh0","pricing_plan_id":"free"},{"bike_id":"433e2b6e-e9dc-4891-afa7-b347bb36ca3a","system_id":"levelo_inurba_marseille","lat":43.294162,"lon":5.386292,"is_reserved":false,"is_disabled":false,"rental_uris":{"android":"levelo://app?vid=433e2b6e-e9dc-4891-afa7-b347bb36ca3a","ios":"levelo://app?vid=433e2b6e-e9dc-4891-afa7-b347bb36ca3a"},"vehicle_type_id":"4","last_reported":1691010360,"current_range_meters":23200,"station_id":"ce4bh2h2rcd13ifvqdh0","pricing_plan_id":"free"},{"bike_id":"4401f090-fe25-4aca-a5ce-dace8d9509af","system_id":"levelo_inurba_marseille","lat":43.29412,"lon":5.38627,"is_reserved":false,"is_disabled":false,"rental_uris":{"android":"levelo://app?vid=4401f090-fe25-4aca-a5ce-dace8d9509af","ios":"levelo://app?vid=4401f090-fe25-4aca-a5ce-dace8d9509af"},"vehicle_type_id":"4","last_reported":1691010360,"current_range_meters":25600,"station_id":"ce4bh2h2rcd13ifvqdh0","pricing_plan_id":"free"},{"bike_id":"85fbc7b0-8571-44a6-b56b-bd48887def03","system_id":"levelo_inurba_marseille","lat":43.29413,"lon":5.38629,"is_reserved":false,"is_disabled":false,"rental_uris":{"android":"levelo://app?vid=85fbc7b0-8571-44a6-b56b-bd48887def03","ios":"levelo://app?vid=85fbc7b0-8571-44a6-b56b-bd48887def03"},"vehicle_type_id":"4","last_reported":1691010360,"current_range_meters":20000,"station_id":"ce4bh2h2rcd13ifvqdh0","pricing_plan_id":"free"},{"bike_id":"c76690fe-9eeb-4575-8589-81df2a03764a","system_id":"levelo_inurba_marseille","lat":43.29413,"lon":5.3863,"is_reserved":false,"is_disabled":false,"rental_uris":{"android":"levelo://app?vid=c76690fe-9eeb-4575-8589-81df2a03764a","ios":"levelo://app?vid=c76690fe-9eeb-4575-8589-81df2a03764a"},"vehicle_type_id":"4","last_reported":1691010360,"current_range_meters":3200,"station_id":"ce4bh2h2rcd13ifvqdh0","pricing_plan_id":"free"},{"bike_id":"38911102-2d30-4b6a-8175-1be905179a67","system_id":"levelo_inurba_marseille","lat":43.29412,"lon":5.38629,"is_reserved":false,"is_disabled":false,"rental_uris":{"android":"levelo://app?vid=38911102-2d30-4b6a-8175-1be905179a67","ios":"levelo://app?vid=38911102-2d30-4b6a-8175-1be905179a67"},"vehicle_type_id":"4","last_reported":1691010360,"current_range_meters":26000,"station_id":"ce4bh2h2rcd13ifvqdh0","pricing_plan_id":"free"},{"bike_id":"d1ec5f95-e40b-4835-a77f-62b1c1ae2ef9","system_id":"levelo_inurba_marseille","lat":43.294162,"lon":5.386292,"is_reserved":false,"is_disabled":false,"rental_uris":{"android":"levelo://app?vid=d1ec5f95-e40b-4835-a77f-62b1c1ae2ef9","ios":"levelo://app?vid=d1ec5f95-e40b-4835-a77f-62b1c1ae2ef9"},"vehicle_type_id":"4","last_reported":1691010360,"current_range_meters":28800,"station_id":"ce4bh2h2rcd13ifvqdh0","pricing_plan_id":"free"},{"bike_id":"6842c27d-838c-48d8-bd3f-ba49baf64d41","system_id":"levelo_inurba_marseille","lat":43.294153,"lon":5.386305,"is_reserved":false,"is_disabled":false,"rental_uris":{"android":"levelo://app?vid=6842c27d-838c-48d8-bd3f-ba49baf64d41","ios":"levelo://app?vid=6842c27d-838c-48d8-bd3f-ba49baf64d41"},"vehicle_type_id":"4","last_reported":1691010360,"current_range_meters":5600,"station_id":"ce4bh2h2rcd13ifvqdh0","pricing_plan_id":"free"},{"bike_id":"ea4998f7-a9d4-4c2a-b23c-36538b3ba159","system_id":"levelo_inurba_marseille","lat":43.289468,"lon":5.363719,"is_reserved":false,"is_disabled":false,"rental_uris":{"android":"levelo://app?vid=ea4998f7-a9d4-4c2a-b23c-36538b3ba159","ios":"levelo://app?vid=ea4998f7-a9d4-4c2a-b23c-36538b3ba159"},"vehicle_type_id":"4","last_reported":1691010360,"current_range_meters":800,"station_id":"ce4bhc92rcd13ifvqetg","pricing_plan_id":"free"},{"bike_id":"a7a13091-d4f3-49aa-a560-a35ccdfa7e95","system_id":"levelo_inurba_marseille","lat":43.294162,"lon":5.386292,"is_reserved":false,"is_disabled":false,"rental_uris":{"android":"levelo://app?vid=a7a13091-d4f3-49aa-a560-a35ccdfa7e95","ios":"levelo://app?vid=a7a13091-d4f3-49aa-a560-a35ccdfa7e95"},"vehicle_type_id":"4","last_reported":1691010360,"current_range_meters":8800,"station_id":"ce4bh2h2rcd13ifvqdh0","pricing_plan_id":"free"},{"bike_id":"958d4cd5-a17a-4818-8983-620449dfc539","system_id":"levelo_inurba_marseille","lat":43.289468,"lon":5.363719,"is_reserved":false,"is_disabled":false,"rental_uris":{"android":"levelo://app?vid=958d4cd5-a17a-4818-8983-620449dfc539","ios":"levelo://app?vid=958d4cd5-a17a-4818-8983-620449dfc539"},"vehicle_type_id":"4","last_reported":1691010360,"current_range_meters":16400,"station_id":"ce4bhc92rcd13ifvqetg","pricing_plan_id":"free"},{"bike_id":"8ee25f2d-6aa5-4fb6-979d-c17fd6a374a2","system_id":"levelo_inurba_marseille","lat":43.292642,"lon":5.384254,"is_reserved":false,"is_disabled":false,"rental_uris":{"android":"levelo://app?vid=8ee25f2d-6aa5-4fb6-979d-c17fd6a374a2","ios":"levelo://app?vid=8ee25f2d-6aa5-4fb6-979d-c17fd6a374a2"},"vehicle_type_id":"4","last_reported":1691010360,"current_range_meters":22400,"station_id":"ce4bh692rcd13ifvqea0","pricing_plan_id":"free"},{"bike_id":"f29ccf75-01cd-48d5-bcc8-dd3138bbd060","system_id":"levelo_inurba_marseille","lat":43.29256,"lon":5.38415,"is_reserved":false,"is_disabled":false,"rental_uris":{"android":"levelo://app?vid=f29ccf75-01cd-48d5-bcc8-dd3138bbd060","ios":"levelo://app?vid=f29ccf75-01cd-48d5-bcc8-dd3138bbd060"},"vehicle_type_id":"4","last_reported":1691010360,"current_range_meters":16000,"station_id":"ce4bh692rcd13ifvqea0","pricing_plan_id":"free"},{"bike_id":"a444fdcc-a3d2-4e68-84ca-4d5ab09a8776","system_id":"levelo_inurba_marseille","lat":43.292642,"lon":5.384254,"is_reserved":false,"is_disabled":false,"rental_uris":{"android":"levelo://app?vid=a444fdcc-a3d2-4e68-84ca-4d5ab09a8776","ios":"levelo://app?vid=a444fdcc-a3d2-4e68-84ca-4d5ab09a8776"},"vehicle_type_id":"4","last_reported":1691010360,"current_range_meters":20400,"station_id":"ce4bh692rcd13ifvqea0","pricing_plan_id":"free"},{"bike_id":"43bcd212-ac13-4d6d-9e43-46c4fd3628c5","system_id":"levelo_inurba_marseille","lat":43.292642,"lon":5.384254,"is_reserved":false,"is_disabled":false,"rental_uris":{"android":"levelo://app?vid=43bcd212-ac13-4d6d-9e43-46c4fd3628c5","ios":"levelo://app?vid=43bcd212-ac13-4d6d-9e43-46c4fd3628c5"},"vehicle_type_id":"4","last_reported":1691010360,"current_range_meters":15600,"station_id":"ce4bh692rcd13ifvqea0","pricing_plan_id":"free"},{"bike_id":"f89d289d-7e75-429e-b620-0b52e94d3b94","system_id":"levelo_inurba_marseille","lat":43.292642,"lon":5.384254,"is_reserved":false,"is_disabled":false,"rental_uris":{"android":"levelo://app?vid=f89d289d-7e75-429e-b620-0b52e94d3b94","ios":"levelo://app?vid=f89d289d-7e75-429e-b620-0b52e94d3b94"},"vehicle_type_id":"4","last_reported":1691010360,"current_range_meters":18800,"station_id":"ce4bh692rcd13ifvqea0","pricing_plan_id":"free"},{"bike_id":"b63e4b38-9b9e-4235-aa84-2ac83a9ab85c","system_id":"levelo_inurba_marseille","lat":43.29266,"lon":5.38448,"is_reserved":false,"is_disabled":false,"rental_uris":{"android":"levelo://app?vid=b63e4b38-9b9e-4235-aa84-2ac83a9ab85c","ios":"levelo://app?vid=b63e4b38-9b9e-4235-aa84-2ac83a9ab85c"},"vehicle_type_id":"4","last_reported":1691010360,"current_range_meters":25200,"station_id":"ce4bh692rcd13ifvqea0","pricing_plan_id":"free"},{"bike_id":"8c15c3e4-5782-457a-af10-49246f44cdc8","system_id":"levelo_inurba_marseille","lat":43.292644,"lon":5.384257,"is_reserved":false,"is_disabled":false,"rental_uris":{"android":"levelo://app?vid=8c15c3e4-5782-457a-af10-49246f44cdc8","ios":"levelo://app?vid=8c15c3e4-5782-457a-af10-49246f44cdc8"},"vehicle_type_id":"4","last_reported":1691010360,"current_range_meters":28800,"station_id":"ce4bh692rcd13ifvqea0","pricing_plan_id":"free"},{"bike_id":"062ff878-5ac2-4a78-bec9-3ec5a823ba6d","system_id":"levelo_inurba_marseille","lat":43.292665,"lon":5.384502,"is_reserved":false,"is_disabled":false,"rental_uris":{"android":"levelo://app?vid=062ff878-5ac2-4a78-bec9-3ec5a823ba6d","ios":"levelo://app?vid=062ff878-5ac2-4a78-bec9-3ec5a823ba6d"},"vehicle_type_id":"4","last_reported":1691010360,"current_range_meters":19600,"station_id":"ce4bh692rcd13ifvqea0","pricing_plan_id":"free"},{"bike_id":"38ddfe4e-8f0f-403c-a950-1b8a3179972d","system_id":"levelo_inurba_marseille","lat":43.292656,"lon":5.384485,"is_reserved":false,"is_disabled":false,"rental_uris":{"android":"levelo://app?vid=38ddfe4e-8f0f-403c-a950-1b8a3179972d","ios":"levelo://app?vid=38ddfe4e-8f0f-403c-a950-1b8a3179972d"},"vehicle_type_id":"4","last_reported":1691010360,"current_range_meters":19200,"station_id":"ce4bh692rcd13ifvqea0","pricing_plan_id":"free"},{"bike_id":"849f1bca-0f51-4c2a-9296-5396a3e692af","system_id":"levelo_inurba_marseille","lat":43.292642,"lon":5.384254,"is_reserved":false,"is_disabled":false,"rental_uris":{"android":"levelo://app?vid=849f1bca-0f51-4c2a-9296-5396a3e692af","ios":"levelo://app?vid=849f1bca-0f51-4c2a-9296-5396a3e692af"},"vehicle_type_id":"4","last_reported":1691010360,"current_range_meters":10800,"station_id":"ce4bh692rcd13ifvqea0","pricing_plan_id":"free"},{"bike_id":"3c342c44-582b-4b44-bf2d-aafcf31ea71a","system_id":"levelo_inurba_marseille","lat":43.29263,"lon":5.384443,"is_reserved":false,"is_disabled":false,"rental_uris":{"android":"levelo://app?vid=3c342c44-582b-4b44-bf2d-aafcf31ea71a","ios":"levelo://app?vid=3c342c44-582b-4b44-bf2d-aafcf31ea71a"},"vehicle_type_id":"4","last_reported":1691010360,"current_range_meters":31200,"station_id":"ce4bh692rcd13ifvqea0","pricing_plan_id":"free"},{"bike_id":"60ae079a-0996-4444-8a2c-e91f4ae8b6a0","system_id":"levelo_inurba_marseille","lat":43.292644,"lon":5.384257,"is_reserved":false,"is_disabled":false,"rental_uris":{"android":"levelo://app?vid=60ae079a-0996-4444-8a2c-e91f4ae8b6a0","ios":"levelo://app?vid=60ae079a-0996-4444-8a2c-e91f4ae8b6a0"},"vehicle_type_id":"4","last_reported":1691010360,"current_range_meters":30400,"station_id":"ce4bh692rcd13ifvqea0","pricing_plan_id":"free"},{"bike_id":"509fc6dc-6c7a-4225-b52e-6997d0b560ea","system_id":"levelo_inurba_marseille","lat":43.292642,"lon":5.384254,"is_reserved":false,"is_disabled":false,"rental_uris":{"android":"levelo://app?vid=509fc6dc-6c7a-4225-b52e-6997d0b560ea","ios":"levelo://app?vid=509fc6dc-6c7a-4225-b52e-6997d0b560ea"},"vehicle_type_id":"4","last_reported":1691010360,"current_range_meters":14000,"station_id":"ce4bh692rcd13ifvqea0","pricing_plan_id":"free"},{"bike_id":"3823c184-abde-47d2-b7fd-949e77812a97","system_id":"levelo_inurba_marseille","lat":43.29264,"lon":5.38448,"is_reserved":false,"is_disabled":false,"rental_uris":{"android":"levelo://app?vid=3823c184-abde-47d2-b7fd-949e77812a97","ios":"levelo://app?vid=3823c184-abde-47d2-b7fd-949e77812a97"},"vehicle_type_id":"4","last_reported":1691010360,"current_range_meters":31200,"station_id":"ce4bh692rcd13ifvqea0","pricing_plan_id":"free"},{"bike_id":"c451c097-d735-4216-aab5-ec02a491126f","system_id":"levelo_inurba_marseille","lat":43.292652,"lon":5.38451,"is_reserved":false,"is_disabled":false,"rental_uris":{"android":"levelo://app?vid=c451c097-d735-4216-aab5-ec02a491126f","ios":"levelo://app?vid=c451c097-d735-4216-aab5-ec02a491126f"},"vehicle_type_id":"4","last_reported":1691010360,"current_range_meters":23600,"station_id":"ce4bh692rcd13ifvqea0","pricing_plan_id":"free"},{"bike_id":"a5a154c5-328b-4f67-959d-dec71ba54214","system_id":"levelo_inurba_marseille","lat":43.292642,"lon":5.384254,"is_reserved":false,"is_disabled":false,"rental_uris":{"android":"levelo://app?vid=a5a154c5-328b-4f67-959d-dec71ba54214","ios":"levelo://app?vid=a5a154c5-328b-4f67-959d-dec71ba54214"},"vehicle_type_id":"4","last_reported":1691010360,"current_range_meters":16800,"station_id":"ce4bh692rcd13ifvqea0","pricing_plan_id":"free"},{"bike_id":"77bc0033-2ccb-4231-af14-6d1ed9496345","system_id":"levelo_inurba_marseille","lat":43.29257,"lon":5.38437,"is_reserved":false,"is_disabled":false,"rental_uris":{"android":"levelo://app?vid=77bc0033-2ccb-4231-af14-6d1ed9496345","ios":"levelo://app?vid=77bc0033-2ccb-4231-af14-6d1ed9496345"},"vehicle_type_id":"4","last_reported":1691010360,"current_range_meters":30400,"station_id":"ce4bh692rcd13ifvqea0","pricing_plan_id":"free"},{"bike_id":"f66bc91d-53d1-4eda-a3e3-f536356bc799","system_id":"levelo_inurba_marseille","lat":43.29262,"lon":5.384503,"is_reserved":false,"is_disabled":false,"rental_uris":{"android":"levelo://app?vid=f66bc91d-53d1-4eda-a3e3-f536356bc799","ios":"levelo://app?vid=f66bc91d-53d1-4eda-a3e3-f536356bc799"},"vehicle_type_id":"4","last_reported":1691010360,"current_range_meters":31200,"station_id":"ce4bh692rcd13ifvqea0","pricing_plan_id":"free"},{"bike_id":"bde9cc6e-b259-4df9-a5bc-49696562260d","system_id":"levelo_inurba_marseille","lat":43.29258,"lon":5.38444,"is_reserved":false,"is_disabled":false,"rental_uris":{"android":"levelo://app?vid=bde9cc6e-b259-4df9-a5bc-49696562260d","ios":"levelo://app?vid=bde9cc6e-b259-4df9-a5bc-49696562260d"},"vehicle_type_id":"4","last_reported":1691010360,"current_range_meters":21200,"station_id":"ce4bh692rcd13ifvqea0","pricing_plan_id":"free"},{"bike_id":"0714e0e6-6e63-44d2-894b-53675c1102d1","system_id":"levelo_inurba_marseille","lat":43.292642,"lon":5.384254,"is_reserved":false,"is_disabled":false,"rental_uris":{"android":"levelo://app?vid=0714e0e6-6e63-44d2-894b-53675c1102d1","ios":"levelo://app?vid=0714e0e6-6e63-44d2-894b-53675c1102d1"},"vehicle_type_id":"4","last_reported":1691010360,"current_range_meters":17600,"station_id":"ce4bh692rcd13ifvqea0","pricing_plan_id":"free"},{"bike_id":"13d729c1-234e-4163-a5fd-9fc345c70f9e","system_id":"levelo_inurba_marseille","lat":43.292642,"lon":5.384254,"is_reserved":false,"is_disabled":false,"rental_uris":{"android":"levelo://app?vid=13d729c1-234e-4163-a5fd-9fc345c70f9e","ios":"levelo://app?vid=13d729c1-234e-4163-a5fd-9fc345c70f9e"},"vehicle_type_id":"4","last_reported":1691010360,"current_range_meters":23200,"station_id":"ce4bh692rcd13ifvqea0","pricing_plan_id":"free"},{"bike_id":"7a312ff6-6312-4d30-95c6-288176b40107","system_id":"levelo_inurba_marseille","lat":43.292642,"lon":5.384254,"is_reserved":false,"is_disabled":false,"rental_uris":{"android":"levelo://app?vid=7a312ff6-6312-4d30-95c6-288176b40107","ios":"levelo://app?vid=7a312ff6-6312-4d30-95c6-288176b40107"},"vehicle_type_id":"4","last_reported":1691010360,"current_range_meters":31200,"station_id":"ce4bh692rcd13ifvqea0","pricing_plan_id":"free"},{"bike_id":"c027c03d-dea7-441a-9c24-fd39f84eea81","system_id":"levelo_inurba_marseille","lat":43.2926,"lon":5.38458,"is_reserved":false,"is_disabled":false,"rental_uris":{"android":"levelo://app?vid=c027c03d-dea7-441a-9c24-fd39f84eea81","ios":"levelo://app?vid=c027c03d-dea7-441a-9c24-fd39f84eea81"},"vehicle_type_id":"4","last_reported":1691010360,"current_range_meters":31200,"station_id":"ce4bh692rcd13ifvqea0","pricing_plan_id":"free"},{"bike_id":"e3d9a87e-6429-481d-9019-42e34f04f315","system_id":"levelo_inurba_marseille","lat":43.33035,"lon":5.38914,"is_reserved":false,"is_disabled":false,"rental_uris":{"android":"levelo://app?vid=e3d9a87e-6429-481d-9019-42e34f04f315","ios":"levelo://app?vid=e3d9a87e-6429-481d-9019-42e34f04f315"},"vehicle_type_id":"4","last_reported":1691010360,"current_range_meters":9600,"station_id":"ce4bhr92rcd13ifvqhrg","pricing_plan_id":"free"},{"bike_id":"d58d6725-0c71-4b59-8975-0ecb15dbbf2c","system_id":"levelo_inurba_marseille","lat":43.29252,"lon":5.38447,"is_reserved":false,"is_disabled":false,"rental_uris":{"android":"levelo://app?vid=d58d6725-0c71-4b59-8975-0ecb15dbbf2c","ios":"levelo://app?vid=d58d6725-0c71-4b59-8975-0ecb15dbbf2c"},"vehicle_type_id":"4","last_reported":1691010360,"current_range_meters":31200,"station_id":"ce4bh692rcd13ifvqea0","pricing_plan_id":"free"},{"bike_id":"657a6e61-27d9-4b0a-aabc-9b5f395fa5dc","system_id":"levelo_inurba_marseille","lat":43.292642,"lon":5.384254,"is_reserved":false,"is_disabled":false,"rental_uris":{"android":"levelo://app?vid=657a6e61-27d9-4b0a-aabc-9b5f395fa5dc","ios":"levelo://app?vid=657a6e61-27d9-4b0a-aabc-9b5f395fa5dc"},"vehicle_type_id":"4","last_reported":1691010360,"current_range_meters":22800,"station_id":"ce4bh692rcd13ifvqea0","pricing_plan_id":"free"},{"bike_id":"2c011360-5073-47df-9b40-d6b489e09a4a","system_id":"levelo_inurba_marseille","lat":43.304296,"lon":5.397513,"is_reserved":false,"is_disabled":false,"rental_uris":{"android":"levelo://app?vid=2c011360-5073-47df-9b40-d6b489e09a4a","ios":"levelo://app?vid=2c011360-5073-47df-9b40-d6b489e09a4a"},"vehicle_type_id":"4","last_reported":1691010360,"current_range_meters":18000,"station_id":"ce4bh092rcd13ifvqd20","pricing_plan_id":"free"},{"bike_id":"c316bce6-9560-464a-88dd-81e09b666d5e","system_id":"levelo_inurba_marseille","lat":43.33041,"lon":5.38913,"is_reserved":false,"is_disabled":false,"rental_uris":{"android":"levelo://app?vid=c316bce6-9560-464a-88dd-81e09b666d5e","ios":"levelo://app?vid=c316bce6-9560-464a-88dd-81e09b666d5e"},"vehicle_type_id":"4","last_reported":1691010360,"current_range_meters":14400,"station_id":"ce4bhr92rcd13ifvqhrg","pricing_plan_id":"free"},{"bike_id":"05eb7167-1649-4b38-8503-b0d2e3456f24","system_id":"levelo_inurba_marseille","lat":43.33038,"lon":5.38918,"is_reserved":false,"is_disabled":false,"rental_uris":{"android":"levelo://app?vid=05eb7167-1649-4b38-8503-b0d2e3456f24","ios":"levelo://app?vid=05eb7167-1649-4b38-8503-b0d2e3456f24"},"vehicle_type_id":"4","last_reported":1691010360,"current_range_meters":28800,"station_id":"ce4bhr92rcd13ifvqhrg","pricing_plan_id":"free"},{"bike_id":"00b2dcdc-2882-40a1-9132-89c3ec15cf18","system_id":"levelo_inurba_marseille","lat":43.33039,"lon":5.38918,"is_reserved":false,"is_disabled":false,"rental_uris":{"android":"levelo://app?vid=00b2dcdc-2882-40a1-9132-89c3ec15cf18","ios":"levelo://app?vid=00b2dcdc-2882-40a1-9132-89c3ec15cf18"},"vehicle_type_id":"4","last_reported":1691010360,"current_range_meters":27600,"station_id":"ce4bhr92rcd13ifvqhrg","pricing_plan_id":"free"},{"bike_id":"2f2d42a2-8de0-405f-9429-d3eae654394c","system_id":"levelo_inurba_marseille","lat":43.33041,"lon":5.38918,"is_reserved":false,"is_disabled":false,"rental_uris":{"android":"levelo://app?vid=2f2d42a2-8de0-405f-9429-d3eae654394c","ios":"levelo://app?vid=2f2d42a2-8de0-405f-9429-d3eae654394c"},"vehicle_type_id":"4","last_reported":1691010360,"current_range_meters":29200,"station_id":"ce4bhr92rcd13ifvqhrg","pricing_plan_id":"free"},{"bike_id":"5fdc200d-28ff-4555-81cf-b73d3140bc61","system_id":"levelo_inurba_marseille","lat":43.330412,"lon":5.389185,"is_reserved":false,"is_disabled":false,"rental_uris":{"android":"levelo://app?vid=5fdc200d-28ff-4555-81cf-b73d3140bc61","ios":"levelo://app?vid=5fdc200d-28ff-4555-81cf-b73d3140bc61"},"vehicle_type_id":"4","last_reported":1691010360,"current_range_meters":23200,"station_id":"ce4bhr92rcd13ifvqhrg","pricing_plan_id":"free"},{"bike_id":"3cf4917f-0299-4a6b-b25f-5e28465354e9","system_id":"levelo_inurba_marseille","lat":43.33041,"lon":5.38919,"is_reserved":false,"is_disabled":false,"rental_uris":{"android":"levelo://app?vid=3cf4917f-0299-4a6b-b25f-5e28465354e9","ios":"levelo://app?vid=3cf4917f-0299-4a6b-b25f-5e28465354e9"},"vehicle_type_id":"4","last_reported":1691010360,"current_range_meters":18000,"station_id":"ce4bhr92rcd13ifvqhrg","pricing_plan_id":"free"},{"bike_id":"f67edc25-bcc7-41fb-8431-1add679b0933","system_id":"levelo_inurba_marseille","lat":43.33038,"lon":5.38924,"is_reserved":false,"is_disabled":false,"rental_uris":{"android":"levelo://app?vid=f67edc25-bcc7-41fb-8431-1add679b0933","ios":"levelo://app?vid=f67edc25-bcc7-41fb-8431-1add679b0933"},"vehicle_type_id":"4","last_reported":1691010360,"current_range_meters":28800,"station_id":"ce4bhr92rcd13ifvqhrg","pricing_plan_id":"free"},{"bike_id":"403b76b3-23c5-4348-81de-1ed9b5b75c0a","system_id":"levelo_inurba_marseille","lat":43.330425,"lon":5.389173,"is_reserved":false,"is_disabled":false,"rental_uris":{"android":"levelo://app?vid=403b76b3-23c5-4348-81de-1ed9b5b75c0a","ios":"levelo://app?vid=403b76b3-23c5-4348-81de-1ed9b5b75c0a"},"vehicle_type_id":"4","last_reported":1691010360,"current_range_meters":16400,"station_id":"ce4bhr92rcd13ifvqhrg","pricing_plan_id":"free"},{"bike_id":"27f2b1a4-8bdb-408e-a608-e56da4f000d0","system_id":"levelo_inurba_marseille","lat":43.33041,"lon":5.3892,"is_reserved":false,"is_disabled":false,"rental_uris":{"android":"levelo://app?vid=27f2b1a4-8bdb-408e-a608-e56da4f000d0","ios":"levelo://app?vid=27f2b1a4-8bdb-408e-a608-e56da4f000d0"},"vehicle_type_id":"4","last_reported":1691010360,"current_range_meters":1600,"station_id":"ce4bhr92rcd13ifvqhrg","pricing_plan_id":"free"},{"bike_id":"0b40da1c-c5a8-44b1-ae95-03a93c8bf4e2","system_id":"levelo_inurba_marseille","lat":43.33041,"lon":5.3892,"is_reserved":false,"is_disabled":false,"rental_uris":{"android":"levelo://app?vid=0b40da1c-c5a8-44b1-ae95-03a93c8bf4e2","ios":"levelo://app?vid=0b40da1c-c5a8-44b1-ae95-03a93c8bf4e2"},"vehicle_type_id":"4","last_reported":1691010360,"current_range_meters":21200,"station_id":"ce4bhr92rcd13ifvqhrg","pricing_plan_id":"free"},{"bike_id":"8795e432-c7a3-4d95-9fa9-9f904bfbcb4a","system_id":"levelo_inurba_marseille","lat":43.33043,"lon":5.38917,"is_reserved":false,"is_disabled":false,"rental_uris":{"android":"levelo://app?vid=8795e432-c7a3-4d95-9fa9-9f904bfbcb4a","ios":"levelo://app?vid=8795e432-c7a3-4d95-9fa9-9f904bfbcb4a"},"vehicle_type_id":"4","last_reported":1691010360,"current_range_meters":21600,"station_id":"ce4bhr92rcd13ifvqhrg","pricing_plan_id":"free"},{"bike_id":"c1fd3edd-b6c8-46de-a5f4-c364b0790213","system_id":"levelo_inurba_marseille","lat":43.29247,"lon":5.38453,"is_reserved":false,"is_disabled":false,"rental_uris":{"android":"levelo://app?vid=c1fd3edd-b6c8-46de-a5f4-c364b0790213","ios":"levelo://app?vid=c1fd3edd-b6c8-46de-a5f4-c364b0790213"},"vehicle_type_id":"4","last_reported":1691010360,"current_range_meters":0,"station_id":"ce4bh692rcd13ifvqea0","pricing_plan_id":"free"},{"bike_id":"20cf3f6d-acf4-4653-bf24-baa04253f77a","system_id":"levelo_inurba_marseille","lat":43.33043,"lon":5.38918,"is_reserved":false,"is_disabled":false,"rental_uris":{"android":"levelo://app?vid=20cf3f6d-acf4-4653-bf24-baa04253f77a","ios":"levelo://app?vid=20cf3f6d-acf4-4653-bf24-baa04253f77a"},"vehicle_type_id":"4","last_reported":1691010360,"current_range_meters":26800,"station_id":"ce4bhr92rcd13ifvqhrg","pricing_plan_id":"free"},{"bike_id":"a716ed66-8607-47f1-a4f4-b99eecc862cb","system_id":"levelo_inurba_marseille","lat":43.33041,"lon":5.38921,"is_reserved":false,"is_disabled":false,"rental_uris":{"android":"levelo://app?vid=a716ed66-8607-47f1-a4f4-b99eecc862cb","ios":"levelo://app?vid=a716ed66-8607-47f1-a4f4-b99eecc862cb"},"vehicle_type_id":"4","last_reported":1691010360,"current_range_meters":2000,"station_id":"ce4bhr92rcd13ifvqhrg","pricing_plan_id":"free"},{"bike_id":"5554be9e-ea6d-448b-a933-772bf8ca7cdf","system_id":"levelo_inurba_marseille","lat":43.33042,"lon":5.38921,"is_reserved":false,"is_disabled":false,"rental_uris":{"android":"levelo://app?vid=5554be9e-ea6d-448b-a933-772bf8ca7cdf","ios":"levelo://app?vid=5554be9e-ea6d-448b-a933-772bf8ca7cdf"},"vehicle_type_id":"4","last_reported":1691010360,"current_range_meters":29600,"station_id":"ce4bhr92rcd13ifvqhrg","pricing_plan_id":"free"},{"bike_id":"134ef223-0af9-48f2-bbd1-4d84dd8cb35c","system_id":"levelo_inurba_marseille","lat":43.290104,"lon":5.356111,"is_reserved":false,"is_disabled":false,"rental_uris":{"android":"levelo://app?vid=134ef223-0af9-48f2-bbd1-4d84dd8cb35c","ios":"levelo://app?vid=134ef223-0af9-48f2-bbd1-4d84dd8cb35c"},"vehicle_type_id":"4","last_reported":1691010360,"current_range_meters":31200,"station_id":"ce4bhb92rcd13ifvqen0","pricing_plan_id":"free"},{"bike_id":"d41b4876-d564-4c09-ba50-b9a13e3e3b65","system_id":"levelo_inurba_marseille","lat":43.290995,"lon":5.381361,"is_reserved":false,"is_disabled":false,"rental_uris":{"android":"levelo://app?vid=d41b4876-d564-4c09-ba50-b9a13e3e3b65","ios":"levelo://app?vid=d41b4876-d564-4c09-ba50-b9a13e3e3b65"},"vehicle_type_id":"4","last_reported":1691010360,"current_range_meters":30800,"station_id":"ce4bh512rcd13ifvqe2g","pricing_plan_id":"free"},{"bike_id":"b1cbe69e-89a2-4561-87f3-536e423d584d","system_id":"levelo_inurba_marseille","lat":43.289741,"lon":5.378306,"is_reserved":false,"is_disabled":false,"rental_uris":{"android":"levelo://app?vid=b1cbe69e-89a2-4561-87f3-536e423d584d","ios":"levelo://app?vid=b1cbe69e-89a2-4561-87f3-536e423d584d"},"vehicle_type_id":"4","last_reported":1691010360,"current_range_meters":13600,"station_id":"ce4bh9p2rcd13ifvqed0","pricing_plan_id":"free"},{"bike_id":"2d55a3bd-c465-42b8-9060-46db82ad2448","system_id":"levelo_inurba_marseille","lat":43.295169,"lon":5.390426,"is_reserved":false,"is_disabled":false,"rental_uris":{"android":"levelo://app?vid=2d55a3bd-c465-42b8-9060-46db82ad2448","ios":"levelo://app?vid=2d55a3bd-c465-42b8-9060-46db82ad2448"},"vehicle_type_id":"4","last_reported":1691010360,"current_range_meters":6400,"station_id":"ce4bh3p2rcd13ifvqdp0","pricing_plan_id":"free"},{"bike_id":"778abb9a-d699-4eab-9411-e48bb72736fa","system_id":"levelo_inurba_marseille","lat":43.289741,"lon":5.378306,"is_reserved":false,"is_disabled":false,"rental_uris":{"android":"levelo://app?vid=778abb9a-d699-4eab-9411-e48bb72736fa","ios":"levelo://app?vid=778abb9a-d699-4eab-9411-e48bb72736fa"},"vehicle_type_id":"4","last_reported":1691010360,"current_range_meters":0,"station_id":"ce4bh9p2rcd13ifvqed0","pricing_plan_id":"free"},{"bike_id":"24bac3c8-c7bd-4522-bc4a-af91e3143722","system_id":"levelo_inurba_marseille","lat":43.295169,"lon":5.390426,"is_reserved":false,"is_disabled":false,"rental_uris":{"android":"levelo://app?vid=24bac3c8-c7bd-4522-bc4a-af91e3143722","ios":"levelo://app?vid=24bac3c8-c7bd-4522-bc4a-af91e3143722"},"vehicle_type_id":"4","last_reported":1691010360,"current_range_meters":24400,"station_id":"ce4bh3p2rcd13ifvqdp0","pricing_plan_id":"free"},{"bike_id":"eda3f6ea-4f8f-4fef-a24d-5197e7b243c6","system_id":"levelo_inurba_marseille","lat":43.295169,"lon":5.390426,"is_reserved":false,"is_disabled":false,"rental_uris":{"android":"levelo://app?vid=eda3f6ea-4f8f-4fef-a24d-5197e7b243c6","ios":"levelo://app?vid=eda3f6ea-4f8f-4fef-a24d-5197e7b243c6"},"vehicle_type_id":"4","last_reported":1691010360,"current_range_meters":7200,"station_id":"ce4bh3p2rcd13ifvqdp0","pricing_plan_id":"free"},{"bike_id":"a3206d58-e194-4560-a9aa-34697bd7988c","system_id":"levelo_inurba_marseille","lat":43.295169,"lon":5.390426,"is_reserved":false,"is_disabled":false,"rental_uris":{"android":"levelo://app?vid=a3206d58-e194-4560-a9aa-34697bd7988c","ios":"levelo://app?vid=a3206d58-e194-4560-a9aa-34697bd7988c"},"vehicle_type_id":"4","last_reported":1691010360,"current_range_meters":26400,"station_id":"ce4bh3p2rcd13ifvqdp0","pricing_plan_id":"free"},{"bike_id":"5594cea3-2e86-4593-a7e9-01e472622eca","system_id":"levelo_inurba_marseille","lat":43.29071,"lon":5.3816,"is_reserved":false,"is_disabled":false,"rental_uris":{"android":"levelo://app?vid=5594cea3-2e86-4593-a7e9-01e472622eca","ios":"levelo://app?vid=5594cea3-2e86-4593-a7e9-01e472622eca"},"vehicle_type_id":"4","last_reported":1691010360,"current_range_meters":17600,"station_id":"ce4bh512rcd13ifvqe2g","pricing_plan_id":"free"},{"bike_id":"05bf2cc0-c80b-4d3b-9303-5cea93148e89","system_id":"levelo_inurba_marseille","lat":43.290995,"lon":5.381361,"is_reserved":false,"is_disabled":false,"rental_uris":{"android":"levelo://app?vid=05bf2cc0-c80b-4d3b-9303-5cea93148e89","ios":"levelo://app?vid=05bf2cc0-c80b-4d3b-9303-5cea93148e89"},"vehicle_type_id":"4","last_reported":1691010360,"current_range_meters":31200,"station_id":"ce4bh512rcd13ifvqe2g","pricing_plan_id":"free"},{"bike_id":"939b5757-f674-4545-8e83-4b0ececf589f","system_id":"levelo_inurba_marseille","lat":43.29033,"lon":5.38131,"is_reserved":false,"is_disabled":false,"rental_uris":{"android":"levelo://app?vid=939b5757-f674-4545-8e83-4b0ececf589f","ios":"levelo://app?vid=939b5757-f674-4545-8e83-4b0ececf589f"},"vehicle_type_id":"4","last_reported":1691010360,"current_range_meters":11600,"station_id":"ce4bh4p2rcd13ifvqe1g","pricing_plan_id":"free"},{"bike_id":"5c9d0884-62f3-4818-ac43-9de2f9ba55e2","system_id":"levelo_inurba_marseille","lat":43.29027,"lon":5.38139,"is_reserved":false,"is_disabled":false,"rental_uris":{"android":"levelo://app?vid=5c9d0884-62f3-4818-ac43-9de2f9ba55e2","ios":"levelo://app?vid=5c9d0884-62f3-4818-ac43-9de2f9ba55e2"},"vehicle_type_id":"4","last_reported":1691010360,"current_range_meters":17200,"station_id":"ce4bh4p2rcd13ifvqe1g","pricing_plan_id":"free"},{"bike_id":"8cb82bb0-c154-4f06-883c-a6f1003d2e19","system_id":"levelo_inurba_marseille","lat":43.29018,"lon":5.3814,"is_reserved":false,"is_disabled":false,"rental_uris":{"android":"levelo://app?vid=8cb82bb0-c154-4f06-883c-a6f1003d2e19","ios":"levelo://app?vid=8cb82bb0-c154-4f06-883c-a6f1003d2e19"},"vehicle_type_id":"4","last_reported":1691010360,"current_range_meters":19600,"station_id":"ce4bh4p2rcd13ifvqe1g","pricing_plan_id":"free"},{"bike_id":"0bd3b264-5659-48a6-b706-dea688b91c07","system_id":"levelo_inurba_marseille","lat":43.29018,"lon":5.3814,"is_reserved":false,"is_disabled":false,"rental_uris":{"android":"levelo://app?vid=0bd3b264-5659-48a6-b706-dea688b91c07","ios":"levelo://app?vid=0bd3b264-5659-48a6-b706-dea688b91c07"},"vehicle_type_id":"4","last_reported":1691010360,"current_range_meters":22400,"station_id":"ce4bh4p2rcd13ifvqe1g","pricing_plan_id":"free"},{"bike_id":"19c58e90-7a4c-42ce-b23e-4433ecd89545","system_id":"levelo_inurba_marseille","lat":43.29015,"lon":5.38142,"is_reserved":false,"is_disabled":false,"rental_uris":{"android":"levelo://app?vid=19c58e90-7a4c-42ce-b23e-4433ecd89545","ios":"levelo://app?vid=19c58e90-7a4c-42ce-b23e-4433ecd89545"},"vehicle_type_id":"4","last_reported":1691010360,"current_range_meters":0,"station_id":"ce4bh4p2rcd13ifvqe1g","pricing_plan_id":"free"},{"bike_id":"4b038570-9f73-4102-874a-e7ae763a4da4","system_id":"levelo_inurba_marseille","lat":43.30922,"lon":5.40144,"is_reserved":false,"is_disabled":false,"rental_uris":{"android":"levelo://app?vid=4b038570-9f73-4102-874a-e7ae763a4da4","ios":"levelo://app?vid=4b038570-9f73-4102-874a-e7ae763a4da4"},"vehicle_type_id":"4","last_reported":1691010360,"current_range_meters":26800,"station_id":"ce4bgvp2rcd13ifvqct0","pricing_plan_id":"free"},{"bike_id":"b4a8064b-6470-42d4-81e9-073cb4c7a55b","system_id":"levelo_inurba_marseille","lat":43.33747,"lon":5.37475,"is_reserved":false,"is_disabled":false,"rental_uris":{"android":"levelo://app?vid=b4a8064b-6470-42d4-81e9-073cb4c7a55b","ios":"levelo://app?vid=b4a8064b-6470-42d4-81e9-073cb4c7a55b"},"vehicle_type_id":"4","last_reported":1691010360,"current_range_meters":29200,"station_id":"","pricing_plan_id":"free"},{"bike_id":"9fdd0d64-a6f6-4a20-9770-4b4a64b6e826","system_id":"levelo_inurba_marseille","lat":43.33754,"lon":5.37487,"is_reserved":false,"is_disabled":false,"rental_uris":{"android":"levelo://app?vid=9fdd0d64-a6f6-4a20-9770-4b4a64b6e826","ios":"levelo://app?vid=9fdd0d64-a6f6-4a20-9770-4b4a64b6e826"},"vehicle_type_id":"4","last_reported":1691010360,"current_range_meters":6800,"station_id":"","pricing_plan_id":"free"},{"bike_id":"4b92d906-1be3-473d-8081-a13fe8550174","system_id":"levelo_inurba_marseille","lat":43.33755,"lon":5.37495,"is_reserved":false,"is_disabled":false,"rental_uris":{"android":"levelo://app?vid=4b92d906-1be3-473d-8081-a13fe8550174","ios":"levelo://app?vid=4b92d906-1be3-473d-8081-a13fe8550174"},"vehicle_type_id":"4","last_reported":1691010360,"current_range_meters":1600,"station_id":"","pricing_plan_id":"free"},{"bike_id":"a4961273-d87e-4de7-b65f-e9014aa2bfcf","system_id":"levelo_inurba_marseille","lat":43.33757,"lon":5.37497,"is_reserved":false,"is_disabled":false,"rental_uris":{"android":"levelo://app?vid=a4961273-d87e-4de7-b65f-e9014aa2bfcf","ios":"levelo://app?vid=a4961273-d87e-4de7-b65f-e9014aa2bfcf"},"vehicle_type_id":"4","last_reported":1691010360,"current_range_meters":23600,"station_id":"","pricing_plan_id":"free"},{"bike_id":"86bbca6a-bb1e-49b6-a3be-faa1dc2cdd87","system_id":"levelo_inurba_marseille","lat":43.3376,"lon":5.37491,"is_reserved":false,"is_disabled":false,"rental_uris":{"android":"levelo://app?vid=86bbca6a-bb1e-49b6-a3be-faa1dc2cdd87","ios":"levelo://app?vid=86bbca6a-bb1e-49b6-a3be-faa1dc2cdd87"},"vehicle_type_id":"4","last_reported":1691010360,"current_range_meters":20400,"station_id":"","pricing_plan_id":"free"},{"bike_id":"2f6ca2c1-6a77-4971-ac9d-bef9e8988804","system_id":"levelo_inurba_marseille","lat":43.33764,"lon":5.37477,"is_reserved":false,"is_disabled":false,"rental_uris":{"android":"levelo://app?vid=2f6ca2c1-6a77-4971-ac9d-bef9e8988804","ios":"levelo://app?vid=2f6ca2c1-6a77-4971-ac9d-bef9e8988804"},"vehicle_type_id":"4","last_reported":1691010360,"current_range_meters":15200,"station_id":"","pricing_plan_id":"free"},{"bike_id":"2af7039b-17cd-4153-8215-4601c507dc34","system_id":"levelo_inurba_marseille","lat":43.301117,"lon":5.398795,"is_reserved":false,"is_disabled":false,"rental_uris":{"android":"levelo://app?vid=2af7039b-17cd-4153-8215-4601c507dc34","ios":"levelo://app?vid=2af7039b-17cd-4153-8215-4601c507dc34"},"vehicle_type_id":"4","last_reported":1691010360,"current_range_meters":12800,"station_id":"ce4bh0h2rcd13ifvqd40","pricing_plan_id":"free"},{"bike_id":"4e8ddd0a-e5d4-4031-8bf3-11cbe3db64de","system_id":"levelo_inurba_marseille","lat":43.301117,"lon":5.398795,"is_reserved":false,"is_disabled":false,"rental_uris":{"android":"levelo://app?vid=4e8ddd0a-e5d4-4031-8bf3-11cbe3db64de","ios":"levelo://app?vid=4e8ddd0a-e5d4-4031-8bf3-11cbe3db64de"},"vehicle_type_id":"4","last_reported":1691010360,"current_range_meters":5200,"station_id":"ce4bh0h2rcd13ifvqd40","pricing_plan_id":"free"},{"bike_id":"75199276-b705-4ad7-b6a9-49aeaa84628a","system_id":"levelo_inurba_marseille","lat":43.286593,"lon":5.363346,"is_reserved":false,"is_disabled":false,"rental_uris":{"android":"levelo://app?vid=75199276-b705-4ad7-b6a9-49aeaa84628a","ios":"levelo://app?vid=75199276-b705-4ad7-b6a9-49aeaa84628a"},"vehicle_type_id":"4","last_reported":1691010360,"current_range_meters":31200,"station_id":"ce4bhah2rcd13ifvqej0","pricing_plan_id":"free"},{"bike_id":"240ce29f-7998-4d3b-b380-865ec3758a1e","system_id":"levelo_inurba_marseille","lat":43.29043,"lon":5.38639,"is_reserved":false,"is_disabled":false,"rental_uris":{"android":"levelo://app?vid=240ce29f-7998-4d3b-b380-865ec3758a1e","ios":"levelo://app?vid=240ce29f-7998-4d3b-b380-865ec3758a1e"},"vehicle_type_id":"4","last_reported":1691010360,"current_range_meters":8000,"station_id":"ce4bh4p2rcd13ifvqe0g","pricing_plan_id":"free"},{"bike_id":"dd226e38-d84b-4762-b7a8-62a24df4f64c","system_id":"levelo_inurba_marseille","lat":43.29039,"lon":5.38653,"is_reserved":false,"is_disabled":false,"rental_uris":{"android":"levelo://app?vid=dd226e38-d84b-4762-b7a8-62a24df4f64c","ios":"levelo://app?vid=dd226e38-d84b-4762-b7a8-62a24df4f64c"},"vehicle_type_id":"4","last_reported":1691010360,"current_range_meters":1200,"station_id":"ce4bh4p2rcd13ifvqe0g","pricing_plan_id":"free"},{"bike_id":"23c85087-8f06-43be-9718-f63a111d3606","system_id":"levelo_inurba_marseille","lat":43.302532,"lon":5.400575,"is_reserved":false,"is_disabled":false,"rental_uris":{"android":"levelo://app?vid=23c85087-8f06-43be-9718-f63a111d3606","ios":"levelo://app?vid=23c85087-8f06-43be-9718-f63a111d3606"},"vehicle_type_id":"4","last_reported":1691010360,"current_range_meters":16400,"station_id":"ce4bgvh2rcd13ifvqcs0","pricing_plan_id":"free"},{"bike_id":"bc667c9c-2120-4855-9d2b-48b30c3171b7","system_id":"levelo_inurba_marseille","lat":43.29029,"lon":5.3864,"is_reserved":false,"is_disabled":false,"rental_uris":{"android":"levelo://app?vid=bc667c9c-2120-4855-9d2b-48b30c3171b7","ios":"levelo://app?vid=bc667c9c-2120-4855-9d2b-48b30c3171b7"},"vehicle_type_id":"4","last_reported":1691010360,"current_range_meters":12800,"station_id":"ce4bh4p2rcd13ifvqe0g","pricing_plan_id":"free"},{"bike_id":"b09e6b15-006f-45bd-b13d-b2d334fa4a6c","system_id":"levelo_inurba_marseille","lat":43.290336,"lon":5.386425,"is_reserved":false,"is_disabled":false,"rental_uris":{"android":"levelo://app?vid=b09e6b15-006f-45bd-b13d-b2d334fa4a6c","ios":"levelo://app?vid=b09e6b15-006f-45bd-b13d-b2d334fa4a6c"},"vehicle_type_id":"4","last_reported":1691010360,"current_range_meters":16000,"station_id":"ce4bh4p2rcd13ifvqe0g","pricing_plan_id":"free"},{"bike_id":"80b7f4fa-c1d3-49ae-bfec-714efa07e218","system_id":"levelo_inurba_marseille","lat":43.290345,"lon":5.38646,"is_reserved":false,"is_disabled":false,"rental_uris":{"android":"levelo://app?vid=80b7f4fa-c1d3-49ae-bfec-714efa07e218","ios":"levelo://app?vid=80b7f4fa-c1d3-49ae-bfec-714efa07e218"},"vehicle_type_id":"4","last_reported":1691010360,"current_range_meters":24400,"station_id":"ce4bh4p2rcd13ifvqe0g","pricing_plan_id":"free"},{"bike_id":"9b959db3-6d62-4369-88cc-2edf13ce3fa6","system_id":"levelo_inurba_marseille","lat":43.290336,"lon":5.386425,"is_reserved":false,"is_disabled":false,"rental_uris":{"android":"levelo://app?vid=9b959db3-6d62-4369-88cc-2edf13ce3fa6","ios":"levelo://app?vid=9b959db3-6d62-4369-88cc-2edf13ce3fa6"},"vehicle_type_id":"4","last_reported":1691010360,"current_range_meters":18400,"station_id":"ce4bh4p2rcd13ifvqe0g","pricing_plan_id":"free"},{"bike_id":"273eb10f-4d24-44fe-9d48-5691b36e4006","system_id":"levelo_inurba_marseille","lat":43.302759,"lon":5.400793,"is_reserved":false,"is_disabled":false,"rental_uris":{"android":"levelo://app?vid=273eb10f-4d24-44fe-9d48-5691b36e4006","ios":"levelo://app?vid=273eb10f-4d24-44fe-9d48-5691b36e4006"},"vehicle_type_id":"4","last_reported":1691010360,"current_range_meters":0,"station_id":"ce4bgvh2rcd13ifvqcs0","pricing_plan_id":"free"},{"bike_id":"e1dadc29-4afd-40e5-8496-93fe090d89de","system_id":"levelo_inurba_marseille","lat":43.290336,"lon":5.386425,"is_reserved":false,"is_disabled":false,"rental_uris":{"android":"levelo://app?vid=e1dadc29-4afd-40e5-8496-93fe090d89de","ios":"levelo://app?vid=e1dadc29-4afd-40e5-8496-93fe090d89de"},"vehicle_type_id":"4","last_reported":1691010360,"current_range_meters":16000,"station_id":"ce4bh4p2rcd13ifvqe0g","pricing_plan_id":"free"},{"bike_id":"3e35ac2f-83ef-40dc-b259-6bb36b459052","system_id":"levelo_inurba_marseille","lat":43.30259,"lon":5.40072,"is_reserved":false,"is_disabled":false,"rental_uris":{"android":"levelo://app?vid=3e35ac2f-83ef-40dc-b259-6bb36b459052","ios":"levelo://app?vid=3e35ac2f-83ef-40dc-b259-6bb36b459052"},"vehicle_type_id":"4","last_reported":1691010360,"current_range_meters":6000,"station_id":"ce4bgvh2rcd13ifvqcs0","pricing_plan_id":"free"},{"bike_id":"145801e7-8151-4bfe-bce0-225bdd7887e1","system_id":"levelo_inurba_marseille","lat":43.290336,"lon":5.386425,"is_reserved":false,"is_disabled":false,"rental_uris":{"android":"levelo://app?vid=145801e7-8151-4bfe-bce0-225bdd7887e1","ios":"levelo://app?vid=145801e7-8151-4bfe-bce0-225bdd7887e1"},"vehicle_type_id":"4","last_reported":1691010360,"current_range_meters":13200,"station_id":"ce4bh4p2rcd13ifvqe0g","pricing_plan_id":"free"},{"bike_id":"97ebca43-c431-48bb-b850-a086206a5543","system_id":"levelo_inurba_marseille","lat":43.30245,"lon":5.40066,"is_reserved":false,"is_disabled":false,"rental_uris":{"android":"levelo://app?vid=97ebca43-c431-48bb-b850-a086206a5543","ios":"levelo://app?vid=97ebca43-c431-48bb-b850-a086206a5543"},"vehicle_type_id":"4","last_reported":1691010360,"current_range_meters":0,"station_id":"ce4bgvh2rcd13ifvqcs0","pricing_plan_id":"free"},{"bike_id":"f32c922a-6b7d-4261-9a07-22b6510b40e9","system_id":"levelo_inurba_marseille","lat":43.30258,"lon":5.40082,"is_reserved":false,"is_disabled":false,"rental_uris":{"android":"levelo://app?vid=f32c922a-6b7d-4261-9a07-22b6510b40e9","ios":"levelo://app?vid=f32c922a-6b7d-4261-9a07-22b6510b40e9"},"vehicle_type_id":"4","last_reported":1691010360,"current_range_meters":12000,"station_id":"ce4bgvh2rcd13ifvqcs0","pricing_plan_id":"free"},{"bike_id":"29d67772-8039-4a95-82c8-47b44e0c90e0","system_id":"levelo_inurba_marseille","lat":43.302759,"lon":5.400793,"is_reserved":false,"is_disabled":false,"rental_uris":{"android":"levelo://app?vid=29d67772-8039-4a95-82c8-47b44e0c90e0","ios":"levelo://app?vid=29d67772-8039-4a95-82c8-47b44e0c90e0"},"vehicle_type_id":"4","last_reported":1691010360,"current_range_meters":12000,"station_id":"ce4bgvh2rcd13ifvqcs0","pricing_plan_id":"free"},{"bike_id":"a6561cd0-a185-4b27-84d5-1968061e97be","system_id":"levelo_inurba_marseille","lat":43.30245,"lon":5.40081,"is_reserved":false,"is_disabled":false,"rental_uris":{"android":"levelo://app?vid=a6561cd0-a185-4b27-84d5-1968061e97be","ios":"levelo://app?vid=a6561cd0-a185-4b27-84d5-1968061e97be"},"vehicle_type_id":"4","last_reported":1691010360,"current_range_meters":2800,"station_id":"ce4bgvh2rcd13ifvqcs0","pricing_plan_id":"free"},{"bike_id":"7eeb9539-a218-46fa-8215-75ee860772be","system_id":"levelo_inurba_marseille","lat":43.31642,"lon":5.40436,"is_reserved":false,"is_disabled":false,"rental_uris":{"android":"levelo://app?vid=7eeb9539-a218-46fa-8215-75ee860772be","ios":"levelo://app?vid=7eeb9539-a218-46fa-8215-75ee860772be"},"vehicle_type_id":"4","last_reported":1691010360,"current_range_meters":28400,"station_id":"ce4bh012rcd13ifvqd00","pricing_plan_id":"free"},{"bike_id":"319b67a5-c642-4797-8c02-6eb0ecc259ea","system_id":"levelo_inurba_marseille","lat":43.31646,"lon":5.40436,"is_reserved":false,"is_disabled":false,"rental_uris":{"android":"levelo://app?vid=319b67a5-c642-4797-8c02-6eb0ecc259ea","ios":"levelo://app?vid=319b67a5-c642-4797-8c02-6eb0ecc259ea"},"vehicle_type_id":"4","last_reported":1691010360,"current_range_meters":22000,"station_id":"ce4bh012rcd13ifvqd00","pricing_plan_id":"free"},{"bike_id":"0704e470-c805-4a07-8b2d-90308ec361b2","system_id":"levelo_inurba_marseille","lat":43.31646,"lon":5.40437,"is_reserved":false,"is_disabled":false,"rental_uris":{"android":"levelo://app?vid=0704e470-c805-4a07-8b2d-90308ec361b2","ios":"levelo://app?vid=0704e470-c805-4a07-8b2d-90308ec361b2"},"vehicle_type_id":"4","last_reported":1691010360,"current_range_meters":30000,"station_id":"ce4bh012rcd13ifvqd00","pricing_plan_id":"free"},{"bike_id":"716fef4c-df02-455d-986b-e5a794282f07","system_id":"levelo_inurba_marseille","lat":43.31645,"lon":5.40438,"is_reserved":false,"is_disabled":false,"rental_uris":{"android":"levelo://app?vid=716fef4c-df02-455d-986b-e5a794282f07","ios":"levelo://app?vid=716fef4c-df02-455d-986b-e5a794282f07"},