{"last_updated":1732565462,"ttl":60,"version":"2.2","data":{"bikes":[{"bike_id":"d9c28aa4-81a4-4d13-8fc9-100bb4e3d7e2","system_id":"levelo_inurba_marseille","lat":43.27411,"lon":5.38954,"is_reserved":false,"is_disabled":false,"rental_uris":{"android":"levelo://app?vid=d9c28aa4-81a4-4d13-8fc9-100bb4e3d7e2","ios":"levelo://app?vid=d9c28aa4-81a4-4d13-8fc9-100bb4e3d7e2"},"vehicle_type_id":"4","last_reported":1732565462,"current_range_meters":4000,"station_id":"","pricing_plan_id":"cebpf4jnsgd1na2vs0mg"},{"bike_id":"baff1bd3-0eb8-4768-9f88-68c7d7367a43","system_id":"levelo_inurba_marseille","lat":43.34143,"lon":5.40905,"is_reserved":false,"is_disabled":false,"rental_uris":{"android":"levelo://app?vid=baff1bd3-0eb8-4768-9f88-68c7d7367a43","ios":"levelo://app?vid=baff1bd3-0eb8-4768-9f88-68c7d7367a43"},"vehicle_type_id":"4","last_reported":1732565462,"current_range_meters":28000,"station_id":"ce4bhqh2rcd13ifvqhlg","pricing_plan_id":"cebpf4jnsgd1na2vs0mg"},{"bike_id":"ce7ec125-e5e1-4f1c-9ffa-2776a8995d05","system_id":"levelo_inurba_marseille","lat":43.27069,"lon":5.42276,"is_reserved":false,"is_disabled":false,"rental_uris":{"android":"levelo://app?vid=ce7ec125-e5e1-4f1c-9ffa-2776a8995d05","ios":"levelo://app?vid=ce7ec125-e5e1-4f1c-9ffa-2776a8995d05"},"vehicle_type_id":"4","last_reported":1732565462,"current_range_meters":38800,"station_id":"ce4bhk92rcd13ifvqgb0","pricing_plan_id":"cebpf4jnsgd1na2vs0mg"},{"bike_id":"3b5d359f-2177-47e3-8926-ad81c70bf5cf","system_id":"levelo_inurba_marseille","lat":43.32558,"lon":5.41426,"is_reserved":false,"is_disabled":false,"rental_uris":{"android":"levelo://app?vid=3b5d359f-2177-47e3-8926-ad81c70bf5cf","ios":"levelo://app?vid=3b5d359f-2177-47e3-8926-ad81c70bf5cf"},"vehicle_type_id":"4","last_reported":1732565462,"current_range_meters":28800,"station_id":"ce4bhq12rcd13ifvqhhg","pricing_plan_id":"cebpf4jnsgd1na2vs0mg"},{"bike_id":"a3cf36da-4a50-4873-9af4-6c5c10fd4957","system_id":"levelo_inurba_marseille","lat":43.28613,"lon":5.351,"is_reserved":false,"is_disabled":false,"rental_uris":{"android":"levelo://app?vid=a3cf36da-4a50-4873-9af4-6c5c10fd4957","ios":"levelo://app?vid=a3cf36da-4a50-4873-9af4-6c5c10fd4957"},"vehicle_type_id":"4","last_reported":1732565462,"current_range_meters":13600,"station_id":"ce4bhch2rcd13ifvqeug","pricing_plan_id":"cebpf4jnsgd1na2vs0mg"},{"bike_id":"df684e51-aa3f-4e9e-a9c3-f93d8795ee2b","system_id":"levelo_inurba_marseille","lat":43.28656,"lon":5.36345,"is_reserved":false,"is_disabled":false,"rental_uris":{"android":"levelo://app?vid=df684e51-aa3f-4e9e-a9c3-f93d8795ee2b","ios":"levelo://app?vid=df684e51-aa3f-4e9e-a9c3-f93d8795ee2b"},"vehicle_type_id":"4","last_reported":1732565462,"current_range_meters":38800,"station_id":"ce4bhah2rcd13ifvqej0","pricing_plan_id":"cebpf4jnsgd1na2vs0mg"},{"bike_id":"9e57b5e8-8713-4e07-97e4-b11e1067565f","system_id":"levelo_inurba_marseille","lat":43.28848,"lon":5.3584,"is_reserved":false,"is_disabled":false,"rental_uris":{"android":"levelo://app?vid=9e57b5e8-8713-4e07-97e4-b11e1067565f","ios":"levelo://app?vid=9e57b5e8-8713-4e07-97e4-b11e1067565f"},"vehicle_type_id":"4","last_reported":1732565462,"current_range_meters":12400,"station_id":"ce4bhb12rcd13ifvqem0","pricing_plan_id":"cebpf4jnsgd1na2vs0mg"},{"bike_id":"4b66d53f-bd9a-447a-b06a-f61e78708307","system_id":"levelo_inurba_marseille","lat":43.24546,"lon":5.39519,"is_reserved":false,"is_disabled":false,"rental_uris":{"android":"levelo://app?vid=4b66d53f-bd9a-447a-b06a-f61e78708307","ios":"levelo://app?vid=4b66d53f-bd9a-447a-b06a-f61e78708307"},"vehicle_type_id":"4","last_reported":1732565462,"current_range_meters":6400,"station_id":"ce4bhlp2rcd13ifvqgjg","pricing_plan_id":"cebpf4jnsgd1na2vs0mg"},{"bike_id":"aff4222d-4134-4457-90df-b3debcb75bce","system_id":"levelo_inurba_marseille","lat":43.29533,"lon":5.37503,"is_reserved":false,"is_disabled":true,"rental_uris":{"android":"levelo://app?vid=aff4222d-4134-4457-90df-b3debcb75bce","ios":"levelo://app?vid=aff4222d-4134-4457-90df-b3debcb75bce"},"vehicle_type_id":"4","last_reported":1732565462,"current_range_meters":37600,"station_id":"ce4bgkp2rcd13ifvqbmg","pricing_plan_id":"cebpf4jnsgd1na2vs0mg"},{"bike_id":"ecce730d-68ef-444c-b1ef-7d990fd74dfb","system_id":"levelo_inurba_marseille","lat":43.31721,"lon":5.42402,"is_reserved":false,"is_disabled":false,"rental_uris":{"android":"levelo://app?vid=ecce730d-68ef-444c-b1ef-7d990fd74dfb","ios":"levelo://app?vid=ecce730d-68ef-444c-b1ef-7d990fd74dfb"},"vehicle_type_id":"4","last_reported":1732565462,"current_range_meters":36800,"station_id":"ce4bhp92rcd13ifvqhbg","pricing_plan_id":"cebpf4jnsgd1na2vs0mg"},{"bike_id":"61ae9948-e0e5-4ce3-b06a-504522b4bbcc","system_id":"levelo_inurba_marseille","lat":43.32365,"lon":5.38881,"is_reserved":false,"is_disabled":false,"rental_uris":{"android":"levelo://app?vid=61ae9948-e0e5-4ce3-b06a-504522b4bbcc","ios":"levelo://app?vid=61ae9948-e0e5-4ce3-b06a-504522b4bbcc"},"vehicle_type_id":"4","last_reported":1732565462,"current_range_meters":24400,"station_id":"ce4bhqp2rcd13ifvqhog","pricing_plan_id":"cebpf4jnsgd1na2vs0mg"},{"bike_id":"646edd92-95b3-4512-9884-e642daa122c9","system_id":"levelo_inurba_marseille","lat":43.28457,"lon":5.35889,"is_reserved":false,"is_disabled":false,"rental_uris":{"android":"levelo://app?vid=646edd92-95b3-4512-9884-e642daa122c9","ios":"levelo://app?vid=646edd92-95b3-4512-9884-e642daa122c9"},"vehicle_type_id":"4","last_reported":1732565462,"current_range_meters":18800,"station_id":"ce4bhah2rcd13ifvqei0","pricing_plan_id":"cebpf4jnsgd1na2vs0mg"},{"bike_id":"d193aa86-0135-484f-939b-44f4ef009b37","system_id":"levelo_inurba_marseille","lat":43.25867,"lon":5.39901,"is_reserved":false,"is_disabled":false,"rental_uris":{"android":"levelo://app?vid=d193aa86-0135-484f-939b-44f4ef009b37","ios":"levelo://app?vid=d193aa86-0135-484f-939b-44f4ef009b37"},"vehicle_type_id":"4","last_reported":1732565462,"current_range_meters":38800,"station_id":"ce4bhl92rcd13ifvqghg","pricing_plan_id":"cebpf4jnsgd1na2vs0mg"},{"bike_id":"2be9dde8-4e8c-4617-a942-f5feeb8ef89e","system_id":"levelo_inurba_marseille","lat":43.28083,"lon":5.39644,"is_reserved":false,"is_disabled":false,"rental_uris":{"android":"levelo://app?vid=2be9dde8-4e8c-4617-a942-f5feeb8ef89e","ios":"levelo://app?vid=2be9dde8-4e8c-4617-a942-f5feeb8ef89e"},"vehicle_type_id":"4","last_reported":1732565462,"current_range_meters":38800,"station_id":"ce4bho12rcd13ifvqh2g","pricing_plan_id":"cebpf4jnsgd1na2vs0mg"},{"bike_id":"2c523655-0fb4-48b1-8ebe-e68817f5cb10","system_id":"levelo_inurba_marseille","lat":43.23191,"lon":5.35548,"is_reserved":false,"is_disabled":false,"rental_uris":{"android":"levelo://app?vid=2c523655-0fb4-48b1-8ebe-e68817f5cb10","ios":"levelo://app?vid=2c523655-0fb4-48b1-8ebe-e68817f5cb10"},"vehicle_type_id":"4","last_reported":1732565462,"current_range_meters":19200,"station_id":"ce4bhu92rcd13ifvqi70","pricing_plan_id":"cebpf4jnsgd1na2vs0mg"},{"bike_id":"59735367-1cdb-4821-a42a-d45ca06004e9","system_id":"levelo_inurba_marseille","lat":43.27944,"lon":5.41047,"is_reserved":false,"is_disabled":false,"rental_uris":{"android":"levelo://app?vid=59735367-1cdb-4821-a42a-d45ca06004e9","ios":"levelo://app?vid=59735367-1cdb-4821-a42a-d45ca06004e9"},"vehicle_type_id":"4","last_reported":1732565462,"current_range_meters":10000,"station_id":"ce4bhnp2rcd13ifvqh0g","pricing_plan_id":"cebpf4jnsgd1na2vs0mg"},{"bike_id":"a28e761f-9af3-4d3d-97ff-efc091a43c83","system_id":"levelo_inurba_marseille","lat":43.26555,"lon":5.39002,"is_reserved":false,"is_disabled":true,"rental_uris":{"android":"levelo://app?vid=a28e761f-9af3-4d3d-97ff-efc091a43c83","ios":"levelo://app?vid=a28e761f-9af3-4d3d-97ff-efc091a43c83"},"vehicle_type_id":"4","last_reported":1732565462,"current_range_meters":800,"station_id":"ce4bhe12rcd13ifvqf30","pricing_plan_id":"cebpf4jnsgd1na2vs0mg"},{"bike_id":"9ba7fbc2-67dd-47f3-b9f0-2830fbc63bb7","system_id":"levelo_inurba_marseille","lat":43.2808,"lon":5.39664,"is_reserved":false,"is_disabled":false,"rental_uris":{"android":"levelo://app?vid=9ba7fbc2-67dd-47f3-b9f0-2830fbc63bb7","ios":"levelo://app?vid=9ba7fbc2-67dd-47f3-b9f0-2830fbc63bb7"},"vehicle_type_id":"4","last_reported":1732565462,"current_range_meters":38800,"station_id":"ce4bho12rcd13ifvqh2g","pricing_plan_id":"cebpf4jnsgd1na2vs0mg"},{"bike_id":"38e5dd59-c780-4856-8550-b20273f4e496","system_id":"levelo_inurba_marseille","lat":43.30434,"lon":5.38899,"is_reserved":false,"is_disabled":true,"rental_uris":{"android":"levelo://app?vid=38e5dd59-c780-4856-8550-b20273f4e496","ios":"levelo://app?vid=38e5dd59-c780-4856-8550-b20273f4e496"},"vehicle_type_id":"4","last_reported":1732565462,"current_range_meters":28400,"station_id":"ce4bgk12rcd13ifvqbi0","pricing_plan_id":"cebpf4jnsgd1na2vs0mg"},{"bike_id":"13b9cb9d-56fe-4b04-9eff-e823147a3b91","system_id":"levelo_inurba_marseille","lat":43.31995,"lon":5.38154,"is_reserved":false,"is_disabled":true,"rental_uris":{"android":"levelo://app?vid=13b9cb9d-56fe-4b04-9eff-e823147a3b91","ios":"levelo://app?vid=13b9cb9d-56fe-4b04-9eff-e823147a3b91"},"vehicle_type_id":"4","last_reported":1732565462,"current_range_meters":1200,"station_id":"ce4bhr12rcd13ifvqhpg","pricing_plan_id":"cebpf4jnsgd1na2vs0mg"},{"bike_id":"39b11e64-2962-470f-8250-90fe18d4a5f4","system_id":"levelo_inurba_marseille","lat":43.2476,"lon":5.3925,"is_reserved":false,"is_disabled":true,"rental_uris":{"android":"levelo://app?vid=39b11e64-2962-470f-8250-90fe18d4a5f4","ios":"levelo://app?vid=39b11e64-2962-470f-8250-90fe18d4a5f4"},"vehicle_type_id":"4","last_reported":1732565462,"current_range_meters":0,"station_id":"","pricing_plan_id":"cebpf4jnsgd1na2vs0mg"},{"bike_id":"b3f71c98-afb4-4573-ac0d-670917b9a1ab","system_id":"levelo_inurba_marseille","lat":43.25583,"lon":5.38234,"is_reserved":false,"is_disabled":false,"rental_uris":{"android":"levelo://app?vid=b3f71c98-afb4-4573-ac0d-670917b9a1ab","ios":"levelo://app?vid=b3f71c98-afb4-4573-ac0d-670917b9a1ab"},"vehicle_type_id":"4","last_reported":1732565462,"current_range_meters":9600,"station_id":"ce4bhih2rcd13ifvqfs0","pricing_plan_id":"cebpf4jnsgd1na2vs0mg"},{"bike_id":"a6a25f36-b0ae-4164-84db-db959750c696","system_id":"levelo_inurba_marseille","lat":43.24541,"lon":5.37338,"is_reserved":false,"is_disabled":true,"rental_uris":{"android":"levelo://app?vid=a6a25f36-b0ae-4164-84db-db959750c696","ios":"levelo://app?vid=a6a25f36-b0ae-4164-84db-db959750c696"},"vehicle_type_id":"4","last_reported":1732565462,"current_range_meters":25600,"station_id":"","pricing_plan_id":"cebpf4jnsgd1na2vs0mg"},{"bike_id":"f69bf56b-63c3-4698-b97d-52a6e387f589","system_id":"levelo_inurba_marseille","lat":43.2944,"lon":5.3975,"is_reserved":false,"is_disabled":false,"rental_uris":{"android":"levelo://app?vid=f69bf56b-63c3-4698-b97d-52a6e387f589","ios":"levelo://app?vid=f69bf56b-63c3-4698-b97d-52a6e387f589"},"vehicle_type_id":"4","last_reported":1732565462,"current_range_meters":30400,"station_id":"ce4bh3h2rcd13ifvqdo0","pricing_plan_id":"cebpf4jnsgd1na2vs0mg"},{"bike_id":"6b698e6d-9bc2-49d4-adfa-f8b6e57faf1b","system_id":"levelo_inurba_marseille","lat":43.29035,"lon":5.39955,"is_reserved":false,"is_disabled":false,"rental_uris":{"android":"levelo://app?vid=6b698e6d-9bc2-49d4-adfa-f8b6e57faf1b","ios":"levelo://app?vid=6b698e6d-9bc2-49d4-adfa-f8b6e57faf1b"},"vehicle_type_id":"4","last_reported":1732565462,"current_range_meters":39200,"station_id":"ce4bh392rcd13ifvqdm0","pricing_plan_id":"cebpf4jnsgd1na2vs0mg"},{"bike_id":"436dd976-416d-469e-afba-0c5538b79c29","system_id":"levelo_inurba_marseille","lat":43.25193,"lon":5.39131,"is_reserved":false,"is_disabled":true,"rental_uris":{"android":"levelo://app?vid=436dd976-416d-469e-afba-0c5538b79c29","ios":"levelo://app?vid=436dd976-416d-469e-afba-0c5538b79c29"},"vehicle_type_id":"4","last_reported":1732565462,"current_range_meters":0,"station_id":"","pricing_plan_id":"cebpf4jnsgd1na2vs0mg"},{"bike_id":"bdc77a41-df04-43f0-8c70-13f11c6da757","system_id":"levelo_inurba_marseille","lat":43.26555,"lon":5.37297,"is_reserved":false,"is_disabled":false,"rental_uris":{"android":"levelo://app?vid=bdc77a41-df04-43f0-8c70-13f11c6da757","ios":"levelo://app?vid=bdc77a41-df04-43f0-8c70-13f11c6da757"},"vehicle_type_id":"4","last_reported":1732565462,"current_range_meters":21600,"station_id":"ce4bhg12rcd13ifvqf70","pricing_plan_id":"cebpf4jnsgd1na2vs0mg"},{"bike_id":"06aca3ef-64d4-41b5-abba-d13cb557aa37","system_id":"levelo_inurba_marseille","lat":43.29365,"lon":5.37833,"is_reserved":false,"is_disabled":false,"rental_uris":{"android":"levelo://app?vid=06aca3ef-64d4-41b5-abba-d13cb557aa37","ios":"levelo://app?vid=06aca3ef-64d4-41b5-abba-d13cb557aa37"},"vehicle_type_id":"4","last_reported":1732565462,"current_range_meters":24000,"station_id":"ce4bgjh2rcd13ifvqbf0","pricing_plan_id":"cebpf4jnsgd1na2vs0mg"},{"bike_id":"c38ce33b-a58f-4c54-a444-f196380e9f14","system_id":"levelo_inurba_marseille","lat":43.30639,"lon":5.40079,"is_reserved":false,"is_disabled":false,"rental_uris":{"android":"levelo://app?vid=c38ce33b-a58f-4c54-a444-f196380e9f14","ios":"levelo://app?vid=c38ce33b-a58f-4c54-a444-f196380e9f14"},"vehicle_type_id":"4","last_reported":1732565462,"current_range_meters":7200,"station_id":"ce4bh112rcd13ifvqda0","pricing_plan_id":"cebpf4jnsgd1na2vs0mg"},{"bike_id":"f42dcf9b-16ab-40c7-9a17-1509929eb3ba","system_id":"levelo_inurba_marseille","lat":43.30301,"lon":5.39706,"is_reserved":false,"is_disabled":false,"rental_uris":{"android":"levelo://app?vid=f42dcf9b-16ab-40c7-9a17-1509929eb3ba","ios":"levelo://app?vid=f42dcf9b-16ab-40c7-9a17-1509929eb3ba"},"vehicle_type_id":"4","last_reported":1732565462,"current_range_meters":4800,"station_id":"","pricing_plan_id":"cebpf4jnsgd1na2vs0mg"},{"bike_id":"26ec1a22-5020-45e4-ab45-512c7f67d5dd","system_id":"levelo_inurba_marseille","lat":43.32046,"lon":5.41486,"is_reserved":false,"is_disabled":true,"rental_uris":{"android":"levelo://app?vid=26ec1a22-5020-45e4-ab45-512c7f67d5dd","ios":"levelo://app?vid=26ec1a22-5020-45e4-ab45-512c7f67d5dd"},"vehicle_type_id":"4","last_reported":1732565462,"current_range_meters":38000,"station_id":"ce4bhq92rcd13ifvqhkg","pricing_plan_id":"cebpf4jnsgd1na2vs0mg"},{"bike_id":"dca54f4c-43c5-4160-93b5-1a3a34e32618","system_id":"levelo_inurba_marseille","lat":43.30258,"lon":5.40057,"is_reserved":false,"is_disabled":false,"rental_uris":{"android":"levelo://app?vid=dca54f4c-43c5-4160-93b5-1a3a34e32618","ios":"levelo://app?vid=dca54f4c-43c5-4160-93b5-1a3a34e32618"},"vehicle_type_id":"4","last_reported":1732565462,"current_range_meters":8400,"station_id":"ce4bgvh2rcd13ifvqcs0","pricing_plan_id":"cebpf4jnsgd1na2vs0mg"},{"bike_id":"ff30c9b2-e67f-4645-ad05-c5b92b8d6d32","system_id":"levelo_inurba_marseille","lat":43.25868,"lon":5.39899,"is_reserved":false,"is_disabled":false,"rental_uris":{"android":"levelo://app?vid=ff30c9b2-e67f-4645-ad05-c5b92b8d6d32","ios":"levelo://app?vid=ff30c9b2-e67f-4645-ad05-c5b92b8d6d32"},"vehicle_type_id":"4","last_reported":1732565462,"current_range_meters":38800,"station_id":"ce4bhl92rcd13ifvqghg","pricing_plan_id":"cebpf4jnsgd1na2vs0mg"},{"bike_id":"9ce3e3c1-0349-4011-bfbc-e3195ad72626","system_id":"levelo_inurba_marseille","lat":43.323665,"lon":5.388828,"is_reserved":false,"is_disabled":false,"rental_uris":{"android":"levelo://app?vid=9ce3e3c1-0349-4011-bfbc-e3195ad72626","ios":"levelo://app?vid=9ce3e3c1-0349-4011-bfbc-e3195ad72626"},"vehicle_type_id":"4","last_reported":1732565462,"current_range_meters":19600,"station_id":"ce4bhqp2rcd13ifvqhog","pricing_plan_id":"cebpf4jnsgd1na2vs0mg"},{"bike_id":"9f8aea45-6317-46b2-bfdf-12486e5e39e0","system_id":"levelo_inurba_marseille","lat":43.31267,"lon":5.36756,"is_reserved":false,"is_disabled":true,"rental_uris":{"android":"levelo://app?vid=9f8aea45-6317-46b2-bfdf-12486e5e39e0","ios":"levelo://app?vid=9f8aea45-6317-46b2-bfdf-12486e5e39e0"},"vehicle_type_id":"4","last_reported":1732565462,"current_range_meters":0,"station_id":"","pricing_plan_id":"cebpf4jnsgd1na2vs0mg"},{"bike_id":"cef0cd88-1a7a-4306-a75e-664dfff22614","system_id":"levelo_inurba_marseille","lat":43.30858,"lon":5.3775,"is_reserved":false,"is_disabled":true,"rental_uris":{"android":"levelo://app?vid=cef0cd88-1a7a-4306-a75e-664dfff22614","ios":"levelo://app?vid=cef0cd88-1a7a-4306-a75e-664dfff22614"},"vehicle_type_id":"4","last_reported":1732565462,"current_range_meters":0,"station_id":"","pricing_plan_id":"cebpf4jnsgd1na2vs0mg"},{"bike_id":"1e126baa-22b4-4cf7-a05e-1c0611873009","system_id":"levelo_inurba_marseille","lat":43.311192,"lon":5.377708,"is_reserved":false,"is_disabled":true,"rental_uris":{"android":"levelo://app?vid=1e126baa-22b4-4cf7-a05e-1c0611873009","ios":"levelo://app?vid=1e126baa-22b4-4cf7-a05e-1c0611873009"},"vehicle_type_id":"4","last_reported":1732565462,"current_range_meters":0,"station_id":"","pricing_plan_id":"cebpf4jnsgd1na2vs0mg"},{"bike_id":"6e67a2c5-4def-4f0b-9511-32a8dc381b4f","system_id":"levelo_inurba_marseille","lat":43.31232,"lon":5.36867,"is_reserved":false,"is_disabled":false,"rental_uris":{"android":"levelo://app?vid=6e67a2c5-4def-4f0b-9511-32a8dc381b4f","ios":"levelo://app?vid=6e67a2c5-4def-4f0b-9511-32a8dc381b4f"},"vehicle_type_id":"4","last_reported":1732565462,"current_range_meters":23200,"station_id":"ce4bgl92rcd13ifvqbq0","pricing_plan_id":"cebpf4jnsgd1na2vs0mg"},{"bike_id":"a066ea11-49cc-4ee6-9ea4-bcee99e3c4c5","system_id":"levelo_inurba_marseille","lat":43.29023,"lon":5.38139,"is_reserved":false,"is_disabled":true,"rental_uris":{"android":"levelo://app?vid=a066ea11-49cc-4ee6-9ea4-bcee99e3c4c5","ios":"levelo://app?vid=a066ea11-49cc-4ee6-9ea4-bcee99e3c4c5"},"vehicle_type_id":"4","last_reported":1732565462,"current_range_meters":38800,"station_id":"ce4bh4p2rcd13ifvqe1g","pricing_plan_id":"cebpf4jnsgd1na2vs0mg"},{"bike_id":"07373730-ba45-4ca8-b6a6-6db65250f6a1","system_id":"levelo_inurba_marseille","lat":43.29852,"lon":5.36291,"is_reserved":false,"is_disabled":true,"rental_uris":{"android":"levelo://app?vid=07373730-ba45-4ca8-b6a6-6db65250f6a1","ios":"levelo://app?vid=07373730-ba45-4ca8-b6a6-6db65250f6a1"},"vehicle_type_id":"4","last_reported":1732565462,"current_range_meters":20000,"station_id":"ce4bgpp2rcd13ifvqc3g","pricing_plan_id":"cebpf4jnsgd1na2vs0mg"},{"bike_id":"1aa157d2-2b13-49ae-a1ca-2010410cc0c1","system_id":"levelo_inurba_marseille","lat":43.24391,"lon":5.37052,"is_reserved":false,"is_disabled":false,"rental_uris":{"android":"levelo://app?vid=1aa157d2-2b13-49ae-a1ca-2010410cc0c1","ios":"levelo://app?vid=1aa157d2-2b13-49ae-a1ca-2010410cc0c1"},"vehicle_type_id":"4","last_reported":1732565462,"current_range_meters":6400,"station_id":"ce4bhhh2rcd13ifvqfk0","pricing_plan_id":"cebpf4jnsgd1na2vs0mg"},{"bike_id":"18924848-7e95-4f49-9d61-9049fb5cdf6f","system_id":"levelo_inurba_marseille","lat":43.2808,"lon":5.39649,"is_reserved":false,"is_disabled":false,"rental_uris":{"android":"levelo://app?vid=18924848-7e95-4f49-9d61-9049fb5cdf6f","ios":"levelo://app?vid=18924848-7e95-4f49-9d61-9049fb5cdf6f"},"vehicle_type_id":"4","last_reported":1732565462,"current_range_meters":38800,"station_id":"ce4bho12rcd13ifvqh2g","pricing_plan_id":"cebpf4jnsgd1na2vs0mg"},{"bike_id":"67143d8e-e66e-42c7-ac82-4a20541642d4","system_id":"levelo_inurba_marseille","lat":43.29619,"lon":5.37143,"is_reserved":false,"is_disabled":true,"rental_uris":{"android":"levelo://app?vid=67143d8e-e66e-42c7-ac82-4a20541642d4","ios":"levelo://app?vid=67143d8e-e66e-42c7-ac82-4a20541642d4"},"vehicle_type_id":"4","last_reported":1732565462,"current_range_meters":38800,"station_id":"ce4bgnh2rcd13ifvqc0g","pricing_plan_id":"cebpf4jnsgd1na2vs0mg"},{"bike_id":"dd08285a-8132-430d-a8bf-2aee58c7534b","system_id":"levelo_inurba_marseille","lat":43.24051,"lon":5.37756,"is_reserved":false,"is_disabled":false,"rental_uris":{"android":"levelo://app?vid=dd08285a-8132-430d-a8bf-2aee58c7534b","ios":"levelo://app?vid=dd08285a-8132-430d-a8bf-2aee58c7534b"},"vehicle_type_id":"4","last_reported":1732565462,"current_range_meters":27600,"station_id":"ce4bhnp2rcd13ifvqgvg","pricing_plan_id":"cebpf4jnsgd1na2vs0mg"},{"bike_id":"6d610c0a-2b90-4fc5-8f94-c5e5e5b8702b","system_id":"levelo_inurba_marseille","lat":43.28917,"lon":5.36373,"is_reserved":false,"is_disabled":false,"rental_uris":{"android":"levelo://app?vid=6d610c0a-2b90-4fc5-8f94-c5e5e5b8702b","ios":"levelo://app?vid=6d610c0a-2b90-4fc5-8f94-c5e5e5b8702b"},"vehicle_type_id":"4","last_reported":1732565462,"current_range_meters":24000,"station_id":"ce4bhc92rcd13ifvqetg","pricing_plan_id":"cebpf4jnsgd1na2vs0mg"},{"bike_id":"4440eddc-5b5a-4daf-9601-fc85279e2468","system_id":"levelo_inurba_marseille","lat":43.25728,"lon":5.41104,"is_reserved":false,"is_disabled":false,"rental_uris":{"android":"levelo://app?vid=4440eddc-5b5a-4daf-9601-fc85279e2468","ios":"levelo://app?vid=4440eddc-5b5a-4daf-9601-fc85279e2468"},"vehicle_type_id":"4","last_reported":1732565462,"current_range_meters":25200,"station_id":"ce4bhkp2rcd13ifvqgd0","pricing_plan_id":"cebpf4jnsgd1na2vs0mg"},{"bike_id":"f7f7fd06-4983-4658-b605-e86318567bab","system_id":"levelo_inurba_marseille","lat":43.27554,"lon":5.38425,"is_reserved":false,"is_disabled":true,"rental_uris":{"android":"levelo://app?vid=f7f7fd06-4983-4658-b605-e86318567bab","ios":"levelo://app?vid=f7f7fd06-4983-4658-b605-e86318567bab"},"vehicle_type_id":"4","last_reported":1732565462,"current_range_meters":1200,"station_id":"ce4bhh92rcd13ifvqfi0","pricing_plan_id":"cebpf4jnsgd1na2vs0mg"},{"bike_id":"83f442cf-579e-46be-91e9-63bdc8bc05b6","system_id":"levelo_inurba_marseille","lat":43.25922,"lon":5.40894,"is_reserved":false,"is_disabled":true,"rental_uris":{"android":"levelo://app?vid=83f442cf-579e-46be-91e9-63bdc8bc05b6","ios":"levelo://app?vid=83f442cf-579e-46be-91e9-63bdc8bc05b6"},"vehicle_type_id":"4","last_reported":1732565462,"current_range_meters":38800,"station_id":"ce4bhm92rcd13ifvqglg","pricing_plan_id":"cebpf4jnsgd1na2vs0mg"},{"bike_id":"1e3d2aed-a3f4-4aef-8605-9a4732190938","system_id":"levelo_inurba_marseille","lat":43.26046,"lon":5.39398,"is_reserved":false,"is_disabled":false,"rental_uris":{"android":"levelo://app?vid=1e3d2aed-a3f4-4aef-8605-9a4732190938","ios":"levelo://app?vid=1e3d2aed-a3f4-4aef-8605-9a4732190938"},"vehicle_type_id":"4","last_reported":1732565462,"current_range_meters":38000,"station_id":"ce4bhh92rcd13ifvqfj0","pricing_plan_id":"cebpf4jnsgd1na2vs0mg"},{"bike_id":"3fa4e95d-6a71-46fd-8d0e-7e533c4493fd","system_id":"levelo_inurba_marseille","lat":43.28075,"lon":5.39646,"is_reserved":false,"is_disabled":false,"rental_uris":{"android":"levelo://app?vid=3fa4e95d-6a71-46fd-8d0e-7e533c4493fd","ios":"levelo://app?vid=3fa4e95d-6a71-46fd-8d0e-7e533c4493fd"},"vehicle_type_id":"4","last_reported":1732565462,"current_range_meters":8000,"station_id":"ce4bho12rcd13ifvqh2g","pricing_plan_id":"cebpf4jnsgd1na2vs0mg"},{"bike_id":"820f12a0-cf28-488c-8a74-3f1b9d2e4db5","system_id":"levelo_inurba_marseille","lat":43.23059,"lon":5.35493,"is_reserved":false,"is_disabled":false,"rental_uris":{"android":"levelo://app?vid=820f12a0-cf28-488c-8a74-3f1b9d2e4db5","ios":"levelo://app?vid=820f12a0-cf28-488c-8a74-3f1b9d2e4db5"},"vehicle_type_id":"4","last_reported":1732565462,"current_range_meters":27200,"station_id":"cpo3342slgdg3j2ifvpg","pricing_plan_id":"cebpf4jnsgd1na2vs0mg"},{"bike_id":"e46be710-03d5-409f-9685-1acc4e9a94bb","system_id":"levelo_inurba_marseille","lat":43.29525,"lon":5.39037,"is_reserved":false,"is_disabled":false,"rental_uris":{"android":"levelo://app?vid=e46be710-03d5-409f-9685-1acc4e9a94bb","ios":"levelo://app?vid=e46be710-03d5-409f-9685-1acc4e9a94bb"},"vehicle_type_id":"4","last_reported":1732565462,"current_range_meters":7200,"station_id":"ce4bh3p2rcd13ifvqdp0","pricing_plan_id":"cebpf4jnsgd1na2vs0mg"},{"bike_id":"5a069e09-af9f-4903-b8d1-07aba75ffe24","system_id":"levelo_inurba_marseille","lat":43.292,"lon":5.39302,"is_reserved":false,"is_disabled":false,"rental_uris":{"android":"levelo://app?vid=5a069e09-af9f-4903-b8d1-07aba75ffe24","ios":"levelo://app?vid=5a069e09-af9f-4903-b8d1-07aba75ffe24"},"vehicle_type_id":"4","last_reported":1732565462,"current_range_meters":18800,"station_id":"ce4bh192rcd13ifvqdd0","pricing_plan_id":"cebpf4jnsgd1na2vs0mg"},{"bike_id":"9465545f-af87-4599-bf7e-091832e32b7b","system_id":"levelo_inurba_marseille","lat":43.29538,"lon":5.38542,"is_reserved":false,"is_disabled":true,"rental_uris":{"android":"levelo://app?vid=9465545f-af87-4599-bf7e-091832e32b7b","ios":"levelo://app?vid=9465545f-af87-4599-bf7e-091832e32b7b"},"vehicle_type_id":"4","last_reported":1732565462,"current_range_meters":24000,"station_id":"ce4bgih2rcd13ifvqba0","pricing_plan_id":"cebpf4jnsgd1na2vs0mg"},{"bike_id":"de677db0-29ab-4fa1-8a35-822ecbd68a4f","system_id":"levelo_inurba_marseille","lat":43.29253,"lon":5.40912,"is_reserved":false,"is_disabled":false,"rental_uris":{"android":"levelo://app?vid=de677db0-29ab-4fa1-8a35-822ecbd68a4f","ios":"levelo://app?vid=de677db0-29ab-4fa1-8a35-822ecbd68a4f"},"vehicle_type_id":"4","last_reported":1732565462,"current_range_meters":38800,"station_id":"ce4bh192rcd13ifvqdc0","pricing_plan_id":"cebpf4jnsgd1na2vs0mg"},{"bike_id":"1ea63947-abab-4a62-970d-2e53c115e398","system_id":"levelo_inurba_marseille","lat":43.3107,"lon":5.38353,"is_reserved":false,"is_disabled":false,"rental_uris":{"android":"levelo://app?vid=1ea63947-abab-4a62-970d-2e53c115e398","ios":"levelo://app?vid=1ea63947-abab-4a62-970d-2e53c115e398"},"vehicle_type_id":"4","last_reported":1732565462,"current_range_meters":30000,"station_id":"ce4bgv92rcd13ifvqcr0","pricing_plan_id":"cebpf4jnsgd1na2vs0mg"},{"bike_id":"835b00c2-64c0-4cbe-82bb-c78dd70919e3","system_id":"levelo_inurba_marseille","lat":43.279718,"lon":5.407934,"is_reserved":false,"is_disabled":false,"rental_uris":{"android":"levelo://app?vid=835b00c2-64c0-4cbe-82bb-c78dd70919e3","ios":"levelo://app?vid=835b00c2-64c0-4cbe-82bb-c78dd70919e3"},"vehicle_type_id":"4","last_reported":1732565462,"current_range_meters":6400,"station_id":"","pricing_plan_id":"cebpf4jnsgd1na2vs0mg"},{"bike_id":"ec34ae3e-5efd-46d9-8e94-803e3abdd809","system_id":"levelo_inurba_marseille","lat":43.29521,"lon":5.39066,"is_reserved":false,"is_disabled":false,"rental_uris":{"android":"levelo://app?vid=ec34ae3e-5efd-46d9-8e94-803e3abdd809","ios":"levelo://app?vid=ec34ae3e-5efd-46d9-8e94-803e3abdd809"},"vehicle_type_id":"4","last_reported":1732565462,"current_range_meters":17200,"station_id":"ce4bh3p2rcd13ifvqdp0","pricing_plan_id":"cebpf4jnsgd1na2vs0mg"},{"bike_id":"6d7e4586-4fd7-4a8f-ae40-5ac995ccea84","system_id":"levelo_inurba_marseille","lat":43.2904,"lon":5.35921,"is_reserved":false,"is_disabled":false,"rental_uris":{"android":"levelo://app?vid=6d7e4586-4fd7-4a8f-ae40-5ac995ccea84","ios":"levelo://app?vid=6d7e4586-4fd7-4a8f-ae40-5ac995ccea84"},"vehicle_type_id":"4","last_reported":1732565462,"current_range_meters":12800,"station_id":"ce4bha92rcd13ifvqeg0","pricing_plan_id":"cebpf4jnsgd1na2vs0mg"},{"bike_id":"e370602f-3d4b-484d-aad2-19ce0102b61c","system_id":"levelo_inurba_marseille","lat":43.2868,"lon":5.38667,"is_reserved":false,"is_disabled":false,"rental_uris":{"android":"levelo://app?vid=e370602f-3d4b-484d-aad2-19ce0102b61c","ios":"levelo://app?vid=e370602f-3d4b-484d-aad2-19ce0102b61c"},"vehicle_type_id":"4","last_reported":1732565462,"current_range_meters":36400,"station_id":"ce4bh492rcd13ifvqdug","pricing_plan_id":"cebpf4jnsgd1na2vs0mg"},{"bike_id":"754501a0-613d-4706-8af3-47f1ca670c6e","system_id":"levelo_inurba_marseille","lat":43.31702,"lon":5.37743,"is_reserved":false,"is_disabled":false,"rental_uris":{"android":"levelo://app?vid=754501a0-613d-4706-8af3-47f1ca670c6e","ios":"levelo://app?vid=754501a0-613d-4706-8af3-47f1ca670c6e"},"vehicle_type_id":"4","last_reported":1732565462,"current_range_meters":30000,"station_id":"ce4bgth2rcd13ifvqch0","pricing_plan_id":"cebpf4jnsgd1na2vs0mg"},{"bike_id":"ba40495b-db19-44e7-929f-6d91e7f96b53","system_id":"levelo_inurba_marseille","lat":43.30786,"lon":5.37661,"is_reserved":false,"is_disabled":false,"rental_uris":{"android":"levelo://app?vid=ba40495b-db19-44e7-929f-6d91e7f96b53","ios":"levelo://app?vid=ba40495b-db19-44e7-929f-6d91e7f96b53"},"vehicle_type_id":"4","last_reported":1732565462,"current_range_meters":8000,"station_id":"ce4bgv92rcd13ifvqcq0","pricing_plan_id":"cebpf4jnsgd1na2vs0mg"},{"bike_id":"349d838a-52d9-46de-b05d-c6b2a4cc9e3b","system_id":"levelo_inurba_marseille","lat":43.28843,"lon":5.39314,"is_reserved":false,"is_disabled":false,"rental_uris":{"android":"levelo://app?vid=349d838a-52d9-46de-b05d-c6b2a4cc9e3b","ios":"levelo://app?vid=349d838a-52d9-46de-b05d-c6b2a4cc9e3b"},"vehicle_type_id":"4","last_reported":1732565462,"current_range_meters":40000,"station_id":"ce4bh2p2rcd13ifvqdi0","pricing_plan_id":"cebpf4jnsgd1na2vs0mg"},{"bike_id":"6a3fd39a-c250-4dd4-b686-2d108b9d5664","system_id":"levelo_inurba_marseille","lat":43.31166,"lon":5.38711,"is_reserved":false,"is_disabled":false,"rental_uris":{"android":"levelo://app?vid=6a3fd39a-c250-4dd4-b686-2d108b9d5664","ios":"levelo://app?vid=6a3fd39a-c250-4dd4-b686-2d108b9d5664"},"vehicle_type_id":"4","last_reported":1732565462,"current_range_meters":38800,"station_id":"ce4bgv12rcd13ifvqcp0","pricing_plan_id":"cebpf4jnsgd1na2vs0mg"},{"bike_id":"37d586da-a7a4-40c1-b6cf-fff1e4da8813","system_id":"levelo_inurba_marseille","lat":43.29443,"lon":5.39774,"is_reserved":false,"is_disabled":false,"rental_uris":{"android":"levelo://app?vid=37d586da-a7a4-40c1-b6cf-fff1e4da8813","ios":"levelo://app?vid=37d586da-a7a4-40c1-b6cf-fff1e4da8813"},"vehicle_type_id":"4","last_reported":1732565462,"current_range_meters":27600,"station_id":"ce4bh3h2rcd13ifvqdo0","pricing_plan_id":"cebpf4jnsgd1na2vs0mg"},{"bike_id":"996eaa45-b0c7-46cb-8925-64784aabecef","system_id":"levelo_inurba_marseille","lat":43.25569,"lon":5.38246,"is_reserved":false,"is_disabled":true,"rental_uris":{"android":"levelo://app?vid=996eaa45-b0c7-46cb-8925-64784aabecef","ios":"levelo://app?vid=996eaa45-b0c7-46cb-8925-64784aabecef"},"vehicle_type_id":"4","last_reported":1732565462,"current_range_meters":0,"station_id":"ce4bhih2rcd13ifvqfs0","pricing_plan_id":"cebpf4jnsgd1na2vs0mg"},{"bike_id":"5b8cd3b4-e243-4fba-aaf5-11d686fcd3e4","system_id":"levelo_inurba_marseille","lat":43.29007,"lon":5.35607,"is_reserved":false,"is_disabled":true,"rental_uris":{"android":"levelo://app?vid=5b8cd3b4-e243-4fba-aaf5-11d686fcd3e4","ios":"levelo://app?vid=5b8cd3b4-e243-4fba-aaf5-11d686fcd3e4"},"vehicle_type_id":"4","last_reported":1732565462,"current_range_meters":27600,"station_id":"ce4bhb92rcd13ifvqen0","pricing_plan_id":"cebpf4jnsgd1na2vs0mg"},{"bike_id":"1b07003e-cc73-4485-a4bd-21adb5308083","system_id":"levelo_inurba_marseille","lat":43.2742,"lon":5.39408,"is_reserved":false,"is_disabled":true,"rental_uris":{"android":"levelo://app?vid=1b07003e-cc73-4485-a4bd-21adb5308083","ios":"levelo://app?vid=1b07003e-cc73-4485-a4bd-21adb5308083"},"vehicle_type_id":"4","last_reported":1732565462,"current_range_meters":0,"station_id":"ce4bhdp2rcd13ifvqf20","pricing_plan_id":"cebpf4jnsgd1na2vs0mg"},{"bike_id":"50c2ccea-ab32-43f5-b2b1-e6696ef880e5","system_id":"levelo_inurba_marseille","lat":43.29442,"lon":5.39756,"is_reserved":false,"is_disabled":false,"rental_uris":{"android":"levelo://app?vid=50c2ccea-ab32-43f5-b2b1-e6696ef880e5","ios":"levelo://app?vid=50c2ccea-ab32-43f5-b2b1-e6696ef880e5"},"vehicle_type_id":"4","last_reported":1732565462,"current_range_meters":29600,"station_id":"ce4bh3h2rcd13ifvqdo0","pricing_plan_id":"cebpf4jnsgd1na2vs0mg"},{"bike_id":"586fa297-99f1-4711-a109-1929198c7d64","system_id":"levelo_inurba_marseille","lat":43.27822,"lon":5.39212,"is_reserved":false,"is_disabled":false,"rental_uris":{"android":"levelo://app?vid=586fa297-99f1-4711-a109-1929198c7d64","ios":"levelo://app?vid=586fa297-99f1-4711-a109-1929198c7d64"},"vehicle_type_id":"4","last_reported":1732565462,"current_range_meters":19200,"station_id":"ce4bhjp2rcd13ifvqga0","pricing_plan_id":"cebpf4jnsgd1na2vs0mg"},{"bike_id":"57c3c4ba-b894-444a-a5cc-16a89b256859","system_id":"levelo_inurba_marseille","lat":43.27815,"lon":5.40713,"is_reserved":false,"is_disabled":false,"rental_uris":{"android":"levelo://app?vid=57c3c4ba-b894-444a-a5cc-16a89b256859","ios":"levelo://app?vid=57c3c4ba-b894-444a-a5cc-16a89b256859"},"vehicle_type_id":"4","last_reported":1732565462,"current_range_meters":28000,"station_id":"ce4bhnh2rcd13ifvqgtg","pricing_plan_id":"cebpf4jnsgd1na2vs0mg"},{"bike_id":"4d809776-4d2b-4bf5-8aa6-666b5b1fd18f","system_id":"levelo_inurba_marseille","lat":43.33724,"lon":5.39182,"is_reserved":false,"is_disabled":false,"rental_uris":{"android":"levelo://app?vid=4d809776-4d2b-4bf5-8aa6-666b5b1fd18f","ios":"levelo://app?vid=4d809776-4d2b-4bf5-8aa6-666b5b1fd18f"},"vehicle_type_id":"4","last_reported":1732565462,"current_range_meters":27600,"station_id":"ce4bhr92rcd13ifvqhsg","pricing_plan_id":"cebpf4jnsgd1na2vs0mg"},{"bike_id":"65f968c4-6378-49a5-8ba1-b35da92d10d2","system_id":"levelo_inurba_marseille","lat":43.28038,"lon":5.36949,"is_reserved":false,"is_disabled":false,"rental_uris":{"android":"levelo://app?vid=65f968c4-6378-49a5-8ba1-b35da92d10d2","ios":"levelo://app?vid=65f968c4-6378-49a5-8ba1-b35da92d10d2"},"vehicle_type_id":"4","last_reported":1732565462,"current_range_meters":35600,"station_id":"ce4bha12rcd13ifvqef0","pricing_plan_id":"cebpf4jnsgd1na2vs0mg"},{"bike_id":"1b5bfab3-8645-4d4a-9e61-6920c30f757e","system_id":"levelo_inurba_marseille","lat":43.23185,"lon":5.39991,"is_reserved":false,"is_disabled":false,"rental_uris":{"android":"levelo://app?vid=1b5bfab3-8645-4d4a-9e61-6920c30f757e","ios":"levelo://app?vid=1b5bfab3-8645-4d4a-9e61-6920c30f757e"},"vehicle_type_id":"4","last_reported":1732565462,"current_range_meters":2000,"station_id":"ce4bhn12rcd13ifvqgqg","pricing_plan_id":"cebpf4jnsgd1na2vs0mg"},{"bike_id":"8cf66ebf-20a4-4bda-b830-189642fbcd89","system_id":"levelo_inurba_marseille","lat":43.288522,"lon":5.39308,"is_reserved":false,"is_disabled":false,"rental_uris":{"android":"levelo://app?vid=8cf66ebf-20a4-4bda-b830-189642fbcd89","ios":"levelo://app?vid=8cf66ebf-20a4-4bda-b830-189642fbcd89"},"vehicle_type_id":"4","last_reported":1732565462,"current_range_meters":7200,"station_id":"ce4bgn12rcd13ifvqbt0","pricing_plan_id":"cebpf4jnsgd1na2vs0mg"},{"bike_id":"653eb4ca-3250-459a-8490-2e0d220f5991","system_id":"levelo_inurba_marseille","lat":43.29591,"lon":5.38102,"is_reserved":false,"is_disabled":true,"rental_uris":{"android":"levelo://app?vid=653eb4ca-3250-459a-8490-2e0d220f5991","ios":"levelo://app?vid=653eb4ca-3250-459a-8490-2e0d220f5991"},"vehicle_type_id":"4","last_reported":1732565462,"current_range_meters":30800,"station_id":"ce4bgl12rcd13ifvqbo0","pricing_plan_id":"cebpf4jnsgd1na2vs0mg"},{"bike_id":"3396bff9-f585-49ae-8817-80d5664a6b74","system_id":"levelo_inurba_marseille","lat":43.288429,"lon":5.393117,"is_reserved":false,"is_disabled":false,"rental_uris":{"android":"levelo://app?vid=3396bff9-f585-49ae-8817-80d5664a6b74","ios":"levelo://app?vid=3396bff9-f585-49ae-8817-80d5664a6b74"},"vehicle_type_id":"4","last_reported":1732565462,"current_range_meters":38800,"station_id":"ce4bh2p2rcd13ifvqdi0","pricing_plan_id":"cebpf4jnsgd1na2vs0mg"},{"bike_id":"511bde3c-2812-4591-83db-5db1f033e445","system_id":"levelo_inurba_marseille","lat":43.32368,"lon":5.38883,"is_reserved":false,"is_disabled":false,"rental_uris":{"android":"levelo://app?vid=511bde3c-2812-4591-83db-5db1f033e445","ios":"levelo://app?vid=511bde3c-2812-4591-83db-5db1f033e445"},"vehicle_type_id":"4","last_reported":1732565462,"current_range_meters":25200,"station_id":"ce4bhqp2rcd13ifvqhog","pricing_plan_id":"cebpf4jnsgd1na2vs0mg"},{"bike_id":"c20e63ff-9343-4668-bac3-1054be8872b3","system_id":"levelo_inurba_marseille","lat":43.28849,"lon":5.35876,"is_reserved":false,"is_disabled":false,"rental_uris":{"android":"levelo://app?vid=c20e63ff-9343-4668-bac3-1054be8872b3","ios":"levelo://app?vid=c20e63ff-9343-4668-bac3-1054be8872b3"},"vehicle_type_id":"4","last_reported":1732565462,"current_range_meters":36000,"station_id":"ce4bhb12rcd13ifvqem0","pricing_plan_id":"cebpf4jnsgd1na2vs0mg"},{"bike_id":"aa717be1-dcce-416b-90e1-180e376a1e41","system_id":"levelo_inurba_marseille","lat":43.337444,"lon":5.374475,"is_reserved":false,"is_disabled":false,"rental_uris":{"android":"levelo://app?vid=aa717be1-dcce-416b-90e1-180e376a1e41","ios":"levelo://app?vid=aa717be1-dcce-416b-90e1-180e376a1e41"},"vehicle_type_id":"4","last_reported":1732565462,"current_range_meters":36800,"station_id":"","pricing_plan_id":"cebpf4jnsgd1na2vs0mg"},{"bike_id":"2a09209b-9e53-4e93-a4c9-9ab475d29893","system_id":"levelo_inurba_marseille","lat":43.30243,"lon":5.37419,"is_reserved":false,"is_disabled":true,"rental_uris":{"android":"levelo://app?vid=2a09209b-9e53-4e93-a4c9-9ab475d29893","ios":"levelo://app?vid=2a09209b-9e53-4e93-a4c9-9ab475d29893"},"vehicle_type_id":"4","last_reported":1732565462,"current_range_meters":19600,"station_id":"","pricing_plan_id":"cebpf4jnsgd1na2vs0mg"},{"bike_id":"294eeb79-af1b-495a-909f-216801ae6b41","system_id":"levelo_inurba_marseille","lat":43.33756,"lon":5.37445,"is_reserved":false,"is_disabled":false,"rental_uris":{"android":"levelo://app?vid=294eeb79-af1b-495a-909f-216801ae6b41","ios":"levelo://app?vid=294eeb79-af1b-495a-909f-216801ae6b41"},"vehicle_type_id":"4","last_reported":1732565462,"current_range_meters":12000,"station_id":"","pricing_plan_id":"cebpf4jnsgd1na2vs0mg"},{"bike_id":"537560b4-9094-4fb6-af68-76134d66b81a","system_id":"levelo_inurba_marseille","lat":43.29877,"lon":5.39748,"is_reserved":false,"is_disabled":true,"rental_uris":{"android":"levelo://app?vid=537560b4-9094-4fb6-af68-76134d66b81a","ios":"levelo://app?vid=537560b4-9094-4fb6-af68-76134d66b81a"},"vehicle_type_id":"4","last_reported":1732565462,"current_range_meters":31200,"station_id":"ce4bh0h2rcd13ifvqd50","pricing_plan_id":"cebpf4jnsgd1na2vs0mg"},{"bike_id":"cb0cd7c7-20c1-4b0e-a0a2-57c8e9b52c3e","system_id":"levelo_inurba_marseille","lat":43.29,"lon":5.35604,"is_reserved":false,"is_disabled":false,"rental_uris":{"android":"levelo://app?vid=cb0cd7c7-20c1-4b0e-a0a2-57c8e9b52c3e","ios":"levelo://app?vid=cb0cd7c7-20c1-4b0e-a0a2-57c8e9b52c3e"},"vehicle_type_id":"4","last_reported":1732565462,"current_range_meters":38000,"station_id":"ce4bhb92rcd13ifvqen0","pricing_plan_id":"cebpf4jnsgd1na2vs0mg"},{"bike_id":"e498c85d-2191-424d-aceb-22e77b3e25b7","system_id":"levelo_inurba_marseille","lat":43.29005,"lon":5.35613,"is_reserved":false,"is_disabled":false,"rental_uris":{"android":"levelo://app?vid=e498c85d-2191-424d-aceb-22e77b3e25b7","ios":"levelo://app?vid=e498c85d-2191-424d-aceb-22e77b3e25b7"},"vehicle_type_id":"4","last_reported":1732565462,"current_range_meters":38800,"station_id":"ce4bhb92rcd13ifvqen0","pricing_plan_id":"cebpf4jnsgd1na2vs0mg"},{"bike_id":"8e9d21a9-ac1c-4861-b0c0-a8b006245f43","system_id":"levelo_inurba_marseille","lat":43.27906,"lon":5.39581,"is_reserved":false,"is_disabled":false,"rental_uris":{"android":"levelo://app?vid=8e9d21a9-ac1c-4861-b0c0-a8b006245f43","ios":"levelo://app?vid=8e9d21a9-ac1c-4861-b0c0-a8b006245f43"},"vehicle_type_id":"4","last_reported":1732565462,"current_range_meters":32800,"station_id":"ce4bhf92rcd13ifvqf40","pricing_plan_id":"cebpf4jnsgd1na2vs0mg"},{"bike_id":"86383967-310b-4a4e-8310-a0e8da0ce0df","system_id":"levelo_inurba_marseille","lat":43.28155,"lon":5.4264,"is_reserved":false,"is_disabled":false,"rental_uris":{"android":"levelo://app?vid=86383967-310b-4a4e-8310-a0e8da0ce0df","ios":"levelo://app?vid=86383967-310b-4a4e-8310-a0e8da0ce0df"},"vehicle_type_id":"4","last_reported":1732565462,"current_range_meters":36400,"station_id":"ce4bhnh2rcd13ifvqgug","pricing_plan_id":"cebpf4jnsgd1na2vs0mg"},{"bike_id":"777b7fed-d395-4c97-b504-dee7c3479d4f","system_id":"levelo_inurba_marseille","lat":43.29836,"lon":5.3785,"is_reserved":false,"is_disabled":true,"rental_uris":{"android":"levelo://app?vid=777b7fed-d395-4c97-b504-dee7c3479d4f","ios":"levelo://app?vid=777b7fed-d395-4c97-b504-dee7c3479d4f"},"vehicle_type_id":"4","last_reported":1732565462,"current_range_meters":0,"station_id":"","pricing_plan_id":"cebpf4jnsgd1na2vs0mg"},{"bike_id":"bb84ba39-3d9f-4387-a9cf-6107da53da77","system_id":"levelo_inurba_marseille","lat":43.2841,"lon":5.37518,"is_reserved":false,"is_disabled":false,"rental_uris":{"android":"levelo://app?vid=bb84ba39-3d9f-4387-a9cf-6107da53da77","ios":"levelo://app?vid=bb84ba39-3d9f-4387-a9cf-6107da53da77"},"vehicle_type_id":"4","last_reported":1732565462,"current_range_meters":38800,"station_id":"ce4bh412rcd13ifvqds0","pricing_plan_id":"cebpf4jnsgd1na2vs0mg"},{"bike_id":"cd78312a-142a-42d0-92e1-dbc654bf8bb4","system_id":"levelo_inurba_marseille","lat":43.24179,"lon":5.39709,"is_reserved":false,"is_disabled":true,"rental_uris":{"android":"levelo://app?vid=cd78312a-142a-42d0-92e1-dbc654bf8bb4","ios":"levelo://app?vid=cd78312a-142a-42d0-92e1-dbc654bf8bb4"},"vehicle_type_id":"4","last_reported":1732565462,"current_range_meters":2800,"station_id":"ce4bhn12rcd13ifvqgpg","pricing_plan_id":"cebpf4jnsgd1na2vs0mg"},{"bike_id":"2e29d7a4-a828-4d4a-bfde-c959fb28a895","system_id":"levelo_inurba_marseille","lat":43.28923,"lon":5.38396,"is_reserved":false,"is_disabled":false,"rental_uris":{"android":"levelo://app?vid=2e29d7a4-a828-4d4a-bfde-c959fb28a895","ios":"levelo://app?vid=2e29d7a4-a828-4d4a-bfde-c959fb28a895"},"vehicle_type_id":"4","last_reported":1732565462,"current_range_meters":37600,"station_id":"ce4bh612rcd13ifvqe6g","pricing_plan_id":"cebpf4jnsgd1na2vs0mg"},{"bike_id":"d3482130-ac92-46c2-b26c-eb08be21194e","system_id":"levelo_inurba_marseille","lat":43.28153,"lon":5.42644,"is_reserved":false,"is_disabled":false,"rental_uris":{"android":"levelo://app?vid=d3482130-ac92-46c2-b26c-eb08be21194e","ios":"levelo://app?vid=d3482130-ac92-46c2-b26c-eb08be21194e"},"vehicle_type_id":"4","last_reported":1732565462,"current_range_meters":39200,"station_id":"ce4bhnh2rcd13ifvqgug","pricing_plan_id":"cebpf4jnsgd1na2vs0mg"},{"bike_id":"8d9b5eca-df1e-45d2-aa96-e86919344716","system_id":"levelo_inurba_marseille","lat":43.24546,"lon":5.39527,"is_reserved":false,"is_disabled":false,"rental_uris":{"android":"levelo://app?vid=8d9b5eca-df1e-45d2-aa96-e86919344716","ios":"levelo://app?vid=8d9b5eca-df1e-45d2-aa96-e86919344716"},"vehicle_type_id":"4","last_reported":1732565462,"current_range_meters":17200,"station_id":"ce4bhlp2rcd13ifvqgjg","pricing_plan_id":"cebpf4jnsgd1na2vs0mg"},{"bike_id":"63ec4ee0-58f1-4f18-8299-210180cb8d82","system_id":"levelo_inurba_marseille","lat":43.30887,"lon":5.3966,"is_reserved":false,"is_disabled":false,"rental_uris":{"android":"levelo://app?vid=63ec4ee0-58f1-4f18-8299-210180cb8d82","ios":"levelo://app?vid=63ec4ee0-58f1-4f18-8299-210180cb8d82"},"vehicle_type_id":"4","last_reported":1732565462,"current_range_meters":24000,"station_id":"ce4bh012rcd13ifvqcv0","pricing_plan_id":"cebpf4jnsgd1na2vs0mg"},{"bike_id":"dd5ab154-647e-4dfa-88f1-0f781c7552f5","system_id":"levelo_inurba_marseille","lat":43.25584,"lon":5.38234,"is_reserved":false,"is_disabled":false,"rental_uris":{"android":"levelo://app?vid=dd5ab154-647e-4dfa-88f1-0f781c7552f5","ios":"levelo://app?vid=dd5ab154-647e-4dfa-88f1-0f781c7552f5"},"vehicle_type_id":"4","last_reported":1732565462,"current_range_meters":20000,"station_id":"ce4bhih2rcd13ifvqfs0","pricing_plan_id":"cebpf4jnsgd1na2vs0mg"},{"bike_id":"f90b5ae0-d91c-4007-bac3-1bc86ce63375","system_id":"levelo_inurba_marseille","lat":43.25824,"lon":5.3942,"is_reserved":false,"is_disabled":false,"rental_uris":{"android":"levelo://app?vid=f90b5ae0-d91c-4007-bac3-1bc86ce63375","ios":"levelo://app?vid=f90b5ae0-d91c-4007-bac3-1bc86ce63375"},"vehicle_type_id":"4","last_reported":1732565462,"current_range_meters":35200,"station_id":"ce4bhip2rcd13ifvqft0","pricing_plan_id":"cebpf4jnsgd1na2vs0mg"},{"bike_id":"39b04c21-6a6a-40a7-a489-741c2b67c9bd","system_id":"levelo_inurba_marseille","lat":43.3372,"lon":5.39185,"is_reserved":false,"is_disabled":false,"rental_uris":{"android":"levelo://app?vid=39b04c21-6a6a-40a7-a489-741c2b67c9bd","ios":"levelo://app?vid=39b04c21-6a6a-40a7-a489-741c2b67c9bd"},"vehicle_type_id":"4","last_reported":1732565462,"current_range_meters":20800,"station_id":"ce4bhr92rcd13ifvqhsg","pricing_plan_id":"cebpf4jnsgd1na2vs0mg"},{"bike_id":"286e3948-07ae-4802-8804-293973ad1f43","system_id":"levelo_inurba_marseille","lat":43.31117,"lon":5.37778,"is_reserved":false,"is_disabled":true,"rental_uris":{"android":"levelo://app?vid=286e3948-07ae-4802-8804-293973ad1f43","ios":"levelo://app?vid=286e3948-07ae-4802-8804-293973ad1f43"},"vehicle_type_id":"4","last_reported":1732565462,"current_range_meters":31200,"station_id":"ce4bgt92rcd13ifvqcg0","pricing_plan_id":"cebpf4jnsgd1na2vs0mg"},{"bike_id":"24fc129a-3a98-4f25-9554-234fc3a2dc8d","system_id":"levelo_inurba_marseille","lat":43.30416,"lon":5.41287,"is_reserved":false,"is_disabled":true,"rental_uris":{"android":"levelo://app?vid=24fc129a-3a98-4f25-9554-234fc3a2dc8d","ios":"levelo://app?vid=24fc129a-3a98-4f25-9554-234fc3a2dc8d"},"vehicle_type_id":"4","last_reported":1732565462,"current_range_meters":24000,"station_id":"ce4bhop2rcd13ifvqh8g","pricing_plan_id":"cebpf4jnsgd1na2vs0mg"},{"bike_id":"2ca0ec58-af92-4cf3-8ba9-ed227a42efc4","system_id":"levelo_inurba_marseille","lat":43.24389,"lon":5.3706,"is_reserved":false,"is_disabled":false,"rental_uris":{"android":"levelo://app?vid=2ca0ec58-af92-4cf3-8ba9-ed227a42efc4","ios":"levelo://app?vid=2ca0ec58-af92-4cf3-8ba9-ed227a42efc4"},"vehicle_type_id":"4","last_reported":1732565462,"current_range_meters":8800,"station_id":"ce4bhhh2rcd13ifvqfk0","pricing_plan_id":"cebpf4jnsgd1na2vs0mg"},{"bike_id":"07f55eb1-e7a7-41f5-921e-ee62144bbb7b","system_id":"levelo_inurba_marseille","lat":43.27817,"lon":5.40707,"is_reserved":false,"is_disabled":false,"rental_uris":{"android":"levelo://app?vid=07f55eb1-e7a7-41f5-921e-ee62144bbb7b","ios":"levelo://app?vid=07f55eb1-e7a7-41f5-921e-ee62144bbb7b"},"vehicle_type_id":"4","last_reported":1732565462,"current_range_meters":38800,"station_id":"ce4bhnh2rcd13ifvqgtg","pricing_plan_id":"cebpf4jnsgd1na2vs0mg"},{"bike_id":"fdc90e3c-9b9a-42c7-a1b0-c01755434381","system_id":"levelo_inurba_marseille","lat":43.255865,"lon":5.382378,"is_reserved":false,"is_disabled":false,"rental_uris":{"android":"levelo://app?vid=fdc90e3c-9b9a-42c7-a1b0-c01755434381","ios":"levelo://app?vid=fdc90e3c-9b9a-42c7-a1b0-c01755434381"},"vehicle_type_id":"4","last_reported":1732565462,"current_range_meters":38800,"station_id":"ce4bhih2rcd13ifvqfs0","pricing_plan_id":"cebpf4jnsgd1na2vs0mg"},{"bike_id":"45df81e2-5062-4d6c-8f6a-4bcb4627b44a","system_id":"levelo_inurba_marseille","lat":43.28465,"lon":5.35893,"is_reserved":false,"is_disabled":true,"rental_uris":{"android":"levelo://app?vid=45df81e2-5062-4d6c-8f6a-4bcb4627b44a","ios":"levelo://app?vid=45df81e2-5062-4d6c-8f6a-4bcb4627b44a"},"vehicle_type_id":"4","last_reported":1732565462,"current_range_meters":20000,"station_id":"ce4bhah2rcd13ifvqei0","pricing_plan_id":"cebpf4jnsgd1na2vs0mg"},{"bike_id":"120383cf-2453-4786-bbb8-39853ee211c7","system_id":"levelo_inurba_marseille","lat":43.24066,"lon":5.37763,"is_reserved":false,"is_disabled":true,"rental_uris":{"android":"levelo://app?vid=120383cf-2453-4786-bbb8-39853ee211c7","ios":"levelo://app?vid=120383cf-2453-4786-bbb8-39853ee211c7"},"vehicle_type_id":"4","last_reported":1732565462,"current_range_meters":0,"station_id":"ce4bhnp2rcd13ifvqgvg","pricing_plan_id":"cebpf4jnsgd1na2vs0mg"},{"bike_id":"99a2afdc-f816-4e36-bd15-33e921cb1899","system_id":"levelo_inurba_marseille","lat":43.25821,"lon":5.39428,"is_reserved":false,"is_disabled":false,"rental_uris":{"android":"levelo://app?vid=99a2afdc-f816-4e36-bd15-33e921cb1899","ios":"levelo://app?vid=99a2afdc-f816-4e36-bd15-33e921cb1899"},"vehicle_type_id":"4","last_reported":1732565462,"current_range_meters":17200,"station_id":"ce4bhip2rcd13ifvqft0","pricing_plan_id":"cebpf4jnsgd1na2vs0mg"},{"bike_id":"d8031f18-f805-4d9c-8a3a-31e0b8336e25","system_id":"levelo_inurba_marseille","lat":43.25115,"lon":5.40318,"is_reserved":false,"is_disabled":true,"rental_uris":{"android":"levelo://app?vid=d8031f18-f805-4d9c-8a3a-31e0b8336e25","ios":"levelo://app?vid=d8031f18-f805-4d9c-8a3a-31e0b8336e25"},"vehicle_type_id":"4","last_reported":1732565462,"current_range_meters":0,"station_id":"ce4bhlh2rcd13ifvqgig","pricing_plan_id":"cebpf4jnsgd1na2vs0mg"},{"bike_id":"62bcad95-d3e2-434c-81f4-127757d19c4c","system_id":"levelo_inurba_marseille","lat":43.29224,"lon":5.396,"is_reserved":false,"is_disabled":true,"rental_uris":{"android":"levelo://app?vid=62bcad95-d3e2-434c-81f4-127757d19c4c","ios":"levelo://app?vid=62bcad95-d3e2-434c-81f4-127757d19c4c"},"vehicle_type_id":"4","last_reported":1732565462,"current_range_meters":0,"station_id":"","pricing_plan_id":"cebpf4jnsgd1na2vs0mg"},{"bike_id":"e0acdd45-da0a-4770-a2d8-6e0fcfd38f9d","system_id":"levelo_inurba_marseille","lat":43.28659,"lon":5.3635,"is_reserved":false,"is_disabled":false,"rental_uris":{"android":"levelo://app?vid=e0acdd45-da0a-4770-a2d8-6e0fcfd38f9d","ios":"levelo://app?vid=e0acdd45-da0a-4770-a2d8-6e0fcfd38f9d"},"vehicle_type_id":"4","last_reported":1732565462,"current_range_meters":38800,"station_id":"ce4bhah2rcd13ifvqej0","pricing_plan_id":"cebpf4jnsgd1na2vs0mg"},{"bike_id":"1896cb88-0db2-4bc7-bf7f-e1d313f15090","system_id":"levelo_inurba_marseille","lat":43.31077,"lon":5.3832,"is_reserved":false,"is_disabled":false,"rental_uris":{"android":"levelo://app?vid=1896cb88-0db2-4bc7-bf7f-e1d313f15090","ios":"levelo://app?vid=1896cb88-0db2-4bc7-bf7f-e1d313f15090"},"vehicle_type_id":"4","last_reported":1732565462,"current_range_meters":27600,"station_id":"ce4bgv92rcd13ifvqcr0","pricing_plan_id":"cebpf4jnsgd1na2vs0mg"},{"bike_id":"36296f5c-0176-4be0-97c8-7930cda9c369","system_id":"levelo_inurba_marseille","lat":43.32109,"lon":5.36771,"is_reserved":false,"is_disabled":false,"rental_uris":{"android":"levelo://app?vid=36296f5c-0176-4be0-97c8-7930cda9c369","ios":"levelo://app?vid=36296f5c-0176-4be0-97c8-7930cda9c369"},"vehicle_type_id":"4","last_reported":1732565462,"current_range_meters":25200,"station_id":"ce4bhrh2rcd13ifvqhug","pricing_plan_id":"cebpf4jnsgd1na2vs0mg"},{"bike_id":"6318be48-bb42-4511-807b-093eb8ebd4fa","system_id":"levelo_inurba_marseille","lat":43.29569,"lon":5.39986,"is_reserved":false,"is_disabled":false,"rental_uris":{"android":"levelo://app?vid=6318be48-bb42-4511-807b-093eb8ebd4fa","ios":"levelo://app?vid=6318be48-bb42-4511-807b-093eb8ebd4fa"},"vehicle_type_id":"4","last_reported":1732565462,"current_range_meters":15200,"station_id":"ce4bh312rcd13ifvqdj0","pricing_plan_id":"cebpf4jnsgd1na2vs0mg"},{"bike_id":"87703e69-e2dd-47ca-ac7c-d25cc03900f2","system_id":"levelo_inurba_marseille","lat":43.3106,"lon":5.40086,"is_reserved":false,"is_disabled":true,"rental_uris":{"android":"levelo://app?vid=87703e69-e2dd-47ca-ac7c-d25cc03900f2","ios":"levelo://app?vid=87703e69-e2dd-47ca-ac7c-d25cc03900f2"},"vehicle_type_id":"4","last_reported":1732565462,"current_range_meters":1200,"station_id":"","pricing_plan_id":"cebpf4jnsgd1na2vs0mg"},{"bike_id":"64c786a7-a675-46ef-b76d-dc675abe702f","system_id":"levelo_inurba_marseille","lat":43.23182,"lon":5.39988,"is_reserved":false,"is_disabled":false,"rental_uris":{"android":"levelo://app?vid=64c786a7-a675-46ef-b76d-dc675abe702f","ios":"levelo://app?vid=64c786a7-a675-46ef-b76d-dc675abe702f"},"vehicle_type_id":"4","last_reported":1732565462,"current_range_meters":8000,"station_id":"ce4bhn12rcd13ifvqgqg","pricing_plan_id":"cebpf4jnsgd1na2vs0mg"},{"bike_id":"34cccfd1-901d-4a70-b4e1-1a2ae25cce11","system_id":"levelo_inurba_marseille","lat":43.31371,"lon":5.38499,"is_reserved":false,"is_disabled":false,"rental_uris":{"android":"levelo://app?vid=34cccfd1-901d-4a70-b4e1-1a2ae25cce11","ios":"levelo://app?vid=34cccfd1-901d-4a70-b4e1-1a2ae25cce11"},"vehicle_type_id":"4","last_reported":1732565462,"current_range_meters":38800,"station_id":"ce4bgt92rcd13ifvqcf0","pricing_plan_id":"cebpf4jnsgd1na2vs0mg"},{"bike_id":"1ebc2642-599e-41e5-89df-308a45bbfcfb","system_id":"levelo_inurba_marseille","lat":43.32104,"lon":5.36767,"is_reserved":false,"is_disabled":false,"rental_uris":{"android":"levelo://app?vid=1ebc2642-599e-41e5-89df-308a45bbfcfb","ios":"levelo://app?vid=1ebc2642-599e-41e5-89df-308a45bbfcfb"},"vehicle_type_id":"4","last_reported":1732565462,"current_range_meters":18800,"station_id":"ce4bhrh2rcd13ifvqhug","pricing_plan_id":"cebpf4jnsgd1na2vs0mg"},{"bike_id":"4c883416-630f-461a-a7b7-1bdb9b628ba3","system_id":"levelo_inurba_marseille","lat":43.28437,"lon":5.39191,"is_reserved":false,"is_disabled":false,"rental_uris":{"android":"levelo://app?vid=4c883416-630f-461a-a7b7-1bdb9b628ba3","ios":"levelo://app?vid=4c883416-630f-461a-a7b7-1bdb9b628ba3"},"vehicle_type_id":"4","last_reported":1732565462,"current_range_meters":38800,"station_id":"ce4bhoh2rcd13ifvqh5g","pricing_plan_id":"cebpf4jnsgd1na2vs0mg"},{"bike_id":"baa6b116-33e8-4eeb-949d-8ad46185256a","system_id":"levelo_inurba_marseille","lat":43.32541,"lon":5.41441,"is_reserved":false,"is_disabled":false,"rental_uris":{"android":"levelo://app?vid=baa6b116-33e8-4eeb-949d-8ad46185256a","ios":"levelo://app?vid=baa6b116-33e8-4eeb-949d-8ad46185256a"},"vehicle_type_id":"4","last_reported":1732565462,"current_range_meters":36800,"station_id":"ce4bhq12rcd13ifvqhhg","pricing_plan_id":"cebpf4jnsgd1na2vs0mg"},{"bike_id":"e0e26df3-1ac7-4222-9ae2-538c862aa0e7","system_id":"levelo_inurba_marseille","lat":43.29892,"lon":5.38893,"is_reserved":false,"is_disabled":true,"rental_uris":{"android":"levelo://app?vid=e0e26df3-1ac7-4222-9ae2-538c862aa0e7","ios":"levelo://app?vid=e0e26df3-1ac7-4222-9ae2-538c862aa0e7"},"vehicle_type_id":"4","last_reported":1732565462,"current_range_meters":6800,"station_id":"ce4bh392rcd13ifvqdl0","pricing_plan_id":"cebpf4jnsgd1na2vs0mg"},{"bike_id":"4bda66df-ca57-4b1d-9f82-654d7b0e75b5","system_id":"levelo_inurba_marseille","lat":43.25087,"lon":5.39515,"is_reserved":false,"is_disabled":false,"rental_uris":{"android":"levelo://app?vid=4bda66df-ca57-4b1d-9f82-654d7b0e75b5","ios":"levelo://app?vid=4bda66df-ca57-4b1d-9f82-654d7b0e75b5"},"vehicle_type_id":"4","last_reported":1732565462,"current_range_meters":28800,"station_id":"ce4bhm12rcd13ifvqgkg","pricing_plan_id":"cebpf4jnsgd1na2vs0mg"},{"bike_id":"f3e3b4dc-5d11-4fb9-ae10-a2a045bc1606","system_id":"levelo_inurba_marseille","lat":43.29536,"lon":5.38543,"is_reserved":false,"is_disabled":false,"rental_uris":{"android":"levelo://app?vid=f3e3b4dc-5d11-4fb9-ae10-a2a045bc1606","ios":"levelo://app?vid=f3e3b4dc-5d11-4fb9-ae10-a2a045bc1606"},"vehicle_type_id":"4","last_reported":1732565462,"current_range_meters":36800,"station_id":"ce4bgih2rcd13ifvqba0","pricing_plan_id":"cebpf4jnsgd1na2vs0mg"},{"bike_id":"5bf94cec-5d70-4fe6-850b-65fe88c67777","system_id":"levelo_inurba_marseille","lat":43.30552,"lon":5.36537,"is_reserved":false,"is_disabled":true,"rental_uris":{"android":"levelo://app?vid=5bf94cec-5d70-4fe6-850b-65fe88c67777","ios":"levelo://app?vid=5bf94cec-5d70-4fe6-850b-65fe88c67777"},"vehicle_type_id":"4","last_reported":1732565462,"current_range_meters":6800,"station_id":"ce4bgs12rcd13ifvqcag","pricing_plan_id":"cebpf4jnsgd1na2vs0mg"},{"bike_id":"129784fe-5192-4f91-b228-a5c5da2a1e5c","system_id":"levelo_inurba_marseille","lat":43.26204,"lon":5.37925,"is_reserved":false,"is_disabled":true,"rental_uris":{"android":"levelo://app?vid=129784fe-5192-4f91-b228-a5c5da2a1e5c","ios":"levelo://app?vid=129784fe-5192-4f91-b228-a5c5da2a1e5c"},"vehicle_type_id":"4","last_reported":1732565462,"current_range_meters":8000,"station_id":"ce4bhjp2rcd13ifvqg90","pricing_plan_id":"cebpf4jnsgd1na2vs0mg"},{"bike_id":"de9e3783-4df1-4bb8-b21c-29b191ed820e","system_id":"levelo_inurba_marseille","lat":43.28616,"lon":5.35098,"is_reserved":false,"is_disabled":false,"rental_uris":{"android":"levelo://app?vid=de9e3783-4df1-4bb8-b21c-29b191ed820e","ios":"levelo://app?vid=de9e3783-4df1-4bb8-b21c-29b191ed820e"},"vehicle_type_id":"4","last_reported":1732565462,"current_range_meters":20000,"station_id":"ce4bhch2rcd13ifvqeug","pricing_plan_id":"cebpf4jnsgd1na2vs0mg"},{"bike_id":"9601af0a-e6cb-44b4-8dee-55db462314a8","system_id":"levelo_inurba_marseille","lat":43.29543,"lon":5.39401,"is_reserved":false,"is_disabled":false,"rental_uris":{"android":"levelo://app?vid=9601af0a-e6cb-44b4-8dee-55db462314a8","ios":"levelo://app?vid=9601af0a-e6cb-44b4-8dee-55db462314a8"},"vehicle_type_id":"4","last_reported":1732565462,"current_range_meters":6400,"station_id":"ce4bh292rcd13ifvqdf0","pricing_plan_id":"cebpf4jnsgd1na2vs0mg"},{"bike_id":"ebef973d-7d44-4caa-ab42-6ba80a45b9d6","system_id":"levelo_inurba_marseille","lat":43.30788,"lon":5.37644,"is_reserved":false,"is_disabled":false,"rental_uris":{"android":"levelo://app?vid=ebef973d-7d44-4caa-ab42-6ba80a45b9d6","ios":"levelo://app?vid=ebef973d-7d44-4caa-ab42-6ba80a45b9d6"},"vehicle_type_id":"4","last_reported":1732565462,"current_range_meters":25600,"station_id":"ce4bgv92rcd13ifvqcq0","pricing_plan_id":"cebpf4jnsgd1na2vs0mg"},{"bike_id":"2495b441-39ff-4d05-9add-5c136ffeb4ba","system_id":"levelo_inurba_marseille","lat":43.29306,"lon":5.40494,"is_reserved":false,"is_disabled":false,"rental_uris":{"android":"levelo://app?vid=2495b441-39ff-4d05-9add-5c136ffeb4ba","ios":"levelo://app?vid=2495b441-39ff-4d05-9add-5c136ffeb4ba"},"vehicle_type_id":"4","last_reported":1732565462,"current_range_meters":26000,"station_id":"","pricing_plan_id":"cebpf4jnsgd1na2vs0mg"},{"bike_id":"c92d8952-9f6a-4971-b6c6-78b826d55df3","system_id":"levelo_inurba_marseille","lat":43.28707,"lon":5.3999,"is_reserved":false,"is_disabled":false,"rental_uris":{"android":"levelo://app?vid=c92d8952-9f6a-4971-b6c6-78b826d55df3","ios":"levelo://app?vid=c92d8952-9f6a-4971-b6c6-78b826d55df3"},"vehicle_type_id":"4","last_reported":1732565462,"current_range_meters":37600,"station_id":"ce4bho92rcd13ifvqh3g","pricing_plan_id":"cebpf4jnsgd1na2vs0mg"},{"bike_id":"cbc2167d-639d-4b33-b914-3ad6f36f2868","system_id":"levelo_inurba_marseille","lat":43.22925,"lon":5.35371,"is_reserved":false,"is_disabled":false,"rental_uris":{"android":"levelo://app?vid=cbc2167d-639d-4b33-b914-3ad6f36f2868","ios":"levelo://app?vid=cbc2167d-639d-4b33-b914-3ad6f36f2868"},"vehicle_type_id":"4","last_reported":1732565462,"current_range_meters":28400,"station_id":"cpo3532slgdg3j2ikp40","pricing_plan_id":"cebpf4jnsgd1na2vs0mg"},{"bike_id":"331a6872-6d04-4b0d-aa25-bf379c4bfa68","system_id":"levelo_inurba_marseille","lat":43.2835,"lon":5.38104,"is_reserved":false,"is_disabled":false,"rental_uris":{"android":"levelo://app?vid=331a6872-6d04-4b0d-aa25-bf379c4bfa68","ios":"levelo://app?vid=331a6872-6d04-4b0d-aa25-bf379c4bfa68"},"vehicle_type_id":"4","last_reported":1732565462,"current_range_meters":17600,"station_id":"ce4bh412rcd13ifvqdr0","pricing_plan_id":"cebpf4jnsgd1na2vs0mg"},{"bike_id":"cfbf7fa3-0615-4700-9b2b-aaa13ae7357c","system_id":"levelo_inurba_marseille","lat":43.27823,"lon":5.39198,"is_reserved":false,"is_disabled":true,"rental_uris":{"android":"levelo://app?vid=cfbf7fa3-0615-4700-9b2b-aaa13ae7357c","ios":"levelo://app?vid=cfbf7fa3-0615-4700-9b2b-aaa13ae7357c"},"vehicle_type_id":"4","last_reported":1732565462,"current_range_meters":400,"station_id":"ce4bhjp2rcd13ifvqga0","pricing_plan_id":"cebpf4jnsgd1na2vs0mg"},{"bike_id":"64d99805-5c2f-4296-94ac-5ea41a4650e3","system_id":"levelo_inurba_marseille","lat":43.28155,"lon":5.42639,"is_reserved":false,"is_disabled":false,"rental_uris":{"android":"levelo://app?vid=64d99805-5c2f-4296-94ac-5ea41a4650e3","ios":"levelo://app?vid=64d99805-5c2f-4296-94ac-5ea41a4650e3"},"vehicle_type_id":"4","last_reported":1732565462,"current_range_meters":20000,"station_id":"ce4bhnh2rcd13ifvqgug","pricing_plan_id":"cebpf4jnsgd1na2vs0mg"},{"bike_id":"efa0ed00-6534-4e7c-8d71-07bb629caa92","system_id":"levelo_inurba_marseille","lat":43.28851,"lon":5.35828,"is_reserved":false,"is_disabled":false,"rental_uris":{"android":"levelo://app?vid=efa0ed00-6534-4e7c-8d71-07bb629caa92","ios":"levelo://app?vid=efa0ed00-6534-4e7c-8d71-07bb629caa92"},"vehicle_type_id":"4","last_reported":1732565462,"current_range_meters":35200,"station_id":"ce4bhb12rcd13ifvqem0","pricing_plan_id":"cebpf4jnsgd1na2vs0mg"},{"bike_id":"1dd45f41-fe3d-4d41-9a1d-34f718323ba3","system_id":"levelo_inurba_marseille","lat":43.24081,"lon":5.37752,"is_reserved":false,"is_disabled":false,"rental_uris":{"android":"levelo://app?vid=1dd45f41-fe3d-4d41-9a1d-34f718323ba3","ios":"levelo://app?vid=1dd45f41-fe3d-4d41-9a1d-34f718323ba3"},"vehicle_type_id":"4","last_reported":1732565462,"current_range_meters":37600,"station_id":"ce4bhnp2rcd13ifvqgvg","pricing_plan_id":"cebpf4jnsgd1na2vs0mg"},{"bike_id":"abcc7733-24ca-40e7-bed8-88a154357983","system_id":"levelo_inurba_marseille","lat":43.337444,"lon":5.374475,"is_reserved":false,"is_disabled":false,"rental_uris":{"android":"levelo://app?vid=abcc7733-24ca-40e7-bed8-88a154357983","ios":"levelo://app?vid=abcc7733-24ca-40e7-bed8-88a154357983"},"vehicle_type_id":"4","last_reported":1732565462,"current_range_meters":11600,"station_id":"","pricing_plan_id":"cebpf4jnsgd1na2vs0mg"},{"bike_id":"d0b8d481-6f4e-47a6-8c5b-ee06770e49a6","system_id":"levelo_inurba_marseille","lat":43.3176,"lon":5.39015,"is_reserved":false,"is_disabled":false,"rental_uris":{"android":"levelo://app?vid=d0b8d481-6f4e-47a6-8c5b-ee06770e49a6","ios":"levelo://app?vid=d0b8d481-6f4e-47a6-8c5b-ee06770e49a6"},"vehicle_type_id":"4","last_reported":1732565462,"current_range_meters":38800,"station_id":"ce4bhqp2rcd13ifvqhng","pricing_plan_id":"cebpf4jnsgd1na2vs0mg"},{"bike_id":"2e56dcbe-d749-4d47-87c7-dada222e8552","system_id":"levelo_inurba_marseille","lat":43.31484,"lon":5.37287,"is_reserved":false,"is_disabled":false,"rental_uris":{"android":"levelo://app?vid=2e56dcbe-d749-4d47-87c7-dada222e8552","ios":"levelo://app?vid=2e56dcbe-d749-4d47-87c7-dada222e8552"},"vehicle_type_id":"4","last_reported":1732565462,"current_range_meters":38800,"station_id":"ce4bgt12rcd13ifvqcd0","pricing_plan_id":"cebpf4jnsgd1na2vs0mg"},{"bike_id":"706196de-0e8a-423e-9353-6d21b7d25ec5","system_id":"levelo_inurba_marseille","lat":43.287248,"lon":5.36085,"is_reserved":false,"is_disabled":false,"rental_uris":{"android":"levelo://app?vid=706196de-0e8a-423e-9353-6d21b7d25ec5","ios":"levelo://app?vid=706196de-0e8a-423e-9353-6d21b7d25ec5"},"vehicle_type_id":"4","last_reported":1732565462,"current_range_meters":39200,"station_id":"cki0cbj6b192h4jlfktg","pricing_plan_id":"cebpf4jnsgd1na2vs0mg"},{"bike_id":"0920fd8c-3809-4cef-81d9-980c6d92994d","system_id":"levelo_inurba_marseille","lat":43.23185,"lon":5.39978,"is_reserved":false,"is_disabled":false,"rental_uris":{"android":"levelo://app?vid=0920fd8c-3809-4cef-81d9-980c6d92994d","ios":"levelo://app?vid=0920fd8c-3809-4cef-81d9-980c6d92994d"},"vehicle_type_id":"4","last_reported":1732565462,"current_range_meters":12800,"station_id":"ce4bhn12rcd13ifvqgqg","pricing_plan_id":"cebpf4jnsgd1na2vs0mg"},{"bike_id":"ee30cd3d-5334-4fc1-b8ac-a6fbd9bc84d3","system_id":"levelo_inurba_marseille","lat":43.24653,"lon":5.38901,"is_reserved":false,"is_disabled":true,"rental_uris":{"android":"levelo://app?vid=ee30cd3d-5334-4fc1-b8ac-a6fbd9bc84d3","ios":"levelo://app?vid=ee30cd3d-5334-4fc1-b8ac-a6fbd9bc84d3"},"vehicle_type_id":"4","last_reported":1732565462,"current_range_meters":0,"station_id":"ce4bhg12rcd13ifvqf60","pricing_plan_id":"cebpf4jnsgd1na2vs0mg"},{"bike_id":"415ff947-23a1-44d1-9008-a8dc5aff0404","system_id":"levelo_inurba_marseille","lat":43.30533,"lon":5.36708,"is_reserved":false,"is_disabled":false,"rental_uris":{"android":"levelo://app?vid=415ff947-23a1-44d1-9008-a8dc5aff0404","ios":"levelo://app?vid=415ff947-23a1-44d1-9008-a8dc5aff0404"},"vehicle_type_id":"4","last_reported":1732565462,"current_range_meters":26000,"station_id":"ce4bgrp2rcd13ifvqc9g","pricing_plan_id":"cebpf4jnsgd1na2vs0mg"},{"bike_id":"ed00ff1c-a428-4ce5-a455-260378e65da7","system_id":"levelo_inurba_marseille","lat":43.28809,"lon":5.40027,"is_reserved":false,"is_disabled":true,"rental_uris":{"android":"levelo://app?vid=ed00ff1c-a428-4ce5-a455-260378e65da7","ios":"levelo://app?vid=ed00ff1c-a428-4ce5-a455-260378e65da7"},"vehicle_type_id":"4","last_reported":1732565462,"current_range_meters":0,"station_id":"","pricing_plan_id":"cebpf4jnsgd1na2vs0mg"},{"bike_id":"9c9cda8c-65de-41ec-a6f6-ab7be57b8d59","system_id":"levelo_inurba_marseille","lat":43.27565,"lon":5.38431,"is_reserved":false,"is_disabled":true,"rental_uris":{"android":"levelo://app?vid=9c9cda8c-65de-41ec-a6f6-ab7be57b8d59","ios":"levelo://app?vid=9c9cda8c-65de-41ec-a6f6-ab7be57b8d59"},"vehicle_type_id":"4","last_reported":1732565462,"current_range_meters":24400,"station_id":"ce4bhh92rcd13ifvqfi0","pricing_plan_id":"cebpf4jnsgd1na2vs0mg"},{"bike_id":"44e3cd18-847c-47e9-9a07-924e92aabbbd","system_id":"levelo_inurba_marseille","lat":43.28568,"lon":5.39497,"is_reserved":false,"is_disabled":false,"rental_uris":{"android":"levelo://app?vid=44e3cd18-847c-47e9-9a07-924e92aabbbd","ios":"levelo://app?vid=44e3cd18-847c-47e9-9a07-924e92aabbbd"},"vehicle_type_id":"4","last_reported":1732565462,"current_range_meters":24000,"station_id":"ce4bh292rcd13ifvqdg0","pricing_plan_id":"cebpf4jnsgd1na2vs0mg"},{"bike_id":"858b65e1-94fc-4151-a71e-8b168cb19dcb","system_id":"levelo_inurba_marseille","lat":43.32249,"lon":5.39241,"is_reserved":false,"is_disabled":true,"rental_uris":{"android":"levelo://app?vid=858b65e1-94fc-4151-a71e-8b168cb19dcb","ios":"levelo://app?vid=858b65e1-94fc-4151-a71e-8b168cb19dcb"},"vehicle_type_id":"4","last_reported":1732565462,"current_range_meters":800,"station_id":"","pricing_plan_id":"cebpf4jnsgd1na2vs0mg"},{"bike_id":"a7da9e40-fb00-4888-8107-b8b20a584bac","system_id":"levelo_inurba_marseille","lat":43.30328,"lon":5.40437,"is_reserved":false,"is_disabled":false,"rental_uris":{"android":"levelo://app?vid=a7da9e40-fb00-4888-8107-b8b20a584bac","ios":"levelo://app?vid=a7da9e40-fb00-4888-8107-b8b20a584bac"},"vehicle_type_id":"4","last_reported":1732565462,"current_range_meters":25200,"station_id":"ce4bh012rcd13ifvqd10","pricing_plan_id":"cebpf4jnsgd1na2vs0mg"},{"bike_id":"18b72258-5d96-45ac-9ffb-2e497caffd53","system_id":"levelo_inurba_marseille","lat":43.27996,"lon":5.40006,"is_reserved":false,"is_disabled":false,"rental_uris":{"android":"levelo://app?vid=18b72258-5d96-45ac-9ffb-2e497caffd53","ios":"levelo://app?vid=18b72258-5d96-45ac-9ffb-2e497caffd53"},"vehicle_type_id":"4","last_reported":1732565462,"current_range_meters":29600,"station_id":"ce4bho92rcd13ifvqh4g","pricing_plan_id":"cebpf4jnsgd1na2vs0mg"},{"bike_id":"a83da327-cc6e-409f-b844-cdcc6cb802d0","system_id":"levelo_inurba_marseille","lat":43.3136,"lon":5.38489,"is_reserved":false,"is_disabled":true,"rental_uris":{"android":"levelo://app?vid=a83da327-cc6e-409f-b844-cdcc6cb802d0","ios":"levelo://app?vid=a83da327-cc6e-409f-b844-cdcc6cb802d0"},"vehicle_type_id":"4","last_reported":1732565462,"current_range_meters":0,"station_id":"ce4bgt92rcd13ifvqcf0","pricing_plan_id":"cebpf4jnsgd1na2vs0mg"},{"bike_id":"2b076fd7-7460-4f2e-836d-531982b1a050","system_id":"levelo_inurba_marseille","lat":43.29628,"lon":5.37153,"is_reserved":false,"is_disabled":true,"rental_uris":{"android":"levelo://app?vid=2b076fd7-7460-4f2e-836d-531982b1a050","ios":"levelo://app?vid=2b076fd7-7460-4f2e-836d-531982b1a050"},"vehicle_type_id":"4","last_reported":1732565462,"current_range_meters":36400,"station_id":"ce4bgnh2rcd13ifvqc0g","pricing_plan_id":"cebpf4jnsgd1na2vs0mg"},{"bike_id":"3a027b97-13d4-4577-ae45-ae29359a0976","system_id":"levelo_inurba_marseille","lat":43.273925,"lon":5.383686,"is_reserved":false,"is_disabled":false,"rental_uris":{"android":"levelo://app?vid=3a027b97-13d4-4577-ae45-ae29359a0976","ios":"levelo://app?vid=3a027b97-13d4-4577-ae45-ae29359a0976"},"vehicle_type_id":"4","last_reported":1732565462,"current_range_meters":38800,"station_id":"ce4bhh92rcd13ifvqfi0","pricing_plan_id":"cebpf4jnsgd1na2vs0mg"},{"bike_id":"6a359467-7179-4b47-a476-d2293cf9b518","system_id":"levelo_inurba_marseille","lat":43.29027,"lon":5.38643,"is_reserved":false,"is_disabled":false,"rental_uris":{"android":"levelo://app?vid=6a359467-7179-4b47-a476-d2293cf9b518","ios":"levelo://app?vid=6a359467-7179-4b47-a476-d2293cf9b518"},"vehicle_type_id":"4","last_reported":1732565462,"current_range_meters":39200,"station_id":"ce4bh4p2rcd13ifvqe0g","pricing_plan_id":"cebpf4jnsgd1na2vs0mg"},{"bike_id":"498bf59c-2312-4322-b7ce-eec243c6f86b","system_id":"levelo_inurba_marseille","lat":43.30784,"lon":5.37656,"is_reserved":false,"is_disabled":false,"rental_uris":{"android":"levelo://app?vid=498bf59c-2312-4322-b7ce-eec243c6f86b","ios":"levelo://app?vid=498bf59c-2312-4322-b7ce-eec243c6f86b"},"vehicle_type_id":"4","last_reported":1732565462,"current_range_meters":28800,"station_id":"ce4bgv92rcd13ifvqcq0","pricing_plan_id":"cebpf4jnsgd1na2vs0mg"},{"bike_id":"09b51f2e-10cd-40ce-91f1-65baab5d525f","system_id":"levelo_inurba_marseille","lat":43.24995,"lon":5.38928,"is_reserved":false,"is_disabled":false,"rental_uris":{"android":"levelo://app?vid=09b51f2e-10cd-40ce-91f1-65baab5d525f","ios":"levelo://app?vid=09b51f2e-10cd-40ce-91f1-65baab5d525f"},"vehicle_type_id":"4","last_reported":1732565462,"current_range_meters":38800,"station_id":"ce4bhgp2rcd13ifvqfd0","pricing_plan_id":"cebpf4jnsgd1na2vs0mg"},{"bike_id":"f4916991-c85f-4b7f-b703-7d2e6b8efcdf","system_id":"levelo_inurba_marseille","lat":43.33752,"lon":5.37457,"is_reserved":false,"is_disabled":false,"rental_uris":{"android":"levelo://app?vid=f4916991-c85f-4b7f-b703-7d2e6b8efcdf","ios":"levelo://app?vid=f4916991-c85f-4b7f-b703-7d2e6b8efcdf"},"vehicle_type_id":"4","last_reported":1732565462,"current_range_meters":34800,"station_id":"","pricing_plan_id":"cebpf4jnsgd1na2vs0mg"},{"bike_id":"bc0c529a-a8e3-4d1e-b42d-04fd73268cf8","system_id":"levelo_inurba_marseille","lat":43.31689,"lon":5.37751,"is_reserved":false,"is_disabled":false,"rental_uris":{"android":"levelo://app?vid=bc0c529a-a8e3-4d1e-b42d-04fd73268cf8","ios":"levelo://app?vid=bc0c529a-a8e3-4d1e-b42d-04fd73268cf8"},"vehicle_type_id":"4","last_reported":1732565462,"current_range_meters":38400,"station_id":"ce4bgth2rcd13ifvqch0","pricing_plan_id":"cebpf4jnsgd1na2vs0mg"},{"bike_id":"292c1a26-ae28-4908-a339-5aa23b093de3","system_id":"levelo_inurba_marseille","lat":43.33723,"lon":5.39187,"is_reserved":false,"is_disabled":false,"rental_uris":{"android":"levelo://app?vid=292c1a26-ae28-4908-a339-5aa23b093de3","ios":"levelo://app?vid=292c1a26-ae28-4908-a339-5aa23b093de3"},"vehicle_type_id":"4","last_reported":1732565462,"current_range_meters":8400,"station_id":"ce4bhr92rcd13ifvqhsg","pricing_plan_id":"cebpf4jnsgd1na2vs0mg"},{"bike_id":"1c6e2697-73ad-4e6f-a4f3-c9e2dc9a4210","system_id":"levelo_inurba_marseille","lat":43.28937,"lon":5.36627,"is_reserved":false,"is_disabled":false,"rental_uris":{"android":"levelo://app?vid=1c6e2697-73ad-4e6f-a4f3-c9e2dc9a4210","ios":"levelo://app?vid=1c6e2697-73ad-4e6f-a4f3-c9e2dc9a4210"},"vehicle_type_id":"4","last_reported":1732565462,"current_range_meters":24400,"station_id":"ce4bhap2rcd13ifvqek0","pricing_plan_id":"cebpf4jnsgd1na2vs0mg"},{"bike_id":"f7f3756c-1ec7-4782-9c87-6273f87b6774","system_id":"levelo_inurba_marseille","lat":43.337444,"lon":5.374475,"is_reserved":false,"is_disabled":true,"rental_uris":{"android":"levelo://app?vid=f7f3756c-1ec7-4782-9c87-6273f87b6774","ios":"levelo://app?vid=f7f3756c-1ec7-4782-9c87-6273f87b6774"},"vehicle_type_id":"4","last_reported":1732565462,"current_range_meters":22400,"station_id":"","pricing_plan_id":"cebpf4jnsgd1na2vs0mg"},{"bike_id":"ae78cd95-0524-4346-8c3e-35a78db9a346","system_id":"levelo_inurba_marseille","lat":43.26058,"lon":5.39386,"is_reserved":false,"is_disabled":false,"rental_uris":{"android":"levelo://app?vid=ae78cd95-0524-4346-8c3e-35a78db9a346","ios":"levelo://app?vid=ae78cd95-0524-4346-8c3e-35a78db9a346"},"vehicle_type_id":"4","last_reported":1732565462,"current_range_meters":20000,"station_id":"ce4bhh92rcd13ifvqfj0","pricing_plan_id":"cebpf4jnsgd1na2vs0mg"},{"bike_id":"e104dfd7-39b2-4cca-af37-deeb8168f53b","system_id":"levelo_inurba_marseille","lat":43.31068,"lon":5.38345,"is_reserved":false,"is_disabled":false,"rental_uris":{"android":"levelo://app?vid=e104dfd7-39b2-4cca-af37-deeb8168f53b","ios":"levelo://app?vid=e104dfd7-39b2-4cca-af37-deeb8168f53b"},"vehicle_type_id":"4","last_reported":1732565462,"current_range_meters":25600,"station_id":"ce4bgv92rcd13ifvqcr0","pricing_plan_id":"cebpf4jnsgd1na2vs0mg"},{"bike_id":"a97e4d1b-4f4a-48fc-882e-058099634779","system_id":"levelo_inurba_marseille","lat":43.25491,"lon":5.37651,"is_reserved":false,"is_disabled":true,"rental_uris":{"android":"levelo://app?vid=a97e4d1b-4f4a-48fc-882e-058099634779","ios":"levelo://app?vid=a97e4d1b-4f4a-48fc-882e-058099634779"},"vehicle_type_id":"4","last_reported":1732565462,"current_range_meters":0,"station_id":"ce4bhh12rcd13ifvqff0","pricing_plan_id":"cebpf4jnsgd1na2vs0mg"},{"bike_id":"348c7932-c38e-4401-9c08-aab87ce18ed7","system_id":"levelo_inurba_marseille","lat":43.31365,"lon":5.38496,"is_reserved":false,"is_disabled":false,"rental_uris":{"android":"levelo://app?vid=348c7932-c38e-4401-9c08-aab87ce18ed7","ios":"levelo://app?vid=348c7932-c38e-4401-9c08-aab87ce18ed7"},"vehicle_type_id":"4","last_reported":1732565462,"current_range_meters":35600,"station_id":"ce4bgt92rcd13ifvqcf0","pricing_plan_id":"cebpf4jnsgd1na2vs0mg"},{"bike_id":"bcc21cc1-6e48-46f1-b3a1-0e1d9db3a9a2","system_id":"levelo_inurba_marseille","lat":43.29268,"lon":5.36844,"is_reserved":false,"is_disabled":false,"rental_uris":{"android":"levelo://app?vid=bcc21cc1-6e48-46f1-b3a1-0e1d9db3a9a2","ios":"levelo://app?vid=bcc21cc1-6e48-46f1-b3a1-0e1d9db3a9a2"},"vehicle_type_id":"4","last_reported":1732565462,"current_range_meters":38800,"station_id":"ce4bhbp2rcd13ifvqesg","pricing_plan_id":"cebpf4jnsgd1na2vs0mg"},{"bike_id":"14f3c269-ea7b-4aeb-9a6e-2af7df033998","system_id":"levelo_inurba_marseille","lat":43.26059,"lon":5.39394,"is_reserved":false,"is_disabled":false,"rental_uris":{"android":"levelo://app?vid=14f3c269-ea7b-4aeb-9a6e-2af7df033998","ios":"levelo://app?vid=14f3c269-ea7b-4aeb-9a6e-2af7df033998"},"vehicle_type_id":"4","last_reported":1732565462,"current_range_meters":36400,"station_id":"ce4bhh92rcd13ifvqfj0","pricing_plan_id":"cebpf4jnsgd1na2vs0mg"},{"bike_id":"08a198d7-556c-4248-9fbd-1c21aaf2dd82","system_id":"levelo_inurba_marseille","lat":43.29263,"lon":5.36839,"is_reserved":false,"is_disabled":true,"rental_uris":{"android":"levelo://app?vid=08a198d7-556c-4248-9fbd-1c21aaf2dd82","ios":"levelo://app?vid=08a198d7-556c-4248-9fbd-1c21aaf2dd82"},"vehicle_type_id":"4","last_reported":1732565462,"current_range_meters":33200,"station_id":"ce4bhbp2rcd13ifvqesg","pricing_plan_id":"cebpf4jnsgd1na2vs0mg"},{"bike_id":"7f89b812-16cb-4135-bc5f-efa2b244ec26","system_id":"levelo_inurba_marseille","lat":43.26556,"lon":5.37294,"is_reserved":false,"is_disabled":true,"rental_uris":{"android":"levelo://app?vid=7f89b812-16cb-4135-bc5f-efa2b244ec26","ios":"levelo://app?vid=7f89b812-16cb-4135-bc5f-efa2b244ec26"},"vehicle_type_id":"4","last_reported":1732565462,"current_range_meters":35600,"station_id":"ce4bhg12rcd13ifvqf70","pricing_plan_id":"cebpf4jnsgd1na2vs0mg"},{"bike_id":"fe673777-1b5b-4648-8037-3fe2b4fb3020","system_id":"levelo_inurba_marseille","lat":43.30885,"lon":5.39658,"is_reserved":false,"is_disabled":false,"rental_uris":{"android":"levelo://app?vid=fe673777-1b5b-4648-8037-3fe2b4fb3020","ios":"levelo://app?vid=fe673777-1b5b-4648-8037-3fe2b4fb3020"},"vehicle_type_id":"4","last_reported":1732565462,"current_range_meters":27200,"station_id":"ce4bh012rcd13ifvqcv0","pricing_plan_id":"cebpf4jnsgd1na2vs0mg"},{"bike_id":"f5658b6b-05db-4270-b5a2-b12a283db2c3","system_id":"levelo_inurba_marseille","lat":43.32297,"lon":5.3825,"is_reserved":false,"is_disabled":false,"rental_uris":{"android":"levelo://app?vid=f5658b6b-05db-4270-b5a2-b12a283db2c3","ios":"levelo://app?vid=f5658b6b-05db-4270-b5a2-b12a283db2c3"},"vehicle_type_id":"4","last_reported":1732565462,"current_range_meters":38800,"station_id":"ce4bhr12rcd13ifvqhqg","pricing_plan_id":"cebpf4jnsgd1na2vs0mg"},{"bike_id":"0cee1e36-52f5-4acb-ad26-846b4b450c43","system_id":"levelo_inurba_marseille","lat":43.25726,"lon":5.41111,"is_reserved":false,"is_disabled":false,"rental_uris":{"android":"levelo://app?vid=0cee1e36-52f5-4acb-ad26-846b4b450c43","ios":"levelo://app?vid=0cee1e36-52f5-4acb-ad26-846b4b450c43"},"vehicle_type_id":"4","last_reported":1732565462,"current_range_meters":15200,"station_id":"ce4bhkp2rcd13ifvqgd0","pricing_plan_id":"cebpf4jnsgd1na2vs0mg"},{"bike_id":"9853e469-e918-44ca-aa02-2d9b948ffbd6","system_id":"levelo_inurba_marseille","lat":43.25718,"lon":5.4111,"is_reserved":false,"is_disabled":false,"rental_uris":{"android":"levelo://app?vid=9853e469-e918-44ca-aa02-2d9b948ffbd6","ios":"levelo://app?vid=9853e469-e918-44ca-aa02-2d9b948ffbd6"},"vehicle_type_id":"4","last_reported":1732565462,"current_range_meters":21600,"station_id":"ce4bhkp2rcd13ifvqgd0","pricing_plan_id":"cebpf4jnsgd1na2vs0mg"},{"bike_id":"a5909545-3e09-4859-9fda-9ffe4e6e4883","system_id":"levelo_inurba_marseille","lat":43.23068,"lon":5.3549,"is_reserved":false,"is_disabled":false,"rental_uris":{"android":"levelo://app?vid=a5909545-3e09-4859-9fda-9ffe4e6e4883","ios":"levelo://app?vid=a5909545-3e09-4859-9fda-9ffe4e6e4883"},"vehicle_type_id":"4","last_reported":1732565462,"current_range_meters":35600,"station_id":"cpo3342slgdg3j2ifvpg","pricing_plan_id":"cebpf4jnsgd1na2vs0mg"},{"bike_id":"f6dbf3cf-1af2-4eba-9b9d-47ede87a554b","system_id":"levelo_inurba_marseille","lat":43.30318,"lon":5.40435,"is_reserved":false,"is_disabled":false,"rental_uris":{"android":"levelo://app?vid=f6dbf3cf-1af2-4eba-9b9d-47ede87a554b","ios":"levelo://app?vid=f6dbf3cf-1af2-4eba-9b9d-47ede87a554b"},"vehicle_type_id":"4","last_reported":1732565462,"current_range_meters":4800,"station_id":"ce4bh012rcd13ifvqd10","pricing_plan_id":"cebpf4jnsgd1na2vs0mg"},{"bike_id":"0e3841e7-049e-435a-ba83-2b896bfdb681","system_id":"levelo_inurba_marseille","lat":43.27952,"lon":5.41042,"is_reserved":false,"is_disabled":false,"rental_uris":{"android":"levelo://app?vid=0e3841e7-049e-435a-ba83-2b896bfdb681","ios":"levelo://app?vid=0e3841e7-049e-435a-ba83-2b896bfdb681"},"vehicle_type_id":"4","last_reported":1732565462,"current_range_meters":38400,"station_id":"ce4bhnp2rcd13ifvqh0g","pricing_plan_id":"cebpf4jnsgd1na2vs0mg"},{"bike_id":"180ea579-2742-49ec-b146-86e37413e735","system_id":"levelo_inurba_marseille","lat":43.31756,"lon":5.39018,"is_reserved":false,"is_disabled":false,"rental_uris":{"android":"levelo://app?vid=180ea579-2742-49ec-b146-86e37413e735","ios":"levelo://app?vid=180ea579-2742-49ec-b146-86e37413e735"},"vehicle_type_id":"4","last_reported":1732565462,"current_range_meters":36400,"station_id":"ce4bhqp2rcd13ifvqhng","pricing_plan_id":"cebpf4jnsgd1na2vs0mg"},{"bike_id":"d32e419a-46a3-4050-be6a-d2a299ac411f","system_id":"levelo_inurba_marseille","lat":43.29307,"lon":5.37177,"is_reserved":false,"is_disabled":true,"rental_uris":{"android":"levelo://app?vid=d32e419a-46a3-4050-be6a-d2a299ac411f","ios":"levelo://app?vid=d32e419a-46a3-4050-be6a-d2a299ac411f"},"vehicle_type_id":"4","last_reported":1732565462,"current_range_meters":25600,"station_id":"ce4bgh92rcd13ifvqb40","pricing_plan_id":"cebpf4jnsgd1na2vs0mg"},{"bike_id":"e55cb847-ae27-4fbd-b24c-f65df0e27256","system_id":"levelo_inurba_marseille","lat":43.28036,"lon":5.36944,"is_reserved":false,"is_disabled":true,"rental_uris":{"android":"levelo://app?vid=e55cb847-ae27-4fbd-b24c-f65df0e27256","ios":"levelo://app?vid=e55cb847-ae27-4fbd-b24c-f65df0e27256"},"vehicle_type_id":"4","last_reported":1732565462,"current_range_meters":28800,"station_id":"ce4bha12rcd13ifvqef0","pricing_plan_id":"cebpf4jnsgd1na2vs0mg"},{"bike_id":"7506d40e-ace0-4e59-98f4-df0391211c40","system_id":"levelo_inurba_marseille","lat":43.313675,"lon":5.384948,"is_reserved":false,"is_disabled":false,"rental_uris":{"android":"levelo://app?vid=7506d40e-ace0-4e59-98f4-df0391211c40","ios":"levelo://app?vid=7506d40e-ace0-4e59-98f4-df0391211c40"},"vehicle_type_id":"4","last_reported":1732565462,"current_range_meters":16000,"station_id":"ce4bgt92rcd13ifvqcf0","pricing_plan_id":"cebpf4jnsgd1na2vs0mg"},{"bike_id":"e5951ee3-4a5a-4ebb-b469-096c5188dfa3","system_id":"levelo_inurba_marseille","lat":43.23187,"lon":5.35556,"is_reserved":false,"is_disabled":false,"rental_uris":{"android":"levelo://app?vid=e5951ee3-4a5a-4ebb-b469-096c5188dfa3","ios":"levelo://app?vid=e5951ee3-4a5a-4ebb-b469-096c5188dfa3"},"vehicle_type_id":"4","last_reported":1732565462,"current_range_meters":38800,"station_id":"ce4bhu92rcd13ifvqi70","pricing_plan_id":"cebpf4jnsgd1na2vs0mg"},{"bike_id":"7cc15e67-b417-41c4-a7c4-8bc768e18862","system_id":"levelo_inurba_marseille","lat":43.30653,"lon":5.40085,"is_reserved":false,"is_disabled":false,"rental_uris":{"android":"levelo://app?vid=7cc15e67-b417-41c4-a7c4-8bc768e18862","ios":"levelo://app?vid=7cc15e67-b417-41c4-a7c4-8bc768e18862"},"vehicle_type_id":"4","last_reported":1732565462,"current_range_meters":13600,"station_id":"ce4bh112rcd13ifvqda0","pricing_plan_id":"cebpf4jnsgd1na2vs0mg"},{"bike_id":"258ca434-23a2-456d-a95f-88173ee71792","system_id":"levelo_inurba_marseille","lat":43.29369,"lon":5.37853,"is_reserved":false,"is_disabled":false,"rental_uris":{"android":"levelo://app?vid=258ca434-23a2-456d-a95f-88173ee71792","ios":"levelo://app?vid=258ca434-23a2-456d-a95f-88173ee71792"},"vehicle_type_id":"4","last_reported":1732565462,"current_range_meters":37600,"station_id":"ce4bgjh2rcd13ifvqbf0","pricing_plan_id":"cebpf4jnsgd1na2vs0mg"},{"bike_id":"f960203b-2812-45ea-87dc-fdcf497b1e15","system_id":"levelo_inurba_marseille","lat":43.28153,"lon":5.42646,"is_reserved":false,"is_disabled":false,"rental_uris":{"android":"levelo://app?vid=f960203b-2812-45ea-87dc-fdcf497b1e15","ios":"levelo://app?vid=f960203b-2812-45ea-87dc-fdcf497b1e15"},"vehicle_type_id":"4","last_reported":1732565462,"current_range_meters":28400,"station_id":"ce4bhnh2rcd13ifvqgug","pricing_plan_id":"cebpf4jnsgd1na2vs0mg"},{"bike_id":"66aad5d7-efa9-4543-8e11-bbf0af584fcf","system_id":"levelo_inurba_marseille","lat":43.278198,"lon":5.407134,"is_reserved":false,"is_disabled":true,"rental_uris":{"android":"levelo://app?vid=66aad5d7-efa9-4543-8e11-bbf0af584fcf","ios":"levelo://app?vid=66aad5d7-efa9-4543-8e11-bbf0af584fcf"},"vehicle_type_id":"4","last_reported":1732565462,"current_range_meters":38800,"station_id":"ce4bhnh2rcd13ifvqgtg","pricing_plan_id":"cebpf4jnsgd1na2vs0mg"},{"bike_id":"ef06ed7d-8d56-4313-905a-43712677992f","system_id":"levelo_inurba_marseille","lat":43.29899,"lon":5.43667,"is_reserved":false,"is_disabled":false,"rental_uris":{"android":"levelo://app?vid=ef06ed7d-8d56-4313-905a-43712677992f","ios":"levelo://app?vid=ef06ed7d-8d56-4313-905a-43712677992f"},"vehicle_type_id":"4","last_reported":1732565462,"current_range_meters":26000,"station_id":"ce4bhpp2rcd13ifvqhfg","pricing_plan_id":"cebpf4jnsgd1na2vs0mg"},{"bike_id":"6c948e9c-d5b3-4fe5-a918-1bd2f7c83b02","system_id":"levelo_inurba_marseille","lat":43.32118,"lon":5.36769,"is_reserved":false,"is_disabled":false,"rental_uris":{"android":"levelo://app?vid=6c948e9c-d5b3-4fe5-a918-1bd2f7c83b02","ios":"levelo://app?vid=6c948e9c-d5b3-4fe5-a918-1bd2f7c83b02"},"vehicle_type_id":"4","last_reported":1732565462,"current_range_meters":22800,"station_id":"ce4bhrh2rcd13ifvqhug","pricing_plan_id":"cebpf4jnsgd1na2vs0mg"},{"bike_id":"9e620abf-d324-4f99-84fc-d67e71109f2a","system_id":"levelo_inurba_marseille","lat":43.31077,"lon":5.42435,"is_reserved":false,"is_disabled":true,"rental_uris":{"android":"levelo://app?vid=9e620abf-d324-4f99-84fc-d67e71109f2a","ios":"levelo://app?vid=9e620abf-d324-4f99-84fc-d67e71109f2a"},"vehicle_type_id":"4","last_reported":1732565462,"current_range_meters":0,"station_id":"ce4bhp92rcd13ifvqhag","pricing_plan_id":"cebpf4jnsgd1na2vs0mg"},{"bike_id":"de7004a3-b7db-49aa-9067-0b6ed2338314","system_id":"levelo_inurba_marseille","lat":43.31229,"lon":5.36865,"is_reserved":false,"is_disabled":true,"rental_uris":{"android":"levelo://app?vid=de7004a3-b7db-49aa-9067-0b6ed2338314","ios":"levelo://app?vid=de7004a3-b7db-49aa-9067-0b6ed2338314"},"vehicle_type_id":"4","last_reported":1732565462,"current_range_meters":29600,"station_id":"ce4bgl92rcd13ifvqbq0","pricing_plan_id":"cebpf4jnsgd1na2vs0mg"},{"bike_id":"7c91f2ac-1dd3-428c-aafd-49def36e722e","system_id":"levelo_inurba_marseille","lat":43.337444,"lon":5.374475,"is_reserved":false,"is_disabled":false,"rental_uris":{"android":"levelo://app?vid=7c91f2ac-1dd3-428c-aafd-49def36e722e","ios":"levelo://app?vid=7c91f2ac-1dd3-428c-aafd-49def36e722e"},"vehicle_type_id":"4","last_reported":1732565462,"current_range_meters":32800,"station_id":"","pricing_plan_id":"cebpf4jnsgd1na2vs0mg"},{"bike_id":"f0754b1b-2581-469b-867d-b6b48e1c5261","system_id":"levelo_inurba_marseille","lat":43.28068,"lon":5.3962,"is_reserved":false,"is_disabled":false,"rental_uris":{"android":"levelo://app?vid=f0754b1b-2581-469b-867d-b6b48e1c5261","ios":"levelo://app?vid=f0754b1b-2581-469b-867d-b6b48e1c5261"},"vehicle_type_id":"4","last_reported":1732565462,"current_range_meters":38800,"station_id":"ce4bho12rcd13ifvqh2g","pricing_plan_id":"cebpf4jnsgd1na2vs0mg"},{"bike_id":"13d988c3-60ef-4c84-b6c8-785ba41cd034","system_id":"levelo_inurba_marseille","lat":43.32357,"lon":5.38881,"is_reserved":false,"is_disabled":false,"rental_uris":{"android":"levelo://app?vid=13d988c3-60ef-4c84-b6c8-785ba41cd034","ios":"levelo://app?vid=13d988c3-60ef-4c84-b6c8-785ba41cd034"},"vehicle_type_id":"4","last_reported":1732565462,"current_range_meters":30800,"station_id":"ce4bhqp2rcd13ifvqhog","pricing_plan_id":"cebpf4jnsgd1na2vs0mg"},{"bike_id":"f14e9fba-b9bd-4443-896c-9fd7a4fd971d","system_id":"levelo_inurba_marseille","lat":43.29892,"lon":5.43657,"is_reserved":false,"is_disabled":false,"rental_uris":{"android":"levelo://app?vid=f14e9fba-b9bd-4443-896c-9fd7a4fd971d","ios":"levelo://app?vid=f14e9fba-b9bd-4443-896c-9fd7a4fd971d"},"vehicle_type_id":"4","last_reported":1732565462,"current_range_meters":38800,"station_id":"ce4bhpp2rcd13ifvqhfg","pricing_plan_id":"cebpf4jnsgd1na2vs0mg"},{"bike_id":"5c53cfbd-2547-413a-b79a-f8cc3b1ca992","system_id":"levelo_inurba_marseille","lat":43.32112,"lon":5.36775,"is_reserved":false,"is_disabled":false,"rental_uris":{"android":"levelo://app?vid=5c53cfbd-2547-413a-b79a-f8cc3b1ca992","ios":"levelo://app?vid=5c53cfbd-2547-413a-b79a-f8cc3b1ca992"},"vehicle_type_id":"4","last_reported":1732565462,"current_range_meters":36000,"station_id":"ce4bhrh2rcd13ifvqhug","pricing_plan_id":"cebpf4jnsgd1na2vs0mg"},{"bike_id":"0622b84a-5686-4a92-93d7-60420c663310","system_id":"levelo_inurba_marseille","lat":43.29566,"lon":5.39969,"is_reserved":false,"is_disabled":false,"rental_uris":{"android":"levelo://app?vid=0622b84a-5686-4a92-93d7-60420c663310","ios":"levelo://app?vid=0622b84a-5686-4a92-93d7-60420c663310"},"vehicle_type_id":"4","last_reported":1732565462,"current_range_meters":36000,"station_id":"ce4bh312rcd13ifvqdj0","pricing_plan_id":"cebpf4jnsgd1na2vs0mg"},{"bike_id":"9a44a99a-0293-4d68-9696-e43c8a60d513","system_id":"levelo_inurba_marseille","lat":43.30328,"lon":5.4043,"is_reserved":false,"is_disabled":false,"rental_uris":{"android":"levelo://app?vid=9a44a99a-0293-4d68-9696-e43c8a60d513","ios":"levelo://app?vid=9a44a99a-0293-4d68-9696-e43c8a60d513"},"vehicle_type_id":"4","last_reported":1732565462,"current_range_meters":16000,"station_id":"ce4bh012rcd13ifvqd10","pricing_plan_id":"cebpf4jnsgd1na2vs0mg"},{"bike_id":"b8998bcf-403b-4871-8905-871055136818","system_id":"levelo_inurba_marseille","lat":43.30803,"lon":5.38149,"is_reserved":false,"is_disabled":false,"rental_uris":{"android":"levelo://app?vid=b8998bcf-403b-4871-8905-871055136818","ios":"levelo://app?vid=b8998bcf-403b-4871-8905-871055136818"},"vehicle_type_id":"4","last_reported":1732565462,"current_range_meters":38000,"station_id":"ce4bgt12rcd13ifvqce0","pricing_plan_id":"cebpf4jnsgd1na2vs0mg"},{"bike_id":"3ec54d4b-93cb-44e0-b80a-46869a7a8626","system_id":"levelo_inurba_marseille","lat":43.317538,"lon":5.390099,"is_reserved":false,"is_disabled":true,"rental_uris":{"android":"levelo://app?vid=3ec54d4b-93cb-44e0-b80a-46869a7a8626","ios":"levelo://app?vid=3ec54d4b-93cb-44e0-b80a-46869a7a8626"},"vehicle_type_id":"4","last_reported":1732565462,"current_range_meters":0,"station_id":"ce4bhqp2rcd13ifvqhng","pricing_plan_id":"cebpf4jnsgd1na2vs0mg"},{"bike_id":"0c7802fa-2052-4176-85e3-19f609dac598","system_id":"levelo_inurba_marseille","lat":43.294323,"lon":5.39755,"is_reserved":false,"is_disabled":false,"rental_uris":{"android":"levelo://app?vid=0c7802fa-2052-4176-85e3-19f609dac598","ios":"levelo://app?vid=0c7802fa-2052-4176-85e3-19f609dac598"},"vehicle_type_id":"4","last_reported":1732565462,"current_range_meters":30000,"station_id":"ce4bh3h2rcd13ifvqdo0","pricing_plan_id":"cebpf4jnsgd1na2vs0mg"},{"bike_id":"a39c0154-ebaa-435c-82c7-9a404c246de1","system_id":"levelo_inurba_marseille","lat":43.31996,"lon":5.38147,"is_reserved":false,"is_disabled":false,"rental_uris":{"android":"levelo://app?vid=a39c0154-ebaa-435c-82c7-9a404c246de1","ios":"levelo://app?vid=a39c0154-ebaa-435c-82c7-9a404c246de1"},"vehicle_type_id":"4","last_reported":1732565462,"current_range_meters":32000,"station_id":"ce4bhr12rcd13ifvqhpg","pricing_plan_id":"cebpf4jnsgd1na2vs0mg"},{"bike_id":"40c7ddb8-0e1a-4eb1-9e2f-d3bf1a0f9d1e","system_id":"levelo_inurba_marseille","lat":43.28273,"lon":5.35071,"is_reserved":false,"is_disabled":true,"rental_uris":{"android":"levelo://app?vid=40c7ddb8-0e1a-4eb1-9e2f-d3bf1a0f9d1e","ios":"levelo://app?vid=40c7ddb8-0e1a-4eb1-9e2f-d3bf1a0f9d1e"},"vehicle_type_id":"4","last_reported":1732565462,"current_range_meters":24400,"station_id":"ce4bhbp2rcd13ifvqerg","pricing_plan_id":"cebpf4jnsgd1na2vs0mg"},{"bike_id":"46ac22a8-6f10-4221-98a6-34eba5c97bfb","system_id":"levelo_inurba_marseille","lat":43.29203,"lon":5.37306,"is_reserved":false,"is_disabled":true,"rental_uris":{"android":"levelo://app?vid=46ac22a8-6f10-4221-98a6-34eba5c97bfb","ios":"levelo://app?vid=46ac22a8-6f10-4221-98a6-34eba5c97bfb"},"vehicle_type_id":"4","last_reported":1732565462,"current_range_meters":0,"station_id":"","pricing_plan_id":"cebpf4jnsgd1na2vs0mg"},{"bike_id":"5846e7ee-045c-466d-b02c-9cd3eadc9db6","system_id":"levelo_inurba_marseille","lat":43.29187,"lon":5.35788,"is_reserved":false,"is_disabled":false,"rental_uris":{"android":"levelo://app?vid=5846e7ee-045c-466d-b02c-9cd3eadc9db6","ios":"levelo://app?vid=5846e7ee-045c-466d-b02c-9cd3eadc9db6"},"vehicle_type_id":"4","last_reported":1732565462,"current_range_meters":38000,"station_id":"ce4bhb12rcd13ifvqel0","pricing_plan_id":"cebpf4jnsgd1na2vs0mg"},{"bike_id":"1e50a023-897a-4add-96a1-63ed57d4876f","system_id":"levelo_inurba_marseille","lat":43.31332,"lon":5.3969,"is_reserved":false,"is_disabled":false,"rental_uris":{"android":"levelo://app?vid=1e50a023-897a-4add-96a1-63ed57d4876f","ios":"levelo://app?vid=1e50a023-897a-4add-96a1-63ed57d4876f"},"vehicle_type_id":"4","last_reported":1732565462,"current_range_meters":9200,"station_id":"ce4bgvp2rcd13ifvqcu0","pricing_plan_id":"cebpf4jnsgd1na2vs0mg"},{"bike_id":"c617a6c6-6cfc-40de-83ca-2f88af7f7d52","system_id":"levelo_inurba_marseille","lat":43.29868,"lon":5.3974,"is_reserved":false,"is_disabled":false,"rental_uris":{"android":"levelo://app?vid=c617a6c6-6cfc-40de-83ca-2f88af7f7d52","ios":"levelo://app?vid=c617a6c6-6cfc-40de-83ca-2f88af7f7d52"},"vehicle_type_id":"4","last_reported":1732565462,"current_range_meters":25200,"station_id":"ce4bh0h2rcd13ifvqd50","pricing_plan_id":"cebpf4jnsgd1na2vs0mg"},{"bike_id":"43746d86-8a13-4845-9faf-ae69b548d714","system_id":"levelo_inurba_marseille","lat":43.29445,"lon":5.37923,"is_reserved":false,"is_disabled":true,"rental_uris":{"android":"levelo://app?vid=43746d86-8a13-4845-9faf-ae69b548d714","ios":"levelo://app?vid=43746d86-8a13-4845-9faf-ae69b548d714"},"vehicle_type_id":"4","last_reported":1732565462,"current_range_meters":0,"station_id":"","pricing_plan_id":"cebpf4jnsgd1na2vs0mg"},{"bike_id":"8af40a0e-c622-4552-a572-f0e600b65106","system_id":"levelo_inurba_marseille","lat":43.24184,"lon":5.39716,"is_reserved":false,"is_disabled":false,"rental_uris":{"android":"levelo://app?vid=8af40a0e-c622-4552-a572-f0e600b65106","ios":"levelo://app?vid=8af40a0e-c622-4552-a572-f0e600b65106"},"vehicle_type_id":"4","last_reported":1732565462,"current_range_meters":29600,"station_id":"ce4bhn12rcd13ifvqgpg","pricing_plan_id":"cebpf4jnsgd1na2vs0mg"},{"bike_id":"7317920e-5975-4c67-a891-63736e89f140","system_id":"levelo_inurba_marseille","lat":43.29274,"lon":5.36786,"is_reserved":false,"is_disabled":true,"rental_uris":{"android":"levelo://app?vid=7317920e-5975-4c67-a891-63736e89f140","ios":"levelo://app?vid=7317920e-5975-4c67-a891-63736e89f140"},"vehicle_type_id":"4","last_reported":1732565462,"current_range_meters":22400,"station_id":"","pricing_plan_id":"cebpf4jnsgd1na2vs0mg"},{"bike_id":"e379a956-5754-438c-a6ee-4f17caa89d66","system_id":"levelo_inurba_marseille","lat":43.23962,"lon":5.36632,"is_reserved":false,"is_disabled":false,"rental_uris":{"android":"levelo://app?vid=e379a956-5754-438c-a6ee-4f17caa89d66","ios":"levelo://app?vid=e379a956-5754-438c-a6ee-4f17caa89d66"},"vehicle_type_id":"4","last_reported":1732565462,"current_range_meters":16000,"station_id":"ce4bhi12rcd13ifvqfp0","pricing_plan_id":"cebpf4jnsgd1na2vs0mg"},{"bike_id":"a2b09865-004d-45eb-b301-cf3640220a72","system_id":"levelo_inurba_marseille","lat":43.29605,"lon":5.38105,"is_reserved":false,"is_disabled":true,"rental_uris":{"android":"levelo://app?vid=a2b09865-004d-45eb-b301-cf3640220a72","ios":"levelo://app?vid=a2b09865-004d-45eb-b301-cf3640220a72"},"vehicle_type_id":"4","last_reported":1732565462,"current_range_meters":0,"station_id":"ce4bgl12rcd13ifvqbo0","pricing_plan_id":"cebpf4jnsgd1na2vs0mg"},{"bike_id":"477babf8-ddbf-4224-ab9b-3c1445b3c28e","system_id":"levelo_inurba_marseille","lat":43.31894,"lon":5.40734,"is_reserved":false,"is_disabled":false,"rental_uris":{"android":"levelo://app?vid=477babf8-ddbf-4224-ab9b-3c1445b3c28e","ios":"levelo://app?vid=477babf8-ddbf-4224-ab9b-3c1445b3c28e"},"vehicle_type_id":"4","last_reported":1732565462,"current_range_meters":38800,"station_id":"ce4bhq12rcd13ifvqhig","pricing_plan_id":"cebpf4jnsgd1na2vs0mg"},{"bike_id":"b4ccbe14-6757-4dde-9a2e-11125a86a837","system_id":"levelo_inurba_marseille","lat":43.29524,"lon":5.38541,"is_reserved":false,"is_disabled":false,"rental_uris":{"android":"levelo://app?vid=b4ccbe14-6757-4dde-9a2e-11125a86a837","ios":"levelo://app?vid=b4ccbe14-6757-4dde-9a2e-11125a86a837"},"vehicle_type_id":"4","last_reported":1732565462,"current_range_meters":30400,"station_id":"ce4bgih2rcd13ifvqba0","pricing_plan_id":"cebpf4jnsgd1na2vs0mg"},{"bike_id":"f971abee-70f8-43dc-afe4-4050ccc8c3f7","system_id":"levelo_inurba_marseille","lat":43.25868,"lon":5.39881,"is_reserved":false,"is_disabled":true,"rental_uris":{"android":"levelo://app?vid=f971abee-70f8-43dc-afe4-4050ccc8c3f7","ios":"levelo://app?vid=f971abee-70f8-43dc-afe4-4050ccc8c3f7"},"vehicle_type_id":"4","last_reported":1732565462,"current_range_meters":38800,"station_id":"ce4bhl92rcd13ifvqghg","pricing_plan_id":"cebpf4jnsgd1na2vs0mg"},{"bike_id":"1d3394dd-df8d-44a3-93c2-19bea07a0637","system_id":"levelo_inurba_marseille","lat":43.337444,"lon":5.374475,"is_reserved":false,"is_disabled":false,"rental_uris":{"android":"levelo://app?vid=1d3394dd-df8d-44a3-93c2-19bea07a0637","ios":"levelo://app?vid=1d3394dd-df8d-44a3-93c2-19bea07a0637"},"vehicle_type_id":"4","last_reported":1732565462,"current_range_meters":33200,"station_id":"","pricing_plan_id":"cebpf4jnsgd1na2vs0mg"},{"bike_id":"28a08d87-0d29-48bb-abeb-6928c53bba55","system_id":"levelo_inurba_marseille","lat":43.3234,"lon":5.40613,"is_reserved":false,"is_disabled":false,"rental_uris":{"android":"levelo://app?vid=28a08d87-0d29-48bb-abeb-6928c53bba55","ios":"levelo://app?vid=28a08d87-0d29-48bb-abeb-6928c53bba55"},"vehicle_type_id":"4","last_reported":1732565462,"current_range_meters":38800,"station_id":"ce4bhq92rcd13ifvqhjg","pricing_plan_id":"cebpf4jnsgd1na2vs0mg"},{"bike_id":"2c322c3a-f9e4-4705-8026-da924849d5b3","system_id":"levelo_inurba_marseille","lat":43.29275,"lon":5.36843,"is_reserved":false,"is_disabled":false,"rental_uris":{"android":"levelo://app?vid=2c322c3a-f9e4-4705-8026-da924849d5b3","ios":"levelo://app?vid=2c322c3a-f9e4-4705-8026-da924849d5b3"},"vehicle_type_id":"4","last_reported":1732565462,"current_range_meters":34800,"station_id":"ce4bhbp2rcd13ifvqesg","pricing_plan_id":"cebpf4jnsgd1na2vs0mg"},{"bike_id":"ee2b6f35-7d1b-4ce9-8a89-ced5ff6ba75e","system_id":"levelo_inurba_marseille","lat":43.24382,"lon":5.37063,"is_reserved":false,"is_disabled":false,"rental_uris":{"android":"levelo://app?vid=ee2b6f35-7d1b-4ce9-8a89-ced5ff6ba75e","ios":"levelo://app?vid=ee2b6f35-7d1b-4ce9-8a89-ced5ff6ba75e"},"vehicle_type_id":"4","last_reported":1732565462,"current_range_meters":38000,"station_id":"ce4bhhh2rcd13ifvqfk0","pricing_plan_id":"cebpf4jnsgd1na2vs0mg"},{"bike_id":"38550461-68ee-4121-af70-868f15775ae6","system_id":"levelo_inurba_marseille","lat":43.3171,"lon":5.437051,"is_reserved":false,"is_disabled":false,"rental_uris":{"android":"levelo://app?vid=38550461-68ee-4121-af70-868f15775ae6","ios":"levelo://app?vid=38550461-68ee-4121-af70-868f15775ae6"},"vehicle_type_id":"4","last_reported":1732565462,"current_range_meters":32400,"station_id":"ce4bhp92rcd13ifvqhcg","pricing_plan_id":"cebpf4jnsgd1na2vs0mg"},{"bike_id":"b9c2695d-397d-42b8-9037-6ec935848cb0","system_id":"levelo_inurba_marseille","lat":43.29282,"lon":5.40118,"is_reserved":false,"is_disabled":false,"rental_uris":{"android":"levelo://app?vid=b9c2695d-397d-42b8-9037-6ec935848cb0","ios":"levelo://app?vid=b9c2695d-397d-42b8-9037-6ec935848cb0"},"vehicle_type_id":"4","last_reported":1732565462,"current_range_meters":6800,"station_id":"ce4bh312rcd13ifvqdk0","pricing_plan_id":"cebpf4jnsgd1na2vs0mg"},{"bike_id":"78922ddc-8c95-470c-86c3-cc659680d91d","system_id":"levelo_inurba_marseille","lat":43.23194,"lon":5.35565,"is_reserved":false,"is_disabled":false,"rental_uris":{"android":"levelo://app?vid=78922ddc-8c95-470c-86c3-cc659680d91d","ios":"levelo://app?vid=78922ddc-8c95-470c-86c3-cc659680d91d"},"vehicle_type_id":"4","last_reported":1732565462,"current_range_meters":28400,"station_id":"ce4bhu92rcd13ifvqi70","pricing_plan_id":"cebpf4jnsgd1na2vs0mg"},{"bike_id":"403ac449-7cdd-42dd-aed6-c340f9ce3741","system_id":"levelo_inurba_marseille","lat":43.28486,"lon":5.38553,"is_reserved":false,"is_disabled":false,"rental_uris":{"android":"levelo://app?vid=403ac449-7cdd-42dd-aed6-c340f9ce3741","ios":"levelo://app?vid=403ac449-7cdd-42dd-aed6-c340f9ce3741"},"vehicle_type_id":"4","last_reported":1732565462,"current_range_meters":38800,"station_id":"ce4bh8p2rcd13ifvqeb0","pricing_plan_id":"cebpf4jnsgd1na2vs0mg"},{"bike_id":"821bf144-3e04-433b-8fdc-df913ad0749b","system_id":"levelo_inurba_marseille","lat":43.317,"lon":5.37748,"is_reserved":false,"is_disabled":false,"rental_uris":{"android":"levelo://app?vid=821bf144-3e04-433b-8fdc-df913ad0749b","ios":"levelo://app?vid=821bf144-3e04-433b-8fdc-df913ad0749b"},"vehicle_type_id":"4","last_reported":1732565462,"current_range_meters":33200,"station_id":"ce4bgth2rcd13ifvqch0","pricing_plan_id":"cebpf4jnsgd1na2vs0mg"},{"bike_id":"b5def552-ca3e-49d1-aad1-2b5a2a0d5a37","system_id":"levelo_inurba_marseille","lat":43.2856,"lon":5.39489,"is_reserved":false,"is_disabled":false,"rental_uris":{"android":"levelo://app?vid=b5def552-ca3e-49d1-aad1-2b5a2a0d5a37","ios":"levelo://app?vid=b5def552-ca3e-49d1-aad1-2b5a2a0d5a37"},"vehicle_type_id":"4","last_reported":1732565462,"current_range_meters":39200,"station_id":"ce4bh292rcd13ifvqdg0","pricing_plan_id":"cebpf4jnsgd1na2vs0mg"},{"bike_id":"7e9061cd-5627-407a-8c6f-fcf878e75a40","system_id":"levelo_inurba_marseille","lat":43.27954,"lon":5.41044,"is_reserved":false,"is_disabled":true,"rental_uris":{"android":"levelo://app?vid=7e9061cd-5627-407a-8c6f-fcf878e75a40","ios":"levelo://app?vid=7e9061cd-5627-407a-8c6f-fcf878e75a40"},"vehicle_type_id":"4","last_reported":1732565462,"current_range_meters":3600,"station_id":"ce4bhnp2rcd13ifvqh0g","pricing_plan_id":"cebpf4jnsgd1na2vs0mg"},