{"last_updated":1752358176,"ttl":60,"version":"2.2","data":{"bikes":[{"bike_id":"733cdf2f-9344-485e-af92-546feccd0261","system_id":"levelo_inurba_marseille","lat":43.30545,"lon":5.365609,"is_reserved":false,"is_disabled":true,"rental_uris":{"android":"levelo://app?vid=733cdf2f-9344-485e-af92-546feccd0261","ios":"levelo://app?vid=733cdf2f-9344-485e-af92-546feccd0261"},"vehicle_type_id":"4","last_reported":1752358177,"current_range_meters":2800,"station_id":"ce4bgs12rcd13ifvqcag","pricing_plan_id":"cebpf4jnsgd1na2vs0mg"},{"bike_id":"595550c6-4880-4cb7-8996-d2ee91e40342","system_id":"levelo_inurba_marseille","lat":43.25503,"lon":5.37647,"is_reserved":false,"is_disabled":false,"rental_uris":{"android":"levelo://app?vid=595550c6-4880-4cb7-8996-d2ee91e40342","ios":"levelo://app?vid=595550c6-4880-4cb7-8996-d2ee91e40342"},"vehicle_type_id":"4","last_reported":1752358177,"current_range_meters":3600,"station_id":"ce4bhh12rcd13ifvqff0","pricing_plan_id":"cebpf4jnsgd1na2vs0mg"},{"bike_id":"a058c3a6-9224-4b55-9b5d-fd70a35d0dfb","system_id":"levelo_inurba_marseille","lat":43.28421,"lon":5.37511,"is_reserved":false,"is_disabled":false,"rental_uris":{"android":"levelo://app?vid=a058c3a6-9224-4b55-9b5d-fd70a35d0dfb","ios":"levelo://app?vid=a058c3a6-9224-4b55-9b5d-fd70a35d0dfb"},"vehicle_type_id":"4","last_reported":1752358177,"current_range_meters":3600,"station_id":"ce4bh412rcd13ifvqds0","pricing_plan_id":"cebpf4jnsgd1na2vs0mg"},{"bike_id":"3e146d7a-bf4b-497f-ba82-9e9a8f4daf22","system_id":"levelo_inurba_marseille","lat":43.26941,"lon":5.40261,"is_reserved":false,"is_disabled":false,"rental_uris":{"android":"levelo://app?vid=3e146d7a-bf4b-497f-ba82-9e9a8f4daf22","ios":"levelo://app?vid=3e146d7a-bf4b-497f-ba82-9e9a8f4daf22"},"vehicle_type_id":"4","last_reported":1752358177,"current_range_meters":4400,"station_id":"cjm6bp8fraef2m0cb0m0","pricing_plan_id":"cebpf4jnsgd1na2vs0mg"},{"bike_id":"be5909ab-3946-4c27-8725-9a42a836a048","system_id":"levelo_inurba_marseille","lat":43.24077,"lon":5.37752,"is_reserved":false,"is_disabled":false,"rental_uris":{"android":"levelo://app?vid=be5909ab-3946-4c27-8725-9a42a836a048","ios":"levelo://app?vid=be5909ab-3946-4c27-8725-9a42a836a048"},"vehicle_type_id":"4","last_reported":1752358177,"current_range_meters":4400,"station_id":"ce4bhnp2rcd13ifvqgvg","pricing_plan_id":"cebpf4jnsgd1na2vs0mg"},{"bike_id":"fec12c7a-1647-4f54-b558-f5198b460511","system_id":"levelo_inurba_marseille","lat":43.24549,"lon":5.39523,"is_reserved":false,"is_disabled":false,"rental_uris":{"android":"levelo://app?vid=fec12c7a-1647-4f54-b558-f5198b460511","ios":"levelo://app?vid=fec12c7a-1647-4f54-b558-f5198b460511"},"vehicle_type_id":"4","last_reported":1752358177,"current_range_meters":4800,"station_id":"ce4bhlp2rcd13ifvqgjg","pricing_plan_id":"cebpf4jnsgd1na2vs0mg"},{"bike_id":"b25e716b-466d-4073-bda9-c1fa6de3ef16","system_id":"levelo_inurba_marseille","lat":43.29298,"lon":5.37463,"is_reserved":false,"is_disabled":true,"rental_uris":{"android":"levelo://app?vid=b25e716b-466d-4073-bda9-c1fa6de3ef16","ios":"levelo://app?vid=b25e716b-466d-4073-bda9-c1fa6de3ef16"},"vehicle_type_id":"4","last_reported":1752358177,"current_range_meters":6000,"station_id":"ce4bgi12rcd13ifvqb70","pricing_plan_id":"cebpf4jnsgd1na2vs0mg"},{"bike_id":"534ed68d-5ceb-43a8-968b-be30f01dfa74","system_id":"levelo_inurba_marseille","lat":43.28243,"lon":5.39109,"is_reserved":false,"is_disabled":false,"rental_uris":{"android":"levelo://app?vid=534ed68d-5ceb-43a8-968b-be30f01dfa74","ios":"levelo://app?vid=534ed68d-5ceb-43a8-968b-be30f01dfa74"},"vehicle_type_id":"4","last_reported":1752358177,"current_range_meters":6400,"station_id":"","pricing_plan_id":"cebpf4jnsgd1na2vs0mg"},{"bike_id":"1104b20f-16e4-4f75-9acd-2b946a15461a","system_id":"levelo_inurba_marseille","lat":43.24176,"lon":5.39724,"is_reserved":false,"is_disabled":false,"rental_uris":{"android":"levelo://app?vid=1104b20f-16e4-4f75-9acd-2b946a15461a","ios":"levelo://app?vid=1104b20f-16e4-4f75-9acd-2b946a15461a"},"vehicle_type_id":"4","last_reported":1752358177,"current_range_meters":6400,"station_id":"ce4bhn12rcd13ifvqgpg","pricing_plan_id":"cebpf4jnsgd1na2vs0mg"},{"bike_id":"cb9282c9-0a04-426f-af4a-9dc494a82650","system_id":"levelo_inurba_marseille","lat":43.225037,"lon":5.347922,"is_reserved":false,"is_disabled":false,"rental_uris":{"android":"levelo://app?vid=cb9282c9-0a04-426f-af4a-9dc494a82650","ios":"levelo://app?vid=cb9282c9-0a04-426f-af4a-9dc494a82650"},"vehicle_type_id":"4","last_reported":1752358177,"current_range_meters":6400,"station_id":"","pricing_plan_id":"cebpf4jnsgd1na2vs0mg"},{"bike_id":"0f1287f9-390e-4629-ab8e-ad2d35ff61ae","system_id":"levelo_inurba_marseille","lat":43.2557,"lon":5.38265,"is_reserved":false,"is_disabled":true,"rental_uris":{"android":"levelo://app?vid=0f1287f9-390e-4629-ab8e-ad2d35ff61ae","ios":"levelo://app?vid=0f1287f9-390e-4629-ab8e-ad2d35ff61ae"},"vehicle_type_id":"4","last_reported":1752358177,"current_range_meters":6800,"station_id":"ce4bhih2rcd13ifvqfs0","pricing_plan_id":"cebpf4jnsgd1na2vs0mg"},{"bike_id":"bced4aa7-a628-4057-a6e6-27edc27c5e17","system_id":"levelo_inurba_marseille","lat":43.21193,"lon":5.35085,"is_reserved":false,"is_disabled":false,"rental_uris":{"android":"levelo://app?vid=bced4aa7-a628-4057-a6e6-27edc27c5e17","ios":"levelo://app?vid=bced4aa7-a628-4057-a6e6-27edc27c5e17"},"vehicle_type_id":"4","last_reported":1752358177,"current_range_meters":6800,"station_id":"st_cvj6sg6p6f1abm77japg","pricing_plan_id":"cebpf4jnsgd1na2vs0mg"},{"bike_id":"5744d274-e943-416d-a6ae-a74284da96e2","system_id":"levelo_inurba_marseille","lat":43.23198,"lon":5.39978,"is_reserved":false,"is_disabled":false,"rental_uris":{"android":"levelo://app?vid=5744d274-e943-416d-a6ae-a74284da96e2","ios":"levelo://app?vid=5744d274-e943-416d-a6ae-a74284da96e2"},"vehicle_type_id":"4","last_reported":1752358177,"current_range_meters":6800,"station_id":"ce4bhn12rcd13ifvqgqg","pricing_plan_id":"cebpf4jnsgd1na2vs0mg"},{"bike_id":"2d525522-e6dc-4040-9c4c-8e2e7a587583","system_id":"levelo_inurba_marseille","lat":43.29182,"lon":5.37542,"is_reserved":false,"is_disabled":false,"rental_uris":{"android":"levelo://app?vid=2d525522-e6dc-4040-9c4c-8e2e7a587583","ios":"levelo://app?vid=2d525522-e6dc-4040-9c4c-8e2e7a587583"},"vehicle_type_id":"4","last_reported":1752358177,"current_range_meters":7200,"station_id":"","pricing_plan_id":"cebpf4jnsgd1na2vs0mg"},{"bike_id":"032e68e8-bbee-42ee-9dc6-c0ada00bad8d","system_id":"levelo_inurba_marseille","lat":43.281433,"lon":5.42645,"is_reserved":false,"is_disabled":false,"rental_uris":{"android":"levelo://app?vid=032e68e8-bbee-42ee-9dc6-c0ada00bad8d","ios":"levelo://app?vid=032e68e8-bbee-42ee-9dc6-c0ada00bad8d"},"vehicle_type_id":"4","last_reported":1752358177,"current_range_meters":8000,"station_id":"ce4bhnh2rcd13ifvqgug","pricing_plan_id":"cebpf4jnsgd1na2vs0mg"},{"bike_id":"2f0ba75c-aff3-43f4-857b-fc7c66f4e426","system_id":"levelo_inurba_marseille","lat":43.30952,"lon":5.39015,"is_reserved":false,"is_disabled":true,"rental_uris":{"android":"levelo://app?vid=2f0ba75c-aff3-43f4-857b-fc7c66f4e426","ios":"levelo://app?vid=2f0ba75c-aff3-43f4-857b-fc7c66f4e426"},"vehicle_type_id":"4","last_reported":1752358177,"current_range_meters":8400,"station_id":"ce4bgup2rcd13ifvqco0","pricing_plan_id":"cebpf4jnsgd1na2vs0mg"},{"bike_id":"9a721a67-800d-41fb-b2c2-3309f63164c3","system_id":"levelo_inurba_marseille","lat":43.21211,"lon":5.3509,"is_reserved":false,"is_disabled":false,"rental_uris":{"android":"levelo://app?vid=9a721a67-800d-41fb-b2c2-3309f63164c3","ios":"levelo://app?vid=9a721a67-800d-41fb-b2c2-3309f63164c3"},"vehicle_type_id":"4","last_reported":1752358177,"current_range_meters":8000,"station_id":"st_cvj6sg6p6f1abm77japg","pricing_plan_id":"cebpf4jnsgd1na2vs0mg"},{"bike_id":"a5ca7410-24c5-405f-b9ae-029576c1c975","system_id":"levelo_inurba_marseille","lat":43.31553,"lon":5.424,"is_reserved":false,"is_disabled":false,"rental_uris":{"android":"levelo://app?vid=a5ca7410-24c5-405f-b9ae-029576c1c975","ios":"levelo://app?vid=a5ca7410-24c5-405f-b9ae-029576c1c975"},"vehicle_type_id":"4","last_reported":1752358177,"current_range_meters":8000,"station_id":"","pricing_plan_id":"cebpf4jnsgd1na2vs0mg"},{"bike_id":"595e9351-a7ce-45de-8995-771f7d9fe86e","system_id":"levelo_inurba_marseille","lat":43.309243,"lon":5.378088,"is_reserved":false,"is_disabled":false,"rental_uris":{"android":"levelo://app?vid=595e9351-a7ce-45de-8995-771f7d9fe86e","ios":"levelo://app?vid=595e9351-a7ce-45de-8995-771f7d9fe86e"},"vehicle_type_id":"4","last_reported":1752358177,"current_range_meters":8400,"station_id":"","pricing_plan_id":"cebpf4jnsgd1na2vs0mg"},{"bike_id":"57153562-242f-4b87-a2ae-af78155ee369","system_id":"levelo_inurba_marseille","lat":43.29606,"lon":5.38108,"is_reserved":false,"is_disabled":false,"rental_uris":{"android":"levelo://app?vid=57153562-242f-4b87-a2ae-af78155ee369","ios":"levelo://app?vid=57153562-242f-4b87-a2ae-af78155ee369"},"vehicle_type_id":"4","last_reported":1752358177,"current_range_meters":8400,"station_id":"ce4bgl12rcd13ifvqbo0","pricing_plan_id":"cebpf4jnsgd1na2vs0mg"},{"bike_id":"6d3bbd26-e13e-4e52-a0e9-efe47dd2af25","system_id":"levelo_inurba_marseille","lat":43.29262,"lon":5.38444,"is_reserved":false,"is_disabled":false,"rental_uris":{"android":"levelo://app?vid=6d3bbd26-e13e-4e52-a0e9-efe47dd2af25","ios":"levelo://app?vid=6d3bbd26-e13e-4e52-a0e9-efe47dd2af25"},"vehicle_type_id":"4","last_reported":1752358177,"current_range_meters":8400,"station_id":"ce4bh692rcd13ifvqea0","pricing_plan_id":"cebpf4jnsgd1na2vs0mg"},{"bike_id":"f1180e59-ea03-450d-90c9-ffc3a7ccf49b","system_id":"levelo_inurba_marseille","lat":43.24808,"lon":5.37459,"is_reserved":false,"is_disabled":false,"rental_uris":{"android":"levelo://app?vid=f1180e59-ea03-450d-90c9-ffc3a7ccf49b","ios":"levelo://app?vid=f1180e59-ea03-450d-90c9-ffc3a7ccf49b"},"vehicle_type_id":"4","last_reported":1752358177,"current_range_meters":8400,"station_id":"ce4bhgh2rcd13ifvqfb0","pricing_plan_id":"cebpf4jnsgd1na2vs0mg"},{"bike_id":"e3a75ee9-c614-467b-8cc2-f813bcef2ab1","system_id":"levelo_inurba_marseille","lat":43.33743,"lon":5.3919,"is_reserved":false,"is_disabled":true,"rental_uris":{"android":"levelo://app?vid=e3a75ee9-c614-467b-8cc2-f813bcef2ab1","ios":"levelo://app?vid=e3a75ee9-c614-467b-8cc2-f813bcef2ab1"},"vehicle_type_id":"4","last_reported":1752358177,"current_range_meters":8400,"station_id":"ce4bhr92rcd13ifvqhsg","pricing_plan_id":"cebpf4jnsgd1na2vs0mg"},{"bike_id":"9cfd6456-96d6-4709-b8e9-a2d43bbe2701","system_id":"levelo_inurba_marseille","lat":43.25863,"lon":5.399,"is_reserved":false,"is_disabled":false,"rental_uris":{"android":"levelo://app?vid=9cfd6456-96d6-4709-b8e9-a2d43bbe2701","ios":"levelo://app?vid=9cfd6456-96d6-4709-b8e9-a2d43bbe2701"},"vehicle_type_id":"4","last_reported":1752358177,"current_range_meters":8400,"station_id":"ce4bhl92rcd13ifvqghg","pricing_plan_id":"cebpf4jnsgd1na2vs0mg"},{"bike_id":"5c0448b2-8814-4934-b665-27ab2eac725a","system_id":"levelo_inurba_marseille","lat":43.26489,"lon":5.39554,"is_reserved":false,"is_disabled":false,"rental_uris":{"android":"levelo://app?vid=5c0448b2-8814-4934-b665-27ab2eac725a","ios":"levelo://app?vid=5c0448b2-8814-4934-b665-27ab2eac725a"},"vehicle_type_id":"4","last_reported":1752358177,"current_range_meters":8800,"station_id":"ce4bhi12rcd13ifvqfq0","pricing_plan_id":"cebpf4jnsgd1na2vs0mg"},{"bike_id":"097106d7-0dc8-4152-8540-cae0e1de8dea","system_id":"levelo_inurba_marseille","lat":43.21179,"lon":5.35084,"is_reserved":false,"is_disabled":false,"rental_uris":{"android":"levelo://app?vid=097106d7-0dc8-4152-8540-cae0e1de8dea","ios":"levelo://app?vid=097106d7-0dc8-4152-8540-cae0e1de8dea"},"vehicle_type_id":"4","last_reported":1752358177,"current_range_meters":8800,"station_id":"st_cvj6sg6p6f1abm77japg","pricing_plan_id":"cebpf4jnsgd1na2vs0mg"},{"bike_id":"f1e9a190-07cd-4409-943b-b258a2b701f0","system_id":"levelo_inurba_marseille","lat":43.26672,"lon":5.38269,"is_reserved":false,"is_disabled":false,"rental_uris":{"android":"levelo://app?vid=f1e9a190-07cd-4409-943b-b258a2b701f0","ios":"levelo://app?vid=f1e9a190-07cd-4409-943b-b258a2b701f0"},"vehicle_type_id":"4","last_reported":1752358177,"current_range_meters":8800,"station_id":"ce4bhg92rcd13ifvqf90","pricing_plan_id":"cebpf4jnsgd1na2vs0mg"},{"bike_id":"b7edde71-5984-4249-a449-753c89a4f376","system_id":"levelo_inurba_marseille","lat":43.33616,"lon":5.41038,"is_reserved":false,"is_disabled":false,"rental_uris":{"android":"levelo://app?vid=b7edde71-5984-4249-a449-753c89a4f376","ios":"levelo://app?vid=b7edde71-5984-4249-a449-753c89a4f376"},"vehicle_type_id":"4","last_reported":1752358177,"current_range_meters":8800,"station_id":"ce4bhqh2rcd13ifvqhmg","pricing_plan_id":"cebpf4jnsgd1na2vs0mg"},{"bike_id":"03251f63-26eb-493f-9d65-8e11851ca687","system_id":"levelo_inurba_marseille","lat":43.2886,"lon":5.39342,"is_reserved":false,"is_disabled":true,"rental_uris":{"android":"levelo://app?vid=03251f63-26eb-493f-9d65-8e11851ca687","ios":"levelo://app?vid=03251f63-26eb-493f-9d65-8e11851ca687"},"vehicle_type_id":"4","last_reported":1752358177,"current_range_meters":9200,"station_id":"ce4bh2p2rcd13ifvqdi0","pricing_plan_id":"cebpf4jnsgd1na2vs0mg"},{"bike_id":"df61839a-7a72-4634-9960-e8ea0d9a8d35","system_id":"levelo_inurba_marseille","lat":43.239474,"lon":5.366089,"is_reserved":false,"is_disabled":true,"rental_uris":{"android":"levelo://app?vid=df61839a-7a72-4634-9960-e8ea0d9a8d35","ios":"levelo://app?vid=df61839a-7a72-4634-9960-e8ea0d9a8d35"},"vehicle_type_id":"4","last_reported":1752358177,"current_range_meters":9200,"station_id":"","pricing_plan_id":"cebpf4jnsgd1na2vs0mg"},{"bike_id":"696aca5a-f985-42f2-b5f7-74ca3a442dcb","system_id":"levelo_inurba_marseille","lat":43.31225,"lon":5.36865,"is_reserved":false,"is_disabled":false,"rental_uris":{"android":"levelo://app?vid=696aca5a-f985-42f2-b5f7-74ca3a442dcb","ios":"levelo://app?vid=696aca5a-f985-42f2-b5f7-74ca3a442dcb"},"vehicle_type_id":"4","last_reported":1752358177,"current_range_meters":9200,"station_id":"","pricing_plan_id":"cebpf4jnsgd1na2vs0mg"},{"bike_id":"75bb1dd6-50a7-47a9-9e4b-6b29bd46237a","system_id":"levelo_inurba_marseille","lat":43.21198,"lon":5.35094,"is_reserved":false,"is_disabled":false,"rental_uris":{"android":"levelo://app?vid=75bb1dd6-50a7-47a9-9e4b-6b29bd46237a","ios":"levelo://app?vid=75bb1dd6-50a7-47a9-9e4b-6b29bd46237a"},"vehicle_type_id":"4","last_reported":1752358177,"current_range_meters":9200,"station_id":"st_cvj6sg6p6f1abm77japg","pricing_plan_id":"cebpf4jnsgd1na2vs0mg"},{"bike_id":"7bb68d40-3e7f-4ab0-94be-ae7ffc46484b","system_id":"levelo_inurba_marseille","lat":43.29706,"lon":5.36603,"is_reserved":false,"is_disabled":false,"rental_uris":{"android":"levelo://app?vid=7bb68d40-3e7f-4ab0-94be-ae7ffc46484b","ios":"levelo://app?vid=7bb68d40-3e7f-4ab0-94be-ae7ffc46484b"},"vehicle_type_id":"4","last_reported":1752358177,"current_range_meters":9200,"station_id":"ce4bgn12rcd13ifvqbt0","pricing_plan_id":"cebpf4jnsgd1na2vs0mg"},{"bike_id":"8929c1bf-fd4d-44e4-aa66-b3eb6538c998","system_id":"levelo_inurba_marseille","lat":43.28567,"lon":5.42988,"is_reserved":false,"is_disabled":false,"rental_uris":{"android":"levelo://app?vid=8929c1bf-fd4d-44e4-aa66-b3eb6538c998","ios":"levelo://app?vid=8929c1bf-fd4d-44e4-aa66-b3eb6538c998"},"vehicle_type_id":"4","last_reported":1752358177,"current_range_meters":9600,"station_id":"","pricing_plan_id":"cebpf4jnsgd1na2vs0mg"},{"bike_id":"5a71ab42-51f6-4d74-8942-e5c8339f2255","system_id":"levelo_inurba_marseille","lat":43.31766,"lon":5.39026,"is_reserved":false,"is_disabled":true,"rental_uris":{"android":"levelo://app?vid=5a71ab42-51f6-4d74-8942-e5c8339f2255","ios":"levelo://app?vid=5a71ab42-51f6-4d74-8942-e5c8339f2255"},"vehicle_type_id":"4","last_reported":1752358177,"current_range_meters":9600,"station_id":"ce4bhqp2rcd13ifvqhng","pricing_plan_id":"cebpf4jnsgd1na2vs0mg"},{"bike_id":"5a1aa169-e8de-4c42-8232-f9cf794c57f1","system_id":"levelo_inurba_marseille","lat":43.2119,"lon":5.35084,"is_reserved":false,"is_disabled":false,"rental_uris":{"android":"levelo://app?vid=5a1aa169-e8de-4c42-8232-f9cf794c57f1","ios":"levelo://app?vid=5a1aa169-e8de-4c42-8232-f9cf794c57f1"},"vehicle_type_id":"4","last_reported":1752358177,"current_range_meters":9600,"station_id":"st_cvj6sg6p6f1abm77japg","pricing_plan_id":"cebpf4jnsgd1na2vs0mg"},{"bike_id":"fd7207d5-57e3-40c7-9e47-db105071674e","system_id":"levelo_inurba_marseille","lat":43.313019,"lon":5.38539,"is_reserved":false,"is_disabled":false,"rental_uris":{"android":"levelo://app?vid=fd7207d5-57e3-40c7-9e47-db105071674e","ios":"levelo://app?vid=fd7207d5-57e3-40c7-9e47-db105071674e"},"vehicle_type_id":"4","last_reported":1752358177,"current_range_meters":10000,"station_id":"ce4bgt92rcd13ifvqcf0","pricing_plan_id":"cebpf4jnsgd1na2vs0mg"},{"bike_id":"a5aaefe9-f767-4790-9221-8c770a5662f1","system_id":"levelo_inurba_marseille","lat":43.27961,"lon":5.38716,"is_reserved":false,"is_disabled":false,"rental_uris":{"android":"levelo://app?vid=a5aaefe9-f767-4790-9221-8c770a5662f1","ios":"levelo://app?vid=a5aaefe9-f767-4790-9221-8c770a5662f1"},"vehicle_type_id":"4","last_reported":1752358177,"current_range_meters":10000,"station_id":"ce4bhg12rcd13ifvqf80","pricing_plan_id":"cebpf4jnsgd1na2vs0mg"},{"bike_id":"46cacac0-84b7-4c70-a453-a1cb8250fb4d","system_id":"levelo_inurba_marseille","lat":43.33786,"lon":5.37468,"is_reserved":false,"is_disabled":false,"rental_uris":{"android":"levelo://app?vid=46cacac0-84b7-4c70-a453-a1cb8250fb4d","ios":"levelo://app?vid=46cacac0-84b7-4c70-a453-a1cb8250fb4d"},"vehicle_type_id":"4","last_reported":1752358177,"current_range_meters":10000,"station_id":"","pricing_plan_id":"cebpf4jnsgd1na2vs0mg"},{"bike_id":"0ad0b534-1da5-456c-aa84-d2096630950d","system_id":"levelo_inurba_marseille","lat":43.2903,"lon":5.38659,"is_reserved":false,"is_disabled":false,"rental_uris":{"android":"levelo://app?vid=0ad0b534-1da5-456c-aa84-d2096630950d","ios":"levelo://app?vid=0ad0b534-1da5-456c-aa84-d2096630950d"},"vehicle_type_id":"4","last_reported":1752358177,"current_range_meters":10000,"station_id":"ce4bh4p2rcd13ifvqe0g","pricing_plan_id":"cebpf4jnsgd1na2vs0mg"},{"bike_id":"21f51f77-8b78-488b-a42e-44d2a504cf11","system_id":"levelo_inurba_marseille","lat":43.24167,"lon":5.364002,"is_reserved":false,"is_disabled":true,"rental_uris":{"android":"levelo://app?vid=21f51f77-8b78-488b-a42e-44d2a504cf11","ios":"levelo://app?vid=21f51f77-8b78-488b-a42e-44d2a504cf11"},"vehicle_type_id":"4","last_reported":1752358177,"current_range_meters":10000,"station_id":"cpo36qri1sfpv3e86is0","pricing_plan_id":"cebpf4jnsgd1na2vs0mg"},{"bike_id":"4e18f6a0-cf0a-4e54-823e-14d073e25d70","system_id":"levelo_inurba_marseille","lat":43.28033,"lon":5.36977,"is_reserved":false,"is_disabled":true,"rental_uris":{"android":"levelo://app?vid=4e18f6a0-cf0a-4e54-823e-14d073e25d70","ios":"levelo://app?vid=4e18f6a0-cf0a-4e54-823e-14d073e25d70"},"vehicle_type_id":"4","last_reported":1752358177,"current_range_meters":10000,"station_id":"ce4bha12rcd13ifvqef0","pricing_plan_id":"cebpf4jnsgd1na2vs0mg"},{"bike_id":"9b48deea-909a-4f75-8481-d688e1532aeb","system_id":"levelo_inurba_marseille","lat":43.26055,"lon":5.39399,"is_reserved":false,"is_disabled":false,"rental_uris":{"android":"levelo://app?vid=9b48deea-909a-4f75-8481-d688e1532aeb","ios":"levelo://app?vid=9b48deea-909a-4f75-8481-d688e1532aeb"},"vehicle_type_id":"4","last_reported":1752358177,"current_range_meters":10000,"station_id":"ce4bhh92rcd13ifvqfj0","pricing_plan_id":"cebpf4jnsgd1na2vs0mg"},{"bike_id":"239d3922-d084-4c7d-82af-2252abea130f","system_id":"levelo_inurba_marseille","lat":43.2511,"lon":5.40322,"is_reserved":false,"is_disabled":false,"rental_uris":{"android":"levelo://app?vid=239d3922-d084-4c7d-82af-2252abea130f","ios":"levelo://app?vid=239d3922-d084-4c7d-82af-2252abea130f"},"vehicle_type_id":"4","last_reported":1752358177,"current_range_meters":10800,"station_id":"ce4bhlh2rcd13ifvqgig","pricing_plan_id":"cebpf4jnsgd1na2vs0mg"},{"bike_id":"61198919-e72c-4fce-bc96-126627987dc0","system_id":"levelo_inurba_marseille","lat":43.29566,"lon":5.37897,"is_reserved":false,"is_disabled":false,"rental_uris":{"android":"levelo://app?vid=61198919-e72c-4fce-bc96-126627987dc0","ios":"levelo://app?vid=61198919-e72c-4fce-bc96-126627987dc0"},"vehicle_type_id":"4","last_reported":1752358177,"current_range_meters":10800,"station_id":"","pricing_plan_id":"cebpf4jnsgd1na2vs0mg"},{"bike_id":"d33c74ed-791f-4f00-818b-0a666c3e7727","system_id":"levelo_inurba_marseille","lat":43.30242,"lon":5.40054,"is_reserved":false,"is_disabled":false,"rental_uris":{"android":"levelo://app?vid=d33c74ed-791f-4f00-818b-0a666c3e7727","ios":"levelo://app?vid=d33c74ed-791f-4f00-818b-0a666c3e7727"},"vehicle_type_id":"4","last_reported":1752358177,"current_range_meters":10800,"station_id":"ce4bgvh2rcd13ifvqcs0","pricing_plan_id":"cebpf4jnsgd1na2vs0mg"},{"bike_id":"98242408-ee22-433f-afb4-0f23426d79cd","system_id":"levelo_inurba_marseille","lat":43.299623,"lon":5.363817,"is_reserved":false,"is_disabled":false,"rental_uris":{"android":"levelo://app?vid=98242408-ee22-433f-afb4-0f23426d79cd","ios":"levelo://app?vid=98242408-ee22-433f-afb4-0f23426d79cd"},"vehicle_type_id":"4","last_reported":1752358177,"current_range_meters":10800,"station_id":"","pricing_plan_id":"cebpf4jnsgd1na2vs0mg"},{"bike_id":"198ed86b-5126-4c92-bb8b-ab2f45abb2b7","system_id":"levelo_inurba_marseille","lat":43.28665,"lon":5.3635,"is_reserved":false,"is_disabled":false,"rental_uris":{"android":"levelo://app?vid=198ed86b-5126-4c92-bb8b-ab2f45abb2b7","ios":"levelo://app?vid=198ed86b-5126-4c92-bb8b-ab2f45abb2b7"},"vehicle_type_id":"4","last_reported":1752358177,"current_range_meters":10800,"station_id":"ce4bhah2rcd13ifvqej0","pricing_plan_id":"cebpf4jnsgd1na2vs0mg"},{"bike_id":"dbba3321-20c7-4989-a7b5-ea9ab2c4b3e8","system_id":"levelo_inurba_marseille","lat":43.261935,"lon":5.374477,"is_reserved":false,"is_disabled":true,"rental_uris":{"android":"levelo://app?vid=dbba3321-20c7-4989-a7b5-ea9ab2c4b3e8","ios":"levelo://app?vid=dbba3321-20c7-4989-a7b5-ea9ab2c4b3e8"},"vehicle_type_id":"4","last_reported":1752358177,"current_range_meters":10800,"station_id":"ce4bhgp2rcd13ifvqfc0","pricing_plan_id":"cebpf4jnsgd1na2vs0mg"},{"bike_id":"c453155a-5220-48fc-922b-600ca54f8ab5","system_id":"levelo_inurba_marseille","lat":43.28653,"lon":5.36333,"is_reserved":false,"is_disabled":true,"rental_uris":{"android":"levelo://app?vid=c453155a-5220-48fc-922b-600ca54f8ab5","ios":"levelo://app?vid=c453155a-5220-48fc-922b-600ca54f8ab5"},"vehicle_type_id":"4","last_reported":1752358177,"current_range_meters":10800,"station_id":"ce4bhah2rcd13ifvqej0","pricing_plan_id":"cebpf4jnsgd1na2vs0mg"},{"bike_id":"ffe907d6-7ed9-401c-9d9c-e32dcd8dda6d","system_id":"levelo_inurba_marseille","lat":43.29272,"lon":5.38437,"is_reserved":false,"is_disabled":false,"rental_uris":{"android":"levelo://app?vid=ffe907d6-7ed9-401c-9d9c-e32dcd8dda6d","ios":"levelo://app?vid=ffe907d6-7ed9-401c-9d9c-e32dcd8dda6d"},"vehicle_type_id":"4","last_reported":1752358177,"current_range_meters":11200,"station_id":"ce4bh692rcd13ifvqea0","pricing_plan_id":"cebpf4jnsgd1na2vs0mg"},{"bike_id":"5cf29819-6390-4355-bb40-16c62cef1501","system_id":"levelo_inurba_marseille","lat":43.284154,"lon":5.34975,"is_reserved":false,"is_disabled":false,"rental_uris":{"android":"levelo://app?vid=5cf29819-6390-4355-bb40-16c62cef1501","ios":"levelo://app?vid=5cf29819-6390-4355-bb40-16c62cef1501"},"vehicle_type_id":"4","last_reported":1752358177,"current_range_meters":11600,"station_id":"","pricing_plan_id":"cebpf4jnsgd1na2vs0mg"},{"bike_id":"d502518b-cea4-4a93-9e26-6385d9028156","system_id":"levelo_inurba_marseille","lat":43.295349,"lon":5.385473,"is_reserved":false,"is_disabled":false,"rental_uris":{"android":"levelo://app?vid=d502518b-cea4-4a93-9e26-6385d9028156","ios":"levelo://app?vid=d502518b-cea4-4a93-9e26-6385d9028156"},"vehicle_type_id":"4","last_reported":1752358177,"current_range_meters":11600,"station_id":"ce4bhb12rcd13ifvqem0","pricing_plan_id":"cebpf4jnsgd1na2vs0mg"},{"bike_id":"38815d2b-48df-4038-9515-127ee3516d98","system_id":"levelo_inurba_marseille","lat":43.31086,"lon":5.4243,"is_reserved":false,"is_disabled":false,"rental_uris":{"android":"levelo://app?vid=38815d2b-48df-4038-9515-127ee3516d98","ios":"levelo://app?vid=38815d2b-48df-4038-9515-127ee3516d98"},"vehicle_type_id":"4","last_reported":1752358177,"current_range_meters":11600,"station_id":"ce4bhp92rcd13ifvqhag","pricing_plan_id":"cebpf4jnsgd1na2vs0mg"},{"bike_id":"6bd7002a-7d96-44e0-bd6c-ca0cb9be047d","system_id":"levelo_inurba_marseille","lat":43.26188,"lon":5.37452,"is_reserved":false,"is_disabled":false,"rental_uris":{"android":"levelo://app?vid=6bd7002a-7d96-44e0-bd6c-ca0cb9be047d","ios":"levelo://app?vid=6bd7002a-7d96-44e0-bd6c-ca0cb9be047d"},"vehicle_type_id":"4","last_reported":1752358177,"current_range_meters":11600,"station_id":"ce4bhgp2rcd13ifvqfc0","pricing_plan_id":"cebpf4jnsgd1na2vs0mg"},{"bike_id":"c816310d-8ff0-4290-b10a-aad431dd902c","system_id":"levelo_inurba_marseille","lat":43.21761,"lon":5.34607,"is_reserved":false,"is_disabled":true,"rental_uris":{"android":"levelo://app?vid=c816310d-8ff0-4290-b10a-aad431dd902c","ios":"levelo://app?vid=c816310d-8ff0-4290-b10a-aad431dd902c"},"vehicle_type_id":"4","last_reported":1752358177,"current_range_meters":12000,"station_id":"st_cvj6r9ubvosntc0bgbag","pricing_plan_id":"cebpf4jnsgd1na2vs0mg"},{"bike_id":"cb69c6e7-d151-477a-aa79-0ad7ae7ddff7","system_id":"levelo_inurba_marseille","lat":43.31082,"lon":5.37785,"is_reserved":false,"is_disabled":false,"rental_uris":{"android":"levelo://app?vid=cb69c6e7-d151-477a-aa79-0ad7ae7ddff7","ios":"levelo://app?vid=cb69c6e7-d151-477a-aa79-0ad7ae7ddff7"},"vehicle_type_id":"4","last_reported":1752358177,"current_range_meters":12000,"station_id":"ce4bgt92rcd13ifvqcg0","pricing_plan_id":"cebpf4jnsgd1na2vs0mg"},{"bike_id":"ee5338dd-18a1-4b48-a5b0-f8c72f7b1319","system_id":"levelo_inurba_marseille","lat":43.31873,"lon":5.36818,"is_reserved":false,"is_disabled":false,"rental_uris":{"android":"levelo://app?vid=ee5338dd-18a1-4b48-a5b0-f8c72f7b1319","ios":"levelo://app?vid=ee5338dd-18a1-4b48-a5b0-f8c72f7b1319"},"vehicle_type_id":"4","last_reported":1752358177,"current_range_meters":12000,"station_id":"","pricing_plan_id":"cebpf4jnsgd1na2vs0mg"},{"bike_id":"fd2ad477-3bb2-4df3-8199-8e6511adf55d","system_id":"levelo_inurba_marseille","lat":43.30797,"lon":5.43525,"is_reserved":false,"is_disabled":false,"rental_uris":{"android":"levelo://app?vid=fd2ad477-3bb2-4df3-8199-8e6511adf55d","ios":"levelo://app?vid=fd2ad477-3bb2-4df3-8199-8e6511adf55d"},"vehicle_type_id":"4","last_reported":1752358177,"current_range_meters":12000,"station_id":"ce4bhph2rcd13ifvqheg","pricing_plan_id":"cebpf4jnsgd1na2vs0mg"},{"bike_id":"92e154b4-028c-4974-88b2-e4f9a14dc7a9","system_id":"levelo_inurba_marseille","lat":43.24651,"lon":5.38899,"is_reserved":false,"is_disabled":false,"rental_uris":{"android":"levelo://app?vid=92e154b4-028c-4974-88b2-e4f9a14dc7a9","ios":"levelo://app?vid=92e154b4-028c-4974-88b2-e4f9a14dc7a9"},"vehicle_type_id":"4","last_reported":1752358177,"current_range_meters":12000,"station_id":"ce4bhg12rcd13ifvqf60","pricing_plan_id":"cebpf4jnsgd1na2vs0mg"},{"bike_id":"bcd5f92f-9d0d-4919-acc7-84ce17b87f71","system_id":"levelo_inurba_marseille","lat":43.26787,"lon":5.39414,"is_reserved":false,"is_disabled":false,"rental_uris":{"android":"levelo://app?vid=bcd5f92f-9d0d-4919-acc7-84ce17b87f71","ios":"levelo://app?vid=bcd5f92f-9d0d-4919-acc7-84ce17b87f71"},"vehicle_type_id":"4","last_reported":1752358177,"current_range_meters":12000,"station_id":"ce4bhh12rcd13ifvqfg0","pricing_plan_id":"cebpf4jnsgd1na2vs0mg"},{"bike_id":"48688b5d-bd39-4706-8acb-fd6439af5772","system_id":"levelo_inurba_marseille","lat":43.29023,"lon":5.38152,"is_reserved":false,"is_disabled":false,"rental_uris":{"android":"levelo://app?vid=48688b5d-bd39-4706-8acb-fd6439af5772","ios":"levelo://app?vid=48688b5d-bd39-4706-8acb-fd6439af5772"},"vehicle_type_id":"4","last_reported":1752358177,"current_range_meters":12000,"station_id":"ce4bh4p2rcd13ifvqe1g","pricing_plan_id":"cebpf4jnsgd1na2vs0mg"},{"bike_id":"f18db782-201e-4e02-9468-2a81d86bd33d","system_id":"levelo_inurba_marseille","lat":43.284241,"lon":5.375234,"is_reserved":false,"is_disabled":false,"rental_uris":{"android":"levelo://app?vid=f18db782-201e-4e02-9468-2a81d86bd33d","ios":"levelo://app?vid=f18db782-201e-4e02-9468-2a81d86bd33d"},"vehicle_type_id":"4","last_reported":1752358177,"current_range_meters":12400,"station_id":"","pricing_plan_id":"cebpf4jnsgd1na2vs0mg"},{"bike_id":"ad3a92a9-aac6-4694-a2f3-20c935fef2b6","system_id":"levelo_inurba_marseille","lat":43.292986,"lon":5.374656,"is_reserved":false,"is_disabled":false,"rental_uris":{"android":"levelo://app?vid=ad3a92a9-aac6-4694-a2f3-20c935fef2b6","ios":"levelo://app?vid=ad3a92a9-aac6-4694-a2f3-20c935fef2b6"},"vehicle_type_id":"4","last_reported":1752358177,"current_range_meters":12400,"station_id":"","pricing_plan_id":"cebpf4jnsgd1na2vs0mg"},{"bike_id":"5bbda851-d70d-46ec-89a2-e0e55c3fc47e","system_id":"levelo_inurba_marseille","lat":43.27997,"lon":5.41665,"is_reserved":false,"is_disabled":false,"rental_uris":{"android":"levelo://app?vid=5bbda851-d70d-46ec-89a2-e0e55c3fc47e","ios":"levelo://app?vid=5bbda851-d70d-46ec-89a2-e0e55c3fc47e"},"vehicle_type_id":"4","last_reported":1752358177,"current_range_meters":12400,"station_id":"ce4bho12rcd13ifvqh1g","pricing_plan_id":"cebpf4jnsgd1na2vs0mg"},{"bike_id":"470d1e9d-8c05-40b8-a6b2-039f183b9f6a","system_id":"levelo_inurba_marseille","lat":43.23186,"lon":5.35591,"is_reserved":false,"is_disabled":true,"rental_uris":{"android":"levelo://app?vid=470d1e9d-8c05-40b8-a6b2-039f183b9f6a","ios":"levelo://app?vid=470d1e9d-8c05-40b8-a6b2-039f183b9f6a"},"vehicle_type_id":"4","last_reported":1752358177,"current_range_meters":12400,"station_id":"ce4bhu92rcd13ifvqi70","pricing_plan_id":"cebpf4jnsgd1na2vs0mg"},{"bike_id":"dec0260e-662d-4be0-bc35-d8d0072aa468","system_id":"levelo_inurba_marseille","lat":43.29518,"lon":5.39424,"is_reserved":false,"is_disabled":false,"rental_uris":{"android":"levelo://app?vid=dec0260e-662d-4be0-bc35-d8d0072aa468","ios":"levelo://app?vid=dec0260e-662d-4be0-bc35-d8d0072aa468"},"vehicle_type_id":"4","last_reported":1752358177,"current_range_meters":12800,"station_id":"ce4bh292rcd13ifvqdf0","pricing_plan_id":"cebpf4jnsgd1na2vs0mg"},{"bike_id":"9471d8bb-6c3d-4139-b3ba-adc6971d30b0","system_id":"levelo_inurba_marseille","lat":43.30589,"lon":5.3936,"is_reserved":false,"is_disabled":false,"rental_uris":{"android":"levelo://app?vid=9471d8bb-6c3d-4139-b3ba-adc6971d30b0","ios":"levelo://app?vid=9471d8bb-6c3d-4139-b3ba-adc6971d30b0"},"vehicle_type_id":"4","last_reported":1752358177,"current_range_meters":12800,"station_id":"ce4bh0p2rcd13ifvqd80","pricing_plan_id":"cebpf4jnsgd1na2vs0mg"},{"bike_id":"7f02047d-a6cd-43f4-a617-996f2b9a8bc8","system_id":"levelo_inurba_marseille","lat":43.32361,"lon":5.36632,"is_reserved":false,"is_disabled":false,"rental_uris":{"android":"levelo://app?vid=7f02047d-a6cd-43f4-a617-996f2b9a8bc8","ios":"levelo://app?vid=7f02047d-a6cd-43f4-a617-996f2b9a8bc8"},"vehicle_type_id":"4","last_reported":1752358177,"current_range_meters":12800,"station_id":"","pricing_plan_id":"cebpf4jnsgd1na2vs0mg"},{"bike_id":"df8e936a-43b5-40f2-92f6-676f48754eb7","system_id":"levelo_inurba_marseille","lat":43.29012,"lon":5.38133,"is_reserved":false,"is_disabled":false,"rental_uris":{"android":"levelo://app?vid=df8e936a-43b5-40f2-92f6-676f48754eb7","ios":"levelo://app?vid=df8e936a-43b5-40f2-92f6-676f48754eb7"},"vehicle_type_id":"4","last_reported":1752358177,"current_range_meters":12800,"station_id":"ce4bh4p2rcd13ifvqe1g","pricing_plan_id":"cebpf4jnsgd1na2vs0mg"},{"bike_id":"9c85baa2-5833-4972-82c9-b6736d6fbd21","system_id":"levelo_inurba_marseille","lat":43.298725,"lon":5.3974,"is_reserved":false,"is_disabled":false,"rental_uris":{"android":"levelo://app?vid=9c85baa2-5833-4972-82c9-b6736d6fbd21","ios":"levelo://app?vid=9c85baa2-5833-4972-82c9-b6736d6fbd21"},"vehicle_type_id":"4","last_reported":1752358177,"current_range_meters":12800,"station_id":"ce4bh0h2rcd13ifvqd50","pricing_plan_id":"cebpf4jnsgd1na2vs0mg"},{"bike_id":"3f2f54ea-4770-4590-b19e-824f4e2eec26","system_id":"levelo_inurba_marseille","lat":43.26029,"lon":5.37556,"is_reserved":false,"is_disabled":false,"rental_uris":{"android":"levelo://app?vid=3f2f54ea-4770-4590-b19e-824f4e2eec26","ios":"levelo://app?vid=3f2f54ea-4770-4590-b19e-824f4e2eec26"},"vehicle_type_id":"4","last_reported":1752358177,"current_range_meters":12800,"station_id":"ce4bhgh2rcd13ifvqfa0","pricing_plan_id":"cebpf4jnsgd1na2vs0mg"},{"bike_id":"7bb2812a-b96e-400f-831c-7b8a97727eef","system_id":"levelo_inurba_marseille","lat":43.31696,"lon":5.37813,"is_reserved":false,"is_disabled":false,"rental_uris":{"android":"levelo://app?vid=7bb2812a-b96e-400f-831c-7b8a97727eef","ios":"levelo://app?vid=7bb2812a-b96e-400f-831c-7b8a97727eef"},"vehicle_type_id":"4","last_reported":1752358177,"current_range_meters":13600,"station_id":"","pricing_plan_id":"cebpf4jnsgd1na2vs0mg"},{"bike_id":"297f7a4d-6e86-4c62-9995-41f8589188c2","system_id":"levelo_inurba_marseille","lat":43.292723,"lon":5.384505,"is_reserved":false,"is_disabled":false,"rental_uris":{"android":"levelo://app?vid=297f7a4d-6e86-4c62-9995-41f8589188c2","ios":"levelo://app?vid=297f7a4d-6e86-4c62-9995-41f8589188c2"},"vehicle_type_id":"4","last_reported":1752358177,"current_range_meters":13600,"station_id":"ce4bh692rcd13ifvqea0","pricing_plan_id":"cebpf4jnsgd1na2vs0mg"},{"bike_id":"383a2485-518e-4235-b1cd-0ebf65ba74a5","system_id":"levelo_inurba_marseille","lat":43.29543,"lon":5.38576,"is_reserved":false,"is_disabled":true,"rental_uris":{"android":"levelo://app?vid=383a2485-518e-4235-b1cd-0ebf65ba74a5","ios":"levelo://app?vid=383a2485-518e-4235-b1cd-0ebf65ba74a5"},"vehicle_type_id":"4","last_reported":1752358177,"current_range_meters":13600,"station_id":"ce4bgih2rcd13ifvqba0","pricing_plan_id":"cebpf4jnsgd1na2vs0mg"},{"bike_id":"d3a6e38c-d49f-4352-88a6-de4e89f5067a","system_id":"levelo_inurba_marseille","lat":43.26231,"lon":5.40467,"is_reserved":false,"is_disabled":false,"rental_uris":{"android":"levelo://app?vid=d3a6e38c-d49f-4352-88a6-de4e89f5067a","ios":"levelo://app?vid=d3a6e38c-d49f-4352-88a6-de4e89f5067a"},"vehicle_type_id":"4","last_reported":1752358177,"current_range_meters":13600,"station_id":"ce4bhmh2rcd13ifvqgmg","pricing_plan_id":"cebpf4jnsgd1na2vs0mg"},{"bike_id":"2c01c085-a118-4b6b-9ba6-2000ce1f20ec","system_id":"levelo_inurba_marseille","lat":43.28707,"lon":5.37938,"is_reserved":false,"is_disabled":false,"rental_uris":{"android":"levelo://app?vid=2c01c085-a118-4b6b-9ba6-2000ce1f20ec","ios":"levelo://app?vid=2c01c085-a118-4b6b-9ba6-2000ce1f20ec"},"vehicle_type_id":"4","last_reported":1752358177,"current_range_meters":13600,"station_id":"ce4bh9p2rcd13ifvqec0","pricing_plan_id":"cebpf4jnsgd1na2vs0mg"},{"bike_id":"a311fa59-4ff8-48ea-b2f7-950598a9229d","system_id":"levelo_inurba_marseille","lat":43.25496,"lon":5.37649,"is_reserved":false,"is_disabled":false,"rental_uris":{"android":"levelo://app?vid=a311fa59-4ff8-48ea-b2f7-950598a9229d","ios":"levelo://app?vid=a311fa59-4ff8-48ea-b2f7-950598a9229d"},"vehicle_type_id":"4","last_reported":1752358177,"current_range_meters":12800,"station_id":"ce4bhh12rcd13ifvqff0","pricing_plan_id":"cebpf4jnsgd1na2vs0mg"},{"bike_id":"737ead6f-e608-42f1-8a55-8949c954e8e3","system_id":"levelo_inurba_marseille","lat":43.21209,"lon":5.35088,"is_reserved":false,"is_disabled":false,"rental_uris":{"android":"levelo://app?vid=737ead6f-e608-42f1-8a55-8949c954e8e3","ios":"levelo://app?vid=737ead6f-e608-42f1-8a55-8949c954e8e3"},"vehicle_type_id":"4","last_reported":1752358177,"current_range_meters":13600,"station_id":"st_cvj6sg6p6f1abm77japg","pricing_plan_id":"cebpf4jnsgd1na2vs0mg"},{"bike_id":"51890362-46b0-4ee7-9f02-afbf036d064e","system_id":"levelo_inurba_marseille","lat":43.21191,"lon":5.35071,"is_reserved":false,"is_disabled":false,"rental_uris":{"android":"levelo://app?vid=51890362-46b0-4ee7-9f02-afbf036d064e","ios":"levelo://app?vid=51890362-46b0-4ee7-9f02-afbf036d064e"},"vehicle_type_id":"4","last_reported":1752358177,"current_range_meters":14000,"station_id":"st_cvj6sg6p6f1abm77japg","pricing_plan_id":"cebpf4jnsgd1na2vs0mg"},{"bike_id":"49801dc2-618a-44b8-84ae-416cd87fdbe9","system_id":"levelo_inurba_marseille","lat":43.33753,"lon":5.37472,"is_reserved":false,"is_disabled":false,"rental_uris":{"android":"levelo://app?vid=49801dc2-618a-44b8-84ae-416cd87fdbe9","ios":"levelo://app?vid=49801dc2-618a-44b8-84ae-416cd87fdbe9"},"vehicle_type_id":"4","last_reported":1752358177,"current_range_meters":14000,"station_id":"","pricing_plan_id":"cebpf4jnsgd1na2vs0mg"},{"bike_id":"58e32a4d-ba2a-42fe-9371-16390cf31560","system_id":"levelo_inurba_marseille","lat":43.28403,"lon":5.3752,"is_reserved":false,"is_disabled":false,"rental_uris":{"android":"levelo://app?vid=58e32a4d-ba2a-42fe-9371-16390cf31560","ios":"levelo://app?vid=58e32a4d-ba2a-42fe-9371-16390cf31560"},"vehicle_type_id":"4","last_reported":1752358177,"current_range_meters":14000,"station_id":"ce4bh412rcd13ifvqds0","pricing_plan_id":"cebpf4jnsgd1na2vs0mg"},{"bike_id":"f7dc1b16-8589-42dd-bab8-acdf099cffd1","system_id":"levelo_inurba_marseille","lat":43.30732,"lon":5.42437,"is_reserved":false,"is_disabled":false,"rental_uris":{"android":"levelo://app?vid=f7dc1b16-8589-42dd-bab8-acdf099cffd1","ios":"levelo://app?vid=f7dc1b16-8589-42dd-bab8-acdf099cffd1"},"vehicle_type_id":"4","last_reported":1752358177,"current_range_meters":14400,"station_id":"st_cvj6ca6bvosntc0bfgr0","pricing_plan_id":"cebpf4jnsgd1na2vs0mg"},{"bike_id":"3752bc88-2238-447d-95af-fa4691da2f91","system_id":"levelo_inurba_marseille","lat":43.30638,"lon":5.40091,"is_reserved":false,"is_disabled":false,"rental_uris":{"android":"levelo://app?vid=3752bc88-2238-447d-95af-fa4691da2f91","ios":"levelo://app?vid=3752bc88-2238-447d-95af-fa4691da2f91"},"vehicle_type_id":"4","last_reported":1752358177,"current_range_meters":14400,"station_id":"ce4bh112rcd13ifvqda0","pricing_plan_id":"cebpf4jnsgd1na2vs0mg"},{"bike_id":"ff12513b-478c-4f81-9d13-9e238175c660","system_id":"levelo_inurba_marseille","lat":43.29531,"lon":5.38562,"is_reserved":false,"is_disabled":false,"rental_uris":{"android":"levelo://app?vid=ff12513b-478c-4f81-9d13-9e238175c660","ios":"levelo://app?vid=ff12513b-478c-4f81-9d13-9e238175c660"},"vehicle_type_id":"4","last_reported":1752358177,"current_range_meters":14400,"station_id":"ce4bgih2rcd13ifvqba0","pricing_plan_id":"cebpf4jnsgd1na2vs0mg"},{"bike_id":"a0137104-c9f4-434a-a5e3-80725cd5a2b4","system_id":"levelo_inurba_marseille","lat":43.21204,"lon":5.35073,"is_reserved":false,"is_disabled":false,"rental_uris":{"android":"levelo://app?vid=a0137104-c9f4-434a-a5e3-80725cd5a2b4","ios":"levelo://app?vid=a0137104-c9f4-434a-a5e3-80725cd5a2b4"},"vehicle_type_id":"4","last_reported":1752358177,"current_range_meters":14400,"station_id":"st_cvj6sg6p6f1abm77japg","pricing_plan_id":"cebpf4jnsgd1na2vs0mg"},{"bike_id":"1448e6d0-474d-475d-af49-1be6ba8620db","system_id":"levelo_inurba_marseille","lat":43.3211,"lon":5.36773,"is_reserved":false,"is_disabled":false,"rental_uris":{"android":"levelo://app?vid=1448e6d0-474d-475d-af49-1be6ba8620db","ios":"levelo://app?vid=1448e6d0-474d-475d-af49-1be6ba8620db"},"vehicle_type_id":"4","last_reported":1752358177,"current_range_meters":14400,"station_id":"ce4bhrh2rcd13ifvqhug","pricing_plan_id":"cebpf4jnsgd1na2vs0mg"},{"bike_id":"ccc3e868-99cb-4e41-a4b5-ae85386271e5","system_id":"levelo_inurba_marseille","lat":43.31053,"lon":5.38347,"is_reserved":false,"is_disabled":false,"rental_uris":{"android":"levelo://app?vid=ccc3e868-99cb-4e41-a4b5-ae85386271e5","ios":"levelo://app?vid=ccc3e868-99cb-4e41-a4b5-ae85386271e5"},"vehicle_type_id":"4","last_reported":1752358177,"current_range_meters":14800,"station_id":"ce4bgv92rcd13ifvqcr0","pricing_plan_id":"cebpf4jnsgd1na2vs0mg"},{"bike_id":"00bc0b3b-e317-4a17-a011-a3a9a29d816a","system_id":"levelo_inurba_marseille","lat":43.211937,"lon":5.350709,"is_reserved":false,"is_disabled":false,"rental_uris":{"android":"levelo://app?vid=00bc0b3b-e317-4a17-a011-a3a9a29d816a","ios":"levelo://app?vid=00bc0b3b-e317-4a17-a011-a3a9a29d816a"},"vehicle_type_id":"4","last_reported":1752358177,"current_range_meters":14800,"station_id":"st_cvj6sg6p6f1abm77japg","pricing_plan_id":"cebpf4jnsgd1na2vs0mg"},{"bike_id":"4ab460f6-2b13-462f-a8b8-8ee3ec6489ea","system_id":"levelo_inurba_marseille","lat":43.26213,"lon":5.40427,"is_reserved":false,"is_disabled":false,"rental_uris":{"android":"levelo://app?vid=4ab460f6-2b13-462f-a8b8-8ee3ec6489ea","ios":"levelo://app?vid=4ab460f6-2b13-462f-a8b8-8ee3ec6489ea"},"vehicle_type_id":"4","last_reported":1752358177,"current_range_meters":14800,"station_id":"ce4bhmh2rcd13ifvqgmg","pricing_plan_id":"cebpf4jnsgd1na2vs0mg"},{"bike_id":"d7d851de-d966-47dc-9bd8-1a9ae0c433a4","system_id":"levelo_inurba_marseille","lat":43.22517,"lon":5.34816,"is_reserved":false,"is_disabled":false,"rental_uris":{"android":"levelo://app?vid=d7d851de-d966-47dc-9bd8-1a9ae0c433a4","ios":"levelo://app?vid=d7d851de-d966-47dc-9bd8-1a9ae0c433a4"},"vehicle_type_id":"4","last_reported":1752358177,"current_range_meters":14800,"station_id":"st_cvj5dfep6f1abm77gieg","pricing_plan_id":"cebpf4jnsgd1na2vs0mg"},{"bike_id":"854d5dbd-9ed2-47cd-9380-9348e08a193d","system_id":"levelo_inurba_marseille","lat":43.29927,"lon":5.37481,"is_reserved":false,"is_disabled":false,"rental_uris":{"android":"levelo://app?vid=854d5dbd-9ed2-47cd-9380-9348e08a193d","ios":"levelo://app?vid=854d5dbd-9ed2-47cd-9380-9348e08a193d"},"vehicle_type_id":"4","last_reported":1752358177,"current_range_meters":15200,"station_id":"ce4bgjh2rcd13ifvqbg0","pricing_plan_id":"cebpf4jnsgd1na2vs0mg"},{"bike_id":"ca44932d-511f-4094-86ba-7f947ba54e70","system_id":"levelo_inurba_marseille","lat":43.28678,"lon":5.38662,"is_reserved":false,"is_disabled":false,"rental_uris":{"android":"levelo://app?vid=ca44932d-511f-4094-86ba-7f947ba54e70","ios":"levelo://app?vid=ca44932d-511f-4094-86ba-7f947ba54e70"},"vehicle_type_id":"4","last_reported":1752358177,"current_range_meters":15200,"station_id":"ce4bh492rcd13ifvqdug","pricing_plan_id":"cebpf4jnsgd1na2vs0mg"},{"bike_id":"0445c753-264d-4d08-b4f9-ee3ab7e662c6","system_id":"levelo_inurba_marseille","lat":43.292725,"lon":5.368383,"is_reserved":false,"is_disabled":false,"rental_uris":{"android":"levelo://app?vid=0445c753-264d-4d08-b4f9-ee3ab7e662c6","ios":"levelo://app?vid=0445c753-264d-4d08-b4f9-ee3ab7e662c6"},"vehicle_type_id":"4","last_reported":1752358177,"current_range_meters":15200,"station_id":"","pricing_plan_id":"cebpf4jnsgd1na2vs0mg"},{"bike_id":"016a0553-daa1-434d-8dba-ff1fbded5db8","system_id":"levelo_inurba_marseille","lat":43.22503,"lon":5.34783,"is_reserved":false,"is_disabled":false,"rental_uris":{"android":"levelo://app?vid=016a0553-daa1-434d-8dba-ff1fbded5db8","ios":"levelo://app?vid=016a0553-daa1-434d-8dba-ff1fbded5db8"},"vehicle_type_id":"4","last_reported":1752358177,"current_range_meters":15200,"station_id":"st_cvj5dfep6f1abm77gieg","pricing_plan_id":"cebpf4jnsgd1na2vs0mg"},{"bike_id":"fd4ea8a4-19a2-471d-a213-096f14af8bf9","system_id":"levelo_inurba_marseille","lat":43.29269,"lon":5.38444,"is_reserved":false,"is_disabled":false,"rental_uris":{"android":"levelo://app?vid=fd4ea8a4-19a2-471d-a213-096f14af8bf9","ios":"levelo://app?vid=fd4ea8a4-19a2-471d-a213-096f14af8bf9"},"vehicle_type_id":"4","last_reported":1752358177,"current_range_meters":15200,"station_id":"ce4bh692rcd13ifvqea0","pricing_plan_id":"cebpf4jnsgd1na2vs0mg"},{"bike_id":"63462b46-5a3a-4b23-a1a5-06e57c79e01a","system_id":"levelo_inurba_marseille","lat":43.29531,"lon":5.38546,"is_reserved":false,"is_disabled":false,"rental_uris":{"android":"levelo://app?vid=63462b46-5a3a-4b23-a1a5-06e57c79e01a","ios":"levelo://app?vid=63462b46-5a3a-4b23-a1a5-06e57c79e01a"},"vehicle_type_id":"4","last_reported":1752358177,"current_range_meters":15200,"station_id":"ce4bgih2rcd13ifvqba0","pricing_plan_id":"cebpf4jnsgd1na2vs0mg"},{"bike_id":"4a1728f3-c94a-4caf-a0d2-41cf27fc8f31","system_id":"levelo_inurba_marseille","lat":43.24166,"lon":5.36402,"is_reserved":false,"is_disabled":false,"rental_uris":{"android":"levelo://app?vid=4a1728f3-c94a-4caf-a0d2-41cf27fc8f31","ios":"levelo://app?vid=4a1728f3-c94a-4caf-a0d2-41cf27fc8f31"},"vehicle_type_id":"4","last_reported":1752358177,"current_range_meters":15200,"station_id":"cpo36qri1sfpv3e86is0","pricing_plan_id":"cebpf4jnsgd1na2vs0mg"},{"bike_id":"8b37f03f-f226-4bbc-8648-b109da7ba145","system_id":"levelo_inurba_marseille","lat":43.30536,"lon":5.366999,"is_reserved":false,"is_disabled":false,"rental_uris":{"android":"levelo://app?vid=8b37f03f-f226-4bbc-8648-b109da7ba145","ios":"levelo://app?vid=8b37f03f-f226-4bbc-8648-b109da7ba145"},"vehicle_type_id":"4","last_reported":1752358177,"current_range_meters":15200,"station_id":"","pricing_plan_id":"cebpf4jnsgd1na2vs0mg"},{"bike_id":"54c42649-7aa4-4934-92f3-a23a386f7d15","system_id":"levelo_inurba_marseille","lat":43.24175,"lon":5.36407,"is_reserved":false,"is_disabled":false,"rental_uris":{"android":"levelo://app?vid=54c42649-7aa4-4934-92f3-a23a386f7d15","ios":"levelo://app?vid=54c42649-7aa4-4934-92f3-a23a386f7d15"},"vehicle_type_id":"4","last_reported":1752358177,"current_range_meters":15200,"station_id":"cpo36qri1sfpv3e86is0","pricing_plan_id":"cebpf4jnsgd1na2vs0mg"},{"bike_id":"f23760ff-ab61-4853-aa67-28aac93822c1","system_id":"levelo_inurba_marseille","lat":43.337444,"lon":5.374475,"is_reserved":false,"is_disabled":false,"rental_uris":{"android":"levelo://app?vid=f23760ff-ab61-4853-aa67-28aac93822c1","ios":"levelo://app?vid=f23760ff-ab61-4853-aa67-28aac93822c1"},"vehicle_type_id":"4","last_reported":1752358177,"current_range_meters":15200,"station_id":"","pricing_plan_id":"cebpf4jnsgd1na2vs0mg"},{"bike_id":"d3eb6ebc-944c-4672-ad0e-46dbd50d6295","system_id":"levelo_inurba_marseille","lat":43.26231,"lon":5.37459,"is_reserved":false,"is_disabled":false,"rental_uris":{"android":"levelo://app?vid=d3eb6ebc-944c-4672-ad0e-46dbd50d6295","ios":"levelo://app?vid=d3eb6ebc-944c-4672-ad0e-46dbd50d6295"},"vehicle_type_id":"4","last_reported":1752358177,"current_range_meters":15200,"station_id":"ce4bhgp2rcd13ifvqfc0","pricing_plan_id":"cebpf4jnsgd1na2vs0mg"},{"bike_id":"b105f991-1563-4fc4-9371-7364ce9b8c80","system_id":"levelo_inurba_marseille","lat":43.287285,"lon":5.395579,"is_reserved":false,"is_disabled":false,"rental_uris":{"android":"levelo://app?vid=b105f991-1563-4fc4-9371-7364ce9b8c80","ios":"levelo://app?vid=b105f991-1563-4fc4-9371-7364ce9b8c80"},"vehicle_type_id":"4","last_reported":1752358177,"current_range_meters":15200,"station_id":"","pricing_plan_id":"cebpf4jnsgd1na2vs0mg"},{"bike_id":"31f76825-7b9f-439a-a66c-521eb63e58c1","system_id":"levelo_inurba_marseille","lat":43.29458,"lon":5.43855,"is_reserved":false,"is_disabled":false,"rental_uris":{"android":"levelo://app?vid=31f76825-7b9f-439a-a66c-521eb63e58c1","ios":"levelo://app?vid=31f76825-7b9f-439a-a66c-521eb63e58c1"},"vehicle_type_id":"4","last_reported":1752358177,"current_range_meters":15200,"station_id":"","pricing_plan_id":"cebpf4jnsgd1na2vs0mg"},{"bike_id":"5d2e7aad-0a21-4598-93c2-a1d014fc322f","system_id":"levelo_inurba_marseille","lat":43.24178,"lon":5.39732,"is_reserved":false,"is_disabled":false,"rental_uris":{"android":"levelo://app?vid=5d2e7aad-0a21-4598-93c2-a1d014fc322f","ios":"levelo://app?vid=5d2e7aad-0a21-4598-93c2-a1d014fc322f"},"vehicle_type_id":"4","last_reported":1752358177,"current_range_meters":16000,"station_id":"ce4bhn12rcd13ifvqgpg","pricing_plan_id":"cebpf4jnsgd1na2vs0mg"},{"bike_id":"4100bc4f-2218-4922-9dc2-ac7a30b24292","system_id":"levelo_inurba_marseille","lat":43.2953,"lon":5.38567,"is_reserved":false,"is_disabled":false,"rental_uris":{"android":"levelo://app?vid=4100bc4f-2218-4922-9dc2-ac7a30b24292","ios":"levelo://app?vid=4100bc4f-2218-4922-9dc2-ac7a30b24292"},"vehicle_type_id":"4","last_reported":1752358177,"current_range_meters":16000,"station_id":"ce4bgih2rcd13ifvqba0","pricing_plan_id":"cebpf4jnsgd1na2vs0mg"},{"bike_id":"e34f5d7d-0125-44e4-b2d1-8a57ed3ee9a0","system_id":"levelo_inurba_marseille","lat":43.26058,"lon":5.37553,"is_reserved":false,"is_disabled":false,"rental_uris":{"android":"levelo://app?vid=e34f5d7d-0125-44e4-b2d1-8a57ed3ee9a0","ios":"levelo://app?vid=e34f5d7d-0125-44e4-b2d1-8a57ed3ee9a0"},"vehicle_type_id":"4","last_reported":1752358177,"current_range_meters":16000,"station_id":"ce4bhgh2rcd13ifvqfa0","pricing_plan_id":"cebpf4jnsgd1na2vs0mg"},{"bike_id":"cbd3cbb3-a3d9-4c52-8d8a-b0a35699f699","system_id":"levelo_inurba_marseille","lat":43.27581,"lon":5.36137,"is_reserved":false,"is_disabled":false,"rental_uris":{"android":"levelo://app?vid=cbd3cbb3-a3d9-4c52-8d8a-b0a35699f699","ios":"levelo://app?vid=cbd3cbb3-a3d9-4c52-8d8a-b0a35699f699"},"vehicle_type_id":"4","last_reported":1752358177,"current_range_meters":16000,"station_id":"","pricing_plan_id":"cebpf4jnsgd1na2vs0mg"},{"bike_id":"9a72d1fd-ba0d-40b8-85c2-0a32bee82c5a","system_id":"levelo_inurba_marseille","lat":43.28584,"lon":5.40238,"is_reserved":false,"is_disabled":false,"rental_uris":{"android":"levelo://app?vid=9a72d1fd-ba0d-40b8-85c2-0a32bee82c5a","ios":"levelo://app?vid=9a72d1fd-ba0d-40b8-85c2-0a32bee82c5a"},"vehicle_type_id":"4","last_reported":1752358177,"current_range_meters":16000,"station_id":"","pricing_plan_id":"cebpf4jnsgd1na2vs0mg"},{"bike_id":"6d3f299a-d341-49bc-a1f9-7534528d9b67","system_id":"levelo_inurba_marseille","lat":43.23191,"lon":5.35571,"is_reserved":false,"is_disabled":false,"rental_uris":{"android":"levelo://app?vid=6d3f299a-d341-49bc-a1f9-7534528d9b67","ios":"levelo://app?vid=6d3f299a-d341-49bc-a1f9-7534528d9b67"},"vehicle_type_id":"4","last_reported":1752358177,"current_range_meters":16400,"station_id":"ce4bhu92rcd13ifvqi70","pricing_plan_id":"cebpf4jnsgd1na2vs0mg"},{"bike_id":"844b44b6-4e33-4917-878d-a3c647561239","system_id":"levelo_inurba_marseille","lat":43.30777,"lon":5.42464,"is_reserved":false,"is_disabled":false,"rental_uris":{"android":"levelo://app?vid=844b44b6-4e33-4917-878d-a3c647561239","ios":"levelo://app?vid=844b44b6-4e33-4917-878d-a3c647561239"},"vehicle_type_id":"4","last_reported":1752358177,"current_range_meters":16400,"station_id":"","pricing_plan_id":"cebpf4jnsgd1na2vs0mg"},{"bike_id":"4b8da722-ee9e-48a4-a5e5-3a8a10364708","system_id":"levelo_inurba_marseille","lat":43.31253,"lon":5.37813,"is_reserved":false,"is_disabled":false,"rental_uris":{"android":"levelo://app?vid=4b8da722-ee9e-48a4-a5e5-3a8a10364708","ios":"levelo://app?vid=4b8da722-ee9e-48a4-a5e5-3a8a10364708"},"vehicle_type_id":"4","last_reported":1752358177,"current_range_meters":16400,"station_id":"","pricing_plan_id":"cebpf4jnsgd1na2vs0mg"},{"bike_id":"531e4cf2-41fe-459c-b43c-b1bb20926426","system_id":"levelo_inurba_marseille","lat":43.25499,"lon":5.37652,"is_reserved":false,"is_disabled":false,"rental_uris":{"android":"levelo://app?vid=531e4cf2-41fe-459c-b43c-b1bb20926426","ios":"levelo://app?vid=531e4cf2-41fe-459c-b43c-b1bb20926426"},"vehicle_type_id":"4","last_reported":1752358177,"current_range_meters":16400,"station_id":"ce4bhh12rcd13ifvqff0","pricing_plan_id":"cebpf4jnsgd1na2vs0mg"},{"bike_id":"e2ce6e8a-ef9f-4211-8776-042780e4931d","system_id":"levelo_inurba_marseille","lat":43.28428,"lon":5.34985,"is_reserved":false,"is_disabled":true,"rental_uris":{"android":"levelo://app?vid=e2ce6e8a-ef9f-4211-8776-042780e4931d","ios":"levelo://app?vid=e2ce6e8a-ef9f-4211-8776-042780e4931d"},"vehicle_type_id":"4","last_reported":1752358177,"current_range_meters":16400,"station_id":"ce4bhbh2rcd13ifvqepg","pricing_plan_id":"cebpf4jnsgd1na2vs0mg"},{"bike_id":"77da523b-ace4-4d05-9e20-7148788972a6","system_id":"levelo_inurba_marseille","lat":43.31712,"lon":5.37745,"is_reserved":false,"is_disabled":false,"rental_uris":{"android":"levelo://app?vid=77da523b-ace4-4d05-9e20-7148788972a6","ios":"levelo://app?vid=77da523b-ace4-4d05-9e20-7148788972a6"},"vehicle_type_id":"4","last_reported":1752358177,"current_range_meters":16400,"station_id":"ce4bgth2rcd13ifvqch0","pricing_plan_id":"cebpf4jnsgd1na2vs0mg"},{"bike_id":"40e17277-ff35-4a59-a20b-0c82eea17cd4","system_id":"levelo_inurba_marseille","lat":43.26189,"lon":5.37452,"is_reserved":false,"is_disabled":false,"rental_uris":{"android":"levelo://app?vid=40e17277-ff35-4a59-a20b-0c82eea17cd4","ios":"levelo://app?vid=40e17277-ff35-4a59-a20b-0c82eea17cd4"},"vehicle_type_id":"4","last_reported":1752358177,"current_range_meters":16400,"station_id":"ce4bhgp2rcd13ifvqfc0","pricing_plan_id":"cebpf4jnsgd1na2vs0mg"},{"bike_id":"c1d0629c-eaee-41e7-8c10-68b0ec1b077d","system_id":"levelo_inurba_marseille","lat":43.32754,"lon":5.39111,"is_reserved":false,"is_disabled":false,"rental_uris":{"android":"levelo://app?vid=c1d0629c-eaee-41e7-8c10-68b0ec1b077d","ios":"levelo://app?vid=c1d0629c-eaee-41e7-8c10-68b0ec1b077d"},"vehicle_type_id":"4","last_reported":1752358177,"current_range_meters":16400,"station_id":"","pricing_plan_id":"cebpf4jnsgd1na2vs0mg"},{"bike_id":"e66ee905-703d-41bd-bfbc-aba444f0e44b","system_id":"levelo_inurba_marseille","lat":43.28931,"lon":5.3666,"is_reserved":false,"is_disabled":false,"rental_uris":{"android":"levelo://app?vid=e66ee905-703d-41bd-bfbc-aba444f0e44b","ios":"levelo://app?vid=e66ee905-703d-41bd-bfbc-aba444f0e44b"},"vehicle_type_id":"4","last_reported":1752358177,"current_range_meters":16400,"station_id":"ce4bhap2rcd13ifvqek0","pricing_plan_id":"cebpf4jnsgd1na2vs0mg"},{"bike_id":"44fa6e38-0925-4458-8c8f-bdce3c203299","system_id":"levelo_inurba_marseille","lat":43.29259,"lon":5.38451,"is_reserved":false,"is_disabled":false,"rental_uris":{"android":"levelo://app?vid=44fa6e38-0925-4458-8c8f-bdce3c203299","ios":"levelo://app?vid=44fa6e38-0925-4458-8c8f-bdce3c203299"},"vehicle_type_id":"4","last_reported":1752358177,"current_range_meters":16400,"station_id":"ce4bh692rcd13ifvqea0","pricing_plan_id":"cebpf4jnsgd1na2vs0mg"},{"bike_id":"cfbb5f19-387e-422e-94ae-244cc1b71021","system_id":"levelo_inurba_marseille","lat":43.26042,"lon":5.37523,"is_reserved":false,"is_disabled":false,"rental_uris":{"android":"levelo://app?vid=cfbb5f19-387e-422e-94ae-244cc1b71021","ios":"levelo://app?vid=cfbb5f19-387e-422e-94ae-244cc1b71021"},"vehicle_type_id":"4","last_reported":1752358177,"current_range_meters":16800,"station_id":"ce4bhgh2rcd13ifvqfa0","pricing_plan_id":"cebpf4jnsgd1na2vs0mg"},{"bike_id":"a44f68aa-b920-4eb6-845e-df1183944a6b","system_id":"levelo_inurba_marseille","lat":43.28576,"lon":5.35075,"is_reserved":false,"is_disabled":true,"rental_uris":{"android":"levelo://app?vid=a44f68aa-b920-4eb6-845e-df1183944a6b","ios":"levelo://app?vid=a44f68aa-b920-4eb6-845e-df1183944a6b"},"vehicle_type_id":"4","last_reported":1752358177,"current_range_meters":16800,"station_id":"","pricing_plan_id":"cebpf4jnsgd1na2vs0mg"},{"bike_id":"b8cd8c38-4d88-48b2-abb3-ece961dbda2a","system_id":"levelo_inurba_marseille","lat":43.30635,"lon":5.4007,"is_reserved":false,"is_disabled":false,"rental_uris":{"android":"levelo://app?vid=b8cd8c38-4d88-48b2-abb3-ece961dbda2a","ios":"levelo://app?vid=b8cd8c38-4d88-48b2-abb3-ece961dbda2a"},"vehicle_type_id":"4","last_reported":1752358177,"current_range_meters":16800,"station_id":"ce4bh112rcd13ifvqda0","pricing_plan_id":"cebpf4jnsgd1na2vs0mg"},{"bike_id":"df40f023-f13c-49b0-b949-77aa55e16bc6","system_id":"levelo_inurba_marseille","lat":43.26203,"lon":5.37455,"is_reserved":false,"is_disabled":false,"rental_uris":{"android":"levelo://app?vid=df40f023-f13c-49b0-b949-77aa55e16bc6","ios":"levelo://app?vid=df40f023-f13c-49b0-b949-77aa55e16bc6"},"vehicle_type_id":"4","last_reported":1752358177,"current_range_meters":16800,"station_id":"ce4bhgp2rcd13ifvqfc0","pricing_plan_id":"cebpf4jnsgd1na2vs0mg"},{"bike_id":"9af1806c-bd1c-441a-ab20-c42003c1d90d","system_id":"levelo_inurba_marseille","lat":43.24993,"lon":5.38937,"is_reserved":false,"is_disabled":false,"rental_uris":{"android":"levelo://app?vid=9af1806c-bd1c-441a-ab20-c42003c1d90d","ios":"levelo://app?vid=9af1806c-bd1c-441a-ab20-c42003c1d90d"},"vehicle_type_id":"4","last_reported":1752358177,"current_range_meters":16800,"station_id":"ce4bhgp2rcd13ifvqfd0","pricing_plan_id":"cebpf4jnsgd1na2vs0mg"},{"bike_id":"867d98f5-c689-4b8c-88dc-bb0a55b1f9f4","system_id":"levelo_inurba_marseille","lat":43.29536,"lon":5.38537,"is_reserved":false,"is_disabled":false,"rental_uris":{"android":"levelo://app?vid=867d98f5-c689-4b8c-88dc-bb0a55b1f9f4","ios":"levelo://app?vid=867d98f5-c689-4b8c-88dc-bb0a55b1f9f4"},"vehicle_type_id":"4","last_reported":1752358177,"current_range_meters":16800,"station_id":"ce4bgih2rcd13ifvqba0","pricing_plan_id":"cebpf4jnsgd1na2vs0mg"},{"bike_id":"8772c82e-fd54-4439-9047-3520b079214c","system_id":"levelo_inurba_marseille","lat":43.26557,"lon":5.3729,"is_reserved":false,"is_disabled":false,"rental_uris":{"android":"levelo://app?vid=8772c82e-fd54-4439-9047-3520b079214c","ios":"levelo://app?vid=8772c82e-fd54-4439-9047-3520b079214c"},"vehicle_type_id":"4","last_reported":1752358177,"current_range_meters":16800,"station_id":"ce4bhg12rcd13ifvqf70","pricing_plan_id":"cebpf4jnsgd1na2vs0mg"},{"bike_id":"73a60a31-7ff1-48e0-a105-342c26c54de7","system_id":"levelo_inurba_marseille","lat":43.28103,"lon":5.37856,"is_reserved":false,"is_disabled":false,"rental_uris":{"android":"levelo://app?vid=73a60a31-7ff1-48e0-a105-342c26c54de7","ios":"levelo://app?vid=73a60a31-7ff1-48e0-a105-342c26c54de7"},"vehicle_type_id":"4","last_reported":1752358177,"current_range_meters":16800,"station_id":"ce4bha12rcd13ifvqee0","pricing_plan_id":"cebpf4jnsgd1na2vs0mg"},{"bike_id":"87bee25a-a1a0-401c-94f1-d1e22c4c1b60","system_id":"levelo_inurba_marseille","lat":43.25078,"lon":5.39514,"is_reserved":false,"is_disabled":false,"rental_uris":{"android":"levelo://app?vid=87bee25a-a1a0-401c-94f1-d1e22c4c1b60","ios":"levelo://app?vid=87bee25a-a1a0-401c-94f1-d1e22c4c1b60"},"vehicle_type_id":"4","last_reported":1752358177,"current_range_meters":17200,"station_id":"ce4bhm12rcd13ifvqgkg","pricing_plan_id":"cebpf4jnsgd1na2vs0mg"},{"bike_id":"4ba7c9a6-c620-4530-868c-55eb52cdec6d","system_id":"levelo_inurba_marseille","lat":43.28696,"lon":5.39986,"is_reserved":false,"is_disabled":false,"rental_uris":{"android":"levelo://app?vid=4ba7c9a6-c620-4530-868c-55eb52cdec6d","ios":"levelo://app?vid=4ba7c9a6-c620-4530-868c-55eb52cdec6d"},"vehicle_type_id":"4","last_reported":1752358177,"current_range_meters":17200,"station_id":"ce4bho92rcd13ifvqh3g","pricing_plan_id":"cebpf4jnsgd1na2vs0mg"},{"bike_id":"a8830b52-7b57-46c5-8d4c-beadddaa5f60","system_id":"levelo_inurba_marseille","lat":43.26571,"lon":5.37321,"is_reserved":false,"is_disabled":false,"rental_uris":{"android":"levelo://app?vid=a8830b52-7b57-46c5-8d4c-beadddaa5f60","ios":"levelo://app?vid=a8830b52-7b57-46c5-8d4c-beadddaa5f60"},"vehicle_type_id":"4","last_reported":1752358177,"current_range_meters":17200,"station_id":"ce4bhg12rcd13ifvqf70","pricing_plan_id":"cebpf4jnsgd1na2vs0mg"},{"bike_id":"2afd10ce-5f23-4122-9c7a-a3416be941b2","system_id":"levelo_inurba_marseille","lat":43.2602,"lon":5.37556,"is_reserved":false,"is_disabled":true,"rental_uris":{"android":"levelo://app?vid=2afd10ce-5f23-4122-9c7a-a3416be941b2","ios":"levelo://app?vid=2afd10ce-5f23-4122-9c7a-a3416be941b2"},"vehicle_type_id":"4","last_reported":1752358177,"current_range_meters":17200,"station_id":"ce4bhgh2rcd13ifvqfa0","pricing_plan_id":"cebpf4jnsgd1na2vs0mg"},{"bike_id":"826fa7b0-d3c3-4f7b-b2e4-ca771786f4ef","system_id":"levelo_inurba_marseille","lat":43.2924,"lon":5.38446,"is_reserved":false,"is_disabled":false,"rental_uris":{"android":"levelo://app?vid=826fa7b0-d3c3-4f7b-b2e4-ca771786f4ef","ios":"levelo://app?vid=826fa7b0-d3c3-4f7b-b2e4-ca771786f4ef"},"vehicle_type_id":"4","last_reported":1752358177,"current_range_meters":17200,"station_id":"ce4bh692rcd13ifvqea0","pricing_plan_id":"cebpf4jnsgd1na2vs0mg"},{"bike_id":"00062650-3455-4d53-b9ac-6ed7239b22a3","system_id":"levelo_inurba_marseille","lat":43.28942,"lon":5.3664,"is_reserved":false,"is_disabled":false,"rental_uris":{"android":"levelo://app?vid=00062650-3455-4d53-b9ac-6ed7239b22a3","ios":"levelo://app?vid=00062650-3455-4d53-b9ac-6ed7239b22a3"},"vehicle_type_id":"4","last_reported":1752358177,"current_range_meters":17200,"station_id":"ce4bhap2rcd13ifvqek0","pricing_plan_id":"cebpf4jnsgd1na2vs0mg"},{"bike_id":"9d0e59f4-8235-4534-bde9-b4b7cbcff100","system_id":"levelo_inurba_marseille","lat":43.2995,"lon":5.41324,"is_reserved":false,"is_disabled":false,"rental_uris":{"android":"levelo://app?vid=9d0e59f4-8235-4534-bde9-b4b7cbcff100","ios":"levelo://app?vid=9d0e59f4-8235-4534-bde9-b4b7cbcff100"},"vehicle_type_id":"4","last_reported":1752358177,"current_range_meters":17600,"station_id":"ce4bhp12rcd13ifvqh9g","pricing_plan_id":"cebpf4jnsgd1na2vs0mg"},{"bike_id":"fe3ebcc3-7351-4791-9282-ce4738e33df8","system_id":"levelo_inurba_marseille","lat":43.29628,"lon":5.3731,"is_reserved":false,"is_disabled":false,"rental_uris":{"android":"levelo://app?vid=fe3ebcc3-7351-4791-9282-ce4738e33df8","ios":"levelo://app?vid=fe3ebcc3-7351-4791-9282-ce4738e33df8"},"vehicle_type_id":"4","last_reported":1752358177,"current_range_meters":17600,"station_id":"","pricing_plan_id":"cebpf4jnsgd1na2vs0mg"},{"bike_id":"9ac0406f-d24c-4cbb-96de-ba6903408475","system_id":"levelo_inurba_marseille","lat":43.29256,"lon":5.38445,"is_reserved":false,"is_disabled":false,"rental_uris":{"android":"levelo://app?vid=9ac0406f-d24c-4cbb-96de-ba6903408475","ios":"levelo://app?vid=9ac0406f-d24c-4cbb-96de-ba6903408475"},"vehicle_type_id":"4","last_reported":1752358177,"current_range_meters":17600,"station_id":"ce4bh692rcd13ifvqea0","pricing_plan_id":"cebpf4jnsgd1na2vs0mg"},{"bike_id":"6db2d44d-c7ca-41ac-b814-ccca58d47fae","system_id":"levelo_inurba_marseille","lat":43.26215,"lon":5.37434,"is_reserved":false,"is_disabled":false,"rental_uris":{"android":"levelo://app?vid=6db2d44d-c7ca-41ac-b814-ccca58d47fae","ios":"levelo://app?vid=6db2d44d-c7ca-41ac-b814-ccca58d47fae"},"vehicle_type_id":"4","last_reported":1752358177,"current_range_meters":17600,"station_id":"ce4bhgp2rcd13ifvqfc0","pricing_plan_id":"cebpf4jnsgd1na2vs0mg"},{"bike_id":"62106b4f-81b2-4553-b016-9f04b1bc5062","system_id":"levelo_inurba_marseille","lat":43.2971,"lon":5.37697,"is_reserved":false,"is_disabled":false,"rental_uris":{"android":"levelo://app?vid=62106b4f-81b2-4553-b016-9f04b1bc5062","ios":"levelo://app?vid=62106b4f-81b2-4553-b016-9f04b1bc5062"},"vehicle_type_id":"4","last_reported":1752358177,"current_range_meters":17600,"station_id":"ce4bgkh2rcd13ifvqbl0","pricing_plan_id":"cebpf4jnsgd1na2vs0mg"},{"bike_id":"b606f300-9197-4497-8d28-e9c5f1eeeac0","system_id":"levelo_inurba_marseille","lat":43.296,"lon":5.38114,"is_reserved":false,"is_disabled":false,"rental_uris":{"android":"levelo://app?vid=b606f300-9197-4497-8d28-e9c5f1eeeac0","ios":"levelo://app?vid=b606f300-9197-4497-8d28-e9c5f1eeeac0"},"vehicle_type_id":"4","last_reported":1752358177,"current_range_meters":17600,"station_id":"ce4bgl12rcd13ifvqbo0","pricing_plan_id":"cebpf4jnsgd1na2vs0mg"},{"bike_id":"718eafe4-1059-4d0b-9935-83404501b5b5","system_id":"levelo_inurba_marseille","lat":43.31705,"lon":5.37774,"is_reserved":false,"is_disabled":false,"rental_uris":{"android":"levelo://app?vid=718eafe4-1059-4d0b-9935-83404501b5b5","ios":"levelo://app?vid=718eafe4-1059-4d0b-9935-83404501b5b5"},"vehicle_type_id":"4","last_reported":1752358177,"current_range_meters":17600,"station_id":"ce4bgth2rcd13ifvqch0","pricing_plan_id":"cebpf4jnsgd1na2vs0mg"},{"bike_id":"8b35647d-58c6-4f68-9c78-22b31b5970be","system_id":"levelo_inurba_marseille","lat":43.288531,"lon":5.393214,"is_reserved":false,"is_disabled":false,"rental_uris":{"android":"levelo://app?vid=8b35647d-58c6-4f68-9c78-22b31b5970be","ios":"levelo://app?vid=8b35647d-58c6-4f68-9c78-22b31b5970be"},"vehicle_type_id":"4","last_reported":1752358177,"current_range_meters":17600,"station_id":"ce4bh2p2rcd13ifvqdi0","pricing_plan_id":"cebpf4jnsgd1na2vs0mg"},{"bike_id":"f9924005-c8ac-4086-8e25-9a21391f65ea","system_id":"levelo_inurba_marseille","lat":43.21189,"lon":5.35079,"is_reserved":false,"is_disabled":false,"rental_uris":{"android":"levelo://app?vid=f9924005-c8ac-4086-8e25-9a21391f65ea","ios":"levelo://app?vid=f9924005-c8ac-4086-8e25-9a21391f65ea"},"vehicle_type_id":"4","last_reported":1752358177,"current_range_meters":17600,"station_id":"st_cvj6sg6p6f1abm77japg","pricing_plan_id":"cebpf4jnsgd1na2vs0mg"},{"bike_id":"78624ead-c735-4948-b8fa-f55b2ec72dc0","system_id":"levelo_inurba_marseille","lat":43.24171,"lon":5.36397,"is_reserved":false,"is_disabled":false,"rental_uris":{"android":"levelo://app?vid=78624ead-c735-4948-b8fa-f55b2ec72dc0","ios":"levelo://app?vid=78624ead-c735-4948-b8fa-f55b2ec72dc0"},"vehicle_type_id":"4","last_reported":1752358177,"current_range_meters":17600,"station_id":"cpo36qri1sfpv3e86is0","pricing_plan_id":"cebpf4jnsgd1na2vs0mg"},{"bike_id":"7048b274-bb73-4f78-bd84-2dffe4927289","system_id":"levelo_inurba_marseille","lat":43.29787,"lon":5.39374,"is_reserved":false,"is_disabled":true,"rental_uris":{"android":"levelo://app?vid=7048b274-bb73-4f78-bd84-2dffe4927289","ios":"levelo://app?vid=7048b274-bb73-4f78-bd84-2dffe4927289"},"vehicle_type_id":"4","last_reported":1752358177,"current_range_meters":17600,"station_id":"chh1huq6cuj3fo74tm60","pricing_plan_id":"cebpf4jnsgd1na2vs0mg"},{"bike_id":"f0e62acc-369f-4965-8bf5-12057af63304","system_id":"levelo_inurba_marseille","lat":43.29249,"lon":5.39179,"is_reserved":false,"is_disabled":false,"rental_uris":{"android":"levelo://app?vid=f0e62acc-369f-4965-8bf5-12057af63304","ios":"levelo://app?vid=f0e62acc-369f-4965-8bf5-12057af63304"},"vehicle_type_id":"4","last_reported":1752358177,"current_range_meters":17600,"station_id":"ce4bh192rcd13ifvqdd0","pricing_plan_id":"cebpf4jnsgd1na2vs0mg"},{"bike_id":"2e7fe8f1-cb52-4b2d-bbe6-28f609574842","system_id":"levelo_inurba_marseille","lat":43.27941,"lon":5.41048,"is_reserved":false,"is_disabled":false,"rental_uris":{"android":"levelo://app?vid=2e7fe8f1-cb52-4b2d-bbe6-28f609574842","ios":"levelo://app?vid=2e7fe8f1-cb52-4b2d-bbe6-28f609574842"},"vehicle_type_id":"4","last_reported":1752358177,"current_range_meters":17600,"station_id":"ce4bhnp2rcd13ifvqh0g","pricing_plan_id":"cebpf4jnsgd1na2vs0mg"},{"bike_id":"be713f4a-2d43-4791-b8bb-57cc5b150d66","system_id":"levelo_inurba_marseille","lat":43.2942,"lon":5.38614,"is_reserved":false,"is_disabled":false,"rental_uris":{"android":"levelo://app?vid=be713f4a-2d43-4791-b8bb-57cc5b150d66","ios":"levelo://app?vid=be713f4a-2d43-4791-b8bb-57cc5b150d66"},"vehicle_type_id":"4","last_reported":1752358177,"current_range_meters":18000,"station_id":"ce4bh2h2rcd13ifvqdh0","pricing_plan_id":"cebpf4jnsgd1na2vs0mg"},{"bike_id":"9b40dc73-509b-4d2f-8a27-44696719b175","system_id":"levelo_inurba_marseille","lat":43.2707,"lon":5.42272,"is_reserved":false,"is_disabled":false,"rental_uris":{"android":"levelo://app?vid=9b40dc73-509b-4d2f-8a27-44696719b175","ios":"levelo://app?vid=9b40dc73-509b-4d2f-8a27-44696719b175"},"vehicle_type_id":"4","last_reported":1752358177,"current_range_meters":18000,"station_id":"ce4bhk92rcd13ifvqgb0","pricing_plan_id":"cebpf4jnsgd1na2vs0mg"},{"bike_id":"923c20d3-93ac-4a4a-a70c-6595921fa16f","system_id":"levelo_inurba_marseille","lat":43.30297,"lon":5.36916,"is_reserved":false,"is_disabled":false,"rental_uris":{"android":"levelo://app?vid=923c20d3-93ac-4a4a-a70c-6595921fa16f","ios":"levelo://app?vid=923c20d3-93ac-4a4a-a70c-6595921fa16f"},"vehicle_type_id":"4","last_reported":1752358177,"current_range_meters":18000,"station_id":"ce4bgqh2rcd13ifvqc5g","pricing_plan_id":"cebpf4jnsgd1na2vs0mg"},{"bike_id":"8577aaca-7915-49c3-b3eb-bc84fe946baf","system_id":"levelo_inurba_marseille","lat":43.27578,"lon":5.41689,"is_reserved":false,"is_disabled":false,"rental_uris":{"android":"levelo://app?vid=8577aaca-7915-49c3-b3eb-bc84fe946baf","ios":"levelo://app?vid=8577aaca-7915-49c3-b3eb-bc84fe946baf"},"vehicle_type_id":"4","last_reported":1752358177,"current_range_meters":18000,"station_id":"","pricing_plan_id":"cebpf4jnsgd1na2vs0mg"},{"bike_id":"09334d41-cc3f-4830-ac12-e843115d37f5","system_id":"levelo_inurba_marseille","lat":43.29531,"lon":5.385397,"is_reserved":false,"is_disabled":false,"rental_uris":{"android":"levelo://app?vid=09334d41-cc3f-4830-ac12-e843115d37f5","ios":"levelo://app?vid=09334d41-cc3f-4830-ac12-e843115d37f5"},"vehicle_type_id":"4","last_reported":1752358177,"current_range_meters":18000,"station_id":"ce4bgih2rcd13ifvqba0","pricing_plan_id":"cebpf4jnsgd1na2vs0mg"},{"bike_id":"2ffb55bf-b045-44be-bd88-f8a1a7b08d62","system_id":"levelo_inurba_marseille","lat":43.26032,"lon":5.37557,"is_reserved":false,"is_disabled":false,"rental_uris":{"android":"levelo://app?vid=2ffb55bf-b045-44be-bd88-f8a1a7b08d62","ios":"levelo://app?vid=2ffb55bf-b045-44be-bd88-f8a1a7b08d62"},"vehicle_type_id":"4","last_reported":1752358177,"current_range_meters":18000,"station_id":"ce4bhgh2rcd13ifvqfa0","pricing_plan_id":"cebpf4jnsgd1na2vs0mg"},{"bike_id":"eaf67edf-afa5-42e2-bbf0-97699e148a26","system_id":"levelo_inurba_marseille","lat":43.29254,"lon":5.38455,"is_reserved":false,"is_disabled":false,"rental_uris":{"android":"levelo://app?vid=eaf67edf-afa5-42e2-bbf0-97699e148a26","ios":"levelo://app?vid=eaf67edf-afa5-42e2-bbf0-97699e148a26"},"vehicle_type_id":"4","last_reported":1752358177,"current_range_meters":18000,"station_id":"ce4bh692rcd13ifvqea0","pricing_plan_id":"cebpf4jnsgd1na2vs0mg"},{"bike_id":"050a49bc-1126-4805-a715-0288d2cb8564","system_id":"levelo_inurba_marseille","lat":43.29964,"lon":5.38514,"is_reserved":false,"is_disabled":false,"rental_uris":{"android":"levelo://app?vid=050a49bc-1126-4805-a715-0288d2cb8564","ios":"levelo://app?vid=050a49bc-1126-4805-a715-0288d2cb8564"},"vehicle_type_id":"4","last_reported":1752358177,"current_range_meters":18000,"station_id":"ce4bgj92rcd13ifvqbd0","pricing_plan_id":"cebpf4jnsgd1na2vs0mg"},{"bike_id":"0411e639-edc0-47fb-9279-7cce23b3b4db","system_id":"levelo_inurba_marseille","lat":43.28719,"lon":5.36082,"is_reserved":false,"is_disabled":false,"rental_uris":{"android":"levelo://app?vid=0411e639-edc0-47fb-9279-7cce23b3b4db","ios":"levelo://app?vid=0411e639-edc0-47fb-9279-7cce23b3b4db"},"vehicle_type_id":"4","last_reported":1752358177,"current_range_meters":18000,"station_id":"cki0cbj6b192h4jlfktg","pricing_plan_id":"cebpf4jnsgd1na2vs0mg"},{"bike_id":"0b697ac8-09ba-40f1-aa88-f86e79cf244d","system_id":"levelo_inurba_marseille","lat":43.260146,"lon":5.375348,"is_reserved":false,"is_disabled":false,"rental_uris":{"android":"levelo://app?vid=0b697ac8-09ba-40f1-aa88-f86e79cf244d","ios":"levelo://app?vid=0b697ac8-09ba-40f1-aa88-f86e79cf244d"},"vehicle_type_id":"4","last_reported":1752358177,"current_range_meters":18000,"station_id":"","pricing_plan_id":"cebpf4jnsgd1na2vs0mg"},{"bike_id":"a9e2e11e-bdc3-4413-ba16-08f81c3586e8","system_id":"levelo_inurba_marseille","lat":43.2808,"lon":5.39667,"is_reserved":false,"is_disabled":false,"rental_uris":{"android":"levelo://app?vid=a9e2e11e-bdc3-4413-ba16-08f81c3586e8","ios":"levelo://app?vid=a9e2e11e-bdc3-4413-ba16-08f81c3586e8"},"vehicle_type_id":"4","last_reported":1752358177,"current_range_meters":18000,"station_id":"ce4bho12rcd13ifvqh2g","pricing_plan_id":"cebpf4jnsgd1na2vs0mg"},{"bike_id":"300e41aa-f750-4dc7-8b55-65fc6d001d62","system_id":"levelo_inurba_marseille","lat":43.21192,"lon":5.35059,"is_reserved":false,"is_disabled":false,"rental_uris":{"android":"levelo://app?vid=300e41aa-f750-4dc7-8b55-65fc6d001d62","ios":"levelo://app?vid=300e41aa-f750-4dc7-8b55-65fc6d001d62"},"vehicle_type_id":"4","last_reported":1752358177,"current_range_meters":18800,"station_id":"st_cvj6sg6p6f1abm77japg","pricing_plan_id":"cebpf4jnsgd1na2vs0mg"},{"bike_id":"55699f15-aa2d-4fd6-a829-51e5af849929","system_id":"levelo_inurba_marseille","lat":43.31719,"lon":5.42406,"is_reserved":false,"is_disabled":false,"rental_uris":{"android":"levelo://app?vid=55699f15-aa2d-4fd6-a829-51e5af849929","ios":"levelo://app?vid=55699f15-aa2d-4fd6-a829-51e5af849929"},"vehicle_type_id":"4","last_reported":1752358177,"current_range_meters":18800,"station_id":"ce4bhp92rcd13ifvqhbg","pricing_plan_id":"cebpf4jnsgd1na2vs0mg"},{"bike_id":"5c68c871-f366-492f-b587-75f7add52f31","system_id":"levelo_inurba_marseille","lat":43.30932,"lon":5.36832,"is_reserved":false,"is_disabled":false,"rental_uris":{"android":"levelo://app?vid=5c68c871-f366-492f-b587-75f7add52f31","ios":"levelo://app?vid=5c68c871-f366-492f-b587-75f7add52f31"},"vehicle_type_id":"4","last_reported":1752358177,"current_range_meters":18800,"station_id":"","pricing_plan_id":"cebpf4jnsgd1na2vs0mg"},{"bike_id":"adfe8be3-1e95-4a39-ba2c-619c92879657","system_id":"levelo_inurba_marseille","lat":43.2319,"lon":5.39976,"is_reserved":false,"is_disabled":false,"rental_uris":{"android":"levelo://app?vid=adfe8be3-1e95-4a39-ba2c-619c92879657","ios":"levelo://app?vid=adfe8be3-1e95-4a39-ba2c-619c92879657"},"vehicle_type_id":"4","last_reported":1752358177,"current_range_meters":18800,"station_id":"ce4bhn12rcd13ifvqgqg","pricing_plan_id":"cebpf4jnsgd1na2vs0mg"},{"bike_id":"899f3cd4-00cc-438c-bf29-379d610fdcc2","system_id":"levelo_inurba_marseille","lat":43.26033,"lon":5.37553,"is_reserved":false,"is_disabled":false,"rental_uris":{"android":"levelo://app?vid=899f3cd4-00cc-438c-bf29-379d610fdcc2","ios":"levelo://app?vid=899f3cd4-00cc-438c-bf29-379d610fdcc2"},"vehicle_type_id":"4","last_reported":1752358177,"current_range_meters":18800,"station_id":"ce4bhgh2rcd13ifvqfa0","pricing_plan_id":"cebpf4jnsgd1na2vs0mg"},{"bike_id":"f70d4eb7-0483-4b22-b4af-6857c0805839","system_id":"levelo_inurba_marseille","lat":43.29904,"lon":5.38145,"is_reserved":false,"is_disabled":true,"rental_uris":{"android":"levelo://app?vid=f70d4eb7-0483-4b22-b4af-6857c0805839","ios":"levelo://app?vid=f70d4eb7-0483-4b22-b4af-6857c0805839"},"vehicle_type_id":"4","last_reported":1752358177,"current_range_meters":18800,"station_id":"ce4bgj12rcd13ifvqbc0","pricing_plan_id":"cebpf4jnsgd1na2vs0mg"},{"bike_id":"30120f4e-32d3-4c8a-8d92-497f42cdc0b8","system_id":"levelo_inurba_marseille","lat":43.30013,"lon":5.37193,"is_reserved":false,"is_disabled":false,"rental_uris":{"android":"levelo://app?vid=30120f4e-32d3-4c8a-8d92-497f42cdc0b8","ios":"levelo://app?vid=30120f4e-32d3-4c8a-8d92-497f42cdc0b8"},"vehicle_type_id":"4","last_reported":1752358177,"current_range_meters":18800,"station_id":"ce4bgr92rcd13ifvqc7g","pricing_plan_id":"cebpf4jnsgd1na2vs0mg"},{"bike_id":"1bf2d551-15b1-424b-b262-5e53675978dc","system_id":"levelo_inurba_marseille","lat":43.31076,"lon":5.3836,"is_reserved":false,"is_disabled":false,"rental_uris":{"android":"levelo://app?vid=1bf2d551-15b1-424b-b262-5e53675978dc","ios":"levelo://app?vid=1bf2d551-15b1-424b-b262-5e53675978dc"},"vehicle_type_id":"4","last_reported":1752358177,"current_range_meters":18800,"station_id":"ce4bgv92rcd13ifvqcr0","pricing_plan_id":"cebpf4jnsgd1na2vs0mg"},{"bike_id":"f883e896-412a-4aa9-8c2c-58a66f771fd8","system_id":"levelo_inurba_marseille","lat":43.24167,"lon":5.36401,"is_reserved":false,"is_disabled":false,"rental_uris":{"android":"levelo://app?vid=f883e896-412a-4aa9-8c2c-58a66f771fd8","ios":"levelo://app?vid=f883e896-412a-4aa9-8c2c-58a66f771fd8"},"vehicle_type_id":"4","last_reported":1752358177,"current_range_meters":18800,"station_id":"cpo36qri1sfpv3e86is0","pricing_plan_id":"cebpf4jnsgd1na2vs0mg"},{"bike_id":"960d9397-eba3-4dd8-89e7-52b55c965d82","system_id":"levelo_inurba_marseille","lat":43.29865,"lon":5.39734,"is_reserved":false,"is_disabled":false,"rental_uris":{"android":"levelo://app?vid=960d9397-eba3-4dd8-89e7-52b55c965d82","ios":"levelo://app?vid=960d9397-eba3-4dd8-89e7-52b55c965d82"},"vehicle_type_id":"4","last_reported":1752358177,"current_range_meters":18800,"station_id":"ce4bh0h2rcd13ifvqd50","pricing_plan_id":"cebpf4jnsgd1na2vs0mg"},{"bike_id":"ad6b3c7e-4845-45fe-b2f9-437f85aeb0db","system_id":"levelo_inurba_marseille","lat":43.31712,"lon":5.43712,"is_reserved":false,"is_disabled":false,"rental_uris":{"android":"levelo://app?vid=ad6b3c7e-4845-45fe-b2f9-437f85aeb0db","ios":"levelo://app?vid=ad6b3c7e-4845-45fe-b2f9-437f85aeb0db"},"vehicle_type_id":"4","last_reported":1752358177,"current_range_meters":18800,"station_id":"ce4bhp92rcd13ifvqhcg","pricing_plan_id":"cebpf4jnsgd1na2vs0mg"},{"bike_id":"5ba1306e-17d8-4dbc-acca-4fbb012874e8","system_id":"levelo_inurba_marseille","lat":43.29254,"lon":5.38449,"is_reserved":false,"is_disabled":false,"rental_uris":{"android":"levelo://app?vid=5ba1306e-17d8-4dbc-acca-4fbb012874e8","ios":"levelo://app?vid=5ba1306e-17d8-4dbc-acca-4fbb012874e8"},"vehicle_type_id":"4","last_reported":1752358177,"current_range_meters":18800,"station_id":"ce4bh692rcd13ifvqea0","pricing_plan_id":"cebpf4jnsgd1na2vs0mg"},{"bike_id":"658da48e-808c-42cf-8658-300de37ba77a","system_id":"levelo_inurba_marseille","lat":43.2679,"lon":5.3941,"is_reserved":false,"is_disabled":false,"rental_uris":{"android":"levelo://app?vid=658da48e-808c-42cf-8658-300de37ba77a","ios":"levelo://app?vid=658da48e-808c-42cf-8658-300de37ba77a"},"vehicle_type_id":"4","last_reported":1752358177,"current_range_meters":19200,"station_id":"ce4bhh12rcd13ifvqfg0","pricing_plan_id":"cebpf4jnsgd1na2vs0mg"},{"bike_id":"64748af8-28a3-4fb4-ae3a-6cf154d2bfa6","system_id":"levelo_inurba_marseille","lat":43.30439,"lon":5.38902,"is_reserved":false,"is_disabled":false,"rental_uris":{"android":"levelo://app?vid=64748af8-28a3-4fb4-ae3a-6cf154d2bfa6","ios":"levelo://app?vid=64748af8-28a3-4fb4-ae3a-6cf154d2bfa6"},"vehicle_type_id":"4","last_reported":1752358177,"current_range_meters":19200,"station_id":"ce4bgk12rcd13ifvqbi0","pricing_plan_id":"cebpf4jnsgd1na2vs0mg"},{"bike_id":"7b9403c3-378d-4156-9e18-cf497a9eef2e","system_id":"levelo_inurba_marseille","lat":43.25487,"lon":5.37683,"is_reserved":false,"is_disabled":false,"rental_uris":{"android":"levelo://app?vid=7b9403c3-378d-4156-9e18-cf497a9eef2e","ios":"levelo://app?vid=7b9403c3-378d-4156-9e18-cf497a9eef2e"},"vehicle_type_id":"4","last_reported":1752358177,"current_range_meters":19200,"station_id":"ce4bhh12rcd13ifvqff0","pricing_plan_id":"cebpf4jnsgd1na2vs0mg"},{"bike_id":"3bd1b771-ea7c-48c1-85a2-a50874a5aa93","system_id":"levelo_inurba_marseille","lat":43.24164,"lon":5.36396,"is_reserved":false,"is_disabled":false,"rental_uris":{"android":"levelo://app?vid=3bd1b771-ea7c-48c1-85a2-a50874a5aa93","ios":"levelo://app?vid=3bd1b771-ea7c-48c1-85a2-a50874a5aa93"},"vehicle_type_id":"4","last_reported":1752358177,"current_range_meters":19200,"station_id":"cpo36qri1sfpv3e86is0","pricing_plan_id":"cebpf4jnsgd1na2vs0mg"},{"bike_id":"def9bf80-7c31-408c-ae18-95542be99913","system_id":"levelo_inurba_marseille","lat":43.23194,"lon":5.3999,"is_reserved":false,"is_disabled":false,"rental_uris":{"android":"levelo://app?vid=def9bf80-7c31-408c-ae18-95542be99913","ios":"levelo://app?vid=def9bf80-7c31-408c-ae18-95542be99913"},"vehicle_type_id":"4","last_reported":1752358177,"current_range_meters":18800,"station_id":"ce4bhn12rcd13ifvqgqg","pricing_plan_id":"cebpf4jnsgd1na2vs0mg"},{"bike_id":"8d95ecf0-088d-4bdc-b737-424eb4ef78c4","system_id":"levelo_inurba_marseille","lat":43.28931,"lon":5.39636,"is_reserved":false,"is_disabled":false,"rental_uris":{"android":"levelo://app?vid=8d95ecf0-088d-4bdc-b737-424eb4ef78c4","ios":"levelo://app?vid=8d95ecf0-088d-4bdc-b737-424eb4ef78c4"},"vehicle_type_id":"4","last_reported":1752358177,"current_range_meters":19200,"station_id":"ce4bh3h2rcd13ifvqdn0","pricing_plan_id":"cebpf4jnsgd1na2vs0mg"},{"bike_id":"436e917a-7f3e-467e-946b-136c32e6f617","system_id":"levelo_inurba_marseille","lat":43.2623,"lon":5.40445,"is_reserved":false,"is_disabled":false,"rental_uris":{"android":"levelo://app?vid=436e917a-7f3e-467e-946b-136c32e6f617","ios":"levelo://app?vid=436e917a-7f3e-467e-946b-136c32e6f617"},"vehicle_type_id":"4","last_reported":1752358177,"current_range_meters":19200,"station_id":"ce4bhmh2rcd13ifvqgmg","pricing_plan_id":"cebpf4jnsgd1na2vs0mg"},{"bike_id":"56f09403-a466-410a-916d-29f260962e7d","system_id":"levelo_inurba_marseille","lat":43.29542,"lon":5.38551,"is_reserved":false,"is_disabled":false,"rental_uris":{"android":"levelo://app?vid=56f09403-a466-410a-916d-29f260962e7d","ios":"levelo://app?vid=56f09403-a466-410a-916d-29f260962e7d"},"vehicle_type_id":"4","last_reported":1752358177,"current_range_meters":19200,"station_id":"ce4bgih2rcd13ifvqba0","pricing_plan_id":"cebpf4jnsgd1na2vs0mg"},{"bike_id":"cc6260c7-e588-42d7-afef-96c409802ccc","system_id":"levelo_inurba_marseille","lat":43.21211,"lon":5.35081,"is_reserved":false,"is_disabled":false,"rental_uris":{"android":"levelo://app?vid=cc6260c7-e588-42d7-afef-96c409802ccc","ios":"levelo://app?vid=cc6260c7-e588-42d7-afef-96c409802ccc"},"vehicle_type_id":"4","last_reported":1752358177,"current_range_meters":19200,"station_id":"st_cvj6sg6p6f1abm77japg","pricing_plan_id":"cebpf4jnsgd1na2vs0mg"},{"bike_id":"9bfc7d3d-4e60-4f8a-9c32-ef3d0e77ec5b","system_id":"levelo_inurba_marseille","lat":43.21169,"lon":5.35091,"is_reserved":false,"is_disabled":false,"rental_uris":{"android":"levelo://app?vid=9bfc7d3d-4e60-4f8a-9c32-ef3d0e77ec5b","ios":"levelo://app?vid=9bfc7d3d-4e60-4f8a-9c32-ef3d0e77ec5b"},"vehicle_type_id":"4","last_reported":1752358177,"current_range_meters":19200,"station_id":"st_cvj6sg6p6f1abm77japg","pricing_plan_id":"cebpf4jnsgd1na2vs0mg"},{"bike_id":"7b60e2b3-fe60-4caf-8d3e-4c917054d448","system_id":"levelo_inurba_marseille","lat":43.28426,"lon":5.34994,"is_reserved":false,"is_disabled":true,"rental_uris":{"android":"levelo://app?vid=7b60e2b3-fe60-4caf-8d3e-4c917054d448","ios":"levelo://app?vid=7b60e2b3-fe60-4caf-8d3e-4c917054d448"},"vehicle_type_id":"4","last_reported":1752358177,"current_range_meters":19600,"station_id":"ce4bhbh2rcd13ifvqepg","pricing_plan_id":"cebpf4jnsgd1na2vs0mg"},{"bike_id":"ee17bcf1-2d57-453a-b3d0-e77594f406f1","system_id":"levelo_inurba_marseille","lat":43.26013,"lon":5.37566,"is_reserved":false,"is_disabled":false,"rental_uris":{"android":"levelo://app?vid=ee17bcf1-2d57-453a-b3d0-e77594f406f1","ios":"levelo://app?vid=ee17bcf1-2d57-453a-b3d0-e77594f406f1"},"vehicle_type_id":"4","last_reported":1752358177,"current_range_meters":19600,"station_id":"ce4bhgh2rcd13ifvqfa0","pricing_plan_id":"cebpf4jnsgd1na2vs0mg"},{"bike_id":"cc4b685c-99b1-4612-81f2-73a6dae5d794","system_id":"levelo_inurba_marseille","lat":43.26221,"lon":5.37449,"is_reserved":false,"is_disabled":false,"rental_uris":{"android":"levelo://app?vid=cc4b685c-99b1-4612-81f2-73a6dae5d794","ios":"levelo://app?vid=cc4b685c-99b1-4612-81f2-73a6dae5d794"},"vehicle_type_id":"4","last_reported":1752358177,"current_range_meters":19600,"station_id":"ce4bhgp2rcd13ifvqfc0","pricing_plan_id":"cebpf4jnsgd1na2vs0mg"},{"bike_id":"711ac624-d408-4d62-a6b0-a60e4e9b3156","system_id":"levelo_inurba_marseille","lat":43.30145,"lon":5.37428,"is_reserved":false,"is_disabled":false,"rental_uris":{"android":"levelo://app?vid=711ac624-d408-4d62-a6b0-a60e4e9b3156","ios":"levelo://app?vid=711ac624-d408-4d62-a6b0-a60e4e9b3156"},"vehicle_type_id":"4","last_reported":1752358177,"current_range_meters":19600,"station_id":"ce4bgs92rcd13ifvqcc0","pricing_plan_id":"cebpf4jnsgd1na2vs0mg"},{"bike_id":"918f86bb-73bc-4fe4-834d-3f4c6039e007","system_id":"levelo_inurba_marseille","lat":43.2622,"lon":5.3745,"is_reserved":false,"is_disabled":false,"rental_uris":{"android":"levelo://app?vid=918f86bb-73bc-4fe4-834d-3f4c6039e007","ios":"levelo://app?vid=918f86bb-73bc-4fe4-834d-3f4c6039e007"},"vehicle_type_id":"4","last_reported":1752358177,"current_range_meters":19600,"station_id":"ce4bhgp2rcd13ifvqfc0","pricing_plan_id":"cebpf4jnsgd1na2vs0mg"},{"bike_id":"20eb7dcd-9a57-4563-bf6a-cf6f974011df","system_id":"levelo_inurba_marseille","lat":43.29521,"lon":5.38541,"is_reserved":false,"is_disabled":false,"rental_uris":{"android":"levelo://app?vid=20eb7dcd-9a57-4563-bf6a-cf6f974011df","ios":"levelo://app?vid=20eb7dcd-9a57-4563-bf6a-cf6f974011df"},"vehicle_type_id":"4","last_reported":1752358177,"current_range_meters":19600,"station_id":"ce4bgih2rcd13ifvqba0","pricing_plan_id":"cebpf4jnsgd1na2vs0mg"},{"bike_id":"c5ad1728-8e77-421e-827d-e75f13b8ab94","system_id":"levelo_inurba_marseille","lat":43.26209,"lon":5.37451,"is_reserved":false,"is_disabled":false,"rental_uris":{"android":"levelo://app?vid=c5ad1728-8e77-421e-827d-e75f13b8ab94","ios":"levelo://app?vid=c5ad1728-8e77-421e-827d-e75f13b8ab94"},"vehicle_type_id":"4","last_reported":1752358177,"current_range_meters":19600,"station_id":"ce4bhgp2rcd13ifvqfc0","pricing_plan_id":"cebpf4jnsgd1na2vs0mg"},{"bike_id":"9208374a-c68d-4508-ad03-6728d00ae45e","system_id":"levelo_inurba_marseille","lat":43.26211,"lon":5.37456,"is_reserved":false,"is_disabled":false,"rental_uris":{"android":"levelo://app?vid=9208374a-c68d-4508-ad03-6728d00ae45e","ios":"levelo://app?vid=9208374a-c68d-4508-ad03-6728d00ae45e"},"vehicle_type_id":"4","last_reported":1752358177,"current_range_meters":19600,"station_id":"ce4bhgp2rcd13ifvqfc0","pricing_plan_id":"cebpf4jnsgd1na2vs0mg"},{"bike_id":"f5a47db5-6fb2-46bd-a2de-efa4ad13bf60","system_id":"levelo_inurba_marseille","lat":43.21192,"lon":5.35072,"is_reserved":false,"is_disabled":false,"rental_uris":{"android":"levelo://app?vid=f5a47db5-6fb2-46bd-a2de-efa4ad13bf60","ios":"levelo://app?vid=f5a47db5-6fb2-46bd-a2de-efa4ad13bf60"},"vehicle_type_id":"4","last_reported":1752358177,"current_range_meters":19600,"station_id":"","pricing_plan_id":"cebpf4jnsgd1na2vs0mg"},{"bike_id":"2f3d9cb1-0302-47d4-a8f8-553478b96221","system_id":"levelo_inurba_marseille","lat":43.31359,"lon":5.38504,"is_reserved":false,"is_disabled":false,"rental_uris":{"android":"levelo://app?vid=2f3d9cb1-0302-47d4-a8f8-553478b96221","ios":"levelo://app?vid=2f3d9cb1-0302-47d4-a8f8-553478b96221"},"vehicle_type_id":"4","last_reported":1752358177,"current_range_meters":19600,"station_id":"ce4bgt92rcd13ifvqcf0","pricing_plan_id":"cebpf4jnsgd1na2vs0mg"},{"bike_id":"b423fec1-849c-4a4f-86c3-c05cbe39d75f","system_id":"levelo_inurba_marseille","lat":43.26206,"lon":5.37446,"is_reserved":false,"is_disabled":false,"rental_uris":{"android":"levelo://app?vid=b423fec1-849c-4a4f-86c3-c05cbe39d75f","ios":"levelo://app?vid=b423fec1-849c-4a4f-86c3-c05cbe39d75f"},"vehicle_type_id":"4","last_reported":1752358177,"current_range_meters":19600,"station_id":"ce4bhgp2rcd13ifvqfc0","pricing_plan_id":"cebpf4jnsgd1na2vs0mg"},{"bike_id":"62447698-1237-4fb6-a1b7-6c94e0711cf4","system_id":"levelo_inurba_marseille","lat":43.292011,"lon":5.393136,"is_reserved":false,"is_disabled":false,"rental_uris":{"android":"levelo://app?vid=62447698-1237-4fb6-a1b7-6c94e0711cf4","ios":"levelo://app?vid=62447698-1237-4fb6-a1b7-6c94e0711cf4"},"vehicle_type_id":"4","last_reported":1752358177,"current_range_meters":19600,"station_id":"ce4bh192rcd13ifvqdd0","pricing_plan_id":"cebpf4jnsgd1na2vs0mg"},{"bike_id":"58375fde-ca97-4dab-be52-59caf98323d3","system_id":"levelo_inurba_marseille","lat":43.26585,"lon":5.37311,"is_reserved":false,"is_disabled":true,"rental_uris":{"android":"levelo://app?vid=58375fde-ca97-4dab-be52-59caf98323d3","ios":"levelo://app?vid=58375fde-ca97-4dab-be52-59caf98323d3"},"vehicle_type_id":"4","last_reported":1752358177,"current_range_meters":19600,"station_id":"ce4bhg12rcd13ifvqf70","pricing_plan_id":"cebpf4jnsgd1na2vs0mg"},{"bike_id":"28a0b227-45df-4117-8ee1-3c3fe241af02","system_id":"levelo_inurba_marseille","lat":43.29521,"lon":5.385223,"is_reserved":false,"is_disabled":false,"rental_uris":{"android":"levelo://app?vid=28a0b227-45df-4117-8ee1-3c3fe241af02","ios":"levelo://app?vid=28a0b227-45df-4117-8ee1-3c3fe241af02"},"vehicle_type_id":"4","last_reported":1752358177,"current_range_meters":19600,"station_id":"ce4bgih2rcd13ifvqba0","pricing_plan_id":"cebpf4jnsgd1na2vs0mg"},{"bike_id":"971b1f31-a743-4191-95a5-bf861272f744","system_id":"levelo_inurba_marseille","lat":43.29029,"lon":5.38645,"is_reserved":false,"is_disabled":false,"rental_uris":{"android":"levelo://app?vid=971b1f31-a743-4191-95a5-bf861272f744","ios":"levelo://app?vid=971b1f31-a743-4191-95a5-bf861272f744"},"vehicle_type_id":"4","last_reported":1752358177,"current_range_meters":19600,"station_id":"ce4bh4p2rcd13ifvqe0g","pricing_plan_id":"cebpf4jnsgd1na2vs0mg"},{"bike_id":"ece9d047-dc12-4ce6-82bf-fc7ad56a230c","system_id":"levelo_inurba_marseille","lat":43.28608,"lon":5.35114,"is_reserved":false,"is_disabled":true,"rental_uris":{"android":"levelo://app?vid=ece9d047-dc12-4ce6-82bf-fc7ad56a230c","ios":"levelo://app?vid=ece9d047-dc12-4ce6-82bf-fc7ad56a230c"},"vehicle_type_id":"4","last_reported":1752358177,"current_range_meters":19600,"station_id":"ce4bhch2rcd13ifvqeug","pricing_plan_id":"cebpf4jnsgd1na2vs0mg"},{"bike_id":"7d80377e-8c8b-466d-b275-5356b99e3e43","system_id":"levelo_inurba_marseille","lat":43.24653,"lon":5.38909,"is_reserved":false,"is_disabled":false,"rental_uris":{"android":"levelo://app?vid=7d80377e-8c8b-466d-b275-5356b99e3e43","ios":"levelo://app?vid=7d80377e-8c8b-466d-b275-5356b99e3e43"},"vehicle_type_id":"4","last_reported":1752358177,"current_range_meters":19600,"station_id":"ce4bhg12rcd13ifvqf60","pricing_plan_id":"cebpf4jnsgd1na2vs0mg"},{"bike_id":"7a888645-4b0c-4379-98d8-380a5347b74c","system_id":"levelo_inurba_marseille","lat":43.27374,"lon":5.36261,"is_reserved":false,"is_disabled":true,"rental_uris":{"android":"levelo://app?vid=7a888645-4b0c-4379-98d8-380a5347b74c","ios":"levelo://app?vid=7a888645-4b0c-4379-98d8-380a5347b74c"},"vehicle_type_id":"4","last_reported":1752358177,"current_range_meters":20000,"station_id":"ce4bhbh2rcd13ifvqeo0","pricing_plan_id":"cebpf4jnsgd1na2vs0mg"},{"bike_id":"10388035-8e57-4e34-8ec1-559555823a7c","system_id":"levelo_inurba_marseille","lat":43.31327,"lon":5.39691,"is_reserved":false,"is_disabled":false,"rental_uris":{"android":"levelo://app?vid=10388035-8e57-4e34-8ec1-559555823a7c","ios":"levelo://app?vid=10388035-8e57-4e34-8ec1-559555823a7c"},"vehicle_type_id":"4","last_reported":1752358177,"current_range_meters":20000,"station_id":"ce4bgvp2rcd13ifvqcu0","pricing_plan_id":"cebpf4jnsgd1na2vs0mg"},{"bike_id":"6b418628-3de0-42f5-9bc9-9d1d77942576","system_id":"levelo_inurba_marseille","lat":43.307955,"lon":5.376483,"is_reserved":false,"is_disabled":false,"rental_uris":{"android":"levelo://app?vid=6b418628-3de0-42f5-9bc9-9d1d77942576","ios":"levelo://app?vid=6b418628-3de0-42f5-9bc9-9d1d77942576"},"vehicle_type_id":"4","last_reported":1752358177,"current_range_meters":20000,"station_id":"ce4bgv92rcd13ifvqcq0","pricing_plan_id":"cebpf4jnsgd1na2vs0mg"},{"bike_id":"f595308f-6352-4340-b81a-da7b35d99ea7","system_id":"levelo_inurba_marseille","lat":43.29625,"lon":5.40598,"is_reserved":false,"is_disabled":false,"rental_uris":{"android":"levelo://app?vid=f595308f-6352-4340-b81a-da7b35d99ea7","ios":"levelo://app?vid=f595308f-6352-4340-b81a-da7b35d99ea7"},"vehicle_type_id":"4","last_reported":1752358177,"current_range_meters":20000,"station_id":"ce4bh0h2rcd13ifvqd60","pricing_plan_id":"cebpf4jnsgd1na2vs0mg"},{"bike_id":"059a4775-c8b3-4965-854c-46db5bc514d2","system_id":"levelo_inurba_marseille","lat":43.28406,"lon":5.3753,"is_reserved":false,"is_disabled":false,"rental_uris":{"android":"levelo://app?vid=059a4775-c8b3-4965-854c-46db5bc514d2","ios":"levelo://app?vid=059a4775-c8b3-4965-854c-46db5bc514d2"},"vehicle_type_id":"4","last_reported":1752358177,"current_range_meters":20000,"station_id":"ce4bh412rcd13ifvqds0","pricing_plan_id":"cebpf4jnsgd1na2vs0mg"},{"bike_id":"c8c4de1a-846f-4f5b-aace-9fb14bf7ad52","system_id":"levelo_inurba_marseille","lat":43.2119,"lon":5.35073,"is_reserved":false,"is_disabled":false,"rental_uris":{"android":"levelo://app?vid=c8c4de1a-846f-4f5b-aace-9fb14bf7ad52","ios":"levelo://app?vid=c8c4de1a-846f-4f5b-aace-9fb14bf7ad52"},"vehicle_type_id":"4","last_reported":1752358177,"current_range_meters":20000,"station_id":"st_cvj6sg6p6f1abm77japg","pricing_plan_id":"cebpf4jnsgd1na2vs0mg"},{"bike_id":"302c6760-4b26-41d8-991b-909900c10aeb","system_id":"levelo_inurba_marseille","lat":43.24658,"lon":5.38171,"is_reserved":false,"is_disabled":false,"rental_uris":{"android":"levelo://app?vid=302c6760-4b26-41d8-991b-909900c10aeb","ios":"levelo://app?vid=302c6760-4b26-41d8-991b-909900c10aeb"},"vehicle_type_id":"4","last_reported":1752358177,"current_range_meters":20000,"station_id":"ce4bhih2rcd13ifvqfr0","pricing_plan_id":"cebpf4jnsgd1na2vs0mg"},{"bike_id":"6be19a7e-7076-4506-a1fb-cdd3f70aa3e0","system_id":"levelo_inurba_marseille","lat":43.28407,"lon":5.37518,"is_reserved":false,"is_disabled":false,"rental_uris":{"android":"levelo://app?vid=6be19a7e-7076-4506-a1fb-cdd3f70aa3e0","ios":"levelo://app?vid=6be19a7e-7076-4506-a1fb-cdd3f70aa3e0"},"vehicle_type_id":"4","last_reported":1752358177,"current_range_meters":20000,"station_id":"ce4bh412rcd13ifvqds0","pricing_plan_id":"cebpf4jnsgd1na2vs0mg"},{"bike_id":"904d6a86-60ed-431a-b0ac-b0f35672ff9e","system_id":"levelo_inurba_marseille","lat":43.2794,"lon":5.41049,"is_reserved":false,"is_disabled":false,"rental_uris":{"android":"levelo://app?vid=904d6a86-60ed-431a-b0ac-b0f35672ff9e","ios":"levelo://app?vid=904d6a86-60ed-431a-b0ac-b0f35672ff9e"},"vehicle_type_id":"4","last_reported":1752358177,"current_range_meters":20000,"station_id":"ce4bhnp2rcd13ifvqh0g","pricing_plan_id":"cebpf4jnsgd1na2vs0mg"},{"bike_id":"2ec427da-b403-4a7e-86be-3f48ba535d18","system_id":"levelo_inurba_marseille","lat":43.21189,"lon":5.35084,"is_reserved":false,"is_disabled":false,"rental_uris":{"android":"levelo://app?vid=2ec427da-b403-4a7e-86be-3f48ba535d18","ios":"levelo://app?vid=2ec427da-b403-4a7e-86be-3f48ba535d18"},"vehicle_type_id":"4","last_reported":1752358177,"current_range_meters":20400,"station_id":"st_cvj6sg6p6f1abm77japg","pricing_plan_id":"cebpf4jnsgd1na2vs0mg"},{"bike_id":"5827c438-7cc6-40eb-af18-0206060ec12a","system_id":"levelo_inurba_marseille","lat":43.29438,"lon":5.39756,"is_reserved":false,"is_disabled":false,"rental_uris":{"android":"levelo://app?vid=5827c438-7cc6-40eb-af18-0206060ec12a","ios":"levelo://app?vid=5827c438-7cc6-40eb-af18-0206060ec12a"},"vehicle_type_id":"4","last_reported":1752358177,"current_range_meters":20400,"station_id":"ce4bh3h2rcd13ifvqdo0","pricing_plan_id":"cebpf4jnsgd1na2vs0mg"},{"bike_id":"46ce7424-8151-41ba-a046-0c68273c2c8e","system_id":"levelo_inurba_marseille","lat":43.29238,"lon":5.36617,"is_reserved":false,"is_disabled":false,"rental_uris":{"android":"levelo://app?vid=46ce7424-8151-41ba-a046-0c68273c2c8e","ios":"levelo://app?vid=46ce7424-8151-41ba-a046-0c68273c2c8e"},"vehicle_type_id":"4","last_reported":1752358177,"current_range_meters":20400,"station_id":"","pricing_plan_id":"cebpf4jnsgd1na2vs0mg"},{"bike_id":"91e36618-f857-45af-ac89-91d909da2db3","system_id":"levelo_inurba_marseille","lat":43.29417,"lon":5.38611,"is_reserved":false,"is_disabled":true,"rental_uris":{"android":"levelo://app?vid=91e36618-f857-45af-ac89-91d909da2db3","ios":"levelo://app?vid=91e36618-f857-45af-ac89-91d909da2db3"},"vehicle_type_id":"4","last_reported":1752358177,"current_range_meters":20400,"station_id":"ce4bh2h2rcd13ifvqdh0","pricing_plan_id":"cebpf4jnsgd1na2vs0mg"},{"bike_id":"7b707764-6b84-40b0-9c98-a224a01d3ffc","system_id":"levelo_inurba_marseille","lat":43.29901,"lon":5.37478,"is_reserved":false,"is_disabled":false,"rental_uris":{"android":"levelo://app?vid=7b707764-6b84-40b0-9c98-a224a01d3ffc","ios":"levelo://app?vid=7b707764-6b84-40b0-9c98-a224a01d3ffc"},"vehicle_type_id":"4","last_reported":1752358177,"current_range_meters":20400,"station_id":"ce4bgjh2rcd13ifvqbg0","pricing_plan_id":"cebpf4jnsgd1na2vs0mg"},{"bike_id":"8b7c02ee-aafe-4add-bb01-ef64ec7e24fe","system_id":"levelo_inurba_marseille","lat":43.261896,"lon":5.374498,"is_reserved":false,"is_disabled":false,"rental_uris":{"android":"levelo://app?vid=8b7c02ee-aafe-4add-bb01-ef64ec7e24fe","ios":"levelo://app?vid=8b7c02ee-aafe-4add-bb01-ef64ec7e24fe"},"vehicle_type_id":"4","last_reported":1752358177,"current_range_meters":20400,"station_id":"ce4bhgp2rcd13ifvqfc0","pricing_plan_id":"cebpf4jnsgd1na2vs0mg"},{"bike_id":"b053f929-7efb-49cd-9959-74ef096980bb","system_id":"levelo_inurba_marseille","lat":43.29262,"lon":5.36835,"is_reserved":false,"is_disabled":true,"rental_uris":{"android":"levelo://app?vid=b053f929-7efb-49cd-9959-74ef096980bb","ios":"levelo://app?vid=b053f929-7efb-49cd-9959-74ef096980bb"},"vehicle_type_id":"4","last_reported":1752358177,"current_range_meters":20400,"station_id":"ce4bhbp2rcd13ifvqesg","pricing_plan_id":"cebpf4jnsgd1na2vs0mg"},{"bike_id":"dac6b7a9-8bbc-48e4-b448-a495d992768a","system_id":"levelo_inurba_marseille","lat":43.29778,"lon":5.3933,"is_reserved":false,"is_disabled":false,"rental_uris":{"android":"levelo://app?vid=dac6b7a9-8bbc-48e4-b448-a495d992768a","ios":"levelo://app?vid=dac6b7a9-8bbc-48e4-b448-a495d992768a"},"vehicle_type_id":"4","last_reported":1752358177,"current_range_meters":20400,"station_id":"chh1huq6cuj3fo74tm60","pricing_plan_id":"cebpf4jnsgd1na2vs0mg"},{"bike_id":"ba15f89b-767e-4d36-874b-a7f238db0f0c","system_id":"levelo_inurba_marseille","lat":43.29601,"lon":5.38101,"is_reserved":false,"is_disabled":false,"rental_uris":{"android":"levelo://app?vid=ba15f89b-767e-4d36-874b-a7f238db0f0c","ios":"levelo://app?vid=ba15f89b-767e-4d36-874b-a7f238db0f0c"},"vehicle_type_id":"4","last_reported":1752358177,"current_range_meters":20400,"station_id":"ce4bgl12rcd13ifvqbo0","pricing_plan_id":"cebpf4jnsgd1na2vs0mg"},{"bike_id":"804d9a15-c1e7-405a-95aa-5ec85a4be63b","system_id":"levelo_inurba_marseille","lat":43.30425,"lon":5.38892,"is_reserved":false,"is_disabled":false,"rental_uris":{"android":"levelo://app?vid=804d9a15-c1e7-405a-95aa-5ec85a4be63b","ios":"levelo://app?vid=804d9a15-c1e7-405a-95aa-5ec85a4be63b"},"vehicle_type_id":"4","last_reported":1752358177,"current_range_meters":20400,"station_id":"ce4bgk12rcd13ifvqbi0","pricing_plan_id":"cebpf4jnsgd1na2vs0mg"},{"bike_id":"f7cf9aab-0ed3-4931-a48c-8d0743d0c0b9","system_id":"levelo_inurba_marseille","lat":43.22929,"lon":5.35368,"is_reserved":false,"is_disabled":true,"rental_uris":{"android":"levelo://app?vid=f7cf9aab-0ed3-4931-a48c-8d0743d0c0b9","ios":"levelo://app?vid=f7cf9aab-0ed3-4931-a48c-8d0743d0c0b9"},"vehicle_type_id":"4","last_reported":1752358177,"current_range_meters":20800,"station_id":"cpo3532slgdg3j2ikp40","pricing_plan_id":"cebpf4jnsgd1na2vs0mg"},{"bike_id":"c7bf1b46-343a-4bb9-90dc-d968f0216d83","system_id":"levelo_inurba_marseille","lat":43.30148,"lon":5.39869,"is_reserved":false,"is_disabled":false,"rental_uris":{"android":"levelo://app?vid=c7bf1b46-343a-4bb9-90dc-d968f0216d83","ios":"levelo://app?vid=c7bf1b46-343a-4bb9-90dc-d968f0216d83"},"vehicle_type_id":"4","last_reported":1752358177,"current_range_meters":20800,"station_id":"ce4bh0h2rcd13ifvqd40","pricing_plan_id":"cebpf4jnsgd1na2vs0mg"},{"bike_id":"99ae43ef-9981-41ec-907c-f94f73cc9ad2","system_id":"levelo_inurba_marseille","lat":43.29985,"lon":5.38484,"is_reserved":false,"is_disabled":false,"rental_uris":{"android":"levelo://app?vid=99ae43ef-9981-41ec-907c-f94f73cc9ad2","ios":"levelo://app?vid=99ae43ef-9981-41ec-907c-f94f73cc9ad2"},"vehicle_type_id":"4","last_reported":1752358177,"current_range_meters":20800,"station_id":"ce4bgj92rcd13ifvqbd0","pricing_plan_id":"cebpf4jnsgd1na2vs0mg"},{"bike_id":"0c6d382f-844d-4df5-9411-000ba277f28d","system_id":"levelo_inurba_marseille","lat":43.2782,"lon":5.41448,"is_reserved":false,"is_disabled":false,"rental_uris":{"android":"levelo://app?vid=0c6d382f-844d-4df5-9411-000ba277f28d","ios":"levelo://app?vid=0c6d382f-844d-4df5-9411-000ba277f28d"},"vehicle_type_id":"4","last_reported":1752358177,"current_range_meters":21600,"station_id":"","pricing_plan_id":"cebpf4jnsgd1na2vs0mg"},{"bike_id":"505f4950-b876-4a25-a35a-feb1ec0b2200","system_id":"levelo_inurba_marseille","lat":43.2465,"lon":5.38896,"is_reserved":false,"is_disabled":false,"rental_uris":{"android":"levelo://app?vid=505f4950-b876-4a25-a35a-feb1ec0b2200","ios":"levelo://app?vid=505f4950-b876-4a25-a35a-feb1ec0b2200"},"vehicle_type_id":"4","last_reported":1752358177,"current_range_meters":21600,"station_id":"ce4bhg12rcd13ifvqf60","pricing_plan_id":"cebpf4jnsgd1na2vs0mg"},