{"last_updated":1747087816,"ttl":60,"version":"2.2","data":{"bikes":[{"bike_id":"c0b9fd4f-e181-46ce-b0bf-f5119973334f","system_id":"levelo_inurba_marseille","lat":43.33771,"lon":5.37424,"is_reserved":false,"is_disabled":false,"rental_uris":{"android":"levelo://app?vid=c0b9fd4f-e181-46ce-b0bf-f5119973334f","ios":"levelo://app?vid=c0b9fd4f-e181-46ce-b0bf-f5119973334f"},"vehicle_type_id":"4","last_reported":1747087816,"current_range_meters":26000,"station_id":"","pricing_plan_id":"cebpf4jnsgd1na2vs0mg"},{"bike_id":"229001d2-7627-43e0-aeea-2d75580fd339","system_id":"levelo_inurba_marseille","lat":43.33784,"lon":5.37479,"is_reserved":false,"is_disabled":true,"rental_uris":{"android":"levelo://app?vid=229001d2-7627-43e0-aeea-2d75580fd339","ios":"levelo://app?vid=229001d2-7627-43e0-aeea-2d75580fd339"},"vehicle_type_id":"4","last_reported":1747087816,"current_range_meters":0,"station_id":"","pricing_plan_id":"cebpf4jnsgd1na2vs0mg"},{"bike_id":"828418bc-b6f3-4668-865d-c3a8b014b129","system_id":"levelo_inurba_marseille","lat":43.337731,"lon":5.374692,"is_reserved":false,"is_disabled":true,"rental_uris":{"android":"levelo://app?vid=828418bc-b6f3-4668-865d-c3a8b014b129","ios":"levelo://app?vid=828418bc-b6f3-4668-865d-c3a8b014b129"},"vehicle_type_id":"4","last_reported":1747087816,"current_range_meters":0,"station_id":"","pricing_plan_id":"cebpf4jnsgd1na2vs0mg"},{"bike_id":"792567c6-0442-4011-aff0-9c05e25deb48","system_id":"levelo_inurba_marseille","lat":43.28091,"lon":5.4419,"is_reserved":false,"is_disabled":true,"rental_uris":{"android":"levelo://app?vid=792567c6-0442-4011-aff0-9c05e25deb48","ios":"levelo://app?vid=792567c6-0442-4011-aff0-9c05e25deb48"},"vehicle_type_id":"4","last_reported":1747087816,"current_range_meters":0,"station_id":"","pricing_plan_id":"cebpf4jnsgd1na2vs0mg"},{"bike_id":"cec09c58-67d4-4bef-ab09-46d901a62a8e","system_id":"levelo_inurba_marseille","lat":43.29963,"lon":5.385,"is_reserved":false,"is_disabled":true,"rental_uris":{"android":"levelo://app?vid=cec09c58-67d4-4bef-ab09-46d901a62a8e","ios":"levelo://app?vid=cec09c58-67d4-4bef-ab09-46d901a62a8e"},"vehicle_type_id":"4","last_reported":1747087816,"current_range_meters":0,"station_id":"ce4bgj92rcd13ifvqbd0","pricing_plan_id":"cebpf4jnsgd1na2vs0mg"},{"bike_id":"bb9bdd41-229c-4d84-bf45-32aa0479fe0e","system_id":"levelo_inurba_marseille","lat":43.30466,"lon":5.37905,"is_reserved":false,"is_disabled":true,"rental_uris":{"android":"levelo://app?vid=bb9bdd41-229c-4d84-bf45-32aa0479fe0e","ios":"levelo://app?vid=bb9bdd41-229c-4d84-bf45-32aa0479fe0e"},"vehicle_type_id":"4","last_reported":1747087816,"current_range_meters":0,"station_id":"ce4bgup2rcd13ifvqcn0","pricing_plan_id":"cebpf4jnsgd1na2vs0mg"},{"bike_id":"d020dbd6-56f3-46f3-96c3-9a073768576d","system_id":"levelo_inurba_marseille","lat":43.2623,"lon":5.40448,"is_reserved":false,"is_disabled":true,"rental_uris":{"android":"levelo://app?vid=d020dbd6-56f3-46f3-96c3-9a073768576d","ios":"levelo://app?vid=d020dbd6-56f3-46f3-96c3-9a073768576d"},"vehicle_type_id":"4","last_reported":1747087816,"current_range_meters":0,"station_id":"ce4bhmh2rcd13ifvqgmg","pricing_plan_id":"cebpf4jnsgd1na2vs0mg"},{"bike_id":"fea916d9-5fb9-4609-8de1-55e587e82484","system_id":"levelo_inurba_marseille","lat":43.23186,"lon":5.39989,"is_reserved":false,"is_disabled":true,"rental_uris":{"android":"levelo://app?vid=fea916d9-5fb9-4609-8de1-55e587e82484","ios":"levelo://app?vid=fea916d9-5fb9-4609-8de1-55e587e82484"},"vehicle_type_id":"4","last_reported":1747087816,"current_range_meters":0,"station_id":"ce4bhn12rcd13ifvqgqg","pricing_plan_id":"cebpf4jnsgd1na2vs0mg"},{"bike_id":"07269f3f-9fb3-45e8-9b39-4105415a8c0c","system_id":"levelo_inurba_marseille","lat":43.21185,"lon":5.35036,"is_reserved":false,"is_disabled":true,"rental_uris":{"android":"levelo://app?vid=07269f3f-9fb3-45e8-9b39-4105415a8c0c","ios":"levelo://app?vid=07269f3f-9fb3-45e8-9b39-4105415a8c0c"},"vehicle_type_id":"4","last_reported":1747087816,"current_range_meters":0,"station_id":"st_cvj6sg6p6f1abm77japg","pricing_plan_id":"cebpf4jnsgd1na2vs0mg"},{"bike_id":"25684216-a3fc-4916-8e05-9505382e4ab5","system_id":"levelo_inurba_marseille","lat":43.27368,"lon":5.39022,"is_reserved":false,"is_disabled":true,"rental_uris":{"android":"levelo://app?vid=25684216-a3fc-4916-8e05-9505382e4ab5","ios":"levelo://app?vid=25684216-a3fc-4916-8e05-9505382e4ab5"},"vehicle_type_id":"4","last_reported":1747087816,"current_range_meters":2000,"station_id":"","pricing_plan_id":"cebpf4jnsgd1na2vs0mg"},{"bike_id":"a0920cd3-75e0-4245-895a-992ad88ad8a7","system_id":"levelo_inurba_marseille","lat":43.28439,"lon":5.41051,"is_reserved":false,"is_disabled":false,"rental_uris":{"android":"levelo://app?vid=a0920cd3-75e0-4245-895a-992ad88ad8a7","ios":"levelo://app?vid=a0920cd3-75e0-4245-895a-992ad88ad8a7"},"vehicle_type_id":"4","last_reported":1747087816,"current_range_meters":2800,"station_id":"","pricing_plan_id":"cebpf4jnsgd1na2vs0mg"},{"bike_id":"73c00190-8602-4a80-bc8a-4e1f187c4250","system_id":"levelo_inurba_marseille","lat":43.21194,"lon":5.35073,"is_reserved":false,"is_disabled":false,"rental_uris":{"android":"levelo://app?vid=73c00190-8602-4a80-bc8a-4e1f187c4250","ios":"levelo://app?vid=73c00190-8602-4a80-bc8a-4e1f187c4250"},"vehicle_type_id":"4","last_reported":1747087816,"current_range_meters":3600,"station_id":"st_cvj6sg6p6f1abm77japg","pricing_plan_id":"cebpf4jnsgd1na2vs0mg"},{"bike_id":"fc2577e7-1497-425b-9d4f-ab8d7dc843c6","system_id":"levelo_inurba_marseille","lat":43.33771,"lon":5.37485,"is_reserved":false,"is_disabled":false,"rental_uris":{"android":"levelo://app?vid=fc2577e7-1497-425b-9d4f-ab8d7dc843c6","ios":"levelo://app?vid=fc2577e7-1497-425b-9d4f-ab8d7dc843c6"},"vehicle_type_id":"4","last_reported":1747087816,"current_range_meters":4000,"station_id":"","pricing_plan_id":"cebpf4jnsgd1na2vs0mg"},{"bike_id":"b1b8c807-8597-4a9c-bbcd-a2746fd63865","system_id":"levelo_inurba_marseille","lat":43.252819,"lon":5.399203,"is_reserved":false,"is_disabled":false,"rental_uris":{"android":"levelo://app?vid=b1b8c807-8597-4a9c-bbcd-a2746fd63865","ios":"levelo://app?vid=b1b8c807-8597-4a9c-bbcd-a2746fd63865"},"vehicle_type_id":"4","last_reported":1747087816,"current_range_meters":4400,"station_id":"","pricing_plan_id":"cebpf4jnsgd1na2vs0mg"},{"bike_id":"0fedde00-40eb-40d2-8fc2-e61ecce46b7b","system_id":"levelo_inurba_marseille","lat":43.28288,"lon":5.43231,"is_reserved":false,"is_disabled":false,"rental_uris":{"android":"levelo://app?vid=0fedde00-40eb-40d2-8fc2-e61ecce46b7b","ios":"levelo://app?vid=0fedde00-40eb-40d2-8fc2-e61ecce46b7b"},"vehicle_type_id":"4","last_reported":1747087816,"current_range_meters":4400,"station_id":"","pricing_plan_id":"cebpf4jnsgd1na2vs0mg"},{"bike_id":"7d31b036-f9d9-4719-a17e-238e0fe0689a","system_id":"levelo_inurba_marseille","lat":43.30796,"lon":5.38176,"is_reserved":false,"is_disabled":false,"rental_uris":{"android":"levelo://app?vid=7d31b036-f9d9-4719-a17e-238e0fe0689a","ios":"levelo://app?vid=7d31b036-f9d9-4719-a17e-238e0fe0689a"},"vehicle_type_id":"4","last_reported":1747087816,"current_range_meters":4800,"station_id":"ce4bgt12rcd13ifvqce0","pricing_plan_id":"cebpf4jnsgd1na2vs0mg"},{"bike_id":"8d3f0072-11c5-4a63-8a10-ef44205facce","system_id":"levelo_inurba_marseille","lat":43.26573,"lon":5.38995,"is_reserved":false,"is_disabled":false,"rental_uris":{"android":"levelo://app?vid=8d3f0072-11c5-4a63-8a10-ef44205facce","ios":"levelo://app?vid=8d3f0072-11c5-4a63-8a10-ef44205facce"},"vehicle_type_id":"4","last_reported":1747087816,"current_range_meters":4800,"station_id":"ce4bhe12rcd13ifvqf30","pricing_plan_id":"cebpf4jnsgd1na2vs0mg"},{"bike_id":"1838afde-afc3-4eda-8678-62b4dcd0e305","system_id":"levelo_inurba_marseille","lat":43.24065,"lon":5.37763,"is_reserved":false,"is_disabled":false,"rental_uris":{"android":"levelo://app?vid=1838afde-afc3-4eda-8678-62b4dcd0e305","ios":"levelo://app?vid=1838afde-afc3-4eda-8678-62b4dcd0e305"},"vehicle_type_id":"4","last_reported":1747087816,"current_range_meters":4800,"station_id":"ce4bhnp2rcd13ifvqgvg","pricing_plan_id":"cebpf4jnsgd1na2vs0mg"},{"bike_id":"3ae1cd74-71fb-47ba-ac9b-3b9bc8cd8449","system_id":"levelo_inurba_marseille","lat":43.21759,"lon":5.34604,"is_reserved":false,"is_disabled":false,"rental_uris":{"android":"levelo://app?vid=3ae1cd74-71fb-47ba-ac9b-3b9bc8cd8449","ios":"levelo://app?vid=3ae1cd74-71fb-47ba-ac9b-3b9bc8cd8449"},"vehicle_type_id":"4","last_reported":1747087816,"current_range_meters":4800,"station_id":"st_cvj6r9ubvosntc0bgbag","pricing_plan_id":"cebpf4jnsgd1na2vs0mg"},{"bike_id":"aba16c61-ea08-4da4-9b4a-99504f3e1a5f","system_id":"levelo_inurba_marseille","lat":43.24668,"lon":5.38159,"is_reserved":false,"is_disabled":false,"rental_uris":{"android":"levelo://app?vid=aba16c61-ea08-4da4-9b4a-99504f3e1a5f","ios":"levelo://app?vid=aba16c61-ea08-4da4-9b4a-99504f3e1a5f"},"vehicle_type_id":"4","last_reported":1747087816,"current_range_meters":5600,"station_id":"ce4bhih2rcd13ifvqfr0","pricing_plan_id":"cebpf4jnsgd1na2vs0mg"},{"bike_id":"83a81ffb-3d1c-4122-a406-60b114a380fc","system_id":"levelo_inurba_marseille","lat":43.21195,"lon":5.35071,"is_reserved":false,"is_disabled":false,"rental_uris":{"android":"levelo://app?vid=83a81ffb-3d1c-4122-a406-60b114a380fc","ios":"levelo://app?vid=83a81ffb-3d1c-4122-a406-60b114a380fc"},"vehicle_type_id":"4","last_reported":1747087816,"current_range_meters":5600,"station_id":"st_cvj6sg6p6f1abm77japg","pricing_plan_id":"cebpf4jnsgd1na2vs0mg"},{"bike_id":"842512c1-c47a-4299-8023-743fe242896b","system_id":"levelo_inurba_marseille","lat":43.24655,"lon":5.3889,"is_reserved":false,"is_disabled":false,"rental_uris":{"android":"levelo://app?vid=842512c1-c47a-4299-8023-743fe242896b","ios":"levelo://app?vid=842512c1-c47a-4299-8023-743fe242896b"},"vehicle_type_id":"4","last_reported":1747087816,"current_range_meters":6000,"station_id":"ce4bhg12rcd13ifvqf60","pricing_plan_id":"cebpf4jnsgd1na2vs0mg"},{"bike_id":"5f9b62df-1db7-4452-8caf-5538e3287ca8","system_id":"levelo_inurba_marseille","lat":43.29343,"lon":5.4282,"is_reserved":false,"is_disabled":false,"rental_uris":{"android":"levelo://app?vid=5f9b62df-1db7-4452-8caf-5538e3287ca8","ios":"levelo://app?vid=5f9b62df-1db7-4452-8caf-5538e3287ca8"},"vehicle_type_id":"4","last_reported":1747087816,"current_range_meters":6400,"station_id":"","pricing_plan_id":"cebpf4jnsgd1na2vs0mg"},{"bike_id":"d47be2cb-5174-453e-8394-152709458289","system_id":"levelo_inurba_marseille","lat":43.29267,"lon":5.37627,"is_reserved":false,"is_disabled":false,"rental_uris":{"android":"levelo://app?vid=d47be2cb-5174-453e-8394-152709458289","ios":"levelo://app?vid=d47be2cb-5174-453e-8394-152709458289"},"vehicle_type_id":"4","last_reported":1747087816,"current_range_meters":6400,"station_id":"ce4bgi12rcd13ifvqb80","pricing_plan_id":"cebpf4jnsgd1na2vs0mg"},{"bike_id":"4cd9e9b1-0539-4ab4-b230-20898a8c637d","system_id":"levelo_inurba_marseille","lat":43.30948,"lon":5.40159,"is_reserved":false,"is_disabled":false,"rental_uris":{"android":"levelo://app?vid=4cd9e9b1-0539-4ab4-b230-20898a8c637d","ios":"levelo://app?vid=4cd9e9b1-0539-4ab4-b230-20898a8c637d"},"vehicle_type_id":"4","last_reported":1747087816,"current_range_meters":6400,"station_id":"ce4bgvp2rcd13ifvqct0","pricing_plan_id":"cebpf4jnsgd1na2vs0mg"},{"bike_id":"1efd5ed7-ddfe-407c-bfe9-7df51383e995","system_id":"levelo_inurba_marseille","lat":43.28422,"lon":5.3499,"is_reserved":false,"is_disabled":false,"rental_uris":{"android":"levelo://app?vid=1efd5ed7-ddfe-407c-bfe9-7df51383e995","ios":"levelo://app?vid=1efd5ed7-ddfe-407c-bfe9-7df51383e995"},"vehicle_type_id":"4","last_reported":1747087816,"current_range_meters":6400,"station_id":"ce4bhbh2rcd13ifvqepg","pricing_plan_id":"cebpf4jnsgd1na2vs0mg"},{"bike_id":"c47d6331-3490-479f-8407-edd7635a0103","system_id":"levelo_inurba_marseille","lat":43.28152,"lon":5.42637,"is_reserved":false,"is_disabled":false,"rental_uris":{"android":"levelo://app?vid=c47d6331-3490-479f-8407-edd7635a0103","ios":"levelo://app?vid=c47d6331-3490-479f-8407-edd7635a0103"},"vehicle_type_id":"4","last_reported":1747087816,"current_range_meters":6400,"station_id":"ce4bhnh2rcd13ifvqgug","pricing_plan_id":"cebpf4jnsgd1na2vs0mg"},{"bike_id":"37de1aed-1149-4673-8960-0c1e46b86a56","system_id":"levelo_inurba_marseille","lat":43.31993,"lon":5.38131,"is_reserved":false,"is_disabled":false,"rental_uris":{"android":"levelo://app?vid=37de1aed-1149-4673-8960-0c1e46b86a56","ios":"levelo://app?vid=37de1aed-1149-4673-8960-0c1e46b86a56"},"vehicle_type_id":"4","last_reported":1747087816,"current_range_meters":6400,"station_id":"ce4bhr12rcd13ifvqhpg","pricing_plan_id":"cebpf4jnsgd1na2vs0mg"},{"bike_id":"79f767b1-523b-4188-996e-cfe61a261e86","system_id":"levelo_inurba_marseille","lat":43.241795,"lon":5.397286,"is_reserved":false,"is_disabled":false,"rental_uris":{"android":"levelo://app?vid=79f767b1-523b-4188-996e-cfe61a261e86","ios":"levelo://app?vid=79f767b1-523b-4188-996e-cfe61a261e86"},"vehicle_type_id":"4","last_reported":1747087816,"current_range_meters":6800,"station_id":"ce4bhn12rcd13ifvqgpg","pricing_plan_id":"cebpf4jnsgd1na2vs0mg"},{"bike_id":"c166edd6-904a-4bc0-bde0-4462b8738864","system_id":"levelo_inurba_marseille","lat":43.24173,"lon":5.36398,"is_reserved":false,"is_disabled":false,"rental_uris":{"android":"levelo://app?vid=c166edd6-904a-4bc0-bde0-4462b8738864","ios":"levelo://app?vid=c166edd6-904a-4bc0-bde0-4462b8738864"},"vehicle_type_id":"4","last_reported":1747087816,"current_range_meters":6800,"station_id":"cpo36qri1sfpv3e86is0","pricing_plan_id":"cebpf4jnsgd1na2vs0mg"},{"bike_id":"864ce70f-1098-4973-90a9-d5c9b927170c","system_id":"levelo_inurba_marseille","lat":43.30394,"lon":5.42457,"is_reserved":false,"is_disabled":false,"rental_uris":{"android":"levelo://app?vid=864ce70f-1098-4973-90a9-d5c9b927170c","ios":"levelo://app?vid=864ce70f-1098-4973-90a9-d5c9b927170c"},"vehicle_type_id":"4","last_reported":1747087816,"current_range_meters":7200,"station_id":"ce4bghh2rcd13ifvqb60","pricing_plan_id":"cebpf4jnsgd1na2vs0mg"},{"bike_id":"6e5c91eb-f4c3-4748-8248-e56e7fa8d9e4","system_id":"levelo_inurba_marseille","lat":43.32353,"lon":5.38883,"is_reserved":false,"is_disabled":false,"rental_uris":{"android":"levelo://app?vid=6e5c91eb-f4c3-4748-8248-e56e7fa8d9e4","ios":"levelo://app?vid=6e5c91eb-f4c3-4748-8248-e56e7fa8d9e4"},"vehicle_type_id":"4","last_reported":1747087816,"current_range_meters":7200,"station_id":"ce4bhqp2rcd13ifvqhog","pricing_plan_id":"cebpf4jnsgd1na2vs0mg"},{"bike_id":"b0ac8040-90e0-41ee-a2e3-e5462910fefc","system_id":"levelo_inurba_marseille","lat":43.27543,"lon":5.41284,"is_reserved":false,"is_disabled":false,"rental_uris":{"android":"levelo://app?vid=b0ac8040-90e0-41ee-a2e3-e5462910fefc","ios":"levelo://app?vid=b0ac8040-90e0-41ee-a2e3-e5462910fefc"},"vehicle_type_id":"4","last_reported":1747087816,"current_range_meters":8000,"station_id":"","pricing_plan_id":"cebpf4jnsgd1na2vs0mg"},{"bike_id":"b2e8f874-de9c-484f-9976-af989bbdd976","system_id":"levelo_inurba_marseille","lat":43.306293,"lon":5.400833,"is_reserved":false,"is_disabled":false,"rental_uris":{"android":"levelo://app?vid=b2e8f874-de9c-484f-9976-af989bbdd976","ios":"levelo://app?vid=b2e8f874-de9c-484f-9976-af989bbdd976"},"vehicle_type_id":"4","last_reported":1747087816,"current_range_meters":8000,"station_id":"ce4bh112rcd13ifvqda0","pricing_plan_id":"cebpf4jnsgd1na2vs0mg"},{"bike_id":"5864ab90-409a-453d-b8fa-fd09145cd77b","system_id":"levelo_inurba_marseille","lat":43.25581,"lon":5.3823,"is_reserved":false,"is_disabled":false,"rental_uris":{"android":"levelo://app?vid=5864ab90-409a-453d-b8fa-fd09145cd77b","ios":"levelo://app?vid=5864ab90-409a-453d-b8fa-fd09145cd77b"},"vehicle_type_id":"4","last_reported":1747087816,"current_range_meters":8000,"station_id":"ce4bhih2rcd13ifvqfs0","pricing_plan_id":"cebpf4jnsgd1na2vs0mg"},{"bike_id":"8cad80b9-40f1-4238-b3c2-e7e97d51aeba","system_id":"levelo_inurba_marseille","lat":43.323644,"lon":5.388909,"is_reserved":false,"is_disabled":false,"rental_uris":{"android":"levelo://app?vid=8cad80b9-40f1-4238-b3c2-e7e97d51aeba","ios":"levelo://app?vid=8cad80b9-40f1-4238-b3c2-e7e97d51aeba"},"vehicle_type_id":"4","last_reported":1747087816,"current_range_meters":8000,"station_id":"ce4bhqp2rcd13ifvqhog","pricing_plan_id":"cebpf4jnsgd1na2vs0mg"},{"bike_id":"d6defe93-e44a-481d-a104-e0a4d7584d2f","system_id":"levelo_inurba_marseille","lat":43.31337,"lon":5.39692,"is_reserved":false,"is_disabled":false,"rental_uris":{"android":"levelo://app?vid=d6defe93-e44a-481d-a104-e0a4d7584d2f","ios":"levelo://app?vid=d6defe93-e44a-481d-a104-e0a4d7584d2f"},"vehicle_type_id":"4","last_reported":1747087816,"current_range_meters":8400,"station_id":"ce4bgvp2rcd13ifvqcu0","pricing_plan_id":"cebpf4jnsgd1na2vs0mg"},{"bike_id":"a6f76d4d-3bf3-4601-9711-d2be4511763e","system_id":"levelo_inurba_marseille","lat":43.306545,"lon":5.400787,"is_reserved":false,"is_disabled":false,"rental_uris":{"android":"levelo://app?vid=a6f76d4d-3bf3-4601-9711-d2be4511763e","ios":"levelo://app?vid=a6f76d4d-3bf3-4601-9711-d2be4511763e"},"vehicle_type_id":"4","last_reported":1747087816,"current_range_meters":8400,"station_id":"ce4bh112rcd13ifvqda0","pricing_plan_id":"cebpf4jnsgd1na2vs0mg"},{"bike_id":"671f1f53-8d82-4ed4-ade1-f1720e0973b5","system_id":"levelo_inurba_marseille","lat":43.28154,"lon":5.42601,"is_reserved":false,"is_disabled":false,"rental_uris":{"android":"levelo://app?vid=671f1f53-8d82-4ed4-ade1-f1720e0973b5","ios":"levelo://app?vid=671f1f53-8d82-4ed4-ade1-f1720e0973b5"},"vehicle_type_id":"4","last_reported":1747087816,"current_range_meters":8400,"station_id":"ce4bhnh2rcd13ifvqgug","pricing_plan_id":"cebpf4jnsgd1na2vs0mg"},{"bike_id":"de4a530f-3b17-41b9-bd98-d22e64d46bdc","system_id":"levelo_inurba_marseille","lat":43.32122,"lon":5.3678,"is_reserved":false,"is_disabled":false,"rental_uris":{"android":"levelo://app?vid=de4a530f-3b17-41b9-bd98-d22e64d46bdc","ios":"levelo://app?vid=de4a530f-3b17-41b9-bd98-d22e64d46bdc"},"vehicle_type_id":"4","last_reported":1747087816,"current_range_meters":8400,"station_id":"ce4bhrh2rcd13ifvqhug","pricing_plan_id":"cebpf4jnsgd1na2vs0mg"},{"bike_id":"8b3eac21-bb1f-4170-9c40-95292bcf13c4","system_id":"levelo_inurba_marseille","lat":43.31702,"lon":5.40438,"is_reserved":false,"is_disabled":false,"rental_uris":{"android":"levelo://app?vid=8b3eac21-bb1f-4170-9c40-95292bcf13c4","ios":"levelo://app?vid=8b3eac21-bb1f-4170-9c40-95292bcf13c4"},"vehicle_type_id":"4","last_reported":1747087816,"current_range_meters":8800,"station_id":"ce4bh012rcd13ifvqd00","pricing_plan_id":"cebpf4jnsgd1na2vs0mg"},{"bike_id":"cf119389-8c06-4449-a205-2b18fbb577ee","system_id":"levelo_inurba_marseille","lat":43.31702,"lon":5.40461,"is_reserved":false,"is_disabled":false,"rental_uris":{"android":"levelo://app?vid=cf119389-8c06-4449-a205-2b18fbb577ee","ios":"levelo://app?vid=cf119389-8c06-4449-a205-2b18fbb577ee"},"vehicle_type_id":"4","last_reported":1747087816,"current_range_meters":8800,"station_id":"ce4bh012rcd13ifvqd00","pricing_plan_id":"cebpf4jnsgd1na2vs0mg"},{"bike_id":"b3d7a4d3-78a5-43a0-9843-e302414df266","system_id":"levelo_inurba_marseille","lat":43.2792,"lon":5.39616,"is_reserved":false,"is_disabled":false,"rental_uris":{"android":"levelo://app?vid=b3d7a4d3-78a5-43a0-9843-e302414df266","ios":"levelo://app?vid=b3d7a4d3-78a5-43a0-9843-e302414df266"},"vehicle_type_id":"4","last_reported":1747087816,"current_range_meters":8800,"station_id":"ce4bhf92rcd13ifvqf40","pricing_plan_id":"cebpf4jnsgd1na2vs0mg"},{"bike_id":"decd7b5f-cddf-4dc2-a45b-9dd01f4b7747","system_id":"levelo_inurba_marseille","lat":43.24174,"lon":5.39708,"is_reserved":false,"is_disabled":false,"rental_uris":{"android":"levelo://app?vid=decd7b5f-cddf-4dc2-a45b-9dd01f4b7747","ios":"levelo://app?vid=decd7b5f-cddf-4dc2-a45b-9dd01f4b7747"},"vehicle_type_id":"4","last_reported":1747087816,"current_range_meters":8800,"station_id":"ce4bhn12rcd13ifvqgpg","pricing_plan_id":"cebpf4jnsgd1na2vs0mg"},{"bike_id":"8713ea68-2d18-4f02-b58b-17c62786319e","system_id":"levelo_inurba_marseille","lat":43.3235,"lon":5.40622,"is_reserved":false,"is_disabled":false,"rental_uris":{"android":"levelo://app?vid=8713ea68-2d18-4f02-b58b-17c62786319e","ios":"levelo://app?vid=8713ea68-2d18-4f02-b58b-17c62786319e"},"vehicle_type_id":"4","last_reported":1747087816,"current_range_meters":8800,"station_id":"ce4bhq92rcd13ifvqhjg","pricing_plan_id":"cebpf4jnsgd1na2vs0mg"},{"bike_id":"c5eb53b8-783c-4568-bc58-af7e2dd00aa0","system_id":"levelo_inurba_marseille","lat":43.32376,"lon":5.36738,"is_reserved":false,"is_disabled":false,"rental_uris":{"android":"levelo://app?vid=c5eb53b8-783c-4568-bc58-af7e2dd00aa0","ios":"levelo://app?vid=c5eb53b8-783c-4568-bc58-af7e2dd00aa0"},"vehicle_type_id":"4","last_reported":1747087816,"current_range_meters":8800,"station_id":"ce4bhsh2rcd13ifvqi2g","pricing_plan_id":"cebpf4jnsgd1na2vs0mg"},{"bike_id":"cb4aa7f8-5e58-4103-827e-f5aa7f653469","system_id":"levelo_inurba_marseille","lat":43.232,"lon":5.35551,"is_reserved":false,"is_disabled":false,"rental_uris":{"android":"levelo://app?vid=cb4aa7f8-5e58-4103-827e-f5aa7f653469","ios":"levelo://app?vid=cb4aa7f8-5e58-4103-827e-f5aa7f653469"},"vehicle_type_id":"4","last_reported":1747087816,"current_range_meters":8800,"station_id":"ce4bhu92rcd13ifvqi70","pricing_plan_id":"cebpf4jnsgd1na2vs0mg"},{"bike_id":"e0b16578-b75c-49a0-be9b-59a4685629b7","system_id":"levelo_inurba_marseille","lat":43.28143,"lon":5.42663,"is_reserved":false,"is_disabled":false,"rental_uris":{"android":"levelo://app?vid=e0b16578-b75c-49a0-be9b-59a4685629b7","ios":"levelo://app?vid=e0b16578-b75c-49a0-be9b-59a4685629b7"},"vehicle_type_id":"4","last_reported":1747087816,"current_range_meters":9200,"station_id":"ce4bhnh2rcd13ifvqgug","pricing_plan_id":"cebpf4jnsgd1na2vs0mg"},{"bike_id":"acca8498-5f9b-48da-a0fd-34e73dfe9abc","system_id":"levelo_inurba_marseille","lat":43.284011,"lon":5.375307,"is_reserved":false,"is_disabled":false,"rental_uris":{"android":"levelo://app?vid=acca8498-5f9b-48da-a0fd-34e73dfe9abc","ios":"levelo://app?vid=acca8498-5f9b-48da-a0fd-34e73dfe9abc"},"vehicle_type_id":"4","last_reported":1747087816,"current_range_meters":9600,"station_id":"ce4bh412rcd13ifvqds0","pricing_plan_id":"cebpf4jnsgd1na2vs0mg"},{"bike_id":"0a8bb0eb-e18a-4601-8b9c-10cedd4593aa","system_id":"levelo_inurba_marseille","lat":43.25111,"lon":5.4033,"is_reserved":false,"is_disabled":false,"rental_uris":{"android":"levelo://app?vid=0a8bb0eb-e18a-4601-8b9c-10cedd4593aa","ios":"levelo://app?vid=0a8bb0eb-e18a-4601-8b9c-10cedd4593aa"},"vehicle_type_id":"4","last_reported":1747087816,"current_range_meters":9600,"station_id":"ce4bhlh2rcd13ifvqgig","pricing_plan_id":"cebpf4jnsgd1na2vs0mg"},{"bike_id":"2ee4d910-0ee1-4bc5-86c8-c77afad12b4f","system_id":"levelo_inurba_marseille","lat":43.321118,"lon":5.367681,"is_reserved":false,"is_disabled":false,"rental_uris":{"android":"levelo://app?vid=2ee4d910-0ee1-4bc5-86c8-c77afad12b4f","ios":"levelo://app?vid=2ee4d910-0ee1-4bc5-86c8-c77afad12b4f"},"vehicle_type_id":"4","last_reported":1747087816,"current_range_meters":9600,"station_id":"ce4bhrh2rcd13ifvqhug","pricing_plan_id":"cebpf4jnsgd1na2vs0mg"},{"bike_id":"37947ea2-4144-498b-9773-6d6e7497365c","system_id":"levelo_inurba_marseille","lat":43.31459,"lon":5.37286,"is_reserved":false,"is_disabled":false,"rental_uris":{"android":"levelo://app?vid=37947ea2-4144-498b-9773-6d6e7497365c","ios":"levelo://app?vid=37947ea2-4144-498b-9773-6d6e7497365c"},"vehicle_type_id":"4","last_reported":1747087816,"current_range_meters":10000,"station_id":"ce4bgt12rcd13ifvqcd0","pricing_plan_id":"cebpf4jnsgd1na2vs0mg"},{"bike_id":"9b3463fc-a8b1-44b7-8937-38fe177691ca","system_id":"levelo_inurba_marseille","lat":43.28102,"lon":5.3783,"is_reserved":false,"is_disabled":false,"rental_uris":{"android":"levelo://app?vid=9b3463fc-a8b1-44b7-8937-38fe177691ca","ios":"levelo://app?vid=9b3463fc-a8b1-44b7-8937-38fe177691ca"},"vehicle_type_id":"4","last_reported":1747087816,"current_range_meters":10000,"station_id":"ce4bha12rcd13ifvqee0","pricing_plan_id":"cebpf4jnsgd1na2vs0mg"},{"bike_id":"4193b3ff-7911-46cf-aafe-21c4ebe7fd24","system_id":"levelo_inurba_marseille","lat":43.23187,"lon":5.39981,"is_reserved":false,"is_disabled":false,"rental_uris":{"android":"levelo://app?vid=4193b3ff-7911-46cf-aafe-21c4ebe7fd24","ios":"levelo://app?vid=4193b3ff-7911-46cf-aafe-21c4ebe7fd24"},"vehicle_type_id":"4","last_reported":1747087816,"current_range_meters":10000,"station_id":"ce4bhn12rcd13ifvqgqg","pricing_plan_id":"cebpf4jnsgd1na2vs0mg"},{"bike_id":"b49c1e48-4bbf-4fd1-bf90-fe88ef997d43","system_id":"levelo_inurba_marseille","lat":43.30926,"lon":5.40146,"is_reserved":false,"is_disabled":false,"rental_uris":{"android":"levelo://app?vid=b49c1e48-4bbf-4fd1-bf90-fe88ef997d43","ios":"levelo://app?vid=b49c1e48-4bbf-4fd1-bf90-fe88ef997d43"},"vehicle_type_id":"4","last_reported":1747087816,"current_range_meters":10800,"station_id":"ce4bgvp2rcd13ifvqct0","pricing_plan_id":"cebpf4jnsgd1na2vs0mg"},{"bike_id":"84daf3e2-01ed-48ee-8b76-11525731e098","system_id":"levelo_inurba_marseille","lat":43.31328,"lon":5.39693,"is_reserved":false,"is_disabled":false,"rental_uris":{"android":"levelo://app?vid=84daf3e2-01ed-48ee-8b76-11525731e098","ios":"levelo://app?vid=84daf3e2-01ed-48ee-8b76-11525731e098"},"vehicle_type_id":"4","last_reported":1747087816,"current_range_meters":10800,"station_id":"ce4bgvp2rcd13ifvqcu0","pricing_plan_id":"cebpf4jnsgd1na2vs0mg"},{"bike_id":"8f22a717-4ce8-42f7-9922-ecd69d0f4e5e","system_id":"levelo_inurba_marseille","lat":43.29258,"lon":5.4091,"is_reserved":false,"is_disabled":false,"rental_uris":{"android":"levelo://app?vid=8f22a717-4ce8-42f7-9922-ecd69d0f4e5e","ios":"levelo://app?vid=8f22a717-4ce8-42f7-9922-ecd69d0f4e5e"},"vehicle_type_id":"4","last_reported":1747087816,"current_range_meters":10800,"station_id":"ce4bh192rcd13ifvqdc0","pricing_plan_id":"cebpf4jnsgd1na2vs0mg"},{"bike_id":"09667552-604c-472f-b05c-2be0e1fd2bf4","system_id":"levelo_inurba_marseille","lat":43.280368,"lon":5.369405,"is_reserved":false,"is_disabled":false,"rental_uris":{"android":"levelo://app?vid=09667552-604c-472f-b05c-2be0e1fd2bf4","ios":"levelo://app?vid=09667552-604c-472f-b05c-2be0e1fd2bf4"},"vehicle_type_id":"4","last_reported":1747087816,"current_range_meters":10800,"station_id":"ce4bha12rcd13ifvqef0","pricing_plan_id":"cebpf4jnsgd1na2vs0mg"},{"bike_id":"4a2520bb-cb4e-4294-bfd8-f541d46313b8","system_id":"levelo_inurba_marseille","lat":43.29535,"lon":5.37506,"is_reserved":false,"is_disabled":false,"rental_uris":{"android":"levelo://app?vid=4a2520bb-cb4e-4294-bfd8-f541d46313b8","ios":"levelo://app?vid=4a2520bb-cb4e-4294-bfd8-f541d46313b8"},"vehicle_type_id":"4","last_reported":1747087816,"current_range_meters":11600,"station_id":"ce4bgkp2rcd13ifvqbmg","pricing_plan_id":"cebpf4jnsgd1na2vs0mg"},{"bike_id":"45ef7490-43b0-4db5-aad0-76483facce2d","system_id":"levelo_inurba_marseille","lat":43.29848,"lon":5.36284,"is_reserved":false,"is_disabled":false,"rental_uris":{"android":"levelo://app?vid=45ef7490-43b0-4db5-aad0-76483facce2d","ios":"levelo://app?vid=45ef7490-43b0-4db5-aad0-76483facce2d"},"vehicle_type_id":"4","last_reported":1747087816,"current_range_meters":11600,"station_id":"ce4bgpp2rcd13ifvqc3g","pricing_plan_id":"cebpf4jnsgd1na2vs0mg"},{"bike_id":"de2e4e22-ea1a-40b8-addf-31f6ff1ae52a","system_id":"levelo_inurba_marseille","lat":43.31701,"lon":5.40469,"is_reserved":false,"is_disabled":false,"rental_uris":{"android":"levelo://app?vid=de2e4e22-ea1a-40b8-addf-31f6ff1ae52a","ios":"levelo://app?vid=de2e4e22-ea1a-40b8-addf-31f6ff1ae52a"},"vehicle_type_id":"4","last_reported":1747087816,"current_range_meters":11600,"station_id":"ce4bh012rcd13ifvqd00","pricing_plan_id":"cebpf4jnsgd1na2vs0mg"},{"bike_id":"3d8eff64-3568-4b32-b8e0-e6710e6b904b","system_id":"levelo_inurba_marseille","lat":43.330845,"lon":5.40824,"is_reserved":false,"is_disabled":false,"rental_uris":{"android":"levelo://app?vid=3d8eff64-3568-4b32-b8e0-e6710e6b904b","ios":"levelo://app?vid=3d8eff64-3568-4b32-b8e0-e6710e6b904b"},"vehicle_type_id":"4","last_reported":1747087816,"current_range_meters":12000,"station_id":"","pricing_plan_id":"cebpf4jnsgd1na2vs0mg"},{"bike_id":"198d6fcd-54b0-4522-a846-5bc9669dd62a","system_id":"levelo_inurba_marseille","lat":43.31362,"lon":5.38493,"is_reserved":false,"is_disabled":false,"rental_uris":{"android":"levelo://app?vid=198d6fcd-54b0-4522-a846-5bc9669dd62a","ios":"levelo://app?vid=198d6fcd-54b0-4522-a846-5bc9669dd62a"},"vehicle_type_id":"4","last_reported":1747087816,"current_range_meters":12000,"station_id":"ce4bgt92rcd13ifvqcf0","pricing_plan_id":"cebpf4jnsgd1na2vs0mg"},{"bike_id":"c45660a4-2a75-4fe5-babc-ce5f32b31b47","system_id":"levelo_inurba_marseille","lat":43.30945,"lon":5.40142,"is_reserved":false,"is_disabled":false,"rental_uris":{"android":"levelo://app?vid=c45660a4-2a75-4fe5-babc-ce5f32b31b47","ios":"levelo://app?vid=c45660a4-2a75-4fe5-babc-ce5f32b31b47"},"vehicle_type_id":"4","last_reported":1747087816,"current_range_meters":12000,"station_id":"ce4bgvp2rcd13ifvqct0","pricing_plan_id":"cebpf4jnsgd1na2vs0mg"},{"bike_id":"c39ffec0-bf54-4b94-892c-11b3ef277137","system_id":"levelo_inurba_marseille","lat":43.23189,"lon":5.39972,"is_reserved":false,"is_disabled":false,"rental_uris":{"android":"levelo://app?vid=c39ffec0-bf54-4b94-892c-11b3ef277137","ios":"levelo://app?vid=c39ffec0-bf54-4b94-892c-11b3ef277137"},"vehicle_type_id":"4","last_reported":1747087816,"current_range_meters":12000,"station_id":"ce4bhn12rcd13ifvqgqg","pricing_plan_id":"cebpf4jnsgd1na2vs0mg"},{"bike_id":"41da10f9-c4df-4a4d-81d7-007f46c00b73","system_id":"levelo_inurba_marseille","lat":43.23194,"lon":5.39959,"is_reserved":false,"is_disabled":false,"rental_uris":{"android":"levelo://app?vid=41da10f9-c4df-4a4d-81d7-007f46c00b73","ios":"levelo://app?vid=41da10f9-c4df-4a4d-81d7-007f46c00b73"},"vehicle_type_id":"4","last_reported":1747087816,"current_range_meters":12000,"station_id":"ce4bhn12rcd13ifvqgqg","pricing_plan_id":"cebpf4jnsgd1na2vs0mg"},{"bike_id":"759e649a-2376-4211-85aa-2535ec6f8982","system_id":"levelo_inurba_marseille","lat":43.29272,"lon":5.40915,"is_reserved":false,"is_disabled":false,"rental_uris":{"android":"levelo://app?vid=759e649a-2376-4211-85aa-2535ec6f8982","ios":"levelo://app?vid=759e649a-2376-4211-85aa-2535ec6f8982"},"vehicle_type_id":"4","last_reported":1747087816,"current_range_meters":12400,"station_id":"ce4bh192rcd13ifvqdc0","pricing_plan_id":"cebpf4jnsgd1na2vs0mg"},{"bike_id":"b95a3da1-d84f-4349-bc15-21030c7174b6","system_id":"levelo_inurba_marseille","lat":43.292716,"lon":5.401207,"is_reserved":false,"is_disabled":false,"rental_uris":{"android":"levelo://app?vid=b95a3da1-d84f-4349-bc15-21030c7174b6","ios":"levelo://app?vid=b95a3da1-d84f-4349-bc15-21030c7174b6"},"vehicle_type_id":"4","last_reported":1747087816,"current_range_meters":12400,"station_id":"ce4bh312rcd13ifvqdk0","pricing_plan_id":"cebpf4jnsgd1na2vs0mg"},{"bike_id":"0e89a721-196d-4572-b905-e39e1dafff7a","system_id":"levelo_inurba_marseille","lat":43.32113,"lon":5.368,"is_reserved":false,"is_disabled":false,"rental_uris":{"android":"levelo://app?vid=0e89a721-196d-4572-b905-e39e1dafff7a","ios":"levelo://app?vid=0e89a721-196d-4572-b905-e39e1dafff7a"},"vehicle_type_id":"4","last_reported":1747087816,"current_range_meters":12400,"station_id":"ce4bhrh2rcd13ifvqhug","pricing_plan_id":"cebpf4jnsgd1na2vs0mg"},{"bike_id":"4acebf5d-90de-4f34-bd54-e2958ed913ff","system_id":"levelo_inurba_marseille","lat":43.29252,"lon":5.40227,"is_reserved":false,"is_disabled":false,"rental_uris":{"android":"levelo://app?vid=4acebf5d-90de-4f34-bd54-e2958ed913ff","ios":"levelo://app?vid=4acebf5d-90de-4f34-bd54-e2958ed913ff"},"vehicle_type_id":"4","last_reported":1747087816,"current_range_meters":12800,"station_id":"","pricing_plan_id":"cebpf4jnsgd1na2vs0mg"},{"bike_id":"d9b91c76-9420-4248-9ccc-54ae67080ef3","system_id":"levelo_inurba_marseille","lat":43.31069,"lon":5.38346,"is_reserved":false,"is_disabled":false,"rental_uris":{"android":"levelo://app?vid=d9b91c76-9420-4248-9ccc-54ae67080ef3","ios":"levelo://app?vid=d9b91c76-9420-4248-9ccc-54ae67080ef3"},"vehicle_type_id":"4","last_reported":1747087816,"current_range_meters":12800,"station_id":"ce4bgv92rcd13ifvqcr0","pricing_plan_id":"cebpf4jnsgd1na2vs0mg"},{"bike_id":"a07af238-1d5a-492e-88df-35771675e17b","system_id":"levelo_inurba_marseille","lat":43.287,"lon":5.37398,"is_reserved":false,"is_disabled":false,"rental_uris":{"android":"levelo://app?vid=a07af238-1d5a-492e-88df-35771675e17b","ios":"levelo://app?vid=a07af238-1d5a-492e-88df-35771675e17b"},"vehicle_type_id":"4","last_reported":1747087816,"current_range_meters":12800,"station_id":"ce4bh3p2rcd13ifvqdq0","pricing_plan_id":"cebpf4jnsgd1na2vs0mg"},{"bike_id":"315c9aa5-cd9f-4a60-8ba2-a8f8830c3824","system_id":"levelo_inurba_marseille","lat":43.32346,"lon":5.40606,"is_reserved":false,"is_disabled":false,"rental_uris":{"android":"levelo://app?vid=315c9aa5-cd9f-4a60-8ba2-a8f8830c3824","ios":"levelo://app?vid=315c9aa5-cd9f-4a60-8ba2-a8f8830c3824"},"vehicle_type_id":"4","last_reported":1747087816,"current_range_meters":12800,"station_id":"ce4bhq92rcd13ifvqhjg","pricing_plan_id":"cebpf4jnsgd1na2vs0mg"},{"bike_id":"4d55bf7d-239f-41dc-917f-ddce35592326","system_id":"levelo_inurba_marseille","lat":43.30581,"lon":5.393576,"is_reserved":false,"is_disabled":false,"rental_uris":{"android":"levelo://app?vid=4d55bf7d-239f-41dc-917f-ddce35592326","ios":"levelo://app?vid=4d55bf7d-239f-41dc-917f-ddce35592326"},"vehicle_type_id":"4","last_reported":1747087816,"current_range_meters":13600,"station_id":"","pricing_plan_id":"cebpf4jnsgd1na2vs0mg"},{"bike_id":"0dfdecac-15b4-4384-b437-7717028cac7a","system_id":"levelo_inurba_marseille","lat":43.23968,"lon":5.3663,"is_reserved":false,"is_disabled":false,"rental_uris":{"android":"levelo://app?vid=0dfdecac-15b4-4384-b437-7717028cac7a","ios":"levelo://app?vid=0dfdecac-15b4-4384-b437-7717028cac7a"},"vehicle_type_id":"4","last_reported":1747087816,"current_range_meters":13600,"station_id":"ce4bhi12rcd13ifvqfp0","pricing_plan_id":"cebpf4jnsgd1na2vs0mg"},{"bike_id":"4a04f04b-ff05-4ae5-afa3-92a1ee785bee","system_id":"levelo_inurba_marseille","lat":43.32482,"lon":5.36571,"is_reserved":false,"is_disabled":false,"rental_uris":{"android":"levelo://app?vid=4a04f04b-ff05-4ae5-afa3-92a1ee785bee","ios":"levelo://app?vid=4a04f04b-ff05-4ae5-afa3-92a1ee785bee"},"vehicle_type_id":"4","last_reported":1747087816,"current_range_meters":14000,"station_id":"ce4bhs12rcd13ifvqhvg","pricing_plan_id":"cebpf4jnsgd1na2vs0mg"},{"bike_id":"8ce91680-622d-4148-97dc-73ab09d9ec28","system_id":"levelo_inurba_marseille","lat":43.24545,"lon":5.39528,"is_reserved":false,"is_disabled":false,"rental_uris":{"android":"levelo://app?vid=8ce91680-622d-4148-97dc-73ab09d9ec28","ios":"levelo://app?vid=8ce91680-622d-4148-97dc-73ab09d9ec28"},"vehicle_type_id":"4","last_reported":1747087816,"current_range_meters":14800,"station_id":"ce4bhlp2rcd13ifvqgjg","pricing_plan_id":"cebpf4jnsgd1na2vs0mg"},{"bike_id":"e6ad97f1-b73e-46fd-a80f-360ecb6587de","system_id":"levelo_inurba_marseille","lat":43.27977,"lon":5.40032,"is_reserved":false,"is_disabled":false,"rental_uris":{"android":"levelo://app?vid=e6ad97f1-b73e-46fd-a80f-360ecb6587de","ios":"levelo://app?vid=e6ad97f1-b73e-46fd-a80f-360ecb6587de"},"vehicle_type_id":"4","last_reported":1747087816,"current_range_meters":14800,"station_id":"ce4bho92rcd13ifvqh4g","pricing_plan_id":"cebpf4jnsgd1na2vs0mg"},{"bike_id":"de95d53c-a8d8-42e2-bf5c-cb50d31548c5","system_id":"levelo_inurba_marseille","lat":43.28107,"lon":5.37819,"is_reserved":false,"is_disabled":false,"rental_uris":{"android":"levelo://app?vid=de95d53c-a8d8-42e2-bf5c-cb50d31548c5","ios":"levelo://app?vid=de95d53c-a8d8-42e2-bf5c-cb50d31548c5"},"vehicle_type_id":"4","last_reported":1747087816,"current_range_meters":15200,"station_id":"ce4bha12rcd13ifvqee0","pricing_plan_id":"cebpf4jnsgd1na2vs0mg"},{"bike_id":"dc8472a8-1e0e-48c9-8d42-8e60b4ffb2cb","system_id":"levelo_inurba_marseille","lat":43.28695,"lon":5.36346,"is_reserved":false,"is_disabled":false,"rental_uris":{"android":"levelo://app?vid=dc8472a8-1e0e-48c9-8d42-8e60b4ffb2cb","ios":"levelo://app?vid=dc8472a8-1e0e-48c9-8d42-8e60b4ffb2cb"},"vehicle_type_id":"4","last_reported":1747087816,"current_range_meters":15200,"station_id":"ce4bhah2rcd13ifvqej0","pricing_plan_id":"cebpf4jnsgd1na2vs0mg"},{"bike_id":"53708a87-bc24-48be-927f-897135a50e03","system_id":"levelo_inurba_marseille","lat":43.30888,"lon":5.39652,"is_reserved":false,"is_disabled":false,"rental_uris":{"android":"levelo://app?vid=53708a87-bc24-48be-927f-897135a50e03","ios":"levelo://app?vid=53708a87-bc24-48be-927f-897135a50e03"},"vehicle_type_id":"4","last_reported":1747087816,"current_range_meters":16000,"station_id":"ce4bh012rcd13ifvqcv0","pricing_plan_id":"cebpf4jnsgd1na2vs0mg"},{"bike_id":"6756a406-2282-4cd2-9717-1cbb2d3764e9","system_id":"levelo_inurba_marseille","lat":43.31329,"lon":5.39686,"is_reserved":false,"is_disabled":false,"rental_uris":{"android":"levelo://app?vid=6756a406-2282-4cd2-9717-1cbb2d3764e9","ios":"levelo://app?vid=6756a406-2282-4cd2-9717-1cbb2d3764e9"},"vehicle_type_id":"4","last_reported":1747087816,"current_range_meters":16400,"station_id":"ce4bgvp2rcd13ifvqcu0","pricing_plan_id":"cebpf4jnsgd1na2vs0mg"},{"bike_id":"126f3d1b-12be-48be-9bb6-fe9fdac4eaf5","system_id":"levelo_inurba_marseille","lat":43.2963,"lon":5.40599,"is_reserved":false,"is_disabled":false,"rental_uris":{"android":"levelo://app?vid=126f3d1b-12be-48be-9bb6-fe9fdac4eaf5","ios":"levelo://app?vid=126f3d1b-12be-48be-9bb6-fe9fdac4eaf5"},"vehicle_type_id":"4","last_reported":1747087816,"current_range_meters":16400,"station_id":"ce4bh0h2rcd13ifvqd60","pricing_plan_id":"cebpf4jnsgd1na2vs0mg"},{"bike_id":"60cfea43-65dd-49c5-be74-cbe13c14c76d","system_id":"levelo_inurba_marseille","lat":43.284521,"lon":5.358951,"is_reserved":false,"is_disabled":false,"rental_uris":{"android":"levelo://app?vid=60cfea43-65dd-49c5-be74-cbe13c14c76d","ios":"levelo://app?vid=60cfea43-65dd-49c5-be74-cbe13c14c76d"},"vehicle_type_id":"4","last_reported":1747087816,"current_range_meters":16400,"station_id":"ce4bhah2rcd13ifvqei0","pricing_plan_id":"cebpf4jnsgd1na2vs0mg"},{"bike_id":"e0501693-7dcd-4d63-b47c-bae0b3bfaf30","system_id":"levelo_inurba_marseille","lat":43.28718,"lon":5.36086,"is_reserved":false,"is_disabled":false,"rental_uris":{"android":"levelo://app?vid=e0501693-7dcd-4d63-b47c-bae0b3bfaf30","ios":"levelo://app?vid=e0501693-7dcd-4d63-b47c-bae0b3bfaf30"},"vehicle_type_id":"4","last_reported":1747087816,"current_range_meters":16400,"station_id":"cki0cbj6b192h4jlfktg","pricing_plan_id":"cebpf4jnsgd1na2vs0mg"},{"bike_id":"2f2dce67-b068-40e2-b36a-83b8c1d2c351","system_id":"levelo_inurba_marseille","lat":43.31513,"lon":5.37321,"is_reserved":false,"is_disabled":false,"rental_uris":{"android":"levelo://app?vid=2f2dce67-b068-40e2-b36a-83b8c1d2c351","ios":"levelo://app?vid=2f2dce67-b068-40e2-b36a-83b8c1d2c351"},"vehicle_type_id":"4","last_reported":1747087816,"current_range_meters":16800,"station_id":"ce4bgt12rcd13ifvqcd0","pricing_plan_id":"cebpf4jnsgd1na2vs0mg"},{"bike_id":"39dbaf81-bc49-42f6-96c5-50b162f92bd5","system_id":"levelo_inurba_marseille","lat":43.284557,"lon":5.35894,"is_reserved":false,"is_disabled":false,"rental_uris":{"android":"levelo://app?vid=39dbaf81-bc49-42f6-96c5-50b162f92bd5","ios":"levelo://app?vid=39dbaf81-bc49-42f6-96c5-50b162f92bd5"},"vehicle_type_id":"4","last_reported":1747087816,"current_range_meters":16800,"station_id":"ce4bhah2rcd13ifvqei0","pricing_plan_id":"cebpf4jnsgd1na2vs0mg"},{"bike_id":"88f47f0a-48b6-431d-a252-9dbf098b5774","system_id":"levelo_inurba_marseille","lat":43.25,"lon":5.38929,"is_reserved":false,"is_disabled":false,"rental_uris":{"android":"levelo://app?vid=88f47f0a-48b6-431d-a252-9dbf098b5774","ios":"levelo://app?vid=88f47f0a-48b6-431d-a252-9dbf098b5774"},"vehicle_type_id":"4","last_reported":1747087816,"current_range_meters":16800,"station_id":"ce4bhgp2rcd13ifvqfd0","pricing_plan_id":"cebpf4jnsgd1na2vs0mg"},{"bike_id":"e8aa85f9-6b45-4722-a9ca-96454e6d7364","system_id":"levelo_inurba_marseille","lat":43.27814,"lon":5.40715,"is_reserved":false,"is_disabled":false,"rental_uris":{"android":"levelo://app?vid=e8aa85f9-6b45-4722-a9ca-96454e6d7364","ios":"levelo://app?vid=e8aa85f9-6b45-4722-a9ca-96454e6d7364"},"vehicle_type_id":"4","last_reported":1747087816,"current_range_meters":16800,"station_id":"ce4bhnh2rcd13ifvqgtg","pricing_plan_id":"cebpf4jnsgd1na2vs0mg"},{"bike_id":"817270a4-9a01-4414-b690-0ea4101d3373","system_id":"levelo_inurba_marseille","lat":43.30378,"lon":5.42489,"is_reserved":false,"is_disabled":false,"rental_uris":{"android":"levelo://app?vid=817270a4-9a01-4414-b690-0ea4101d3373","ios":"levelo://app?vid=817270a4-9a01-4414-b690-0ea4101d3373"},"vehicle_type_id":"4","last_reported":1747087816,"current_range_meters":16800,"station_id":"ce4bhoh2rcd13ifvqh6g","pricing_plan_id":"cebpf4jnsgd1na2vs0mg"},{"bike_id":"5648f3cd-51f0-444a-96d0-90720f4f9a85","system_id":"levelo_inurba_marseille","lat":43.31376,"lon":5.38496,"is_reserved":false,"is_disabled":false,"rental_uris":{"android":"levelo://app?vid=5648f3cd-51f0-444a-96d0-90720f4f9a85","ios":"levelo://app?vid=5648f3cd-51f0-444a-96d0-90720f4f9a85"},"vehicle_type_id":"4","last_reported":1747087816,"current_range_meters":17200,"station_id":"ce4bgt92rcd13ifvqcf0","pricing_plan_id":"cebpf4jnsgd1na2vs0mg"},{"bike_id":"aaf1bb4b-f3d6-45cc-8e77-e5d0c945415a","system_id":"levelo_inurba_marseille","lat":43.26224,"lon":5.40459,"is_reserved":false,"is_disabled":false,"rental_uris":{"android":"levelo://app?vid=aaf1bb4b-f3d6-45cc-8e77-e5d0c945415a","ios":"levelo://app?vid=aaf1bb4b-f3d6-45cc-8e77-e5d0c945415a"},"vehicle_type_id":"4","last_reported":1747087816,"current_range_meters":17200,"station_id":"ce4bhmh2rcd13ifvqgmg","pricing_plan_id":"cebpf4jnsgd1na2vs0mg"},{"bike_id":"520f07fc-e2a5-442e-bcdc-caa8376efe3e","system_id":"levelo_inurba_marseille","lat":43.31738,"lon":5.40462,"is_reserved":false,"is_disabled":false,"rental_uris":{"android":"levelo://app?vid=520f07fc-e2a5-442e-bcdc-caa8376efe3e","ios":"levelo://app?vid=520f07fc-e2a5-442e-bcdc-caa8376efe3e"},"vehicle_type_id":"4","last_reported":1747087816,"current_range_meters":17600,"station_id":"","pricing_plan_id":"cebpf4jnsgd1na2vs0mg"},{"bike_id":"5ed6891a-4747-4680-a606-698f44b742e8","system_id":"levelo_inurba_marseille","lat":43.30661,"lon":5.40076,"is_reserved":false,"is_disabled":false,"rental_uris":{"android":"levelo://app?vid=5ed6891a-4747-4680-a606-698f44b742e8","ios":"levelo://app?vid=5ed6891a-4747-4680-a606-698f44b742e8"},"vehicle_type_id":"4","last_reported":1747087816,"current_range_meters":17600,"station_id":"ce4bh112rcd13ifvqda0","pricing_plan_id":"cebpf4jnsgd1na2vs0mg"},{"bike_id":"86689108-8b6c-425a-98ae-946b288cf2c2","system_id":"levelo_inurba_marseille","lat":43.28495,"lon":5.35884,"is_reserved":false,"is_disabled":false,"rental_uris":{"android":"levelo://app?vid=86689108-8b6c-425a-98ae-946b288cf2c2","ios":"levelo://app?vid=86689108-8b6c-425a-98ae-946b288cf2c2"},"vehicle_type_id":"4","last_reported":1747087816,"current_range_meters":17600,"station_id":"ce4bhah2rcd13ifvqei0","pricing_plan_id":"cebpf4jnsgd1na2vs0mg"},{"bike_id":"241a000d-cef4-427c-b5ef-e2f8e2d74bbb","system_id":"levelo_inurba_marseille","lat":43.28696,"lon":5.37393,"is_reserved":false,"is_disabled":false,"rental_uris":{"android":"levelo://app?vid=241a000d-cef4-427c-b5ef-e2f8e2d74bbb","ios":"levelo://app?vid=241a000d-cef4-427c-b5ef-e2f8e2d74bbb"},"vehicle_type_id":"4","last_reported":1747087816,"current_range_meters":18000,"station_id":"ce4bh3p2rcd13ifvqdq0","pricing_plan_id":"cebpf4jnsgd1na2vs0mg"},{"bike_id":"849551c5-240b-48cd-88b2-3e23f9d3b406","system_id":"levelo_inurba_marseille","lat":43.28412,"lon":5.375109,"is_reserved":false,"is_disabled":false,"rental_uris":{"android":"levelo://app?vid=849551c5-240b-48cd-88b2-3e23f9d3b406","ios":"levelo://app?vid=849551c5-240b-48cd-88b2-3e23f9d3b406"},"vehicle_type_id":"4","last_reported":1747087816,"current_range_meters":18000,"station_id":"ce4bh412rcd13ifvqds0","pricing_plan_id":"cebpf4jnsgd1na2vs0mg"},{"bike_id":"35cc4d0b-ce8f-4f43-ad91-312464bb0a63","system_id":"levelo_inurba_marseille","lat":43.29853,"lon":5.36285,"is_reserved":false,"is_disabled":false,"rental_uris":{"android":"levelo://app?vid=35cc4d0b-ce8f-4f43-ad91-312464bb0a63","ios":"levelo://app?vid=35cc4d0b-ce8f-4f43-ad91-312464bb0a63"},"vehicle_type_id":"4","last_reported":1747087816,"current_range_meters":18800,"station_id":"ce4bgpp2rcd13ifvqc3g","pricing_plan_id":"cebpf4jnsgd1na2vs0mg"},{"bike_id":"93ddefd7-b17e-4643-9c51-9ff2311d7114","system_id":"levelo_inurba_marseille","lat":43.30932,"lon":5.40141,"is_reserved":false,"is_disabled":false,"rental_uris":{"android":"levelo://app?vid=93ddefd7-b17e-4643-9c51-9ff2311d7114","ios":"levelo://app?vid=93ddefd7-b17e-4643-9c51-9ff2311d7114"},"vehicle_type_id":"4","last_reported":1747087816,"current_range_meters":18800,"station_id":"ce4bgvp2rcd13ifvqct0","pricing_plan_id":"cebpf4jnsgd1na2vs0mg"},{"bike_id":"79bb0198-c0e7-4a4d-971f-338c22111321","system_id":"levelo_inurba_marseille","lat":43.30641,"lon":5.40064,"is_reserved":false,"is_disabled":false,"rental_uris":{"android":"levelo://app?vid=79bb0198-c0e7-4a4d-971f-338c22111321","ios":"levelo://app?vid=79bb0198-c0e7-4a4d-971f-338c22111321"},"vehicle_type_id":"4","last_reported":1747087816,"current_range_meters":18800,"station_id":"ce4bh112rcd13ifvqda0","pricing_plan_id":"cebpf4jnsgd1na2vs0mg"},{"bike_id":"6612848c-309d-4d62-ac1d-f61c33129268","system_id":"levelo_inurba_marseille","lat":43.306405,"lon":5.400687,"is_reserved":false,"is_disabled":false,"rental_uris":{"android":"levelo://app?vid=6612848c-309d-4d62-ac1d-f61c33129268","ios":"levelo://app?vid=6612848c-309d-4d62-ac1d-f61c33129268"},"vehicle_type_id":"4","last_reported":1747087816,"current_range_meters":18800,"station_id":"ce4bh112rcd13ifvqda0","pricing_plan_id":"cebpf4jnsgd1na2vs0mg"},{"bike_id":"e2b7593a-dbbc-4a30-b5c1-ee286ff2c1a1","system_id":"levelo_inurba_marseille","lat":43.24684,"lon":5.38169,"is_reserved":false,"is_disabled":false,"rental_uris":{"android":"levelo://app?vid=e2b7593a-dbbc-4a30-b5c1-ee286ff2c1a1","ios":"levelo://app?vid=e2b7593a-dbbc-4a30-b5c1-ee286ff2c1a1"},"vehicle_type_id":"4","last_reported":1747087816,"current_range_meters":18800,"station_id":"ce4bhih2rcd13ifvqfr0","pricing_plan_id":"cebpf4jnsgd1na2vs0mg"},{"bike_id":"2b02467a-5ffd-42c5-bd01-79712910f637","system_id":"levelo_inurba_marseille","lat":43.28158,"lon":5.42637,"is_reserved":false,"is_disabled":false,"rental_uris":{"android":"levelo://app?vid=2b02467a-5ffd-42c5-bd01-79712910f637","ios":"levelo://app?vid=2b02467a-5ffd-42c5-bd01-79712910f637"},"vehicle_type_id":"4","last_reported":1747087816,"current_range_meters":18800,"station_id":"ce4bhnh2rcd13ifvqgug","pricing_plan_id":"cebpf4jnsgd1na2vs0mg"},{"bike_id":"ae2670a2-585e-4081-a3e0-8ca36e005485","system_id":"levelo_inurba_marseille","lat":43.24082,"lon":5.37743,"is_reserved":false,"is_disabled":false,"rental_uris":{"android":"levelo://app?vid=ae2670a2-585e-4081-a3e0-8ca36e005485","ios":"levelo://app?vid=ae2670a2-585e-4081-a3e0-8ca36e005485"},"vehicle_type_id":"4","last_reported":1747087816,"current_range_meters":18800,"station_id":"ce4bhnp2rcd13ifvqgvg","pricing_plan_id":"cebpf4jnsgd1na2vs0mg"},{"bike_id":"ded468cc-6fd5-4e33-9369-ab95d82b1318","system_id":"levelo_inurba_marseille","lat":43.28455,"lon":5.35884,"is_reserved":false,"is_disabled":false,"rental_uris":{"android":"levelo://app?vid=ded468cc-6fd5-4e33-9369-ab95d82b1318","ios":"levelo://app?vid=ded468cc-6fd5-4e33-9369-ab95d82b1318"},"vehicle_type_id":"4","last_reported":1747087816,"current_range_meters":19200,"station_id":"ce4bhah2rcd13ifvqei0","pricing_plan_id":"cebpf4jnsgd1na2vs0mg"},{"bike_id":"1095b252-790e-4155-ab4e-86136a24d6fc","system_id":"levelo_inurba_marseille","lat":43.28455,"lon":5.35874,"is_reserved":false,"is_disabled":false,"rental_uris":{"android":"levelo://app?vid=1095b252-790e-4155-ab4e-86136a24d6fc","ios":"levelo://app?vid=1095b252-790e-4155-ab4e-86136a24d6fc"},"vehicle_type_id":"4","last_reported":1747087816,"current_range_meters":19200,"station_id":"ce4bhah2rcd13ifvqei0","pricing_plan_id":"cebpf4jnsgd1na2vs0mg"},{"bike_id":"39a6bd1f-7072-469f-8856-342cea40130d","system_id":"levelo_inurba_marseille","lat":43.24648,"lon":5.38893,"is_reserved":false,"is_disabled":false,"rental_uris":{"android":"levelo://app?vid=39a6bd1f-7072-469f-8856-342cea40130d","ios":"levelo://app?vid=39a6bd1f-7072-469f-8856-342cea40130d"},"vehicle_type_id":"4","last_reported":1747087816,"current_range_meters":19200,"station_id":"ce4bhg12rcd13ifvqf60","pricing_plan_id":"cebpf4jnsgd1na2vs0mg"},{"bike_id":"f80007bc-2044-45ad-aafd-db9ddb5160f7","system_id":"levelo_inurba_marseille","lat":43.241134,"lon":5.37696,"is_reserved":false,"is_disabled":false,"rental_uris":{"android":"levelo://app?vid=f80007bc-2044-45ad-aafd-db9ddb5160f7","ios":"levelo://app?vid=f80007bc-2044-45ad-aafd-db9ddb5160f7"},"vehicle_type_id":"4","last_reported":1747087816,"current_range_meters":19200,"station_id":"ce4bhnp2rcd13ifvqgvg","pricing_plan_id":"cebpf4jnsgd1na2vs0mg"},{"bike_id":"63fb28b9-258e-4580-8e31-1efaa0aeb238","system_id":"levelo_inurba_marseille","lat":43.28081,"lon":5.39654,"is_reserved":false,"is_disabled":false,"rental_uris":{"android":"levelo://app?vid=63fb28b9-258e-4580-8e31-1efaa0aeb238","ios":"levelo://app?vid=63fb28b9-258e-4580-8e31-1efaa0aeb238"},"vehicle_type_id":"4","last_reported":1747087816,"current_range_meters":19200,"station_id":"ce4bho12rcd13ifvqh2g","pricing_plan_id":"cebpf4jnsgd1na2vs0mg"},{"bike_id":"c898206a-f917-4a97-a896-23d0ca1417ca","system_id":"levelo_inurba_marseille","lat":43.31707,"lon":5.43702,"is_reserved":false,"is_disabled":false,"rental_uris":{"android":"levelo://app?vid=c898206a-f917-4a97-a896-23d0ca1417ca","ios":"levelo://app?vid=c898206a-f917-4a97-a896-23d0ca1417ca"},"vehicle_type_id":"4","last_reported":1747087816,"current_range_meters":19200,"station_id":"ce4bhp92rcd13ifvqhcg","pricing_plan_id":"cebpf4jnsgd1na2vs0mg"},{"bike_id":"d6a66369-7029-4339-8599-f5e084299075","system_id":"levelo_inurba_marseille","lat":43.31885,"lon":5.40711,"is_reserved":false,"is_disabled":false,"rental_uris":{"android":"levelo://app?vid=d6a66369-7029-4339-8599-f5e084299075","ios":"levelo://app?vid=d6a66369-7029-4339-8599-f5e084299075"},"vehicle_type_id":"4","last_reported":1747087816,"current_range_meters":19200,"station_id":"ce4bhq12rcd13ifvqhig","pricing_plan_id":"cebpf4jnsgd1na2vs0mg"},{"bike_id":"6eb2ea5e-f851-4226-9842-d3bc1d6df594","system_id":"levelo_inurba_marseille","lat":43.29582,"lon":5.39963,"is_reserved":false,"is_disabled":false,"rental_uris":{"android":"levelo://app?vid=6eb2ea5e-f851-4226-9842-d3bc1d6df594","ios":"levelo://app?vid=6eb2ea5e-f851-4226-9842-d3bc1d6df594"},"vehicle_type_id":"4","last_reported":1747087816,"current_range_meters":19600,"station_id":"ce4bh312rcd13ifvqdj0","pricing_plan_id":"cebpf4jnsgd1na2vs0mg"},{"bike_id":"59bd68ff-a61f-444d-9496-d2f88e27ccd4","system_id":"levelo_inurba_marseille","lat":43.286966,"lon":5.399899,"is_reserved":false,"is_disabled":false,"rental_uris":{"android":"levelo://app?vid=59bd68ff-a61f-444d-9496-d2f88e27ccd4","ios":"levelo://app?vid=59bd68ff-a61f-444d-9496-d2f88e27ccd4"},"vehicle_type_id":"4","last_reported":1747087816,"current_range_meters":19600,"station_id":"ce4bho92rcd13ifvqh3g","pricing_plan_id":"cebpf4jnsgd1na2vs0mg"},{"bike_id":"c1234833-9229-4e89-b9fe-8e9717a034dd","system_id":"levelo_inurba_marseille","lat":43.32374,"lon":5.38874,"is_reserved":false,"is_disabled":false,"rental_uris":{"android":"levelo://app?vid=c1234833-9229-4e89-b9fe-8e9717a034dd","ios":"levelo://app?vid=c1234833-9229-4e89-b9fe-8e9717a034dd"},"vehicle_type_id":"4","last_reported":1747087816,"current_range_meters":19600,"station_id":"ce4bhqp2rcd13ifvqhog","pricing_plan_id":"cebpf4jnsgd1na2vs0mg"},{"bike_id":"6eb0004f-6ee3-4804-97a0-f050ea148c7b","system_id":"levelo_inurba_marseille","lat":43.29798,"lon":5.39344,"is_reserved":false,"is_disabled":false,"rental_uris":{"android":"levelo://app?vid=6eb0004f-6ee3-4804-97a0-f050ea148c7b","ios":"levelo://app?vid=6eb0004f-6ee3-4804-97a0-f050ea148c7b"},"vehicle_type_id":"4","last_reported":1747087816,"current_range_meters":19600,"station_id":"chh1huq6cuj3fo74tm60","pricing_plan_id":"cebpf4jnsgd1na2vs0mg"},{"bike_id":"c6023982-c7de-4305-a6a2-c2ff97903d37","system_id":"levelo_inurba_marseille","lat":43.30293,"lon":5.39207,"is_reserved":false,"is_disabled":false,"rental_uris":{"android":"levelo://app?vid=c6023982-c7de-4305-a6a2-c2ff97903d37","ios":"levelo://app?vid=c6023982-c7de-4305-a6a2-c2ff97903d37"},"vehicle_type_id":"4","last_reported":1747087816,"current_range_meters":20000,"station_id":"ce4bgkh2rcd13ifvqbk0","pricing_plan_id":"cebpf4jnsgd1na2vs0mg"},{"bike_id":"900bcc98-1b12-4e7a-a6a9-9f59b8fbf69b","system_id":"levelo_inurba_marseille","lat":43.31491,"lon":5.37308,"is_reserved":false,"is_disabled":false,"rental_uris":{"android":"levelo://app?vid=900bcc98-1b12-4e7a-a6a9-9f59b8fbf69b","ios":"levelo://app?vid=900bcc98-1b12-4e7a-a6a9-9f59b8fbf69b"},"vehicle_type_id":"4","last_reported":1747087816,"current_range_meters":20000,"station_id":"ce4bgt12rcd13ifvqcd0","pricing_plan_id":"cebpf4jnsgd1na2vs0mg"},{"bike_id":"f0adffae-0727-422c-a573-a4d74340b961","system_id":"levelo_inurba_marseille","lat":43.308895,"lon":5.371805,"is_reserved":false,"is_disabled":false,"rental_uris":{"android":"levelo://app?vid=f0adffae-0727-422c-a573-a4d74340b961","ios":"levelo://app?vid=f0adffae-0727-422c-a573-a4d74340b961"},"vehicle_type_id":"4","last_reported":1747087816,"current_range_meters":20000,"station_id":"ce4bguh2rcd13ifvqckg","pricing_plan_id":"cebpf4jnsgd1na2vs0mg"},{"bike_id":"acc5833a-6427-49df-a603-fbea78aca361","system_id":"levelo_inurba_marseille","lat":43.30935,"lon":5.40141,"is_reserved":false,"is_disabled":false,"rental_uris":{"android":"levelo://app?vid=acc5833a-6427-49df-a603-fbea78aca361","ios":"levelo://app?vid=acc5833a-6427-49df-a603-fbea78aca361"},"vehicle_type_id":"4","last_reported":1747087816,"current_range_meters":20000,"station_id":"ce4bgvp2rcd13ifvqct0","pricing_plan_id":"cebpf4jnsgd1na2vs0mg"},{"bike_id":"039e0c3d-3862-4849-8b36-59dbcbfdd09f","system_id":"levelo_inurba_marseille","lat":43.30326,"lon":5.40435,"is_reserved":false,"is_disabled":false,"rental_uris":{"android":"levelo://app?vid=039e0c3d-3862-4849-8b36-59dbcbfdd09f","ios":"levelo://app?vid=039e0c3d-3862-4849-8b36-59dbcbfdd09f"},"vehicle_type_id":"4","last_reported":1747087816,"current_range_meters":20000,"station_id":"ce4bh012rcd13ifvqd10","pricing_plan_id":"cebpf4jnsgd1na2vs0mg"},{"bike_id":"50838afa-4db6-4810-a427-67691cd7c935","system_id":"levelo_inurba_marseille","lat":43.27934,"lon":5.39567,"is_reserved":false,"is_disabled":false,"rental_uris":{"android":"levelo://app?vid=50838afa-4db6-4810-a427-67691cd7c935","ios":"levelo://app?vid=50838afa-4db6-4810-a427-67691cd7c935"},"vehicle_type_id":"4","last_reported":1747087816,"current_range_meters":20000,"station_id":"ce4bhf92rcd13ifvqf40","pricing_plan_id":"cebpf4jnsgd1na2vs0mg"},{"bike_id":"9d76660f-c284-49a2-8765-48337aa51471","system_id":"levelo_inurba_marseille","lat":43.32086,"lon":5.36808,"is_reserved":false,"is_disabled":false,"rental_uris":{"android":"levelo://app?vid=9d76660f-c284-49a2-8765-48337aa51471","ios":"levelo://app?vid=9d76660f-c284-49a2-8765-48337aa51471"},"vehicle_type_id":"4","last_reported":1747087816,"current_range_meters":20000,"station_id":"ce4bhrh2rcd13ifvqhug","pricing_plan_id":"cebpf4jnsgd1na2vs0mg"},{"bike_id":"0c893fb7-8626-4706-85bf-f404b871dea5","system_id":"levelo_inurba_marseille","lat":43.281255,"lon":5.446011,"is_reserved":false,"is_disabled":false,"rental_uris":{"android":"levelo://app?vid=0c893fb7-8626-4706-85bf-f404b871dea5","ios":"levelo://app?vid=0c893fb7-8626-4706-85bf-f404b871dea5"},"vehicle_type_id":"4","last_reported":1747087816,"current_range_meters":20400,"station_id":"","pricing_plan_id":"cebpf4jnsgd1na2vs0mg"},{"bike_id":"5020e172-20aa-4e5c-890b-3f394e1172b6","system_id":"levelo_inurba_marseille","lat":43.3189,"lon":5.40733,"is_reserved":false,"is_disabled":false,"rental_uris":{"android":"levelo://app?vid=5020e172-20aa-4e5c-890b-3f394e1172b6","ios":"levelo://app?vid=5020e172-20aa-4e5c-890b-3f394e1172b6"},"vehicle_type_id":"4","last_reported":1747087816,"current_range_meters":20400,"station_id":"ce4bhq12rcd13ifvqhig","pricing_plan_id":"cebpf4jnsgd1na2vs0mg"},{"bike_id":"581a76c6-406f-436c-80cf-424046378536","system_id":"levelo_inurba_marseille","lat":43.23146,"lon":5.43705,"is_reserved":false,"is_disabled":false,"rental_uris":{"android":"levelo://app?vid=581a76c6-406f-436c-80cf-424046378536","ios":"levelo://app?vid=581a76c6-406f-436c-80cf-424046378536"},"vehicle_type_id":"4","last_reported":1747087816,"current_range_meters":20800,"station_id":"ce4bhmp2rcd13ifvqgog","pricing_plan_id":"cebpf4jnsgd1na2vs0mg"},{"bike_id":"e83dcaca-181c-4b02-bf44-8d4da8809b5b","system_id":"levelo_inurba_marseille","lat":43.31719,"lon":5.43705,"is_reserved":false,"is_disabled":false,"rental_uris":{"android":"levelo://app?vid=e83dcaca-181c-4b02-bf44-8d4da8809b5b","ios":"levelo://app?vid=e83dcaca-181c-4b02-bf44-8d4da8809b5b"},"vehicle_type_id":"4","last_reported":1747087816,"current_range_meters":20800,"station_id":"ce4bhp92rcd13ifvqhcg","pricing_plan_id":"cebpf4jnsgd1na2vs0mg"},{"bike_id":"b29cd197-f0d5-40a7-a1a8-cdcae63d1eb7","system_id":"levelo_inurba_marseille","lat":43.309363,"lon":5.40139,"is_reserved":false,"is_disabled":false,"rental_uris":{"android":"levelo://app?vid=b29cd197-f0d5-40a7-a1a8-cdcae63d1eb7","ios":"levelo://app?vid=b29cd197-f0d5-40a7-a1a8-cdcae63d1eb7"},"vehicle_type_id":"4","last_reported":1747087816,"current_range_meters":22000,"station_id":"ce4bgvp2rcd13ifvqct0","pricing_plan_id":"cebpf4jnsgd1na2vs0mg"},{"bike_id":"738ccbd0-322a-4090-af48-ca924339ed00","system_id":"levelo_inurba_marseille","lat":43.29871,"lon":5.38914,"is_reserved":false,"is_disabled":false,"rental_uris":{"android":"levelo://app?vid=738ccbd0-322a-4090-af48-ca924339ed00","ios":"levelo://app?vid=738ccbd0-322a-4090-af48-ca924339ed00"},"vehicle_type_id":"4","last_reported":1747087816,"current_range_meters":22000,"station_id":"ce4bh392rcd13ifvqdl0","pricing_plan_id":"cebpf4jnsgd1na2vs0mg"},{"bike_id":"1a859d2e-d0d1-4f8f-bdbf-db7f0f428f7c","system_id":"levelo_inurba_marseille","lat":43.3132,"lon":5.39691,"is_reserved":false,"is_disabled":false,"rental_uris":{"android":"levelo://app?vid=1a859d2e-d0d1-4f8f-bdbf-db7f0f428f7c","ios":"levelo://app?vid=1a859d2e-d0d1-4f8f-bdbf-db7f0f428f7c"},"vehicle_type_id":"4","last_reported":1747087816,"current_range_meters":22800,"station_id":"ce4bgvp2rcd13ifvqcu0","pricing_plan_id":"cebpf4jnsgd1na2vs0mg"},{"bike_id":"2a8d6c84-f97c-47ac-97e8-b5252d886c6b","system_id":"levelo_inurba_marseille","lat":43.3065,"lon":5.40069,"is_reserved":false,"is_disabled":false,"rental_uris":{"android":"levelo://app?vid=2a8d6c84-f97c-47ac-97e8-b5252d886c6b","ios":"levelo://app?vid=2a8d6c84-f97c-47ac-97e8-b5252d886c6b"},"vehicle_type_id":"4","last_reported":1747087816,"current_range_meters":22800,"station_id":"ce4bh112rcd13ifvqda0","pricing_plan_id":"cebpf4jnsgd1na2vs0mg"},{"bike_id":"0c636178-8025-443a-881d-ec35507d7129","system_id":"levelo_inurba_marseille","lat":43.24552,"lon":5.39534,"is_reserved":false,"is_disabled":false,"rental_uris":{"android":"levelo://app?vid=0c636178-8025-443a-881d-ec35507d7129","ios":"levelo://app?vid=0c636178-8025-443a-881d-ec35507d7129"},"vehicle_type_id":"4","last_reported":1747087816,"current_range_meters":22800,"station_id":"ce4bhlp2rcd13ifvqgjg","pricing_plan_id":"cebpf4jnsgd1na2vs0mg"},{"bike_id":"b65fd085-9b65-46d6-ad1e-68d0a7c6954c","system_id":"levelo_inurba_marseille","lat":43.27809,"lon":5.40707,"is_reserved":false,"is_disabled":false,"rental_uris":{"android":"levelo://app?vid=b65fd085-9b65-46d6-ad1e-68d0a7c6954c","ios":"levelo://app?vid=b65fd085-9b65-46d6-ad1e-68d0a7c6954c"},"vehicle_type_id":"4","last_reported":1747087816,"current_range_meters":22800,"station_id":"ce4bhnh2rcd13ifvqgtg","pricing_plan_id":"cebpf4jnsgd1na2vs0mg"},{"bike_id":"84951397-69e9-4cc4-a9b3-8bac0d4c150d","system_id":"levelo_inurba_marseille","lat":43.30374,"lon":5.42479,"is_reserved":false,"is_disabled":false,"rental_uris":{"android":"levelo://app?vid=84951397-69e9-4cc4-a9b3-8bac0d4c150d","ios":"levelo://app?vid=84951397-69e9-4cc4-a9b3-8bac0d4c150d"},"vehicle_type_id":"4","last_reported":1747087816,"current_range_meters":22800,"station_id":"ce4bhoh2rcd13ifvqh6g","pricing_plan_id":"cebpf4jnsgd1na2vs0mg"},{"bike_id":"4e7e22bf-1d69-406e-a108-92d3a7aa93eb","system_id":"levelo_inurba_marseille","lat":43.27625,"lon":5.36105,"is_reserved":false,"is_disabled":false,"rental_uris":{"android":"levelo://app?vid=4e7e22bf-1d69-406e-a108-92d3a7aa93eb","ios":"levelo://app?vid=4e7e22bf-1d69-406e-a108-92d3a7aa93eb"},"vehicle_type_id":"4","last_reported":1747087816,"current_range_meters":23200,"station_id":"ce4bgj92rcd13ifvqbe0","pricing_plan_id":"cebpf4jnsgd1na2vs0mg"},{"bike_id":"7000856c-56d3-4290-84fb-5d721c935a68","system_id":"levelo_inurba_marseille","lat":43.30787,"lon":5.37637,"is_reserved":false,"is_disabled":false,"rental_uris":{"android":"levelo://app?vid=7000856c-56d3-4290-84fb-5d721c935a68","ios":"levelo://app?vid=7000856c-56d3-4290-84fb-5d721c935a68"},"vehicle_type_id":"4","last_reported":1747087816,"current_range_meters":23200,"station_id":"ce4bgv92rcd13ifvqcq0","pricing_plan_id":"cebpf4jnsgd1na2vs0mg"},{"bike_id":"7edae4e3-02d9-44f7-8013-99c1fec4bf3b","system_id":"levelo_inurba_marseille","lat":43.31689,"lon":5.40471,"is_reserved":false,"is_disabled":false,"rental_uris":{"android":"levelo://app?vid=7edae4e3-02d9-44f7-8013-99c1fec4bf3b","ios":"levelo://app?vid=7edae4e3-02d9-44f7-8013-99c1fec4bf3b"},"vehicle_type_id":"4","last_reported":1747087816,"current_range_meters":23200,"station_id":"ce4bh012rcd13ifvqd00","pricing_plan_id":"cebpf4jnsgd1na2vs0mg"},{"bike_id":"3fdef83a-cefd-49f0-a16e-0794f11c17fe","system_id":"levelo_inurba_marseille","lat":43.29573,"lon":5.39977,"is_reserved":false,"is_disabled":false,"rental_uris":{"android":"levelo://app?vid=3fdef83a-cefd-49f0-a16e-0794f11c17fe","ios":"levelo://app?vid=3fdef83a-cefd-49f0-a16e-0794f11c17fe"},"vehicle_type_id":"4","last_reported":1747087816,"current_range_meters":23200,"station_id":"ce4bh312rcd13ifvqdj0","pricing_plan_id":"cebpf4jnsgd1na2vs0mg"},{"bike_id":"a6613d3f-10bf-4275-a3fe-2d2c08b0abd0","system_id":"levelo_inurba_marseille","lat":43.246519,"lon":5.388988,"is_reserved":false,"is_disabled":false,"rental_uris":{"android":"levelo://app?vid=a6613d3f-10bf-4275-a3fe-2d2c08b0abd0","ios":"levelo://app?vid=a6613d3f-10bf-4275-a3fe-2d2c08b0abd0"},"vehicle_type_id":"4","last_reported":1747087816,"current_range_meters":23200,"station_id":"ce4bhg12rcd13ifvqf60","pricing_plan_id":"cebpf4jnsgd1na2vs0mg"},{"bike_id":"746d6870-f129-46ea-9cce-9733ae5747f5","system_id":"levelo_inurba_marseille","lat":43.2418,"lon":5.39717,"is_reserved":false,"is_disabled":false,"rental_uris":{"android":"levelo://app?vid=746d6870-f129-46ea-9cce-9733ae5747f5","ios":"levelo://app?vid=746d6870-f129-46ea-9cce-9733ae5747f5"},"vehicle_type_id":"4","last_reported":1747087816,"current_range_meters":23200,"station_id":"ce4bhn12rcd13ifvqgpg","pricing_plan_id":"cebpf4jnsgd1na2vs0mg"},{"bike_id":"e58b354a-180a-4f47-a257-dd18dab1246e","system_id":"levelo_inurba_marseille","lat":43.28714,"lon":5.39974,"is_reserved":false,"is_disabled":false,"rental_uris":{"android":"levelo://app?vid=e58b354a-180a-4f47-a257-dd18dab1246e","ios":"levelo://app?vid=e58b354a-180a-4f47-a257-dd18dab1246e"},"vehicle_type_id":"4","last_reported":1747087816,"current_range_meters":23200,"station_id":"ce4bho92rcd13ifvqh3g","pricing_plan_id":"cebpf4jnsgd1na2vs0mg"},{"bike_id":"2e9a1bb6-b9ff-4e0b-be40-2437411ffe1f","system_id":"levelo_inurba_marseille","lat":43.30654,"lon":5.40065,"is_reserved":false,"is_disabled":false,"rental_uris":{"android":"levelo://app?vid=2e9a1bb6-b9ff-4e0b-be40-2437411ffe1f","ios":"levelo://app?vid=2e9a1bb6-b9ff-4e0b-be40-2437411ffe1f"},"vehicle_type_id":"4","last_reported":1747087816,"current_range_meters":24000,"station_id":"ce4bh112rcd13ifvqda0","pricing_plan_id":"cebpf4jnsgd1na2vs0mg"},{"bike_id":"1f936c42-0478-402a-ab5a-f1c5296862aa","system_id":"levelo_inurba_marseille","lat":43.29891,"lon":5.3889,"is_reserved":false,"is_disabled":false,"rental_uris":{"android":"levelo://app?vid=1f936c42-0478-402a-ab5a-f1c5296862aa","ios":"levelo://app?vid=1f936c42-0478-402a-ab5a-f1c5296862aa"},"vehicle_type_id":"4","last_reported":1747087816,"current_range_meters":24000,"station_id":"ce4bh392rcd13ifvqdl0","pricing_plan_id":"cebpf4jnsgd1na2vs0mg"},{"bike_id":"122d19df-7ece-499b-be36-5b90e232caeb","system_id":"levelo_inurba_marseille","lat":43.30919,"lon":5.40126,"is_reserved":false,"is_disabled":false,"rental_uris":{"android":"levelo://app?vid=122d19df-7ece-499b-be36-5b90e232caeb","ios":"levelo://app?vid=122d19df-7ece-499b-be36-5b90e232caeb"},"vehicle_type_id":"4","last_reported":1747087816,"current_range_meters":24400,"station_id":"ce4bgvp2rcd13ifvqct0","pricing_plan_id":"cebpf4jnsgd1na2vs0mg"},{"bike_id":"312cf0fa-89c7-41e2-ab6c-83d3c271172c","system_id":"levelo_inurba_marseille","lat":43.31688,"lon":5.40455,"is_reserved":false,"is_disabled":false,"rental_uris":{"android":"levelo://app?vid=312cf0fa-89c7-41e2-ab6c-83d3c271172c","ios":"levelo://app?vid=312cf0fa-89c7-41e2-ab6c-83d3c271172c"},"vehicle_type_id":"4","last_reported":1747087816,"current_range_meters":24400,"station_id":"ce4bh012rcd13ifvqd00","pricing_plan_id":"cebpf4jnsgd1na2vs0mg"},{"bike_id":"42a87d09-2752-4ffe-952d-d97641d46755","system_id":"levelo_inurba_marseille","lat":43.306432,"lon":5.400988,"is_reserved":false,"is_disabled":false,"rental_uris":{"android":"levelo://app?vid=42a87d09-2752-4ffe-952d-d97641d46755","ios":"levelo://app?vid=42a87d09-2752-4ffe-952d-d97641d46755"},"vehicle_type_id":"4","last_reported":1747087816,"current_range_meters":24400,"station_id":"ce4bh112rcd13ifvqda0","pricing_plan_id":"cebpf4jnsgd1na2vs0mg"},{"bike_id":"d6827c15-a9b9-471d-a8db-15e4478d7960","system_id":"levelo_inurba_marseille","lat":43.287,"lon":5.37393,"is_reserved":false,"is_disabled":false,"rental_uris":{"android":"levelo://app?vid=d6827c15-a9b9-471d-a8db-15e4478d7960","ios":"levelo://app?vid=d6827c15-a9b9-471d-a8db-15e4478d7960"},"vehicle_type_id":"4","last_reported":1747087816,"current_range_meters":24400,"station_id":"ce4bh3p2rcd13ifvqdq0","pricing_plan_id":"cebpf4jnsgd1na2vs0mg"},{"bike_id":"b963eb7d-609a-45f1-bafd-6ea623ae7fbf","system_id":"levelo_inurba_marseille","lat":43.28156,"lon":5.42607,"is_reserved":false,"is_disabled":false,"rental_uris":{"android":"levelo://app?vid=b963eb7d-609a-45f1-bafd-6ea623ae7fbf","ios":"levelo://app?vid=b963eb7d-609a-45f1-bafd-6ea623ae7fbf"},"vehicle_type_id":"4","last_reported":1747087816,"current_range_meters":24400,"station_id":"ce4bhnh2rcd13ifvqgug","pricing_plan_id":"cebpf4jnsgd1na2vs0mg"},{"bike_id":"a55a8e89-7507-44c1-8a58-75c7621a3117","system_id":"levelo_inurba_marseille","lat":43.24088,"lon":5.37773,"is_reserved":false,"is_disabled":false,"rental_uris":{"android":"levelo://app?vid=a55a8e89-7507-44c1-8a58-75c7621a3117","ios":"levelo://app?vid=a55a8e89-7507-44c1-8a58-75c7621a3117"},"vehicle_type_id":"4","last_reported":1747087816,"current_range_meters":24400,"station_id":"ce4bhnp2rcd13ifvqgvg","pricing_plan_id":"cebpf4jnsgd1na2vs0mg"},{"bike_id":"53c2c5b1-547e-454a-9252-c33846187b27","system_id":"levelo_inurba_marseille","lat":43.32337,"lon":5.40619,"is_reserved":false,"is_disabled":false,"rental_uris":{"android":"levelo://app?vid=53c2c5b1-547e-454a-9252-c33846187b27","ios":"levelo://app?vid=53c2c5b1-547e-454a-9252-c33846187b27"},"vehicle_type_id":"4","last_reported":1747087816,"current_range_meters":24400,"station_id":"ce4bhq92rcd13ifvqhjg","pricing_plan_id":"cebpf4jnsgd1na2vs0mg"},{"bike_id":"5647a91f-31a6-41fb-82bb-83893a94fc73","system_id":"levelo_inurba_marseille","lat":43.21211,"lon":5.35063,"is_reserved":false,"is_disabled":false,"rental_uris":{"android":"levelo://app?vid=5647a91f-31a6-41fb-82bb-83893a94fc73","ios":"levelo://app?vid=5647a91f-31a6-41fb-82bb-83893a94fc73"},"vehicle_type_id":"4","last_reported":1747087816,"current_range_meters":24400,"station_id":"st_cvj6sg6p6f1abm77japg","pricing_plan_id":"cebpf4jnsgd1na2vs0mg"},{"bike_id":"77b5d70d-51ce-4b88-9584-9cc538b94021","system_id":"levelo_inurba_marseille","lat":43.3107,"lon":5.38345,"is_reserved":false,"is_disabled":false,"rental_uris":{"android":"levelo://app?vid=77b5d70d-51ce-4b88-9584-9cc538b94021","ios":"levelo://app?vid=77b5d70d-51ce-4b88-9584-9cc538b94021"},"vehicle_type_id":"4","last_reported":1747087816,"current_range_meters":24800,"station_id":"ce4bgv92rcd13ifvqcr0","pricing_plan_id":"cebpf4jnsgd1na2vs0mg"},{"bike_id":"cefbf0f3-d0c5-4b8f-9e86-66785ec05ec6","system_id":"levelo_inurba_marseille","lat":43.297791,"lon":5.403905,"is_reserved":false,"is_disabled":false,"rental_uris":{"android":"levelo://app?vid=cefbf0f3-d0c5-4b8f-9e86-66785ec05ec6","ios":"levelo://app?vid=cefbf0f3-d0c5-4b8f-9e86-66785ec05ec6"},"vehicle_type_id":"4","last_reported":1747087816,"current_range_meters":24800,"station_id":"ce4bh112rcd13ifvqd90","pricing_plan_id":"cebpf4jnsgd1na2vs0mg"},{"bike_id":"6a823f1a-6318-4c59-8ef1-0310574389dd","system_id":"levelo_inurba_marseille","lat":43.29579,"lon":5.39955,"is_reserved":false,"is_disabled":false,"rental_uris":{"android":"levelo://app?vid=6a823f1a-6318-4c59-8ef1-0310574389dd","ios":"levelo://app?vid=6a823f1a-6318-4c59-8ef1-0310574389dd"},"vehicle_type_id":"4","last_reported":1747087816,"current_range_meters":24800,"station_id":"ce4bh312rcd13ifvqdj0","pricing_plan_id":"cebpf4jnsgd1na2vs0mg"},{"bike_id":"3ea93f15-db04-4894-a901-ee3874ff2ab2","system_id":"levelo_inurba_marseille","lat":43.28372,"lon":5.38101,"is_reserved":false,"is_disabled":false,"rental_uris":{"android":"levelo://app?vid=3ea93f15-db04-4894-a901-ee3874ff2ab2","ios":"levelo://app?vid=3ea93f15-db04-4894-a901-ee3874ff2ab2"},"vehicle_type_id":"4","last_reported":1747087816,"current_range_meters":24800,"station_id":"ce4bh412rcd13ifvqdr0","pricing_plan_id":"cebpf4jnsgd1na2vs0mg"},{"bike_id":"899fa6ca-8fac-4775-a022-ab48a2f4e3c5","system_id":"levelo_inurba_marseille","lat":43.24671,"lon":5.38163,"is_reserved":false,"is_disabled":false,"rental_uris":{"android":"levelo://app?vid=899fa6ca-8fac-4775-a022-ab48a2f4e3c5","ios":"levelo://app?vid=899fa6ca-8fac-4775-a022-ab48a2f4e3c5"},"vehicle_type_id":"4","last_reported":1747087816,"current_range_meters":24800,"station_id":"ce4bhih2rcd13ifvqfr0","pricing_plan_id":"cebpf4jnsgd1na2vs0mg"},{"bike_id":"a16a5225-a9f3-4574-93f1-917416829b59","system_id":"levelo_inurba_marseille","lat":43.25136,"lon":5.40321,"is_reserved":false,"is_disabled":false,"rental_uris":{"android":"levelo://app?vid=a16a5225-a9f3-4574-93f1-917416829b59","ios":"levelo://app?vid=a16a5225-a9f3-4574-93f1-917416829b59"},"vehicle_type_id":"4","last_reported":1747087816,"current_range_meters":24800,"station_id":"ce4bhlh2rcd13ifvqgig","pricing_plan_id":"cebpf4jnsgd1na2vs0mg"},{"bike_id":"fbe1a290-f52f-439e-b97c-04f5045931d7","system_id":"levelo_inurba_marseille","lat":43.281493,"lon":5.42661,"is_reserved":false,"is_disabled":false,"rental_uris":{"android":"levelo://app?vid=fbe1a290-f52f-439e-b97c-04f5045931d7","ios":"levelo://app?vid=fbe1a290-f52f-439e-b97c-04f5045931d7"},"vehicle_type_id":"4","last_reported":1747087816,"current_range_meters":24800,"station_id":"ce4bhnh2rcd13ifvqgug","pricing_plan_id":"cebpf4jnsgd1na2vs0mg"},{"bike_id":"aa9a901d-2a7e-41ed-97e8-9ff553b5fe0f","system_id":"levelo_inurba_marseille","lat":43.30673,"lon":5.40038,"is_reserved":false,"is_disabled":false,"rental_uris":{"android":"levelo://app?vid=aa9a901d-2a7e-41ed-97e8-9ff553b5fe0f","ios":"levelo://app?vid=aa9a901d-2a7e-41ed-97e8-9ff553b5fe0f"},"vehicle_type_id":"4","last_reported":1747087816,"current_range_meters":25200,"station_id":"","pricing_plan_id":"cebpf4jnsgd1na2vs0mg"},{"bike_id":"3f00fb25-f692-4200-a496-2784514ceeac","system_id":"levelo_inurba_marseille","lat":43.3088,"lon":5.39619,"is_reserved":false,"is_disabled":false,"rental_uris":{"android":"levelo://app?vid=3f00fb25-f692-4200-a496-2784514ceeac","ios":"levelo://app?vid=3f00fb25-f692-4200-a496-2784514ceeac"},"vehicle_type_id":"4","last_reported":1747087816,"current_range_meters":25200,"station_id":"ce4bh012rcd13ifvqcv0","pricing_plan_id":"cebpf4jnsgd1na2vs0mg"},{"bike_id":"c899402d-15b4-4bd3-b79a-4ecbfbf73aa2","system_id":"levelo_inurba_marseille","lat":43.29892,"lon":5.39737,"is_reserved":false,"is_disabled":false,"rental_uris":{"android":"levelo://app?vid=c899402d-15b4-4bd3-b79a-4ecbfbf73aa2","ios":"levelo://app?vid=c899402d-15b4-4bd3-b79a-4ecbfbf73aa2"},"vehicle_type_id":"4","last_reported":1747087816,"current_range_meters":25200,"station_id":"ce4bh0h2rcd13ifvqd50","pricing_plan_id":"cebpf4jnsgd1na2vs0mg"},{"bike_id":"ad300670-c1e8-4eb8-b4cf-758bbb5e605b","system_id":"levelo_inurba_marseille","lat":43.28724,"lon":5.37891,"is_reserved":false,"is_disabled":false,"rental_uris":{"android":"levelo://app?vid=ad300670-c1e8-4eb8-b4cf-758bbb5e605b","ios":"levelo://app?vid=ad300670-c1e8-4eb8-b4cf-758bbb5e605b"},"vehicle_type_id":"4","last_reported":1747087816,"current_range_meters":25200,"station_id":"ce4bh9p2rcd13ifvqec0","pricing_plan_id":"cebpf4jnsgd1na2vs0mg"},{"bike_id":"71dcef97-5ca8-4f84-8ca3-ae96d0a35658","system_id":"levelo_inurba_marseille","lat":43.28726,"lon":5.3794,"is_reserved":false,"is_disabled":false,"rental_uris":{"android":"levelo://app?vid=71dcef97-5ca8-4f84-8ca3-ae96d0a35658","ios":"levelo://app?vid=71dcef97-5ca8-4f84-8ca3-ae96d0a35658"},"vehicle_type_id":"4","last_reported":1747087816,"current_range_meters":25200,"station_id":"ce4bh9p2rcd13ifvqec0","pricing_plan_id":"cebpf4jnsgd1na2vs0mg"},{"bike_id":"8deafdb0-b72e-42a8-9144-f28ecef9389d","system_id":"levelo_inurba_marseille","lat":43.32124,"lon":5.36783,"is_reserved":false,"is_disabled":false,"rental_uris":{"android":"levelo://app?vid=8deafdb0-b72e-42a8-9144-f28ecef9389d","ios":"levelo://app?vid=8deafdb0-b72e-42a8-9144-f28ecef9389d"},"vehicle_type_id":"4","last_reported":1747087816,"current_range_meters":25200,"station_id":"ce4bhrh2rcd13ifvqhug","pricing_plan_id":"cebpf4jnsgd1na2vs0mg"},{"bike_id":"7bce2426-63d5-43a9-ab5a-785a21aa9871","system_id":"levelo_inurba_marseille","lat":43.30444,"lon":5.38894,"is_reserved":false,"is_disabled":false,"rental_uris":{"android":"levelo://app?vid=7bce2426-63d5-43a9-ab5a-785a21aa9871","ios":"levelo://app?vid=7bce2426-63d5-43a9-ab5a-785a21aa9871"},"vehicle_type_id":"4","last_reported":1747087816,"current_range_meters":25600,"station_id":"ce4bgk12rcd13ifvqbi0","pricing_plan_id":"cebpf4jnsgd1na2vs0mg"},{"bike_id":"8003414d-ccae-4a56-b551-428db8932c04","system_id":"levelo_inurba_marseille","lat":43.29798,"lon":5.40388,"is_reserved":false,"is_disabled":false,"rental_uris":{"android":"levelo://app?vid=8003414d-ccae-4a56-b551-428db8932c04","ios":"levelo://app?vid=8003414d-ccae-4a56-b551-428db8932c04"},"vehicle_type_id":"4","last_reported":1747087816,"current_range_meters":25600,"station_id":"ce4bh112rcd13ifvqd90","pricing_plan_id":"cebpf4jnsgd1na2vs0mg"},{"bike_id":"ff20595a-62f3-4fb0-898a-c71b3125ccf1","system_id":"levelo_inurba_marseille","lat":43.29525,"lon":5.39381,"is_reserved":false,"is_disabled":false,"rental_uris":{"android":"levelo://app?vid=ff20595a-62f3-4fb0-898a-c71b3125ccf1","ios":"levelo://app?vid=ff20595a-62f3-4fb0-898a-c71b3125ccf1"},"vehicle_type_id":"4","last_reported":1747087816,"current_range_meters":25600,"station_id":"ce4bh292rcd13ifvqdf0","pricing_plan_id":"cebpf4jnsgd1na2vs0mg"},{"bike_id":"a9402a6c-1e6e-4ba2-9008-7b0aceb5aadf","system_id":"levelo_inurba_marseille","lat":43.284611,"lon":5.35879,"is_reserved":false,"is_disabled":false,"rental_uris":{"android":"levelo://app?vid=a9402a6c-1e6e-4ba2-9008-7b0aceb5aadf","ios":"levelo://app?vid=a9402a6c-1e6e-4ba2-9008-7b0aceb5aadf"},"vehicle_type_id":"4","last_reported":1747087816,"current_range_meters":25600,"station_id":"ce4bhah2rcd13ifvqei0","pricing_plan_id":"cebpf4jnsgd1na2vs0mg"},{"bike_id":"14e1760a-e172-409d-bb8e-421c803ef4f2","system_id":"levelo_inurba_marseille","lat":43.23189,"lon":5.3998,"is_reserved":false,"is_disabled":false,"rental_uris":{"android":"levelo://app?vid=14e1760a-e172-409d-bb8e-421c803ef4f2","ios":"levelo://app?vid=14e1760a-e172-409d-bb8e-421c803ef4f2"},"vehicle_type_id":"4","last_reported":1747087816,"current_range_meters":25600,"station_id":"ce4bhn12rcd13ifvqgqg","pricing_plan_id":"cebpf4jnsgd1na2vs0mg"},{"bike_id":"ebcc075d-08ea-4ae7-94ec-4c5085349efc","system_id":"levelo_inurba_marseille","lat":43.31887,"lon":5.40738,"is_reserved":false,"is_disabled":false,"rental_uris":{"android":"levelo://app?vid=ebcc075d-08ea-4ae7-94ec-4c5085349efc","ios":"levelo://app?vid=ebcc075d-08ea-4ae7-94ec-4c5085349efc"},"vehicle_type_id":"4","last_reported":1747087816,"current_range_meters":25600,"station_id":"ce4bhq12rcd13ifvqhig","pricing_plan_id":"cebpf4jnsgd1na2vs0mg"},{"bike_id":"18556955-6e5e-44de-8de6-34b971734618","system_id":"levelo_inurba_marseille","lat":43.32111,"lon":5.36807,"is_reserved":false,"is_disabled":false,"rental_uris":{"android":"levelo://app?vid=18556955-6e5e-44de-8de6-34b971734618","ios":"levelo://app?vid=18556955-6e5e-44de-8de6-34b971734618"},"vehicle_type_id":"4","last_reported":1747087816,"current_range_meters":25600,"station_id":"ce4bhrh2rcd13ifvqhug","pricing_plan_id":"cebpf4jnsgd1na2vs0mg"},{"bike_id":"05cf6086-9201-4785-b47b-101f3186bfd0","system_id":"levelo_inurba_marseille","lat":43.337444,"lon":5.374475,"is_reserved":false,"is_disabled":false,"rental_uris":{"android":"levelo://app?vid=05cf6086-9201-4785-b47b-101f3186bfd0","ios":"levelo://app?vid=05cf6086-9201-4785-b47b-101f3186bfd0"},"vehicle_type_id":"4","last_reported":1747087816,"current_range_meters":26000,"station_id":"","pricing_plan_id":"cebpf4jnsgd1na2vs0mg"},{"bike_id":"7affee8a-ab3f-4a5a-9d31-297d05c8aa7b","system_id":"levelo_inurba_marseille","lat":43.30624,"lon":5.40057,"is_reserved":false,"is_disabled":false,"rental_uris":{"android":"levelo://app?vid=7affee8a-ab3f-4a5a-9d31-297d05c8aa7b","ios":"levelo://app?vid=7affee8a-ab3f-4a5a-9d31-297d05c8aa7b"},"vehicle_type_id":"4","last_reported":1747087816,"current_range_meters":26000,"station_id":"ce4bh112rcd13ifvqda0","pricing_plan_id":"cebpf4jnsgd1na2vs0mg"},{"bike_id":"dff44d8c-a72c-444d-964c-c08c29e9380d","system_id":"levelo_inurba_marseille","lat":43.288351,"lon":5.392462,"is_reserved":false,"is_disabled":false,"rental_uris":{"android":"levelo://app?vid=dff44d8c-a72c-444d-964c-c08c29e9380d","ios":"levelo://app?vid=dff44d8c-a72c-444d-964c-c08c29e9380d"},"vehicle_type_id":"4","last_reported":1747087816,"current_range_meters":26000,"station_id":"ce4bh2p2rcd13ifvqdi0","pricing_plan_id":"cebpf4jnsgd1na2vs0mg"},{"bike_id":"2a1c8644-5ff0-4b10-b062-c419ae57850d","system_id":"levelo_inurba_marseille","lat":43.2944,"lon":5.39129,"is_reserved":false,"is_disabled":false,"rental_uris":{"android":"levelo://app?vid=2a1c8644-5ff0-4b10-b062-c419ae57850d","ios":"levelo://app?vid=2a1c8644-5ff0-4b10-b062-c419ae57850d"},"vehicle_type_id":"4","last_reported":1747087816,"current_range_meters":26800,"station_id":"","pricing_plan_id":"cebpf4jnsgd1na2vs0mg"},{"bike_id":"6e6c15df-a003-4bec-81b0-4426b4e5ddf5","system_id":"levelo_inurba_marseille","lat":43.30937,"lon":5.40151,"is_reserved":false,"is_disabled":false,"rental_uris":{"android":"levelo://app?vid=6e6c15df-a003-4bec-81b0-4426b4e5ddf5","ios":"levelo://app?vid=6e6c15df-a003-4bec-81b0-4426b4e5ddf5"},"vehicle_type_id":"4","last_reported":1747087816,"current_range_meters":26800,"station_id":"ce4bgvp2rcd13ifvqct0","pricing_plan_id":"cebpf4jnsgd1na2vs0mg"},{"bike_id":"002ef7fa-f707-40e5-9c86-0629335eaaf5","system_id":"levelo_inurba_marseille","lat":43.30813,"lon":5.39689,"is_reserved":false,"is_disabled":false,"rental_uris":{"android":"levelo://app?vid=002ef7fa-f707-40e5-9c86-0629335eaaf5","ios":"levelo://app?vid=002ef7fa-f707-40e5-9c86-0629335eaaf5"},"vehicle_type_id":"4","last_reported":1747087816,"current_range_meters":26800,"station_id":"ce4bh012rcd13ifvqcv0","pricing_plan_id":"cebpf4jnsgd1na2vs0mg"},{"bike_id":"5ec26f90-8dd6-447d-b560-18c3f69a73f3","system_id":"levelo_inurba_marseille","lat":43.28474,"lon":5.35884,"is_reserved":false,"is_disabled":false,"rental_uris":{"android":"levelo://app?vid=5ec26f90-8dd6-447d-b560-18c3f69a73f3","ios":"levelo://app?vid=5ec26f90-8dd6-447d-b560-18c3f69a73f3"},"vehicle_type_id":"4","last_reported":1747087816,"current_range_meters":26800,"station_id":"ce4bhah2rcd13ifvqei0","pricing_plan_id":"cebpf4jnsgd1na2vs0mg"},{"bike_id":"d87791ac-08e3-4274-a601-857a0e7a67a0","system_id":"levelo_inurba_marseille","lat":43.28464,"lon":5.35864,"is_reserved":false,"is_disabled":false,"rental_uris":{"android":"levelo://app?vid=d87791ac-08e3-4274-a601-857a0e7a67a0","ios":"levelo://app?vid=d87791ac-08e3-4274-a601-857a0e7a67a0"},"vehicle_type_id":"4","last_reported":1747087816,"current_range_meters":26800,"station_id":"ce4bhah2rcd13ifvqei0","pricing_plan_id":"cebpf4jnsgd1na2vs0mg"},{"bike_id":"e0c98606-9d74-411e-979e-ba241d6d1672","system_id":"levelo_inurba_marseille","lat":43.2894,"lon":5.36632,"is_reserved":false,"is_disabled":false,"rental_uris":{"android":"levelo://app?vid=e0c98606-9d74-411e-979e-ba241d6d1672","ios":"levelo://app?vid=e0c98606-9d74-411e-979e-ba241d6d1672"},"vehicle_type_id":"4","last_reported":1747087816,"current_range_meters":26800,"station_id":"ce4bhap2rcd13ifvqek0","pricing_plan_id":"cebpf4jnsgd1na2vs0mg"},{"bike_id":"aa27d2fd-cef5-4d54-bfa1-cf861ba9c9d8","system_id":"levelo_inurba_marseille","lat":43.27994,"lon":5.40008,"is_reserved":false,"is_disabled":false,"rental_uris":{"android":"levelo://app?vid=aa27d2fd-cef5-4d54-bfa1-cf861ba9c9d8","ios":"levelo://app?vid=aa27d2fd-cef5-4d54-bfa1-cf861ba9c9d8"},"vehicle_type_id":"4","last_reported":1747087816,"current_range_meters":26800,"station_id":"ce4bho92rcd13ifvqh4g","pricing_plan_id":"cebpf4jnsgd1na2vs0mg"},{"bike_id":"e20c0ab0-90ea-460e-bcc0-e5fa98547380","system_id":"levelo_inurba_marseille","lat":43.31713,"lon":5.4371,"is_reserved":false,"is_disabled":false,"rental_uris":{"android":"levelo://app?vid=e20c0ab0-90ea-460e-bcc0-e5fa98547380","ios":"levelo://app?vid=e20c0ab0-90ea-460e-bcc0-e5fa98547380"},"vehicle_type_id":"4","last_reported":1747087816,"current_range_meters":26800,"station_id":"ce4bhp92rcd13ifvqhcg","pricing_plan_id":"cebpf4jnsgd1na2vs0mg"},{"bike_id":"18918667-04c1-4731-a302-59dce07b02bc","system_id":"levelo_inurba_marseille","lat":43.30802,"lon":5.4351,"is_reserved":false,"is_disabled":false,"rental_uris":{"android":"levelo://app?vid=18918667-04c1-4731-a302-59dce07b02bc","ios":"levelo://app?vid=18918667-04c1-4731-a302-59dce07b02bc"},"vehicle_type_id":"4","last_reported":1747087816,"current_range_meters":26800,"station_id":"ce4bhph2rcd13ifvqheg","pricing_plan_id":"cebpf4jnsgd1na2vs0mg"},{"bike_id":"64824209-6cba-4c12-875a-1502c403c27a","system_id":"levelo_inurba_marseille","lat":43.21196,"lon":5.35061,"is_reserved":false,"is_disabled":false,"rental_uris":{"android":"levelo://app?vid=64824209-6cba-4c12-875a-1502c403c27a","ios":"levelo://app?vid=64824209-6cba-4c12-875a-1502c403c27a"},"vehicle_type_id":"4","last_reported":1747087816,"current_range_meters":26800,"station_id":"st_cvj6sg6p6f1abm77japg","pricing_plan_id":"cebpf4jnsgd1na2vs0mg"},{"bike_id":"bded1183-7a12-4517-a68e-18b1e91d24fe","system_id":"levelo_inurba_marseille","lat":43.29726,"lon":5.37693,"is_reserved":false,"is_disabled":false,"rental_uris":{"android":"levelo://app?vid=bded1183-7a12-4517-a68e-18b1e91d24fe","ios":"levelo://app?vid=bded1183-7a12-4517-a68e-18b1e91d24fe"},"vehicle_type_id":"4","last_reported":1747087816,"current_range_meters":27200,"station_id":"ce4bgkh2rcd13ifvqbl0","pricing_plan_id":"cebpf4jnsgd1na2vs0mg"},{"bike_id":"bbde1f46-a1e8-42f3-8fd7-114dee3a4cda","system_id":"levelo_inurba_marseille","lat":43.30926,"lon":5.40141,"is_reserved":false,"is_disabled":false,"rental_uris":{"android":"levelo://app?vid=bbde1f46-a1e8-42f3-8fd7-114dee3a4cda","ios":"levelo://app?vid=bbde1f46-a1e8-42f3-8fd7-114dee3a4cda"},"vehicle_type_id":"4","last_reported":1747087816,"current_range_meters":27200,"station_id":"ce4bgvp2rcd13ifvqct0","pricing_plan_id":"cebpf4jnsgd1na2vs0mg"},{"bike_id":"fbf34a0c-1425-4ed0-bcbf-586c750a60ea","system_id":"levelo_inurba_marseille","lat":43.30633,"lon":5.40066,"is_reserved":false,"is_disabled":false,"rental_uris":{"android":"levelo://app?vid=fbf34a0c-1425-4ed0-bcbf-586c750a60ea","ios":"levelo://app?vid=fbf34a0c-1425-4ed0-bcbf-586c750a60ea"},"vehicle_type_id":"4","last_reported":1747087816,"current_range_meters":27200,"station_id":"ce4bh112rcd13ifvqda0","pricing_plan_id":"cebpf4jnsgd1na2vs0mg"},{"bike_id":"92ba9eef-556a-4540-9ffc-8eabdc87d607","system_id":"levelo_inurba_marseille","lat":43.30646,"lon":5.40094,"is_reserved":false,"is_disabled":false,"rental_uris":{"android":"levelo://app?vid=92ba9eef-556a-4540-9ffc-8eabdc87d607","ios":"levelo://app?vid=92ba9eef-556a-4540-9ffc-8eabdc87d607"},"vehicle_type_id":"4","last_reported":1747087816,"current_range_meters":27200,"station_id":"ce4bh112rcd13ifvqda0","pricing_plan_id":"cebpf4jnsgd1na2vs0mg"},{"bike_id":"b2a471da-793e-46ce-82df-29abab86cd36","system_id":"levelo_inurba_marseille","lat":43.28265,"lon":5.35057,"is_reserved":false,"is_disabled":false,"rental_uris":{"android":"levelo://app?vid=b2a471da-793e-46ce-82df-29abab86cd36","ios":"levelo://app?vid=b2a471da-793e-46ce-82df-29abab86cd36"},"vehicle_type_id":"4","last_reported":1747087816,"current_range_meters":27200,"station_id":"ce4bhbp2rcd13ifvqerg","pricing_plan_id":"cebpf4jnsgd1na2vs0mg"},{"bike_id":"154784ec-ebf8-4ba4-a35d-14e18c2a74b4","system_id":"levelo_inurba_marseille","lat":43.24382,"lon":5.3706,"is_reserved":false,"is_disabled":false,"rental_uris":{"android":"levelo://app?vid=154784ec-ebf8-4ba4-a35d-14e18c2a74b4","ios":"levelo://app?vid=154784ec-ebf8-4ba4-a35d-14e18c2a74b4"},"vehicle_type_id":"4","last_reported":1747087816,"current_range_meters":27200,"station_id":"ce4bhhh2rcd13ifvqfk0","pricing_plan_id":"cebpf4jnsgd1na2vs0mg"},{"bike_id":"7eefd5a1-f86f-41bd-8367-e68b0f81080f","system_id":"levelo_inurba_marseille","lat":43.27217,"lon":5.3918,"is_reserved":false,"is_disabled":false,"rental_uris":{"android":"levelo://app?vid=7eefd5a1-f86f-41bd-8367-e68b0f81080f","ios":"levelo://app?vid=7eefd5a1-f86f-41bd-8367-e68b0f81080f"},"vehicle_type_id":"4","last_reported":1747087816,"current_range_meters":27200,"station_id":"ce4bhhp2rcd13ifvqfm0","pricing_plan_id":"cebpf4jnsgd1na2vs0mg"},{"bike_id":"8acf2063-92cb-4014-9618-27961b9bd647","system_id":"levelo_inurba_marseille","lat":43.27177,"lon":5.40989,"is_reserved":false,"is_disabled":false,"rental_uris":{"android":"levelo://app?vid=8acf2063-92cb-4014-9618-27961b9bd647","ios":"levelo://app?vid=8acf2063-92cb-4014-9618-27961b9bd647"},"vehicle_type_id":"4","last_reported":1747087816,"current_range_meters":27200,"station_id":"ce4bhl12rcd13ifvqgf0","pricing_plan_id":"cebpf4jnsgd1na2vs0mg"},{"bike_id":"074545cc-39c8-4852-bc40-79cf812156a7","system_id":"levelo_inurba_marseille","lat":43.28174,"lon":5.42637,"is_reserved":false,"is_disabled":false,"rental_uris":{"android":"levelo://app?vid=074545cc-39c8-4852-bc40-79cf812156a7","ios":"levelo://app?vid=074545cc-39c8-4852-bc40-79cf812156a7"},"vehicle_type_id":"4","last_reported":1747087816,"current_range_meters":27200,"station_id":"ce4bhnh2rcd13ifvqgug","pricing_plan_id":"cebpf4jnsgd1na2vs0mg"},{"bike_id":"0765b4d0-2a11-48f1-9aa4-e74022b8fc02","system_id":"levelo_inurba_marseille","lat":43.31089,"lon":5.42438,"is_reserved":false,"is_disabled":false,"rental_uris":{"android":"levelo://app?vid=0765b4d0-2a11-48f1-9aa4-e74022b8fc02","ios":"levelo://app?vid=0765b4d0-2a11-48f1-9aa4-e74022b8fc02"},"vehicle_type_id":"4","last_reported":1747087816,"current_range_meters":27200,"station_id":"ce4bhp92rcd13ifvqhag","pricing_plan_id":"cebpf4jnsgd1na2vs0mg"},{"bike_id":"3c8c3bcf-df22-44e4-9232-bcd948a7e9f5","system_id":"levelo_inurba_marseille","lat":43.30094,"lon":5.39086,"is_reserved":false,"is_disabled":false,"rental_uris":{"android":"levelo://app?vid=3c8c3bcf-df22-44e4-9232-bcd948a7e9f5","ios":"levelo://app?vid=3c8c3bcf-df22-44e4-9232-bcd948a7e9f5"},"vehicle_type_id":"4","last_reported":1747087816,"current_range_meters":27600,"station_id":"ce4bh192rcd13ifvqdb0","pricing_plan_id":"cebpf4jnsgd1na2vs0mg"},{"bike_id":"af250bf1-9940-4e84-9989-8978c946967d","system_id":"levelo_inurba_marseille","lat":43.28572,"lon":5.39498,"is_reserved":false,"is_disabled":false,"rental_uris":{"android":"levelo://app?vid=af250bf1-9940-4e84-9989-8978c946967d","ios":"levelo://app?vid=af250bf1-9940-4e84-9989-8978c946967d"},"vehicle_type_id":"4","last_reported":1747087816,"current_range_meters":27600,"station_id":"ce4bh292rcd13ifvqdg0","pricing_plan_id":"cebpf4jnsgd1na2vs0mg"},{"bike_id":"462d6db7-c1fa-4786-8eea-5bc0dc8a5ce9","system_id":"levelo_inurba_marseille","lat":43.29029,"lon":5.39961,"is_reserved":false,"is_disabled":false,"rental_uris":{"android":"levelo://app?vid=462d6db7-c1fa-4786-8eea-5bc0dc8a5ce9","ios":"levelo://app?vid=462d6db7-c1fa-4786-8eea-5bc0dc8a5ce9"},"vehicle_type_id":"4","last_reported":1747087816,"current_range_meters":27600,"station_id":"ce4bh392rcd13ifvqdm0","pricing_plan_id":"cebpf4jnsgd1na2vs0mg"},{"bike_id":"84e091f3-a358-4294-9329-5525e30e3084","system_id":"levelo_inurba_marseille","lat":43.28669,"lon":5.36343,"is_reserved":false,"is_disabled":false,"rental_uris":{"android":"levelo://app?vid=84e091f3-a358-4294-9329-5525e30e3084","ios":"levelo://app?vid=84e091f3-a358-4294-9329-5525e30e3084"},"vehicle_type_id":"4","last_reported":1747087816,"current_range_meters":27600,"station_id":"ce4bhah2rcd13ifvqej0","pricing_plan_id":"cebpf4jnsgd1na2vs0mg"},{"bike_id":"d0d57b1e-193c-4f21-9118-f46e78552955","system_id":"levelo_inurba_marseille","lat":43.33018,"lon":5.39036,"is_reserved":false,"is_disabled":false,"rental_uris":{"android":"levelo://app?vid=d0d57b1e-193c-4f21-9118-f46e78552955","ios":"levelo://app?vid=d0d57b1e-193c-4f21-9118-f46e78552955"},"vehicle_type_id":"4","last_reported":1747087816,"current_range_meters":27600,"station_id":"ce4bhr92rcd13ifvqhrg","pricing_plan_id":"cebpf4jnsgd1na2vs0mg"},{"bike_id":"ff71f595-05ee-4e7c-b214-9c0a06ae253c","system_id":"levelo_inurba_marseille","lat":43.30142,"lon":5.38049,"is_reserved":false,"is_disabled":false,"rental_uris":{"android":"levelo://app?vid=ff71f595-05ee-4e7c-b214-9c0a06ae253c","ios":"levelo://app?vid=ff71f595-05ee-4e7c-b214-9c0a06ae253c"},"vehicle_type_id":"4","last_reported":1747087816,"current_range_meters":28000,"station_id":"ce4bgjp2rcd13ifvqbh0","pricing_plan_id":"cebpf4jnsgd1na2vs0mg"},{"bike_id":"ec91dbb1-a551-4bea-b54e-83d6ba517d6b","system_id":"levelo_inurba_marseille","lat":43.30599,"lon":5.37221,"is_reserved":false,"is_disabled":false,"rental_uris":{"android":"levelo://app?vid=ec91dbb1-a551-4bea-b54e-83d6ba517d6b","ios":"levelo://app?vid=ec91dbb1-a551-4bea-b54e-83d6ba517d6b"},"vehicle_type_id":"4","last_reported":1747087816,"current_range_meters":28000,"station_id":"ce4bgqh2rcd13ifvqc4g","pricing_plan_id":"cebpf4jnsgd1na2vs0mg"},{"bike_id":"34e65090-9e66-416f-a706-2b705d2b912f","system_id":"levelo_inurba_marseille","lat":43.3026,"lon":5.40065,"is_reserved":false,"is_disabled":false,"rental_uris":{"android":"levelo://app?vid=34e65090-9e66-416f-a706-2b705d2b912f","ios":"levelo://app?vid=34e65090-9e66-416f-a706-2b705d2b912f"},"vehicle_type_id":"4","last_reported":1747087816,"current_range_meters":28000,"station_id":"ce4bgvh2rcd13ifvqcs0","pricing_plan_id":"cebpf4jnsgd1na2vs0mg"},{"bike_id":"dfaf38fb-a034-4997-8f09-95b837efc8b3","system_id":"levelo_inurba_marseille","lat":43.30937,"lon":5.40138,"is_reserved":false,"is_disabled":false,"rental_uris":{"android":"levelo://app?vid=dfaf38fb-a034-4997-8f09-95b837efc8b3","ios":"levelo://app?vid=dfaf38fb-a034-4997-8f09-95b837efc8b3"},"vehicle_type_id":"4","last_reported":1747087816,"current_range_meters":28000,"station_id":"ce4bgvp2rcd13ifvqct0","pricing_plan_id":"cebpf4jnsgd1na2vs0mg"},{"bike_id":"cbff5c33-d1ea-45fe-8212-0f2e4ea0e285","system_id":"levelo_inurba_marseille","lat":43.31334,"lon":5.39695,"is_reserved":false,"is_disabled":false,"rental_uris":{"android":"levelo://app?vid=cbff5c33-d1ea-45fe-8212-0f2e4ea0e285","ios":"levelo://app?vid=cbff5c33-d1ea-45fe-8212-0f2e4ea0e285"},"vehicle_type_id":"4","last_reported":1747087816,"current_range_meters":28000,"station_id":"ce4bgvp2rcd13ifvqcu0","pricing_plan_id":"cebpf4jnsgd1na2vs0mg"},{"bike_id":"f37ade65-3032-4bd0-bb71-67b6dc3c7b33","system_id":"levelo_inurba_marseille","lat":43.30865,"lon":5.39657,"is_reserved":false,"is_disabled":false,"rental_uris":{"android":"levelo://app?vid=f37ade65-3032-4bd0-bb71-67b6dc3c7b33","ios":"levelo://app?vid=f37ade65-3032-4bd0-bb71-67b6dc3c7b33"},"vehicle_type_id":"4","last_reported":1747087816,"current_range_meters":28000,"station_id":"ce4bh012rcd13ifvqcv0","pricing_plan_id":"cebpf4jnsgd1na2vs0mg"},{"bike_id":"303dc589-1f7f-4ce1-9867-b868273c3eea","system_id":"levelo_inurba_marseille","lat":43.29263,"lon":5.40904,"is_reserved":false,"is_disabled":false,"rental_uris":{"android":"levelo://app?vid=303dc589-1f7f-4ce1-9867-b868273c3eea","ios":"levelo://app?vid=303dc589-1f7f-4ce1-9867-b868273c3eea"},"vehicle_type_id":"4","last_reported":1747087816,"current_range_meters":28000,"station_id":"ce4bh192rcd13ifvqdc0","pricing_plan_id":"cebpf4jnsgd1na2vs0mg"},{"bike_id":"44dd68d6-7bdd-4141-9fdf-0344f713862d","system_id":"levelo_inurba_marseille","lat":43.28464,"lon":5.35889,"is_reserved":false,"is_disabled":false,"rental_uris":{"android":"levelo://app?vid=44dd68d6-7bdd-4141-9fdf-0344f713862d","ios":"levelo://app?vid=44dd68d6-7bdd-4141-9fdf-0344f713862d"},"vehicle_type_id":"4","last_reported":1747087816,"current_range_meters":28000,"station_id":"ce4bhah2rcd13ifvqei0","pricing_plan_id":"cebpf4jnsgd1na2vs0mg"},{"bike_id":"c77de246-b1d1-4d0c-b58a-1365550c0409","system_id":"levelo_inurba_marseille","lat":43.24397,"lon":5.37057,"is_reserved":false,"is_disabled":false,"rental_uris":{"android":"levelo://app?vid=c77de246-b1d1-4d0c-b58a-1365550c0409","ios":"levelo://app?vid=c77de246-b1d1-4d0c-b58a-1365550c0409"},"vehicle_type_id":"4","last_reported":1747087816,"current_range_meters":28000,"station_id":"ce4bhhh2rcd13ifvqfk0","pricing_plan_id":"cebpf4jnsgd1na2vs0mg"},{"bike_id":"464d8dda-674f-4dbe-9145-7a53396527a7","system_id":"levelo_inurba_marseille","lat":43.28157,"lon":5.42648,"is_reserved":false,"is_disabled":false,"rental_uris":{"android":"levelo://app?vid=464d8dda-674f-4dbe-9145-7a53396527a7","ios":"levelo://app?vid=464d8dda-674f-4dbe-9145-7a53396527a7"},"vehicle_type_id":"4","last_reported":1747087816,"current_range_meters":28000,"station_id":"ce4bhnh2rcd13ifvqgug","pricing_plan_id":"cebpf4jnsgd1na2vs0mg"},{"bike_id":"7ad018a9-2ec8-41d3-b8b5-cd11b6bb24b5","system_id":"levelo_inurba_marseille","lat":43.30295,"lon":5.39199,"is_reserved":false,"is_disabled":false,"rental_uris":{"android":"levelo://app?vid=7ad018a9-2ec8-41d3-b8b5-cd11b6bb24b5","ios":"levelo://app?vid=7ad018a9-2ec8-41d3-b8b5-cd11b6bb24b5"},"vehicle_type_id":"4","last_reported":1747087816,"current_range_meters":28400,"station_id":"ce4bgkh2rcd13ifvqbk0","pricing_plan_id":"cebpf4jnsgd1na2vs0mg"},{"bike_id":"d8aec80f-d59a-44d7-9b6a-09a6774375dd","system_id":"levelo_inurba_marseille","lat":43.30919,"lon":5.40128,"is_reserved":false,"is_disabled":false,"rental_uris":{"android":"levelo://app?vid=d8aec80f-d59a-44d7-9b6a-09a6774375dd","ios":"levelo://app?vid=d8aec80f-d59a-44d7-9b6a-09a6774375dd"},"vehicle_type_id":"4","last_reported":1747087816,"current_range_meters":28400,"station_id":"ce4bgvp2rcd13ifvqct0","pricing_plan_id":"cebpf4jnsgd1na2vs0mg"},{"bike_id":"7cbe2c1e-547b-4cac-8534-f8686f887179","system_id":"levelo_inurba_marseille","lat":43.30933,"lon":5.40153,"is_reserved":false,"is_disabled":false,"rental_uris":{"android":"levelo://app?vid=7cbe2c1e-547b-4cac-8534-f8686f887179","ios":"levelo://app?vid=7cbe2c1e-547b-4cac-8534-f8686f887179"},"vehicle_type_id":"4","last_reported":1747087816,"current_range_meters":28400,"station_id":"ce4bgvp2rcd13ifvqct0","pricing_plan_id":"cebpf4jnsgd1na2vs0mg"},{"bike_id":"a4ca7934-0397-45d7-ae6c-32e2eb754a1f","system_id":"levelo_inurba_marseille","lat":43.29279,"lon":5.40131,"is_reserved":false,"is_disabled":false,"rental_uris":{"android":"levelo://app?vid=a4ca7934-0397-45d7-ae6c-32e2eb754a1f","ios":"levelo://app?vid=a4ca7934-0397-45d7-ae6c-32e2eb754a1f"},"vehicle_type_id":"4","last_reported":1747087816,"current_range_meters":28400,"station_id":"ce4bh312rcd13ifvqdk0","pricing_plan_id":"cebpf4jnsgd1na2vs0mg"},{"bike_id":"52505801-9055-45a8-a88a-cf50ac1a06ad","system_id":"levelo_inurba_marseille","lat":43.28406,"lon":5.3753,"is_reserved":false,"is_disabled":false,"rental_uris":{"android":"levelo://app?vid=52505801-9055-45a8-a88a-cf50ac1a06ad","ios":"levelo://app?vid=52505801-9055-45a8-a88a-cf50ac1a06ad"},"vehicle_type_id":"4","last_reported":1747087816,"current_range_meters":28400,"station_id":"ce4bh412rcd13ifvqds0","pricing_plan_id":"cebpf4jnsgd1na2vs0mg"},{"bike_id":"aada4397-5755-40b2-9169-ab4ed9821dbf","system_id":"levelo_inurba_marseille","lat":43.28358,"lon":5.38628,"is_reserved":false,"is_disabled":false,"rental_uris":{"android":"levelo://app?vid=aada4397-5755-40b2-9169-ab4ed9821dbf","ios":"levelo://app?vid=aada4397-5755-40b2-9169-ab4ed9821dbf"},"vehicle_type_id":"4","last_reported":1747087816,"current_range_meters":28400,"station_id":"ce4bh492rcd13ifvqdvg","pricing_plan_id":"cebpf4jnsgd1na2vs0mg"},{"bike_id":"3ed7b136-7e44-4e26-9e34-6d57d42640a6","system_id":"levelo_inurba_marseille","lat":43.32366,"lon":5.36763,"is_reserved":false,"is_disabled":false,"rental_uris":{"android":"levelo://app?vid=3ed7b136-7e44-4e26-9e34-6d57d42640a6","ios":"levelo://app?vid=3ed7b136-7e44-4e26-9e34-6d57d42640a6"},"vehicle_type_id":"4","last_reported":1747087816,"current_range_meters":28400,"station_id":"ce4bhsh2rcd13ifvqi2g","pricing_plan_id":"cebpf4jnsgd1na2vs0mg"},{"bike_id":"b069d03d-8124-4842-baee-9c2996ed4804","system_id":"levelo_inurba_marseille","lat":43.30267,"lon":5.40076,"is_reserved":false,"is_disabled":false,"rental_uris":{"android":"levelo://app?vid=b069d03d-8124-4842-baee-9c2996ed4804","ios":"levelo://app?vid=b069d03d-8124-4842-baee-9c2996ed4804"},"vehicle_type_id":"4","last_reported":1747087816,"current_range_meters":28800,"station_id":"ce4bgvh2rcd13ifvqcs0","pricing_plan_id":"cebpf4jnsgd1na2vs0mg"},{"bike_id":"d72719ec-6d7b-4f82-8b79-2d86a6f7b21e","system_id":"levelo_inurba_marseille","lat":43.29874,"lon":5.3974,"is_reserved":false,"is_disabled":false,"rental_uris":{"android":"levelo://app?vid=d72719ec-6d7b-4f82-8b79-2d86a6f7b21e","ios":"levelo://app?vid=d72719ec-6d7b-4f82-8b79-2d86a6f7b21e"},"vehicle_type_id":"4","last_reported":1747087816,"current_range_meters":28800,"station_id":"ce4bh0h2rcd13ifvqd50","pricing_plan_id":"cebpf4jnsgd1na2vs0mg"},{"bike_id":"909763f2-ad07-42f6-9c11-e3788326a499","system_id":"levelo_inurba_marseille","lat":43.28346,"lon":5.38092,"is_reserved":false,"is_disabled":false,"rental_uris":{"android":"levelo://app?vid=909763f2-ad07-42f6-9c11-e3788326a499","ios":"levelo://app?vid=909763f2-ad07-42f6-9c11-e3788326a499"},"vehicle_type_id":"4","last_reported":1747087816,"current_range_meters":28800,"station_id":"ce4bh412rcd13ifvqdr0","pricing_plan_id":"cebpf4jnsgd1na2vs0mg"},{"bike_id":"f4d4caaf-c63b-4936-b008-72bac8c85093","system_id":"levelo_inurba_marseille","lat":43.27915,"lon":5.39578,"is_reserved":false,"is_disabled":false,"rental_uris":{"android":"levelo://app?vid=f4d4caaf-c63b-4936-b008-72bac8c85093","ios":"levelo://app?vid=f4d4caaf-c63b-4936-b008-72bac8c85093"},"vehicle_type_id":"4","last_reported":1747087816,"current_range_meters":28800,"station_id":"ce4bhf92rcd13ifvqf40","pricing_plan_id":"cebpf4jnsgd1na2vs0mg"},