{"last_updated":1751098398,"ttl":60,"version":"2.2","data":{"bikes":[{"bike_id":"3da29fb8-fc97-44c6-b9ac-31dd456b2fd4","system_id":"levelo_inurba_marseille","lat":43.33771,"lon":5.37424,"is_reserved":false,"is_disabled":true,"rental_uris":{"android":"levelo://app?vid=3da29fb8-fc97-44c6-b9ac-31dd456b2fd4","ios":"levelo://app?vid=3da29fb8-fc97-44c6-b9ac-31dd456b2fd4"},"vehicle_type_id":"4","last_reported":1751098398,"current_range_meters":0,"station_id":"","pricing_plan_id":"cebpf4jnsgd1na2vs0mg"},{"bike_id":"01861ad8-a8d7-4be6-816e-651927c87584","system_id":"levelo_inurba_marseille","lat":43.33751,"lon":5.37456,"is_reserved":false,"is_disabled":true,"rental_uris":{"android":"levelo://app?vid=01861ad8-a8d7-4be6-816e-651927c87584","ios":"levelo://app?vid=01861ad8-a8d7-4be6-816e-651927c87584"},"vehicle_type_id":"4","last_reported":1751098398,"current_range_meters":0,"station_id":"","pricing_plan_id":"cebpf4jnsgd1na2vs0mg"},{"bike_id":"77673b0f-fa8d-4a5f-802e-e3125964cb45","system_id":"levelo_inurba_marseille","lat":43.33099,"lon":5.36498,"is_reserved":false,"is_disabled":true,"rental_uris":{"android":"levelo://app?vid=77673b0f-fa8d-4a5f-802e-e3125964cb45","ios":"levelo://app?vid=77673b0f-fa8d-4a5f-802e-e3125964cb45"},"vehicle_type_id":"4","last_reported":1751098398,"current_range_meters":0,"station_id":"","pricing_plan_id":"cebpf4jnsgd1na2vs0mg"},{"bike_id":"5eb0b199-abdc-493f-975f-d82c50822e89","system_id":"levelo_inurba_marseille","lat":43.29965,"lon":5.38491,"is_reserved":false,"is_disabled":true,"rental_uris":{"android":"levelo://app?vid=5eb0b199-abdc-493f-975f-d82c50822e89","ios":"levelo://app?vid=5eb0b199-abdc-493f-975f-d82c50822e89"},"vehicle_type_id":"4","last_reported":1751098398,"current_range_meters":0,"station_id":"ce4bgj92rcd13ifvqbd0","pricing_plan_id":"cebpf4jnsgd1na2vs0mg"},{"bike_id":"29e61bd5-597e-4e6a-a4f6-6cff649f0b8d","system_id":"levelo_inurba_marseille","lat":43.2842,"lon":5.34976,"is_reserved":false,"is_disabled":true,"rental_uris":{"android":"levelo://app?vid=29e61bd5-597e-4e6a-a4f6-6cff649f0b8d","ios":"levelo://app?vid=29e61bd5-597e-4e6a-a4f6-6cff649f0b8d"},"vehicle_type_id":"4","last_reported":1751098398,"current_range_meters":0,"station_id":"ce4bhbh2rcd13ifvqepg","pricing_plan_id":"cebpf4jnsgd1na2vs0mg"},{"bike_id":"7f243616-0094-460c-9095-52547fbc8230","system_id":"levelo_inurba_marseille","lat":43.25583,"lon":5.38229,"is_reserved":false,"is_disabled":true,"rental_uris":{"android":"levelo://app?vid=7f243616-0094-460c-9095-52547fbc8230","ios":"levelo://app?vid=7f243616-0094-460c-9095-52547fbc8230"},"vehicle_type_id":"4","last_reported":1751098398,"current_range_meters":0,"station_id":"ce4bhih2rcd13ifvqfs0","pricing_plan_id":"cebpf4jnsgd1na2vs0mg"},{"bike_id":"b75c9cb8-fd78-4a80-9d1b-540023d5ad53","system_id":"levelo_inurba_marseille","lat":43.341403,"lon":5.409055,"is_reserved":false,"is_disabled":true,"rental_uris":{"android":"levelo://app?vid=b75c9cb8-fd78-4a80-9d1b-540023d5ad53","ios":"levelo://app?vid=b75c9cb8-fd78-4a80-9d1b-540023d5ad53"},"vehicle_type_id":"4","last_reported":1751098398,"current_range_meters":0,"station_id":"ce4bhqh2rcd13ifvqhlg","pricing_plan_id":"cebpf4jnsgd1na2vs0mg"},{"bike_id":"14465b89-422e-4e98-acdd-e507be356f92","system_id":"levelo_inurba_marseille","lat":43.26801,"lon":5.40268,"is_reserved":false,"is_disabled":true,"rental_uris":{"android":"levelo://app?vid=14465b89-422e-4e98-acdd-e507be356f92","ios":"levelo://app?vid=14465b89-422e-4e98-acdd-e507be356f92"},"vehicle_type_id":"4","last_reported":1751098398,"current_range_meters":0,"station_id":"ce501612rcd8frsf0b60","pricing_plan_id":"cebpf4jnsgd1na2vs0mg"},{"bike_id":"b00d0b8f-8c84-4e74-9a29-996120ad9a19","system_id":"levelo_inurba_marseille","lat":43.26806,"lon":5.40265,"is_reserved":false,"is_disabled":true,"rental_uris":{"android":"levelo://app?vid=b00d0b8f-8c84-4e74-9a29-996120ad9a19","ios":"levelo://app?vid=b00d0b8f-8c84-4e74-9a29-996120ad9a19"},"vehicle_type_id":"4","last_reported":1751098398,"current_range_meters":0,"station_id":"ce501612rcd8frsf0b60","pricing_plan_id":"cebpf4jnsgd1na2vs0mg"},{"bike_id":"29ec4185-f87e-45a2-91e6-759a1d934b1c","system_id":"levelo_inurba_marseille","lat":43.21737,"lon":5.34604,"is_reserved":false,"is_disabled":true,"rental_uris":{"android":"levelo://app?vid=29ec4185-f87e-45a2-91e6-759a1d934b1c","ios":"levelo://app?vid=29ec4185-f87e-45a2-91e6-759a1d934b1c"},"vehicle_type_id":"4","last_reported":1751098398,"current_range_meters":0,"station_id":"st_cvj6r9ubvosntc0bgbag","pricing_plan_id":"cebpf4jnsgd1na2vs0mg"},{"bike_id":"a0aa7f48-2c07-453d-845a-eaeace62b973","system_id":"levelo_inurba_marseille","lat":43.31118,"lon":5.37754,"is_reserved":false,"is_disabled":true,"rental_uris":{"android":"levelo://app?vid=a0aa7f48-2c07-453d-845a-eaeace62b973","ios":"levelo://app?vid=a0aa7f48-2c07-453d-845a-eaeace62b973"},"vehicle_type_id":"4","last_reported":1751098398,"current_range_meters":800,"station_id":"ce4bgt92rcd13ifvqcg0","pricing_plan_id":"cebpf4jnsgd1na2vs0mg"},{"bike_id":"92d3bb11-4cf3-47e6-bc0f-ff80eea58ad1","system_id":"levelo_inurba_marseille","lat":43.3037,"lon":5.42504,"is_reserved":false,"is_disabled":true,"rental_uris":{"android":"levelo://app?vid=92d3bb11-4cf3-47e6-bc0f-ff80eea58ad1","ios":"levelo://app?vid=92d3bb11-4cf3-47e6-bc0f-ff80eea58ad1"},"vehicle_type_id":"4","last_reported":1751098398,"current_range_meters":800,"station_id":"ce4bhoh2rcd13ifvqh6g","pricing_plan_id":"cebpf4jnsgd1na2vs0mg"},{"bike_id":"f47876d7-9c85-474e-92c5-7a242e08b67c","system_id":"levelo_inurba_marseille","lat":43.30558,"lon":5.37517,"is_reserved":false,"is_disabled":true,"rental_uris":{"android":"levelo://app?vid=f47876d7-9c85-474e-92c5-7a242e08b67c","ios":"levelo://app?vid=f47876d7-9c85-474e-92c5-7a242e08b67c"},"vehicle_type_id":"4","last_reported":1751098398,"current_range_meters":1600,"station_id":"","pricing_plan_id":"cebpf4jnsgd1na2vs0mg"},{"bike_id":"1e27f916-add9-497a-8560-a727e2a3be63","system_id":"levelo_inurba_marseille","lat":43.2558,"lon":5.38232,"is_reserved":false,"is_disabled":false,"rental_uris":{"android":"levelo://app?vid=1e27f916-add9-497a-8560-a727e2a3be63","ios":"levelo://app?vid=1e27f916-add9-497a-8560-a727e2a3be63"},"vehicle_type_id":"4","last_reported":1751098398,"current_range_meters":2800,"station_id":"ce4bhih2rcd13ifvqfs0","pricing_plan_id":"cebpf4jnsgd1na2vs0mg"},{"bike_id":"94e84186-d780-461a-b647-8d1cf3f036ad","system_id":"levelo_inurba_marseille","lat":43.31731,"lon":5.377446,"is_reserved":false,"is_disabled":false,"rental_uris":{"android":"levelo://app?vid=94e84186-d780-461a-b647-8d1cf3f036ad","ios":"levelo://app?vid=94e84186-d780-461a-b647-8d1cf3f036ad"},"vehicle_type_id":"4","last_reported":1751098398,"current_range_meters":4400,"station_id":"ce4bgth2rcd13ifvqch0","pricing_plan_id":"cebpf4jnsgd1na2vs0mg"},{"bike_id":"5ca389b6-3c55-49e5-8a9d-e45d483aac4e","system_id":"levelo_inurba_marseille","lat":43.279433,"lon":5.410528,"is_reserved":false,"is_disabled":false,"rental_uris":{"android":"levelo://app?vid=5ca389b6-3c55-49e5-8a9d-e45d483aac4e","ios":"levelo://app?vid=5ca389b6-3c55-49e5-8a9d-e45d483aac4e"},"vehicle_type_id":"4","last_reported":1751098398,"current_range_meters":4400,"station_id":"ce4bhnp2rcd13ifvqh0g","pricing_plan_id":"cebpf4jnsgd1na2vs0mg"},{"bike_id":"dc13ebea-27c3-41b6-9c8a-96ca11c59cbf","system_id":"levelo_inurba_marseille","lat":43.29263,"lon":5.40889,"is_reserved":false,"is_disabled":false,"rental_uris":{"android":"levelo://app?vid=dc13ebea-27c3-41b6-9c8a-96ca11c59cbf","ios":"levelo://app?vid=dc13ebea-27c3-41b6-9c8a-96ca11c59cbf"},"vehicle_type_id":"4","last_reported":1751098398,"current_range_meters":4800,"station_id":"ce4bh192rcd13ifvqdc0","pricing_plan_id":"cebpf4jnsgd1na2vs0mg"},{"bike_id":"e79f8185-9369-483c-a47b-2dcaf95f7860","system_id":"levelo_inurba_marseille","lat":43.2307,"lon":5.35492,"is_reserved":false,"is_disabled":false,"rental_uris":{"android":"levelo://app?vid=e79f8185-9369-483c-a47b-2dcaf95f7860","ios":"levelo://app?vid=e79f8185-9369-483c-a47b-2dcaf95f7860"},"vehicle_type_id":"4","last_reported":1751098398,"current_range_meters":5600,"station_id":"cpo3342slgdg3j2ifvpg","pricing_plan_id":"cebpf4jnsgd1na2vs0mg"},{"bike_id":"4b8da722-ee9e-48a4-a5e5-3a8a10364708","system_id":"levelo_inurba_marseille","lat":43.312219,"lon":5.378254,"is_reserved":false,"is_disabled":false,"rental_uris":{"android":"levelo://app?vid=4b8da722-ee9e-48a4-a5e5-3a8a10364708","ios":"levelo://app?vid=4b8da722-ee9e-48a4-a5e5-3a8a10364708"},"vehicle_type_id":"4","last_reported":1751098398,"current_range_meters":6800,"station_id":"","pricing_plan_id":"cebpf4jnsgd1na2vs0mg"},{"bike_id":"73a03650-973e-42b0-bad4-545481e15f73","system_id":"levelo_inurba_marseille","lat":43.312394,"lon":5.390682,"is_reserved":false,"is_disabled":false,"rental_uris":{"android":"levelo://app?vid=73a03650-973e-42b0-bad4-545481e15f73","ios":"levelo://app?vid=73a03650-973e-42b0-bad4-545481e15f73"},"vehicle_type_id":"4","last_reported":1751098398,"current_range_meters":6800,"station_id":"","pricing_plan_id":"cebpf4jnsgd1na2vs0mg"},{"bike_id":"dcea07ca-9323-4b9b-98f6-e1fc9b106559","system_id":"levelo_inurba_marseille","lat":43.30311,"lon":5.37597,"is_reserved":false,"is_disabled":false,"rental_uris":{"android":"levelo://app?vid=dcea07ca-9323-4b9b-98f6-e1fc9b106559","ios":"levelo://app?vid=dcea07ca-9323-4b9b-98f6-e1fc9b106559"},"vehicle_type_id":"4","last_reported":1751098398,"current_range_meters":6800,"station_id":"","pricing_plan_id":"cebpf4jnsgd1na2vs0mg"},{"bike_id":"734a91ef-281f-4101-9bfa-8cb9e562f0ac","system_id":"levelo_inurba_marseille","lat":43.29243,"lon":5.40915,"is_reserved":false,"is_disabled":false,"rental_uris":{"android":"levelo://app?vid=734a91ef-281f-4101-9bfa-8cb9e562f0ac","ios":"levelo://app?vid=734a91ef-281f-4101-9bfa-8cb9e562f0ac"},"vehicle_type_id":"4","last_reported":1751098398,"current_range_meters":7200,"station_id":"ce4bh192rcd13ifvqdc0","pricing_plan_id":"cebpf4jnsgd1na2vs0mg"},{"bike_id":"b4db52ab-c466-4a6e-929e-eec21ca77d53","system_id":"levelo_inurba_marseille","lat":43.28416,"lon":5.34976,"is_reserved":false,"is_disabled":false,"rental_uris":{"android":"levelo://app?vid=b4db52ab-c466-4a6e-929e-eec21ca77d53","ios":"levelo://app?vid=b4db52ab-c466-4a6e-929e-eec21ca77d53"},"vehicle_type_id":"4","last_reported":1751098398,"current_range_meters":7200,"station_id":"ce4bhbh2rcd13ifvqepg","pricing_plan_id":"cebpf4jnsgd1na2vs0mg"},{"bike_id":"f4db1676-2989-4961-9e5d-370e18ab1e9b","system_id":"levelo_inurba_marseille","lat":43.27424,"lon":5.39423,"is_reserved":false,"is_disabled":false,"rental_uris":{"android":"levelo://app?vid=f4db1676-2989-4961-9e5d-370e18ab1e9b","ios":"levelo://app?vid=f4db1676-2989-4961-9e5d-370e18ab1e9b"},"vehicle_type_id":"4","last_reported":1751098398,"current_range_meters":7200,"station_id":"ce4bhdp2rcd13ifvqf20","pricing_plan_id":"cebpf4jnsgd1na2vs0mg"},{"bike_id":"7a92a51b-12db-41cc-98c0-2618d3831133","system_id":"levelo_inurba_marseille","lat":43.32293,"lon":5.38248,"is_reserved":false,"is_disabled":false,"rental_uris":{"android":"levelo://app?vid=7a92a51b-12db-41cc-98c0-2618d3831133","ios":"levelo://app?vid=7a92a51b-12db-41cc-98c0-2618d3831133"},"vehicle_type_id":"4","last_reported":1751098398,"current_range_meters":7200,"station_id":"ce4bhr12rcd13ifvqhqg","pricing_plan_id":"cebpf4jnsgd1na2vs0mg"},{"bike_id":"b7d0d8a1-c5dd-4278-8b3b-f5786872fe32","system_id":"levelo_inurba_marseille","lat":43.32101,"lon":5.36755,"is_reserved":false,"is_disabled":false,"rental_uris":{"android":"levelo://app?vid=b7d0d8a1-c5dd-4278-8b3b-f5786872fe32","ios":"levelo://app?vid=b7d0d8a1-c5dd-4278-8b3b-f5786872fe32"},"vehicle_type_id":"4","last_reported":1751098398,"current_range_meters":7200,"station_id":"ce4bhrh2rcd13ifvqhug","pricing_plan_id":"cebpf4jnsgd1na2vs0mg"},{"bike_id":"ee0962f1-2f0d-4cba-9adb-c698d6222e90","system_id":"levelo_inurba_marseille","lat":43.311705,"lon":5.387155,"is_reserved":false,"is_disabled":false,"rental_uris":{"android":"levelo://app?vid=ee0962f1-2f0d-4cba-9adb-c698d6222e90","ios":"levelo://app?vid=ee0962f1-2f0d-4cba-9adb-c698d6222e90"},"vehicle_type_id":"4","last_reported":1751098398,"current_range_meters":8000,"station_id":"ce4bgv12rcd13ifvqcp0","pricing_plan_id":"cebpf4jnsgd1na2vs0mg"},{"bike_id":"5edac40e-a387-4315-a30f-68f5c52b8412","system_id":"levelo_inurba_marseille","lat":43.29034,"lon":5.386482,"is_reserved":false,"is_disabled":false,"rental_uris":{"android":"levelo://app?vid=5edac40e-a387-4315-a30f-68f5c52b8412","ios":"levelo://app?vid=5edac40e-a387-4315-a30f-68f5c52b8412"},"vehicle_type_id":"4","last_reported":1751098398,"current_range_meters":8000,"station_id":"ce4bh4p2rcd13ifvqe0g","pricing_plan_id":"cebpf4jnsgd1na2vs0mg"},{"bike_id":"0e3c4545-23ac-400c-b613-5a7b70527fa4","system_id":"levelo_inurba_marseille","lat":43.27939,"lon":5.41041,"is_reserved":false,"is_disabled":false,"rental_uris":{"android":"levelo://app?vid=0e3c4545-23ac-400c-b613-5a7b70527fa4","ios":"levelo://app?vid=0e3c4545-23ac-400c-b613-5a7b70527fa4"},"vehicle_type_id":"4","last_reported":1751098398,"current_range_meters":8000,"station_id":"ce4bhnp2rcd13ifvqh0g","pricing_plan_id":"cebpf4jnsgd1na2vs0mg"},{"bike_id":"f651f332-7489-41bf-8e23-8eb356c4fced","system_id":"levelo_inurba_marseille","lat":43.24806,"lon":5.37458,"is_reserved":false,"is_disabled":false,"rental_uris":{"android":"levelo://app?vid=f651f332-7489-41bf-8e23-8eb356c4fced","ios":"levelo://app?vid=f651f332-7489-41bf-8e23-8eb356c4fced"},"vehicle_type_id":"4","last_reported":1751098398,"current_range_meters":8400,"station_id":"ce4bhgh2rcd13ifvqfb0","pricing_plan_id":"cebpf4jnsgd1na2vs0mg"},{"bike_id":"88c44910-a430-4e33-9c91-a4a8d0c5c1d1","system_id":"levelo_inurba_marseille","lat":43.2438,"lon":5.37058,"is_reserved":false,"is_disabled":false,"rental_uris":{"android":"levelo://app?vid=88c44910-a430-4e33-9c91-a4a8d0c5c1d1","ios":"levelo://app?vid=88c44910-a430-4e33-9c91-a4a8d0c5c1d1"},"vehicle_type_id":"4","last_reported":1751098398,"current_range_meters":8400,"station_id":"ce4bhhh2rcd13ifvqfk0","pricing_plan_id":"cebpf4jnsgd1na2vs0mg"},{"bike_id":"a440f2f6-8cf8-4348-9ba1-e21002a18a07","system_id":"levelo_inurba_marseille","lat":43.32117,"lon":5.3678,"is_reserved":false,"is_disabled":false,"rental_uris":{"android":"levelo://app?vid=a440f2f6-8cf8-4348-9ba1-e21002a18a07","ios":"levelo://app?vid=a440f2f6-8cf8-4348-9ba1-e21002a18a07"},"vehicle_type_id":"4","last_reported":1751098398,"current_range_meters":8400,"station_id":"ce4bhrh2rcd13ifvqhug","pricing_plan_id":"cebpf4jnsgd1na2vs0mg"},{"bike_id":"d93518a7-acea-49d1-8b1d-66917831e25a","system_id":"levelo_inurba_marseille","lat":43.28341,"lon":5.39566,"is_reserved":false,"is_disabled":false,"rental_uris":{"android":"levelo://app?vid=d93518a7-acea-49d1-8b1d-66917831e25a","ios":"levelo://app?vid=d93518a7-acea-49d1-8b1d-66917831e25a"},"vehicle_type_id":"4","last_reported":1751098398,"current_range_meters":8800,"station_id":"","pricing_plan_id":"cebpf4jnsgd1na2vs0mg"},{"bike_id":"81983798-f8af-49a3-b622-1aaba5322c2e","system_id":"levelo_inurba_marseille","lat":43.30299,"lon":5.36873,"is_reserved":false,"is_disabled":false,"rental_uris":{"android":"levelo://app?vid=81983798-f8af-49a3-b622-1aaba5322c2e","ios":"levelo://app?vid=81983798-f8af-49a3-b622-1aaba5322c2e"},"vehicle_type_id":"4","last_reported":1751098398,"current_range_meters":8800,"station_id":"ce4bgqh2rcd13ifvqc5g","pricing_plan_id":"cebpf4jnsgd1na2vs0mg"},{"bike_id":"ea279668-6a38-4fef-978c-748b56aa3d79","system_id":"levelo_inurba_marseille","lat":43.29872,"lon":5.38903,"is_reserved":false,"is_disabled":false,"rental_uris":{"android":"levelo://app?vid=ea279668-6a38-4fef-978c-748b56aa3d79","ios":"levelo://app?vid=ea279668-6a38-4fef-978c-748b56aa3d79"},"vehicle_type_id":"4","last_reported":1751098398,"current_range_meters":8800,"station_id":"ce4bh392rcd13ifvqdl0","pricing_plan_id":"cebpf4jnsgd1na2vs0mg"},{"bike_id":"3e82f598-9d1d-4257-8afa-a4dc7305de09","system_id":"levelo_inurba_marseille","lat":43.2119,"lon":5.35074,"is_reserved":false,"is_disabled":false,"rental_uris":{"android":"levelo://app?vid=3e82f598-9d1d-4257-8afa-a4dc7305de09","ios":"levelo://app?vid=3e82f598-9d1d-4257-8afa-a4dc7305de09"},"vehicle_type_id":"4","last_reported":1751098398,"current_range_meters":8800,"station_id":"st_cvj6sg6p6f1abm77japg","pricing_plan_id":"cebpf4jnsgd1na2vs0mg"},{"bike_id":"a1efc803-1520-45fc-9e03-1f27beb25e3d","system_id":"levelo_inurba_marseille","lat":43.306383,"lon":5.400743,"is_reserved":false,"is_disabled":false,"rental_uris":{"android":"levelo://app?vid=a1efc803-1520-45fc-9e03-1f27beb25e3d","ios":"levelo://app?vid=a1efc803-1520-45fc-9e03-1f27beb25e3d"},"vehicle_type_id":"4","last_reported":1751098398,"current_range_meters":9200,"station_id":"ce4bh112rcd13ifvqda0","pricing_plan_id":"cebpf4jnsgd1na2vs0mg"},{"bike_id":"d113360d-5494-491b-9546-b6e0f97680fc","system_id":"levelo_inurba_marseille","lat":43.29091,"lon":5.38111,"is_reserved":false,"is_disabled":false,"rental_uris":{"android":"levelo://app?vid=d113360d-5494-491b-9546-b6e0f97680fc","ios":"levelo://app?vid=d113360d-5494-491b-9546-b6e0f97680fc"},"vehicle_type_id":"4","last_reported":1751098398,"current_range_meters":9200,"station_id":"ce4bh512rcd13ifvqe2g","pricing_plan_id":"cebpf4jnsgd1na2vs0mg"},{"bike_id":"cd1bc6c1-6b6c-49cc-81a7-97fdf0f3a681","system_id":"levelo_inurba_marseille","lat":43.2407,"lon":5.37755,"is_reserved":false,"is_disabled":false,"rental_uris":{"android":"levelo://app?vid=cd1bc6c1-6b6c-49cc-81a7-97fdf0f3a681","ios":"levelo://app?vid=cd1bc6c1-6b6c-49cc-81a7-97fdf0f3a681"},"vehicle_type_id":"4","last_reported":1751098398,"current_range_meters":9200,"station_id":"ce4bhnp2rcd13ifvqgvg","pricing_plan_id":"cebpf4jnsgd1na2vs0mg"},{"bike_id":"1c8ab180-05fd-405f-9922-b2b2c2d5142f","system_id":"levelo_inurba_marseille","lat":43.32108,"lon":5.36785,"is_reserved":false,"is_disabled":false,"rental_uris":{"android":"levelo://app?vid=1c8ab180-05fd-405f-9922-b2b2c2d5142f","ios":"levelo://app?vid=1c8ab180-05fd-405f-9922-b2b2c2d5142f"},"vehicle_type_id":"4","last_reported":1751098398,"current_range_meters":9200,"station_id":"ce4bhrh2rcd13ifvqhug","pricing_plan_id":"cebpf4jnsgd1na2vs0mg"},{"bike_id":"5d5e13a4-10cc-485c-a362-06d02242e666","system_id":"levelo_inurba_marseille","lat":43.211902,"lon":5.350781,"is_reserved":false,"is_disabled":false,"rental_uris":{"android":"levelo://app?vid=5d5e13a4-10cc-485c-a362-06d02242e666","ios":"levelo://app?vid=5d5e13a4-10cc-485c-a362-06d02242e666"},"vehicle_type_id":"4","last_reported":1751098398,"current_range_meters":9200,"station_id":"st_cvj6sg6p6f1abm77japg","pricing_plan_id":"cebpf4jnsgd1na2vs0mg"},{"bike_id":"5a01ae6d-9064-484c-8d77-2d9e141e2313","system_id":"levelo_inurba_marseille","lat":43.244846,"lon":5.390206,"is_reserved":false,"is_disabled":false,"rental_uris":{"android":"levelo://app?vid=5a01ae6d-9064-484c-8d77-2d9e141e2313","ios":"levelo://app?vid=5a01ae6d-9064-484c-8d77-2d9e141e2313"},"vehicle_type_id":"4","last_reported":1751098398,"current_range_meters":9600,"station_id":"","pricing_plan_id":"cebpf4jnsgd1na2vs0mg"},{"bike_id":"78c80fd3-64b3-4a78-a36b-8273408f1f43","system_id":"levelo_inurba_marseille","lat":43.30135,"lon":5.38074,"is_reserved":false,"is_disabled":false,"rental_uris":{"android":"levelo://app?vid=78c80fd3-64b3-4a78-a36b-8273408f1f43","ios":"levelo://app?vid=78c80fd3-64b3-4a78-a36b-8273408f1f43"},"vehicle_type_id":"4","last_reported":1751098398,"current_range_meters":9600,"station_id":"ce4bgjp2rcd13ifvqbh0","pricing_plan_id":"cebpf4jnsgd1na2vs0mg"},{"bike_id":"06ee009d-fb3d-49c6-8a98-8a4efa61368d","system_id":"levelo_inurba_marseille","lat":43.28566,"lon":5.395149,"is_reserved":false,"is_disabled":false,"rental_uris":{"android":"levelo://app?vid=06ee009d-fb3d-49c6-8a98-8a4efa61368d","ios":"levelo://app?vid=06ee009d-fb3d-49c6-8a98-8a4efa61368d"},"vehicle_type_id":"4","last_reported":1751098398,"current_range_meters":9600,"station_id":"ce4bh292rcd13ifvqdg0","pricing_plan_id":"cebpf4jnsgd1na2vs0mg"},{"bike_id":"eb298d09-5958-4d51-a272-76707cbb5a3e","system_id":"levelo_inurba_marseille","lat":43.26804,"lon":5.4026,"is_reserved":false,"is_disabled":false,"rental_uris":{"android":"levelo://app?vid=eb298d09-5958-4d51-a272-76707cbb5a3e","ios":"levelo://app?vid=eb298d09-5958-4d51-a272-76707cbb5a3e"},"vehicle_type_id":"4","last_reported":1751098398,"current_range_meters":9600,"station_id":"ce501612rcd8frsf0b60","pricing_plan_id":"cebpf4jnsgd1na2vs0mg"},{"bike_id":"ae585140-2ebc-4e9e-9c6f-37fd3c7c898e","system_id":"levelo_inurba_marseille","lat":43.2318,"lon":5.3999,"is_reserved":false,"is_disabled":false,"rental_uris":{"android":"levelo://app?vid=ae585140-2ebc-4e9e-9c6f-37fd3c7c898e","ios":"levelo://app?vid=ae585140-2ebc-4e9e-9c6f-37fd3c7c898e"},"vehicle_type_id":"4","last_reported":1751098398,"current_range_meters":10000,"station_id":"ce4bhn12rcd13ifvqgqg","pricing_plan_id":"cebpf4jnsgd1na2vs0mg"},{"bike_id":"ea8aef64-b77d-45df-891c-526c816c3810","system_id":"levelo_inurba_marseille","lat":43.29195,"lon":5.35797,"is_reserved":false,"is_disabled":false,"rental_uris":{"android":"levelo://app?vid=ea8aef64-b77d-45df-891c-526c816c3810","ios":"levelo://app?vid=ea8aef64-b77d-45df-891c-526c816c3810"},"vehicle_type_id":"4","last_reported":1751098398,"current_range_meters":10800,"station_id":"ce4bhb12rcd13ifvqel0","pricing_plan_id":"cebpf4jnsgd1na2vs0mg"},{"bike_id":"0084fa36-b099-43a6-9ba4-567287b5ca8d","system_id":"levelo_inurba_marseille","lat":43.23176,"lon":5.39987,"is_reserved":false,"is_disabled":false,"rental_uris":{"android":"levelo://app?vid=0084fa36-b099-43a6-9ba4-567287b5ca8d","ios":"levelo://app?vid=0084fa36-b099-43a6-9ba4-567287b5ca8d"},"vehicle_type_id":"4","last_reported":1751098398,"current_range_meters":10800,"station_id":"ce4bhn12rcd13ifvqgqg","pricing_plan_id":"cebpf4jnsgd1na2vs0mg"},{"bike_id":"d641659c-64fc-486a-91a2-3cc8072043e6","system_id":"levelo_inurba_marseille","lat":43.32103,"lon":5.36783,"is_reserved":false,"is_disabled":false,"rental_uris":{"android":"levelo://app?vid=d641659c-64fc-486a-91a2-3cc8072043e6","ios":"levelo://app?vid=d641659c-64fc-486a-91a2-3cc8072043e6"},"vehicle_type_id":"4","last_reported":1751098398,"current_range_meters":10800,"station_id":"ce4bhrh2rcd13ifvqhug","pricing_plan_id":"cebpf4jnsgd1na2vs0mg"},{"bike_id":"7dfc5216-abd2-4eb0-aa98-27c7a95c769d","system_id":"levelo_inurba_marseille","lat":43.22931,"lon":5.35377,"is_reserved":false,"is_disabled":false,"rental_uris":{"android":"levelo://app?vid=7dfc5216-abd2-4eb0-aa98-27c7a95c769d","ios":"levelo://app?vid=7dfc5216-abd2-4eb0-aa98-27c7a95c769d"},"vehicle_type_id":"4","last_reported":1751098398,"current_range_meters":10800,"station_id":"cpo3532slgdg3j2ikp40","pricing_plan_id":"cebpf4jnsgd1na2vs0mg"},{"bike_id":"2a9a5366-8dad-42f1-bee6-ffb042c54776","system_id":"levelo_inurba_marseille","lat":43.2118,"lon":5.3507,"is_reserved":false,"is_disabled":false,"rental_uris":{"android":"levelo://app?vid=2a9a5366-8dad-42f1-bee6-ffb042c54776","ios":"levelo://app?vid=2a9a5366-8dad-42f1-bee6-ffb042c54776"},"vehicle_type_id":"4","last_reported":1751098398,"current_range_meters":10800,"station_id":"st_cvj6sg6p6f1abm77japg","pricing_plan_id":"cebpf4jnsgd1na2vs0mg"},{"bike_id":"f0057ca2-de2d-4464-8902-068dc3677e00","system_id":"levelo_inurba_marseille","lat":43.211944,"lon":5.350781,"is_reserved":false,"is_disabled":false,"rental_uris":{"android":"levelo://app?vid=f0057ca2-de2d-4464-8902-068dc3677e00","ios":"levelo://app?vid=f0057ca2-de2d-4464-8902-068dc3677e00"},"vehicle_type_id":"4","last_reported":1751098398,"current_range_meters":10800,"station_id":"st_cvj6sg6p6f1abm77japg","pricing_plan_id":"cebpf4jnsgd1na2vs0mg"},{"bike_id":"03bf2de9-e7e9-4523-9bf9-8ff0185e31f3","system_id":"levelo_inurba_marseille","lat":43.31073,"lon":5.38346,"is_reserved":false,"is_disabled":false,"rental_uris":{"android":"levelo://app?vid=03bf2de9-e7e9-4523-9bf9-8ff0185e31f3","ios":"levelo://app?vid=03bf2de9-e7e9-4523-9bf9-8ff0185e31f3"},"vehicle_type_id":"4","last_reported":1751098398,"current_range_meters":11200,"station_id":"ce4bgv92rcd13ifvqcr0","pricing_plan_id":"cebpf4jnsgd1na2vs0mg"},{"bike_id":"8b1bcd7a-ec52-47cf-be70-5fb3dda94674","system_id":"levelo_inurba_marseille","lat":43.31706,"lon":5.40407,"is_reserved":false,"is_disabled":false,"rental_uris":{"android":"levelo://app?vid=8b1bcd7a-ec52-47cf-be70-5fb3dda94674","ios":"levelo://app?vid=8b1bcd7a-ec52-47cf-be70-5fb3dda94674"},"vehicle_type_id":"4","last_reported":1751098398,"current_range_meters":11200,"station_id":"ce4bh012rcd13ifvqd00","pricing_plan_id":"cebpf4jnsgd1na2vs0mg"},{"bike_id":"84cdea62-7b1d-4b1a-8f94-00854ad22848","system_id":"levelo_inurba_marseille","lat":43.27192,"lon":5.40967,"is_reserved":false,"is_disabled":false,"rental_uris":{"android":"levelo://app?vid=84cdea62-7b1d-4b1a-8f94-00854ad22848","ios":"levelo://app?vid=84cdea62-7b1d-4b1a-8f94-00854ad22848"},"vehicle_type_id":"4","last_reported":1751098398,"current_range_meters":11200,"station_id":"ce4bhl12rcd13ifvqgf0","pricing_plan_id":"cebpf4jnsgd1na2vs0mg"},{"bike_id":"2d10d829-aff1-4886-be29-26e16412203e","system_id":"levelo_inurba_marseille","lat":43.259392,"lon":5.409048,"is_reserved":false,"is_disabled":false,"rental_uris":{"android":"levelo://app?vid=2d10d829-aff1-4886-be29-26e16412203e","ios":"levelo://app?vid=2d10d829-aff1-4886-be29-26e16412203e"},"vehicle_type_id":"4","last_reported":1751098398,"current_range_meters":11200,"station_id":"ce4bhm92rcd13ifvqglg","pricing_plan_id":"cebpf4jnsgd1na2vs0mg"},{"bike_id":"6910b214-f4f8-4108-ba03-c3a5bc8e06b5","system_id":"levelo_inurba_marseille","lat":43.322879,"lon":5.382696,"is_reserved":false,"is_disabled":false,"rental_uris":{"android":"levelo://app?vid=6910b214-f4f8-4108-ba03-c3a5bc8e06b5","ios":"levelo://app?vid=6910b214-f4f8-4108-ba03-c3a5bc8e06b5"},"vehicle_type_id":"4","last_reported":1751098398,"current_range_meters":11200,"station_id":"ce4bhr12rcd13ifvqhqg","pricing_plan_id":"cebpf4jnsgd1na2vs0mg"},{"bike_id":"d5e70777-ad97-4594-91b6-43ede9611b14","system_id":"levelo_inurba_marseille","lat":43.32109,"lon":5.3677,"is_reserved":false,"is_disabled":false,"rental_uris":{"android":"levelo://app?vid=d5e70777-ad97-4594-91b6-43ede9611b14","ios":"levelo://app?vid=d5e70777-ad97-4594-91b6-43ede9611b14"},"vehicle_type_id":"4","last_reported":1751098398,"current_range_meters":11200,"station_id":"ce4bhrh2rcd13ifvqhug","pricing_plan_id":"cebpf4jnsgd1na2vs0mg"},{"bike_id":"e84722aa-82d7-43b8-b239-9f185ec46c67","system_id":"levelo_inurba_marseille","lat":43.27176,"lon":5.40997,"is_reserved":false,"is_disabled":false,"rental_uris":{"android":"levelo://app?vid=e84722aa-82d7-43b8-b239-9f185ec46c67","ios":"levelo://app?vid=e84722aa-82d7-43b8-b239-9f185ec46c67"},"vehicle_type_id":"4","last_reported":1751098398,"current_range_meters":11600,"station_id":"ce4bhl12rcd13ifvqgf0","pricing_plan_id":"cebpf4jnsgd1na2vs0mg"},{"bike_id":"bbc4a376-bee7-4ad5-a49a-1022d27c1489","system_id":"levelo_inurba_marseille","lat":43.320771,"lon":5.36754,"is_reserved":false,"is_disabled":false,"rental_uris":{"android":"levelo://app?vid=bbc4a376-bee7-4ad5-a49a-1022d27c1489","ios":"levelo://app?vid=bbc4a376-bee7-4ad5-a49a-1022d27c1489"},"vehicle_type_id":"4","last_reported":1751098398,"current_range_meters":11600,"station_id":"ce4bhrh2rcd13ifvqhug","pricing_plan_id":"cebpf4jnsgd1na2vs0mg"},{"bike_id":"e98d8d26-8d56-4ca2-b3fe-7f729fc9a93f","system_id":"levelo_inurba_marseille","lat":43.26803,"lon":5.40267,"is_reserved":false,"is_disabled":false,"rental_uris":{"android":"levelo://app?vid=e98d8d26-8d56-4ca2-b3fe-7f729fc9a93f","ios":"levelo://app?vid=e98d8d26-8d56-4ca2-b3fe-7f729fc9a93f"},"vehicle_type_id":"4","last_reported":1751098398,"current_range_meters":11600,"station_id":"ce501612rcd8frsf0b60","pricing_plan_id":"cebpf4jnsgd1na2vs0mg"},{"bike_id":"e6ce70f7-9138-485c-a4db-2c9174614cff","system_id":"levelo_inurba_marseille","lat":43.317761,"lon":5.368558,"is_reserved":false,"is_disabled":false,"rental_uris":{"android":"levelo://app?vid=e6ce70f7-9138-485c-a4db-2c9174614cff","ios":"levelo://app?vid=e6ce70f7-9138-485c-a4db-2c9174614cff"},"vehicle_type_id":"4","last_reported":1751098398,"current_range_meters":12000,"station_id":"","pricing_plan_id":"cebpf4jnsgd1na2vs0mg"},{"bike_id":"09e190cd-938b-4675-bc01-841b94bf1d73","system_id":"levelo_inurba_marseille","lat":43.3046,"lon":5.37912,"is_reserved":false,"is_disabled":false,"rental_uris":{"android":"levelo://app?vid=09e190cd-938b-4675-bc01-841b94bf1d73","ios":"levelo://app?vid=09e190cd-938b-4675-bc01-841b94bf1d73"},"vehicle_type_id":"4","last_reported":1751098398,"current_range_meters":12000,"station_id":"ce4bgup2rcd13ifvqcn0","pricing_plan_id":"cebpf4jnsgd1na2vs0mg"},{"bike_id":"f796a55c-cc08-46a8-a59e-b51fc12241bc","system_id":"levelo_inurba_marseille","lat":43.25495,"lon":5.37649,"is_reserved":false,"is_disabled":false,"rental_uris":{"android":"levelo://app?vid=f796a55c-cc08-46a8-a59e-b51fc12241bc","ios":"levelo://app?vid=f796a55c-cc08-46a8-a59e-b51fc12241bc"},"vehicle_type_id":"4","last_reported":1751098398,"current_range_meters":12000,"station_id":"ce4bhh12rcd13ifvqff0","pricing_plan_id":"cebpf4jnsgd1na2vs0mg"},{"bike_id":"af3b666e-86b5-4606-bcdf-ee846cd03dce","system_id":"levelo_inurba_marseille","lat":43.240773,"lon":5.377569,"is_reserved":false,"is_disabled":false,"rental_uris":{"android":"levelo://app?vid=af3b666e-86b5-4606-bcdf-ee846cd03dce","ios":"levelo://app?vid=af3b666e-86b5-4606-bcdf-ee846cd03dce"},"vehicle_type_id":"4","last_reported":1751098398,"current_range_meters":12000,"station_id":"ce4bhnp2rcd13ifvqgvg","pricing_plan_id":"cebpf4jnsgd1na2vs0mg"},{"bike_id":"a2588648-26dc-4121-bee2-c283e3f6b0c1","system_id":"levelo_inurba_marseille","lat":43.34136,"lon":5.40908,"is_reserved":false,"is_disabled":false,"rental_uris":{"android":"levelo://app?vid=a2588648-26dc-4121-bee2-c283e3f6b0c1","ios":"levelo://app?vid=a2588648-26dc-4121-bee2-c283e3f6b0c1"},"vehicle_type_id":"4","last_reported":1751098398,"current_range_meters":12000,"station_id":"ce4bhqh2rcd13ifvqhlg","pricing_plan_id":"cebpf4jnsgd1na2vs0mg"},{"bike_id":"13726ea4-91b3-4b24-87ce-db653217d50c","system_id":"levelo_inurba_marseille","lat":43.32101,"lon":5.367912,"is_reserved":false,"is_disabled":false,"rental_uris":{"android":"levelo://app?vid=13726ea4-91b3-4b24-87ce-db653217d50c","ios":"levelo://app?vid=13726ea4-91b3-4b24-87ce-db653217d50c"},"vehicle_type_id":"4","last_reported":1751098398,"current_range_meters":12000,"station_id":"ce4bhrh2rcd13ifvqhug","pricing_plan_id":"cebpf4jnsgd1na2vs0mg"},{"bike_id":"3eabe1e2-f9f5-41cb-a4ed-73ca7f909c5c","system_id":"levelo_inurba_marseille","lat":43.21191,"lon":5.3508,"is_reserved":false,"is_disabled":false,"rental_uris":{"android":"levelo://app?vid=3eabe1e2-f9f5-41cb-a4ed-73ca7f909c5c","ios":"levelo://app?vid=3eabe1e2-f9f5-41cb-a4ed-73ca7f909c5c"},"vehicle_type_id":"4","last_reported":1751098398,"current_range_meters":12000,"station_id":"st_cvj6sg6p6f1abm77japg","pricing_plan_id":"cebpf4jnsgd1na2vs0mg"},{"bike_id":"eb018551-58e5-4cdf-b601-81364d788180","system_id":"levelo_inurba_marseille","lat":43.27966,"lon":5.38746,"is_reserved":false,"is_disabled":false,"rental_uris":{"android":"levelo://app?vid=eb018551-58e5-4cdf-b601-81364d788180","ios":"levelo://app?vid=eb018551-58e5-4cdf-b601-81364d788180"},"vehicle_type_id":"4","last_reported":1751098398,"current_range_meters":12400,"station_id":"ce4bhg12rcd13ifvqf80","pricing_plan_id":"cebpf4jnsgd1na2vs0mg"},{"bike_id":"2cbd26d7-8ccb-4bca-b892-7ed090bc3322","system_id":"levelo_inurba_marseille","lat":43.23193,"lon":5.35553,"is_reserved":false,"is_disabled":false,"rental_uris":{"android":"levelo://app?vid=2cbd26d7-8ccb-4bca-b892-7ed090bc3322","ios":"levelo://app?vid=2cbd26d7-8ccb-4bca-b892-7ed090bc3322"},"vehicle_type_id":"4","last_reported":1751098398,"current_range_meters":12400,"station_id":"ce4bhu92rcd13ifvqi70","pricing_plan_id":"cebpf4jnsgd1na2vs0mg"},{"bike_id":"a61101a2-743e-458d-bad8-585e8755b65f","system_id":"levelo_inurba_marseille","lat":43.2306,"lon":5.35489,"is_reserved":false,"is_disabled":false,"rental_uris":{"android":"levelo://app?vid=a61101a2-743e-458d-bad8-585e8755b65f","ios":"levelo://app?vid=a61101a2-743e-458d-bad8-585e8755b65f"},"vehicle_type_id":"4","last_reported":1751098398,"current_range_meters":12400,"station_id":"cpo3342slgdg3j2ifvpg","pricing_plan_id":"cebpf4jnsgd1na2vs0mg"},{"bike_id":"d33f7ccd-a1b8-4e2e-bb0e-0450ba03ae49","system_id":"levelo_inurba_marseille","lat":43.29609,"lon":5.37743,"is_reserved":false,"is_disabled":false,"rental_uris":{"android":"levelo://app?vid=d33f7ccd-a1b8-4e2e-bb0e-0450ba03ae49","ios":"levelo://app?vid=d33f7ccd-a1b8-4e2e-bb0e-0450ba03ae49"},"vehicle_type_id":"4","last_reported":1751098398,"current_range_meters":12800,"station_id":"ce4bgi92rcd13ifvqb90","pricing_plan_id":"cebpf4jnsgd1na2vs0mg"},{"bike_id":"f1953887-1b02-447a-bc77-4e2cfee8acd9","system_id":"levelo_inurba_marseille","lat":43.27899,"lon":5.39585,"is_reserved":false,"is_disabled":false,"rental_uris":{"android":"levelo://app?vid=f1953887-1b02-447a-bc77-4e2cfee8acd9","ios":"levelo://app?vid=f1953887-1b02-447a-bc77-4e2cfee8acd9"},"vehicle_type_id":"4","last_reported":1751098398,"current_range_meters":12800,"station_id":"ce4bhf92rcd13ifvqf40","pricing_plan_id":"cebpf4jnsgd1na2vs0mg"},{"bike_id":"44b677c8-76ed-4eac-8888-58151f9d5d6e","system_id":"levelo_inurba_marseille","lat":43.319555,"lon":5.367474,"is_reserved":false,"is_disabled":false,"rental_uris":{"android":"levelo://app?vid=44b677c8-76ed-4eac-8888-58151f9d5d6e","ios":"levelo://app?vid=44b677c8-76ed-4eac-8888-58151f9d5d6e"},"vehicle_type_id":"4","last_reported":1751098398,"current_range_meters":13600,"station_id":"","pricing_plan_id":"cebpf4jnsgd1na2vs0mg"},{"bike_id":"72960c37-1170-443b-9719-891e313c9733","system_id":"levelo_inurba_marseille","lat":43.29031,"lon":5.39972,"is_reserved":false,"is_disabled":false,"rental_uris":{"android":"levelo://app?vid=72960c37-1170-443b-9719-891e313c9733","ios":"levelo://app?vid=72960c37-1170-443b-9719-891e313c9733"},"vehicle_type_id":"4","last_reported":1751098398,"current_range_meters":13600,"station_id":"ce4bh392rcd13ifvqdm0","pricing_plan_id":"cebpf4jnsgd1na2vs0mg"},{"bike_id":"e73c31b1-2ac3-4180-a073-960eb0d0d6b0","system_id":"levelo_inurba_marseille","lat":43.29002,"lon":5.35613,"is_reserved":false,"is_disabled":false,"rental_uris":{"android":"levelo://app?vid=e73c31b1-2ac3-4180-a073-960eb0d0d6b0","ios":"levelo://app?vid=e73c31b1-2ac3-4180-a073-960eb0d0d6b0"},"vehicle_type_id":"4","last_reported":1751098398,"current_range_meters":13600,"station_id":"ce4bhb92rcd13ifvqen0","pricing_plan_id":"cebpf4jnsgd1na2vs0mg"},{"bike_id":"517484d4-7145-482e-b0b9-3a798e67c22c","system_id":"levelo_inurba_marseille","lat":43.25574,"lon":5.3824,"is_reserved":false,"is_disabled":false,"rental_uris":{"android":"levelo://app?vid=517484d4-7145-482e-b0b9-3a798e67c22c","ios":"levelo://app?vid=517484d4-7145-482e-b0b9-3a798e67c22c"},"vehicle_type_id":"4","last_reported":1751098398,"current_range_meters":13600,"station_id":"ce4bhih2rcd13ifvqfs0","pricing_plan_id":"cebpf4jnsgd1na2vs0mg"},{"bike_id":"721165c1-ef6f-40cc-8d33-af3a7999864b","system_id":"levelo_inurba_marseille","lat":43.32656,"lon":5.37876,"is_reserved":false,"is_disabled":false,"rental_uris":{"android":"levelo://app?vid=721165c1-ef6f-40cc-8d33-af3a7999864b","ios":"levelo://app?vid=721165c1-ef6f-40cc-8d33-af3a7999864b"},"vehicle_type_id":"4","last_reported":1751098398,"current_range_meters":14400,"station_id":"","pricing_plan_id":"cebpf4jnsgd1na2vs0mg"},{"bike_id":"2c9484a9-4dab-4c41-9a4a-6af8a024adcf","system_id":"levelo_inurba_marseille","lat":43.26786,"lon":5.39418,"is_reserved":false,"is_disabled":false,"rental_uris":{"android":"levelo://app?vid=2c9484a9-4dab-4c41-9a4a-6af8a024adcf","ios":"levelo://app?vid=2c9484a9-4dab-4c41-9a4a-6af8a024adcf"},"vehicle_type_id":"4","last_reported":1751098398,"current_range_meters":14400,"station_id":"ce4bhh12rcd13ifvqfg0","pricing_plan_id":"cebpf4jnsgd1na2vs0mg"},{"bike_id":"3405a45d-e821-4b57-8d62-377bdfe718c2","system_id":"levelo_inurba_marseille","lat":43.27063,"lon":5.4228,"is_reserved":false,"is_disabled":false,"rental_uris":{"android":"levelo://app?vid=3405a45d-e821-4b57-8d62-377bdfe718c2","ios":"levelo://app?vid=3405a45d-e821-4b57-8d62-377bdfe718c2"},"vehicle_type_id":"4","last_reported":1751098398,"current_range_meters":14400,"station_id":"ce4bhk92rcd13ifvqgb0","pricing_plan_id":"cebpf4jnsgd1na2vs0mg"},{"bike_id":"873ce198-d36d-4815-8778-b72bd2ca0116","system_id":"levelo_inurba_marseille","lat":43.32102,"lon":5.367739,"is_reserved":false,"is_disabled":false,"rental_uris":{"android":"levelo://app?vid=873ce198-d36d-4815-8778-b72bd2ca0116","ios":"levelo://app?vid=873ce198-d36d-4815-8778-b72bd2ca0116"},"vehicle_type_id":"4","last_reported":1751098398,"current_range_meters":14400,"station_id":"ce4bhrh2rcd13ifvqhug","pricing_plan_id":"cebpf4jnsgd1na2vs0mg"},{"bike_id":"38e5a951-b968-4b74-9ee8-e6415ca08994","system_id":"levelo_inurba_marseille","lat":43.26788,"lon":5.40261,"is_reserved":false,"is_disabled":false,"rental_uris":{"android":"levelo://app?vid=38e5a951-b968-4b74-9ee8-e6415ca08994","ios":"levelo://app?vid=38e5a951-b968-4b74-9ee8-e6415ca08994"},"vehicle_type_id":"4","last_reported":1751098398,"current_range_meters":14400,"station_id":"ce501612rcd8frsf0b60","pricing_plan_id":"cebpf4jnsgd1na2vs0mg"},{"bike_id":"12c7fc9f-7c7b-4185-9b2f-badd0c17e36b","system_id":"levelo_inurba_marseille","lat":43.24743,"lon":5.37449,"is_reserved":false,"is_disabled":false,"rental_uris":{"android":"levelo://app?vid=12c7fc9f-7c7b-4185-9b2f-badd0c17e36b","ios":"levelo://app?vid=12c7fc9f-7c7b-4185-9b2f-badd0c17e36b"},"vehicle_type_id":"4","last_reported":1751098398,"current_range_meters":14800,"station_id":"","pricing_plan_id":"cebpf4jnsgd1na2vs0mg"},{"bike_id":"a7883090-0e10-4075-944b-a3cca54bc544","system_id":"levelo_inurba_marseille","lat":43.22499,"lon":5.34783,"is_reserved":false,"is_disabled":false,"rental_uris":{"android":"levelo://app?vid=a7883090-0e10-4075-944b-a3cca54bc544","ios":"levelo://app?vid=a7883090-0e10-4075-944b-a3cca54bc544"},"vehicle_type_id":"4","last_reported":1751098398,"current_range_meters":14800,"station_id":"st_cvj5dfep6f1abm77gieg","pricing_plan_id":"cebpf4jnsgd1na2vs0mg"},{"bike_id":"7a63f1f0-ab92-4431-90a0-628ae7550c2d","system_id":"levelo_inurba_marseille","lat":43.21191,"lon":5.35073,"is_reserved":false,"is_disabled":false,"rental_uris":{"android":"levelo://app?vid=7a63f1f0-ab92-4431-90a0-628ae7550c2d","ios":"levelo://app?vid=7a63f1f0-ab92-4431-90a0-628ae7550c2d"},"vehicle_type_id":"4","last_reported":1751098398,"current_range_meters":14800,"station_id":"st_cvj6sg6p6f1abm77japg","pricing_plan_id":"cebpf4jnsgd1na2vs0mg"},{"bike_id":"129c12b2-6184-4236-aab5-833fc8141add","system_id":"levelo_inurba_marseille","lat":43.26194,"lon":5.37448,"is_reserved":false,"is_disabled":false,"rental_uris":{"android":"levelo://app?vid=129c12b2-6184-4236-aab5-833fc8141add","ios":"levelo://app?vid=129c12b2-6184-4236-aab5-833fc8141add"},"vehicle_type_id":"4","last_reported":1751098398,"current_range_meters":15200,"station_id":"ce4bhgp2rcd13ifvqfc0","pricing_plan_id":"cebpf4jnsgd1na2vs0mg"},{"bike_id":"f020d5f0-3e7b-4cc6-98ef-ba2443e01c66","system_id":"levelo_inurba_marseille","lat":43.27183,"lon":5.40979,"is_reserved":false,"is_disabled":false,"rental_uris":{"android":"levelo://app?vid=f020d5f0-3e7b-4cc6-98ef-ba2443e01c66","ios":"levelo://app?vid=f020d5f0-3e7b-4cc6-98ef-ba2443e01c66"},"vehicle_type_id":"4","last_reported":1751098398,"current_range_meters":15200,"station_id":"ce4bhl12rcd13ifvqgf0","pricing_plan_id":"cebpf4jnsgd1na2vs0mg"},{"bike_id":"14e8ef37-e834-4d76-9946-e98f7a083a2f","system_id":"levelo_inurba_marseille","lat":43.211974,"lon":5.350627,"is_reserved":false,"is_disabled":false,"rental_uris":{"android":"levelo://app?vid=14e8ef37-e834-4d76-9946-e98f7a083a2f","ios":"levelo://app?vid=14e8ef37-e834-4d76-9946-e98f7a083a2f"},"vehicle_type_id":"4","last_reported":1751098398,"current_range_meters":15200,"station_id":"st_cvj6sg6p6f1abm77japg","pricing_plan_id":"cebpf4jnsgd1na2vs0mg"},{"bike_id":"0ca717a1-45d0-467a-befd-9d85a9b7f044","system_id":"levelo_inurba_marseille","lat":43.3031,"lon":5.40124,"is_reserved":false,"is_disabled":false,"rental_uris":{"android":"levelo://app?vid=0ca717a1-45d0-467a-befd-9d85a9b7f044","ios":"levelo://app?vid=0ca717a1-45d0-467a-befd-9d85a9b7f044"},"vehicle_type_id":"4","last_reported":1751098398,"current_range_meters":16000,"station_id":"","pricing_plan_id":"cebpf4jnsgd1na2vs0mg"},{"bike_id":"0c803610-f6e9-41d4-936d-0b433fa62796","system_id":"levelo_inurba_marseille","lat":43.30177,"lon":5.37834,"is_reserved":false,"is_disabled":false,"rental_uris":{"android":"levelo://app?vid=0c803610-f6e9-41d4-936d-0b433fa62796","ios":"levelo://app?vid=0c803610-f6e9-41d4-936d-0b433fa62796"},"vehicle_type_id":"4","last_reported":1751098398,"current_range_meters":16000,"station_id":"","pricing_plan_id":"cebpf4jnsgd1na2vs0mg"},{"bike_id":"805073ca-85b9-42b0-9e57-7e7428595d04","system_id":"levelo_inurba_marseille","lat":43.28856,"lon":5.38454,"is_reserved":false,"is_disabled":false,"rental_uris":{"android":"levelo://app?vid=805073ca-85b9-42b0-9e57-7e7428595d04","ios":"levelo://app?vid=805073ca-85b9-42b0-9e57-7e7428595d04"},"vehicle_type_id":"4","last_reported":1751098398,"current_range_meters":16000,"station_id":"","pricing_plan_id":"cebpf4jnsgd1na2vs0mg"},{"bike_id":"03e0de36-bf27-4790-823b-078c473638df","system_id":"levelo_inurba_marseille","lat":43.295808,"lon":5.367342,"is_reserved":false,"is_disabled":false,"rental_uris":{"android":"levelo://app?vid=03e0de36-bf27-4790-823b-078c473638df","ios":"levelo://app?vid=03e0de36-bf27-4790-823b-078c473638df"},"vehicle_type_id":"4","last_reported":1751098398,"current_range_meters":16000,"station_id":"ce4bgph2rcd13ifvqc2g","pricing_plan_id":"cebpf4jnsgd1na2vs0mg"},{"bike_id":"5cf668d2-b52a-4028-a184-5a338cef1763","system_id":"levelo_inurba_marseille","lat":43.265381,"lon":5.37295,"is_reserved":false,"is_disabled":false,"rental_uris":{"android":"levelo://app?vid=5cf668d2-b52a-4028-a184-5a338cef1763","ios":"levelo://app?vid=5cf668d2-b52a-4028-a184-5a338cef1763"},"vehicle_type_id":"4","last_reported":1751098398,"current_range_meters":16000,"station_id":"ce4bhg12rcd13ifvqf70","pricing_plan_id":"cebpf4jnsgd1na2vs0mg"},{"bike_id":"181e9af0-5490-4f46-9a76-4c450ccf62c6","system_id":"levelo_inurba_marseille","lat":43.23959,"lon":5.36628,"is_reserved":false,"is_disabled":false,"rental_uris":{"android":"levelo://app?vid=181e9af0-5490-4f46-9a76-4c450ccf62c6","ios":"levelo://app?vid=181e9af0-5490-4f46-9a76-4c450ccf62c6"},"vehicle_type_id":"4","last_reported":1751098398,"current_range_meters":16000,"station_id":"ce4bhi12rcd13ifvqfp0","pricing_plan_id":"cebpf4jnsgd1na2vs0mg"},{"bike_id":"2cbc9dfa-e1cd-4337-956e-0b5e63845a02","system_id":"levelo_inurba_marseille","lat":43.286148,"lon":5.370614,"is_reserved":false,"is_disabled":false,"rental_uris":{"android":"levelo://app?vid=2cbc9dfa-e1cd-4337-956e-0b5e63845a02","ios":"levelo://app?vid=2cbc9dfa-e1cd-4337-956e-0b5e63845a02"},"vehicle_type_id":"4","last_reported":1751098398,"current_range_meters":16000,"station_id":"ce4bht12rcd13ifvqi60","pricing_plan_id":"cebpf4jnsgd1na2vs0mg"},{"bike_id":"6af79a00-84aa-4908-a347-34425e08c383","system_id":"levelo_inurba_marseille","lat":43.30264,"lon":5.37572,"is_reserved":false,"is_disabled":false,"rental_uris":{"android":"levelo://app?vid=6af79a00-84aa-4908-a347-34425e08c383","ios":"levelo://app?vid=6af79a00-84aa-4908-a347-34425e08c383"},"vehicle_type_id":"4","last_reported":1751098398,"current_range_meters":16400,"station_id":"","pricing_plan_id":"cebpf4jnsgd1na2vs0mg"},{"bike_id":"795ab778-0a17-4379-bd40-2c3b5299e3ed","system_id":"levelo_inurba_marseille","lat":43.30547,"lon":5.36547,"is_reserved":false,"is_disabled":false,"rental_uris":{"android":"levelo://app?vid=795ab778-0a17-4379-bd40-2c3b5299e3ed","ios":"levelo://app?vid=795ab778-0a17-4379-bd40-2c3b5299e3ed"},"vehicle_type_id":"4","last_reported":1751098398,"current_range_meters":16400,"station_id":"ce4bgs12rcd13ifvqcag","pricing_plan_id":"cebpf4jnsgd1na2vs0mg"},{"bike_id":"a292c988-64f7-401e-80fb-d96272dfed02","system_id":"levelo_inurba_marseille","lat":43.30468,"lon":5.37898,"is_reserved":false,"is_disabled":false,"rental_uris":{"android":"levelo://app?vid=a292c988-64f7-401e-80fb-d96272dfed02","ios":"levelo://app?vid=a292c988-64f7-401e-80fb-d96272dfed02"},"vehicle_type_id":"4","last_reported":1751098398,"current_range_meters":16400,"station_id":"ce4bgup2rcd13ifvqcn0","pricing_plan_id":"cebpf4jnsgd1na2vs0mg"},{"bike_id":"7f7e76fa-2d51-478b-8049-c513ca528061","system_id":"levelo_inurba_marseille","lat":43.30932,"lon":5.40136,"is_reserved":false,"is_disabled":false,"rental_uris":{"android":"levelo://app?vid=7f7e76fa-2d51-478b-8049-c513ca528061","ios":"levelo://app?vid=7f7e76fa-2d51-478b-8049-c513ca528061"},"vehicle_type_id":"4","last_reported":1751098398,"current_range_meters":16400,"station_id":"ce4bgvp2rcd13ifvqct0","pricing_plan_id":"cebpf4jnsgd1na2vs0mg"},{"bike_id":"5f4a7588-4657-4890-a12c-3d38cf15fb5d","system_id":"levelo_inurba_marseille","lat":43.26204,"lon":5.37448,"is_reserved":false,"is_disabled":false,"rental_uris":{"android":"levelo://app?vid=5f4a7588-4657-4890-a12c-3d38cf15fb5d","ios":"levelo://app?vid=5f4a7588-4657-4890-a12c-3d38cf15fb5d"},"vehicle_type_id":"4","last_reported":1751098398,"current_range_meters":16400,"station_id":"ce4bhgp2rcd13ifvqfc0","pricing_plan_id":"cebpf4jnsgd1na2vs0mg"},{"bike_id":"6bd9b448-0b38-4c33-b738-f1b5e8722b1e","system_id":"levelo_inurba_marseille","lat":43.27174,"lon":5.409861,"is_reserved":false,"is_disabled":false,"rental_uris":{"android":"levelo://app?vid=6bd9b448-0b38-4c33-b738-f1b5e8722b1e","ios":"levelo://app?vid=6bd9b448-0b38-4c33-b738-f1b5e8722b1e"},"vehicle_type_id":"4","last_reported":1751098398,"current_range_meters":16400,"station_id":"ce4bhl12rcd13ifvqgf0","pricing_plan_id":"cebpf4jnsgd1na2vs0mg"},{"bike_id":"db821bdc-433a-4b87-abec-9312b5b57723","system_id":"levelo_inurba_marseille","lat":43.21191,"lon":5.35071,"is_reserved":false,"is_disabled":false,"rental_uris":{"android":"levelo://app?vid=db821bdc-433a-4b87-abec-9312b5b57723","ios":"levelo://app?vid=db821bdc-433a-4b87-abec-9312b5b57723"},"vehicle_type_id":"4","last_reported":1751098398,"current_range_meters":16400,"station_id":"st_cvj6sg6p6f1abm77japg","pricing_plan_id":"cebpf4jnsgd1na2vs0mg"},{"bike_id":"b7b58613-cdc6-4750-8137-2d44544d5e13","system_id":"levelo_inurba_marseille","lat":43.31475,"lon":5.369353,"is_reserved":false,"is_disabled":false,"rental_uris":{"android":"levelo://app?vid=b7b58613-cdc6-4750-8137-2d44544d5e13","ios":"levelo://app?vid=b7b58613-cdc6-4750-8137-2d44544d5e13"},"vehicle_type_id":"4","last_reported":1751098398,"current_range_meters":16800,"station_id":"","pricing_plan_id":"cebpf4jnsgd1na2vs0mg"},{"bike_id":"ba472abd-c20d-4926-a673-fd77ee70dc02","system_id":"levelo_inurba_marseille","lat":43.30533,"lon":5.36551,"is_reserved":false,"is_disabled":false,"rental_uris":{"android":"levelo://app?vid=ba472abd-c20d-4926-a673-fd77ee70dc02","ios":"levelo://app?vid=ba472abd-c20d-4926-a673-fd77ee70dc02"},"vehicle_type_id":"4","last_reported":1751098398,"current_range_meters":16800,"station_id":"ce4bgs12rcd13ifvqcag","pricing_plan_id":"cebpf4jnsgd1na2vs0mg"},{"bike_id":"9f3ed873-0c75-4c31-9e76-b76ade6b18ef","system_id":"levelo_inurba_marseille","lat":43.30928,"lon":5.4015,"is_reserved":false,"is_disabled":false,"rental_uris":{"android":"levelo://app?vid=9f3ed873-0c75-4c31-9e76-b76ade6b18ef","ios":"levelo://app?vid=9f3ed873-0c75-4c31-9e76-b76ade6b18ef"},"vehicle_type_id":"4","last_reported":1751098398,"current_range_meters":16800,"station_id":"ce4bgvp2rcd13ifvqct0","pricing_plan_id":"cebpf4jnsgd1na2vs0mg"},{"bike_id":"4043f5ed-1c71-456d-9c90-de5b8866cdaf","system_id":"levelo_inurba_marseille","lat":43.22928,"lon":5.35374,"is_reserved":false,"is_disabled":false,"rental_uris":{"android":"levelo://app?vid=4043f5ed-1c71-456d-9c90-de5b8866cdaf","ios":"levelo://app?vid=4043f5ed-1c71-456d-9c90-de5b8866cdaf"},"vehicle_type_id":"4","last_reported":1751098398,"current_range_meters":16800,"station_id":"cpo3532slgdg3j2ikp40","pricing_plan_id":"cebpf4jnsgd1na2vs0mg"},{"bike_id":"35480415-8cbd-453f-8238-19ddedc64722","system_id":"levelo_inurba_marseille","lat":43.30542,"lon":5.3656,"is_reserved":false,"is_disabled":false,"rental_uris":{"android":"levelo://app?vid=35480415-8cbd-453f-8238-19ddedc64722","ios":"levelo://app?vid=35480415-8cbd-453f-8238-19ddedc64722"},"vehicle_type_id":"4","last_reported":1751098398,"current_range_meters":17200,"station_id":"ce4bgs12rcd13ifvqcag","pricing_plan_id":"cebpf4jnsgd1na2vs0mg"},{"bike_id":"8ca19979-1edc-4e4f-9b50-d865e56feffc","system_id":"levelo_inurba_marseille","lat":43.28258,"lon":5.35063,"is_reserved":false,"is_disabled":false,"rental_uris":{"android":"levelo://app?vid=8ca19979-1edc-4e4f-9b50-d865e56feffc","ios":"levelo://app?vid=8ca19979-1edc-4e4f-9b50-d865e56feffc"},"vehicle_type_id":"4","last_reported":1751098398,"current_range_meters":17200,"station_id":"ce4bhbp2rcd13ifvqerg","pricing_plan_id":"cebpf4jnsgd1na2vs0mg"},{"bike_id":"641e6289-6811-41fe-a848-4459481912e3","system_id":"levelo_inurba_marseille","lat":43.279068,"lon":5.395764,"is_reserved":false,"is_disabled":false,"rental_uris":{"android":"levelo://app?vid=641e6289-6811-41fe-a848-4459481912e3","ios":"levelo://app?vid=641e6289-6811-41fe-a848-4459481912e3"},"vehicle_type_id":"4","last_reported":1751098398,"current_range_meters":17200,"station_id":"ce4bhf92rcd13ifvqf40","pricing_plan_id":"cebpf4jnsgd1na2vs0mg"},{"bike_id":"f810be2a-3c00-446f-9ba1-1f3840ce349d","system_id":"levelo_inurba_marseille","lat":43.32093,"lon":5.36754,"is_reserved":false,"is_disabled":false,"rental_uris":{"android":"levelo://app?vid=f810be2a-3c00-446f-9ba1-1f3840ce349d","ios":"levelo://app?vid=f810be2a-3c00-446f-9ba1-1f3840ce349d"},"vehicle_type_id":"4","last_reported":1751098398,"current_range_meters":17200,"station_id":"ce4bhrh2rcd13ifvqhug","pricing_plan_id":"cebpf4jnsgd1na2vs0mg"},{"bike_id":"73eae19d-5cc5-48fe-810c-85fc7175c6a0","system_id":"levelo_inurba_marseille","lat":43.23057,"lon":5.355,"is_reserved":false,"is_disabled":false,"rental_uris":{"android":"levelo://app?vid=73eae19d-5cc5-48fe-810c-85fc7175c6a0","ios":"levelo://app?vid=73eae19d-5cc5-48fe-810c-85fc7175c6a0"},"vehicle_type_id":"4","last_reported":1751098398,"current_range_meters":17200,"station_id":"cpo3342slgdg3j2ifvpg","pricing_plan_id":"cebpf4jnsgd1na2vs0mg"},{"bike_id":"d88f7a9b-532d-4f16-a895-aad8a6fdc835","system_id":"levelo_inurba_marseille","lat":43.2958,"lon":5.3674,"is_reserved":false,"is_disabled":false,"rental_uris":{"android":"levelo://app?vid=d88f7a9b-532d-4f16-a895-aad8a6fdc835","ios":"levelo://app?vid=d88f7a9b-532d-4f16-a895-aad8a6fdc835"},"vehicle_type_id":"4","last_reported":1751098398,"current_range_meters":17600,"station_id":"ce4bgph2rcd13ifvqc2g","pricing_plan_id":"cebpf4jnsgd1na2vs0mg"},{"bike_id":"14dec76d-f969-4f49-af7c-50ca62449b09","system_id":"levelo_inurba_marseille","lat":43.30796,"lon":5.37619,"is_reserved":false,"is_disabled":false,"rental_uris":{"android":"levelo://app?vid=14dec76d-f969-4f49-af7c-50ca62449b09","ios":"levelo://app?vid=14dec76d-f969-4f49-af7c-50ca62449b09"},"vehicle_type_id":"4","last_reported":1751098398,"current_range_meters":17600,"station_id":"ce4bgv92rcd13ifvqcq0","pricing_plan_id":"cebpf4jnsgd1na2vs0mg"},{"bike_id":"f342fe44-5d74-40e3-a0fa-5214bcb4d08c","system_id":"levelo_inurba_marseille","lat":43.31713,"lon":5.40438,"is_reserved":false,"is_disabled":false,"rental_uris":{"android":"levelo://app?vid=f342fe44-5d74-40e3-a0fa-5214bcb4d08c","ios":"levelo://app?vid=f342fe44-5d74-40e3-a0fa-5214bcb4d08c"},"vehicle_type_id":"4","last_reported":1751098398,"current_range_meters":17600,"station_id":"ce4bh012rcd13ifvqd00","pricing_plan_id":"cebpf4jnsgd1na2vs0mg"},{"bike_id":"2319f758-8cc4-44be-a026-46a4638bdf6c","system_id":"levelo_inurba_marseille","lat":43.27893,"lon":5.39607,"is_reserved":false,"is_disabled":false,"rental_uris":{"android":"levelo://app?vid=2319f758-8cc4-44be-a026-46a4638bdf6c","ios":"levelo://app?vid=2319f758-8cc4-44be-a026-46a4638bdf6c"},"vehicle_type_id":"4","last_reported":1751098398,"current_range_meters":17600,"station_id":"ce4bhf92rcd13ifvqf40","pricing_plan_id":"cebpf4jnsgd1na2vs0mg"},{"bike_id":"7de6199c-be75-4198-b587-0b9314aee21f","system_id":"levelo_inurba_marseille","lat":43.279078,"lon":5.395829,"is_reserved":false,"is_disabled":false,"rental_uris":{"android":"levelo://app?vid=7de6199c-be75-4198-b587-0b9314aee21f","ios":"levelo://app?vid=7de6199c-be75-4198-b587-0b9314aee21f"},"vehicle_type_id":"4","last_reported":1751098398,"current_range_meters":17600,"station_id":"ce4bhf92rcd13ifvqf40","pricing_plan_id":"cebpf4jnsgd1na2vs0mg"},{"bike_id":"aa18145e-583a-4b28-85bd-3a7f84653e71","system_id":"levelo_inurba_marseille","lat":43.262,"lon":5.3793,"is_reserved":false,"is_disabled":false,"rental_uris":{"android":"levelo://app?vid=aa18145e-583a-4b28-85bd-3a7f84653e71","ios":"levelo://app?vid=aa18145e-583a-4b28-85bd-3a7f84653e71"},"vehicle_type_id":"4","last_reported":1751098398,"current_range_meters":17600,"station_id":"ce4bhjp2rcd13ifvqg90","pricing_plan_id":"cebpf4jnsgd1na2vs0mg"},{"bike_id":"2287b753-3344-403e-a9e0-526651a52461","system_id":"levelo_inurba_marseille","lat":43.240665,"lon":5.377634,"is_reserved":false,"is_disabled":false,"rental_uris":{"android":"levelo://app?vid=2287b753-3344-403e-a9e0-526651a52461","ios":"levelo://app?vid=2287b753-3344-403e-a9e0-526651a52461"},"vehicle_type_id":"4","last_reported":1751098398,"current_range_meters":17600,"station_id":"ce4bhnp2rcd13ifvqgvg","pricing_plan_id":"cebpf4jnsgd1na2vs0mg"},{"bike_id":"c0a2de0a-20e3-4e62-848e-f0dbd6b2e588","system_id":"levelo_inurba_marseille","lat":43.22494,"lon":5.34783,"is_reserved":false,"is_disabled":false,"rental_uris":{"android":"levelo://app?vid=c0a2de0a-20e3-4e62-848e-f0dbd6b2e588","ios":"levelo://app?vid=c0a2de0a-20e3-4e62-848e-f0dbd6b2e588"},"vehicle_type_id":"4","last_reported":1751098398,"current_range_meters":17600,"station_id":"st_cvj5dfep6f1abm77gieg","pricing_plan_id":"cebpf4jnsgd1na2vs0mg"},{"bike_id":"4f7da216-f811-4c57-9e64-cdee7467bddd","system_id":"levelo_inurba_marseille","lat":43.22501,"lon":5.3479,"is_reserved":false,"is_disabled":false,"rental_uris":{"android":"levelo://app?vid=4f7da216-f811-4c57-9e64-cdee7467bddd","ios":"levelo://app?vid=4f7da216-f811-4c57-9e64-cdee7467bddd"},"vehicle_type_id":"4","last_reported":1751098398,"current_range_meters":17600,"station_id":"st_cvj5dfep6f1abm77gieg","pricing_plan_id":"cebpf4jnsgd1na2vs0mg"},{"bike_id":"6f4919b0-d9c4-4c52-b108-ac1dd2e153c7","system_id":"levelo_inurba_marseille","lat":43.312821,"lon":5.368768,"is_reserved":false,"is_disabled":false,"rental_uris":{"android":"levelo://app?vid=6f4919b0-d9c4-4c52-b108-ac1dd2e153c7","ios":"levelo://app?vid=6f4919b0-d9c4-4c52-b108-ac1dd2e153c7"},"vehicle_type_id":"4","last_reported":1751098398,"current_range_meters":18000,"station_id":"","pricing_plan_id":"cebpf4jnsgd1na2vs0mg"},{"bike_id":"d308c658-b19c-49c0-8014-5506ff26f69a","system_id":"levelo_inurba_marseille","lat":43.23079,"lon":5.40502,"is_reserved":false,"is_disabled":false,"rental_uris":{"android":"levelo://app?vid=d308c658-b19c-49c0-8014-5506ff26f69a","ios":"levelo://app?vid=d308c658-b19c-49c0-8014-5506ff26f69a"},"vehicle_type_id":"4","last_reported":1751098398,"current_range_meters":18000,"station_id":"","pricing_plan_id":"cebpf4jnsgd1na2vs0mg"},{"bike_id":"72b9425b-5da3-421d-bd0c-0f6f1a99a2ec","system_id":"levelo_inurba_marseille","lat":43.29298,"lon":5.37456,"is_reserved":false,"is_disabled":false,"rental_uris":{"android":"levelo://app?vid=72b9425b-5da3-421d-bd0c-0f6f1a99a2ec","ios":"levelo://app?vid=72b9425b-5da3-421d-bd0c-0f6f1a99a2ec"},"vehicle_type_id":"4","last_reported":1751098398,"current_range_meters":18000,"station_id":"ce4bgi12rcd13ifvqb70","pricing_plan_id":"cebpf4jnsgd1na2vs0mg"},{"bike_id":"ec1641df-6975-481a-9083-9175bcb48235","system_id":"levelo_inurba_marseille","lat":43.31503,"lon":5.37299,"is_reserved":false,"is_disabled":false,"rental_uris":{"android":"levelo://app?vid=ec1641df-6975-481a-9083-9175bcb48235","ios":"levelo://app?vid=ec1641df-6975-481a-9083-9175bcb48235"},"vehicle_type_id":"4","last_reported":1751098398,"current_range_meters":18000,"station_id":"ce4bgt12rcd13ifvqcd0","pricing_plan_id":"cebpf4jnsgd1na2vs0mg"},{"bike_id":"fd32a880-56f6-42e6-be8b-4b51c0b751e7","system_id":"levelo_inurba_marseille","lat":43.28456,"lon":5.35901,"is_reserved":false,"is_disabled":false,"rental_uris":{"android":"levelo://app?vid=fd32a880-56f6-42e6-be8b-4b51c0b751e7","ios":"levelo://app?vid=fd32a880-56f6-42e6-be8b-4b51c0b751e7"},"vehicle_type_id":"4","last_reported":1751098398,"current_range_meters":18000,"station_id":"ce4bhah2rcd13ifvqei0","pricing_plan_id":"cebpf4jnsgd1na2vs0mg"},{"bike_id":"80a563cd-2512-4b18-8644-9b4140646fdc","system_id":"levelo_inurba_marseille","lat":43.25732,"lon":5.411081,"is_reserved":false,"is_disabled":false,"rental_uris":{"android":"levelo://app?vid=80a563cd-2512-4b18-8644-9b4140646fdc","ios":"levelo://app?vid=80a563cd-2512-4b18-8644-9b4140646fdc"},"vehicle_type_id":"4","last_reported":1751098398,"current_range_meters":18000,"station_id":"ce4bhkp2rcd13ifvqgd0","pricing_plan_id":"cebpf4jnsgd1na2vs0mg"},{"bike_id":"dff51cff-b2ea-4706-b1a7-eadf00eb39bb","system_id":"levelo_inurba_marseille","lat":43.23196,"lon":5.35554,"is_reserved":false,"is_disabled":false,"rental_uris":{"android":"levelo://app?vid=dff51cff-b2ea-4706-b1a7-eadf00eb39bb","ios":"levelo://app?vid=dff51cff-b2ea-4706-b1a7-eadf00eb39bb"},"vehicle_type_id":"4","last_reported":1751098398,"current_range_meters":18000,"station_id":"ce4bhu92rcd13ifvqi70","pricing_plan_id":"cebpf4jnsgd1na2vs0mg"},{"bike_id":"8938ae4b-572d-47fc-b025-02b05af60188","system_id":"levelo_inurba_marseille","lat":43.22495,"lon":5.34784,"is_reserved":false,"is_disabled":false,"rental_uris":{"android":"levelo://app?vid=8938ae4b-572d-47fc-b025-02b05af60188","ios":"levelo://app?vid=8938ae4b-572d-47fc-b025-02b05af60188"},"vehicle_type_id":"4","last_reported":1751098398,"current_range_meters":18000,"station_id":"st_cvj5dfep6f1abm77gieg","pricing_plan_id":"cebpf4jnsgd1na2vs0mg"},{"bike_id":"b13877a6-4825-4d82-b46b-67fa8ad66c5d","system_id":"levelo_inurba_marseille","lat":43.212019,"lon":5.350688,"is_reserved":false,"is_disabled":false,"rental_uris":{"android":"levelo://app?vid=b13877a6-4825-4d82-b46b-67fa8ad66c5d","ios":"levelo://app?vid=b13877a6-4825-4d82-b46b-67fa8ad66c5d"},"vehicle_type_id":"4","last_reported":1751098398,"current_range_meters":18000,"station_id":"st_cvj6sg6p6f1abm77japg","pricing_plan_id":"cebpf4jnsgd1na2vs0mg"},{"bike_id":"735fb3ec-51d3-42a0-b0e0-35a6ef148211","system_id":"levelo_inurba_marseille","lat":43.31285,"lon":5.37313,"is_reserved":false,"is_disabled":false,"rental_uris":{"android":"levelo://app?vid=735fb3ec-51d3-42a0-b0e0-35a6ef148211","ios":"levelo://app?vid=735fb3ec-51d3-42a0-b0e0-35a6ef148211"},"vehicle_type_id":"4","last_reported":1751098398,"current_range_meters":18800,"station_id":"","pricing_plan_id":"cebpf4jnsgd1na2vs0mg"},{"bike_id":"c595d0e1-c778-4abe-9c79-a9dd74f54e27","system_id":"levelo_inurba_marseille","lat":43.244706,"lon":5.372253,"is_reserved":false,"is_disabled":false,"rental_uris":{"android":"levelo://app?vid=c595d0e1-c778-4abe-9c79-a9dd74f54e27","ios":"levelo://app?vid=c595d0e1-c778-4abe-9c79-a9dd74f54e27"},"vehicle_type_id":"4","last_reported":1751098398,"current_range_meters":18800,"station_id":"","pricing_plan_id":"cebpf4jnsgd1na2vs0mg"},{"bike_id":"ed92a9c0-fb64-496e-9fee-b9638536839a","system_id":"levelo_inurba_marseille","lat":43.2319,"lon":5.35551,"is_reserved":false,"is_disabled":false,"rental_uris":{"android":"levelo://app?vid=ed92a9c0-fb64-496e-9fee-b9638536839a","ios":"levelo://app?vid=ed92a9c0-fb64-496e-9fee-b9638536839a"},"vehicle_type_id":"4","last_reported":1751098398,"current_range_meters":18800,"station_id":"ce4bhu92rcd13ifvqi70","pricing_plan_id":"cebpf4jnsgd1na2vs0mg"},{"bike_id":"aff4423e-c2af-4b70-b9bd-2bdc17fafffc","system_id":"levelo_inurba_marseille","lat":43.24162,"lon":5.36401,"is_reserved":false,"is_disabled":false,"rental_uris":{"android":"levelo://app?vid=aff4423e-c2af-4b70-b9bd-2bdc17fafffc","ios":"levelo://app?vid=aff4423e-c2af-4b70-b9bd-2bdc17fafffc"},"vehicle_type_id":"4","last_reported":1751098398,"current_range_meters":18800,"station_id":"cpo36qri1sfpv3e86is0","pricing_plan_id":"cebpf4jnsgd1na2vs0mg"},{"bike_id":"00232df6-47e0-4159-9a64-03051f9ea3a1","system_id":"levelo_inurba_marseille","lat":43.281137,"lon":5.398641,"is_reserved":false,"is_disabled":false,"rental_uris":{"android":"levelo://app?vid=00232df6-47e0-4159-9a64-03051f9ea3a1","ios":"levelo://app?vid=00232df6-47e0-4159-9a64-03051f9ea3a1"},"vehicle_type_id":"4","last_reported":1751098398,"current_range_meters":19200,"station_id":"","pricing_plan_id":"cebpf4jnsgd1na2vs0mg"},{"bike_id":"e99a7da0-5f03-4f7b-8663-9dab3cc7803d","system_id":"levelo_inurba_marseille","lat":43.290028,"lon":5.400172,"is_reserved":false,"is_disabled":false,"rental_uris":{"android":"levelo://app?vid=e99a7da0-5f03-4f7b-8663-9dab3cc7803d","ios":"levelo://app?vid=e99a7da0-5f03-4f7b-8663-9dab3cc7803d"},"vehicle_type_id":"4","last_reported":1751098398,"current_range_meters":19200,"station_id":"","pricing_plan_id":"cebpf4jnsgd1na2vs0mg"},{"bike_id":"3a7e54b5-a2f5-42f3-a085-743ac5e93398","system_id":"levelo_inurba_marseille","lat":43.25192,"lon":5.42192,"is_reserved":false,"is_disabled":false,"rental_uris":{"android":"levelo://app?vid=3a7e54b5-a2f5-42f3-a085-743ac5e93398","ios":"levelo://app?vid=3a7e54b5-a2f5-42f3-a085-743ac5e93398"},"vehicle_type_id":"4","last_reported":1751098398,"current_range_meters":19600,"station_id":"","pricing_plan_id":"cebpf4jnsgd1na2vs0mg"},{"bike_id":"bae6aab6-eb14-4a1d-9c87-8a740d716142","system_id":"levelo_inurba_marseille","lat":43.29299,"lon":5.37449,"is_reserved":false,"is_disabled":false,"rental_uris":{"android":"levelo://app?vid=bae6aab6-eb14-4a1d-9c87-8a740d716142","ios":"levelo://app?vid=bae6aab6-eb14-4a1d-9c87-8a740d716142"},"vehicle_type_id":"4","last_reported":1751098398,"current_range_meters":19600,"station_id":"ce4bgi12rcd13ifvqb70","pricing_plan_id":"cebpf4jnsgd1na2vs0mg"},{"bike_id":"70e4cc21-5d35-446f-97cc-df276e1b6efe","system_id":"levelo_inurba_marseille","lat":43.306584,"lon":5.365951,"is_reserved":false,"is_disabled":false,"rental_uris":{"android":"levelo://app?vid=70e4cc21-5d35-446f-97cc-df276e1b6efe","ios":"levelo://app?vid=70e4cc21-5d35-446f-97cc-df276e1b6efe"},"vehicle_type_id":"4","last_reported":1751098398,"current_range_meters":19600,"station_id":"ce4bgs12rcd13ifvqcag","pricing_plan_id":"cebpf4jnsgd1na2vs0mg"},{"bike_id":"bb1fa3de-d5fc-4a65-a017-3bf9e1a09e84","system_id":"levelo_inurba_marseille","lat":43.28415,"lon":5.34977,"is_reserved":false,"is_disabled":false,"rental_uris":{"android":"levelo://app?vid=bb1fa3de-d5fc-4a65-a017-3bf9e1a09e84","ios":"levelo://app?vid=bb1fa3de-d5fc-4a65-a017-3bf9e1a09e84"},"vehicle_type_id":"4","last_reported":1751098398,"current_range_meters":19600,"station_id":"ce4bhbh2rcd13ifvqepg","pricing_plan_id":"cebpf4jnsgd1na2vs0mg"},{"bike_id":"fede116f-fe8f-4996-bd86-bef08c43bb15","system_id":"levelo_inurba_marseille","lat":43.28423,"lon":5.34985,"is_reserved":false,"is_disabled":false,"rental_uris":{"android":"levelo://app?vid=fede116f-fe8f-4996-bd86-bef08c43bb15","ios":"levelo://app?vid=fede116f-fe8f-4996-bd86-bef08c43bb15"},"vehicle_type_id":"4","last_reported":1751098398,"current_range_meters":19600,"station_id":"ce4bhbh2rcd13ifvqepg","pricing_plan_id":"cebpf4jnsgd1na2vs0mg"},{"bike_id":"588e6aca-84c8-46ae-8679-fa95e0872d53","system_id":"levelo_inurba_marseille","lat":43.31718,"lon":5.42389,"is_reserved":false,"is_disabled":false,"rental_uris":{"android":"levelo://app?vid=588e6aca-84c8-46ae-8679-fa95e0872d53","ios":"levelo://app?vid=588e6aca-84c8-46ae-8679-fa95e0872d53"},"vehicle_type_id":"4","last_reported":1751098398,"current_range_meters":19600,"station_id":"ce4bhp92rcd13ifvqhbg","pricing_plan_id":"cebpf4jnsgd1na2vs0mg"},{"bike_id":"7757c5d7-8597-4da8-bc28-0c6a39bb89b9","system_id":"levelo_inurba_marseille","lat":43.32288,"lon":5.382801,"is_reserved":false,"is_disabled":false,"rental_uris":{"android":"levelo://app?vid=7757c5d7-8597-4da8-bc28-0c6a39bb89b9","ios":"levelo://app?vid=7757c5d7-8597-4da8-bc28-0c6a39bb89b9"},"vehicle_type_id":"4","last_reported":1751098398,"current_range_meters":19600,"station_id":"ce4bhr12rcd13ifvqhqg","pricing_plan_id":"cebpf4jnsgd1na2vs0mg"},{"bike_id":"7a53931f-8668-445d-8da5-3f7307f600b0","system_id":"levelo_inurba_marseille","lat":43.29581,"lon":5.36741,"is_reserved":false,"is_disabled":false,"rental_uris":{"android":"levelo://app?vid=7a53931f-8668-445d-8da5-3f7307f600b0","ios":"levelo://app?vid=7a53931f-8668-445d-8da5-3f7307f600b0"},"vehicle_type_id":"4","last_reported":1751098398,"current_range_meters":20000,"station_id":"ce4bgph2rcd13ifvqc2g","pricing_plan_id":"cebpf4jnsgd1na2vs0mg"},{"bike_id":"f872a913-3013-4f2d-a783-551cf25730d5","system_id":"levelo_inurba_marseille","lat":43.30592,"lon":5.37201,"is_reserved":false,"is_disabled":false,"rental_uris":{"android":"levelo://app?vid=f872a913-3013-4f2d-a783-551cf25730d5","ios":"levelo://app?vid=f872a913-3013-4f2d-a783-551cf25730d5"},"vehicle_type_id":"4","last_reported":1751098398,"current_range_meters":20000,"station_id":"ce4bgqh2rcd13ifvqc4g","pricing_plan_id":"cebpf4jnsgd1na2vs0mg"},{"bike_id":"4155e701-fd8c-4da2-ba27-f23818fd5ff0","system_id":"levelo_inurba_marseille","lat":43.2572,"lon":5.41114,"is_reserved":false,"is_disabled":false,"rental_uris":{"android":"levelo://app?vid=4155e701-fd8c-4da2-ba27-f23818fd5ff0","ios":"levelo://app?vid=4155e701-fd8c-4da2-ba27-f23818fd5ff0"},"vehicle_type_id":"4","last_reported":1751098398,"current_range_meters":20000,"station_id":"ce4bhkp2rcd13ifvqgd0","pricing_plan_id":"cebpf4jnsgd1na2vs0mg"},{"bike_id":"74121d23-1dbc-42e3-93e6-8b34192bb8d8","system_id":"levelo_inurba_marseille","lat":43.28162,"lon":5.42641,"is_reserved":false,"is_disabled":false,"rental_uris":{"android":"levelo://app?vid=74121d23-1dbc-42e3-93e6-8b34192bb8d8","ios":"levelo://app?vid=74121d23-1dbc-42e3-93e6-8b34192bb8d8"},"vehicle_type_id":"4","last_reported":1751098398,"current_range_meters":20000,"station_id":"ce4bhnh2rcd13ifvqgug","pricing_plan_id":"cebpf4jnsgd1na2vs0mg"},{"bike_id":"65d9b408-35ef-4d43-8880-c492c0a0d9c5","system_id":"levelo_inurba_marseille","lat":43.29964,"lon":5.38498,"is_reserved":false,"is_disabled":false,"rental_uris":{"android":"levelo://app?vid=65d9b408-35ef-4d43-8880-c492c0a0d9c5","ios":"levelo://app?vid=65d9b408-35ef-4d43-8880-c492c0a0d9c5"},"vehicle_type_id":"4","last_reported":1751098398,"current_range_meters":20400,"station_id":"ce4bgj92rcd13ifvqbd0","pricing_plan_id":"cebpf4jnsgd1na2vs0mg"},{"bike_id":"ca9c81fe-835b-457c-81e9-b93b6bd3a119","system_id":"levelo_inurba_marseille","lat":43.27912,"lon":5.395884,"is_reserved":false,"is_disabled":false,"rental_uris":{"android":"levelo://app?vid=ca9c81fe-835b-457c-81e9-b93b6bd3a119","ios":"levelo://app?vid=ca9c81fe-835b-457c-81e9-b93b6bd3a119"},"vehicle_type_id":"4","last_reported":1751098398,"current_range_meters":20400,"station_id":"ce4bhf92rcd13ifvqf40","pricing_plan_id":"cebpf4jnsgd1na2vs0mg"},{"bike_id":"39391c58-0ced-47c1-ad0c-ead1501fc7b8","system_id":"levelo_inurba_marseille","lat":43.21743,"lon":5.34599,"is_reserved":false,"is_disabled":false,"rental_uris":{"android":"levelo://app?vid=39391c58-0ced-47c1-ad0c-ead1501fc7b8","ios":"levelo://app?vid=39391c58-0ced-47c1-ad0c-ead1501fc7b8"},"vehicle_type_id":"4","last_reported":1751098398,"current_range_meters":20400,"station_id":"st_cvj6r9ubvosntc0bgbag","pricing_plan_id":"cebpf4jnsgd1na2vs0mg"},{"bike_id":"6e53ad1f-d4f5-4de6-9418-67b290ec993f","system_id":"levelo_inurba_marseille","lat":43.30941,"lon":5.4103,"is_reserved":false,"is_disabled":false,"rental_uris":{"android":"levelo://app?vid=6e53ad1f-d4f5-4de6-9418-67b290ec993f","ios":"levelo://app?vid=6e53ad1f-d4f5-4de6-9418-67b290ec993f"},"vehicle_type_id":"4","last_reported":1751098398,"current_range_meters":20800,"station_id":"","pricing_plan_id":"cebpf4jnsgd1na2vs0mg"},{"bike_id":"a48552d5-2c58-43d6-95ef-14837cfa1b7a","system_id":"levelo_inurba_marseille","lat":43.30965,"lon":5.40483,"is_reserved":false,"is_disabled":false,"rental_uris":{"android":"levelo://app?vid=a48552d5-2c58-43d6-95ef-14837cfa1b7a","ios":"levelo://app?vid=a48552d5-2c58-43d6-95ef-14837cfa1b7a"},"vehicle_type_id":"4","last_reported":1751098398,"current_range_meters":20800,"station_id":"","pricing_plan_id":"cebpf4jnsgd1na2vs0mg"},{"bike_id":"44fb4cee-d067-41cd-96e3-e0cc6ac4f3ab","system_id":"levelo_inurba_marseille","lat":43.29576,"lon":5.37501,"is_reserved":false,"is_disabled":false,"rental_uris":{"android":"levelo://app?vid=44fb4cee-d067-41cd-96e3-e0cc6ac4f3ab","ios":"levelo://app?vid=44fb4cee-d067-41cd-96e3-e0cc6ac4f3ab"},"vehicle_type_id":"4","last_reported":1751098398,"current_range_meters":20800,"station_id":"ce4bgh92rcd13ifvqb50","pricing_plan_id":"cebpf4jnsgd1na2vs0mg"},{"bike_id":"7bda6b61-95c2-4760-9b18-5f93255ec6e6","system_id":"levelo_inurba_marseille","lat":43.265571,"lon":5.372846,"is_reserved":false,"is_disabled":false,"rental_uris":{"android":"levelo://app?vid=7bda6b61-95c2-4760-9b18-5f93255ec6e6","ios":"levelo://app?vid=7bda6b61-95c2-4760-9b18-5f93255ec6e6"},"vehicle_type_id":"4","last_reported":1751098398,"current_range_meters":20800,"station_id":"ce4bhg12rcd13ifvqf70","pricing_plan_id":"cebpf4jnsgd1na2vs0mg"},{"bike_id":"bc0333fd-1397-4952-b6c9-b389233d6324","system_id":"levelo_inurba_marseille","lat":43.25499,"lon":5.37652,"is_reserved":false,"is_disabled":false,"rental_uris":{"android":"levelo://app?vid=bc0333fd-1397-4952-b6c9-b389233d6324","ios":"levelo://app?vid=bc0333fd-1397-4952-b6c9-b389233d6324"},"vehicle_type_id":"4","last_reported":1751098398,"current_range_meters":20800,"station_id":"ce4bhh12rcd13ifvqff0","pricing_plan_id":"cebpf4jnsgd1na2vs0mg"},{"bike_id":"bf24b26e-7f51-4120-9a48-54c87edaa2f7","system_id":"levelo_inurba_marseille","lat":43.211931,"lon":5.350728,"is_reserved":false,"is_disabled":false,"rental_uris":{"android":"levelo://app?vid=bf24b26e-7f51-4120-9a48-54c87edaa2f7","ios":"levelo://app?vid=bf24b26e-7f51-4120-9a48-54c87edaa2f7"},"vehicle_type_id":"4","last_reported":1751098398,"current_range_meters":20800,"station_id":"st_cvj6sg6p6f1abm77japg","pricing_plan_id":"cebpf4jnsgd1na2vs0mg"},{"bike_id":"09cb3b7f-3ebf-4726-ab49-a55d4fd48b3c","system_id":"levelo_inurba_marseille","lat":43.28077,"lon":5.40752,"is_reserved":false,"is_disabled":false,"rental_uris":{"android":"levelo://app?vid=09cb3b7f-3ebf-4726-ab49-a55d4fd48b3c","ios":"levelo://app?vid=09cb3b7f-3ebf-4726-ab49-a55d4fd48b3c"},"vehicle_type_id":"4","last_reported":1751098398,"current_range_meters":21600,"station_id":"","pricing_plan_id":"cebpf4jnsgd1na2vs0mg"},{"bike_id":"ed770461-ca86-48a0-9e67-54dc30bd9693","system_id":"levelo_inurba_marseille","lat":43.30586,"lon":5.37222,"is_reserved":false,"is_disabled":false,"rental_uris":{"android":"levelo://app?vid=ed770461-ca86-48a0-9e67-54dc30bd9693","ios":"levelo://app?vid=ed770461-ca86-48a0-9e67-54dc30bd9693"},"vehicle_type_id":"4","last_reported":1751098398,"current_range_meters":21600,"station_id":"ce4bgqh2rcd13ifvqc4g","pricing_plan_id":"cebpf4jnsgd1na2vs0mg"},{"bike_id":"938a3fd4-3ed6-48f4-b993-bfd037cb52d6","system_id":"levelo_inurba_marseille","lat":43.22513,"lon":5.34787,"is_reserved":false,"is_disabled":false,"rental_uris":{"android":"levelo://app?vid=938a3fd4-3ed6-48f4-b993-bfd037cb52d6","ios":"levelo://app?vid=938a3fd4-3ed6-48f4-b993-bfd037cb52d6"},"vehicle_type_id":"4","last_reported":1751098398,"current_range_meters":21600,"station_id":"st_cvj5dfep6f1abm77gieg","pricing_plan_id":"cebpf4jnsgd1na2vs0mg"},{"bike_id":"7f212f1e-9b22-4ad3-88bb-18d999719345","system_id":"levelo_inurba_marseille","lat":43.21192,"lon":5.35076,"is_reserved":false,"is_disabled":false,"rental_uris":{"android":"levelo://app?vid=7f212f1e-9b22-4ad3-88bb-18d999719345","ios":"levelo://app?vid=7f212f1e-9b22-4ad3-88bb-18d999719345"},"vehicle_type_id":"4","last_reported":1751098398,"current_range_meters":21600,"station_id":"st_cvj6sg6p6f1abm77japg","pricing_plan_id":"cebpf4jnsgd1na2vs0mg"},{"bike_id":"3eb744e3-02af-4587-afd2-6a32f78f61f2","system_id":"levelo_inurba_marseille","lat":43.30431,"lon":5.38885,"is_reserved":false,"is_disabled":false,"rental_uris":{"android":"levelo://app?vid=3eb744e3-02af-4587-afd2-6a32f78f61f2","ios":"levelo://app?vid=3eb744e3-02af-4587-afd2-6a32f78f61f2"},"vehicle_type_id":"4","last_reported":1751098398,"current_range_meters":22000,"station_id":"ce4bgk12rcd13ifvqbi0","pricing_plan_id":"cebpf4jnsgd1na2vs0mg"},{"bike_id":"8396ae5c-3290-42cd-9f6e-771ecd37fbb0","system_id":"levelo_inurba_marseille","lat":43.29001,"lon":5.35602,"is_reserved":false,"is_disabled":false,"rental_uris":{"android":"levelo://app?vid=8396ae5c-3290-42cd-9f6e-771ecd37fbb0","ios":"levelo://app?vid=8396ae5c-3290-42cd-9f6e-771ecd37fbb0"},"vehicle_type_id":"4","last_reported":1751098398,"current_range_meters":22000,"station_id":"ce4bhb92rcd13ifvqen0","pricing_plan_id":"cebpf4jnsgd1na2vs0mg"},{"bike_id":"b3c530a9-5922-4327-8161-b30dfc7c7c2f","system_id":"levelo_inurba_marseille","lat":43.27299,"lon":5.39125,"is_reserved":false,"is_disabled":false,"rental_uris":{"android":"levelo://app?vid=b3c530a9-5922-4327-8161-b30dfc7c7c2f","ios":"levelo://app?vid=b3c530a9-5922-4327-8161-b30dfc7c7c2f"},"vehicle_type_id":"4","last_reported":1751098398,"current_range_meters":22000,"station_id":"ce4bhgp2rcd13ifvqfe0","pricing_plan_id":"cebpf4jnsgd1na2vs0mg"},{"bike_id":"c4be0e32-eeb3-4451-9277-1b7a74488010","system_id":"levelo_inurba_marseille","lat":43.25502,"lon":5.37658,"is_reserved":false,"is_disabled":false,"rental_uris":{"android":"levelo://app?vid=c4be0e32-eeb3-4451-9277-1b7a74488010","ios":"levelo://app?vid=c4be0e32-eeb3-4451-9277-1b7a74488010"},"vehicle_type_id":"4","last_reported":1751098398,"current_range_meters":22000,"station_id":"ce4bhh12rcd13ifvqff0","pricing_plan_id":"cebpf4jnsgd1na2vs0mg"},{"bike_id":"a2cdaa3c-dc25-4cd3-ab6f-26ee402b0cf4","system_id":"levelo_inurba_marseille","lat":43.28044,"lon":5.39014,"is_reserved":false,"is_disabled":false,"rental_uris":{"android":"levelo://app?vid=a2cdaa3c-dc25-4cd3-ab6f-26ee402b0cf4","ios":"levelo://app?vid=a2cdaa3c-dc25-4cd3-ab6f-26ee402b0cf4"},"vehicle_type_id":"4","last_reported":1751098398,"current_range_meters":22400,"station_id":"","pricing_plan_id":"cebpf4jnsgd1na2vs0mg"},{"bike_id":"17d15c1a-eccf-4128-ba5a-ec499acd9a5b","system_id":"levelo_inurba_marseille","lat":43.29556,"lon":5.37499,"is_reserved":false,"is_disabled":false,"rental_uris":{"android":"levelo://app?vid=17d15c1a-eccf-4128-ba5a-ec499acd9a5b","ios":"levelo://app?vid=17d15c1a-eccf-4128-ba5a-ec499acd9a5b"},"vehicle_type_id":"4","last_reported":1751098398,"current_range_meters":22400,"station_id":"ce4bgh92rcd13ifvqb50","pricing_plan_id":"cebpf4jnsgd1na2vs0mg"},{"bike_id":"197b8b8c-8c4c-416d-8860-114bd221267e","system_id":"levelo_inurba_marseille","lat":43.301443,"lon":5.374208,"is_reserved":false,"is_disabled":false,"rental_uris":{"android":"levelo://app?vid=197b8b8c-8c4c-416d-8860-114bd221267e","ios":"levelo://app?vid=197b8b8c-8c4c-416d-8860-114bd221267e"},"vehicle_type_id":"4","last_reported":1751098398,"current_range_meters":22400,"station_id":"ce4bgs92rcd13ifvqcc0","pricing_plan_id":"cebpf4jnsgd1na2vs0mg"},{"bike_id":"f926e5be-6d4f-4439-8ad9-bccda08a61e4","system_id":"levelo_inurba_marseille","lat":43.28615,"lon":5.35107,"is_reserved":false,"is_disabled":false,"rental_uris":{"android":"levelo://app?vid=f926e5be-6d4f-4439-8ad9-bccda08a61e4","ios":"levelo://app?vid=f926e5be-6d4f-4439-8ad9-bccda08a61e4"},"vehicle_type_id":"4","last_reported":1751098398,"current_range_meters":22400,"station_id":"ce4bhch2rcd13ifvqeug","pricing_plan_id":"cebpf4jnsgd1na2vs0mg"},{"bike_id":"1422aae9-4428-4bc5-9f1e-88df6f664dde","system_id":"levelo_inurba_marseille","lat":43.24806,"lon":5.37458,"is_reserved":false,"is_disabled":false,"rental_uris":{"android":"levelo://app?vid=1422aae9-4428-4bc5-9f1e-88df6f664dde","ios":"levelo://app?vid=1422aae9-4428-4bc5-9f1e-88df6f664dde"},"vehicle_type_id":"4","last_reported":1751098398,"current_range_meters":22400,"station_id":"ce4bhgh2rcd13ifvqfb0","pricing_plan_id":"cebpf4jnsgd1na2vs0mg"},{"bike_id":"525b007c-f7cc-4402-8822-0aab47b66e56","system_id":"levelo_inurba_marseille","lat":43.24185,"lon":5.39709,"is_reserved":false,"is_disabled":false,"rental_uris":{"android":"levelo://app?vid=525b007c-f7cc-4402-8822-0aab47b66e56","ios":"levelo://app?vid=525b007c-f7cc-4402-8822-0aab47b66e56"},"vehicle_type_id":"4","last_reported":1751098398,"current_range_meters":22400,"station_id":"ce4bhn12rcd13ifvqgpg","pricing_plan_id":"cebpf4jnsgd1na2vs0mg"},{"bike_id":"e7641e58-176f-485d-9342-129003cdc52b","system_id":"levelo_inurba_marseille","lat":43.32105,"lon":5.36758,"is_reserved":false,"is_disabled":false,"rental_uris":{"android":"levelo://app?vid=e7641e58-176f-485d-9342-129003cdc52b","ios":"levelo://app?vid=e7641e58-176f-485d-9342-129003cdc52b"},"vehicle_type_id":"4","last_reported":1751098398,"current_range_meters":22400,"station_id":"ce4bhrh2rcd13ifvqhug","pricing_plan_id":"cebpf4jnsgd1na2vs0mg"},{"bike_id":"5fb6d129-dabf-409e-8f04-6dc56535e80f","system_id":"levelo_inurba_marseille","lat":43.29584,"lon":5.36741,"is_reserved":false,"is_disabled":false,"rental_uris":{"android":"levelo://app?vid=5fb6d129-dabf-409e-8f04-6dc56535e80f","ios":"levelo://app?vid=5fb6d129-dabf-409e-8f04-6dc56535e80f"},"vehicle_type_id":"4","last_reported":1751098398,"current_range_meters":22800,"station_id":"ce4bgph2rcd13ifvqc2g","pricing_plan_id":"cebpf4jnsgd1na2vs0mg"},{"bike_id":"5d371c83-91ba-4626-b0b8-87a078805a8f","system_id":"levelo_inurba_marseille","lat":43.30635,"lon":5.40069,"is_reserved":false,"is_disabled":false,"rental_uris":{"android":"levelo://app?vid=5d371c83-91ba-4626-b0b8-87a078805a8f","ios":"levelo://app?vid=5d371c83-91ba-4626-b0b8-87a078805a8f"},"vehicle_type_id":"4","last_reported":1751098398,"current_range_meters":22800,"station_id":"ce4bh112rcd13ifvqda0","pricing_plan_id":"cebpf4jnsgd1na2vs0mg"},{"bike_id":"d0b6ab98-0f27-402a-a933-c5b37beefcd6","system_id":"levelo_inurba_marseille","lat":43.292352,"lon":5.360691,"is_reserved":false,"is_disabled":false,"rental_uris":{"android":"levelo://app?vid=d0b6ab98-0f27-402a-a933-c5b37beefcd6","ios":"levelo://app?vid=d0b6ab98-0f27-402a-a933-c5b37beefcd6"},"vehicle_type_id":"4","last_reported":1751098398,"current_range_meters":22800,"station_id":"ce4bhbh2rcd13ifvqeqg","pricing_plan_id":"cebpf4jnsgd1na2vs0mg"},{"bike_id":"8d79f18a-5391-4980-8b5a-74d607fcbb64","system_id":"levelo_inurba_marseille","lat":43.25502,"lon":5.37651,"is_reserved":false,"is_disabled":false,"rental_uris":{"android":"levelo://app?vid=8d79f18a-5391-4980-8b5a-74d607fcbb64","ios":"levelo://app?vid=8d79f18a-5391-4980-8b5a-74d607fcbb64"},"vehicle_type_id":"4","last_reported":1751098398,"current_range_meters":22800,"station_id":"ce4bhh12rcd13ifvqff0","pricing_plan_id":"cebpf4jnsgd1na2vs0mg"},{"bike_id":"999275b4-87d8-4666-b6cf-2dc97749347e","system_id":"levelo_inurba_marseille","lat":43.26206,"lon":5.37929,"is_reserved":false,"is_disabled":false,"rental_uris":{"android":"levelo://app?vid=999275b4-87d8-4666-b6cf-2dc97749347e","ios":"levelo://app?vid=999275b4-87d8-4666-b6cf-2dc97749347e"},"vehicle_type_id":"4","last_reported":1751098398,"current_range_meters":22800,"station_id":"ce4bhjp2rcd13ifvqg90","pricing_plan_id":"cebpf4jnsgd1na2vs0mg"},{"bike_id":"ff359b06-e82b-4518-b602-f9c62162a27d","system_id":"levelo_inurba_marseille","lat":43.211904,"lon":5.350725,"is_reserved":false,"is_disabled":false,"rental_uris":{"android":"levelo://app?vid=ff359b06-e82b-4518-b602-f9c62162a27d","ios":"levelo://app?vid=ff359b06-e82b-4518-b602-f9c62162a27d"},"vehicle_type_id":"4","last_reported":1751098398,"current_range_meters":22800,"station_id":"st_cvj6sg6p6f1abm77japg","pricing_plan_id":"cebpf4jnsgd1na2vs0mg"},{"bike_id":"9b21541a-edfa-4c28-a626-87d8c52e11d9","system_id":"levelo_inurba_marseille","lat":43.31736,"lon":5.37426,"is_reserved":false,"is_disabled":false,"rental_uris":{"android":"levelo://app?vid=9b21541a-edfa-4c28-a626-87d8c52e11d9","ios":"levelo://app?vid=9b21541a-edfa-4c28-a626-87d8c52e11d9"},"vehicle_type_id":"4","last_reported":1751098398,"current_range_meters":23200,"station_id":"","pricing_plan_id":"cebpf4jnsgd1na2vs0mg"},{"bike_id":"1ac664aa-f2a4-4b75-879f-dcb93272d133","system_id":"levelo_inurba_marseille","lat":43.3203,"lon":5.40954,"is_reserved":false,"is_disabled":false,"rental_uris":{"android":"levelo://app?vid=1ac664aa-f2a4-4b75-879f-dcb93272d133","ios":"levelo://app?vid=1ac664aa-f2a4-4b75-879f-dcb93272d133"},"vehicle_type_id":"4","last_reported":1751098398,"current_range_meters":23200,"station_id":"","pricing_plan_id":"cebpf4jnsgd1na2vs0mg"},{"bike_id":"9b787d11-c6c7-47eb-b4d1-a9fa0784e227","system_id":"levelo_inurba_marseille","lat":43.28102,"lon":5.37845,"is_reserved":false,"is_disabled":false,"rental_uris":{"android":"levelo://app?vid=9b787d11-c6c7-47eb-b4d1-a9fa0784e227","ios":"levelo://app?vid=9b787d11-c6c7-47eb-b4d1-a9fa0784e227"},"vehicle_type_id":"4","last_reported":1751098398,"current_range_meters":23200,"station_id":"ce4bha12rcd13ifvqee0","pricing_plan_id":"cebpf4jnsgd1na2vs0mg"},{"bike_id":"c65e19b1-0d02-4a53-81e7-f408a14b549c","system_id":"levelo_inurba_marseille","lat":43.29194,"lon":5.35805,"is_reserved":false,"is_disabled":false,"rental_uris":{"android":"levelo://app?vid=c65e19b1-0d02-4a53-81e7-f408a14b549c","ios":"levelo://app?vid=c65e19b1-0d02-4a53-81e7-f408a14b549c"},"vehicle_type_id":"4","last_reported":1751098398,"current_range_meters":23200,"station_id":"ce4bhb12rcd13ifvqel0","pricing_plan_id":"cebpf4jnsgd1na2vs0mg"},{"bike_id":"0cf437ff-3a5f-41ec-b769-8c286ff0f286","system_id":"levelo_inurba_marseille","lat":43.29005,"lon":5.35613,"is_reserved":false,"is_disabled":false,"rental_uris":{"android":"levelo://app?vid=0cf437ff-3a5f-41ec-b769-8c286ff0f286","ios":"levelo://app?vid=0cf437ff-3a5f-41ec-b769-8c286ff0f286"},"vehicle_type_id":"4","last_reported":1751098398,"current_range_meters":23200,"station_id":"ce4bhb92rcd13ifvqen0","pricing_plan_id":"cebpf4jnsgd1na2vs0mg"},{"bike_id":"aed93264-ed50-458f-af3f-6116d6194882","system_id":"levelo_inurba_marseille","lat":43.337174,"lon":5.391792,"is_reserved":false,"is_disabled":false,"rental_uris":{"android":"levelo://app?vid=aed93264-ed50-458f-af3f-6116d6194882","ios":"levelo://app?vid=aed93264-ed50-458f-af3f-6116d6194882"},"vehicle_type_id":"4","last_reported":1751098398,"current_range_meters":23200,"station_id":"ce4bhr92rcd13ifvqhsg","pricing_plan_id":"cebpf4jnsgd1na2vs0mg"},{"bike_id":"9a2900e0-a6cf-4a2f-aef1-d40236c71563","system_id":"levelo_inurba_marseille","lat":43.24166,"lon":5.3639,"is_reserved":false,"is_disabled":false,"rental_uris":{"android":"levelo://app?vid=9a2900e0-a6cf-4a2f-aef1-d40236c71563","ios":"levelo://app?vid=9a2900e0-a6cf-4a2f-aef1-d40236c71563"},"vehicle_type_id":"4","last_reported":1751098398,"current_range_meters":23200,"station_id":"cpo36qri1sfpv3e86is0","pricing_plan_id":"cebpf4jnsgd1na2vs0mg"},{"bike_id":"15132cdd-0b10-4485-85ec-af008cafdbf4","system_id":"levelo_inurba_marseille","lat":43.28413,"lon":5.34993,"is_reserved":false,"is_disabled":false,"rental_uris":{"android":"levelo://app?vid=15132cdd-0b10-4485-85ec-af008cafdbf4","ios":"levelo://app?vid=15132cdd-0b10-4485-85ec-af008cafdbf4"},"vehicle_type_id":"4","last_reported":1751098398,"current_range_meters":24000,"station_id":"ce4bhbh2rcd13ifvqepg","pricing_plan_id":"cebpf4jnsgd1na2vs0mg"},{"bike_id":"75fbd02b-d4f4-40e2-8317-a8ab6fd47b54","system_id":"levelo_inurba_marseille","lat":43.27175,"lon":5.40994,"is_reserved":false,"is_disabled":false,"rental_uris":{"android":"levelo://app?vid=75fbd02b-d4f4-40e2-8317-a8ab6fd47b54","ios":"levelo://app?vid=75fbd02b-d4f4-40e2-8317-a8ab6fd47b54"},"vehicle_type_id":"4","last_reported":1751098398,"current_range_meters":24000,"station_id":"ce4bhl12rcd13ifvqgf0","pricing_plan_id":"cebpf4jnsgd1na2vs0mg"},{"bike_id":"8cef66de-4d92-4f07-a867-40d4ac8d07af","system_id":"levelo_inurba_marseille","lat":43.28152,"lon":5.42639,"is_reserved":false,"is_disabled":false,"rental_uris":{"android":"levelo://app?vid=8cef66de-4d92-4f07-a867-40d4ac8d07af","ios":"levelo://app?vid=8cef66de-4d92-4f07-a867-40d4ac8d07af"},"vehicle_type_id":"4","last_reported":1751098398,"current_range_meters":24000,"station_id":"ce4bhnh2rcd13ifvqgug","pricing_plan_id":"cebpf4jnsgd1na2vs0mg"},{"bike_id":"d192b54c-3cee-43bf-b9ba-ebe5381351f6","system_id":"levelo_inurba_marseille","lat":43.2174,"lon":5.34615,"is_reserved":false,"is_disabled":false,"rental_uris":{"android":"levelo://app?vid=d192b54c-3cee-43bf-b9ba-ebe5381351f6","ios":"levelo://app?vid=d192b54c-3cee-43bf-b9ba-ebe5381351f6"},"vehicle_type_id":"4","last_reported":1751098398,"current_range_meters":24000,"station_id":"st_cvj6r9ubvosntc0bgbag","pricing_plan_id":"cebpf4jnsgd1na2vs0mg"},{"bike_id":"ba926bfc-9632-4680-b0ed-32a040d6fb83","system_id":"levelo_inurba_marseille","lat":43.21193,"lon":5.35066,"is_reserved":false,"is_disabled":false,"rental_uris":{"android":"levelo://app?vid=ba926bfc-9632-4680-b0ed-32a040d6fb83","ios":"levelo://app?vid=ba926bfc-9632-4680-b0ed-32a040d6fb83"},"vehicle_type_id":"4","last_reported":1751098398,"current_range_meters":24000,"station_id":"st_cvj6sg6p6f1abm77japg","pricing_plan_id":"cebpf4jnsgd1na2vs0mg"},{"bike_id":"01c9b150-e855-411d-929e-a0bc737e52c6","system_id":"levelo_inurba_marseille","lat":43.21188,"lon":5.35071,"is_reserved":false,"is_disabled":false,"rental_uris":{"android":"levelo://app?vid=01c9b150-e855-411d-929e-a0bc737e52c6","ios":"levelo://app?vid=01c9b150-e855-411d-929e-a0bc737e52c6"},"vehicle_type_id":"4","last_reported":1751098398,"current_range_meters":24000,"station_id":"st_cvj6sg6p6f1abm77japg","pricing_plan_id":"cebpf4jnsgd1na2vs0mg"},{"bike_id":"452e8211-4f44-45d0-814a-3e9e25b8c44e","system_id":"levelo_inurba_marseille","lat":43.21198,"lon":5.35086,"is_reserved":false,"is_disabled":false,"rental_uris":{"android":"levelo://app?vid=452e8211-4f44-45d0-814a-3e9e25b8c44e","ios":"levelo://app?vid=452e8211-4f44-45d0-814a-3e9e25b8c44e"},"vehicle_type_id":"4","last_reported":1751098398,"current_range_meters":24000,"station_id":"st_cvj6sg6p6f1abm77japg","pricing_plan_id":"cebpf4jnsgd1na2vs0mg"},{"bike_id":"9e722597-2431-40e4-9a94-4f7e8d24b19d","system_id":"levelo_inurba_marseille","lat":43.31498,"lon":5.37308,"is_reserved":false,"is_disabled":false,"rental_uris":{"android":"levelo://app?vid=9e722597-2431-40e4-9a94-4f7e8d24b19d","ios":"levelo://app?vid=9e722597-2431-40e4-9a94-4f7e8d24b19d"},"vehicle_type_id":"4","last_reported":1751098398,"current_range_meters":24400,"station_id":"ce4bgt12rcd13ifvqcd0","pricing_plan_id":"cebpf4jnsgd1na2vs0mg"},{"bike_id":"932c8c40-5040-4c40-bc6b-3fb4f2152b5d","system_id":"levelo_inurba_marseille","lat":43.31118,"lon":5.37759,"is_reserved":false,"is_disabled":false,"rental_uris":{"android":"levelo://app?vid=932c8c40-5040-4c40-bc6b-3fb4f2152b5d","ios":"levelo://app?vid=932c8c40-5040-4c40-bc6b-3fb4f2152b5d"},"vehicle_type_id":"4","last_reported":1751098398,"current_range_meters":24400,"station_id":"ce4bgt92rcd13ifvqcg0","pricing_plan_id":"cebpf4jnsgd1na2vs0mg"},{"bike_id":"b9a2a062-badb-48f4-baac-39c7ba602ad6","system_id":"levelo_inurba_marseille","lat":43.31114,"lon":5.37758,"is_reserved":false,"is_disabled":false,"rental_uris":{"android":"levelo://app?vid=b9a2a062-badb-48f4-baac-39c7ba602ad6","ios":"levelo://app?vid=b9a2a062-badb-48f4-baac-39c7ba602ad6"},"vehicle_type_id":"4","last_reported":1751098398,"current_range_meters":24400,"station_id":"ce4bgt92rcd13ifvqcg0","pricing_plan_id":"cebpf4jnsgd1na2vs0mg"},{"bike_id":"8786963e-1715-42d8-925d-73e756704f67","system_id":"levelo_inurba_marseille","lat":43.31681,"lon":5.40464,"is_reserved":false,"is_disabled":false,"rental_uris":{"android":"levelo://app?vid=8786963e-1715-42d8-925d-73e756704f67","ios":"levelo://app?vid=8786963e-1715-42d8-925d-73e756704f67"},"vehicle_type_id":"4","last_reported":1751098398,"current_range_meters":24400,"station_id":"ce4bh012rcd13ifvqd00","pricing_plan_id":"cebpf4jnsgd1na2vs0mg"},{"bike_id":"1e0c2c2e-f630-47b6-96c7-ad924bdc8036","system_id":"levelo_inurba_marseille","lat":43.29638,"lon":5.40583,"is_reserved":false,"is_disabled":false,"rental_uris":{"android":"levelo://app?vid=1e0c2c2e-f630-47b6-96c7-ad924bdc8036","ios":"levelo://app?vid=1e0c2c2e-f630-47b6-96c7-ad924bdc8036"},"vehicle_type_id":"4","last_reported":1751098398,"current_range_meters":24400,"station_id":"ce4bh0h2rcd13ifvqd60","pricing_plan_id":"cebpf4jnsgd1na2vs0mg"},{"bike_id":"0d8e4df6-de77-446e-bd5c-2e5642d508fb","system_id":"levelo_inurba_marseille","lat":43.28931,"lon":5.38409,"is_reserved":false,"is_disabled":false,"rental_uris":{"android":"levelo://app?vid=0d8e4df6-de77-446e-bd5c-2e5642d508fb","ios":"levelo://app?vid=0d8e4df6-de77-446e-bd5c-2e5642d508fb"},"vehicle_type_id":"4","last_reported":1751098398,"current_range_meters":24400,"station_id":"ce4bh612rcd13ifvqe6g","pricing_plan_id":"cebpf4jnsgd1na2vs0mg"},{"bike_id":"ab89e5ed-9225-4a8f-bf7b-6939f71feac7","system_id":"levelo_inurba_marseille","lat":43.28418,"lon":5.34991,"is_reserved":false,"is_disabled":false,"rental_uris":{"android":"levelo://app?vid=ab89e5ed-9225-4a8f-bf7b-6939f71feac7","ios":"levelo://app?vid=ab89e5ed-9225-4a8f-bf7b-6939f71feac7"},"vehicle_type_id":"4","last_reported":1751098398,"current_range_meters":24400,"station_id":"ce4bhbh2rcd13ifvqepg","pricing_plan_id":"cebpf4jnsgd1na2vs0mg"},{"bike_id":"c540a541-746b-4f8f-924b-16f4dab95c02","system_id":"levelo_inurba_marseille","lat":43.27055,"lon":5.40255,"is_reserved":false,"is_disabled":false,"rental_uris":{"android":"levelo://app?vid=c540a541-746b-4f8f-924b-16f4dab95c02","ios":"levelo://app?vid=c540a541-746b-4f8f-924b-16f4dab95c02"},"vehicle_type_id":"4","last_reported":1751098398,"current_range_meters":24400,"station_id":"ce4bhk92rcd13ifvqgc0","pricing_plan_id":"cebpf4jnsgd1na2vs0mg"},{"bike_id":"57d7d080-32a9-4c65-b3ac-f79d313f4ef3","system_id":"levelo_inurba_marseille","lat":43.24539,"lon":5.39519,"is_reserved":false,"is_disabled":false,"rental_uris":{"android":"levelo://app?vid=57d7d080-32a9-4c65-b3ac-f79d313f4ef3","ios":"levelo://app?vid=57d7d080-32a9-4c65-b3ac-f79d313f4ef3"},"vehicle_type_id":"4","last_reported":1751098398,"current_range_meters":24400,"station_id":"ce4bhlp2rcd13ifvqgjg","pricing_plan_id":"cebpf4jnsgd1na2vs0mg"},{"bike_id":"1f30e6ed-8504-4448-b3d0-3017ab371be8","system_id":"levelo_inurba_marseille","lat":43.29886,"lon":5.43635,"is_reserved":false,"is_disabled":false,"rental_uris":{"android":"levelo://app?vid=1f30e6ed-8504-4448-b3d0-3017ab371be8","ios":"levelo://app?vid=1f30e6ed-8504-4448-b3d0-3017ab371be8"},"vehicle_type_id":"4","last_reported":1751098398,"current_range_meters":24400,"station_id":"ce4bhpp2rcd13ifvqhfg","pricing_plan_id":"cebpf4jnsgd1na2vs0mg"},{"bike_id":"a8dc4115-b472-4281-8cc2-351dfe648ffd","system_id":"levelo_inurba_marseille","lat":43.30892,"lon":5.368247,"is_reserved":false,"is_disabled":false,"rental_uris":{"android":"levelo://app?vid=a8dc4115-b472-4281-8cc2-351dfe648ffd","ios":"levelo://app?vid=a8dc4115-b472-4281-8cc2-351dfe648ffd"},"vehicle_type_id":"4","last_reported":1751098398,"current_range_meters":24800,"station_id":"ce4bgn92rcd13ifvqbvg","pricing_plan_id":"cebpf4jnsgd1na2vs0mg"},{"bike_id":"47526409-c30c-4861-8249-924be23e7b76","system_id":"levelo_inurba_marseille","lat":43.28116,"lon":5.37823,"is_reserved":false,"is_disabled":false,"rental_uris":{"android":"levelo://app?vid=47526409-c30c-4861-8249-924be23e7b76","ios":"levelo://app?vid=47526409-c30c-4861-8249-924be23e7b76"},"vehicle_type_id":"4","last_reported":1751098398,"current_range_meters":24800,"station_id":"ce4bha12rcd13ifvqee0","pricing_plan_id":"cebpf4jnsgd1na2vs0mg"},{"bike_id":"21556f7e-5200-4c31-bd65-aa1eae3c805c","system_id":"levelo_inurba_marseille","lat":43.292326,"lon":5.360842,"is_reserved":false,"is_disabled":false,"rental_uris":{"android":"levelo://app?vid=21556f7e-5200-4c31-bd65-aa1eae3c805c","ios":"levelo://app?vid=21556f7e-5200-4c31-bd65-aa1eae3c805c"},"vehicle_type_id":"4","last_reported":1751098398,"current_range_meters":24800,"station_id":"ce4bhbh2rcd13ifvqeqg","pricing_plan_id":"cebpf4jnsgd1na2vs0mg"},{"bike_id":"ed6894f1-e55f-4063-92e2-65b33008248a","system_id":"levelo_inurba_marseille","lat":43.26215,"lon":5.37439,"is_reserved":false,"is_disabled":false,"rental_uris":{"android":"levelo://app?vid=ed6894f1-e55f-4063-92e2-65b33008248a","ios":"levelo://app?vid=ed6894f1-e55f-4063-92e2-65b33008248a"},"vehicle_type_id":"4","last_reported":1751098398,"current_range_meters":24800,"station_id":"ce4bhgp2rcd13ifvqfc0","pricing_plan_id":"cebpf4jnsgd1na2vs0mg"},{"bike_id":"ce5b3342-ea78-4604-a07d-d74f838f153a","system_id":"levelo_inurba_marseille","lat":43.231789,"lon":5.399893,"is_reserved":false,"is_disabled":false,"rental_uris":{"android":"levelo://app?vid=ce5b3342-ea78-4604-a07d-d74f838f153a","ios":"levelo://app?vid=ce5b3342-ea78-4604-a07d-d74f838f153a"},"vehicle_type_id":"4","last_reported":1751098398,"current_range_meters":24800,"station_id":"ce4bhn12rcd13ifvqgqg","pricing_plan_id":"cebpf4jnsgd1na2vs0mg"},{"bike_id":"f6c2e9a8-f04d-43c7-b48a-1bf2f7c70b74","system_id":"levelo_inurba_marseille","lat":43.27979,"lon":5.41644,"is_reserved":false,"is_disabled":false,"rental_uris":{"android":"levelo://app?vid=f6c2e9a8-f04d-43c7-b48a-1bf2f7c70b74","ios":"levelo://app?vid=f6c2e9a8-f04d-43c7-b48a-1bf2f7c70b74"},"vehicle_type_id":"4","last_reported":1751098398,"current_range_meters":24800,"station_id":"ce4bho12rcd13ifvqh1g","pricing_plan_id":"cebpf4jnsgd1na2vs0mg"},{"bike_id":"8fc36912-d7a7-4c5e-bf3c-ae03694d6ba3","system_id":"levelo_inurba_marseille","lat":43.21197,"lon":5.35075,"is_reserved":false,"is_disabled":false,"rental_uris":{"android":"levelo://app?vid=8fc36912-d7a7-4c5e-bf3c-ae03694d6ba3","ios":"levelo://app?vid=8fc36912-d7a7-4c5e-bf3c-ae03694d6ba3"},"vehicle_type_id":"4","last_reported":1751098398,"current_range_meters":24800,"station_id":"st_cvj6sg6p6f1abm77japg","pricing_plan_id":"cebpf4jnsgd1na2vs0mg"},{"bike_id":"b21db915-2357-4f83-80ed-31318c74f072","system_id":"levelo_inurba_marseille","lat":43.29968,"lon":5.38494,"is_reserved":false,"is_disabled":false,"rental_uris":{"android":"levelo://app?vid=b21db915-2357-4f83-80ed-31318c74f072","ios":"levelo://app?vid=b21db915-2357-4f83-80ed-31318c74f072"},"vehicle_type_id":"4","last_reported":1751098398,"current_range_meters":25200,"station_id":"ce4bgj92rcd13ifvqbd0","pricing_plan_id":"cebpf4jnsgd1na2vs0mg"},{"bike_id":"268924cd-3ce5-4168-940a-81d51127d7bc","system_id":"levelo_inurba_marseille","lat":43.31658,"lon":5.40426,"is_reserved":false,"is_disabled":false,"rental_uris":{"android":"levelo://app?vid=268924cd-3ce5-4168-940a-81d51127d7bc","ios":"levelo://app?vid=268924cd-3ce5-4168-940a-81d51127d7bc"},"vehicle_type_id":"4","last_reported":1751098398,"current_range_meters":25200,"station_id":"ce4bh012rcd13ifvqd00","pricing_plan_id":"cebpf4jnsgd1na2vs0mg"},{"bike_id":"e8e633aa-6913-4f5a-9681-4be6e4fcda77","system_id":"levelo_inurba_marseille","lat":43.28259,"lon":5.35058,"is_reserved":false,"is_disabled":false,"rental_uris":{"android":"levelo://app?vid=e8e633aa-6913-4f5a-9681-4be6e4fcda77","ios":"levelo://app?vid=e8e633aa-6913-4f5a-9681-4be6e4fcda77"},"vehicle_type_id":"4","last_reported":1751098398,"current_range_meters":25200,"station_id":"ce4bhbp2rcd13ifvqerg","pricing_plan_id":"cebpf4jnsgd1na2vs0mg"},{"bike_id":"82e3e61c-49df-491b-9fc4-ae2e83f844b6","system_id":"levelo_inurba_marseille","lat":43.246506,"lon":5.388946,"is_reserved":false,"is_disabled":false,"rental_uris":{"android":"levelo://app?vid=82e3e61c-49df-491b-9fc4-ae2e83f844b6","ios":"levelo://app?vid=82e3e61c-49df-491b-9fc4-ae2e83f844b6"},"vehicle_type_id":"4","last_reported":1751098398,"current_range_meters":25200,"station_id":"ce4bhg12rcd13ifvqf60","pricing_plan_id":"cebpf4jnsgd1na2vs0mg"},{"bike_id":"fcb9be6d-c92f-4d2d-8343-1b27542247e2","system_id":"levelo_inurba_marseille","lat":43.26192,"lon":5.37448,"is_reserved":false,"is_disabled":false,"rental_uris":{"android":"levelo://app?vid=fcb9be6d-c92f-4d2d-8343-1b27542247e2","ios":"levelo://app?vid=fcb9be6d-c92f-4d2d-8343-1b27542247e2"},"vehicle_type_id":"4","last_reported":1751098398,"current_range_meters":25200,"station_id":"ce4bhgp2rcd13ifvqfc0","pricing_plan_id":"cebpf4jnsgd1na2vs0mg"},{"bike_id":"d561c7db-dc6a-4d57-bf25-60725a3382b2","system_id":"levelo_inurba_marseille","lat":43.24389,"lon":5.37063,"is_reserved":false,"is_disabled":false,"rental_uris":{"android":"levelo://app?vid=d561c7db-dc6a-4d57-bf25-60725a3382b2","ios":"levelo://app?vid=d561c7db-dc6a-4d57-bf25-60725a3382b2"},"vehicle_type_id":"4","last_reported":1751098398,"current_range_meters":25200,"station_id":"ce4bhhh2rcd13ifvqfk0","pricing_plan_id":"cebpf4jnsgd1na2vs0mg"},{"bike_id":"6248a3ef-766e-45da-9351-45f0df09d787","system_id":"levelo_inurba_marseille","lat":43.33726,"lon":5.391891,"is_reserved":false,"is_disabled":false,"rental_uris":{"android":"levelo://app?vid=6248a3ef-766e-45da-9351-45f0df09d787","ios":"levelo://app?vid=6248a3ef-766e-45da-9351-45f0df09d787"},"vehicle_type_id":"4","last_reported":1751098398,"current_range_meters":25200,"station_id":"ce4bhr92rcd13ifvqhsg","pricing_plan_id":"cebpf4jnsgd1na2vs0mg"},{"bike_id":"e14bed2b-62a4-4a48-b824-f7b6d3331ad9","system_id":"levelo_inurba_marseille","lat":43.28612,"lon":5.37062,"is_reserved":false,"is_disabled":false,"rental_uris":{"android":"levelo://app?vid=e14bed2b-62a4-4a48-b824-f7b6d3331ad9","ios":"levelo://app?vid=e14bed2b-62a4-4a48-b824-f7b6d3331ad9"},"vehicle_type_id":"4","last_reported":1751098398,"current_range_meters":25200,"station_id":"ce4bht12rcd13ifvqi60","pricing_plan_id":"cebpf4jnsgd1na2vs0mg"},{"bike_id":"8ceb2860-ca09-420a-8aab-fcf0c529a0d3","system_id":"levelo_inurba_marseille","lat":43.21191,"lon":5.35074,"is_reserved":false,"is_disabled":false,"rental_uris":{"android":"levelo://app?vid=8ceb2860-ca09-420a-8aab-fcf0c529a0d3","ios":"levelo://app?vid=8ceb2860-ca09-420a-8aab-fcf0c529a0d3"},"vehicle_type_id":"4","last_reported":1751098398,"current_range_meters":25200,"station_id":"st_cvj6sg6p6f1abm77japg","pricing_plan_id":"cebpf4jnsgd1na2vs0mg"},{"bike_id":"7712491c-e18b-4b09-bb79-30880b357c07","system_id":"levelo_inurba_marseille","lat":43.21187,"lon":5.35049,"is_reserved":false,"is_disabled":false,"rental_uris":{"android":"levelo://app?vid=7712491c-e18b-4b09-bb79-30880b357c07","ios":"levelo://app?vid=7712491c-e18b-4b09-bb79-30880b357c07"},"vehicle_type_id":"4","last_reported":1751098398,"current_range_meters":25200,"station_id":"st_cvj6sg6p6f1abm77japg","pricing_plan_id":"cebpf4jnsgd1na2vs0mg"},{"bike_id":"ee9d32c9-57de-43e5-b2a3-20100be10352","system_id":"levelo_inurba_marseille","lat":43.31125,"lon":5.37746,"is_reserved":false,"is_disabled":false,"rental_uris":{"android":"levelo://app?vid=ee9d32c9-57de-43e5-b2a3-20100be10352","ios":"levelo://app?vid=ee9d32c9-57de-43e5-b2a3-20100be10352"},"vehicle_type_id":"4","last_reported":1751098398,"current_range_meters":25600,"station_id":"ce4bgt92rcd13ifvqcg0","pricing_plan_id":"cebpf4jnsgd1na2vs0mg"},{"bike_id":"29c9192a-23f6-42a9-88e5-776e07aa9675","system_id":"levelo_inurba_marseille","lat":43.28418,"lon":5.34979,"is_reserved":false,"is_disabled":false,"rental_uris":{"android":"levelo://app?vid=29c9192a-23f6-42a9-88e5-776e07aa9675","ios":"levelo://app?vid=29c9192a-23f6-42a9-88e5-776e07aa9675"},"vehicle_type_id":"4","last_reported":1751098398,"current_range_meters":25600,"station_id":"ce4bhbh2rcd13ifvqepg","pricing_plan_id":"cebpf4jnsgd1na2vs0mg"},{"bike_id":"fb512b8c-a635-496f-be49-674804cf3473","system_id":"levelo_inurba_marseille","lat":43.28612,"lon":5.35097,"is_reserved":false,"is_disabled":false,"rental_uris":{"android":"levelo://app?vid=fb512b8c-a635-496f-be49-674804cf3473","ios":"levelo://app?vid=fb512b8c-a635-496f-be49-674804cf3473"},