{"last_updated":1738591726,"ttl":60,"version":"2.2","data":{"bikes":[{"bike_id":"0731d36f-35c9-460b-967c-3fbdf2d55c05","system_id":"levelo_inurba_marseille","lat":43.25112,"lon":5.40327,"is_reserved":false,"is_disabled":false,"rental_uris":{"android":"levelo://app?vid=0731d36f-35c9-460b-967c-3fbdf2d55c05","ios":"levelo://app?vid=0731d36f-35c9-460b-967c-3fbdf2d55c05"},"vehicle_type_id":"4","last_reported":1738591726,"current_range_meters":38800,"station_id":"ce4bhlh2rcd13ifvqgig","pricing_plan_id":"cebpf4jnsgd1na2vs0mg"},{"bike_id":"e91475a5-b081-4f06-b1dd-8358b8a295c8","system_id":"levelo_inurba_marseille","lat":43.29216,"lon":5.36064,"is_reserved":false,"is_disabled":false,"rental_uris":{"android":"levelo://app?vid=e91475a5-b081-4f06-b1dd-8358b8a295c8","ios":"levelo://app?vid=e91475a5-b081-4f06-b1dd-8358b8a295c8"},"vehicle_type_id":"4","last_reported":1738591726,"current_range_meters":37600,"station_id":"ce4bhbh2rcd13ifvqeqg","pricing_plan_id":"cebpf4jnsgd1na2vs0mg"},{"bike_id":"7880d2f6-75fb-4027-8e2a-e7e0a241edc0","system_id":"levelo_inurba_marseille","lat":43.3055,"lon":5.36535,"is_reserved":false,"is_disabled":false,"rental_uris":{"android":"levelo://app?vid=7880d2f6-75fb-4027-8e2a-e7e0a241edc0","ios":"levelo://app?vid=7880d2f6-75fb-4027-8e2a-e7e0a241edc0"},"vehicle_type_id":"4","last_reported":1738591726,"current_range_meters":38800,"station_id":"ce4bgs12rcd13ifvqcag","pricing_plan_id":"cebpf4jnsgd1na2vs0mg"},{"bike_id":"80dc2f71-f702-4d53-ba2b-bf89f26c9d76","system_id":"levelo_inurba_marseille","lat":43.24076,"lon":5.37749,"is_reserved":false,"is_disabled":false,"rental_uris":{"android":"levelo://app?vid=80dc2f71-f702-4d53-ba2b-bf89f26c9d76","ios":"levelo://app?vid=80dc2f71-f702-4d53-ba2b-bf89f26c9d76"},"vehicle_type_id":"4","last_reported":1738591726,"current_range_meters":38800,"station_id":"ce4bhnp2rcd13ifvqgvg","pricing_plan_id":"cebpf4jnsgd1na2vs0mg"},{"bike_id":"f62b1418-78eb-42a3-aeef-8f03403d3bde","system_id":"levelo_inurba_marseille","lat":43.2885,"lon":5.39303,"is_reserved":false,"is_disabled":false,"rental_uris":{"android":"levelo://app?vid=f62b1418-78eb-42a3-aeef-8f03403d3bde","ios":"levelo://app?vid=f62b1418-78eb-42a3-aeef-8f03403d3bde"},"vehicle_type_id":"4","last_reported":1738591726,"current_range_meters":25600,"station_id":"ce4bh2p2rcd13ifvqdi0","pricing_plan_id":"cebpf4jnsgd1na2vs0mg"},{"bike_id":"0d7f9fad-9e50-45bc-8c64-86c79ca23f01","system_id":"levelo_inurba_marseille","lat":43.2439,"lon":5.37061,"is_reserved":false,"is_disabled":false,"rental_uris":{"android":"levelo://app?vid=0d7f9fad-9e50-45bc-8c64-86c79ca23f01","ios":"levelo://app?vid=0d7f9fad-9e50-45bc-8c64-86c79ca23f01"},"vehicle_type_id":"4","last_reported":1738591726,"current_range_meters":17600,"station_id":"ce4bhhh2rcd13ifvqfk0","pricing_plan_id":"cebpf4jnsgd1na2vs0mg"},{"bike_id":"fc814a83-4ff5-43a8-a34b-7b78fc22ed1e","system_id":"levelo_inurba_marseille","lat":43.266865,"lon":5.38272,"is_reserved":false,"is_disabled":true,"rental_uris":{"android":"levelo://app?vid=fc814a83-4ff5-43a8-a34b-7b78fc22ed1e","ios":"levelo://app?vid=fc814a83-4ff5-43a8-a34b-7b78fc22ed1e"},"vehicle_type_id":"4","last_reported":1738591726,"current_range_meters":400,"station_id":"ce4bhg92rcd13ifvqf90","pricing_plan_id":"cebpf4jnsgd1na2vs0mg"},{"bike_id":"da1a72f2-bb87-4b4e-8092-0dadada2970a","system_id":"levelo_inurba_marseille","lat":43.29223,"lon":5.36072,"is_reserved":false,"is_disabled":false,"rental_uris":{"android":"levelo://app?vid=da1a72f2-bb87-4b4e-8092-0dadada2970a","ios":"levelo://app?vid=da1a72f2-bb87-4b4e-8092-0dadada2970a"},"vehicle_type_id":"4","last_reported":1738591726,"current_range_meters":38800,"station_id":"ce4bhbh2rcd13ifvqeqg","pricing_plan_id":"cebpf4jnsgd1na2vs0mg"},{"bike_id":"7ad543c6-fb45-451c-add8-0b23712390bd","system_id":"levelo_inurba_marseille","lat":43.257276,"lon":5.411098,"is_reserved":false,"is_disabled":false,"rental_uris":{"android":"levelo://app?vid=7ad543c6-fb45-451c-add8-0b23712390bd","ios":"levelo://app?vid=7ad543c6-fb45-451c-add8-0b23712390bd"},"vehicle_type_id":"4","last_reported":1738591726,"current_range_meters":22400,"station_id":"cjm6bp8fraef2m0cb0m0","pricing_plan_id":"cebpf4jnsgd1na2vs0mg"},{"bike_id":"e028bef9-de68-41b8-97d0-a5d118a020b1","system_id":"levelo_inurba_marseille","lat":43.27063,"lon":5.4026,"is_reserved":false,"is_disabled":false,"rental_uris":{"android":"levelo://app?vid=e028bef9-de68-41b8-97d0-a5d118a020b1","ios":"levelo://app?vid=e028bef9-de68-41b8-97d0-a5d118a020b1"},"vehicle_type_id":"4","last_reported":1738591726,"current_range_meters":38800,"station_id":"ce4bhk92rcd13ifvqgc0","pricing_plan_id":"cebpf4jnsgd1na2vs0mg"},{"bike_id":"bd49578d-77eb-457b-b3d9-8d75772b9a75","system_id":"levelo_inurba_marseille","lat":43.30534,"lon":5.36722,"is_reserved":false,"is_disabled":false,"rental_uris":{"android":"levelo://app?vid=bd49578d-77eb-457b-b3d9-8d75772b9a75","ios":"levelo://app?vid=bd49578d-77eb-457b-b3d9-8d75772b9a75"},"vehicle_type_id":"4","last_reported":1738591726,"current_range_meters":20800,"station_id":"ce4bgrp2rcd13ifvqc9g","pricing_plan_id":"cebpf4jnsgd1na2vs0mg"},{"bike_id":"39fe4d38-0e6b-4ea1-b4af-c92b785fbb3f","system_id":"levelo_inurba_marseille","lat":43.30546,"lon":5.36533,"is_reserved":false,"is_disabled":false,"rental_uris":{"android":"levelo://app?vid=39fe4d38-0e6b-4ea1-b4af-c92b785fbb3f","ios":"levelo://app?vid=39fe4d38-0e6b-4ea1-b4af-c92b785fbb3f"},"vehicle_type_id":"4","last_reported":1738591726,"current_range_meters":38800,"station_id":"ce4bgs12rcd13ifvqcag","pricing_plan_id":"cebpf4jnsgd1na2vs0mg"},{"bike_id":"1abd4c10-fb00-4948-9735-5c7e538916f7","system_id":"levelo_inurba_marseille","lat":43.31739,"lon":5.37711,"is_reserved":false,"is_disabled":false,"rental_uris":{"android":"levelo://app?vid=1abd4c10-fb00-4948-9735-5c7e538916f7","ios":"levelo://app?vid=1abd4c10-fb00-4948-9735-5c7e538916f7"},"vehicle_type_id":"4","last_reported":1738591726,"current_range_meters":38800,"station_id":"","pricing_plan_id":"cebpf4jnsgd1na2vs0mg"},{"bike_id":"46d57953-5a8b-4a73-a05f-e65f22d873c6","system_id":"levelo_inurba_marseille","lat":43.2706,"lon":5.40266,"is_reserved":false,"is_disabled":false,"rental_uris":{"android":"levelo://app?vid=46d57953-5a8b-4a73-a05f-e65f22d873c6","ios":"levelo://app?vid=46d57953-5a8b-4a73-a05f-e65f22d873c6"},"vehicle_type_id":"4","last_reported":1738591726,"current_range_meters":36800,"station_id":"ce4bhk92rcd13ifvqgc0","pricing_plan_id":"cebpf4jnsgd1na2vs0mg"},{"bike_id":"51e99714-43e1-4b69-bc80-ad86f9cd141f","system_id":"levelo_inurba_marseille","lat":43.28268,"lon":5.35067,"is_reserved":false,"is_disabled":false,"rental_uris":{"android":"levelo://app?vid=51e99714-43e1-4b69-bc80-ad86f9cd141f","ios":"levelo://app?vid=51e99714-43e1-4b69-bc80-ad86f9cd141f"},"vehicle_type_id":"4","last_reported":1738591726,"current_range_meters":32000,"station_id":"ce4bhbp2rcd13ifvqerg","pricing_plan_id":"cebpf4jnsgd1na2vs0mg"},{"bike_id":"cfc3d01a-f1ab-471d-b43e-7573c2126194","system_id":"levelo_inurba_marseille","lat":43.29017,"lon":5.38126,"is_reserved":false,"is_disabled":true,"rental_uris":{"android":"levelo://app?vid=cfc3d01a-f1ab-471d-b43e-7573c2126194","ios":"levelo://app?vid=cfc3d01a-f1ab-471d-b43e-7573c2126194"},"vehicle_type_id":"4","last_reported":1738591726,"current_range_meters":24400,"station_id":"ce4bh4p2rcd13ifvqe1g","pricing_plan_id":"cebpf4jnsgd1na2vs0mg"},{"bike_id":"fc2c2534-6b38-404c-91a0-095506c82e66","system_id":"levelo_inurba_marseille","lat":43.26936,"lon":5.40245,"is_reserved":false,"is_disabled":false,"rental_uris":{"android":"levelo://app?vid=fc2c2534-6b38-404c-91a0-095506c82e66","ios":"levelo://app?vid=fc2c2534-6b38-404c-91a0-095506c82e66"},"vehicle_type_id":"4","last_reported":1738591726,"current_range_meters":37600,"station_id":"cjm6bp8fraef2m0cb0m0","pricing_plan_id":"cebpf4jnsgd1na2vs0mg"},{"bike_id":"d010c190-e3fb-4ff3-8564-c26ac3ae6913","system_id":"levelo_inurba_marseille","lat":43.295215,"lon":5.393986,"is_reserved":false,"is_disabled":false,"rental_uris":{"android":"levelo://app?vid=d010c190-e3fb-4ff3-8564-c26ac3ae6913","ios":"levelo://app?vid=d010c190-e3fb-4ff3-8564-c26ac3ae6913"},"vehicle_type_id":"4","last_reported":1738591726,"current_range_meters":7200,"station_id":"ce4bh292rcd13ifvqdf0","pricing_plan_id":"cebpf4jnsgd1na2vs0mg"},{"bike_id":"4255d86f-6cd2-4c78-b044-c18b3a57a600","system_id":"levelo_inurba_marseille","lat":43.26947,"lon":5.40237,"is_reserved":false,"is_disabled":false,"rental_uris":{"android":"levelo://app?vid=4255d86f-6cd2-4c78-b044-c18b3a57a600","ios":"levelo://app?vid=4255d86f-6cd2-4c78-b044-c18b3a57a600"},"vehicle_type_id":"4","last_reported":1738591726,"current_range_meters":38000,"station_id":"cjm6bp8fraef2m0cb0m0","pricing_plan_id":"cebpf4jnsgd1na2vs0mg"},{"bike_id":"49d702a3-2f94-4939-8d0c-bbe18c7c2959","system_id":"levelo_inurba_marseille","lat":43.30267,"lon":5.37694,"is_reserved":false,"is_disabled":false,"rental_uris":{"android":"levelo://app?vid=49d702a3-2f94-4939-8d0c-bbe18c7c2959","ios":"levelo://app?vid=49d702a3-2f94-4939-8d0c-bbe18c7c2959"},"vehicle_type_id":"4","last_reported":1738591726,"current_range_meters":38800,"station_id":"ce4bguh2rcd13ifvqcj0","pricing_plan_id":"cebpf4jnsgd1na2vs0mg"},{"bike_id":"430d5648-146c-4ec7-bbfa-6e1440b57110","system_id":"levelo_inurba_marseille","lat":43.337444,"lon":5.374475,"is_reserved":false,"is_disabled":false,"rental_uris":{"android":"levelo://app?vid=430d5648-146c-4ec7-bbfa-6e1440b57110","ios":"levelo://app?vid=430d5648-146c-4ec7-bbfa-6e1440b57110"},"vehicle_type_id":"4","last_reported":1738591726,"current_range_meters":21600,"station_id":"","pricing_plan_id":"cebpf4jnsgd1na2vs0mg"},{"bike_id":"3e574816-3754-460d-8072-f6ebe3757ea0","system_id":"levelo_inurba_marseille","lat":43.32355,"lon":5.36757,"is_reserved":false,"is_disabled":false,"rental_uris":{"android":"levelo://app?vid=3e574816-3754-460d-8072-f6ebe3757ea0","ios":"levelo://app?vid=3e574816-3754-460d-8072-f6ebe3757ea0"},"vehicle_type_id":"4","last_reported":1738591726,"current_range_meters":22800,"station_id":"ce4bhsh2rcd13ifvqi2g","pricing_plan_id":"cebpf4jnsgd1na2vs0mg"},{"bike_id":"73c5adb8-0998-4854-bb2c-683f7adc0ad5","system_id":"levelo_inurba_marseille","lat":43.32485,"lon":5.36577,"is_reserved":false,"is_disabled":false,"rental_uris":{"android":"levelo://app?vid=73c5adb8-0998-4854-bb2c-683f7adc0ad5","ios":"levelo://app?vid=73c5adb8-0998-4854-bb2c-683f7adc0ad5"},"vehicle_type_id":"4","last_reported":1738591726,"current_range_meters":27200,"station_id":"ce4bhs12rcd13ifvqhvg","pricing_plan_id":"cebpf4jnsgd1na2vs0mg"},{"bike_id":"c63c9889-3ea1-4a0d-8d6f-f1fa4ddcf28f","system_id":"levelo_inurba_marseille","lat":43.2901,"lon":5.38127,"is_reserved":false,"is_disabled":false,"rental_uris":{"android":"levelo://app?vid=c63c9889-3ea1-4a0d-8d6f-f1fa4ddcf28f","ios":"levelo://app?vid=c63c9889-3ea1-4a0d-8d6f-f1fa4ddcf28f"},"vehicle_type_id":"4","last_reported":1738591726,"current_range_meters":25600,"station_id":"ce4bh4p2rcd13ifvqe1g","pricing_plan_id":"cebpf4jnsgd1na2vs0mg"},{"bike_id":"a1a7079b-68b5-45ca-9af8-b6bc9f7cd559","system_id":"levelo_inurba_marseille","lat":43.22927,"lon":5.35385,"is_reserved":false,"is_disabled":false,"rental_uris":{"android":"levelo://app?vid=a1a7079b-68b5-45ca-9af8-b6bc9f7cd559","ios":"levelo://app?vid=a1a7079b-68b5-45ca-9af8-b6bc9f7cd559"},"vehicle_type_id":"4","last_reported":1738591726,"current_range_meters":38800,"station_id":"cpo3532slgdg3j2ikp40","pricing_plan_id":"cebpf4jnsgd1na2vs0mg"},{"bike_id":"921e8a23-ed2b-419f-a856-fc2e6d38a77b","system_id":"levelo_inurba_marseille","lat":43.27544,"lon":5.38422,"is_reserved":false,"is_disabled":false,"rental_uris":{"android":"levelo://app?vid=921e8a23-ed2b-419f-a856-fc2e6d38a77b","ios":"levelo://app?vid=921e8a23-ed2b-419f-a856-fc2e6d38a77b"},"vehicle_type_id":"4","last_reported":1738591726,"current_range_meters":36800,"station_id":"ce4bhh92rcd13ifvqfi0","pricing_plan_id":"cebpf4jnsgd1na2vs0mg"},{"bike_id":"4a02347c-ae91-4c9d-adba-44e31fcd384a","system_id":"levelo_inurba_marseille","lat":43.28422,"lon":5.3499,"is_reserved":false,"is_disabled":false,"rental_uris":{"android":"levelo://app?vid=4a02347c-ae91-4c9d-adba-44e31fcd384a","ios":"levelo://app?vid=4a02347c-ae91-4c9d-adba-44e31fcd384a"},"vehicle_type_id":"4","last_reported":1738591726,"current_range_meters":8400,"station_id":"ce4bhbh2rcd13ifvqepg","pricing_plan_id":"cebpf4jnsgd1na2vs0mg"},{"bike_id":"bb573b21-f555-4c57-b835-65e11dc8d0cf","system_id":"levelo_inurba_marseille","lat":43.29272,"lon":5.38432,"is_reserved":false,"is_disabled":false,"rental_uris":{"android":"levelo://app?vid=bb573b21-f555-4c57-b835-65e11dc8d0cf","ios":"levelo://app?vid=bb573b21-f555-4c57-b835-65e11dc8d0cf"},"vehicle_type_id":"4","last_reported":1738591726,"current_range_meters":26800,"station_id":"ce4bh692rcd13ifvqea0","pricing_plan_id":"cebpf4jnsgd1na2vs0mg"},{"bike_id":"1e80229c-3730-4f6a-ad92-db35f7d75e3d","system_id":"levelo_inurba_marseille","lat":43.27169,"lon":5.40986,"is_reserved":false,"is_disabled":false,"rental_uris":{"android":"levelo://app?vid=1e80229c-3730-4f6a-ad92-db35f7d75e3d","ios":"levelo://app?vid=1e80229c-3730-4f6a-ad92-db35f7d75e3d"},"vehicle_type_id":"4","last_reported":1738591726,"current_range_meters":39200,"station_id":"ce4bhl12rcd13ifvqgf0","pricing_plan_id":"cebpf4jnsgd1na2vs0mg"},{"bike_id":"0d2839c8-8949-4a3e-8fbc-fcf281c7855d","system_id":"levelo_inurba_marseille","lat":43.2847,"lon":5.35898,"is_reserved":false,"is_disabled":false,"rental_uris":{"android":"levelo://app?vid=0d2839c8-8949-4a3e-8fbc-fcf281c7855d","ios":"levelo://app?vid=0d2839c8-8949-4a3e-8fbc-fcf281c7855d"},"vehicle_type_id":"4","last_reported":1738591726,"current_range_meters":24800,"station_id":"ce4bhah2rcd13ifvqei0","pricing_plan_id":"cebpf4jnsgd1na2vs0mg"},{"bike_id":"b2a6436f-4c95-46dd-a3bd-6af91e9591d2","system_id":"levelo_inurba_marseille","lat":43.25586,"lon":5.38231,"is_reserved":false,"is_disabled":false,"rental_uris":{"android":"levelo://app?vid=b2a6436f-4c95-46dd-a3bd-6af91e9591d2","ios":"levelo://app?vid=b2a6436f-4c95-46dd-a3bd-6af91e9591d2"},"vehicle_type_id":"4","last_reported":1738591726,"current_range_meters":24400,"station_id":"ce4bhih2rcd13ifvqfs0","pricing_plan_id":"cebpf4jnsgd1na2vs0mg"},{"bike_id":"241cb59b-9747-4f5c-9810-5b6d91181483","system_id":"levelo_inurba_marseille","lat":43.28703,"lon":5.37381,"is_reserved":false,"is_disabled":false,"rental_uris":{"android":"levelo://app?vid=241cb59b-9747-4f5c-9810-5b6d91181483","ios":"levelo://app?vid=241cb59b-9747-4f5c-9810-5b6d91181483"},"vehicle_type_id":"4","last_reported":1738591726,"current_range_meters":30000,"station_id":"ce4bh3p2rcd13ifvqdq0","pricing_plan_id":"cebpf4jnsgd1na2vs0mg"},{"bike_id":"e3cfeb5a-9d21-412c-be20-0ee979654d92","system_id":"levelo_inurba_marseille","lat":43.25099,"lon":5.40334,"is_reserved":false,"is_disabled":false,"rental_uris":{"android":"levelo://app?vid=e3cfeb5a-9d21-412c-be20-0ee979654d92","ios":"levelo://app?vid=e3cfeb5a-9d21-412c-be20-0ee979654d92"},"vehicle_type_id":"4","last_reported":1738591726,"current_range_meters":16800,"station_id":"ce4bhlh2rcd13ifvqgig","pricing_plan_id":"cebpf4jnsgd1na2vs0mg"},{"bike_id":"d1b2d7ac-0781-4702-996b-bb19e4a1e027","system_id":"levelo_inurba_marseille","lat":43.23149,"lon":5.43709,"is_reserved":false,"is_disabled":false,"rental_uris":{"android":"levelo://app?vid=d1b2d7ac-0781-4702-996b-bb19e4a1e027","ios":"levelo://app?vid=d1b2d7ac-0781-4702-996b-bb19e4a1e027"},"vehicle_type_id":"4","last_reported":1738591726,"current_range_meters":18000,"station_id":"ce4bhmp2rcd13ifvqgog","pricing_plan_id":"cebpf4jnsgd1na2vs0mg"},{"bike_id":"1a794636-1de8-48ff-a1bf-f41557cb147d","system_id":"levelo_inurba_marseille","lat":43.34619,"lon":5.3807,"is_reserved":false,"is_disabled":false,"rental_uris":{"android":"levelo://app?vid=1a794636-1de8-48ff-a1bf-f41557cb147d","ios":"levelo://app?vid=1a794636-1de8-48ff-a1bf-f41557cb147d"},"vehicle_type_id":"4","last_reported":1738591726,"current_range_meters":18000,"station_id":"","pricing_plan_id":"cebpf4jnsgd1na2vs0mg"},{"bike_id":"1edd7b2e-e82f-4e72-9817-ea746e1c199a","system_id":"levelo_inurba_marseille","lat":43.24648,"lon":5.38892,"is_reserved":false,"is_disabled":false,"rental_uris":{"android":"levelo://app?vid=1edd7b2e-e82f-4e72-9817-ea746e1c199a","ios":"levelo://app?vid=1edd7b2e-e82f-4e72-9817-ea746e1c199a"},"vehicle_type_id":"4","last_reported":1738591726,"current_range_meters":24000,"station_id":"ce4bhg12rcd13ifvqf60","pricing_plan_id":"cebpf4jnsgd1na2vs0mg"},{"bike_id":"8ffd93a7-f1da-4894-a175-b7b2afaf3cb9","system_id":"levelo_inurba_marseille","lat":43.2926,"lon":5.36861,"is_reserved":false,"is_disabled":false,"rental_uris":{"android":"levelo://app?vid=8ffd93a7-f1da-4894-a175-b7b2afaf3cb9","ios":"levelo://app?vid=8ffd93a7-f1da-4894-a175-b7b2afaf3cb9"},"vehicle_type_id":"4","last_reported":1738591726,"current_range_meters":38400,"station_id":"ce4bhbp2rcd13ifvqesg","pricing_plan_id":"cebpf4jnsgd1na2vs0mg"},{"bike_id":"1072a59e-6a14-4a14-b356-7d5cf661bfb6","system_id":"levelo_inurba_marseille","lat":43.3016,"lon":5.37412,"is_reserved":false,"is_disabled":false,"rental_uris":{"android":"levelo://app?vid=1072a59e-6a14-4a14-b356-7d5cf661bfb6","ios":"levelo://app?vid=1072a59e-6a14-4a14-b356-7d5cf661bfb6"},"vehicle_type_id":"4","last_reported":1738591726,"current_range_meters":38000,"station_id":"ce4bgs92rcd13ifvqcc0","pricing_plan_id":"cebpf4jnsgd1na2vs0mg"},{"bike_id":"83ca8427-9b17-4b73-80a8-1af73f48753a","system_id":"levelo_inurba_marseille","lat":43.30882,"lon":5.39636,"is_reserved":false,"is_disabled":false,"rental_uris":{"android":"levelo://app?vid=83ca8427-9b17-4b73-80a8-1af73f48753a","ios":"levelo://app?vid=83ca8427-9b17-4b73-80a8-1af73f48753a"},"vehicle_type_id":"4","last_reported":1738591726,"current_range_meters":32400,"station_id":"ce4bh012rcd13ifvqcv0","pricing_plan_id":"cebpf4jnsgd1na2vs0mg"},{"bike_id":"d081d068-d1d1-43c4-89d3-c3df28a112ef","system_id":"levelo_inurba_marseille","lat":43.29014,"lon":5.35594,"is_reserved":false,"is_disabled":false,"rental_uris":{"android":"levelo://app?vid=d081d068-d1d1-43c4-89d3-c3df28a112ef","ios":"levelo://app?vid=d081d068-d1d1-43c4-89d3-c3df28a112ef"},"vehicle_type_id":"4","last_reported":1738591726,"current_range_meters":19200,"station_id":"ce4bhb92rcd13ifvqen0","pricing_plan_id":"cebpf4jnsgd1na2vs0mg"},{"bike_id":"8364046b-a41f-4133-9aa2-3b91f18e5a80","system_id":"levelo_inurba_marseille","lat":43.28157,"lon":5.42653,"is_reserved":false,"is_disabled":false,"rental_uris":{"android":"levelo://app?vid=8364046b-a41f-4133-9aa2-3b91f18e5a80","ios":"levelo://app?vid=8364046b-a41f-4133-9aa2-3b91f18e5a80"},"vehicle_type_id":"4","last_reported":1738591726,"current_range_meters":9200,"station_id":"ce4bhnh2rcd13ifvqgug","pricing_plan_id":"cebpf4jnsgd1na2vs0mg"},{"bike_id":"70db77fa-5101-4cc3-b5ef-7ecd27e20697","system_id":"levelo_inurba_marseille","lat":43.23055,"lon":5.35492,"is_reserved":false,"is_disabled":false,"rental_uris":{"android":"levelo://app?vid=70db77fa-5101-4cc3-b5ef-7ecd27e20697","ios":"levelo://app?vid=70db77fa-5101-4cc3-b5ef-7ecd27e20697"},"vehicle_type_id":"4","last_reported":1738591726,"current_range_meters":27600,"station_id":"cpo3342slgdg3j2ifvpg","pricing_plan_id":"cebpf4jnsgd1na2vs0mg"},{"bike_id":"38dd8171-df50-4a44-8070-e2633631abe2","system_id":"levelo_inurba_marseille","lat":43.29375,"lon":5.37847,"is_reserved":false,"is_disabled":false,"rental_uris":{"android":"levelo://app?vid=38dd8171-df50-4a44-8070-e2633631abe2","ios":"levelo://app?vid=38dd8171-df50-4a44-8070-e2633631abe2"},"vehicle_type_id":"4","last_reported":1738591726,"current_range_meters":24800,"station_id":"ce4bgjh2rcd13ifvqbf0","pricing_plan_id":"cebpf4jnsgd1na2vs0mg"},{"bike_id":"e33c097b-83d0-40ec-9fbf-364e5b0a9ef8","system_id":"levelo_inurba_marseille","lat":43.23196,"lon":5.35545,"is_reserved":false,"is_disabled":false,"rental_uris":{"android":"levelo://app?vid=e33c097b-83d0-40ec-9fbf-364e5b0a9ef8","ios":"levelo://app?vid=e33c097b-83d0-40ec-9fbf-364e5b0a9ef8"},"vehicle_type_id":"4","last_reported":1738591726,"current_range_meters":38800,"station_id":"ce4bhu92rcd13ifvqi70","pricing_plan_id":"cebpf4jnsgd1na2vs0mg"},{"bike_id":"f0ee6f69-0d7d-40af-9e27-223a4ba42233","system_id":"levelo_inurba_marseille","lat":43.26695,"lon":5.38269,"is_reserved":false,"is_disabled":false,"rental_uris":{"android":"levelo://app?vid=f0ee6f69-0d7d-40af-9e27-223a4ba42233","ios":"levelo://app?vid=f0ee6f69-0d7d-40af-9e27-223a4ba42233"},"vehicle_type_id":"4","last_reported":1738591726,"current_range_meters":28400,"station_id":"ce4bhg92rcd13ifvqf90","pricing_plan_id":"cebpf4jnsgd1na2vs0mg"},{"bike_id":"8210c432-ac74-47b7-8e64-bb053ed8969d","system_id":"levelo_inurba_marseille","lat":43.31187,"lon":5.36896,"is_reserved":false,"is_disabled":false,"rental_uris":{"android":"levelo://app?vid=8210c432-ac74-47b7-8e64-bb053ed8969d","ios":"levelo://app?vid=8210c432-ac74-47b7-8e64-bb053ed8969d"},"vehicle_type_id":"4","last_reported":1738591726,"current_range_meters":8800,"station_id":"","pricing_plan_id":"cebpf4jnsgd1na2vs0mg"},{"bike_id":"2c690888-32aa-449a-908e-291aa526507f","system_id":"levelo_inurba_marseille","lat":43.27878,"lon":5.39193,"is_reserved":false,"is_disabled":false,"rental_uris":{"android":"levelo://app?vid=2c690888-32aa-449a-908e-291aa526507f","ios":"levelo://app?vid=2c690888-32aa-449a-908e-291aa526507f"},"vehicle_type_id":"4","last_reported":1738591726,"current_range_meters":35600,"station_id":"ce4bhjp2rcd13ifvqga0","pricing_plan_id":"cebpf4jnsgd1na2vs0mg"},{"bike_id":"88a9606f-57eb-4ada-bcd9-9d189bfeae6e","system_id":"levelo_inurba_marseille","lat":43.31338,"lon":5.36711,"is_reserved":false,"is_disabled":false,"rental_uris":{"android":"levelo://app?vid=88a9606f-57eb-4ada-bcd9-9d189bfeae6e","ios":"levelo://app?vid=88a9606f-57eb-4ada-bcd9-9d189bfeae6e"},"vehicle_type_id":"4","last_reported":1738591726,"current_range_meters":14800,"station_id":"ce4bgr92rcd13ifvqc6g","pricing_plan_id":"cebpf4jnsgd1na2vs0mg"},{"bike_id":"965eadaa-c150-4624-b3c2-7d3c174bc6b8","system_id":"levelo_inurba_marseille","lat":43.29215,"lon":5.36063,"is_reserved":false,"is_disabled":false,"rental_uris":{"android":"levelo://app?vid=965eadaa-c150-4624-b3c2-7d3c174bc6b8","ios":"levelo://app?vid=965eadaa-c150-4624-b3c2-7d3c174bc6b8"},"vehicle_type_id":"4","last_reported":1738591726,"current_range_meters":38400,"station_id":"ce4bhbh2rcd13ifvqeqg","pricing_plan_id":"cebpf4jnsgd1na2vs0mg"},{"bike_id":"98aea7c6-6ead-45cc-83b7-57b81452bc31","system_id":"levelo_inurba_marseille","lat":43.28414,"lon":5.37515,"is_reserved":false,"is_disabled":false,"rental_uris":{"android":"levelo://app?vid=98aea7c6-6ead-45cc-83b7-57b81452bc31","ios":"levelo://app?vid=98aea7c6-6ead-45cc-83b7-57b81452bc31"},"vehicle_type_id":"4","last_reported":1738591726,"current_range_meters":25600,"station_id":"ce4bh412rcd13ifvqds0","pricing_plan_id":"cebpf4jnsgd1na2vs0mg"},{"bike_id":"831763d7-f1a1-44bf-b1f7-71c2dd326680","system_id":"levelo_inurba_marseille","lat":43.28081,"lon":5.39657,"is_reserved":false,"is_disabled":false,"rental_uris":{"android":"levelo://app?vid=831763d7-f1a1-44bf-b1f7-71c2dd326680","ios":"levelo://app?vid=831763d7-f1a1-44bf-b1f7-71c2dd326680"},"vehicle_type_id":"4","last_reported":1738591726,"current_range_meters":21600,"station_id":"ce4bho12rcd13ifvqh2g","pricing_plan_id":"cebpf4jnsgd1na2vs0mg"},{"bike_id":"de27dfc9-f2fb-4778-8226-69a993c0eb2e","system_id":"levelo_inurba_marseille","lat":43.24555,"lon":5.3952,"is_reserved":false,"is_disabled":false,"rental_uris":{"android":"levelo://app?vid=de27dfc9-f2fb-4778-8226-69a993c0eb2e","ios":"levelo://app?vid=de27dfc9-f2fb-4778-8226-69a993c0eb2e"},"vehicle_type_id":"4","last_reported":1738591726,"current_range_meters":38800,"station_id":"ce4bhlp2rcd13ifvqgjg","pricing_plan_id":"cebpf4jnsgd1na2vs0mg"},{"bike_id":"053b7c86-8fa2-42a0-8ea3-d5126e8cd464","system_id":"levelo_inurba_marseille","lat":43.28147,"lon":5.42644,"is_reserved":false,"is_disabled":false,"rental_uris":{"android":"levelo://app?vid=053b7c86-8fa2-42a0-8ea3-d5126e8cd464","ios":"levelo://app?vid=053b7c86-8fa2-42a0-8ea3-d5126e8cd464"},"vehicle_type_id":"4","last_reported":1738591726,"current_range_meters":29600,"station_id":"ce4bhnh2rcd13ifvqgug","pricing_plan_id":"cebpf4jnsgd1na2vs0mg"},{"bike_id":"761f8c7e-e88b-48dc-b0de-7607c12c337a","system_id":"levelo_inurba_marseille","lat":43.25007,"lon":5.3892,"is_reserved":false,"is_disabled":false,"rental_uris":{"android":"levelo://app?vid=761f8c7e-e88b-48dc-b0de-7607c12c337a","ios":"levelo://app?vid=761f8c7e-e88b-48dc-b0de-7607c12c337a"},"vehicle_type_id":"4","last_reported":1738591726,"current_range_meters":12800,"station_id":"ce4bhgp2rcd13ifvqfd0","pricing_plan_id":"cebpf4jnsgd1na2vs0mg"},{"bike_id":"5cec77fb-14d3-4ecb-af74-10163858df0a","system_id":"levelo_inurba_marseille","lat":43.24379,"lon":5.37051,"is_reserved":false,"is_disabled":false,"rental_uris":{"android":"levelo://app?vid=5cec77fb-14d3-4ecb-af74-10163858df0a","ios":"levelo://app?vid=5cec77fb-14d3-4ecb-af74-10163858df0a"},"vehicle_type_id":"4","last_reported":1738591726,"current_range_meters":34000,"station_id":"ce4bhhh2rcd13ifvqfk0","pricing_plan_id":"cebpf4jnsgd1na2vs0mg"},{"bike_id":"8f8e7e1b-d7ba-4a41-a821-229e26912b0f","system_id":"levelo_inurba_marseille","lat":43.24075,"lon":5.37767,"is_reserved":false,"is_disabled":false,"rental_uris":{"android":"levelo://app?vid=8f8e7e1b-d7ba-4a41-a821-229e26912b0f","ios":"levelo://app?vid=8f8e7e1b-d7ba-4a41-a821-229e26912b0f"},"vehicle_type_id":"4","last_reported":1738591726,"current_range_meters":10800,"station_id":"ce4bhnp2rcd13ifvqgvg","pricing_plan_id":"cebpf4jnsgd1na2vs0mg"},{"bike_id":"89887b4f-d13d-48c5-baf0-23a3ebf8279c","system_id":"levelo_inurba_marseille","lat":43.24084,"lon":5.37762,"is_reserved":false,"is_disabled":false,"rental_uris":{"android":"levelo://app?vid=89887b4f-d13d-48c5-baf0-23a3ebf8279c","ios":"levelo://app?vid=89887b4f-d13d-48c5-baf0-23a3ebf8279c"},"vehicle_type_id":"4","last_reported":1738591726,"current_range_meters":38000,"station_id":"ce4bhnp2rcd13ifvqgvg","pricing_plan_id":"cebpf4jnsgd1na2vs0mg"},{"bike_id":"854497b7-7ee5-4b33-8767-ba7c6c869db7","system_id":"levelo_inurba_marseille","lat":43.29577,"lon":5.37504,"is_reserved":false,"is_disabled":false,"rental_uris":{"android":"levelo://app?vid=854497b7-7ee5-4b33-8767-ba7c6c869db7","ios":"levelo://app?vid=854497b7-7ee5-4b33-8767-ba7c6c869db7"},"vehicle_type_id":"4","last_reported":1738591726,"current_range_meters":7200,"station_id":"ce4bgh92rcd13ifvqb50","pricing_plan_id":"cebpf4jnsgd1na2vs0mg"},{"bike_id":"23cc1d8c-6ad5-47f8-b9ec-b710501dc6db","system_id":"levelo_inurba_marseille","lat":43.28439,"lon":5.39219,"is_reserved":false,"is_disabled":false,"rental_uris":{"android":"levelo://app?vid=23cc1d8c-6ad5-47f8-b9ec-b710501dc6db","ios":"levelo://app?vid=23cc1d8c-6ad5-47f8-b9ec-b710501dc6db"},"vehicle_type_id":"4","last_reported":1738591726,"current_range_meters":22800,"station_id":"ce4bhoh2rcd13ifvqh5g","pricing_plan_id":"cebpf4jnsgd1na2vs0mg"},{"bike_id":"0ac6cd4f-230f-4dc4-9a01-0462a0d48de7","system_id":"levelo_inurba_marseille","lat":43.29619,"lon":5.3717,"is_reserved":false,"is_disabled":false,"rental_uris":{"android":"levelo://app?vid=0ac6cd4f-230f-4dc4-9a01-0462a0d48de7","ios":"levelo://app?vid=0ac6cd4f-230f-4dc4-9a01-0462a0d48de7"},"vehicle_type_id":"4","last_reported":1738591726,"current_range_meters":24000,"station_id":"ce4bgnh2rcd13ifvqc0g","pricing_plan_id":"cebpf4jnsgd1na2vs0mg"},{"bike_id":"540346b4-cbca-4f3c-af3d-8277cc08eee2","system_id":"levelo_inurba_marseille","lat":43.29859,"lon":5.39728,"is_reserved":false,"is_disabled":false,"rental_uris":{"android":"levelo://app?vid=540346b4-cbca-4f3c-af3d-8277cc08eee2","ios":"levelo://app?vid=540346b4-cbca-4f3c-af3d-8277cc08eee2"},"vehicle_type_id":"4","last_reported":1738591726,"current_range_meters":33600,"station_id":"ce4bh0h2rcd13ifvqd50","pricing_plan_id":"cebpf4jnsgd1na2vs0mg"},{"bike_id":"3ab0ceb6-cd89-477f-8038-1be761eb4bda","system_id":"levelo_inurba_marseille","lat":43.29223,"lon":5.36051,"is_reserved":false,"is_disabled":false,"rental_uris":{"android":"levelo://app?vid=3ab0ceb6-cd89-477f-8038-1be761eb4bda","ios":"levelo://app?vid=3ab0ceb6-cd89-477f-8038-1be761eb4bda"},"vehicle_type_id":"4","last_reported":1738591726,"current_range_meters":18000,"station_id":"ce4bhbh2rcd13ifvqeqg","pricing_plan_id":"cebpf4jnsgd1na2vs0mg"},{"bike_id":"ec4a35f5-4c8d-43d6-bd79-61d936024c79","system_id":"levelo_inurba_marseille","lat":43.28281,"lon":5.35099,"is_reserved":false,"is_disabled":false,"rental_uris":{"android":"levelo://app?vid=ec4a35f5-4c8d-43d6-bd79-61d936024c79","ios":"levelo://app?vid=ec4a35f5-4c8d-43d6-bd79-61d936024c79"},"vehicle_type_id":"4","last_reported":1738591726,"current_range_meters":30800,"station_id":"ce4bhbp2rcd13ifvqerg","pricing_plan_id":"cebpf4jnsgd1na2vs0mg"},{"bike_id":"8e599b88-5a17-40c8-a99e-aa5dfac0c156","system_id":"levelo_inurba_marseille","lat":43.24796,"lon":5.37472,"is_reserved":false,"is_disabled":false,"rental_uris":{"android":"levelo://app?vid=8e599b88-5a17-40c8-a99e-aa5dfac0c156","ios":"levelo://app?vid=8e599b88-5a17-40c8-a99e-aa5dfac0c156"},"vehicle_type_id":"4","last_reported":1738591726,"current_range_meters":30000,"station_id":"ce4bhgh2rcd13ifvqfb0","pricing_plan_id":"cebpf4jnsgd1na2vs0mg"},{"bike_id":"54b623f5-1670-46b2-8c20-f6dc7904193a","system_id":"levelo_inurba_marseille","lat":43.29086,"lon":5.38118,"is_reserved":false,"is_disabled":false,"rental_uris":{"android":"levelo://app?vid=54b623f5-1670-46b2-8c20-f6dc7904193a","ios":"levelo://app?vid=54b623f5-1670-46b2-8c20-f6dc7904193a"},"vehicle_type_id":"4","last_reported":1738591726,"current_range_meters":17600,"station_id":"ce4bh512rcd13ifvqe2g","pricing_plan_id":"cebpf4jnsgd1na2vs0mg"},{"bike_id":"336ba170-f212-47ec-a8a9-236ae819b98c","system_id":"levelo_inurba_marseille","lat":43.30897,"lon":5.37224,"is_reserved":false,"is_disabled":false,"rental_uris":{"android":"levelo://app?vid=336ba170-f212-47ec-a8a9-236ae819b98c","ios":"levelo://app?vid=336ba170-f212-47ec-a8a9-236ae819b98c"},"vehicle_type_id":"4","last_reported":1738591726,"current_range_meters":28800,"station_id":"ce4bguh2rcd13ifvqckg","pricing_plan_id":"cebpf4jnsgd1na2vs0mg"},{"bike_id":"040c186f-291f-4f61-a54f-cd742e5fa1c4","system_id":"levelo_inurba_marseille","lat":43.32485,"lon":5.36557,"is_reserved":false,"is_disabled":false,"rental_uris":{"android":"levelo://app?vid=040c186f-291f-4f61-a54f-cd742e5fa1c4","ios":"levelo://app?vid=040c186f-291f-4f61-a54f-cd742e5fa1c4"},"vehicle_type_id":"4","last_reported":1738591726,"current_range_meters":12800,"station_id":"ce4bhs12rcd13ifvqhvg","pricing_plan_id":"cebpf4jnsgd1na2vs0mg"},{"bike_id":"d84fcdca-c91f-4b90-96af-b490fd4b3889","system_id":"levelo_inurba_marseille","lat":43.26558,"lon":5.39022,"is_reserved":false,"is_disabled":false,"rental_uris":{"android":"levelo://app?vid=d84fcdca-c91f-4b90-96af-b490fd4b3889","ios":"levelo://app?vid=d84fcdca-c91f-4b90-96af-b490fd4b3889"},"vehicle_type_id":"4","last_reported":1738591726,"current_range_meters":38400,"station_id":"ce4bhe12rcd13ifvqf30","pricing_plan_id":"cebpf4jnsgd1na2vs0mg"},{"bike_id":"4e8d7c8d-4293-4a28-9fc6-2f0611784c68","system_id":"levelo_inurba_marseille","lat":43.305485,"lon":5.384305,"is_reserved":false,"is_disabled":false,"rental_uris":{"android":"levelo://app?vid=4e8d7c8d-4293-4a28-9fc6-2f0611784c68","ios":"levelo://app?vid=4e8d7c8d-4293-4a28-9fc6-2f0611784c68"},"vehicle_type_id":"4","last_reported":1738591726,"current_range_meters":39200,"station_id":"ce4bgg92rcd13ifvqb30","pricing_plan_id":"cebpf4jnsgd1na2vs0mg"},{"bike_id":"46f61b18-f140-4804-babf-9c179a20af28","system_id":"levelo_inurba_marseille","lat":43.30606,"lon":5.37218,"is_reserved":false,"is_disabled":false,"rental_uris":{"android":"levelo://app?vid=46f61b18-f140-4804-babf-9c179a20af28","ios":"levelo://app?vid=46f61b18-f140-4804-babf-9c179a20af28"},"vehicle_type_id":"4","last_reported":1738591726,"current_range_meters":30400,"station_id":"ce4bgqh2rcd13ifvqc4g","pricing_plan_id":"cebpf4jnsgd1na2vs0mg"},{"bike_id":"fd3d96e7-ab9e-49b9-8fde-ad45645e97d7","system_id":"levelo_inurba_marseille","lat":43.31208,"lon":5.36844,"is_reserved":false,"is_disabled":false,"rental_uris":{"android":"levelo://app?vid=fd3d96e7-ab9e-49b9-8fde-ad45645e97d7","ios":"levelo://app?vid=fd3d96e7-ab9e-49b9-8fde-ad45645e97d7"},"vehicle_type_id":"4","last_reported":1738591726,"current_range_meters":38800,"station_id":"ce4bgl92rcd13ifvqbq0","pricing_plan_id":"cebpf4jnsgd1na2vs0mg"},{"bike_id":"ebd54e97-9be8-4143-840e-77c8786e8ad7","system_id":"levelo_inurba_marseille","lat":43.28265,"lon":5.35106,"is_reserved":false,"is_disabled":false,"rental_uris":{"android":"levelo://app?vid=ebd54e97-9be8-4143-840e-77c8786e8ad7","ios":"levelo://app?vid=ebd54e97-9be8-4143-840e-77c8786e8ad7"},"vehicle_type_id":"4","last_reported":1738591726,"current_range_meters":37600,"station_id":"ce4bhbp2rcd13ifvqerg","pricing_plan_id":"cebpf4jnsgd1na2vs0mg"},{"bike_id":"696002b9-a104-4938-b849-ab1cc8be9a0d","system_id":"levelo_inurba_marseille","lat":43.31362,"lon":5.38498,"is_reserved":false,"is_disabled":false,"rental_uris":{"android":"levelo://app?vid=696002b9-a104-4938-b849-ab1cc8be9a0d","ios":"levelo://app?vid=696002b9-a104-4938-b849-ab1cc8be9a0d"},"vehicle_type_id":"4","last_reported":1738591726,"current_range_meters":24000,"station_id":"ce4bgt92rcd13ifvqcf0","pricing_plan_id":"cebpf4jnsgd1na2vs0mg"},{"bike_id":"932e631e-8837-4f8e-b148-8a51a367af40","system_id":"levelo_inurba_marseille","lat":43.27055,"lon":5.4026,"is_reserved":false,"is_disabled":false,"rental_uris":{"android":"levelo://app?vid=932e631e-8837-4f8e-b148-8a51a367af40","ios":"levelo://app?vid=932e631e-8837-4f8e-b148-8a51a367af40"},"vehicle_type_id":"4","last_reported":1738591726,"current_range_meters":16800,"station_id":"ce4bhk92rcd13ifvqgc0","pricing_plan_id":"cebpf4jnsgd1na2vs0mg"},{"bike_id":"ed6939b1-0552-41c7-890a-7d84dc3f3ea1","system_id":"levelo_inurba_marseille","lat":43.27494,"lon":5.42465,"is_reserved":false,"is_disabled":false,"rental_uris":{"android":"levelo://app?vid=ed6939b1-0552-41c7-890a-7d84dc3f3ea1","ios":"levelo://app?vid=ed6939b1-0552-41c7-890a-7d84dc3f3ea1"},"vehicle_type_id":"4","last_reported":1738591726,"current_range_meters":16000,"station_id":"ce4bhn92rcd13ifvqgrg","pricing_plan_id":"cebpf4jnsgd1na2vs0mg"},{"bike_id":"5a5d65f7-44a0-4c82-8a2d-fefb7621e547","system_id":"levelo_inurba_marseille","lat":43.25827,"lon":5.3943,"is_reserved":false,"is_disabled":false,"rental_uris":{"android":"levelo://app?vid=5a5d65f7-44a0-4c82-8a2d-fefb7621e547","ios":"levelo://app?vid=5a5d65f7-44a0-4c82-8a2d-fefb7621e547"},"vehicle_type_id":"4","last_reported":1738591726,"current_range_meters":16400,"station_id":"ce4bhip2rcd13ifvqft0","pricing_plan_id":"cebpf4jnsgd1na2vs0mg"},{"bike_id":"d956c0fa-8e81-4a5c-a819-66560ebeacd2","system_id":"levelo_inurba_marseille","lat":43.2816,"lon":5.4264,"is_reserved":false,"is_disabled":false,"rental_uris":{"android":"levelo://app?vid=d956c0fa-8e81-4a5c-a819-66560ebeacd2","ios":"levelo://app?vid=d956c0fa-8e81-4a5c-a819-66560ebeacd2"},"vehicle_type_id":"4","last_reported":1738591726,"current_range_meters":10000,"station_id":"ce4bhnh2rcd13ifvqgug","pricing_plan_id":"cebpf4jnsgd1na2vs0mg"},{"bike_id":"f244e935-f47c-469b-8618-2bbee7eb120e","system_id":"levelo_inurba_marseille","lat":43.3133,"lon":5.39691,"is_reserved":false,"is_disabled":false,"rental_uris":{"android":"levelo://app?vid=f244e935-f47c-469b-8618-2bbee7eb120e","ios":"levelo://app?vid=f244e935-f47c-469b-8618-2bbee7eb120e"},"vehicle_type_id":"4","last_reported":1738591726,"current_range_meters":30800,"station_id":"ce4bgvp2rcd13ifvqcu0","pricing_plan_id":"cebpf4jnsgd1na2vs0mg"},{"bike_id":"21c89297-c791-4464-9214-e643c17f7aa6","system_id":"levelo_inurba_marseille","lat":43.31334,"lon":5.39689,"is_reserved":false,"is_disabled":false,"rental_uris":{"android":"levelo://app?vid=21c89297-c791-4464-9214-e643c17f7aa6","ios":"levelo://app?vid=21c89297-c791-4464-9214-e643c17f7aa6"},"vehicle_type_id":"4","last_reported":1738591726,"current_range_meters":38800,"station_id":"ce4bgvp2rcd13ifvqcu0","pricing_plan_id":"cebpf4jnsgd1na2vs0mg"},{"bike_id":"2355202b-186c-4c74-aaa3-4f6baf997d1e","system_id":"levelo_inurba_marseille","lat":43.24077,"lon":5.37756,"is_reserved":false,"is_disabled":false,"rental_uris":{"android":"levelo://app?vid=2355202b-186c-4c74-aaa3-4f6baf997d1e","ios":"levelo://app?vid=2355202b-186c-4c74-aaa3-4f6baf997d1e"},"vehicle_type_id":"4","last_reported":1738591726,"current_range_meters":9600,"station_id":"ce4bhnp2rcd13ifvqgvg","pricing_plan_id":"cebpf4jnsgd1na2vs0mg"},{"bike_id":"5045241e-a08e-4cc4-a8c8-fb0350c585fb","system_id":"levelo_inurba_marseille","lat":43.26583,"lon":5.39007,"is_reserved":false,"is_disabled":false,"rental_uris":{"android":"levelo://app?vid=5045241e-a08e-4cc4-a8c8-fb0350c585fb","ios":"levelo://app?vid=5045241e-a08e-4cc4-a8c8-fb0350c585fb"},"vehicle_type_id":"4","last_reported":1738591726,"current_range_meters":34000,"station_id":"ce4bhe12rcd13ifvqf30","pricing_plan_id":"cebpf4jnsgd1na2vs0mg"},{"bike_id":"81b9e729-0424-4be5-a02c-7ed3e9405cc1","system_id":"levelo_inurba_marseille","lat":43.28466,"lon":5.38415,"is_reserved":false,"is_disabled":false,"rental_uris":{"android":"levelo://app?vid=81b9e729-0424-4be5-a02c-7ed3e9405cc1","ios":"levelo://app?vid=81b9e729-0424-4be5-a02c-7ed3e9405cc1"},"vehicle_type_id":"4","last_reported":1738591726,"current_range_meters":38800,"station_id":"ce4bh512rcd13ifvqe3g","pricing_plan_id":"cebpf4jnsgd1na2vs0mg"},{"bike_id":"9852d283-9027-465c-82cf-12dda472aabb","system_id":"levelo_inurba_marseille","lat":43.30538,"lon":5.36694,"is_reserved":false,"is_disabled":false,"rental_uris":{"android":"levelo://app?vid=9852d283-9027-465c-82cf-12dda472aabb","ios":"levelo://app?vid=9852d283-9027-465c-82cf-12dda472aabb"},"vehicle_type_id":"4","last_reported":1738591726,"current_range_meters":33600,"station_id":"ce4bgrp2rcd13ifvqc9g","pricing_plan_id":"cebpf4jnsgd1na2vs0mg"},{"bike_id":"20e08c27-f0f9-4064-a833-9891dc0bf30e","system_id":"levelo_inurba_marseille","lat":43.28358,"lon":5.381,"is_reserved":false,"is_disabled":true,"rental_uris":{"android":"levelo://app?vid=20e08c27-f0f9-4064-a833-9891dc0bf30e","ios":"levelo://app?vid=20e08c27-f0f9-4064-a833-9891dc0bf30e"},"vehicle_type_id":"4","last_reported":1738591726,"current_range_meters":8800,"station_id":"ce4bh412rcd13ifvqdr0","pricing_plan_id":"cebpf4jnsgd1na2vs0mg"},{"bike_id":"6f99bdd8-0664-4844-8e13-433c83a27ef2","system_id":"levelo_inurba_marseille","lat":43.26682,"lon":5.38262,"is_reserved":false,"is_disabled":false,"rental_uris":{"android":"levelo://app?vid=6f99bdd8-0664-4844-8e13-433c83a27ef2","ios":"levelo://app?vid=6f99bdd8-0664-4844-8e13-433c83a27ef2"},"vehicle_type_id":"4","last_reported":1738591726,"current_range_meters":39200,"station_id":"ce4bhg92rcd13ifvqf90","pricing_plan_id":"cebpf4jnsgd1na2vs0mg"},{"bike_id":"960b3dc6-24e4-4549-af43-c7149fb4fbf7","system_id":"levelo_inurba_marseille","lat":43.25893,"lon":5.4085,"is_reserved":false,"is_disabled":false,"rental_uris":{"android":"levelo://app?vid=960b3dc6-24e4-4549-af43-c7149fb4fbf7","ios":"levelo://app?vid=960b3dc6-24e4-4549-af43-c7149fb4fbf7"},"vehicle_type_id":"4","last_reported":1738591726,"current_range_meters":22400,"station_id":"","pricing_plan_id":"cebpf4jnsgd1na2vs0mg"},{"bike_id":"b8a10bf8-9efc-40f9-befa-1c1b083e6e8f","system_id":"levelo_inurba_marseille","lat":43.30147,"lon":5.37425,"is_reserved":false,"is_disabled":false,"rental_uris":{"android":"levelo://app?vid=b8a10bf8-9efc-40f9-befa-1c1b083e6e8f","ios":"levelo://app?vid=b8a10bf8-9efc-40f9-befa-1c1b083e6e8f"},"vehicle_type_id":"4","last_reported":1738591726,"current_range_meters":38800,"station_id":"ce4bgs92rcd13ifvqcc0","pricing_plan_id":"cebpf4jnsgd1na2vs0mg"},{"bike_id":"4922d910-738e-4c32-b977-abc56876919c","system_id":"levelo_inurba_marseille","lat":43.32477,"lon":5.36575,"is_reserved":false,"is_disabled":false,"rental_uris":{"android":"levelo://app?vid=4922d910-738e-4c32-b977-abc56876919c","ios":"levelo://app?vid=4922d910-738e-4c32-b977-abc56876919c"},"vehicle_type_id":"4","last_reported":1738591726,"current_range_meters":34000,"station_id":"ce4bhs12rcd13ifvqhvg","pricing_plan_id":"cebpf4jnsgd1na2vs0mg"},{"bike_id":"88f6ec14-1047-428a-bfc8-ed7564b679d3","system_id":"levelo_inurba_marseille","lat":43.244023,"lon":5.370665,"is_reserved":false,"is_disabled":false,"rental_uris":{"android":"levelo://app?vid=88f6ec14-1047-428a-bfc8-ed7564b679d3","ios":"levelo://app?vid=88f6ec14-1047-428a-bfc8-ed7564b679d3"},"vehicle_type_id":"4","last_reported":1738591726,"current_range_meters":8400,"station_id":"ce4bhhh2rcd13ifvqfk0","pricing_plan_id":"cebpf4jnsgd1na2vs0mg"},{"bike_id":"e0778fc6-7190-430e-bd4d-8fa94535928f","system_id":"levelo_inurba_marseille","lat":43.29308,"lon":5.37178,"is_reserved":false,"is_disabled":false,"rental_uris":{"android":"levelo://app?vid=e0778fc6-7190-430e-bd4d-8fa94535928f","ios":"levelo://app?vid=e0778fc6-7190-430e-bd4d-8fa94535928f"},"vehicle_type_id":"4","last_reported":1738591726,"current_range_meters":36400,"station_id":"ce4bgh92rcd13ifvqb40","pricing_plan_id":"cebpf4jnsgd1na2vs0mg"},{"bike_id":"b238d109-7573-4ab1-97c7-ebb4220ae2eb","system_id":"levelo_inurba_marseille","lat":43.33717,"lon":5.39176,"is_reserved":false,"is_disabled":false,"rental_uris":{"android":"levelo://app?vid=b238d109-7573-4ab1-97c7-ebb4220ae2eb","ios":"levelo://app?vid=b238d109-7573-4ab1-97c7-ebb4220ae2eb"},"vehicle_type_id":"4","last_reported":1738591726,"current_range_meters":38800,"station_id":"ce4bhr92rcd13ifvqhsg","pricing_plan_id":"cebpf4jnsgd1na2vs0mg"},{"bike_id":"fad26299-4859-48d9-af16-461be31a4018","system_id":"levelo_inurba_marseille","lat":43.23205,"lon":5.39987,"is_reserved":false,"is_disabled":true,"rental_uris":{"android":"levelo://app?vid=fad26299-4859-48d9-af16-461be31a4018","ios":"levelo://app?vid=fad26299-4859-48d9-af16-461be31a4018"},"vehicle_type_id":"4","last_reported":1738591726,"current_range_meters":1200,"station_id":"ce4bhn12rcd13ifvqgqg","pricing_plan_id":"cebpf4jnsgd1na2vs0mg"},{"bike_id":"737292e1-4a7b-4742-800d-578ccd528124","system_id":"levelo_inurba_marseille","lat":43.24083,"lon":5.37764,"is_reserved":false,"is_disabled":false,"rental_uris":{"android":"levelo://app?vid=737292e1-4a7b-4742-800d-578ccd528124","ios":"levelo://app?vid=737292e1-4a7b-4742-800d-578ccd528124"},"vehicle_type_id":"4","last_reported":1738591726,"current_range_meters":39200,"station_id":"ce4bhnp2rcd13ifvqgvg","pricing_plan_id":"cebpf4jnsgd1na2vs0mg"},{"bike_id":"330b3d2d-d2cc-48ed-812f-2962ec3cf786","system_id":"levelo_inurba_marseille","lat":43.26567,"lon":5.39002,"is_reserved":false,"is_disabled":false,"rental_uris":{"android":"levelo://app?vid=330b3d2d-d2cc-48ed-812f-2962ec3cf786","ios":"levelo://app?vid=330b3d2d-d2cc-48ed-812f-2962ec3cf786"},"vehicle_type_id":"4","last_reported":1738591726,"current_range_meters":29600,"station_id":"ce4bhe12rcd13ifvqf30","pricing_plan_id":"cebpf4jnsgd1na2vs0mg"},{"bike_id":"303e4d28-92a5-40f0-84ab-0b370010d297","system_id":"levelo_inurba_marseille","lat":43.281573,"lon":5.426395,"is_reserved":false,"is_disabled":false,"rental_uris":{"android":"levelo://app?vid=303e4d28-92a5-40f0-84ab-0b370010d297","ios":"levelo://app?vid=303e4d28-92a5-40f0-84ab-0b370010d297"},"vehicle_type_id":"4","last_reported":1738591726,"current_range_meters":26800,"station_id":"ce4bhnh2rcd13ifvqgug","pricing_plan_id":"cebpf4jnsgd1na2vs0mg"},{"bike_id":"a1cecde7-649f-4649-b593-274521c6fb10","system_id":"levelo_inurba_marseille","lat":43.32487,"lon":5.36572,"is_reserved":false,"is_disabled":false,"rental_uris":{"android":"levelo://app?vid=a1cecde7-649f-4649-b593-274521c6fb10","ios":"levelo://app?vid=a1cecde7-649f-4649-b593-274521c6fb10"},"vehicle_type_id":"4","last_reported":1738591726,"current_range_meters":36400,"station_id":"ce4bhs12rcd13ifvqhvg","pricing_plan_id":"cebpf4jnsgd1na2vs0mg"},{"bike_id":"1a745388-20e2-4a43-a82d-92fa1e046657","system_id":"levelo_inurba_marseille","lat":43.29882,"lon":5.39733,"is_reserved":false,"is_disabled":false,"rental_uris":{"android":"levelo://app?vid=1a745388-20e2-4a43-a82d-92fa1e046657","ios":"levelo://app?vid=1a745388-20e2-4a43-a82d-92fa1e046657"},"vehicle_type_id":"4","last_reported":1738591726,"current_range_meters":21600,"station_id":"ce4bh0h2rcd13ifvqd50","pricing_plan_id":"cebpf4jnsgd1na2vs0mg"},{"bike_id":"79500cc6-8b4c-4098-9e85-6d2049d71809","system_id":"levelo_inurba_marseille","lat":43.28255,"lon":5.35091,"is_reserved":false,"is_disabled":false,"rental_uris":{"android":"levelo://app?vid=79500cc6-8b4c-4098-9e85-6d2049d71809","ios":"levelo://app?vid=79500cc6-8b4c-4098-9e85-6d2049d71809"},"vehicle_type_id":"4","last_reported":1738591726,"current_range_meters":19600,"station_id":"ce4bhbp2rcd13ifvqerg","pricing_plan_id":"cebpf4jnsgd1na2vs0mg"},{"bike_id":"649532be-fa76-4383-be23-503598f86cf3","system_id":"levelo_inurba_marseille","lat":43.24999,"lon":5.38924,"is_reserved":false,"is_disabled":false,"rental_uris":{"android":"levelo://app?vid=649532be-fa76-4383-be23-503598f86cf3","ios":"levelo://app?vid=649532be-fa76-4383-be23-503598f86cf3"},"vehicle_type_id":"4","last_reported":1738591726,"current_range_meters":28000,"station_id":"ce4bhgp2rcd13ifvqfd0","pricing_plan_id":"cebpf4jnsgd1na2vs0mg"},{"bike_id":"30e962a5-ed17-4781-966d-335d338660e0","system_id":"levelo_inurba_marseille","lat":43.32457,"lon":5.43502,"is_reserved":false,"is_disabled":false,"rental_uris":{"android":"levelo://app?vid=30e962a5-ed17-4781-966d-335d338660e0","ios":"levelo://app?vid=30e962a5-ed17-4781-966d-335d338660e0"},"vehicle_type_id":"4","last_reported":1738591726,"current_range_meters":17200,"station_id":"","pricing_plan_id":"cebpf4jnsgd1na2vs0mg"},{"bike_id":"9ab32a27-70bc-4581-86f3-4d4a0925201f","system_id":"levelo_inurba_marseille","lat":43.31287,"lon":5.40147,"is_reserved":false,"is_disabled":false,"rental_uris":{"android":"levelo://app?vid=9ab32a27-70bc-4581-86f3-4d4a0925201f","ios":"levelo://app?vid=9ab32a27-70bc-4581-86f3-4d4a0925201f"},"vehicle_type_id":"4","last_reported":1738591726,"current_range_meters":33600,"station_id":"ce4bh092rcd13ifvqd30","pricing_plan_id":"cebpf4jnsgd1na2vs0mg"},{"bike_id":"6abca868-3d1e-41e6-88a6-d0d8d66d3f1a","system_id":"levelo_inurba_marseille","lat":43.32134,"lon":5.36782,"is_reserved":false,"is_disabled":false,"rental_uris":{"android":"levelo://app?vid=6abca868-3d1e-41e6-88a6-d0d8d66d3f1a","ios":"levelo://app?vid=6abca868-3d1e-41e6-88a6-d0d8d66d3f1a"},"vehicle_type_id":"4","last_reported":1738591726,"current_range_meters":38800,"station_id":"ce4bhrh2rcd13ifvqhug","pricing_plan_id":"cebpf4jnsgd1na2vs0mg"},{"bike_id":"d08ca28b-23df-4eba-b7b5-7910c4aa69d2","system_id":"levelo_inurba_marseille","lat":43.32485,"lon":5.36555,"is_reserved":false,"is_disabled":false,"rental_uris":{"android":"levelo://app?vid=d08ca28b-23df-4eba-b7b5-7910c4aa69d2","ios":"levelo://app?vid=d08ca28b-23df-4eba-b7b5-7910c4aa69d2"},"vehicle_type_id":"4","last_reported":1738591726,"current_range_meters":38400,"station_id":"ce4bhs12rcd13ifvqhvg","pricing_plan_id":"cebpf4jnsgd1na2vs0mg"},{"bike_id":"d78a3f13-b28a-4dff-bffb-8de5d48e8ef7","system_id":"levelo_inurba_marseille","lat":43.29903,"lon":5.38161,"is_reserved":false,"is_disabled":false,"rental_uris":{"android":"levelo://app?vid=d78a3f13-b28a-4dff-bffb-8de5d48e8ef7","ios":"levelo://app?vid=d78a3f13-b28a-4dff-bffb-8de5d48e8ef7"},"vehicle_type_id":"4","last_reported":1738591726,"current_range_meters":34800,"station_id":"ce4bgj12rcd13ifvqbc0","pricing_plan_id":"cebpf4jnsgd1na2vs0mg"},{"bike_id":"1c7887d7-53b6-479f-9008-7c390cec24a6","system_id":"levelo_inurba_marseille","lat":43.23946,"lon":5.36625,"is_reserved":false,"is_disabled":false,"rental_uris":{"android":"levelo://app?vid=1c7887d7-53b6-479f-9008-7c390cec24a6","ios":"levelo://app?vid=1c7887d7-53b6-479f-9008-7c390cec24a6"},"vehicle_type_id":"4","last_reported":1738591726,"current_range_meters":8000,"station_id":"ce4bhi12rcd13ifvqfp0","pricing_plan_id":"cebpf4jnsgd1na2vs0mg"},{"bike_id":"0743b2ad-1d8d-4c13-8b00-57c9d01b1228","system_id":"levelo_inurba_marseille","lat":43.24163,"lon":5.36412,"is_reserved":false,"is_disabled":false,"rental_uris":{"android":"levelo://app?vid=0743b2ad-1d8d-4c13-8b00-57c9d01b1228","ios":"levelo://app?vid=0743b2ad-1d8d-4c13-8b00-57c9d01b1228"},"vehicle_type_id":"4","last_reported":1738591726,"current_range_meters":25200,"station_id":"cpo36qri1sfpv3e86is0","pricing_plan_id":"cebpf4jnsgd1na2vs0mg"},{"bike_id":"2cbd5193-ddde-4715-a2bf-e1cb8bb201c9","system_id":"levelo_inurba_marseille","lat":43.2849,"lon":5.38432,"is_reserved":false,"is_disabled":true,"rental_uris":{"android":"levelo://app?vid=2cbd5193-ddde-4715-a2bf-e1cb8bb201c9","ios":"levelo://app?vid=2cbd5193-ddde-4715-a2bf-e1cb8bb201c9"},"vehicle_type_id":"4","last_reported":1738591726,"current_range_meters":0,"station_id":"ce4bh512rcd13ifvqe3g","pricing_plan_id":"cebpf4jnsgd1na2vs0mg"},{"bike_id":"f607fdcf-23aa-449c-ac62-cac43d093ae2","system_id":"levelo_inurba_marseille","lat":43.28848,"lon":5.35844,"is_reserved":false,"is_disabled":false,"rental_uris":{"android":"levelo://app?vid=f607fdcf-23aa-449c-ac62-cac43d093ae2","ios":"levelo://app?vid=f607fdcf-23aa-449c-ac62-cac43d093ae2"},"vehicle_type_id":"4","last_reported":1738591726,"current_range_meters":24800,"station_id":"ce4bhb12rcd13ifvqem0","pricing_plan_id":"cebpf4jnsgd1na2vs0mg"},{"bike_id":"4a18fa25-a72b-4cad-ab40-77dc9d93d71e","system_id":"levelo_inurba_marseille","lat":43.28419,"lon":5.37499,"is_reserved":false,"is_disabled":true,"rental_uris":{"android":"levelo://app?vid=4a18fa25-a72b-4cad-ab40-77dc9d93d71e","ios":"levelo://app?vid=4a18fa25-a72b-4cad-ab40-77dc9d93d71e"},"vehicle_type_id":"4","last_reported":1738591726,"current_range_meters":0,"station_id":"ce4bh412rcd13ifvqds0","pricing_plan_id":"cebpf4jnsgd1na2vs0mg"},{"bike_id":"1acc3ea8-60c8-439c-8bcf-9693f375481f","system_id":"levelo_inurba_marseille","lat":43.26222,"lon":5.40457,"is_reserved":false,"is_disabled":false,"rental_uris":{"android":"levelo://app?vid=1acc3ea8-60c8-439c-8bcf-9693f375481f","ios":"levelo://app?vid=1acc3ea8-60c8-439c-8bcf-9693f375481f"},"vehicle_type_id":"4","last_reported":1738591726,"current_range_meters":35600,"station_id":"ce4bhmh2rcd13ifvqgmg","pricing_plan_id":"cebpf4jnsgd1na2vs0mg"},{"bike_id":"30e2f64a-1993-4f6e-8293-e82a342923f7","system_id":"levelo_inurba_marseille","lat":43.28715,"lon":5.37918,"is_reserved":false,"is_disabled":false,"rental_uris":{"android":"levelo://app?vid=30e2f64a-1993-4f6e-8293-e82a342923f7","ios":"levelo://app?vid=30e2f64a-1993-4f6e-8293-e82a342923f7"},"vehicle_type_id":"4","last_reported":1738591726,"current_range_meters":38800,"station_id":"ce4bh9p2rcd13ifvqec0","pricing_plan_id":"cebpf4jnsgd1na2vs0mg"},{"bike_id":"8b272c9c-601f-4a28-ba9f-445a26c2944d","system_id":"levelo_inurba_marseille","lat":43.28935,"lon":5.36642,"is_reserved":false,"is_disabled":false,"rental_uris":{"android":"levelo://app?vid=8b272c9c-601f-4a28-ba9f-445a26c2944d","ios":"levelo://app?vid=8b272c9c-601f-4a28-ba9f-445a26c2944d"},"vehicle_type_id":"4","last_reported":1738591726,"current_range_meters":26000,"station_id":"ce4bhap2rcd13ifvqek0","pricing_plan_id":"cebpf4jnsgd1na2vs0mg"},{"bike_id":"2400e173-e992-4c8a-9c65-360a6aa3568c","system_id":"levelo_inurba_marseille","lat":43.23961,"lon":5.36609,"is_reserved":false,"is_disabled":false,"rental_uris":{"android":"levelo://app?vid=2400e173-e992-4c8a-9c65-360a6aa3568c","ios":"levelo://app?vid=2400e173-e992-4c8a-9c65-360a6aa3568c"},"vehicle_type_id":"4","last_reported":1738591726,"current_range_meters":37600,"station_id":"ce4bhi12rcd13ifvqfp0","pricing_plan_id":"cebpf4jnsgd1na2vs0mg"},{"bike_id":"75273bc4-3547-4c0c-8a39-91a5bd3388a6","system_id":"levelo_inurba_marseille","lat":43.2861,"lon":5.35098,"is_reserved":false,"is_disabled":false,"rental_uris":{"android":"levelo://app?vid=75273bc4-3547-4c0c-8a39-91a5bd3388a6","ios":"levelo://app?vid=75273bc4-3547-4c0c-8a39-91a5bd3388a6"},"vehicle_type_id":"4","last_reported":1738591726,"current_range_meters":29600,"station_id":"ce4bhch2rcd13ifvqeug","pricing_plan_id":"cebpf4jnsgd1na2vs0mg"},{"bike_id":"72906a62-5947-4ff0-ade2-4bd530638e33","system_id":"levelo_inurba_marseille","lat":43.29026,"lon":5.35593,"is_reserved":false,"is_disabled":false,"rental_uris":{"android":"levelo://app?vid=72906a62-5947-4ff0-ade2-4bd530638e33","ios":"levelo://app?vid=72906a62-5947-4ff0-ade2-4bd530638e33"},"vehicle_type_id":"4","last_reported":1738591726,"current_range_meters":34800,"station_id":"ce4bhb92rcd13ifvqen0","pricing_plan_id":"cebpf4jnsgd1na2vs0mg"},{"bike_id":"d7511967-3240-4a05-b4da-4d25a422554a","system_id":"levelo_inurba_marseille","lat":43.30153,"lon":5.38084,"is_reserved":false,"is_disabled":false,"rental_uris":{"android":"levelo://app?vid=d7511967-3240-4a05-b4da-4d25a422554a","ios":"levelo://app?vid=d7511967-3240-4a05-b4da-4d25a422554a"},"vehicle_type_id":"4","last_reported":1738591726,"current_range_meters":39200,"station_id":"ce4bgjp2rcd13ifvqbh0","pricing_plan_id":"cebpf4jnsgd1na2vs0mg"},{"bike_id":"ae3d7a79-2943-4481-a89e-f4c36dd5f40d","system_id":"levelo_inurba_marseille","lat":43.24167,"lon":5.36386,"is_reserved":false,"is_disabled":false,"rental_uris":{"android":"levelo://app?vid=ae3d7a79-2943-4481-a89e-f4c36dd5f40d","ios":"levelo://app?vid=ae3d7a79-2943-4481-a89e-f4c36dd5f40d"},"vehicle_type_id":"4","last_reported":1738591726,"current_range_meters":5600,"station_id":"cpo36qri1sfpv3e86is0","pricing_plan_id":"cebpf4jnsgd1na2vs0mg"},{"bike_id":"895b886d-f041-450f-bbc7-c95d89abf42f","system_id":"levelo_inurba_marseille","lat":43.31117,"lon":5.38023,"is_reserved":false,"is_disabled":false,"rental_uris":{"android":"levelo://app?vid=895b886d-f041-450f-bbc7-c95d89abf42f","ios":"levelo://app?vid=895b886d-f041-450f-bbc7-c95d89abf42f"},"vehicle_type_id":"4","last_reported":1738591726,"current_range_meters":30400,"station_id":"","pricing_plan_id":"cebpf4jnsgd1na2vs0mg"},{"bike_id":"a3d4d1e3-96cf-4a14-ab6e-dbf743afc1f1","system_id":"levelo_inurba_marseille","lat":43.29277,"lon":5.40914,"is_reserved":false,"is_disabled":false,"rental_uris":{"android":"levelo://app?vid=a3d4d1e3-96cf-4a14-ab6e-dbf743afc1f1","ios":"levelo://app?vid=a3d4d1e3-96cf-4a14-ab6e-dbf743afc1f1"},"vehicle_type_id":"4","last_reported":1738591726,"current_range_meters":30400,"station_id":"ce4bh192rcd13ifvqdc0","pricing_plan_id":"cebpf4jnsgd1na2vs0mg"},{"bike_id":"428d75e2-39d8-469c-999e-be5c80142ac1","system_id":"levelo_inurba_marseille","lat":43.30191,"lon":5.38091,"is_reserved":false,"is_disabled":false,"rental_uris":{"android":"levelo://app?vid=428d75e2-39d8-469c-999e-be5c80142ac1","ios":"levelo://app?vid=428d75e2-39d8-469c-999e-be5c80142ac1"},"vehicle_type_id":"4","last_reported":1738591726,"current_range_meters":38800,"station_id":"","pricing_plan_id":"cebpf4jnsgd1na2vs0mg"},{"bike_id":"99630b4f-d397-4cd1-b643-a51d074b76bb","system_id":"levelo_inurba_marseille","lat":43.28451,"lon":5.35889,"is_reserved":false,"is_disabled":false,"rental_uris":{"android":"levelo://app?vid=99630b4f-d397-4cd1-b643-a51d074b76bb","ios":"levelo://app?vid=99630b4f-d397-4cd1-b643-a51d074b76bb"},"vehicle_type_id":"4","last_reported":1738591726,"current_range_meters":39200,"station_id":"ce4bhah2rcd13ifvqei0","pricing_plan_id":"cebpf4jnsgd1na2vs0mg"},{"bike_id":"dfca75c2-55e3-4e13-8b26-4b6ce664ebef","system_id":"levelo_inurba_marseille","lat":43.28428,"lon":5.34984,"is_reserved":false,"is_disabled":false,"rental_uris":{"android":"levelo://app?vid=dfca75c2-55e3-4e13-8b26-4b6ce664ebef","ios":"levelo://app?vid=dfca75c2-55e3-4e13-8b26-4b6ce664ebef"},"vehicle_type_id":"4","last_reported":1738591726,"current_range_meters":9200,"station_id":"ce4bhbh2rcd13ifvqepg","pricing_plan_id":"cebpf4jnsgd1na2vs0mg"},{"bike_id":"115e302a-af5d-408a-980b-094c657f62a3","system_id":"levelo_inurba_marseille","lat":43.27563,"lon":5.38414,"is_reserved":false,"is_disabled":false,"rental_uris":{"android":"levelo://app?vid=115e302a-af5d-408a-980b-094c657f62a3","ios":"levelo://app?vid=115e302a-af5d-408a-980b-094c657f62a3"},"vehicle_type_id":"4","last_reported":1738591726,"current_range_meters":10000,"station_id":"ce4bhh92rcd13ifvqfi0","pricing_plan_id":"cebpf4jnsgd1na2vs0mg"},{"bike_id":"339024e8-3d81-4c07-84dd-594593317646","system_id":"levelo_inurba_marseille","lat":43.30538,"lon":5.36711,"is_reserved":false,"is_disabled":false,"rental_uris":{"android":"levelo://app?vid=339024e8-3d81-4c07-84dd-594593317646","ios":"levelo://app?vid=339024e8-3d81-4c07-84dd-594593317646"},"vehicle_type_id":"4","last_reported":1738591726,"current_range_meters":18000,"station_id":"ce4bgrp2rcd13ifvqc9g","pricing_plan_id":"cebpf4jnsgd1na2vs0mg"},{"bike_id":"69ab4131-8e27-4dc2-a773-cc2c675545c9","system_id":"levelo_inurba_marseille","lat":43.30882,"lon":5.36829,"is_reserved":false,"is_disabled":false,"rental_uris":{"android":"levelo://app?vid=69ab4131-8e27-4dc2-a773-cc2c675545c9","ios":"levelo://app?vid=69ab4131-8e27-4dc2-a773-cc2c675545c9"},"vehicle_type_id":"4","last_reported":1738591726,"current_range_meters":29600,"station_id":"ce4bgn92rcd13ifvqbvg","pricing_plan_id":"cebpf4jnsgd1na2vs0mg"},{"bike_id":"df721def-598a-4e24-a89a-4771bf19c6fb","system_id":"levelo_inurba_marseille","lat":43.27824,"lon":5.4071,"is_reserved":false,"is_disabled":false,"rental_uris":{"android":"levelo://app?vid=df721def-598a-4e24-a89a-4771bf19c6fb","ios":"levelo://app?vid=df721def-598a-4e24-a89a-4771bf19c6fb"},"vehicle_type_id":"4","last_reported":1738591726,"current_range_meters":39200,"station_id":"ce4bhnh2rcd13ifvqgtg","pricing_plan_id":"cebpf4jnsgd1na2vs0mg"},{"bike_id":"432bc086-190c-49bd-9f0f-b7d592e08498","system_id":"levelo_inurba_marseille","lat":43.23179,"lon":5.43707,"is_reserved":false,"is_disabled":false,"rental_uris":{"android":"levelo://app?vid=432bc086-190c-49bd-9f0f-b7d592e08498","ios":"levelo://app?vid=432bc086-190c-49bd-9f0f-b7d592e08498"},"vehicle_type_id":"4","last_reported":1738591726,"current_range_meters":19200,"station_id":"ce4bhmp2rcd13ifvqgog","pricing_plan_id":"cebpf4jnsgd1na2vs0mg"},{"bike_id":"905522ef-d4d4-4a33-8994-defbf52775ca","system_id":"levelo_inurba_marseille","lat":43.26219,"lon":5.40455,"is_reserved":false,"is_disabled":true,"rental_uris":{"android":"levelo://app?vid=905522ef-d4d4-4a33-8994-defbf52775ca","ios":"levelo://app?vid=905522ef-d4d4-4a33-8994-defbf52775ca"},"vehicle_type_id":"4","last_reported":1738591726,"current_range_meters":0,"station_id":"ce4bhmh2rcd13ifvqgmg","pricing_plan_id":"cebpf4jnsgd1na2vs0mg"},{"bike_id":"7b82d9d2-5863-4ade-8734-22c538fd48c4","system_id":"levelo_inurba_marseille","lat":43.30134,"lon":5.38067,"is_reserved":false,"is_disabled":false,"rental_uris":{"android":"levelo://app?vid=7b82d9d2-5863-4ade-8734-22c538fd48c4","ios":"levelo://app?vid=7b82d9d2-5863-4ade-8734-22c538fd48c4"},"vehicle_type_id":"4","last_reported":1738591726,"current_range_meters":29600,"station_id":"ce4bgjp2rcd13ifvqbh0","pricing_plan_id":"cebpf4jnsgd1na2vs0mg"},{"bike_id":"a0618fd8-0ca2-47c4-9833-64f143403c5c","system_id":"levelo_inurba_marseille","lat":43.29063,"lon":5.37153,"is_reserved":false,"is_disabled":false,"rental_uris":{"android":"levelo://app?vid=a0618fd8-0ca2-47c4-9833-64f143403c5c","ios":"levelo://app?vid=a0618fd8-0ca2-47c4-9833-64f143403c5c"},"vehicle_type_id":"4","last_reported":1738591726,"current_range_meters":16400,"station_id":"ce4bh5p2rcd13ifvqe4g","pricing_plan_id":"cebpf4jnsgd1na2vs0mg"},{"bike_id":"3034d64e-f78e-468c-b4d6-2520a053438f","system_id":"levelo_inurba_marseille","lat":43.231895,"lon":5.39994,"is_reserved":false,"is_disabled":true,"rental_uris":{"android":"levelo://app?vid=3034d64e-f78e-468c-b4d6-2520a053438f","ios":"levelo://app?vid=3034d64e-f78e-468c-b4d6-2520a053438f"},"vehicle_type_id":"4","last_reported":1738591726,"current_range_meters":16400,"station_id":"ce4bhn12rcd13ifvqgqg","pricing_plan_id":"cebpf4jnsgd1na2vs0mg"},{"bike_id":"51045c4d-6739-4a77-a4b2-4fa7a8439b8f","system_id":"levelo_inurba_marseille","lat":43.29,"lon":5.35604,"is_reserved":false,"is_disabled":false,"rental_uris":{"android":"levelo://app?vid=51045c4d-6739-4a77-a4b2-4fa7a8439b8f","ios":"levelo://app?vid=51045c4d-6739-4a77-a4b2-4fa7a8439b8f"},"vehicle_type_id":"4","last_reported":1738591726,"current_range_meters":37600,"station_id":"ce4bhb92rcd13ifvqen0","pricing_plan_id":"cebpf4jnsgd1na2vs0mg"},{"bike_id":"406b5341-0439-4733-8673-8065df26801c","system_id":"levelo_inurba_marseille","lat":43.30939,"lon":5.39029,"is_reserved":false,"is_disabled":true,"rental_uris":{"android":"levelo://app?vid=406b5341-0439-4733-8673-8065df26801c","ios":"levelo://app?vid=406b5341-0439-4733-8673-8065df26801c"},"vehicle_type_id":"4","last_reported":1738591726,"current_range_meters":2000,"station_id":"ce4bgup2rcd13ifvqco0","pricing_plan_id":"cebpf4jnsgd1na2vs0mg"},{"bike_id":"8f810d5d-88f6-432c-ab7e-f7109c887e5b","system_id":"levelo_inurba_marseille","lat":43.28717,"lon":5.39963,"is_reserved":false,"is_disabled":false,"rental_uris":{"android":"levelo://app?vid=8f810d5d-88f6-432c-ab7e-f7109c887e5b","ios":"levelo://app?vid=8f810d5d-88f6-432c-ab7e-f7109c887e5b"},"vehicle_type_id":"4","last_reported":1738591726,"current_range_meters":25600,"station_id":"ce4bho92rcd13ifvqh3g","pricing_plan_id":"cebpf4jnsgd1na2vs0mg"},{"bike_id":"9e768907-2758-4663-849c-1bfedc158f31","system_id":"levelo_inurba_marseille","lat":43.279114,"lon":5.395864,"is_reserved":false,"is_disabled":true,"rental_uris":{"android":"levelo://app?vid=9e768907-2758-4663-849c-1bfedc158f31","ios":"levelo://app?vid=9e768907-2758-4663-849c-1bfedc158f31"},"vehicle_type_id":"4","last_reported":1738591726,"current_range_meters":0,"station_id":"ce4bhf92rcd13ifvqf40","pricing_plan_id":"cebpf4jnsgd1na2vs0mg"},{"bike_id":"aa9462c4-d8ab-474f-9e59-bd021459ce10","system_id":"levelo_inurba_marseille","lat":43.26063,"lon":5.39402,"is_reserved":false,"is_disabled":false,"rental_uris":{"android":"levelo://app?vid=aa9462c4-d8ab-474f-9e59-bd021459ce10","ios":"levelo://app?vid=aa9462c4-d8ab-474f-9e59-bd021459ce10"},"vehicle_type_id":"4","last_reported":1738591726,"current_range_meters":38800,"station_id":"ce4bhh92rcd13ifvqfj0","pricing_plan_id":"cebpf4jnsgd1na2vs0mg"},{"bike_id":"4de48d8b-dc2e-433c-8427-ccbe26fd4d06","system_id":"levelo_inurba_marseille","lat":43.33733,"lon":5.39178,"is_reserved":false,"is_disabled":false,"rental_uris":{"android":"levelo://app?vid=4de48d8b-dc2e-433c-8427-ccbe26fd4d06","ios":"levelo://app?vid=4de48d8b-dc2e-433c-8427-ccbe26fd4d06"},"vehicle_type_id":"4","last_reported":1738591726,"current_range_meters":39200,"station_id":"ce4bhr92rcd13ifvqhsg","pricing_plan_id":"cebpf4jnsgd1na2vs0mg"},{"bike_id":"d7ece394-ff35-4e79-8cc3-dfe9bd6ff65c","system_id":"levelo_inurba_marseille","lat":43.30547,"lon":5.36536,"is_reserved":false,"is_disabled":false,"rental_uris":{"android":"levelo://app?vid=d7ece394-ff35-4e79-8cc3-dfe9bd6ff65c","ios":"levelo://app?vid=d7ece394-ff35-4e79-8cc3-dfe9bd6ff65c"},"vehicle_type_id":"4","last_reported":1738591726,"current_range_meters":38000,"station_id":"ce4bgs12rcd13ifvqcag","pricing_plan_id":"cebpf4jnsgd1na2vs0mg"},{"bike_id":"942ee348-f601-4816-a32c-40a8d55d3f6b","system_id":"levelo_inurba_marseille","lat":43.337444,"lon":5.374475,"is_reserved":false,"is_disabled":true,"rental_uris":{"android":"levelo://app?vid=942ee348-f601-4816-a32c-40a8d55d3f6b","ios":"levelo://app?vid=942ee348-f601-4816-a32c-40a8d55d3f6b"},"vehicle_type_id":"4","last_reported":1738591726,"current_range_meters":0,"station_id":"","pricing_plan_id":"cebpf4jnsgd1na2vs0mg"},{"bike_id":"a7d3b724-e07d-4e52-8cab-21bbc0e96cf8","system_id":"levelo_inurba_marseille","lat":43.26215,"lon":5.37437,"is_reserved":false,"is_disabled":false,"rental_uris":{"android":"levelo://app?vid=a7d3b724-e07d-4e52-8cab-21bbc0e96cf8","ios":"levelo://app?vid=a7d3b724-e07d-4e52-8cab-21bbc0e96cf8"},"vehicle_type_id":"4","last_reported":1738591726,"current_range_meters":23200,"station_id":"ce4bhgp2rcd13ifvqfc0","pricing_plan_id":"cebpf4jnsgd1na2vs0mg"},{"bike_id":"f509805c-cf62-4952-8cc2-f1abfdf78735","system_id":"levelo_inurba_marseille","lat":43.29266,"lon":5.36854,"is_reserved":false,"is_disabled":false,"rental_uris":{"android":"levelo://app?vid=f509805c-cf62-4952-8cc2-f1abfdf78735","ios":"levelo://app?vid=f509805c-cf62-4952-8cc2-f1abfdf78735"},"vehicle_type_id":"4","last_reported":1738591726,"current_range_meters":33600,"station_id":"ce4bhbp2rcd13ifvqesg","pricing_plan_id":"cebpf4jnsgd1na2vs0mg"},{"bike_id":"9819be76-2d4b-4fb5-a60b-698c25adabe5","system_id":"levelo_inurba_marseille","lat":43.2623,"lon":5.37428,"is_reserved":false,"is_disabled":false,"rental_uris":{"android":"levelo://app?vid=9819be76-2d4b-4fb5-a60b-698c25adabe5","ios":"levelo://app?vid=9819be76-2d4b-4fb5-a60b-698c25adabe5"},"vehicle_type_id":"4","last_reported":1738591726,"current_range_meters":32800,"station_id":"ce4bhgp2rcd13ifvqfc0","pricing_plan_id":"cebpf4jnsgd1na2vs0mg"},{"bike_id":"c8bd1d84-2291-473f-ab82-361f165fe1db","system_id":"levelo_inurba_marseille","lat":43.24161,"lon":5.36414,"is_reserved":false,"is_disabled":false,"rental_uris":{"android":"levelo://app?vid=c8bd1d84-2291-473f-ab82-361f165fe1db","ios":"levelo://app?vid=c8bd1d84-2291-473f-ab82-361f165fe1db"},"vehicle_type_id":"4","last_reported":1738591726,"current_range_meters":25600,"station_id":"cpo36qri1sfpv3e86is0","pricing_plan_id":"cebpf4jnsgd1na2vs0mg"},{"bike_id":"87e2ffd2-9b11-47e0-98e2-0de5260bd635","system_id":"levelo_inurba_marseille","lat":43.2956,"lon":5.42285,"is_reserved":false,"is_disabled":false,"rental_uris":{"android":"levelo://app?vid=87e2ffd2-9b11-47e0-98e2-0de5260bd635","ios":"levelo://app?vid=87e2ffd2-9b11-47e0-98e2-0de5260bd635"},"vehicle_type_id":"4","last_reported":1738591726,"current_range_meters":27600,"station_id":"ce4bhph2rcd13ifvqhdg","pricing_plan_id":"cebpf4jnsgd1na2vs0mg"},{"bike_id":"064bf421-df68-45a9-95a5-b5a966d70569","system_id":"levelo_inurba_marseille","lat":43.29868,"lon":5.39727,"is_reserved":false,"is_disabled":false,"rental_uris":{"android":"levelo://app?vid=064bf421-df68-45a9-95a5-b5a966d70569","ios":"levelo://app?vid=064bf421-df68-45a9-95a5-b5a966d70569"},"vehicle_type_id":"4","last_reported":1738591726,"current_range_meters":6000,"station_id":"ce4bh0h2rcd13ifvqd50","pricing_plan_id":"cebpf4jnsgd1na2vs0mg"},{"bike_id":"bb846df9-2969-480a-aed6-edbcf9c326fb","system_id":"levelo_inurba_marseille","lat":43.24813,"lon":5.37447,"is_reserved":false,"is_disabled":false,"rental_uris":{"android":"levelo://app?vid=bb846df9-2969-480a-aed6-edbcf9c326fb","ios":"levelo://app?vid=bb846df9-2969-480a-aed6-edbcf9c326fb"},"vehicle_type_id":"4","last_reported":1738591726,"current_range_meters":29600,"station_id":"ce4bhgh2rcd13ifvqfb0","pricing_plan_id":"cebpf4jnsgd1na2vs0mg"},{"bike_id":"48ebfd2e-3b3a-4da2-a76d-11ff63396ffb","system_id":"levelo_inurba_marseille","lat":43.27992,"lon":5.40007,"is_reserved":false,"is_disabled":true,"rental_uris":{"android":"levelo://app?vid=48ebfd2e-3b3a-4da2-a76d-11ff63396ffb","ios":"levelo://app?vid=48ebfd2e-3b3a-4da2-a76d-11ff63396ffb"},"vehicle_type_id":"4","last_reported":1738591726,"current_range_meters":20800,"station_id":"ce4bho92rcd13ifvqh4g","pricing_plan_id":"cebpf4jnsgd1na2vs0mg"},{"bike_id":"85e0a930-26fd-4edc-a536-795827c6b8db","system_id":"levelo_inurba_marseille","lat":43.28695,"lon":5.37391,"is_reserved":false,"is_disabled":false,"rental_uris":{"android":"levelo://app?vid=85e0a930-26fd-4edc-a536-795827c6b8db","ios":"levelo://app?vid=85e0a930-26fd-4edc-a536-795827c6b8db"},"vehicle_type_id":"4","last_reported":1738591726,"current_range_meters":18000,"station_id":"ce4bh3p2rcd13ifvqdq0","pricing_plan_id":"cebpf4jnsgd1na2vs0mg"},{"bike_id":"cd07e062-2af1-406e-bcb9-5f1ec4730937","system_id":"levelo_inurba_marseille","lat":43.23066,"lon":5.35491,"is_reserved":false,"is_disabled":false,"rental_uris":{"android":"levelo://app?vid=cd07e062-2af1-406e-bcb9-5f1ec4730937","ios":"levelo://app?vid=cd07e062-2af1-406e-bcb9-5f1ec4730937"},"vehicle_type_id":"4","last_reported":1738591726,"current_range_meters":13600,"station_id":"cpo3342slgdg3j2ifvpg","pricing_plan_id":"cebpf4jnsgd1na2vs0mg"},{"bike_id":"ef522ec1-733b-4526-883e-365a20f2baa8","system_id":"levelo_inurba_marseille","lat":43.305384,"lon":5.3671,"is_reserved":false,"is_disabled":false,"rental_uris":{"android":"levelo://app?vid=ef522ec1-733b-4526-883e-365a20f2baa8","ios":"levelo://app?vid=ef522ec1-733b-4526-883e-365a20f2baa8"},"vehicle_type_id":"4","last_reported":1738591726,"current_range_meters":38800,"station_id":"ce4bgrp2rcd13ifvqc9g","pricing_plan_id":"cebpf4jnsgd1na2vs0mg"},{"bike_id":"0cdd65fb-fccb-4e63-af7c-900e0ae2a720","system_id":"levelo_inurba_marseille","lat":43.28265,"lon":5.35057,"is_reserved":false,"is_disabled":false,"rental_uris":{"android":"levelo://app?vid=0cdd65fb-fccb-4e63-af7c-900e0ae2a720","ios":"levelo://app?vid=0cdd65fb-fccb-4e63-af7c-900e0ae2a720"},"vehicle_type_id":"4","last_reported":1738591726,"current_range_meters":16400,"station_id":"ce4bhbp2rcd13ifvqerg","pricing_plan_id":"cebpf4jnsgd1na2vs0mg"},{"bike_id":"e5db2ca6-86b9-4b0b-9516-81aaede1725e","system_id":"levelo_inurba_marseille","lat":43.33721,"lon":5.39188,"is_reserved":false,"is_disabled":false,"rental_uris":{"android":"levelo://app?vid=e5db2ca6-86b9-4b0b-9516-81aaede1725e","ios":"levelo://app?vid=e5db2ca6-86b9-4b0b-9516-81aaede1725e"},"vehicle_type_id":"4","last_reported":1738591726,"current_range_meters":34800,"station_id":"ce4bhr92rcd13ifvqhsg","pricing_plan_id":"cebpf4jnsgd1na2vs0mg"},{"bike_id":"ffb48148-25e1-4007-823f-b7c7c0363765","system_id":"levelo_inurba_marseille","lat":43.2749,"lon":5.42429,"is_reserved":false,"is_disabled":false,"rental_uris":{"android":"levelo://app?vid=ffb48148-25e1-4007-823f-b7c7c0363765","ios":"levelo://app?vid=ffb48148-25e1-4007-823f-b7c7c0363765"},"vehicle_type_id":"4","last_reported":1738591726,"current_range_meters":17600,"station_id":"ce4bhn92rcd13ifvqgrg","pricing_plan_id":"cebpf4jnsgd1na2vs0mg"},{"bike_id":"3b746b3d-e9b2-4b33-bcea-256d7d7d7193","system_id":"levelo_inurba_marseille","lat":43.27492,"lon":5.4245,"is_reserved":false,"is_disabled":false,"rental_uris":{"android":"levelo://app?vid=3b746b3d-e9b2-4b33-bcea-256d7d7d7193","ios":"levelo://app?vid=3b746b3d-e9b2-4b33-bcea-256d7d7d7193"},"vehicle_type_id":"4","last_reported":1738591726,"current_range_meters":6000,"station_id":"ce4bhn92rcd13ifvqgrg","pricing_plan_id":"cebpf4jnsgd1na2vs0mg"},{"bike_id":"f1f1707c-7af5-4419-a172-2414bbad5f68","system_id":"levelo_inurba_marseille","lat":43.32477,"lon":5.36567,"is_reserved":false,"is_disabled":false,"rental_uris":{"android":"levelo://app?vid=f1f1707c-7af5-4419-a172-2414bbad5f68","ios":"levelo://app?vid=f1f1707c-7af5-4419-a172-2414bbad5f68"},"vehicle_type_id":"4","last_reported":1738591726,"current_range_meters":38800,"station_id":"ce4bhs12rcd13ifvqhvg","pricing_plan_id":"cebpf4jnsgd1na2vs0mg"},{"bike_id":"01f9c1f1-0d13-4e72-a6ab-f91ba534edc1","system_id":"levelo_inurba_marseille","lat":43.29976,"lon":5.38489,"is_reserved":false,"is_disabled":false,"rental_uris":{"android":"levelo://app?vid=01f9c1f1-0d13-4e72-a6ab-f91ba534edc1","ios":"levelo://app?vid=01f9c1f1-0d13-4e72-a6ab-f91ba534edc1"},"vehicle_type_id":"4","last_reported":1738591726,"current_range_meters":38000,"station_id":"ce4bgj92rcd13ifvqbd0","pricing_plan_id":"cebpf4jnsgd1na2vs0mg"},{"bike_id":"9a259c8b-3152-4605-8f89-f05f9307c88e","system_id":"levelo_inurba_marseille","lat":43.25497,"lon":5.37639,"is_reserved":false,"is_disabled":false,"rental_uris":{"android":"levelo://app?vid=9a259c8b-3152-4605-8f89-f05f9307c88e","ios":"levelo://app?vid=9a259c8b-3152-4605-8f89-f05f9307c88e"},"vehicle_type_id":"4","last_reported":1738591726,"current_range_meters":36000,"station_id":"ce4bhh12rcd13ifvqff0","pricing_plan_id":"cebpf4jnsgd1na2vs0mg"},{"bike_id":"4b8f445e-d4a3-436e-af35-fee03661f846","system_id":"levelo_inurba_marseille","lat":43.31363,"lon":5.36743,"is_reserved":false,"is_disabled":false,"rental_uris":{"android":"levelo://app?vid=4b8f445e-d4a3-436e-af35-fee03661f846","ios":"levelo://app?vid=4b8f445e-d4a3-436e-af35-fee03661f846"},"vehicle_type_id":"4","last_reported":1738591726,"current_range_meters":38800,"station_id":"ce4bgr92rcd13ifvqc6g","pricing_plan_id":"cebpf4jnsgd1na2vs0mg"},{"bike_id":"6680bef6-29dc-411f-98bd-c0592fd24b70","system_id":"levelo_inurba_marseille","lat":43.27069,"lon":5.40258,"is_reserved":false,"is_disabled":false,"rental_uris":{"android":"levelo://app?vid=6680bef6-29dc-411f-98bd-c0592fd24b70","ios":"levelo://app?vid=6680bef6-29dc-411f-98bd-c0592fd24b70"},"vehicle_type_id":"4","last_reported":1738591726,"current_range_meters":24400,"station_id":"ce4bhk92rcd13ifvqgc0","pricing_plan_id":"cebpf4jnsgd1na2vs0mg"},{"bike_id":"d99a1562-2d27-43a9-b8ae-c675dfd1d656","system_id":"levelo_inurba_marseille","lat":43.28717,"lon":5.37929,"is_reserved":false,"is_disabled":false,"rental_uris":{"android":"levelo://app?vid=d99a1562-2d27-43a9-b8ae-c675dfd1d656","ios":"levelo://app?vid=d99a1562-2d27-43a9-b8ae-c675dfd1d656"},"vehicle_type_id":"4","last_reported":1738591726,"current_range_meters":38800,"station_id":"ce4bh9p2rcd13ifvqec0","pricing_plan_id":"cebpf4jnsgd1na2vs0mg"},{"bike_id":"710d575f-a84c-401c-a910-f04b3610e224","system_id":"levelo_inurba_marseille","lat":43.30183,"lon":5.37425,"is_reserved":false,"is_disabled":false,"rental_uris":{"android":"levelo://app?vid=710d575f-a84c-401c-a910-f04b3610e224","ios":"levelo://app?vid=710d575f-a84c-401c-a910-f04b3610e224"},"vehicle_type_id":"4","last_reported":1738591726,"current_range_meters":39200,"station_id":"ce4bgs92rcd13ifvqcc0","pricing_plan_id":"cebpf4jnsgd1na2vs0mg"},{"bike_id":"2edd9305-848f-45a7-989d-f83d93e513ea","system_id":"levelo_inurba_marseille","lat":43.2417,"lon":5.39729,"is_reserved":false,"is_disabled":false,"rental_uris":{"android":"levelo://app?vid=2edd9305-848f-45a7-989d-f83d93e513ea","ios":"levelo://app?vid=2edd9305-848f-45a7-989d-f83d93e513ea"},"vehicle_type_id":"4","last_reported":1738591726,"current_range_meters":15200,"station_id":"ce4bhn12rcd13ifvqgpg","pricing_plan_id":"cebpf4jnsgd1na2vs0mg"},{"bike_id":"987389a2-714b-4702-bea8-dab01f59e0c6","system_id":"levelo_inurba_marseille","lat":43.31354,"lon":5.36688,"is_reserved":false,"is_disabled":false,"rental_uris":{"android":"levelo://app?vid=987389a2-714b-4702-bea8-dab01f59e0c6","ios":"levelo://app?vid=987389a2-714b-4702-bea8-dab01f59e0c6"},"vehicle_type_id":"4","last_reported":1738591726,"current_range_meters":35200,"station_id":"ce4bgr92rcd13ifvqc6g","pricing_plan_id":"cebpf4jnsgd1na2vs0mg"},{"bike_id":"7fe2c604-b9c2-4f78-a41d-6dc34fa974b1","system_id":"levelo_inurba_marseille","lat":43.31708,"lon":5.43696,"is_reserved":false,"is_disabled":false,"rental_uris":{"android":"levelo://app?vid=7fe2c604-b9c2-4f78-a41d-6dc34fa974b1","ios":"levelo://app?vid=7fe2c604-b9c2-4f78-a41d-6dc34fa974b1"},"vehicle_type_id":"4","last_reported":1738591726,"current_range_meters":36000,"station_id":"ce4bhp92rcd13ifvqhcg","pricing_plan_id":"cebpf4jnsgd1na2vs0mg"},{"bike_id":"c3066916-eed2-4635-b496-6709235f4164","system_id":"levelo_inurba_marseille","lat":43.24996,"lon":5.38944,"is_reserved":false,"is_disabled":false,"rental_uris":{"android":"levelo://app?vid=c3066916-eed2-4635-b496-6709235f4164","ios":"levelo://app?vid=c3066916-eed2-4635-b496-6709235f4164"},"vehicle_type_id":"4","last_reported":1738591726,"current_range_meters":16400,"station_id":"ce4bhgp2rcd13ifvqfd0","pricing_plan_id":"cebpf4jnsgd1na2vs0mg"},{"bike_id":"d7f4aa5e-40ed-4777-b516-f5779ff35ff8","system_id":"levelo_inurba_marseille","lat":43.26503,"lon":5.39546,"is_reserved":false,"is_disabled":false,"rental_uris":{"android":"levelo://app?vid=d7f4aa5e-40ed-4777-b516-f5779ff35ff8","ios":"levelo://app?vid=d7f4aa5e-40ed-4777-b516-f5779ff35ff8"},"vehicle_type_id":"4","last_reported":1738591726,"current_range_meters":38800,"station_id":"ce4bhi12rcd13ifvqfq0","pricing_plan_id":"cebpf4jnsgd1na2vs0mg"},{"bike_id":"fa48af50-f7f8-463b-8073-011bea7848cf","system_id":"levelo_inurba_marseille","lat":43.26966,"lon":5.40272,"is_reserved":false,"is_disabled":false,"rental_uris":{"android":"levelo://app?vid=fa48af50-f7f8-463b-8073-011bea7848cf","ios":"levelo://app?vid=fa48af50-f7f8-463b-8073-011bea7848cf"},"vehicle_type_id":"4","last_reported":1738591726,"current_range_meters":36800,"station_id":"cjm6bp8fraef2m0cb0m0","pricing_plan_id":"cebpf4jnsgd1na2vs0mg"},{"bike_id":"9c10dae1-d17c-4a90-9ad5-1187a8a67455","system_id":"levelo_inurba_marseille","lat":43.29224,"lon":5.36072,"is_reserved":false,"is_disabled":false,"rental_uris":{"android":"levelo://app?vid=9c10dae1-d17c-4a90-9ad5-1187a8a67455","ios":"levelo://app?vid=9c10dae1-d17c-4a90-9ad5-1187a8a67455"},"vehicle_type_id":"4","last_reported":1738591726,"current_range_meters":11600,"station_id":"ce4bhbh2rcd13ifvqeqg","pricing_plan_id":"cebpf4jnsgd1na2vs0mg"},{"bike_id":"e0cbf8f2-4a92-439e-b08d-e0ad98caa80c","system_id":"levelo_inurba_marseille","lat":43.29625,"lon":5.37176,"is_reserved":false,"is_disabled":false,"rental_uris":{"android":"levelo://app?vid=e0cbf8f2-4a92-439e-b08d-e0ad98caa80c","ios":"levelo://app?vid=e0cbf8f2-4a92-439e-b08d-e0ad98caa80c"},"vehicle_type_id":"4","last_reported":1738591726,"current_range_meters":38800,"station_id":"ce4bgnh2rcd13ifvqc0g","pricing_plan_id":"cebpf4jnsgd1na2vs0mg"},{"bike_id":"dbdfa809-53c1-4aa6-8539-88b7e02d360b","system_id":"levelo_inurba_marseille","lat":43.30163,"lon":5.38085,"is_reserved":false,"is_disabled":false,"rental_uris":{"android":"levelo://app?vid=dbdfa809-53c1-4aa6-8539-88b7e02d360b","ios":"levelo://app?vid=dbdfa809-53c1-4aa6-8539-88b7e02d360b"},"vehicle_type_id":"4","last_reported":1738591726,"current_range_meters":38800,"station_id":"ce4bgjp2rcd13ifvqbh0","pricing_plan_id":"cebpf4jnsgd1na2vs0mg"},{"bike_id":"7bbd1ca9-5cb4-4750-a3f0-60560373cbff","system_id":"levelo_inurba_marseille","lat":43.25508,"lon":5.37678,"is_reserved":false,"is_disabled":false,"rental_uris":{"android":"levelo://app?vid=7bbd1ca9-5cb4-4750-a3f0-60560373cbff","ios":"levelo://app?vid=7bbd1ca9-5cb4-4750-a3f0-60560373cbff"},"vehicle_type_id":"4","last_reported":1738591726,"current_range_meters":39200,"station_id":"ce4bhh12rcd13ifvqff0","pricing_plan_id":"cebpf4jnsgd1na2vs0mg"},{"bike_id":"4214e849-7bf4-41f8-bf52-a92f8eb18b7c","system_id":"levelo_inurba_marseille","lat":43.32046,"lon":5.41563,"is_reserved":false,"is_disabled":false,"rental_uris":{"android":"levelo://app?vid=4214e849-7bf4-41f8-bf52-a92f8eb18b7c","ios":"levelo://app?vid=4214e849-7bf4-41f8-bf52-a92f8eb18b7c"},"vehicle_type_id":"4","last_reported":1738591726,"current_range_meters":26000,"station_id":"ce4bhq92rcd13ifvqhkg","pricing_plan_id":"cebpf4jnsgd1na2vs0mg"},{"bike_id":"20d78091-b743-478b-a12c-d5c9f2c24bc2","system_id":"levelo_inurba_marseille","lat":43.26944,"lon":5.38627,"is_reserved":false,"is_disabled":false,"rental_uris":{"android":"levelo://app?vid=20d78091-b743-478b-a12c-d5c9f2c24bc2","ios":"levelo://app?vid=20d78091-b743-478b-a12c-d5c9f2c24bc2"},"vehicle_type_id":"4","last_reported":1738591726,"current_range_meters":38800,"station_id":"ce4bhh92rcd13ifvqfh0","pricing_plan_id":"cebpf4jnsgd1na2vs0mg"},{"bike_id":"577383b2-bf58-4b25-8224-bf0cdd1be01d","system_id":"levelo_inurba_marseille","lat":43.2416,"lon":5.39712,"is_reserved":false,"is_disabled":false,"rental_uris":{"android":"levelo://app?vid=577383b2-bf58-4b25-8224-bf0cdd1be01d","ios":"levelo://app?vid=577383b2-bf58-4b25-8224-bf0cdd1be01d"},"vehicle_type_id":"4","last_reported":1738591726,"current_range_meters":24800,"station_id":"ce4bhn12rcd13ifvqgpg","pricing_plan_id":"cebpf4jnsgd1na2vs0mg"},{"bike_id":"cbf5eb67-515a-4fdc-85dd-5f2a58d938b1","system_id":"levelo_inurba_marseille","lat":43.28263,"lon":5.35046,"is_reserved":false,"is_disabled":false,"rental_uris":{"android":"levelo://app?vid=cbf5eb67-515a-4fdc-85dd-5f2a58d938b1","ios":"levelo://app?vid=cbf5eb67-515a-4fdc-85dd-5f2a58d938b1"},"vehicle_type_id":"4","last_reported":1738591726,"current_range_meters":21600,"station_id":"ce4bhbp2rcd13ifvqerg","pricing_plan_id":"cebpf4jnsgd1na2vs0mg"},{"bike_id":"0c305f42-b437-4592-ba17-663263b45d3b","system_id":"levelo_inurba_marseille","lat":43.31358,"lon":5.38487,"is_reserved":false,"is_disabled":false,"rental_uris":{"android":"levelo://app?vid=0c305f42-b437-4592-ba17-663263b45d3b","ios":"levelo://app?vid=0c305f42-b437-4592-ba17-663263b45d3b"},"vehicle_type_id":"4","last_reported":1738591726,"current_range_meters":35600,"station_id":"ce4bgt92rcd13ifvqcf0","pricing_plan_id":"cebpf4jnsgd1na2vs0mg"},{"bike_id":"6bb18b6b-35db-4080-8375-2a2e83c6fc4b","system_id":"levelo_inurba_marseille","lat":43.23157,"lon":5.43701,"is_reserved":false,"is_disabled":true,"rental_uris":{"android":"levelo://app?vid=6bb18b6b-35db-4080-8375-2a2e83c6fc4b","ios":"levelo://app?vid=6bb18b6b-35db-4080-8375-2a2e83c6fc4b"},"vehicle_type_id":"4","last_reported":1738591726,"current_range_meters":38800,"station_id":"ce4bhmp2rcd13ifvqgog","pricing_plan_id":"cebpf4jnsgd1na2vs0mg"},{"bike_id":"b51347e8-adaf-403b-bb32-5acb4d558eed","system_id":"levelo_inurba_marseille","lat":43.30954,"lon":5.39035,"is_reserved":false,"is_disabled":false,"rental_uris":{"android":"levelo://app?vid=b51347e8-adaf-403b-bb32-5acb4d558eed","ios":"levelo://app?vid=b51347e8-adaf-403b-bb32-5acb4d558eed"},"vehicle_type_id":"4","last_reported":1738591726,"current_range_meters":28800,"station_id":"ce4bgup2rcd13ifvqco0","pricing_plan_id":"cebpf4jnsgd1na2vs0mg"},{"bike_id":"f9a8963c-1f10-4079-b5e0-2c6b249fd0b1","system_id":"levelo_inurba_marseille","lat":43.29422,"lon":5.3861,"is_reserved":false,"is_disabled":false,"rental_uris":{"android":"levelo://app?vid=f9a8963c-1f10-4079-b5e0-2c6b249fd0b1","ios":"levelo://app?vid=f9a8963c-1f10-4079-b5e0-2c6b249fd0b1"},"vehicle_type_id":"4","last_reported":1738591726,"current_range_meters":18800,"station_id":"ce4bh2h2rcd13ifvqdh0","pricing_plan_id":"cebpf4jnsgd1na2vs0mg"},{"bike_id":"16d2c7b1-d8b9-4b3c-a6a9-f5add58b3e7a","system_id":"levelo_inurba_marseille","lat":43.24075,"lon":5.37726,"is_reserved":false,"is_disabled":false,"rental_uris":{"android":"levelo://app?vid=16d2c7b1-d8b9-4b3c-a6a9-f5add58b3e7a","ios":"levelo://app?vid=16d2c7b1-d8b9-4b3c-a6a9-f5add58b3e7a"},"vehicle_type_id":"4","last_reported":1738591726,"current_range_meters":25200,"station_id":"ce4bhnp2rcd13ifvqgvg","pricing_plan_id":"cebpf4jnsgd1na2vs0mg"},{"bike_id":"2fb85062-1158-465e-828e-3e87ffb49924","system_id":"levelo_inurba_marseille","lat":43.27616,"lon":5.36105,"is_reserved":false,"is_disabled":false,"rental_uris":{"android":"levelo://app?vid=2fb85062-1158-465e-828e-3e87ffb49924","ios":"levelo://app?vid=2fb85062-1158-465e-828e-3e87ffb49924"},"vehicle_type_id":"4","last_reported":1738591726,"current_range_meters":33600,"station_id":"ce4bgj92rcd13ifvqbe0","pricing_plan_id":"cebpf4jnsgd1na2vs0mg"},{"bike_id":"73da363e-32af-49e1-a6b2-5b1de4da8c50","system_id":"levelo_inurba_marseille","lat":43.29276,"lon":5.36845,"is_reserved":false,"is_disabled":false,"rental_uris":{"android":"levelo://app?vid=73da363e-32af-49e1-a6b2-5b1de4da8c50","ios":"levelo://app?vid=73da363e-32af-49e1-a6b2-5b1de4da8c50"},"vehicle_type_id":"4","last_reported":1738591726,"current_range_meters":29600,"station_id":"ce4bhbp2rcd13ifvqesg","pricing_plan_id":"cebpf4jnsgd1na2vs0mg"},{"bike_id":"27a1618b-ec0c-4b1b-9df1-d6544781bbc9","system_id":"levelo_inurba_marseille","lat":43.255764,"lon":5.382351,"is_reserved":false,"is_disabled":false,"rental_uris":{"android":"levelo://app?vid=27a1618b-ec0c-4b1b-9df1-d6544781bbc9","ios":"levelo://app?vid=27a1618b-ec0c-4b1b-9df1-d6544781bbc9"},"vehicle_type_id":"4","last_reported":1738591726,"current_range_meters":11200,"station_id":"ce4bhih2rcd13ifvqfs0","pricing_plan_id":"cebpf4jnsgd1na2vs0mg"},{"bike_id":"67e28628-4e88-4d22-9395-5aa2097ec3d5","system_id":"levelo_inurba_marseille","lat":43.28953,"lon":5.36396,"is_reserved":false,"is_disabled":false,"rental_uris":{"android":"levelo://app?vid=67e28628-4e88-4d22-9395-5aa2097ec3d5","ios":"levelo://app?vid=67e28628-4e88-4d22-9395-5aa2097ec3d5"},"vehicle_type_id":"4","last_reported":1738591726,"current_range_meters":39200,"station_id":"ce4bhc92rcd13ifvqetg","pricing_plan_id":"cebpf4jnsgd1na2vs0mg"},{"bike_id":"1835d11e-5aeb-49c5-8332-a7f20203500d","system_id":"levelo_inurba_marseille","lat":43.3134,"lon":5.36709,"is_reserved":false,"is_disabled":false,"rental_uris":{"android":"levelo://app?vid=1835d11e-5aeb-49c5-8332-a7f20203500d","ios":"levelo://app?vid=1835d11e-5aeb-49c5-8332-a7f20203500d"},"vehicle_type_id":"4","last_reported":1738591726,"current_range_meters":38800,"station_id":"ce4bgr92rcd13ifvqc6g","pricing_plan_id":"cebpf4jnsgd1na2vs0mg"},{"bike_id":"6fa29cff-d8fa-4fb1-b5d9-4a419f3f6115","system_id":"levelo_inurba_marseille","lat":43.25941,"lon":5.4088,"is_reserved":false,"is_disabled":false,"rental_uris":{"android":"levelo://app?vid=6fa29cff-d8fa-4fb1-b5d9-4a419f3f6115","ios":"levelo://app?vid=6fa29cff-d8fa-4fb1-b5d9-4a419f3f6115"},"vehicle_type_id":"4","last_reported":1738591726,"current_range_meters":14400,"station_id":"ce4bhm92rcd13ifvqglg","pricing_plan_id":"cebpf4jnsgd1na2vs0mg"},{"bike_id":"7cf7455b-1a42-48fd-bebf-8bb1aed6e6fe","system_id":"levelo_inurba_marseille","lat":43.30949,"lon":5.39031,"is_reserved":false,"is_disabled":false,"rental_uris":{"android":"levelo://app?vid=7cf7455b-1a42-48fd-bebf-8bb1aed6e6fe","ios":"levelo://app?vid=7cf7455b-1a42-48fd-bebf-8bb1aed6e6fe"},"vehicle_type_id":"4","last_reported":1738591726,"current_range_meters":33600,"station_id":"ce4bgup2rcd13ifvqco0","pricing_plan_id":"cebpf4jnsgd1na2vs0mg"},{"bike_id":"8925b961-77ea-4fcf-8f2b-d895cd86bc19","system_id":"levelo_inurba_marseille","lat":43.23144,"lon":5.4371,"is_reserved":false,"is_disabled":false,"rental_uris":{"android":"levelo://app?vid=8925b961-77ea-4fcf-8f2b-d895cd86bc19","ios":"levelo://app?vid=8925b961-77ea-4fcf-8f2b-d895cd86bc19"},"vehicle_type_id":"4","last_reported":1738591726,"current_range_meters":13600,"station_id":"ce4bhmp2rcd13ifvqgog","pricing_plan_id":"cebpf4jnsgd1na2vs0mg"},{"bike_id":"16ce87b7-34b0-49e5-9d7e-a6f4fb21063d","system_id":"levelo_inurba_marseille","lat":43.27554,"lon":5.3842,"is_reserved":false,"is_disabled":false,"rental_uris":{"android":"levelo://app?vid=16ce87b7-34b0-49e5-9d7e-a6f4fb21063d","ios":"levelo://app?vid=16ce87b7-34b0-49e5-9d7e-a6f4fb21063d"},"vehicle_type_id":"4","last_reported":1738591726,"current_range_meters":12800,"station_id":"ce4bhh92rcd13ifvqfi0","pricing_plan_id":"cebpf4jnsgd1na2vs0mg"},{"bike_id":"8654b126-eecc-48d2-96fd-5d032bef9699","system_id":"levelo_inurba_marseille","lat":43.29942,"lon":5.36549,"is_reserved":false,"is_disabled":false,"rental_uris":{"android":"levelo://app?vid=8654b126-eecc-48d2-96fd-5d032bef9699","ios":"levelo://app?vid=8654b126-eecc-48d2-96fd-5d032bef9699"},"vehicle_type_id":"4","last_reported":1738591726,"current_range_meters":27600,"station_id":"ce4bgm92rcd13ifvqbr0","pricing_plan_id":"cebpf4jnsgd1na2vs0mg"},{"bike_id":"15f007c3-dc1c-405e-8612-2aee6f444c6e","system_id":"levelo_inurba_marseille","lat":43.2936,"lon":5.37827,"is_reserved":false,"is_disabled":false,"rental_uris":{"android":"levelo://app?vid=15f007c3-dc1c-405e-8612-2aee6f444c6e","ios":"levelo://app?vid=15f007c3-dc1c-405e-8612-2aee6f444c6e"},"vehicle_type_id":"4","last_reported":1738591726,"current_range_meters":39200,"station_id":"ce4bgjh2rcd13ifvqbf0","pricing_plan_id":"cebpf4jnsgd1na2vs0mg"},{"bike_id":"90b5e833-8c09-43ef-88a0-6d69bcaad38b","system_id":"levelo_inurba_marseille","lat":43.28847,"lon":5.35842,"is_reserved":false,"is_disabled":false,"rental_uris":{"android":"levelo://app?vid=90b5e833-8c09-43ef-88a0-6d69bcaad38b","ios":"levelo://app?vid=90b5e833-8c09-43ef-88a0-6d69bcaad38b"},"vehicle_type_id":"4","last_reported":1738591726,"current_range_meters":18000,"station_id":"ce4bhb12rcd13ifvqem0","pricing_plan_id":"cebpf4jnsgd1na2vs0mg"},{"bike_id":"eb9c859e-ef39-446e-afa7-9063d5540a2c","system_id":"levelo_inurba_marseille","lat":43.32912,"lon":5.36707,"is_reserved":false,"is_disabled":false,"rental_uris":{"android":"levelo://app?vid=eb9c859e-ef39-446e-afa7-9063d5540a2c","ios":"levelo://app?vid=eb9c859e-ef39-446e-afa7-9063d5540a2c"},"vehicle_type_id":"4","last_reported":1738591726,"current_range_meters":32800,"station_id":"","pricing_plan_id":"cebpf4jnsgd1na2vs0mg"},{"bike_id":"36887ab5-2ed4-4e9c-9c1d-e30dcea16822","system_id":"levelo_inurba_marseille","lat":43.28485,"lon":5.38408,"is_reserved":false,"is_disabled":false,"rental_uris":{"android":"levelo://app?vid=36887ab5-2ed4-4e9c-9c1d-e30dcea16822","ios":"levelo://app?vid=36887ab5-2ed4-4e9c-9c1d-e30dcea16822"},"vehicle_type_id":"4","last_reported":1738591726,"current_range_meters":24800,"station_id":"ce4bh512rcd13ifvqe3g","pricing_plan_id":"cebpf4jnsgd1na2vs0mg"},{"bike_id":"3c12d71f-fdf6-47c7-8762-9a25ac4bcc24","system_id":"levelo_inurba_marseille","lat":43.26204,"lon":5.37913,"is_reserved":false,"is_disabled":false,"rental_uris":{"android":"levelo://app?vid=3c12d71f-fdf6-47c7-8762-9a25ac4bcc24","ios":"levelo://app?vid=3c12d71f-fdf6-47c7-8762-9a25ac4bcc24"},"vehicle_type_id":"4","last_reported":1738591726,"current_range_meters":24800,"station_id":"ce4bhjp2rcd13ifvqg90","pricing_plan_id":"cebpf4jnsgd1na2vs0mg"},{"bike_id":"5688ac17-5443-4dac-8fe6-c32fce7d33ec","system_id":"levelo_inurba_marseille","lat":43.27371,"lon":5.36253,"is_reserved":false,"is_disabled":false,"rental_uris":{"android":"levelo://app?vid=5688ac17-5443-4dac-8fe6-c32fce7d33ec","ios":"levelo://app?vid=5688ac17-5443-4dac-8fe6-c32fce7d33ec"},"vehicle_type_id":"4","last_reported":1738591726,"current_range_meters":7200,"station_id":"ce4bhbh2rcd13ifvqeo0","pricing_plan_id":"cebpf4jnsgd1na2vs0mg"},{"bike_id":"bd8fce10-db60-4637-88ad-07a5a938f039","system_id":"levelo_inurba_marseille","lat":43.28609,"lon":5.3706,"is_reserved":false,"is_disabled":true,"rental_uris":{"android":"levelo://app?vid=bd8fce10-db60-4637-88ad-07a5a938f039","ios":"levelo://app?vid=bd8fce10-db60-4637-88ad-07a5a938f039"},"vehicle_type_id":"4","last_reported":1738591726,"current_range_meters":38800,"station_id":"ce4bht12rcd13ifvqi60","pricing_plan_id":"cebpf4jnsgd1na2vs0mg"},{"bike_id":"aca7f856-95b0-4e97-8a0a-cf9d567272bd","system_id":"levelo_inurba_marseille","lat":43.230583,"lon":5.354903,"is_reserved":false,"is_disabled":false,"rental_uris":{"android":"levelo://app?vid=aca7f856-95b0-4e97-8a0a-cf9d567272bd","ios":"levelo://app?vid=aca7f856-95b0-4e97-8a0a-cf9d567272bd"},"vehicle_type_id":"4","last_reported":1738591726,"current_range_meters":36800,"station_id":"cpo3342slgdg3j2ifvpg","pricing_plan_id":"cebpf4jnsgd1na2vs0mg"},{"bike_id":"ffd810c4-873c-46d9-9479-4a00bc0ca2fb","system_id":"levelo_inurba_marseille","lat":43.29013,"lon":5.38125,"is_reserved":false,"is_disabled":false,"rental_uris":{"android":"levelo://app?vid=ffd810c4-873c-46d9-9479-4a00bc0ca2fb","ios":"levelo://app?vid=ffd810c4-873c-46d9-9479-4a00bc0ca2fb"},"vehicle_type_id":"4","last_reported":1738591726,"current_range_meters":16400,"station_id":"ce4bh4p2rcd13ifvqe1g","pricing_plan_id":"cebpf4jnsgd1na2vs0mg"},{"bike_id":"9d9e6714-036c-4151-8a5d-515ad00cd54b","system_id":"levelo_inurba_marseille","lat":43.23192,"lon":5.35547,"is_reserved":false,"is_disabled":false,"rental_uris":{"android":"levelo://app?vid=9d9e6714-036c-4151-8a5d-515ad00cd54b","ios":"levelo://app?vid=9d9e6714-036c-4151-8a5d-515ad00cd54b"},"vehicle_type_id":"4","last_reported":1738591726,"current_range_meters":22000,"station_id":"ce4bhu92rcd13ifvqi70","pricing_plan_id":"cebpf4jnsgd1na2vs0mg"},{"bike_id":"a0a9ff7c-65bc-459c-b1ae-c94d1bfe3e15","system_id":"levelo_inurba_marseille","lat":43.32479,"lon":5.36561,"is_reserved":false,"is_disabled":false,"rental_uris":{"android":"levelo://app?vid=a0a9ff7c-65bc-459c-b1ae-c94d1bfe3e15","ios":"levelo://app?vid=a0a9ff7c-65bc-459c-b1ae-c94d1bfe3e15"},"vehicle_type_id":"4","last_reported":1738591726,"current_range_meters":39200,"station_id":"ce4bhs12rcd13ifvqhvg","pricing_plan_id":"cebpf4jnsgd1na2vs0mg"},{"bike_id":"56e9681b-2d37-4b2c-957b-46ae6a15a367","system_id":"levelo_inurba_marseille","lat":43.29692,"lon":5.36605,"is_reserved":false,"is_disabled":false,"rental_uris":{"android":"levelo://app?vid=56e9681b-2d37-4b2c-957b-46ae6a15a367","ios":"levelo://app?vid=56e9681b-2d37-4b2c-957b-46ae6a15a367"},"vehicle_type_id":"4","last_reported":1738591726,"current_range_meters":33600,"station_id":"ce4bgn12rcd13ifvqbt0","pricing_plan_id":"cebpf4jnsgd1na2vs0mg"},{"bike_id":"4cbc1702-33a5-415f-a49a-64ced741e96f","system_id":"levelo_inurba_marseille","lat":43.30121,"lon":5.39875,"is_reserved":false,"is_disabled":false,"rental_uris":{"android":"levelo://app?vid=4cbc1702-33a5-415f-a49a-64ced741e96f","ios":"levelo://app?vid=4cbc1702-33a5-415f-a49a-64ced741e96f"},"vehicle_type_id":"4","last_reported":1738591726,"current_range_meters":37600,"station_id":"ce4bh0h2rcd13ifvqd40","pricing_plan_id":"cebpf4jnsgd1na2vs0mg"},{"bike_id":"fa86509c-c01b-48ea-b21a-3e978d1c54d5","system_id":"levelo_inurba_marseille","lat":43.30357,"lon":5.4188,"is_reserved":false,"is_disabled":true,"rental_uris":{"android":"levelo://app?vid=fa86509c-c01b-48ea-b21a-3e978d1c54d5","ios":"levelo://app?vid=fa86509c-c01b-48ea-b21a-3e978d1c54d5"},"vehicle_type_id":"4","last_reported":1738591726,"current_range_meters":37600,"station_id":"ce4bhop2rcd13ifvqh7g","pricing_plan_id":"cebpf4jnsgd1na2vs0mg"},{"bike_id":"f8245ac1-055c-4956-9505-c34c84a2fb02","system_id":"levelo_inurba_marseille","lat":43.29628,"lon":5.37165,"is_reserved":false,"is_disabled":false,"rental_uris":{"android":"levelo://app?vid=f8245ac1-055c-4956-9505-c34c84a2fb02","ios":"levelo://app?vid=f8245ac1-055c-4956-9505-c34c84a2fb02"},"vehicle_type_id":"4","last_reported":1738591726,"current_range_meters":33600,"station_id":"ce4bgnh2rcd13ifvqc0g","pricing_plan_id":"cebpf4jnsgd1na2vs0mg"},{"bike_id":"69031904-28de-4fb5-89cb-e2203a303110","system_id":"levelo_inurba_marseille","lat":43.30895,"lon":5.3684,"is_reserved":false,"is_disabled":false,"rental_uris":{"android":"levelo://app?vid=69031904-28de-4fb5-89cb-e2203a303110","ios":"levelo://app?vid=69031904-28de-4fb5-89cb-e2203a303110"},"vehicle_type_id":"4","last_reported":1738591726,"current_range_meters":11200,"station_id":"ce4bgn92rcd13ifvqbvg","pricing_plan_id":"cebpf4jnsgd1na2vs0mg"},{"bike_id":"7b39ed00-86df-4303-bda1-bfc0fee1e7e2","system_id":"levelo_inurba_marseille","lat":43.32438,"lon":5.45551,"is_reserved":false,"is_disabled":false,"rental_uris":{"android":"levelo://app?vid=7b39ed00-86df-4303-bda1-bfc0fee1e7e2","ios":"levelo://app?vid=7b39ed00-86df-4303-bda1-bfc0fee1e7e2"},"vehicle_type_id":"4","last_reported":1738591726,"current_range_meters":28000,"station_id":"","pricing_plan_id":"cebpf4jnsgd1na2vs0mg"},{"bike_id":"9807923f-ce8f-4aaf-a7c8-3fb77360323b","system_id":"levelo_inurba_marseille","lat":43.29269,"lon":5.36839,"is_reserved":false,"is_disabled":false,"rental_uris":{"android":"levelo://app?vid=9807923f-ce8f-4aaf-a7c8-3fb77360323b","ios":"levelo://app?vid=9807923f-ce8f-4aaf-a7c8-3fb77360323b"},"vehicle_type_id":"4","last_reported":1738591726,"current_range_meters":16400,"station_id":"ce4bhbp2rcd13ifvqesg","pricing_plan_id":"cebpf4jnsgd1na2vs0mg"},{"bike_id":"27965b13-db93-44ae-be4a-77a8d97c3b7e","system_id":"levelo_inurba_marseille","lat":43.26957,"lon":5.40265,"is_reserved":false,"is_disabled":false,"rental_uris":{"android":"levelo://app?vid=27965b13-db93-44ae-be4a-77a8d97c3b7e","ios":"levelo://app?vid=27965b13-db93-44ae-be4a-77a8d97c3b7e"},"vehicle_type_id":"4","last_reported":1738591726,"current_range_meters":39200,"station_id":"cjm6bp8fraef2m0cb0m0","pricing_plan_id":"cebpf4jnsgd1na2vs0mg"},{"bike_id":"6eb6d0b3-cd17-4662-8e57-f9c43227a652","system_id":"levelo_inurba_marseille","lat":43.31065,"lon":5.38349,"is_reserved":false,"is_disabled":false,"rental_uris":{"android":"levelo://app?vid=6eb6d0b3-cd17-4662-8e57-f9c43227a652","ios":"levelo://app?vid=6eb6d0b3-cd17-4662-8e57-f9c43227a652"},"vehicle_type_id":"4","last_reported":1738591726,"current_range_meters":36000,"station_id":"ce4bgv92rcd13ifvqcr0","pricing_plan_id":"cebpf4jnsgd1na2vs0mg"},{"bike_id":"ce09efa2-ec0b-46e3-853a-df30846fc53e","system_id":"levelo_inurba_marseille","lat":43.25818,"lon":5.39421,"is_reserved":false,"is_disabled":false,"rental_uris":{"android":"levelo://app?vid=ce09efa2-ec0b-46e3-853a-df30846fc53e","ios":"levelo://app?vid=ce09efa2-ec0b-46e3-853a-df30846fc53e"},"vehicle_type_id":"4","last_reported":1738591726,"current_range_meters":27600,"station_id":"ce4bhip2rcd13ifvqft0","pricing_plan_id":"cebpf4jnsgd1na2vs0mg"},{"bike_id":"b77a1f56-ed54-4b34-b834-333239731b0c","system_id":"levelo_inurba_marseille","lat":43.25502,"lon":5.37653,"is_reserved":false,"is_disabled":false,"rental_uris":{"android":"levelo://app?vid=b77a1f56-ed54-4b34-b834-333239731b0c","ios":"levelo://app?vid=b77a1f56-ed54-4b34-b834-333239731b0c"},"vehicle_type_id":"4","last_reported":1738591726,"current_range_meters":36400,"station_id":"ce4bhh12rcd13ifvqff0","pricing_plan_id":"cebpf4jnsgd1na2vs0mg"},{"bike_id":"50773302-9b6c-4509-8545-817f6c156256","system_id":"levelo_inurba_marseille","lat":43.27983,"lon":5.38737,"is_reserved":false,"is_disabled":false,"rental_uris":{"android":"levelo://app?vid=50773302-9b6c-4509-8545-817f6c156256","ios":"levelo://app?vid=50773302-9b6c-4509-8545-817f6c156256"},"vehicle_type_id":"4","last_reported":1738591726,"current_range_meters":23200,"station_id":"ce4bhg12rcd13ifvqf80","pricing_plan_id":"cebpf4jnsgd1na2vs0mg"},{"bike_id":"c7efea0b-41ab-47c4-93f0-43a53000a63b","system_id":"levelo_inurba_marseille","lat":43.23065,"lon":5.35489,"is_reserved":false,"is_disabled":false,"rental_uris":{"android":"levelo://app?vid=c7efea0b-41ab-47c4-93f0-43a53000a63b","ios":"levelo://app?vid=c7efea0b-41ab-47c4-93f0-43a53000a63b"},"vehicle_type_id":"4","last_reported":1738591726,"current_range_meters":38000,"station_id":"cpo3342slgdg3j2ifvpg","pricing_plan_id":"cebpf4jnsgd1na2vs0mg"},{"bike_id":"324c2be5-1d25-4100-9086-8cdc99db60dc","system_id":"levelo_inurba_marseille","lat":43.2592,"lon":5.40886,"is_reserved":false,"is_disabled":true,"rental_uris":{"android":"levelo://app?vid=324c2be5-1d25-4100-9086-8cdc99db60dc","ios":"levelo://app?vid=324c2be5-1d25-4100-9086-8cdc99db60dc"},"vehicle_type_id":"4","last_reported":1738591726,"current_range_meters":1200,"station_id":"ce4bhm92rcd13ifvqglg","pricing_plan_id":"cebpf4jnsgd1na2vs0mg"},{"bike_id":"4a42dd29-029c-4dc5-a661-08b756992b1c","system_id":"levelo_inurba_marseille","lat":43.27696,"lon":5.38883,"is_reserved":false,"is_disabled":false,"rental_uris":{"android":"levelo://app?vid=4a42dd29-029c-4dc5-a661-08b756992b1c","ios":"levelo://app?vid=4a42dd29-029c-4dc5-a661-08b756992b1c"},"vehicle_type_id":"4","last_reported":1738591726,"current_range_meters":38800,"station_id":"ce4bhi12rcd13ifvqfo0","pricing_plan_id":"cebpf4jnsgd1na2vs0mg"},{"bike_id":"91f417b4-a310-423b-9c41-a2510c63469e","system_id":"levelo_inurba_marseille","lat":43.29787,"lon":5.38079,"is_reserved":false,"is_disabled":false,"rental_uris":{"android":"levelo://app?vid=91f417b4-a310-423b-9c41-a2510c63469e","ios":"levelo://app?vid=91f417b4-a310-423b-9c41-a2510c63469e"},"vehicle_type_id":"4","last_reported":1738591726,"current_range_meters":28400,"station_id":"ce4bgip2rcd13ifvqbb0","pricing_plan_id":"cebpf4jnsgd1na2vs0mg"},{"bike_id":"569e37f7-daba-45e9-b886-e7aab52966ce","system_id":"levelo_inurba_marseille","lat":43.28459,"lon":5.35891,"is_reserved":false,"is_disabled":false,"rental_uris":{"android":"levelo://app?vid=569e37f7-daba-45e9-b886-e7aab52966ce","ios":"levelo://app?vid=569e37f7-daba-45e9-b886-e7aab52966ce"},"vehicle_type_id":"4","last_reported":1738591726,"current_range_meters":18800,"station_id":"ce4bhah2rcd13ifvqei0","pricing_plan_id":"cebpf4jnsgd1na2vs0mg"},{"bike_id":"439c2536-2abe-4087-b8ca-646055d51509","system_id":"levelo_inurba_marseille","lat":43.2706,"lon":5.40247,"is_reserved":false,"is_disabled":false,"rental_uris":{"android":"levelo://app?vid=439c2536-2abe-4087-b8ca-646055d51509","ios":"levelo://app?vid=439c2536-2abe-4087-b8ca-646055d51509"},"vehicle_type_id":"4","last_reported":1738591726,"current_range_meters":26000,"station_id":"ce4bhk92rcd13ifvqgc0","pricing_plan_id":"cebpf4jnsgd1na2vs0mg"},