{"last_updated":1742451268,"ttl":60,"version":"2.2","data":{"bikes":[{"bike_id":"4ab60c3c-0e31-4a02-9d5f-acb594ff22ad","system_id":"levelo_inurba_marseille","lat":43.2993,"lon":5.37451,"is_reserved":false,"is_disabled":true,"rental_uris":{"android":"levelo://app?vid=4ab60c3c-0e31-4a02-9d5f-acb594ff22ad","ios":"levelo://app?vid=4ab60c3c-0e31-4a02-9d5f-acb594ff22ad"},"vehicle_type_id":"4","last_reported":1742451268,"current_range_meters":2800,"station_id":"ce4bgjh2rcd13ifvqbg0","pricing_plan_id":"cebpf4jnsgd1na2vs0mg"},{"bike_id":"8bbd69c9-c81f-443c-8036-3fe1afda792c","system_id":"levelo_inurba_marseille","lat":43.29625,"lon":5.37719,"is_reserved":false,"is_disabled":false,"rental_uris":{"android":"levelo://app?vid=8bbd69c9-c81f-443c-8036-3fe1afda792c","ios":"levelo://app?vid=8bbd69c9-c81f-443c-8036-3fe1afda792c"},"vehicle_type_id":"4","last_reported":1742451268,"current_range_meters":2800,"station_id":"ce4bgi92rcd13ifvqb90","pricing_plan_id":"cebpf4jnsgd1na2vs0mg"},{"bike_id":"85352492-aac2-47d3-8972-889068910fb1","system_id":"levelo_inurba_marseille","lat":43.33076,"lon":5.40795,"is_reserved":false,"is_disabled":false,"rental_uris":{"android":"levelo://app?vid=85352492-aac2-47d3-8972-889068910fb1","ios":"levelo://app?vid=85352492-aac2-47d3-8972-889068910fb1"},"vehicle_type_id":"4","last_reported":1742451268,"current_range_meters":2800,"station_id":"","pricing_plan_id":"cebpf4jnsgd1na2vs0mg"},{"bike_id":"a51c31a3-7626-4138-a860-ede070b771b2","system_id":"levelo_inurba_marseille","lat":43.30923,"lon":5.40157,"is_reserved":false,"is_disabled":false,"rental_uris":{"android":"levelo://app?vid=a51c31a3-7626-4138-a860-ede070b771b2","ios":"levelo://app?vid=a51c31a3-7626-4138-a860-ede070b771b2"},"vehicle_type_id":"4","last_reported":1742451268,"current_range_meters":2800,"station_id":"ce4bgvp2rcd13ifvqct0","pricing_plan_id":"cebpf4jnsgd1na2vs0mg"},{"bike_id":"71b838f4-9de9-4404-85b1-70862205036f","system_id":"levelo_inurba_marseille","lat":43.25714,"lon":5.41102,"is_reserved":false,"is_disabled":false,"rental_uris":{"android":"levelo://app?vid=71b838f4-9de9-4404-85b1-70862205036f","ios":"levelo://app?vid=71b838f4-9de9-4404-85b1-70862205036f"},"vehicle_type_id":"4","last_reported":1742451268,"current_range_meters":2800,"station_id":"ce4bhkp2rcd13ifvqgd0","pricing_plan_id":"cebpf4jnsgd1na2vs0mg"},{"bike_id":"6ae6f76c-6a01-4d75-9d3f-dfa610803a78","system_id":"levelo_inurba_marseille","lat":43.23065,"lon":5.35506,"is_reserved":false,"is_disabled":false,"rental_uris":{"android":"levelo://app?vid=6ae6f76c-6a01-4d75-9d3f-dfa610803a78","ios":"levelo://app?vid=6ae6f76c-6a01-4d75-9d3f-dfa610803a78"},"vehicle_type_id":"4","last_reported":1742451268,"current_range_meters":3200,"station_id":"cpo3342slgdg3j2ifvpg","pricing_plan_id":"cebpf4jnsgd1na2vs0mg"},{"bike_id":"41ccd72c-504a-4b33-907d-e3b6bd114bcb","system_id":"levelo_inurba_marseille","lat":43.2321,"lon":5.3558,"is_reserved":false,"is_disabled":false,"rental_uris":{"android":"levelo://app?vid=41ccd72c-504a-4b33-907d-e3b6bd114bcb","ios":"levelo://app?vid=41ccd72c-504a-4b33-907d-e3b6bd114bcb"},"vehicle_type_id":"4","last_reported":1742451268,"current_range_meters":3200,"station_id":"ce4bhu92rcd13ifvqi70","pricing_plan_id":"cebpf4jnsgd1na2vs0mg"},{"bike_id":"dd2ed7bd-b7fd-4968-a45f-8f49550d4b0d","system_id":"levelo_inurba_marseille","lat":43.284302,"lon":5.392053,"is_reserved":false,"is_disabled":false,"rental_uris":{"android":"levelo://app?vid=dd2ed7bd-b7fd-4968-a45f-8f49550d4b0d","ios":"levelo://app?vid=dd2ed7bd-b7fd-4968-a45f-8f49550d4b0d"},"vehicle_type_id":"4","last_reported":1742451268,"current_range_meters":3200,"station_id":"ce4bhoh2rcd13ifvqh5g","pricing_plan_id":"cebpf4jnsgd1na2vs0mg"},{"bike_id":"2ab48ae0-3426-44c6-b1c7-00fc3a428c1b","system_id":"levelo_inurba_marseille","lat":43.24809,"lon":5.3745,"is_reserved":false,"is_disabled":false,"rental_uris":{"android":"levelo://app?vid=2ab48ae0-3426-44c6-b1c7-00fc3a428c1b","ios":"levelo://app?vid=2ab48ae0-3426-44c6-b1c7-00fc3a428c1b"},"vehicle_type_id":"4","last_reported":1742451268,"current_range_meters":3200,"station_id":"ce4bhgh2rcd13ifvqfb0","pricing_plan_id":"cebpf4jnsgd1na2vs0mg"},{"bike_id":"0b60e72b-d8b1-4266-9b63-b94b87c1ad4b","system_id":"levelo_inurba_marseille","lat":43.231907,"lon":5.399843,"is_reserved":false,"is_disabled":false,"rental_uris":{"android":"levelo://app?vid=0b60e72b-d8b1-4266-9b63-b94b87c1ad4b","ios":"levelo://app?vid=0b60e72b-d8b1-4266-9b63-b94b87c1ad4b"},"vehicle_type_id":"4","last_reported":1742451268,"current_range_meters":3600,"station_id":"ce4bhn12rcd13ifvqgqg","pricing_plan_id":"cebpf4jnsgd1na2vs0mg"},{"bike_id":"ca1c0a28-8faf-435f-9d8b-370c3a07ff34","system_id":"levelo_inurba_marseille","lat":43.24163,"lon":5.36433,"is_reserved":false,"is_disabled":false,"rental_uris":{"android":"levelo://app?vid=ca1c0a28-8faf-435f-9d8b-370c3a07ff34","ios":"levelo://app?vid=ca1c0a28-8faf-435f-9d8b-370c3a07ff34"},"vehicle_type_id":"4","last_reported":1742451268,"current_range_meters":3600,"station_id":"cpo36qri1sfpv3e86is0","pricing_plan_id":"cebpf4jnsgd1na2vs0mg"},{"bike_id":"c849e512-8241-40ea-82b7-ef1c1b5cdc02","system_id":"levelo_inurba_marseille","lat":43.26053,"lon":5.39399,"is_reserved":false,"is_disabled":false,"rental_uris":{"android":"levelo://app?vid=c849e512-8241-40ea-82b7-ef1c1b5cdc02","ios":"levelo://app?vid=c849e512-8241-40ea-82b7-ef1c1b5cdc02"},"vehicle_type_id":"4","last_reported":1742451268,"current_range_meters":3600,"station_id":"ce4bhh92rcd13ifvqfj0","pricing_plan_id":"cebpf4jnsgd1na2vs0mg"},{"bike_id":"f26f3d5a-4028-424d-9faf-78c43bb5f4de","system_id":"levelo_inurba_marseille","lat":43.27907,"lon":5.39596,"is_reserved":false,"is_disabled":false,"rental_uris":{"android":"levelo://app?vid=f26f3d5a-4028-424d-9faf-78c43bb5f4de","ios":"levelo://app?vid=f26f3d5a-4028-424d-9faf-78c43bb5f4de"},"vehicle_type_id":"4","last_reported":1742451268,"current_range_meters":3600,"station_id":"ce4bhf92rcd13ifvqf40","pricing_plan_id":"cebpf4jnsgd1na2vs0mg"},{"bike_id":"c1ccf0a5-89fe-4d49-a5d7-808fb720c652","system_id":"levelo_inurba_marseille","lat":43.26026,"lon":5.41744,"is_reserved":false,"is_disabled":false,"rental_uris":{"android":"levelo://app?vid=c1ccf0a5-89fe-4d49-a5d7-808fb720c652","ios":"levelo://app?vid=c1ccf0a5-89fe-4d49-a5d7-808fb720c652"},"vehicle_type_id":"4","last_reported":1742451268,"current_range_meters":4000,"station_id":"","pricing_plan_id":"cebpf4jnsgd1na2vs0mg"},{"bike_id":"4382fcbb-ab3a-4082-a593-40cf743c03e0","system_id":"levelo_inurba_marseille","lat":43.25091,"lon":5.40342,"is_reserved":false,"is_disabled":false,"rental_uris":{"android":"levelo://app?vid=4382fcbb-ab3a-4082-a593-40cf743c03e0","ios":"levelo://app?vid=4382fcbb-ab3a-4082-a593-40cf743c03e0"},"vehicle_type_id":"4","last_reported":1742451268,"current_range_meters":4000,"station_id":"ce4bhlh2rcd13ifvqgig","pricing_plan_id":"cebpf4jnsgd1na2vs0mg"},{"bike_id":"8d83e8cb-bc34-4c17-ad29-fbe2d4a7c5e7","system_id":"levelo_inurba_marseille","lat":43.27971,"lon":5.38703,"is_reserved":false,"is_disabled":false,"rental_uris":{"android":"levelo://app?vid=8d83e8cb-bc34-4c17-ad29-fbe2d4a7c5e7","ios":"levelo://app?vid=8d83e8cb-bc34-4c17-ad29-fbe2d4a7c5e7"},"vehicle_type_id":"4","last_reported":1742451268,"current_range_meters":4000,"station_id":"ce4bhg12rcd13ifvqf80","pricing_plan_id":"cebpf4jnsgd1na2vs0mg"},{"bike_id":"6c1383c4-ce25-49bd-9e8f-5404db35746c","system_id":"levelo_inurba_marseille","lat":43.23635,"lon":5.39156,"is_reserved":false,"is_disabled":false,"rental_uris":{"android":"levelo://app?vid=6c1383c4-ce25-49bd-9e8f-5404db35746c","ios":"levelo://app?vid=6c1383c4-ce25-49bd-9e8f-5404db35746c"},"vehicle_type_id":"4","last_reported":1742451268,"current_range_meters":4000,"station_id":"","pricing_plan_id":"cebpf4jnsgd1na2vs0mg"},{"bike_id":"3971f77a-b88d-4f35-bb02-cd0729f773be","system_id":"levelo_inurba_marseille","lat":43.25816,"lon":5.39435,"is_reserved":false,"is_disabled":false,"rental_uris":{"android":"levelo://app?vid=3971f77a-b88d-4f35-bb02-cd0729f773be","ios":"levelo://app?vid=3971f77a-b88d-4f35-bb02-cd0729f773be"},"vehicle_type_id":"4","last_reported":1742451268,"current_range_meters":4000,"station_id":"ce4bhip2rcd13ifvqft0","pricing_plan_id":"cebpf4jnsgd1na2vs0mg"},{"bike_id":"07a84210-640a-4451-abeb-0f9d302f1d58","system_id":"levelo_inurba_marseille","lat":43.26548,"lon":5.3904,"is_reserved":false,"is_disabled":false,"rental_uris":{"android":"levelo://app?vid=07a84210-640a-4451-abeb-0f9d302f1d58","ios":"levelo://app?vid=07a84210-640a-4451-abeb-0f9d302f1d58"},"vehicle_type_id":"4","last_reported":1742451268,"current_range_meters":4400,"station_id":"ce4bhe12rcd13ifvqf30","pricing_plan_id":"cebpf4jnsgd1na2vs0mg"},{"bike_id":"a342afa1-fe1b-4de5-8f98-f3f81167fac6","system_id":"levelo_inurba_marseille","lat":43.229329,"lon":5.353746,"is_reserved":false,"is_disabled":false,"rental_uris":{"android":"levelo://app?vid=a342afa1-fe1b-4de5-8f98-f3f81167fac6","ios":"levelo://app?vid=a342afa1-fe1b-4de5-8f98-f3f81167fac6"},"vehicle_type_id":"4","last_reported":1742451268,"current_range_meters":4800,"station_id":"cpo3532slgdg3j2ikp40","pricing_plan_id":"cebpf4jnsgd1na2vs0mg"},{"bike_id":"66ebd736-d0e1-4909-b91a-8b8e170e1ed9","system_id":"levelo_inurba_marseille","lat":43.2407,"lon":5.37758,"is_reserved":false,"is_disabled":false,"rental_uris":{"android":"levelo://app?vid=66ebd736-d0e1-4909-b91a-8b8e170e1ed9","ios":"levelo://app?vid=66ebd736-d0e1-4909-b91a-8b8e170e1ed9"},"vehicle_type_id":"4","last_reported":1742451268,"current_range_meters":4800,"station_id":"ce4bhnp2rcd13ifvqgvg","pricing_plan_id":"cebpf4jnsgd1na2vs0mg"},{"bike_id":"4156866b-a0ed-4dcf-b9d2-e7765ca102e2","system_id":"levelo_inurba_marseille","lat":43.30539,"lon":5.36705,"is_reserved":false,"is_disabled":true,"rental_uris":{"android":"levelo://app?vid=4156866b-a0ed-4dcf-b9d2-e7765ca102e2","ios":"levelo://app?vid=4156866b-a0ed-4dcf-b9d2-e7765ca102e2"},"vehicle_type_id":"4","last_reported":1742451268,"current_range_meters":4800,"station_id":"ce4bgrp2rcd13ifvqc9g","pricing_plan_id":"cebpf4jnsgd1na2vs0mg"},{"bike_id":"36398751-62bc-42f9-97fc-ed7aa66a199a","system_id":"levelo_inurba_marseille","lat":43.24816,"lon":5.37457,"is_reserved":false,"is_disabled":false,"rental_uris":{"android":"levelo://app?vid=36398751-62bc-42f9-97fc-ed7aa66a199a","ios":"levelo://app?vid=36398751-62bc-42f9-97fc-ed7aa66a199a"},"vehicle_type_id":"4","last_reported":1742451268,"current_range_meters":4800,"station_id":"ce4bhgh2rcd13ifvqfb0","pricing_plan_id":"cebpf4jnsgd1na2vs0mg"},{"bike_id":"13c50ce8-ac37-403c-9a91-fd3d918d2a4f","system_id":"levelo_inurba_marseille","lat":43.27841,"lon":5.40712,"is_reserved":false,"is_disabled":false,"rental_uris":{"android":"levelo://app?vid=13c50ce8-ac37-403c-9a91-fd3d918d2a4f","ios":"levelo://app?vid=13c50ce8-ac37-403c-9a91-fd3d918d2a4f"},"vehicle_type_id":"4","last_reported":1742451268,"current_range_meters":4800,"station_id":"ce4bhnh2rcd13ifvqgtg","pricing_plan_id":"cebpf4jnsgd1na2vs0mg"},{"bike_id":"93c8459b-99b3-44b8-ba99-136ecf8bee55","system_id":"levelo_inurba_marseille","lat":43.247816,"lon":5.374758,"is_reserved":false,"is_disabled":false,"rental_uris":{"android":"levelo://app?vid=93c8459b-99b3-44b8-ba99-136ecf8bee55","ios":"levelo://app?vid=93c8459b-99b3-44b8-ba99-136ecf8bee55"},"vehicle_type_id":"4","last_reported":1742451268,"current_range_meters":5600,"station_id":"ce4bhgh2rcd13ifvqfb0","pricing_plan_id":"cebpf4jnsgd1na2vs0mg"},{"bike_id":"4f70ebff-4208-422e-8c95-09d5bebf9c84","system_id":"levelo_inurba_marseille","lat":43.279141,"lon":5.395834,"is_reserved":false,"is_disabled":false,"rental_uris":{"android":"levelo://app?vid=4f70ebff-4208-422e-8c95-09d5bebf9c84","ios":"levelo://app?vid=4f70ebff-4208-422e-8c95-09d5bebf9c84"},"vehicle_type_id":"4","last_reported":1742451268,"current_range_meters":5600,"station_id":"ce4bhf92rcd13ifvqf40","pricing_plan_id":"cebpf4jnsgd1na2vs0mg"},{"bike_id":"d3aee935-e07d-4388-bbdb-0f36c5d2addd","system_id":"levelo_inurba_marseille","lat":43.286954,"lon":5.373925,"is_reserved":false,"is_disabled":false,"rental_uris":{"android":"levelo://app?vid=d3aee935-e07d-4388-bbdb-0f36c5d2addd","ios":"levelo://app?vid=d3aee935-e07d-4388-bbdb-0f36c5d2addd"},"vehicle_type_id":"4","last_reported":1742451268,"current_range_meters":6000,"station_id":"ce4bh3p2rcd13ifvqdq0","pricing_plan_id":"cebpf4jnsgd1na2vs0mg"},{"bike_id":"361822fa-663c-449d-9c8f-b3dec5b6d89a","system_id":"levelo_inurba_marseille","lat":43.27495,"lon":5.4247,"is_reserved":false,"is_disabled":false,"rental_uris":{"android":"levelo://app?vid=361822fa-663c-449d-9c8f-b3dec5b6d89a","ios":"levelo://app?vid=361822fa-663c-449d-9c8f-b3dec5b6d89a"},"vehicle_type_id":"4","last_reported":1742451268,"current_range_meters":6000,"station_id":"ce4bhn92rcd13ifvqgrg","pricing_plan_id":"cebpf4jnsgd1na2vs0mg"},{"bike_id":"ed32af05-a93a-40af-b3e3-3171404acc80","system_id":"levelo_inurba_marseille","lat":43.27379,"lon":5.36262,"is_reserved":false,"is_disabled":false,"rental_uris":{"android":"levelo://app?vid=ed32af05-a93a-40af-b3e3-3171404acc80","ios":"levelo://app?vid=ed32af05-a93a-40af-b3e3-3171404acc80"},"vehicle_type_id":"4","last_reported":1742451268,"current_range_meters":6000,"station_id":"ce4bhbh2rcd13ifvqeo0","pricing_plan_id":"cebpf4jnsgd1na2vs0mg"},{"bike_id":"865b135a-b505-4801-b213-2527312db79d","system_id":"levelo_inurba_marseille","lat":43.239,"lon":5.37119,"is_reserved":false,"is_disabled":false,"rental_uris":{"android":"levelo://app?vid=865b135a-b505-4801-b213-2527312db79d","ios":"levelo://app?vid=865b135a-b505-4801-b213-2527312db79d"},"vehicle_type_id":"4","last_reported":1742451268,"current_range_meters":6400,"station_id":"","pricing_plan_id":"cebpf4jnsgd1na2vs0mg"},{"bike_id":"d0f8fd34-84ff-4859-8903-7aee9c800007","system_id":"levelo_inurba_marseille","lat":43.28343,"lon":5.3868,"is_reserved":false,"is_disabled":false,"rental_uris":{"android":"levelo://app?vid=d0f8fd34-84ff-4859-8903-7aee9c800007","ios":"levelo://app?vid=d0f8fd34-84ff-4859-8903-7aee9c800007"},"vehicle_type_id":"4","last_reported":1742451268,"current_range_meters":6400,"station_id":"ce4bh492rcd13ifvqdvg","pricing_plan_id":"cebpf4jnsgd1na2vs0mg"},{"bike_id":"9c21dfd3-8ccb-4a06-a518-559ac48b828f","system_id":"levelo_inurba_marseille","lat":43.28452,"lon":5.35904,"is_reserved":false,"is_disabled":false,"rental_uris":{"android":"levelo://app?vid=9c21dfd3-8ccb-4a06-a518-559ac48b828f","ios":"levelo://app?vid=9c21dfd3-8ccb-4a06-a518-559ac48b828f"},"vehicle_type_id":"4","last_reported":1742451268,"current_range_meters":6400,"station_id":"ce4bhah2rcd13ifvqei0","pricing_plan_id":"cebpf4jnsgd1na2vs0mg"},{"bike_id":"3c0f86bf-2134-4462-a7ab-79aaede557c9","system_id":"levelo_inurba_marseille","lat":43.31708,"lon":5.43718,"is_reserved":false,"is_disabled":false,"rental_uris":{"android":"levelo://app?vid=3c0f86bf-2134-4462-a7ab-79aaede557c9","ios":"levelo://app?vid=3c0f86bf-2134-4462-a7ab-79aaede557c9"},"vehicle_type_id":"4","last_reported":1742451268,"current_range_meters":6400,"station_id":"ce4bhp92rcd13ifvqhcg","pricing_plan_id":"cebpf4jnsgd1na2vs0mg"},{"bike_id":"d36999e5-1ec8-4299-a4fc-068061d2f0c7","system_id":"levelo_inurba_marseille","lat":43.31288,"lon":5.40183,"is_reserved":false,"is_disabled":false,"rental_uris":{"android":"levelo://app?vid=d36999e5-1ec8-4299-a4fc-068061d2f0c7","ios":"levelo://app?vid=d36999e5-1ec8-4299-a4fc-068061d2f0c7"},"vehicle_type_id":"4","last_reported":1742451268,"current_range_meters":6400,"station_id":"ce4bh092rcd13ifvqd30","pricing_plan_id":"cebpf4jnsgd1na2vs0mg"},{"bike_id":"c632951f-97ff-4417-a231-2f19dfc211bb","system_id":"levelo_inurba_marseille","lat":43.27817,"lon":5.40716,"is_reserved":false,"is_disabled":false,"rental_uris":{"android":"levelo://app?vid=c632951f-97ff-4417-a231-2f19dfc211bb","ios":"levelo://app?vid=c632951f-97ff-4417-a231-2f19dfc211bb"},"vehicle_type_id":"4","last_reported":1742451268,"current_range_meters":6400,"station_id":"ce4bhnh2rcd13ifvqgtg","pricing_plan_id":"cebpf4jnsgd1na2vs0mg"},{"bike_id":"693926d2-fd1b-4d98-a528-fed8b223a2c0","system_id":"levelo_inurba_marseille","lat":43.28014,"lon":5.36959,"is_reserved":false,"is_disabled":false,"rental_uris":{"android":"levelo://app?vid=693926d2-fd1b-4d98-a528-fed8b223a2c0","ios":"levelo://app?vid=693926d2-fd1b-4d98-a528-fed8b223a2c0"},"vehicle_type_id":"4","last_reported":1742451268,"current_range_meters":6400,"station_id":"ce4bha12rcd13ifvqef0","pricing_plan_id":"cebpf4jnsgd1na2vs0mg"},{"bike_id":"cd3f6418-d471-43bd-a8af-c4289f0429a3","system_id":"levelo_inurba_marseille","lat":43.24161,"lon":5.39729,"is_reserved":false,"is_disabled":false,"rental_uris":{"android":"levelo://app?vid=cd3f6418-d471-43bd-a8af-c4289f0429a3","ios":"levelo://app?vid=cd3f6418-d471-43bd-a8af-c4289f0429a3"},"vehicle_type_id":"4","last_reported":1742451268,"current_range_meters":6800,"station_id":"ce4bhn12rcd13ifvqgpg","pricing_plan_id":"cebpf4jnsgd1na2vs0mg"},{"bike_id":"1fe8cbb2-e61f-4748-8f3f-eff906305549","system_id":"levelo_inurba_marseille","lat":43.230626,"lon":5.354962,"is_reserved":false,"is_disabled":false,"rental_uris":{"android":"levelo://app?vid=1fe8cbb2-e61f-4748-8f3f-eff906305549","ios":"levelo://app?vid=1fe8cbb2-e61f-4748-8f3f-eff906305549"},"vehicle_type_id":"4","last_reported":1742451268,"current_range_meters":6800,"station_id":"cpo3342slgdg3j2ifvpg","pricing_plan_id":"cebpf4jnsgd1na2vs0mg"},{"bike_id":"5da21120-765c-493a-addc-469da6f3f383","system_id":"levelo_inurba_marseille","lat":43.308319,"lon":5.374957,"is_reserved":false,"is_disabled":false,"rental_uris":{"android":"levelo://app?vid=5da21120-765c-493a-addc-469da6f3f383","ios":"levelo://app?vid=5da21120-765c-493a-addc-469da6f3f383"},"vehicle_type_id":"4","last_reported":1742451268,"current_range_meters":6800,"station_id":"","pricing_plan_id":"cebpf4jnsgd1na2vs0mg"},{"bike_id":"478ecfc4-5241-4dbc-9c90-9e831269f219","system_id":"levelo_inurba_marseille","lat":43.290207,"lon":5.386408,"is_reserved":false,"is_disabled":true,"rental_uris":{"android":"levelo://app?vid=478ecfc4-5241-4dbc-9c90-9e831269f219","ios":"levelo://app?vid=478ecfc4-5241-4dbc-9c90-9e831269f219"},"vehicle_type_id":"4","last_reported":1742451268,"current_range_meters":6800,"station_id":"ce4bh4p2rcd13ifvqe0g","pricing_plan_id":"cebpf4jnsgd1na2vs0mg"},{"bike_id":"f900da6c-7e5c-4ec1-bb80-501e71312a52","system_id":"levelo_inurba_marseille","lat":43.27361,"lon":5.36246,"is_reserved":false,"is_disabled":false,"rental_uris":{"android":"levelo://app?vid=f900da6c-7e5c-4ec1-bb80-501e71312a52","ios":"levelo://app?vid=f900da6c-7e5c-4ec1-bb80-501e71312a52"},"vehicle_type_id":"4","last_reported":1742451268,"current_range_meters":6800,"station_id":"ce4bhbh2rcd13ifvqeo0","pricing_plan_id":"cebpf4jnsgd1na2vs0mg"},{"bike_id":"4858167e-edc8-4792-9d1c-05670cc1275f","system_id":"levelo_inurba_marseille","lat":43.29298,"lon":5.42767,"is_reserved":false,"is_disabled":false,"rental_uris":{"android":"levelo://app?vid=4858167e-edc8-4792-9d1c-05670cc1275f","ios":"levelo://app?vid=4858167e-edc8-4792-9d1c-05670cc1275f"},"vehicle_type_id":"4","last_reported":1742451268,"current_range_meters":6800,"station_id":"","pricing_plan_id":"cebpf4jnsgd1na2vs0mg"},{"bike_id":"4fa0322d-b201-409d-9218-57726b4a4ca2","system_id":"levelo_inurba_marseille","lat":43.306425,"lon":5.400714,"is_reserved":false,"is_disabled":false,"rental_uris":{"android":"levelo://app?vid=4fa0322d-b201-409d-9218-57726b4a4ca2","ios":"levelo://app?vid=4fa0322d-b201-409d-9218-57726b4a4ca2"},"vehicle_type_id":"4","last_reported":1742451268,"current_range_meters":6800,"station_id":"ce4bh112rcd13ifvqda0","pricing_plan_id":"cebpf4jnsgd1na2vs0mg"},{"bike_id":"36ea9704-6b13-43f4-9261-74449086daf8","system_id":"levelo_inurba_marseille","lat":43.28254,"lon":5.35084,"is_reserved":false,"is_disabled":false,"rental_uris":{"android":"levelo://app?vid=36ea9704-6b13-43f4-9261-74449086daf8","ios":"levelo://app?vid=36ea9704-6b13-43f4-9261-74449086daf8"},"vehicle_type_id":"4","last_reported":1742451268,"current_range_meters":6800,"station_id":"ce4bhbp2rcd13ifvqerg","pricing_plan_id":"cebpf4jnsgd1na2vs0mg"},{"bike_id":"dfcc8bbb-6cc0-487f-9f53-6c4f09735ec3","system_id":"levelo_inurba_marseille","lat":43.274898,"lon":5.424609,"is_reserved":false,"is_disabled":true,"rental_uris":{"android":"levelo://app?vid=dfcc8bbb-6cc0-487f-9f53-6c4f09735ec3","ios":"levelo://app?vid=dfcc8bbb-6cc0-487f-9f53-6c4f09735ec3"},"vehicle_type_id":"4","last_reported":1742451268,"current_range_meters":6800,"station_id":"ce4bhn92rcd13ifvqgrg","pricing_plan_id":"cebpf4jnsgd1na2vs0mg"},{"bike_id":"704bac85-0999-494b-ab70-f77e05470586","system_id":"levelo_inurba_marseille","lat":43.27947,"lon":5.41061,"is_reserved":false,"is_disabled":false,"rental_uris":{"android":"levelo://app?vid=704bac85-0999-494b-ab70-f77e05470586","ios":"levelo://app?vid=704bac85-0999-494b-ab70-f77e05470586"},"vehicle_type_id":"4","last_reported":1742451268,"current_range_meters":6800,"station_id":"ce4bhnp2rcd13ifvqh0g","pricing_plan_id":"cebpf4jnsgd1na2vs0mg"},{"bike_id":"2e8de5c8-bc6b-4860-80fb-b3264ca3f282","system_id":"levelo_inurba_marseille","lat":43.30867,"lon":5.39659,"is_reserved":false,"is_disabled":false,"rental_uris":{"android":"levelo://app?vid=2e8de5c8-bc6b-4860-80fb-b3264ca3f282","ios":"levelo://app?vid=2e8de5c8-bc6b-4860-80fb-b3264ca3f282"},"vehicle_type_id":"4","last_reported":1742451268,"current_range_meters":6800,"station_id":"ce4bh012rcd13ifvqcv0","pricing_plan_id":"cebpf4jnsgd1na2vs0mg"},{"bike_id":"8b1a365a-37cb-4797-86b9-9c57a4993a8f","system_id":"levelo_inurba_marseille","lat":43.30153,"lon":5.38096,"is_reserved":false,"is_disabled":false,"rental_uris":{"android":"levelo://app?vid=8b1a365a-37cb-4797-86b9-9c57a4993a8f","ios":"levelo://app?vid=8b1a365a-37cb-4797-86b9-9c57a4993a8f"},"vehicle_type_id":"4","last_reported":1742451268,"current_range_meters":7200,"station_id":"ce4bgjp2rcd13ifvqbh0","pricing_plan_id":"cebpf4jnsgd1na2vs0mg"},{"bike_id":"ebd45e7b-1c45-4b94-a31a-e5fdc9535d41","system_id":"levelo_inurba_marseille","lat":43.239636,"lon":5.366342,"is_reserved":false,"is_disabled":false,"rental_uris":{"android":"levelo://app?vid=ebd45e7b-1c45-4b94-a31a-e5fdc9535d41","ios":"levelo://app?vid=ebd45e7b-1c45-4b94-a31a-e5fdc9535d41"},"vehicle_type_id":"4","last_reported":1742451268,"current_range_meters":7200,"station_id":"ce4bhi12rcd13ifvqfp0","pricing_plan_id":"cebpf4jnsgd1na2vs0mg"},{"bike_id":"034cbda5-a269-406e-ac7d-9962861bb824","system_id":"levelo_inurba_marseille","lat":43.31769,"lon":5.39022,"is_reserved":false,"is_disabled":false,"rental_uris":{"android":"levelo://app?vid=034cbda5-a269-406e-ac7d-9962861bb824","ios":"levelo://app?vid=034cbda5-a269-406e-ac7d-9962861bb824"},"vehicle_type_id":"4","last_reported":1742451268,"current_range_meters":7200,"station_id":"ce4bhqp2rcd13ifvqhng","pricing_plan_id":"cebpf4jnsgd1na2vs0mg"},{"bike_id":"02cd04fa-0d8a-4482-bea3-8719f01347ae","system_id":"levelo_inurba_marseille","lat":43.2706,"lon":5.40267,"is_reserved":false,"is_disabled":false,"rental_uris":{"android":"levelo://app?vid=02cd04fa-0d8a-4482-bea3-8719f01347ae","ios":"levelo://app?vid=02cd04fa-0d8a-4482-bea3-8719f01347ae"},"vehicle_type_id":"4","last_reported":1742451268,"current_range_meters":7200,"station_id":"ce4bhk92rcd13ifvqgc0","pricing_plan_id":"cebpf4jnsgd1na2vs0mg"},{"bike_id":"287397f1-301a-46cd-a566-760697ced275","system_id":"levelo_inurba_marseille","lat":43.281515,"lon":5.426466,"is_reserved":false,"is_disabled":false,"rental_uris":{"android":"levelo://app?vid=287397f1-301a-46cd-a566-760697ced275","ios":"levelo://app?vid=287397f1-301a-46cd-a566-760697ced275"},"vehicle_type_id":"4","last_reported":1742451268,"current_range_meters":7200,"station_id":"ce4bhnh2rcd13ifvqgug","pricing_plan_id":"cebpf4jnsgd1na2vs0mg"},{"bike_id":"6b2a237b-cb22-4880-8ec1-ceb9bd73051c","system_id":"levelo_inurba_marseille","lat":43.27208,"lon":5.39198,"is_reserved":false,"is_disabled":false,"rental_uris":{"android":"levelo://app?vid=6b2a237b-cb22-4880-8ec1-ceb9bd73051c","ios":"levelo://app?vid=6b2a237b-cb22-4880-8ec1-ceb9bd73051c"},"vehicle_type_id":"4","last_reported":1742451268,"current_range_meters":7200,"station_id":"ce4bhhp2rcd13ifvqfm0","pricing_plan_id":"cebpf4jnsgd1na2vs0mg"},{"bike_id":"87dbed1b-ca5f-4559-b4e0-6657c214f315","system_id":"levelo_inurba_marseille","lat":43.23959,"lon":5.36651,"is_reserved":false,"is_disabled":false,"rental_uris":{"android":"levelo://app?vid=87dbed1b-ca5f-4559-b4e0-6657c214f315","ios":"levelo://app?vid=87dbed1b-ca5f-4559-b4e0-6657c214f315"},"vehicle_type_id":"4","last_reported":1742451268,"current_range_meters":7200,"station_id":"ce4bhi12rcd13ifvqfp0","pricing_plan_id":"cebpf4jnsgd1na2vs0mg"},{"bike_id":"d36dd5c9-f023-4afa-aa74-4c7e9499d0cd","system_id":"levelo_inurba_marseille","lat":43.273716,"lon":5.362536,"is_reserved":false,"is_disabled":false,"rental_uris":{"android":"levelo://app?vid=d36dd5c9-f023-4afa-aa74-4c7e9499d0cd","ios":"levelo://app?vid=d36dd5c9-f023-4afa-aa74-4c7e9499d0cd"},"vehicle_type_id":"4","last_reported":1742451268,"current_range_meters":7200,"station_id":"ce4bhbh2rcd13ifvqeo0","pricing_plan_id":"cebpf4jnsgd1na2vs0mg"},{"bike_id":"ba8b0ac1-1aa1-4839-85f3-f90c1cdb4258","system_id":"levelo_inurba_marseille","lat":43.29033,"lon":5.3591,"is_reserved":false,"is_disabled":false,"rental_uris":{"android":"levelo://app?vid=ba8b0ac1-1aa1-4839-85f3-f90c1cdb4258","ios":"levelo://app?vid=ba8b0ac1-1aa1-4839-85f3-f90c1cdb4258"},"vehicle_type_id":"4","last_reported":1742451268,"current_range_meters":7200,"station_id":"ce4bha92rcd13ifvqeg0","pricing_plan_id":"cebpf4jnsgd1na2vs0mg"},{"bike_id":"4383040d-fbd2-4d09-b966-c2b15978917e","system_id":"levelo_inurba_marseille","lat":43.24173,"lon":5.3972,"is_reserved":false,"is_disabled":false,"rental_uris":{"android":"levelo://app?vid=4383040d-fbd2-4d09-b966-c2b15978917e","ios":"levelo://app?vid=4383040d-fbd2-4d09-b966-c2b15978917e"},"vehicle_type_id":"4","last_reported":1742451268,"current_range_meters":7200,"station_id":"ce4bhn12rcd13ifvqgpg","pricing_plan_id":"cebpf4jnsgd1na2vs0mg"},{"bike_id":"a2ad3ef3-40b0-40fc-8ad0-893f4e20ab03","system_id":"levelo_inurba_marseille","lat":43.24803,"lon":5.37456,"is_reserved":false,"is_disabled":false,"rental_uris":{"android":"levelo://app?vid=a2ad3ef3-40b0-40fc-8ad0-893f4e20ab03","ios":"levelo://app?vid=a2ad3ef3-40b0-40fc-8ad0-893f4e20ab03"},"vehicle_type_id":"4","last_reported":1742451268,"current_range_meters":7200,"station_id":"ce4bhgh2rcd13ifvqfb0","pricing_plan_id":"cebpf4jnsgd1na2vs0mg"},{"bike_id":"227ea19f-289e-4a92-895e-218ec5d5c552","system_id":"levelo_inurba_marseille","lat":43.27499,"lon":5.42474,"is_reserved":false,"is_disabled":false,"rental_uris":{"android":"levelo://app?vid=227ea19f-289e-4a92-895e-218ec5d5c552","ios":"levelo://app?vid=227ea19f-289e-4a92-895e-218ec5d5c552"},"vehicle_type_id":"4","last_reported":1742451268,"current_range_meters":7200,"station_id":"ce4bhn92rcd13ifvqgrg","pricing_plan_id":"cebpf4jnsgd1na2vs0mg"},{"bike_id":"352d1bf6-e57e-4a0b-aead-3bf15f456132","system_id":"levelo_inurba_marseille","lat":43.30425,"lon":5.39752,"is_reserved":false,"is_disabled":false,"rental_uris":{"android":"levelo://app?vid=352d1bf6-e57e-4a0b-aead-3bf15f456132","ios":"levelo://app?vid=352d1bf6-e57e-4a0b-aead-3bf15f456132"},"vehicle_type_id":"4","last_reported":1742451268,"current_range_meters":7200,"station_id":"ce4bh092rcd13ifvqd20","pricing_plan_id":"cebpf4jnsgd1na2vs0mg"},{"bike_id":"3058eb37-35b9-4277-898b-f9025638e045","system_id":"levelo_inurba_marseille","lat":43.259334,"lon":5.409006,"is_reserved":false,"is_disabled":false,"rental_uris":{"android":"levelo://app?vid=3058eb37-35b9-4277-898b-f9025638e045","ios":"levelo://app?vid=3058eb37-35b9-4277-898b-f9025638e045"},"vehicle_type_id":"4","last_reported":1742451268,"current_range_meters":8000,"station_id":"ce4bhm92rcd13ifvqglg","pricing_plan_id":"cebpf4jnsgd1na2vs0mg"},{"bike_id":"d45aa902-4bcb-471b-8a0f-8cdc3416ec8c","system_id":"levelo_inurba_marseille","lat":43.276139,"lon":5.361118,"is_reserved":false,"is_disabled":false,"rental_uris":{"android":"levelo://app?vid=d45aa902-4bcb-471b-8a0f-8cdc3416ec8c","ios":"levelo://app?vid=d45aa902-4bcb-471b-8a0f-8cdc3416ec8c"},"vehicle_type_id":"4","last_reported":1742451268,"current_range_meters":8000,"station_id":"ce4bgj92rcd13ifvqbe0","pricing_plan_id":"cebpf4jnsgd1na2vs0mg"},{"bike_id":"3455258b-4135-46b9-9a26-10bf95160e40","system_id":"levelo_inurba_marseille","lat":43.23177,"lon":5.3557,"is_reserved":false,"is_disabled":false,"rental_uris":{"android":"levelo://app?vid=3455258b-4135-46b9-9a26-10bf95160e40","ios":"levelo://app?vid=3455258b-4135-46b9-9a26-10bf95160e40"},"vehicle_type_id":"4","last_reported":1742451268,"current_range_meters":8000,"station_id":"ce4bhu92rcd13ifvqi70","pricing_plan_id":"cebpf4jnsgd1na2vs0mg"},{"bike_id":"570d7ed6-a63a-4a22-9419-a31a60c44029","system_id":"levelo_inurba_marseille","lat":43.33766,"lon":5.37439,"is_reserved":false,"is_disabled":false,"rental_uris":{"android":"levelo://app?vid=570d7ed6-a63a-4a22-9419-a31a60c44029","ios":"levelo://app?vid=570d7ed6-a63a-4a22-9419-a31a60c44029"},"vehicle_type_id":"4","last_reported":1742451268,"current_range_meters":8000,"station_id":"","pricing_plan_id":"cebpf4jnsgd1na2vs0mg"},{"bike_id":"0cf839ab-e587-4ab8-b08d-84e42ef6ef98","system_id":"levelo_inurba_marseille","lat":43.239621,"lon":5.366314,"is_reserved":false,"is_disabled":false,"rental_uris":{"android":"levelo://app?vid=0cf839ab-e587-4ab8-b08d-84e42ef6ef98","ios":"levelo://app?vid=0cf839ab-e587-4ab8-b08d-84e42ef6ef98"},"vehicle_type_id":"4","last_reported":1742451268,"current_range_meters":8000,"station_id":"ce4bhi12rcd13ifvqfp0","pricing_plan_id":"cebpf4jnsgd1na2vs0mg"},{"bike_id":"ff2e113c-48f4-4926-83e4-f03bf0925c08","system_id":"levelo_inurba_marseille","lat":43.24716,"lon":5.41195,"is_reserved":false,"is_disabled":false,"rental_uris":{"android":"levelo://app?vid=ff2e113c-48f4-4926-83e4-f03bf0925c08","ios":"levelo://app?vid=ff2e113c-48f4-4926-83e4-f03bf0925c08"},"vehicle_type_id":"4","last_reported":1742451268,"current_range_meters":8000,"station_id":"","pricing_plan_id":"cebpf4jnsgd1na2vs0mg"},{"bike_id":"dff22bde-84fd-490a-8837-d6c39b979395","system_id":"levelo_inurba_marseille","lat":43.286094,"lon":5.370621,"is_reserved":false,"is_disabled":false,"rental_uris":{"android":"levelo://app?vid=dff22bde-84fd-490a-8837-d6c39b979395","ios":"levelo://app?vid=dff22bde-84fd-490a-8837-d6c39b979395"},"vehicle_type_id":"4","last_reported":1742451268,"current_range_meters":8000,"station_id":"ce4bht12rcd13ifvqi60","pricing_plan_id":"cebpf4jnsgd1na2vs0mg"},{"bike_id":"a2a6db60-0906-4bdf-872c-8533f7fe0239","system_id":"levelo_inurba_marseille","lat":43.26221,"lon":5.40487,"is_reserved":false,"is_disabled":false,"rental_uris":{"android":"levelo://app?vid=a2a6db60-0906-4bdf-872c-8533f7fe0239","ios":"levelo://app?vid=a2a6db60-0906-4bdf-872c-8533f7fe0239"},"vehicle_type_id":"4","last_reported":1742451268,"current_range_meters":8000,"station_id":"ce4bhmh2rcd13ifvqgmg","pricing_plan_id":"cebpf4jnsgd1na2vs0mg"},{"bike_id":"1fea0b3c-94ab-41af-b18e-d9bbaa7dda49","system_id":"levelo_inurba_marseille","lat":43.317058,"lon":5.437042,"is_reserved":false,"is_disabled":false,"rental_uris":{"android":"levelo://app?vid=1fea0b3c-94ab-41af-b18e-d9bbaa7dda49","ios":"levelo://app?vid=1fea0b3c-94ab-41af-b18e-d9bbaa7dda49"},"vehicle_type_id":"4","last_reported":1742451268,"current_range_meters":8000,"station_id":"ce4bhp92rcd13ifvqhcg","pricing_plan_id":"cebpf4jnsgd1na2vs0mg"},{"bike_id":"a043f14d-7bfe-4e58-bb46-3233f50b724e","system_id":"levelo_inurba_marseille","lat":43.31159,"lon":5.3876,"is_reserved":false,"is_disabled":false,"rental_uris":{"android":"levelo://app?vid=a043f14d-7bfe-4e58-bb46-3233f50b724e","ios":"levelo://app?vid=a043f14d-7bfe-4e58-bb46-3233f50b724e"},"vehicle_type_id":"4","last_reported":1742451268,"current_range_meters":8800,"station_id":"ce4bgv12rcd13ifvqcp0","pricing_plan_id":"cebpf4jnsgd1na2vs0mg"},{"bike_id":"71f2cd9d-ef15-44a1-a9cf-33002d842832","system_id":"levelo_inurba_marseille","lat":43.24663,"lon":5.38176,"is_reserved":false,"is_disabled":false,"rental_uris":{"android":"levelo://app?vid=71f2cd9d-ef15-44a1-a9cf-33002d842832","ios":"levelo://app?vid=71f2cd9d-ef15-44a1-a9cf-33002d842832"},"vehicle_type_id":"4","last_reported":1742451268,"current_range_meters":8400,"station_id":"ce4bhih2rcd13ifvqfr0","pricing_plan_id":"cebpf4jnsgd1na2vs0mg"},{"bike_id":"4ad231a2-6656-4750-b2aa-69ad2e40651e","system_id":"levelo_inurba_marseille","lat":43.31161,"lon":5.38733,"is_reserved":false,"is_disabled":false,"rental_uris":{"android":"levelo://app?vid=4ad231a2-6656-4750-b2aa-69ad2e40651e","ios":"levelo://app?vid=4ad231a2-6656-4750-b2aa-69ad2e40651e"},"vehicle_type_id":"4","last_reported":1742451268,"current_range_meters":8400,"station_id":"ce4bgv12rcd13ifvqcp0","pricing_plan_id":"cebpf4jnsgd1na2vs0mg"},{"bike_id":"bfd67b10-fd7c-4b25-bc6e-0830b23c1f4b","system_id":"levelo_inurba_marseille","lat":43.25819,"lon":5.39443,"is_reserved":false,"is_disabled":false,"rental_uris":{"android":"levelo://app?vid=bfd67b10-fd7c-4b25-bc6e-0830b23c1f4b","ios":"levelo://app?vid=bfd67b10-fd7c-4b25-bc6e-0830b23c1f4b"},"vehicle_type_id":"4","last_reported":1742451268,"current_range_meters":8400,"station_id":"ce4bhip2rcd13ifvqft0","pricing_plan_id":"cebpf4jnsgd1na2vs0mg"},{"bike_id":"3da64548-8b6a-42d6-898f-dc427d7ab309","system_id":"levelo_inurba_marseille","lat":43.27916,"lon":5.41088,"is_reserved":false,"is_disabled":false,"rental_uris":{"android":"levelo://app?vid=3da64548-8b6a-42d6-898f-dc427d7ab309","ios":"levelo://app?vid=3da64548-8b6a-42d6-898f-dc427d7ab309"},"vehicle_type_id":"4","last_reported":1742451268,"current_range_meters":8400,"station_id":"ce4bhnp2rcd13ifvqh0g","pricing_plan_id":"cebpf4jnsgd1na2vs0mg"},{"bike_id":"9d32c503-5f1f-4b14-8d26-4a233bb720e6","system_id":"levelo_inurba_marseille","lat":43.30781,"lon":5.37657,"is_reserved":false,"is_disabled":false,"rental_uris":{"android":"levelo://app?vid=9d32c503-5f1f-4b14-8d26-4a233bb720e6","ios":"levelo://app?vid=9d32c503-5f1f-4b14-8d26-4a233bb720e6"},"vehicle_type_id":"4","last_reported":1742451268,"current_range_meters":8400,"station_id":"ce4bgv92rcd13ifvqcq0","pricing_plan_id":"cebpf4jnsgd1na2vs0mg"},{"bike_id":"ff40212a-8f7d-43a8-822c-31c34c2bf0d5","system_id":"levelo_inurba_marseille","lat":43.250127,"lon":5.389271,"is_reserved":false,"is_disabled":false,"rental_uris":{"android":"levelo://app?vid=ff40212a-8f7d-43a8-822c-31c34c2bf0d5","ios":"levelo://app?vid=ff40212a-8f7d-43a8-822c-31c34c2bf0d5"},"vehicle_type_id":"4","last_reported":1742451268,"current_range_meters":8400,"station_id":"ce4bhgp2rcd13ifvqfd0","pricing_plan_id":"cebpf4jnsgd1na2vs0mg"},{"bike_id":"149a7237-4b0c-4c09-b5e1-e29dc8e198e1","system_id":"levelo_inurba_marseille","lat":43.31253,"lon":5.402,"is_reserved":false,"is_disabled":false,"rental_uris":{"android":"levelo://app?vid=149a7237-4b0c-4c09-b5e1-e29dc8e198e1","ios":"levelo://app?vid=149a7237-4b0c-4c09-b5e1-e29dc8e198e1"},"vehicle_type_id":"4","last_reported":1742451268,"current_range_meters":8400,"station_id":"ce4bh092rcd13ifvqd30","pricing_plan_id":"cebpf4jnsgd1na2vs0mg"},{"bike_id":"f1fcaa64-8777-41b7-8701-8233132e1bca","system_id":"levelo_inurba_marseille","lat":43.27948,"lon":5.41062,"is_reserved":false,"is_disabled":false,"rental_uris":{"android":"levelo://app?vid=f1fcaa64-8777-41b7-8701-8233132e1bca","ios":"levelo://app?vid=f1fcaa64-8777-41b7-8701-8233132e1bca"},"vehicle_type_id":"4","last_reported":1742451268,"current_range_meters":8400,"station_id":"ce4bhnp2rcd13ifvqh0g","pricing_plan_id":"cebpf4jnsgd1na2vs0mg"},{"bike_id":"963a17fa-4222-4f93-b414-09c4cce8d25a","system_id":"levelo_inurba_marseille","lat":43.28406,"lon":5.38495,"is_reserved":false,"is_disabled":false,"rental_uris":{"android":"levelo://app?vid=963a17fa-4222-4f93-b414-09c4cce8d25a","ios":"levelo://app?vid=963a17fa-4222-4f93-b414-09c4cce8d25a"},"vehicle_type_id":"4","last_reported":1742451268,"current_range_meters":8400,"station_id":"","pricing_plan_id":"cebpf4jnsgd1na2vs0mg"},{"bike_id":"e11dfbbb-3eaa-484f-b7fb-28865ddb305e","system_id":"levelo_inurba_marseille","lat":43.31495,"lon":5.37303,"is_reserved":false,"is_disabled":false,"rental_uris":{"android":"levelo://app?vid=e11dfbbb-3eaa-484f-b7fb-28865ddb305e","ios":"levelo://app?vid=e11dfbbb-3eaa-484f-b7fb-28865ddb305e"},"vehicle_type_id":"4","last_reported":1742451268,"current_range_meters":8400,"station_id":"ce4bgt12rcd13ifvqcd0","pricing_plan_id":"cebpf4jnsgd1na2vs0mg"},{"bike_id":"a3175949-f9d6-40da-9481-3578df78d3a4","system_id":"levelo_inurba_marseille","lat":43.25014,"lon":5.389264,"is_reserved":false,"is_disabled":false,"rental_uris":{"android":"levelo://app?vid=a3175949-f9d6-40da-9481-3578df78d3a4","ios":"levelo://app?vid=a3175949-f9d6-40da-9481-3578df78d3a4"},"vehicle_type_id":"4","last_reported":1742451268,"current_range_meters":8800,"station_id":"ce4bhgp2rcd13ifvqfd0","pricing_plan_id":"cebpf4jnsgd1na2vs0mg"},{"bike_id":"53c52c3d-ed26-42c7-8d0d-8214d01bc438","system_id":"levelo_inurba_marseille","lat":43.3143,"lon":5.39358,"is_reserved":false,"is_disabled":false,"rental_uris":{"android":"levelo://app?vid=53c52c3d-ed26-42c7-8d0d-8214d01bc438","ios":"levelo://app?vid=53c52c3d-ed26-42c7-8d0d-8214d01bc438"},"vehicle_type_id":"4","last_reported":1742451268,"current_range_meters":8800,"station_id":"","pricing_plan_id":"cebpf4jnsgd1na2vs0mg"},{"bike_id":"4190958f-3dab-482a-94a8-57626ebcdefa","system_id":"levelo_inurba_marseille","lat":43.26559,"lon":5.37302,"is_reserved":false,"is_disabled":false,"rental_uris":{"android":"levelo://app?vid=4190958f-3dab-482a-94a8-57626ebcdefa","ios":"levelo://app?vid=4190958f-3dab-482a-94a8-57626ebcdefa"},"vehicle_type_id":"4","last_reported":1742451268,"current_range_meters":8800,"station_id":"ce4bhg12rcd13ifvqf70","pricing_plan_id":"cebpf4jnsgd1na2vs0mg"},{"bike_id":"c8a5c5c1-331e-4477-bcc8-5f636ea1891c","system_id":"levelo_inurba_marseille","lat":43.31169,"lon":5.38729,"is_reserved":false,"is_disabled":false,"rental_uris":{"android":"levelo://app?vid=c8a5c5c1-331e-4477-bcc8-5f636ea1891c","ios":"levelo://app?vid=c8a5c5c1-331e-4477-bcc8-5f636ea1891c"},"vehicle_type_id":"4","last_reported":1742451268,"current_range_meters":8800,"station_id":"ce4bgv12rcd13ifvqcp0","pricing_plan_id":"cebpf4jnsgd1na2vs0mg"},{"bike_id":"a8b8dae1-87ef-4f8a-a2c8-fe9fd9bf0f77","system_id":"levelo_inurba_marseille","lat":43.235312,"lon":5.377474,"is_reserved":false,"is_disabled":false,"rental_uris":{"android":"levelo://app?vid=a8b8dae1-87ef-4f8a-a2c8-fe9fd9bf0f77","ios":"levelo://app?vid=a8b8dae1-87ef-4f8a-a2c8-fe9fd9bf0f77"},"vehicle_type_id":"4","last_reported":1742451268,"current_range_meters":8800,"station_id":"","pricing_plan_id":"cebpf4jnsgd1na2vs0mg"},{"bike_id":"8168e555-e617-42c3-b56a-13243fda4113","system_id":"levelo_inurba_marseille","lat":43.27935,"lon":5.41052,"is_reserved":false,"is_disabled":false,"rental_uris":{"android":"levelo://app?vid=8168e555-e617-42c3-b56a-13243fda4113","ios":"levelo://app?vid=8168e555-e617-42c3-b56a-13243fda4113"},"vehicle_type_id":"4","last_reported":1742451268,"current_range_meters":8800,"station_id":"ce4bhnp2rcd13ifvqh0g","pricing_plan_id":"cebpf4jnsgd1na2vs0mg"},{"bike_id":"78b95c41-f57f-46b7-8807-c311e5a77278","system_id":"levelo_inurba_marseille","lat":43.239613,"lon":5.366284,"is_reserved":false,"is_disabled":false,"rental_uris":{"android":"levelo://app?vid=78b95c41-f57f-46b7-8807-c311e5a77278","ios":"levelo://app?vid=78b95c41-f57f-46b7-8807-c311e5a77278"},"vehicle_type_id":"4","last_reported":1742451268,"current_range_meters":8800,"station_id":"ce4bhi12rcd13ifvqfp0","pricing_plan_id":"cebpf4jnsgd1na2vs0mg"},{"bike_id":"3b69dc22-91f2-4f65-946b-b450a0c855a5","system_id":"levelo_inurba_marseille","lat":43.30133,"lon":5.3807,"is_reserved":false,"is_disabled":false,"rental_uris":{"android":"levelo://app?vid=3b69dc22-91f2-4f65-946b-b450a0c855a5","ios":"levelo://app?vid=3b69dc22-91f2-4f65-946b-b450a0c855a5"},"vehicle_type_id":"4","last_reported":1742451268,"current_range_meters":8800,"station_id":"ce4bgjp2rcd13ifvqbh0","pricing_plan_id":"cebpf4jnsgd1na2vs0mg"},{"bike_id":"11a593f9-e28a-4d60-9990-7d92ced3ba47","system_id":"levelo_inurba_marseille","lat":43.288486,"lon":5.358633,"is_reserved":false,"is_disabled":false,"rental_uris":{"android":"levelo://app?vid=11a593f9-e28a-4d60-9990-7d92ced3ba47","ios":"levelo://app?vid=11a593f9-e28a-4d60-9990-7d92ced3ba47"},"vehicle_type_id":"4","last_reported":1742451268,"current_range_meters":8800,"station_id":"ce4bhb12rcd13ifvqem0","pricing_plan_id":"cebpf4jnsgd1na2vs0mg"},{"bike_id":"5edb3c9d-ffdb-4b2a-b674-17f6a28418bf","system_id":"levelo_inurba_marseille","lat":43.3229,"lon":5.38261,"is_reserved":false,"is_disabled":false,"rental_uris":{"android":"levelo://app?vid=5edb3c9d-ffdb-4b2a-b674-17f6a28418bf","ios":"levelo://app?vid=5edb3c9d-ffdb-4b2a-b674-17f6a28418bf"},"vehicle_type_id":"4","last_reported":1742451268,"current_range_meters":8800,"station_id":"ce4bhr12rcd13ifvqhqg","pricing_plan_id":"cebpf4jnsgd1na2vs0mg"},{"bike_id":"3341571f-bd27-401c-8b47-8fe3403f266a","system_id":"levelo_inurba_marseille","lat":43.28684,"lon":5.37408,"is_reserved":false,"is_disabled":false,"rental_uris":{"android":"levelo://app?vid=3341571f-bd27-401c-8b47-8fe3403f266a","ios":"levelo://app?vid=3341571f-bd27-401c-8b47-8fe3403f266a"},"vehicle_type_id":"4","last_reported":1742451268,"current_range_meters":8800,"station_id":"ce4bh3p2rcd13ifvqdq0","pricing_plan_id":"cebpf4jnsgd1na2vs0mg"},{"bike_id":"f182cefc-27ad-47f5-9c3b-19932b6dd685","system_id":"levelo_inurba_marseille","lat":43.311746,"lon":5.387188,"is_reserved":false,"is_disabled":false,"rental_uris":{"android":"levelo://app?vid=f182cefc-27ad-47f5-9c3b-19932b6dd685","ios":"levelo://app?vid=f182cefc-27ad-47f5-9c3b-19932b6dd685"},"vehicle_type_id":"4","last_reported":1742451268,"current_range_meters":8800,"station_id":"ce4bgv12rcd13ifvqcp0","pricing_plan_id":"cebpf4jnsgd1na2vs0mg"},{"bike_id":"02f43b01-3b74-45fa-a40e-2df823c84cda","system_id":"levelo_inurba_marseille","lat":43.24184,"lon":5.39717,"is_reserved":false,"is_disabled":false,"rental_uris":{"android":"levelo://app?vid=02f43b01-3b74-45fa-a40e-2df823c84cda","ios":"levelo://app?vid=02f43b01-3b74-45fa-a40e-2df823c84cda"},"vehicle_type_id":"4","last_reported":1742451268,"current_range_meters":8800,"station_id":"ce4bhn12rcd13ifvqgpg","pricing_plan_id":"cebpf4jnsgd1na2vs0mg"},{"bike_id":"8008e9d1-08eb-4649-b985-79c87ba276a8","system_id":"levelo_inurba_marseille","lat":43.31113,"lon":5.37785,"is_reserved":false,"is_disabled":false,"rental_uris":{"android":"levelo://app?vid=8008e9d1-08eb-4649-b985-79c87ba276a8","ios":"levelo://app?vid=8008e9d1-08eb-4649-b985-79c87ba276a8"},"vehicle_type_id":"4","last_reported":1742451268,"current_range_meters":8800,"station_id":"ce4bgt92rcd13ifvqcg0","pricing_plan_id":"cebpf4jnsgd1na2vs0mg"},{"bike_id":"9d26c008-8ec1-4269-9cd2-f45774f03ccb","system_id":"levelo_inurba_marseille","lat":43.279398,"lon":5.379348,"is_reserved":false,"is_disabled":false,"rental_uris":{"android":"levelo://app?vid=9d26c008-8ec1-4269-9cd2-f45774f03ccb","ios":"levelo://app?vid=9d26c008-8ec1-4269-9cd2-f45774f03ccb"},"vehicle_type_id":"4","last_reported":1742451268,"current_range_meters":8800,"station_id":"","pricing_plan_id":"cebpf4jnsgd1na2vs0mg"},{"bike_id":"6eb98e18-92f8-411c-92c0-82d5569fb85c","system_id":"levelo_inurba_marseille","lat":43.32362,"lon":5.36753,"is_reserved":false,"is_disabled":false,"rental_uris":{"android":"levelo://app?vid=6eb98e18-92f8-411c-92c0-82d5569fb85c","ios":"levelo://app?vid=6eb98e18-92f8-411c-92c0-82d5569fb85c"},"vehicle_type_id":"4","last_reported":1742451268,"current_range_meters":9200,"station_id":"ce4bhsh2rcd13ifvqi2g","pricing_plan_id":"cebpf4jnsgd1na2vs0mg"},{"bike_id":"86da5b62-d19c-41eb-9417-15eac028c300","system_id":"levelo_inurba_marseille","lat":43.29798,"lon":5.39351,"is_reserved":false,"is_disabled":false,"rental_uris":{"android":"levelo://app?vid=86da5b62-d19c-41eb-9417-15eac028c300","ios":"levelo://app?vid=86da5b62-d19c-41eb-9417-15eac028c300"},"vehicle_type_id":"4","last_reported":1742451268,"current_range_meters":9200,"station_id":"chh1huq6cuj3fo74tm60","pricing_plan_id":"cebpf4jnsgd1na2vs0mg"},{"bike_id":"d666a6ad-a0a4-4127-8c39-8ef5817c6721","system_id":"levelo_inurba_marseille","lat":43.2467,"lon":5.38148,"is_reserved":false,"is_disabled":false,"rental_uris":{"android":"levelo://app?vid=d666a6ad-a0a4-4127-8c39-8ef5817c6721","ios":"levelo://app?vid=d666a6ad-a0a4-4127-8c39-8ef5817c6721"},"vehicle_type_id":"4","last_reported":1742451268,"current_range_meters":9200,"station_id":"ce4bhih2rcd13ifvqfr0","pricing_plan_id":"cebpf4jnsgd1na2vs0mg"},{"bike_id":"35c29046-1d03-462d-9c91-5813a4d5a08e","system_id":"levelo_inurba_marseille","lat":43.28427,"lon":5.3921,"is_reserved":false,"is_disabled":false,"rental_uris":{"android":"levelo://app?vid=35c29046-1d03-462d-9c91-5813a4d5a08e","ios":"levelo://app?vid=35c29046-1d03-462d-9c91-5813a4d5a08e"},"vehicle_type_id":"4","last_reported":1742451268,"current_range_meters":9200,"station_id":"ce4bhoh2rcd13ifvqh5g","pricing_plan_id":"cebpf4jnsgd1na2vs0mg"},{"bike_id":"1641e73c-b1a0-405f-933f-1fce35939c96","system_id":"levelo_inurba_marseille","lat":43.308756,"lon":5.396381,"is_reserved":false,"is_disabled":false,"rental_uris":{"android":"levelo://app?vid=1641e73c-b1a0-405f-933f-1fce35939c96","ios":"levelo://app?vid=1641e73c-b1a0-405f-933f-1fce35939c96"},"vehicle_type_id":"4","last_reported":1742451268,"current_range_meters":9200,"station_id":"ce4bh012rcd13ifvqcv0","pricing_plan_id":"cebpf4jnsgd1na2vs0mg"},{"bike_id":"f4c4bf6d-48a4-4198-942b-eda89b945e41","system_id":"levelo_inurba_marseille","lat":43.27369,"lon":5.36255,"is_reserved":false,"is_disabled":false,"rental_uris":{"android":"levelo://app?vid=f4c4bf6d-48a4-4198-942b-eda89b945e41","ios":"levelo://app?vid=f4c4bf6d-48a4-4198-942b-eda89b945e41"},"vehicle_type_id":"4","last_reported":1742451268,"current_range_meters":9200,"station_id":"ce4bhbh2rcd13ifvqeo0","pricing_plan_id":"cebpf4jnsgd1na2vs0mg"},{"bike_id":"ee0f687c-08bb-4e36-98a2-e3de6b954481","system_id":"levelo_inurba_marseille","lat":43.241752,"lon":5.397367,"is_reserved":false,"is_disabled":false,"rental_uris":{"android":"levelo://app?vid=ee0f687c-08bb-4e36-98a2-e3de6b954481","ios":"levelo://app?vid=ee0f687c-08bb-4e36-98a2-e3de6b954481"},"vehicle_type_id":"4","last_reported":1742451268,"current_range_meters":9200,"station_id":"ce4bhn12rcd13ifvqgpg","pricing_plan_id":"cebpf4jnsgd1na2vs0mg"},{"bike_id":"359790fe-af19-42bd-b48f-814e624dc846","system_id":"levelo_inurba_marseille","lat":43.27827,"lon":5.39197,"is_reserved":false,"is_disabled":false,"rental_uris":{"android":"levelo://app?vid=359790fe-af19-42bd-b48f-814e624dc846","ios":"levelo://app?vid=359790fe-af19-42bd-b48f-814e624dc846"},"vehicle_type_id":"4","last_reported":1742451268,"current_range_meters":9200,"station_id":"ce4bhjp2rcd13ifvqga0","pricing_plan_id":"cebpf4jnsgd1na2vs0mg"},{"bike_id":"e6c8473b-6f16-40c7-9d09-903e0bcd4e87","system_id":"levelo_inurba_marseille","lat":43.325744,"lon":5.419388,"is_reserved":false,"is_disabled":false,"rental_uris":{"android":"levelo://app?vid=e6c8473b-6f16-40c7-9d09-903e0bcd4e87","ios":"levelo://app?vid=e6c8473b-6f16-40c7-9d09-903e0bcd4e87"},"vehicle_type_id":"4","last_reported":1742451268,"current_range_meters":9200,"station_id":"","pricing_plan_id":"cebpf4jnsgd1na2vs0mg"},{"bike_id":"7c62291a-b09b-4907-af3f-97c7035e40d0","system_id":"levelo_inurba_marseille","lat":43.28339,"lon":5.38117,"is_reserved":false,"is_disabled":false,"rental_uris":{"android":"levelo://app?vid=7c62291a-b09b-4907-af3f-97c7035e40d0","ios":"levelo://app?vid=7c62291a-b09b-4907-af3f-97c7035e40d0"},"vehicle_type_id":"4","last_reported":1742451268,"current_range_meters":9200,"station_id":"ce4bh412rcd13ifvqdr0","pricing_plan_id":"cebpf4jnsgd1na2vs0mg"},{"bike_id":"38700e88-0eed-4189-a7cd-49878612c994","system_id":"levelo_inurba_marseille","lat":43.315679,"lon":5.389241,"is_reserved":false,"is_disabled":false,"rental_uris":{"android":"levelo://app?vid=38700e88-0eed-4189-a7cd-49878612c994","ios":"levelo://app?vid=38700e88-0eed-4189-a7cd-49878612c994"},"vehicle_type_id":"4","last_reported":1742451268,"current_range_meters":9200,"station_id":"","pricing_plan_id":"cebpf4jnsgd1na2vs0mg"},{"bike_id":"96ee9b6a-93d1-44f4-a827-40cf0b688b55","system_id":"levelo_inurba_marseille","lat":43.31368,"lon":5.38504,"is_reserved":false,"is_disabled":false,"rental_uris":{"android":"levelo://app?vid=96ee9b6a-93d1-44f4-a827-40cf0b688b55","ios":"levelo://app?vid=96ee9b6a-93d1-44f4-a827-40cf0b688b55"},"vehicle_type_id":"4","last_reported":1742451268,"current_range_meters":9200,"station_id":"ce4bgt92rcd13ifvqcf0","pricing_plan_id":"cebpf4jnsgd1na2vs0mg"},{"bike_id":"6b467574-69f1-40a2-a88f-6859ed54971d","system_id":"levelo_inurba_marseille","lat":43.334176,"lon":5.400544,"is_reserved":false,"is_disabled":false,"rental_uris":{"android":"levelo://app?vid=6b467574-69f1-40a2-a88f-6859ed54971d","ios":"levelo://app?vid=6b467574-69f1-40a2-a88f-6859ed54971d"},"vehicle_type_id":"4","last_reported":1742451268,"current_range_meters":9200,"station_id":"","pricing_plan_id":"cebpf4jnsgd1na2vs0mg"},{"bike_id":"471b8c1a-1a85-4080-b533-fb41f3dbfd81","system_id":"levelo_inurba_marseille","lat":43.231926,"lon":5.355578,"is_reserved":false,"is_disabled":false,"rental_uris":{"android":"levelo://app?vid=471b8c1a-1a85-4080-b533-fb41f3dbfd81","ios":"levelo://app?vid=471b8c1a-1a85-4080-b533-fb41f3dbfd81"},"vehicle_type_id":"4","last_reported":1742451268,"current_range_meters":9600,"station_id":"ce4bhu92rcd13ifvqi70","pricing_plan_id":"cebpf4jnsgd1na2vs0mg"},{"bike_id":"a74bf8ef-9a67-48b0-83b7-af79b30b454c","system_id":"levelo_inurba_marseille","lat":43.30874,"lon":5.3967,"is_reserved":false,"is_disabled":false,"rental_uris":{"android":"levelo://app?vid=a74bf8ef-9a67-48b0-83b7-af79b30b454c","ios":"levelo://app?vid=a74bf8ef-9a67-48b0-83b7-af79b30b454c"},"vehicle_type_id":"4","last_reported":1742451268,"current_range_meters":9600,"station_id":"ce4bh012rcd13ifvqcv0","pricing_plan_id":"cebpf4jnsgd1na2vs0mg"},{"bike_id":"cf6bafc1-9b50-49fe-a0d0-5b7f33be3ca1","system_id":"levelo_inurba_marseille","lat":43.28661,"lon":5.36353,"is_reserved":false,"is_disabled":false,"rental_uris":{"android":"levelo://app?vid=cf6bafc1-9b50-49fe-a0d0-5b7f33be3ca1","ios":"levelo://app?vid=cf6bafc1-9b50-49fe-a0d0-5b7f33be3ca1"},"vehicle_type_id":"4","last_reported":1742451268,"current_range_meters":9600,"station_id":"ce4bhah2rcd13ifvqej0","pricing_plan_id":"cebpf4jnsgd1na2vs0mg"},{"bike_id":"86eccc93-4fd8-4ef6-aed2-86921ac3f9c9","system_id":"levelo_inurba_marseille","lat":43.26653,"lon":5.3828,"is_reserved":false,"is_disabled":false,"rental_uris":{"android":"levelo://app?vid=86eccc93-4fd8-4ef6-aed2-86921ac3f9c9","ios":"levelo://app?vid=86eccc93-4fd8-4ef6-aed2-86921ac3f9c9"},"vehicle_type_id":"4","last_reported":1742451268,"current_range_meters":9600,"station_id":"ce4bhg92rcd13ifvqf90","pricing_plan_id":"cebpf4jnsgd1na2vs0mg"},{"bike_id":"671210b1-9e8f-4893-953f-985ab8b97e34","system_id":"levelo_inurba_marseille","lat":43.321173,"lon":5.367641,"is_reserved":false,"is_disabled":false,"rental_uris":{"android":"levelo://app?vid=671210b1-9e8f-4893-953f-985ab8b97e34","ios":"levelo://app?vid=671210b1-9e8f-4893-953f-985ab8b97e34"},"vehicle_type_id":"4","last_reported":1742451268,"current_range_meters":9600,"station_id":"ce4bhrh2rcd13ifvqhug","pricing_plan_id":"cebpf4jnsgd1na2vs0mg"},{"bike_id":"9a67d585-eddd-4c22-957e-49915d70b640","system_id":"levelo_inurba_marseille","lat":43.2315,"lon":5.43722,"is_reserved":false,"is_disabled":false,"rental_uris":{"android":"levelo://app?vid=9a67d585-eddd-4c22-957e-49915d70b640","ios":"levelo://app?vid=9a67d585-eddd-4c22-957e-49915d70b640"},"vehicle_type_id":"4","last_reported":1742451268,"current_range_meters":9600,"station_id":"ce4bhmp2rcd13ifvqgog","pricing_plan_id":"cebpf4jnsgd1na2vs0mg"},{"bike_id":"d0319f7d-1e4e-4987-9ebf-a6b766baebff","system_id":"levelo_inurba_marseille","lat":43.298813,"lon":5.397388,"is_reserved":false,"is_disabled":false,"rental_uris":{"android":"levelo://app?vid=d0319f7d-1e4e-4987-9ebf-a6b766baebff","ios":"levelo://app?vid=d0319f7d-1e4e-4987-9ebf-a6b766baebff"},"vehicle_type_id":"4","last_reported":1742451268,"current_range_meters":9600,"station_id":"ce4bh0h2rcd13ifvqd50","pricing_plan_id":"cebpf4jnsgd1na2vs0mg"},{"bike_id":"815d7014-c6fe-4564-82ce-d8b51f90d2f6","system_id":"levelo_inurba_marseille","lat":43.33715,"lon":5.39204,"is_reserved":false,"is_disabled":false,"rental_uris":{"android":"levelo://app?vid=815d7014-c6fe-4564-82ce-d8b51f90d2f6","ios":"levelo://app?vid=815d7014-c6fe-4564-82ce-d8b51f90d2f6"},"vehicle_type_id":"4","last_reported":1742451268,"current_range_meters":9600,"station_id":"ce4bhr92rcd13ifvqhsg","pricing_plan_id":"cebpf4jnsgd1na2vs0mg"},{"bike_id":"28f31a98-b093-4bfb-b417-89bd198a1de0","system_id":"levelo_inurba_marseille","lat":43.24177,"lon":5.39723,"is_reserved":false,"is_disabled":false,"rental_uris":{"android":"levelo://app?vid=28f31a98-b093-4bfb-b417-89bd198a1de0","ios":"levelo://app?vid=28f31a98-b093-4bfb-b417-89bd198a1de0"},"vehicle_type_id":"4","last_reported":1742451268,"current_range_meters":9600,"station_id":"ce4bhn12rcd13ifvqgpg","pricing_plan_id":"cebpf4jnsgd1na2vs0mg"},{"bike_id":"94ffa62a-c0a8-48b0-83e4-7237e17e0e07","system_id":"levelo_inurba_marseille","lat":43.279516,"lon":5.410528,"is_reserved":false,"is_disabled":false,"rental_uris":{"android":"levelo://app?vid=94ffa62a-c0a8-48b0-83e4-7237e17e0e07","ios":"levelo://app?vid=94ffa62a-c0a8-48b0-83e4-7237e17e0e07"},"vehicle_type_id":"4","last_reported":1742451268,"current_range_meters":9600,"station_id":"ce4bhnp2rcd13ifvqh0g","pricing_plan_id":"cebpf4jnsgd1na2vs0mg"},{"bike_id":"7f0f1461-453e-41a8-ab84-5bec6473e280","system_id":"levelo_inurba_marseille","lat":43.261965,"lon":5.374535,"is_reserved":false,"is_disabled":false,"rental_uris":{"android":"levelo://app?vid=7f0f1461-453e-41a8-ab84-5bec6473e280","ios":"levelo://app?vid=7f0f1461-453e-41a8-ab84-5bec6473e280"},"vehicle_type_id":"4","last_reported":1742451268,"current_range_meters":9600,"station_id":"ce4bhgp2rcd13ifvqfc0","pricing_plan_id":"cebpf4jnsgd1na2vs0mg"},{"bike_id":"7c23dcb0-31a4-457d-8cd5-05a913c017d4","system_id":"levelo_inurba_marseille","lat":43.33035,"lon":5.39026,"is_reserved":false,"is_disabled":false,"rental_uris":{"android":"levelo://app?vid=7c23dcb0-31a4-457d-8cd5-05a913c017d4","ios":"levelo://app?vid=7c23dcb0-31a4-457d-8cd5-05a913c017d4"},"vehicle_type_id":"4","last_reported":1742451268,"current_range_meters":9600,"station_id":"ce4bhr92rcd13ifvqhrg","pricing_plan_id":"cebpf4jnsgd1na2vs0mg"},{"bike_id":"c6c8dd2d-5b6e-4c3a-8293-f6b60960b982","system_id":"levelo_inurba_marseille","lat":43.30889,"lon":5.37407,"is_reserved":false,"is_disabled":false,"rental_uris":{"android":"levelo://app?vid=c6c8dd2d-5b6e-4c3a-8293-f6b60960b982","ios":"levelo://app?vid=c6c8dd2d-5b6e-4c3a-8293-f6b60960b982"},"vehicle_type_id":"4","last_reported":1742451268,"current_range_meters":9600,"station_id":"","pricing_plan_id":"cebpf4jnsgd1na2vs0mg"},{"bike_id":"176d2e0b-da43-4b98-b92e-b45d4ab12b2f","system_id":"levelo_inurba_marseille","lat":43.30215,"lon":5.38468,"is_reserved":false,"is_disabled":false,"rental_uris":{"android":"levelo://app?vid=176d2e0b-da43-4b98-b92e-b45d4ab12b2f","ios":"levelo://app?vid=176d2e0b-da43-4b98-b92e-b45d4ab12b2f"},"vehicle_type_id":"4","last_reported":1742451268,"current_range_meters":9600,"station_id":"","pricing_plan_id":"cebpf4jnsgd1na2vs0mg"},{"bike_id":"9a407e55-d314-42fc-8c32-c5b5dcba6239","system_id":"levelo_inurba_marseille","lat":43.262306,"lon":5.404525,"is_reserved":false,"is_disabled":false,"rental_uris":{"android":"levelo://app?vid=9a407e55-d314-42fc-8c32-c5b5dcba6239","ios":"levelo://app?vid=9a407e55-d314-42fc-8c32-c5b5dcba6239"},"vehicle_type_id":"4","last_reported":1742451268,"current_range_meters":10000,"station_id":"ce4bhmh2rcd13ifvqgmg","pricing_plan_id":"cebpf4jnsgd1na2vs0mg"},{"bike_id":"3d6e5bb2-49a5-4ae9-ac7c-7c3250491a49","system_id":"levelo_inurba_marseille","lat":43.28835,"lon":5.35945,"is_reserved":false,"is_disabled":false,"rental_uris":{"android":"levelo://app?vid=3d6e5bb2-49a5-4ae9-ac7c-7c3250491a49","ios":"levelo://app?vid=3d6e5bb2-49a5-4ae9-ac7c-7c3250491a49"},"vehicle_type_id":"4","last_reported":1742451268,"current_range_meters":10000,"station_id":"","pricing_plan_id":"cebpf4jnsgd1na2vs0mg"},{"bike_id":"477b3b7f-28c2-49ea-8f4e-2b4d1861b94d","system_id":"levelo_inurba_marseille","lat":43.255836,"lon":5.38222,"is_reserved":false,"is_disabled":false,"rental_uris":{"android":"levelo://app?vid=477b3b7f-28c2-49ea-8f4e-2b4d1861b94d","ios":"levelo://app?vid=477b3b7f-28c2-49ea-8f4e-2b4d1861b94d"},"vehicle_type_id":"4","last_reported":1742451268,"current_range_meters":10000,"station_id":"ce4bhih2rcd13ifvqfs0","pricing_plan_id":"cebpf4jnsgd1na2vs0mg"},{"bike_id":"09202724-fb16-47b4-8abc-ddba2c95ece7","system_id":"levelo_inurba_marseille","lat":43.24066,"lon":5.37774,"is_reserved":false,"is_disabled":false,"rental_uris":{"android":"levelo://app?vid=09202724-fb16-47b4-8abc-ddba2c95ece7","ios":"levelo://app?vid=09202724-fb16-47b4-8abc-ddba2c95ece7"},"vehicle_type_id":"4","last_reported":1742451268,"current_range_meters":10000,"station_id":"ce4bhnp2rcd13ifvqgvg","pricing_plan_id":"cebpf4jnsgd1na2vs0mg"},{"bike_id":"4cb6b837-43dc-40de-9cea-cfcec3746b95","system_id":"levelo_inurba_marseille","lat":43.308862,"lon":5.396297,"is_reserved":false,"is_disabled":false,"rental_uris":{"android":"levelo://app?vid=4cb6b837-43dc-40de-9cea-cfcec3746b95","ios":"levelo://app?vid=4cb6b837-43dc-40de-9cea-cfcec3746b95"},"vehicle_type_id":"4","last_reported":1742451268,"current_range_meters":10000,"station_id":"ce4bh012rcd13ifvqcv0","pricing_plan_id":"cebpf4jnsgd1na2vs0mg"},{"bike_id":"1689fa84-13f6-46a5-be92-d2be23b25286","system_id":"levelo_inurba_marseille","lat":43.31445,"lon":5.37596,"is_reserved":false,"is_disabled":false,"rental_uris":{"android":"levelo://app?vid=1689fa84-13f6-46a5-be92-d2be23b25286","ios":"levelo://app?vid=1689fa84-13f6-46a5-be92-d2be23b25286"},"vehicle_type_id":"4","last_reported":1742451268,"current_range_meters":10000,"station_id":"","pricing_plan_id":"cebpf4jnsgd1na2vs0mg"},{"bike_id":"1983241e-dcf4-412a-b965-b9e661a9d6d5","system_id":"levelo_inurba_marseille","lat":43.29828,"lon":5.40162,"is_reserved":false,"is_disabled":false,"rental_uris":{"android":"levelo://app?vid=1983241e-dcf4-412a-b965-b9e661a9d6d5","ios":"levelo://app?vid=1983241e-dcf4-412a-b965-b9e661a9d6d5"},"vehicle_type_id":"4","last_reported":1742451268,"current_range_meters":10000,"station_id":"","pricing_plan_id":"cebpf4jnsgd1na2vs0mg"},{"bike_id":"6c7e51d2-e2f9-4032-b4ac-95afc513e72e","system_id":"levelo_inurba_marseille","lat":43.27355,"lon":5.36246,"is_reserved":false,"is_disabled":false,"rental_uris":{"android":"levelo://app?vid=6c7e51d2-e2f9-4032-b4ac-95afc513e72e","ios":"levelo://app?vid=6c7e51d2-e2f9-4032-b4ac-95afc513e72e"},"vehicle_type_id":"4","last_reported":1742451268,"current_range_meters":10800,"station_id":"ce4bhbh2rcd13ifvqeo0","pricing_plan_id":"cebpf4jnsgd1na2vs0mg"},{"bike_id":"11bd8d6d-27dc-4740-9c7d-3b5375e8c83b","system_id":"levelo_inurba_marseille","lat":43.316526,"lon":5.395745,"is_reserved":false,"is_disabled":false,"rental_uris":{"android":"levelo://app?vid=11bd8d6d-27dc-4740-9c7d-3b5375e8c83b","ios":"levelo://app?vid=11bd8d6d-27dc-4740-9c7d-3b5375e8c83b"},"vehicle_type_id":"4","last_reported":1742451268,"current_range_meters":10800,"station_id":"","pricing_plan_id":"cebpf4jnsgd1na2vs0mg"},{"bike_id":"cb6062cd-3cfa-4917-b79b-5707b99e3c03","system_id":"levelo_inurba_marseille","lat":43.321185,"lon":5.367534,"is_reserved":false,"is_disabled":false,"rental_uris":{"android":"levelo://app?vid=cb6062cd-3cfa-4917-b79b-5707b99e3c03","ios":"levelo://app?vid=cb6062cd-3cfa-4917-b79b-5707b99e3c03"},"vehicle_type_id":"4","last_reported":1742451268,"current_range_meters":10800,"station_id":"ce4bho92rcd13ifvqh3g","pricing_plan_id":"cebpf4jnsgd1na2vs0mg"},{"bike_id":"0d90e074-2d4e-4ecb-86ba-820d133e1b46","system_id":"levelo_inurba_marseille","lat":43.28037,"lon":5.36946,"is_reserved":false,"is_disabled":false,"rental_uris":{"android":"levelo://app?vid=0d90e074-2d4e-4ecb-86ba-820d133e1b46","ios":"levelo://app?vid=0d90e074-2d4e-4ecb-86ba-820d133e1b46"},"vehicle_type_id":"4","last_reported":1742451268,"current_range_meters":10800,"station_id":"ce4bha12rcd13ifvqef0","pricing_plan_id":"cebpf4jnsgd1na2vs0mg"},{"bike_id":"0af285be-0294-4c23-9728-cedd0c1ca6b2","system_id":"levelo_inurba_marseille","lat":43.23199,"lon":5.39972,"is_reserved":false,"is_disabled":false,"rental_uris":{"android":"levelo://app?vid=0af285be-0294-4c23-9728-cedd0c1ca6b2","ios":"levelo://app?vid=0af285be-0294-4c23-9728-cedd0c1ca6b2"},"vehicle_type_id":"4","last_reported":1742451268,"current_range_meters":10800,"station_id":"ce4bhn12rcd13ifvqgqg","pricing_plan_id":"cebpf4jnsgd1na2vs0mg"},{"bike_id":"dfaf61e6-4f78-41b0-9958-891f3775e1ea","system_id":"levelo_inurba_marseille","lat":43.28818,"lon":5.35804,"is_reserved":false,"is_disabled":false,"rental_uris":{"android":"levelo://app?vid=dfaf61e6-4f78-41b0-9958-891f3775e1ea","ios":"levelo://app?vid=dfaf61e6-4f78-41b0-9958-891f3775e1ea"},"vehicle_type_id":"4","last_reported":1742451268,"current_range_meters":10800,"station_id":"","pricing_plan_id":"cebpf4jnsgd1na2vs0mg"},{"bike_id":"a6c26f49-f3e7-46f4-ac2a-6068f61eda81","system_id":"levelo_inurba_marseille","lat":43.2938,"lon":5.37846,"is_reserved":false,"is_disabled":true,"rental_uris":{"android":"levelo://app?vid=a6c26f49-f3e7-46f4-ac2a-6068f61eda81","ios":"levelo://app?vid=a6c26f49-f3e7-46f4-ac2a-6068f61eda81"},"vehicle_type_id":"4","last_reported":1742451268,"current_range_meters":10800,"station_id":"ce4bgjh2rcd13ifvqbf0","pricing_plan_id":"cebpf4jnsgd1na2vs0mg"},{"bike_id":"d7645557-54c5-44ed-8c44-41e433a350da","system_id":"levelo_inurba_marseille","lat":43.29477,"lon":5.35568,"is_reserved":false,"is_disabled":false,"rental_uris":{"android":"levelo://app?vid=d7645557-54c5-44ed-8c44-41e433a350da","ios":"levelo://app?vid=d7645557-54c5-44ed-8c44-41e433a350da"},"vehicle_type_id":"4","last_reported":1742451268,"current_range_meters":10800,"station_id":"","pricing_plan_id":"cebpf4jnsgd1na2vs0mg"},{"bike_id":"13cc78a0-eee8-44bf-ba66-2bb5c4a0d700","system_id":"levelo_inurba_marseille","lat":43.31891,"lon":5.40737,"is_reserved":false,"is_disabled":false,"rental_uris":{"android":"levelo://app?vid=13cc78a0-eee8-44bf-ba66-2bb5c4a0d700","ios":"levelo://app?vid=13cc78a0-eee8-44bf-ba66-2bb5c4a0d700"},"vehicle_type_id":"4","last_reported":1742451268,"current_range_meters":11200,"station_id":"ce4bhq12rcd13ifvqhig","pricing_plan_id":"cebpf4jnsgd1na2vs0mg"},{"bike_id":"a0deeb6c-62a7-4efb-834c-1bec837aaba6","system_id":"levelo_inurba_marseille","lat":43.33698,"lon":5.37841,"is_reserved":false,"is_disabled":false,"rental_uris":{"android":"levelo://app?vid=a0deeb6c-62a7-4efb-834c-1bec837aaba6","ios":"levelo://app?vid=a0deeb6c-62a7-4efb-834c-1bec837aaba6"},"vehicle_type_id":"4","last_reported":1742451268,"current_range_meters":11200,"station_id":"","pricing_plan_id":"cebpf4jnsgd1na2vs0mg"},{"bike_id":"c3171a6d-07dd-4c33-a5ee-bcaedbbad7d7","system_id":"levelo_inurba_marseille","lat":43.30804,"lon":5.43517,"is_reserved":false,"is_disabled":false,"rental_uris":{"android":"levelo://app?vid=c3171a6d-07dd-4c33-a5ee-bcaedbbad7d7","ios":"levelo://app?vid=c3171a6d-07dd-4c33-a5ee-bcaedbbad7d7"},"vehicle_type_id":"4","last_reported":1742451268,"current_range_meters":11200,"station_id":"ce4bhph2rcd13ifvqheg","pricing_plan_id":"cebpf4jnsgd1na2vs0mg"},{"bike_id":"32cf8de0-dcc6-41d9-b6e1-e8932e2ded26","system_id":"levelo_inurba_marseille","lat":43.30542,"lon":5.36561,"is_reserved":false,"is_disabled":false,"rental_uris":{"android":"levelo://app?vid=32cf8de0-dcc6-41d9-b6e1-e8932e2ded26","ios":"levelo://app?vid=32cf8de0-dcc6-41d9-b6e1-e8932e2ded26"},"vehicle_type_id":"4","last_reported":1742451268,"current_range_meters":11200,"station_id":"ce4bgs12rcd13ifvqcag","pricing_plan_id":"cebpf4jnsgd1na2vs0mg"},{"bike_id":"fe8a0f2c-9622-46d3-b98f-11e81ebb83b9","system_id":"levelo_inurba_marseille","lat":43.3015,"lon":5.38099,"is_reserved":false,"is_disabled":false,"rental_uris":{"android":"levelo://app?vid=fe8a0f2c-9622-46d3-b98f-11e81ebb83b9","ios":"levelo://app?vid=fe8a0f2c-9622-46d3-b98f-11e81ebb83b9"},"vehicle_type_id":"4","last_reported":1742451268,"current_range_meters":11200,"station_id":"ce4bgjp2rcd13ifvqbh0","pricing_plan_id":"cebpf4jnsgd1na2vs0mg"},{"bike_id":"f7629e3d-4aa5-4911-a5a4-b65ca5ee571a","system_id":"levelo_inurba_marseille","lat":43.28339,"lon":5.38128,"is_reserved":false,"is_disabled":false,"rental_uris":{"android":"levelo://app?vid=f7629e3d-4aa5-4911-a5a4-b65ca5ee571a","ios":"levelo://app?vid=f7629e3d-4aa5-4911-a5a4-b65ca5ee571a"},"vehicle_type_id":"4","last_reported":1742451268,"current_range_meters":11600,"station_id":"ce4bh412rcd13ifvqdr0","pricing_plan_id":"cebpf4jnsgd1na2vs0mg"},{"bike_id":"80ecf5ca-4bfc-46bf-849a-395e7a3b4e2c","system_id":"levelo_inurba_marseille","lat":43.30927,"lon":5.40151,"is_reserved":false,"is_disabled":false,"rental_uris":{"android":"levelo://app?vid=80ecf5ca-4bfc-46bf-849a-395e7a3b4e2c","ios":"levelo://app?vid=80ecf5ca-4bfc-46bf-849a-395e7a3b4e2c"},"vehicle_type_id":"4","last_reported":1742451268,"current_range_meters":11600,"station_id":"ce4bgvp2rcd13ifvqct0","pricing_plan_id":"cebpf4jnsgd1na2vs0mg"},{"bike_id":"d7fb3117-8b22-47f2-81e8-30ae0a3c4279","system_id":"levelo_inurba_marseille","lat":43.31483,"lon":5.37295,"is_reserved":false,"is_disabled":false,"rental_uris":{"android":"levelo://app?vid=d7fb3117-8b22-47f2-81e8-30ae0a3c4279","ios":"levelo://app?vid=d7fb3117-8b22-47f2-81e8-30ae0a3c4279"},"vehicle_type_id":"4","last_reported":1742451268,"current_range_meters":11600,"station_id":"ce4bgt12rcd13ifvqcd0","pricing_plan_id":"cebpf4jnsgd1na2vs0mg"},{"bike_id":"5f474075-5c97-4d14-b6ed-363bf61d51c6","system_id":"levelo_inurba_marseille","lat":43.30255,"lon":5.4009,"is_reserved":false,"is_disabled":false,"rental_uris":{"android":"levelo://app?vid=5f474075-5c97-4d14-b6ed-363bf61d51c6","ios":"levelo://app?vid=5f474075-5c97-4d14-b6ed-363bf61d51c6"},"vehicle_type_id":"4","last_reported":1742451268,"current_range_meters":11600,"station_id":"ce4bgvh2rcd13ifvqcs0","pricing_plan_id":"cebpf4jnsgd1na2vs0mg"},{"bike_id":"6883c811-8746-429a-bd41-848ecf4dd19e","system_id":"levelo_inurba_marseille","lat":43.235178,"lon":5.377466,"is_reserved":false,"is_disabled":false,"rental_uris":{"android":"levelo://app?vid=6883c811-8746-429a-bd41-848ecf4dd19e","ios":"levelo://app?vid=6883c811-8746-429a-bd41-848ecf4dd19e"},"vehicle_type_id":"4","last_reported":1742451268,"current_range_meters":11600,"station_id":"","pricing_plan_id":"cebpf4jnsgd1na2vs0mg"},{"bike_id":"181b1742-09ee-46ab-8712-67d8396af664","system_id":"levelo_inurba_marseille","lat":43.24172,"lon":5.39724,"is_reserved":false,"is_disabled":false,"rental_uris":{"android":"levelo://app?vid=181b1742-09ee-46ab-8712-67d8396af664","ios":"levelo://app?vid=181b1742-09ee-46ab-8712-67d8396af664"},"vehicle_type_id":"4","last_reported":1742451268,"current_range_meters":11600,"station_id":"ce4bhn12rcd13ifvqgpg","pricing_plan_id":"cebpf4jnsgd1na2vs0mg"},{"bike_id":"4fcd06ae-4851-4c19-aff2-bf420ac261fc","system_id":"levelo_inurba_marseille","lat":43.28352,"lon":5.38654,"is_reserved":false,"is_disabled":true,"rental_uris":{"android":"levelo://app?vid=4fcd06ae-4851-4c19-aff2-bf420ac261fc","ios":"levelo://app?vid=4fcd06ae-4851-4c19-aff2-bf420ac261fc"},"vehicle_type_id":"4","last_reported":1742451268,"current_range_meters":11600,"station_id":"ce4bh492rcd13ifvqdvg","pricing_plan_id":"cebpf4jnsgd1na2vs0mg"},{"bike_id":"34fad177-51bc-4f2d-998a-8b36fcd2da8e","system_id":"levelo_inurba_marseille","lat":43.28692,"lon":5.37401,"is_reserved":false,"is_disabled":false,"rental_uris":{"android":"levelo://app?vid=34fad177-51bc-4f2d-998a-8b36fcd2da8e","ios":"levelo://app?vid=34fad177-51bc-4f2d-998a-8b36fcd2da8e"},"vehicle_type_id":"4","last_reported":1742451268,"current_range_meters":11600,"station_id":"ce4bh3p2rcd13ifvqdq0","pricing_plan_id":"cebpf4jnsgd1na2vs0mg"},{"bike_id":"ec5e2ef2-c1eb-48b0-a19d-521e6460b8d2","system_id":"levelo_inurba_marseille","lat":43.29777,"lon":5.39377,"is_reserved":false,"is_disabled":false,"rental_uris":{"android":"levelo://app?vid=ec5e2ef2-c1eb-48b0-a19d-521e6460b8d2","ios":"levelo://app?vid=ec5e2ef2-c1eb-48b0-a19d-521e6460b8d2"},"vehicle_type_id":"4","last_reported":1742451268,"current_range_meters":11600,"station_id":"chh1huq6cuj3fo74tm60","pricing_plan_id":"cebpf4jnsgd1na2vs0mg"},{"bike_id":"f0ecc41c-3e76-4973-9ac5-ce0caabd5642","system_id":"levelo_inurba_marseille","lat":43.29882,"lon":5.39751,"is_reserved":false,"is_disabled":false,"rental_uris":{"android":"levelo://app?vid=f0ecc41c-3e76-4973-9ac5-ce0caabd5642","ios":"levelo://app?vid=f0ecc41c-3e76-4973-9ac5-ce0caabd5642"},"vehicle_type_id":"4","last_reported":1742451268,"current_range_meters":12000,"station_id":"ce4bh0h2rcd13ifvqd50","pricing_plan_id":"cebpf4jnsgd1na2vs0mg"},{"bike_id":"bc1594f0-f23b-46fa-bccc-f3ff1c68a71d","system_id":"levelo_inurba_marseille","lat":43.258265,"lon":5.394326,"is_reserved":false,"is_disabled":false,"rental_uris":{"android":"levelo://app?vid=bc1594f0-f23b-46fa-bccc-f3ff1c68a71d","ios":"levelo://app?vid=bc1594f0-f23b-46fa-bccc-f3ff1c68a71d"},"vehicle_type_id":"4","last_reported":1742451268,"current_range_meters":12000,"station_id":"ce4bhip2rcd13ifvqft0","pricing_plan_id":"cebpf4jnsgd1na2vs0mg"},{"bike_id":"4f768683-98ef-4058-a6fa-4682623e24f5","system_id":"levelo_inurba_marseille","lat":43.30884,"lon":5.39658,"is_reserved":false,"is_disabled":false,"rental_uris":{"android":"levelo://app?vid=4f768683-98ef-4058-a6fa-4682623e24f5","ios":"levelo://app?vid=4f768683-98ef-4058-a6fa-4682623e24f5"},"vehicle_type_id":"4","last_reported":1742451268,"current_range_meters":12000,"station_id":"ce4bh012rcd13ifvqcv0","pricing_plan_id":"cebpf4jnsgd1na2vs0mg"},{"bike_id":"ffbee1c9-ab8d-45ee-b606-c546ab78c5f2","system_id":"levelo_inurba_marseille","lat":43.29728,"lon":5.37795,"is_reserved":false,"is_disabled":false,"rental_uris":{"android":"levelo://app?vid=ffbee1c9-ab8d-45ee-b606-c546ab78c5f2","ios":"levelo://app?vid=ffbee1c9-ab8d-45ee-b606-c546ab78c5f2"},"vehicle_type_id":"4","last_reported":1742451268,"current_range_meters":12000,"station_id":"","pricing_plan_id":"cebpf4jnsgd1na2vs0mg"},{"bike_id":"7721c1d1-8e22-4af6-b461-42e564891d17","system_id":"levelo_inurba_marseille","lat":43.30112,"lon":5.39885,"is_reserved":false,"is_disabled":true,"rental_uris":{"android":"levelo://app?vid=7721c1d1-8e22-4af6-b461-42e564891d17","ios":"levelo://app?vid=7721c1d1-8e22-4af6-b461-42e564891d17"},"vehicle_type_id":"4","last_reported":1742451268,"current_range_meters":12000,"station_id":"ce4bh0h2rcd13ifvqd40","pricing_plan_id":"cebpf4jnsgd1na2vs0mg"},{"bike_id":"6b8ecbdb-b185-4328-8bce-cd488229e93a","system_id":"levelo_inurba_marseille","lat":43.31352,"lon":5.36702,"is_reserved":false,"is_disabled":false,"rental_uris":{"android":"levelo://app?vid=6b8ecbdb-b185-4328-8bce-cd488229e93a","ios":"levelo://app?vid=6b8ecbdb-b185-4328-8bce-cd488229e93a"},"vehicle_type_id":"4","last_reported":1742451268,"current_range_meters":12000,"station_id":"ce4bgr92rcd13ifvqc6g","pricing_plan_id":"cebpf4jnsgd1na2vs0mg"},{"bike_id":"153c2b1a-c06c-4899-a846-d0ebf48e2f80","system_id":"levelo_inurba_marseille","lat":43.28712,"lon":5.36082,"is_reserved":false,"is_disabled":false,"rental_uris":{"android":"levelo://app?vid=153c2b1a-c06c-4899-a846-d0ebf48e2f80","ios":"levelo://app?vid=153c2b1a-c06c-4899-a846-d0ebf48e2f80"},"vehicle_type_id":"4","last_reported":1742451268,"current_range_meters":12000,"station_id":"cki0cbj6b192h4jlfktg","pricing_plan_id":"cebpf4jnsgd1na2vs0mg"},{"bike_id":"b9e4bdd0-024c-4547-9a94-39d0c7923642","system_id":"levelo_inurba_marseille","lat":43.241698,"lon":5.364048,"is_reserved":false,"is_disabled":false,"rental_uris":{"android":"levelo://app?vid=b9e4bdd0-024c-4547-9a94-39d0c7923642","ios":"levelo://app?vid=b9e4bdd0-024c-4547-9a94-39d0c7923642"},"vehicle_type_id":"4","last_reported":1742451268,"current_range_meters":12000,"station_id":"cpo36qri1sfpv3e86is0","pricing_plan_id":"cebpf4jnsgd1na2vs0mg"},{"bike_id":"3541b254-27bb-462a-9b76-258b8d38b3e8","system_id":"levelo_inurba_marseille","lat":43.31072,"lon":5.38354,"is_reserved":false,"is_disabled":false,"rental_uris":{"android":"levelo://app?vid=3541b254-27bb-462a-9b76-258b8d38b3e8","ios":"levelo://app?vid=3541b254-27bb-462a-9b76-258b8d38b3e8"},"vehicle_type_id":"4","last_reported":1742451268,"current_range_meters":12000,"station_id":"ce4bgv92rcd13ifvqcr0","pricing_plan_id":"cebpf4jnsgd1na2vs0mg"},{"bike_id":"c5bb5dca-1dc9-450e-9a3d-9fa737cf345d","system_id":"levelo_inurba_marseille","lat":43.246508,"lon":5.388859,"is_reserved":false,"is_disabled":false,"rental_uris":{"android":"levelo://app?vid=c5bb5dca-1dc9-450e-9a3d-9fa737cf345d","ios":"levelo://app?vid=c5bb5dca-1dc9-450e-9a3d-9fa737cf345d"},"vehicle_type_id":"4","last_reported":1742451268,"current_range_meters":12000,"station_id":"ce4bhg12rcd13ifvqf60","pricing_plan_id":"cebpf4jnsgd1na2vs0mg"},{"bike_id":"0303b0ed-f8c8-4727-a934-eab1ff5762e3","system_id":"levelo_inurba_marseille","lat":43.308733,"lon":5.396229,"is_reserved":false,"is_disabled":false,"rental_uris":{"android":"levelo://app?vid=0303b0ed-f8c8-4727-a934-eab1ff5762e3","ios":"levelo://app?vid=0303b0ed-f8c8-4727-a934-eab1ff5762e3"},"vehicle_type_id":"4","last_reported":1742451268,"current_range_meters":12000,"station_id":"ce4bh012rcd13ifvqcv0","pricing_plan_id":"cebpf4jnsgd1na2vs0mg"},{"bike_id":"8879e25f-e10f-420b-a3cf-17b5a4037281","system_id":"levelo_inurba_marseille","lat":43.258164,"lon":5.394372,"is_reserved":false,"is_disabled":false,"rental_uris":{"android":"levelo://app?vid=8879e25f-e10f-420b-a3cf-17b5a4037281","ios":"levelo://app?vid=8879e25f-e10f-420b-a3cf-17b5a4037281"},"vehicle_type_id":"4","last_reported":1742451268,"current_range_meters":12000,"station_id":"ce4bhip2rcd13ifvqft0","pricing_plan_id":"cebpf4jnsgd1na2vs0mg"},{"bike_id":"eaa90a4b-b35b-4e9d-bcb5-dc00cebc1f8d","system_id":"levelo_inurba_marseille","lat":43.323681,"lon":5.388909,"is_reserved":false,"is_disabled":false,"rental_uris":{"android":"levelo://app?vid=eaa90a4b-b35b-4e9d-bcb5-dc00cebc1f8d","ios":"levelo://app?vid=eaa90a4b-b35b-4e9d-bcb5-dc00cebc1f8d"},"vehicle_type_id":"4","last_reported":1742451268,"current_range_meters":12400,"station_id":"ce4bhqp2rcd13ifvqhog","pricing_plan_id":"cebpf4jnsgd1na2vs0mg"},{"bike_id":"86efef1b-7581-4ac0-b4ca-c030b59453ea","system_id":"levelo_inurba_marseille","lat":43.29013,"lon":5.37569,"is_reserved":false,"is_disabled":false,"rental_uris":{"android":"levelo://app?vid=86efef1b-7581-4ac0-b4ca-c030b59453ea","ios":"levelo://app?vid=86efef1b-7581-4ac0-b4ca-c030b59453ea"},"vehicle_type_id":"4","last_reported":1742451268,"current_range_meters":12400,"station_id":"ce4bh692rcd13ifvqe90","pricing_plan_id":"cebpf4jnsgd1na2vs0mg"},{"bike_id":"56419ca8-463b-4be0-9c43-d4369c9ccefb","system_id":"levelo_inurba_marseille","lat":43.31543,"lon":5.38023,"is_reserved":false,"is_disabled":false,"rental_uris":{"android":"levelo://app?vid=56419ca8-463b-4be0-9c43-d4369c9ccefb","ios":"levelo://app?vid=56419ca8-463b-4be0-9c43-d4369c9ccefb"},"vehicle_type_id":"4","last_reported":1742451268,"current_range_meters":12400,"station_id":"ce4bhsp2rcd13ifvqi50","pricing_plan_id":"cebpf4jnsgd1na2vs0mg"},{"bike_id":"ebafa0fd-ee12-47f4-b68c-4a54737665d1","system_id":"levelo_inurba_marseille","lat":43.30881,"lon":5.39643,"is_reserved":false,"is_disabled":false,"rental_uris":{"android":"levelo://app?vid=ebafa0fd-ee12-47f4-b68c-4a54737665d1","ios":"levelo://app?vid=ebafa0fd-ee12-47f4-b68c-4a54737665d1"},"vehicle_type_id":"4","last_reported":1742451268,"current_range_meters":12400,"station_id":"ce4bh012rcd13ifvqcv0","pricing_plan_id":"cebpf4jnsgd1na2vs0mg"},{"bike_id":"e7f32ac4-2002-4979-98ca-90cb0ab55889","system_id":"levelo_inurba_marseille","lat":43.26939,"lon":5.40272,"is_reserved":false,"is_disabled":false,"rental_uris":{"android":"levelo://app?vid=e7f32ac4-2002-4979-98ca-90cb0ab55889","ios":"levelo://app?vid=e7f32ac4-2002-4979-98ca-90cb0ab55889"},"vehicle_type_id":"4","last_reported":1742451268,"current_range_meters":12400,"station_id":"cjm6bp8fraef2m0cb0m0","pricing_plan_id":"cebpf4jnsgd1na2vs0mg"},{"bike_id":"dcfce11f-23fd-43b3-ac6a-2331b19f3e91","system_id":"levelo_inurba_marseille","lat":43.30893,"lon":5.39644,"is_reserved":false,"is_disabled":false,"rental_uris":{"android":"levelo://app?vid=dcfce11f-23fd-43b3-ac6a-2331b19f3e91","ios":"levelo://app?vid=dcfce11f-23fd-43b3-ac6a-2331b19f3e91"},"vehicle_type_id":"4","last_reported":1742451268,"current_range_meters":12400,"station_id":"ce4bh012rcd13ifvqcv0","pricing_plan_id":"cebpf4jnsgd1na2vs0mg"},{"bike_id":"71cee084-4971-41dd-8931-6915b0a1225e","system_id":"levelo_inurba_marseille","lat":43.278167,"lon":5.407201,"is_reserved":false,"is_disabled":false,"rental_uris":{"android":"levelo://app?vid=71cee084-4971-41dd-8931-6915b0a1225e","ios":"levelo://app?vid=71cee084-4971-41dd-8931-6915b0a1225e"},"vehicle_type_id":"4","last_reported":1742451268,"current_range_meters":12400,"station_id":"ce4bhnh2rcd13ifvqgtg","pricing_plan_id":"cebpf4jnsgd1na2vs0mg"},{"bike_id":"44b51cae-1f8d-4c3f-8cfa-49c7965edddc","system_id":"levelo_inurba_marseille","lat":43.2885,"lon":5.358684,"is_reserved":false,"is_disabled":false,"rental_uris":{"android":"levelo://app?vid=44b51cae-1f8d-4c3f-8cfa-49c7965edddc","ios":"levelo://app?vid=44b51cae-1f8d-4c3f-8cfa-49c7965edddc"},"vehicle_type_id":"4","last_reported":1742451268,"current_range_meters":12800,"station_id":"ce4bhb12rcd13ifvqem0","pricing_plan_id":"cebpf4jnsgd1na2vs0mg"},{"bike_id":"7565d616-38a7-4fe3-aa7f-dfb8f45c0008","system_id":"levelo_inurba_marseille","lat":43.312033,"lon":5.374276,"is_reserved":false,"is_disabled":false,"rental_uris":{"android":"levelo://app?vid=7565d616-38a7-4fe3-aa7f-dfb8f45c0008","ios":"levelo://app?vid=7565d616-38a7-4fe3-aa7f-dfb8f45c0008"},"vehicle_type_id":"4","last_reported":1742451268,"current_range_meters":12800,"station_id":"","pricing_plan_id":"cebpf4jnsgd1na2vs0mg"},{"bike_id":"b21e1f2a-4f39-4f8f-80fb-0ec44cd800a8","system_id":"levelo_inurba_marseille","lat":43.30459,"lon":5.37931,"is_reserved":false,"is_disabled":false,"rental_uris":{"android":"levelo://app?vid=b21e1f2a-4f39-4f8f-80fb-0ec44cd800a8","ios":"levelo://app?vid=b21e1f2a-4f39-4f8f-80fb-0ec44cd800a8"},"vehicle_type_id":"4","last_reported":1742451268,"current_range_meters":12800,"station_id":"ce4bgup2rcd13ifvqcn0","pricing_plan_id":"cebpf4jnsgd1na2vs0mg"},{"bike_id":"b180aee1-8494-4d04-ab85-035038a6747a","system_id":"levelo_inurba_marseille","lat":43.28036,"lon":5.37031,"is_reserved":false,"is_disabled":false,"rental_uris":{"android":"levelo://app?vid=b180aee1-8494-4d04-ab85-035038a6747a","ios":"levelo://app?vid=b180aee1-8494-4d04-ab85-035038a6747a"},"vehicle_type_id":"4","last_reported":1742451268,"current_range_meters":12800,"station_id":"ce4bha12rcd13ifvqef0","pricing_plan_id":"cebpf4jnsgd1na2vs0mg"},{"bike_id":"9e416160-7c0f-441b-b3e5-6061b7c9ea3e","system_id":"levelo_inurba_marseille","lat":43.30256,"lon":5.40063,"is_reserved":false,"is_disabled":false,"rental_uris":{"android":"levelo://app?vid=9e416160-7c0f-441b-b3e5-6061b7c9ea3e","ios":"levelo://app?vid=9e416160-7c0f-441b-b3e5-6061b7c9ea3e"},"vehicle_type_id":"4","last_reported":1742451268,"current_range_meters":12800,"station_id":"ce4bgvh2rcd13ifvqcs0","pricing_plan_id":"cebpf4jnsgd1na2vs0mg"},{"bike_id":"cfcd43ac-55d6-41fe-bcae-b87609468037","system_id":"levelo_inurba_marseille","lat":43.276713,"lon":5.389155,"is_reserved":false,"is_disabled":true,"rental_uris":{"android":"levelo://app?vid=cfcd43ac-55d6-41fe-bcae-b87609468037","ios":"levelo://app?vid=cfcd43ac-55d6-41fe-bcae-b87609468037"},"vehicle_type_id":"4","last_reported":1742451268,"current_range_meters":12800,"station_id":"ce4bhi12rcd13ifvqfo0","pricing_plan_id":"cebpf4jnsgd1na2vs0mg"},{"bike_id":"91bbc4d7-c30f-4b98-bc8f-0b3299ccfa54","system_id":"levelo_inurba_marseille","lat":43.27366,"lon":5.36245,"is_reserved":false,"is_disabled":false,"rental_uris":{"android":"levelo://app?vid=91bbc4d7-c30f-4b98-bc8f-0b3299ccfa54","ios":"levelo://app?vid=91bbc4d7-c30f-4b98-bc8f-0b3299ccfa54"},"vehicle_type_id":"4","last_reported":1742451268,"current_range_meters":12800,"station_id":"ce4bhbh2rcd13ifvqeo0","pricing_plan_id":"cebpf4jnsgd1na2vs0mg"},{"bike_id":"238f5ef8-200a-4c91-9401-f937e3a5a9dd","system_id":"levelo_inurba_marseille","lat":43.29883,"lon":5.39753,"is_reserved":false,"is_disabled":false,"rental_uris":{"android":"levelo://app?vid=238f5ef8-200a-4c91-9401-f937e3a5a9dd","ios":"levelo://app?vid=238f5ef8-200a-4c91-9401-f937e3a5a9dd"},"vehicle_type_id":"4","last_reported":1742451268,"current_range_meters":12800,"station_id":"ce4bh0h2rcd13ifvqd50","pricing_plan_id":"cebpf4jnsgd1na2vs0mg"},{"bike_id":"53450bb0-21c0-4770-bb90-2c842485b597","system_id":"levelo_inurba_marseille","lat":43.250098,"lon":5.389438,"is_reserved":false,"is_disabled":false,"rental_uris":{"android":"levelo://app?vid=53450bb0-21c0-4770-bb90-2c842485b597","ios":"levelo://app?vid=53450bb0-21c0-4770-bb90-2c842485b597"},"vehicle_type_id":"4","last_reported":1742451268,"current_range_meters":12800,"station_id":"ce4bhgp2rcd13ifvqfd0","pricing_plan_id":"cebpf4jnsgd1na2vs0mg"},{"bike_id":"ac08bea7-a3db-4aa4-b663-22ba38e2c807","system_id":"levelo_inurba_marseille","lat":43.279403,"lon":5.410416,"is_reserved":false,"is_disabled":false,"rental_uris":{"android":"levelo://app?vid=ac08bea7-a3db-4aa4-b663-22ba38e2c807","ios":"levelo://app?vid=ac08bea7-a3db-4aa4-b663-22ba38e2c807"},"vehicle_type_id":"4","last_reported":1742451268,"current_range_meters":12800,"station_id":"ce4bhnp2rcd13ifvqh0g","pricing_plan_id":"cebpf4jnsgd1na2vs0mg"},{"bike_id":"819f55d4-8283-4aac-9c87-6c7f386799f5","system_id":"levelo_inurba_marseille","lat":43.2847,"lon":5.35894,"is_reserved":false,"is_disabled":false,"rental_uris":{"android":"levelo://app?vid=819f55d4-8283-4aac-9c87-6c7f386799f5","ios":"levelo://app?vid=819f55d4-8283-4aac-9c87-6c7f386799f5"},"vehicle_type_id":"4","last_reported":1742451268,"current_range_meters":12800,"station_id":"ce4bhah2rcd13ifvqei0","pricing_plan_id":"cebpf4jnsgd1na2vs0mg"},{"bike_id":"48d1ca75-c6a4-4880-91e2-d975a9f9859a","system_id":"levelo_inurba_marseille","lat":43.318909,"lon":5.407371,"is_reserved":false,"is_disabled":false,"rental_uris":{"android":"levelo://app?vid=48d1ca75-c6a4-4880-91e2-d975a9f9859a","ios":"levelo://app?vid=48d1ca75-c6a4-4880-91e2-d975a9f9859a"},"vehicle_type_id":"4","last_reported":1742451268,"current_range_meters":12800,"station_id":"ce4bhq12rcd13ifvqhig","pricing_plan_id":"cebpf4jnsgd1na2vs0mg"},{"bike_id":"77c325ba-2e1c-4b5f-812e-882a5e158ec8","system_id":"levelo_inurba_marseille","lat":43.27602,"lon":5.3612,"is_reserved":false,"is_disabled":false,"rental_uris":{"android":"levelo://app?vid=77c325ba-2e1c-4b5f-812e-882a5e158ec8","ios":"levelo://app?vid=77c325ba-2e1c-4b5f-812e-882a5e158ec8"},"vehicle_type_id":"4","last_reported":1742451268,"current_range_meters":13600,"station_id":"ce4bgj92rcd13ifvqbe0","pricing_plan_id":"cebpf4jnsgd1na2vs0mg"},{"bike_id":"bd2a40a3-63e6-4184-9a0b-ac72cc3b2e34","system_id":"levelo_inurba_marseille","lat":43.31492,"lon":5.37313,"is_reserved":false,"is_disabled":false,"rental_uris":{"android":"levelo://app?vid=bd2a40a3-63e6-4184-9a0b-ac72cc3b2e34","ios":"levelo://app?vid=bd2a40a3-63e6-4184-9a0b-ac72cc3b2e34"},"vehicle_type_id":"4","last_reported":1742451268,"current_range_meters":12800,"station_id":"ce4bgt12rcd13ifvqcd0","pricing_plan_id":"cebpf4jnsgd1na2vs0mg"},{"bike_id":"c3785270-e916-49c4-8938-772884b2125f","system_id":"levelo_inurba_marseille","lat":43.28663,"lon":5.363589,"is_reserved":false,"is_disabled":false,"rental_uris":{"android":"levelo://app?vid=c3785270-e916-49c4-8938-772884b2125f","ios":"levelo://app?vid=c3785270-e916-49c4-8938-772884b2125f"},"vehicle_type_id":"4","last_reported":1742451268,"current_range_meters":13600,"station_id":"ce4bhah2rcd13ifvqej0","pricing_plan_id":"cebpf4jnsgd1na2vs0mg"},{"bike_id":"4428c3e0-16dc-4a38-a0c9-6086283c839d","system_id":"levelo_inurba_marseille","lat":43.29025,"lon":5.38646,"is_reserved":false,"is_disabled":true,"rental_uris":{"android":"levelo://app?vid=4428c3e0-16dc-4a38-a0c9-6086283c839d","ios":"levelo://app?vid=4428c3e0-16dc-4a38-a0c9-6086283c839d"},"vehicle_type_id":"4","last_reported":1742451268,"current_range_meters":13600,"station_id":"ce4bh4p2rcd13ifvqe0g","pricing_plan_id":"cebpf4jnsgd1na2vs0mg"},{"bike_id":"89dd7375-d5ef-4a0b-817a-54dfe9dce184","system_id":"levelo_inurba_marseille","lat":43.28845,"lon":5.3585,"is_reserved":false,"is_disabled":false,"rental_uris":{"android":"levelo://app?vid=89dd7375-d5ef-4a0b-817a-54dfe9dce184","ios":"levelo://app?vid=89dd7375-d5ef-4a0b-817a-54dfe9dce184"},"vehicle_type_id":"4","last_reported":1742451268,"current_range_meters":13600,"station_id":"ce4bhb12rcd13ifvqem0","pricing_plan_id":"cebpf4jnsgd1na2vs0mg"},{"bike_id":"beba08a2-d9cb-488c-9045-5efffb927c8b","system_id":"levelo_inurba_marseille","lat":43.2845,"lon":5.35892,"is_reserved":false,"is_disabled":false,"rental_uris":{"android":"levelo://app?vid=beba08a2-d9cb-488c-9045-5efffb927c8b","ios":"levelo://app?vid=beba08a2-d9cb-488c-9045-5efffb927c8b"},"vehicle_type_id":"4","last_reported":1742451268,"current_range_meters":13600,"station_id":"ce4bhah2rcd13ifvqei0","pricing_plan_id":"cebpf4jnsgd1na2vs0mg"},{"bike_id":"38ddb0aa-9db2-456c-9867-9298441dc275","system_id":"levelo_inurba_marseille","lat":43.29568,"lon":5.37539,"is_reserved":false,"is_disabled":false,"rental_uris":{"android":"levelo://app?vid=38ddb0aa-9db2-456c-9867-9298441dc275","ios":"levelo://app?vid=38ddb0aa-9db2-456c-9867-9298441dc275"},"vehicle_type_id":"4","last_reported":1742451268,"current_range_meters":14000,"station_id":"ce4bgh92rcd13ifvqb50","pricing_plan_id":"cebpf4jnsgd1na2vs0mg"},{"bike_id":"ae792e20-bbd3-4c41-9e4b-77e89a2330d4","system_id":"levelo_inurba_marseille","lat":43.30452,"lon":5.37904,"is_reserved":false,"is_disabled":false,"rental_uris":{"android":"levelo://app?vid=ae792e20-bbd3-4c41-9e4b-77e89a2330d4","ios":"levelo://app?vid=ae792e20-bbd3-4c41-9e4b-77e89a2330d4"},"vehicle_type_id":"4","last_reported":1742451268,"current_range_meters":14000,"station_id":"ce4bgup2rcd13ifvqcn0","pricing_plan_id":"cebpf4jnsgd1na2vs0mg"},{"bike_id":"e913b0cd-b2a6-4678-bba9-91b2476e2c22","system_id":"levelo_inurba_marseille","lat":43.241749,"lon":5.397317,"is_reserved":false,"is_disabled":false,"rental_uris":{"android":"levelo://app?vid=e913b0cd-b2a6-4678-bba9-91b2476e2c22","ios":"levelo://app?vid=e913b0cd-b2a6-4678-bba9-91b2476e2c22"},"vehicle_type_id":"4","last_reported":1742451268,"current_range_meters":14000,"station_id":"ce4bhn12rcd13ifvqgpg","pricing_plan_id":"cebpf4jnsgd1na2vs0mg"},{"bike_id":"39a69217-5beb-4b90-9aec-4a4defd7fd6e","system_id":"levelo_inurba_marseille","lat":43.31159,"lon":5.38741,"is_reserved":false,"is_disabled":false,"rental_uris":{"android":"levelo://app?vid=39a69217-5beb-4b90-9aec-4a4defd7fd6e","ios":"levelo://app?vid=39a69217-5beb-4b90-9aec-4a4defd7fd6e"},"vehicle_type_id":"4","last_reported":1742451268,"current_range_meters":14000,"station_id":"ce4bgv12rcd13ifvqcp0","pricing_plan_id":"cebpf4jnsgd1na2vs0mg"},{"bike_id":"7676f911-79e0-4de7-aca9-dcff942e9bd4","system_id":"levelo_inurba_marseille","lat":43.28608,"lon":5.35125,"is_reserved":false,"is_disabled":false,"rental_uris":{"android":"levelo://app?vid=7676f911-79e0-4de7-aca9-dcff942e9bd4","ios":"levelo://app?vid=7676f911-79e0-4de7-aca9-dcff942e9bd4"},"vehicle_type_id":"4","last_reported":1742451268,"current_range_meters":14000,"station_id":"ce4bhch2rcd13ifvqeug","pricing_plan_id":"cebpf4jnsgd1na2vs0mg"},{"bike_id":"1254f4f7-3d3a-4cff-851d-2ec6924cc15c","system_id":"levelo_inurba_marseille","lat":43.28358,"lon":5.38082,"is_reserved":false,"is_disabled":false,"rental_uris":{"android":"levelo://app?vid=1254f4f7-3d3a-4cff-851d-2ec6924cc15c","ios":"levelo://app?vid=1254f4f7-3d3a-4cff-851d-2ec6924cc15c"},"vehicle_type_id":"4","last_reported":1742451268,"current_range_meters":14000,"station_id":"ce4bh412rcd13ifvqdr0","pricing_plan_id":"cebpf4jnsgd1na2vs0mg"},{"bike_id":"cc0bfdbb-2155-4845-94ef-938a21d7b70e","system_id":"levelo_inurba_marseille","lat":43.28626,"lon":5.35114,"is_reserved":false,"is_disabled":false,"rental_uris":{"android":"levelo://app?vid=cc0bfdbb-2155-4845-94ef-938a21d7b70e","ios":"levelo://app?vid=cc0bfdbb-2155-4845-94ef-938a21d7b70e"},"vehicle_type_id":"4","last_reported":1742451268,"current_range_meters":14000,"station_id":"ce4bhch2rcd13ifvqeug","pricing_plan_id":"cebpf4jnsgd1na2vs0mg"},{"bike_id":"52e02280-5fd5-419b-aecb-4c9645b42c0f","system_id":"levelo_inurba_marseille","lat":43.33018,"lon":5.39049,"is_reserved":false,"is_disabled":false,"rental_uris":{"android":"levelo://app?vid=52e02280-5fd5-419b-aecb-4c9645b42c0f","ios":"levelo://app?vid=52e02280-5fd5-419b-aecb-4c9645b42c0f"},"vehicle_type_id":"4","last_reported":1742451268,"current_range_meters":14000,"station_id":"ce4bhr92rcd13ifvqhrg","pricing_plan_id":"cebpf4jnsgd1na2vs0mg"},{"bike_id":"221a3e15-9ce7-46f8-9a5e-0566ead9a333","system_id":"levelo_inurba_marseille","lat":43.292595,"lon":5.384376,"is_reserved":false,"is_disabled":true,"rental_uris":{"android":"levelo://app?vid=221a3e15-9ce7-46f8-9a5e-0566ead9a333","ios":"levelo://app?vid=221a3e15-9ce7-46f8-9a5e-0566ead9a333"},"vehicle_type_id":"4","last_reported":1742451268,"current_range_meters":14000,"station_id":"ce4bh692rcd13ifvqea0","pricing_plan_id":"cebpf4jnsgd1na2vs0mg"},{"bike_id":"48857df4-75c2-4487-bbcb-2a3253d57efd","system_id":"levelo_inurba_marseille","lat":43.30637,"lon":5.40078,"is_reserved":false,"is_disabled":false,"rental_uris":{"android":"levelo://app?vid=48857df4-75c2-4487-bbcb-2a3253d57efd","ios":"levelo://app?vid=48857df4-75c2-4487-bbcb-2a3253d57efd"},"vehicle_type_id":"4","last_reported":1742451268,"current_range_meters":14400,"station_id":"ce4bh112rcd13ifvqda0","pricing_plan_id":"cebpf4jnsgd1na2vs0mg"},{"bike_id":"1c3b5361-695c-4ccc-94f9-aca7f37b6d45","system_id":"levelo_inurba_marseille","lat":43.2319,"lon":5.3557,"is_reserved":false,"is_disabled":false,"rental_uris":{"android":"levelo://app?vid=1c3b5361-695c-4ccc-94f9-aca7f37b6d45","ios":"levelo://app?vid=1c3b5361-695c-4ccc-94f9-aca7f37b6d45"},"vehicle_type_id":"4","last_reported":1742451268,"current_range_meters":14800,"station_id":"ce4bhu92rcd13ifvqi70","pricing_plan_id":"cebpf4jnsgd1na2vs0mg"},{"bike_id":"9159ea76-4d64-483e-8e93-86b494652aa9","system_id":"levelo_inurba_marseille","lat":43.31762,"lon":5.39032,"is_reserved":false,"is_disabled":false,"rental_uris":{"android":"levelo://app?vid=9159ea76-4d64-483e-8e93-86b494652aa9","ios":"levelo://app?vid=9159ea76-4d64-483e-8e93-86b494652aa9"},"vehicle_type_id":"4","last_reported":1742451268,"current_range_meters":14800,"station_id":"ce4bhqp2rcd13ifvqhng","pricing_plan_id":"cebpf4jnsgd1na2vs0mg"},{"bike_id":"08f5fdec-a33c-49db-864f-89f0718e881a","system_id":"levelo_inurba_marseille","lat":43.31247,"lon":5.40194,"is_reserved":false,"is_disabled":false,"rental_uris":{"android":"levelo://app?vid=08f5fdec-a33c-49db-864f-89f0718e881a","ios":"levelo://app?vid=08f5fdec-a33c-49db-864f-89f0718e881a"},"vehicle_type_id":"4","last_reported":1742451268,"current_range_meters":14800,"station_id":"ce4bh092rcd13ifvqd30","pricing_plan_id":"cebpf4jnsgd1na2vs0mg"},{"bike_id":"0083c39b-0cd3-4517-887e-db4196ac9ffa","system_id":"levelo_inurba_marseille","lat":43.28455,"lon":5.35889,"is_reserved":false,"is_disabled":false,"rental_uris":{"android":"levelo://app?vid=0083c39b-0cd3-4517-887e-db4196ac9ffa","ios":"levelo://app?vid=0083c39b-0cd3-4517-887e-db4196ac9ffa"},"vehicle_type_id":"4","last_reported":1742451268,"current_range_meters":14800,"station_id":"ce4bhah2rcd13ifvqei0","pricing_plan_id":"cebpf4jnsgd1na2vs0mg"},{"bike_id":"242d0c87-729d-4343-8ca0-b9a1ca8c1938","system_id":"levelo_inurba_marseille","lat":43.30817,"lon":5.38162,"is_reserved":false,"is_disabled":true,"rental_uris":{"android":"levelo://app?vid=242d0c87-729d-4343-8ca0-b9a1ca8c1938","ios":"levelo://app?vid=242d0c87-729d-4343-8ca0-b9a1ca8c1938"},"vehicle_type_id":"4","last_reported":1742451268,"current_range_meters":14800,"station_id":"ce4bgt12rcd13ifvqce0","pricing_plan_id":"cebpf4jnsgd1na2vs0mg"},{"bike_id":"742d5bb2-2d26-4d22-9b25-bb5813444828","system_id":"levelo_inurba_marseille","lat":43.281094,"lon":5.378288,"is_reserved":false,"is_disabled":false,"rental_uris":{"android":"levelo://app?vid=742d5bb2-2d26-4d22-9b25-bb5813444828","ios":"levelo://app?vid=742d5bb2-2d26-4d22-9b25-bb5813444828"},"vehicle_type_id":"4","last_reported":1742451268,"current_range_meters":14800,"station_id":"ce4bha12rcd13ifvqee0","pricing_plan_id":"cebpf4jnsgd1na2vs0mg"},{"bike_id":"2bee0cdd-e772-4a1c-a7be-9706af8844a0","system_id":"levelo_inurba_marseille","lat":43.336101,"lon":5.410368,"is_reserved":false,"is_disabled":false,"rental_uris":{"android":"levelo://app?vid=2bee0cdd-e772-4a1c-a7be-9706af8844a0","ios":"levelo://app?vid=2bee0cdd-e772-4a1c-a7be-9706af8844a0"},"vehicle_type_id":"4","last_reported":1742451268,"current_range_meters":14400,"station_id":"ce4bhq92rcd13ifvqhkg","pricing_plan_id":"cebpf4jnsgd1na2vs0mg"},{"bike_id":"ed4986d4-2975-4cc1-bdce-313b3d9492df","system_id":"levelo_inurba_marseille","lat":43.3133,"lon":5.39716,"is_reserved":false,"is_disabled":false,"rental_uris":{"android":"levelo://app?vid=ed4986d4-2975-4cc1-bdce-313b3d9492df","ios":"levelo://app?vid=ed4986d4-2975-4cc1-bdce-313b3d9492df"},"vehicle_type_id":"4","last_reported":1742451268,"current_range_meters":14800,"station_id":"ce4bgvp2rcd13ifvqcu0","pricing_plan_id":"cebpf4jnsgd1na2vs0mg"},{"bike_id":"42510201-02b4-4f38-82bc-9dc134d4342c","system_id":"levelo_inurba_marseille","lat":43.229292,"lon":5.353773,"is_reserved":false,"is_disabled":false,"rental_uris":{"android":"levelo://app?vid=42510201-02b4-4f38-82bc-9dc134d4342c","ios":"levelo://app?vid=42510201-02b4-4f38-82bc-9dc134d4342c"},"vehicle_type_id":"4","last_reported":1742451268,"current_range_meters":14800,"station_id":"cpo3532slgdg3j2ikp40","pricing_plan_id":"cebpf4jnsgd1na2vs0mg"},{"bike_id":"66892a55-e6cc-4b7a-b6a4-82e54fdbcfb5","system_id":"levelo_inurba_marseille","lat":43.255808,"lon":5.382355,"is_reserved":false,"is_disabled":false,"rental_uris":{"android":"levelo://app?vid=66892a55-e6cc-4b7a-b6a4-82e54fdbcfb5","ios":"levelo://app?vid=66892a55-e6cc-4b7a-b6a4-82e54fdbcfb5"},"vehicle_type_id":"4","last_reported":1742451268,"current_range_meters":14800,"station_id":"ce4bhih2rcd13ifvqfs0","pricing_plan_id":"cebpf4jnsgd1na2vs0mg"},{"bike_id":"ea9c099e-cd33-406a-9fa7-4fde7c8e9bfd","system_id":"levelo_inurba_marseille","lat":43.278361,"lon":5.392013,"is_reserved":false,"is_disabled":false,"rental_uris":{"android":"levelo://app?vid=ea9c099e-cd33-406a-9fa7-4fde7c8e9bfd","ios":"levelo://app?vid=ea9c099e-cd33-406a-9fa7-4fde7c8e9bfd"},"vehicle_type_id":"4","last_reported":1742451268,"current_range_meters":14800,"station_id":"ce4bhjp2rcd13ifvqga0","pricing_plan_id":"cebpf4jnsgd1na2vs0mg"},{"bike_id":"c9135a37-b5cf-4ab5-a4b4-871623087c9f","system_id":"levelo_inurba_marseille","lat":43.28619,"lon":5.35111,"is_reserved":false,"is_disabled":false,"rental_uris":{"android":"levelo://app?vid=c9135a37-b5cf-4ab5-a4b4-871623087c9f","ios":"levelo://app?vid=c9135a37-b5cf-4ab5-a4b4-871623087c9f"},"vehicle_type_id":"4","last_reported":1742451268,"current_range_meters":14800,"station_id":"ce4bhch2rcd13ifvqeug","pricing_plan_id":"cebpf4jnsgd1na2vs0mg"},{"bike_id":"c7e065a6-13cc-4268-8199-03fb9500a572","system_id":"levelo_inurba_marseille","lat":43.30885,"lon":5.39652,"is_reserved":false,"is_disabled":false,"rental_uris":{"android":"levelo://app?vid=c7e065a6-13cc-4268-8199-03fb9500a572","ios":"levelo://app?vid=c7e065a6-13cc-4268-8199-03fb9500a572"},"vehicle_type_id":"4","last_reported":1742451268,"current_range_meters":15200,"station_id":"ce4bh012rcd13ifvqcv0","pricing_plan_id":"cebpf4jnsgd1na2vs0mg"},{"bike_id":"78de8420-610c-4e7e-aabe-183adf2a5c6d","system_id":"levelo_inurba_marseille","lat":43.29625,"lon":5.40641,"is_reserved":false,"is_disabled":false,"rental_uris":{"android":"levelo://app?vid=78de8420-610c-4e7e-aabe-183adf2a5c6d","ios":"levelo://app?vid=78de8420-610c-4e7e-aabe-183adf2a5c6d"},"vehicle_type_id":"4","last_reported":1742451268,"current_range_meters":15200,"station_id":"ce4bh0h2rcd13ifvqd60","pricing_plan_id":"cebpf4jnsgd1na2vs0mg"},{"bike_id":"55466d20-2fe5-4894-8780-73a9f5feff97","system_id":"levelo_inurba_marseille","lat":43.30536,"lon":5.36543,"is_reserved":false,"is_disabled":false,"rental_uris":{"android":"levelo://app?vid=55466d20-2fe5-4894-8780-73a9f5feff97","ios":"levelo://app?vid=55466d20-2fe5-4894-8780-73a9f5feff97"},"vehicle_type_id":"4","last_reported":1742451268,"current_range_meters":15200,"station_id":"ce4bgs12rcd13ifvqcag","pricing_plan_id":"cebpf4jnsgd1na2vs0mg"},{"bike_id":"447fc40f-c156-48b2-bdb8-80589da3d03a","system_id":"levelo_inurba_marseille","lat":43.29046,"lon":5.35925,"is_reserved":false,"is_disabled":false,"rental_uris":{"android":"levelo://app?vid=447fc40f-c156-48b2-bdb8-80589da3d03a","ios":"levelo://app?vid=447fc40f-c156-48b2-bdb8-80589da3d03a"},"vehicle_type_id":"4","last_reported":1742451268,"current_range_meters":15200,"station_id":"ce4bha92rcd13ifvqeg0","pricing_plan_id":"cebpf4jnsgd1na2vs0mg"},{"bike_id":"5f70d216-c22b-4aba-8c0c-4a1deab6ce2e","system_id":"levelo_inurba_marseille","lat":43.29896,"lon":5.43667,"is_reserved":false,"is_disabled":false,"rental_uris":{"android":"levelo://app?vid=5f70d216-c22b-4aba-8c0c-4a1deab6ce2e","ios":"levelo://app?vid=5f70d216-c22b-4aba-8c0c-4a1deab6ce2e"},"vehicle_type_id":"4","last_reported":1742451268,"current_range_meters":15200,"station_id":"ce4bhpp2rcd13ifvqhfg","pricing_plan_id":"cebpf4jnsgd1na2vs0mg"},{"bike_id":"41c82bb9-7dbf-4fb5-a762-0733f7633f1f","system_id":"levelo_inurba_marseille","lat":43.23191,"lon":5.39983,"is_reserved":false,"is_disabled":false,"rental_uris":{"android":"levelo://app?vid=41c82bb9-7dbf-4fb5-a762-0733f7633f1f","ios":"levelo://app?vid=41c82bb9-7dbf-4fb5-a762-0733f7633f1f"},"vehicle_type_id":"4","last_reported":1742451268,"current_range_meters":15200,"station_id":"ce4bhn12rcd13ifvqgqg","pricing_plan_id":"cebpf4jnsgd1na2vs0mg"},{"bike_id":"a80bfe04-b810-460f-a38c-85945e8d49d0","system_id":"levelo_inurba_marseille","lat":43.2359,"lon":5.40335,"is_reserved":false,"is_disabled":false,"rental_uris":{"android":"levelo://app?vid=a80bfe04-b810-460f-a38c-85945e8d49d0","ios":"levelo://app?vid=a80bfe04-b810-460f-a38c-85945e8d49d0"},"vehicle_type_id":"4","last_reported":1742451268,"current_range_meters":15200,"station_id":"","pricing_plan_id":"cebpf4jnsgd1na2vs0mg"},{"bike_id":"9c0a63bd-9ef3-43c4-baab-c06e2953cc79","system_id":"levelo_inurba_marseille","lat":43.239594,"lon":5.366336,"is_reserved":false,"is_disabled":false,"rental_uris":{"android":"levelo://app?vid=9c0a63bd-9ef3-43c4-baab-c06e2953cc79","ios":"levelo://app?vid=9c0a63bd-9ef3-43c4-baab-c06e2953cc79"},"vehicle_type_id":"4","last_reported":1742451268,"current_range_meters":15200,"station_id":"ce4bhi12rcd13ifvqfp0","pricing_plan_id":"cebpf4jnsgd1na2vs0mg"},{"bike_id":"c9647eb6-bafe-434e-86f1-79017f496748","system_id":"levelo_inurba_marseille","lat":43.296283,"lon":5.406081,"is_reserved":false,"is_disabled":false,"rental_uris":{"android":"levelo://app?vid=c9647eb6-bafe-434e-86f1-79017f496748","ios":"levelo://app?vid=c9647eb6-bafe-434e-86f1-79017f496748"},"vehicle_type_id":"4","last_reported":1742451268,"current_range_meters":15200,"station_id":"ce4bh0h2rcd13ifvqd60","pricing_plan_id":"cebpf4jnsgd1na2vs0mg"},{"bike_id":"efa41dec-8788-4e2f-a626-5382e4fd9366","system_id":"levelo_inurba_marseille","lat":43.319986,"lon":5.381621,"is_reserved":false,"is_disabled":false,"rental_uris":{"android":"levelo://app?vid=efa41dec-8788-4e2f-a626-5382e4fd9366","ios":"levelo://app?vid=efa41dec-8788-4e2f-a626-5382e4fd9366"},